MessageType,Provider,LatitudeDegrees,LongitudeDegrees,AltitudeMeters,SpeedMps,AccuracyMeters,BearingDegrees,UnixTimeMillis
Fix,GT,37.4153936,-122.0803705,,0.0025635408,0.1,178.66296,1591811323447
Fix,GT,37.4153936,-122.0803705,,0.0018685579,0.1,178.66211,1591811324447
Fix,GT,37.4153936,-122.0803705,,0.0012289889,0.1,178.66132,1591811325447
Fix,GT,37.4153936,-122.0803705,,0.001,0.1,178.66113,1591811326447
Fix,GT,37.4153936,-122.0803705,,0.001,0.1,178.66113,1591811327447
Fix,GT,37.4153936,-122.0803705,,0.001,0.1,178.66113,1591811328447
Fix,GT,37.4153936,-122.0803705,,0.001552735,0.1,178.66089,1591811329447
Fix,GT,37.4153936,-122.0803705,,0.002650243,0.1,178.6604,1591811330447
Fix,GT,37.4153936,-122.0803705,,0.0026425396,0.1,178.65967,1591811331447
Fix,GT,37.4153936,-122.0803705,,0.002105563,0.1,178.65955,1591811332447
Fix,GT,37.4153936,-122.0803705,,0.001236161,0.1,178.65942,1591811333447
Fix,GT,37.4153936,-122.0803705,,0.0,0.1,178.65906,1591811334447
Fix,GT,37.4153936,-122.0803705,,0.000447172,0.1,178.65826,1591811335447
Fix,GT,37.4153936,-122.0803705,,0.0011852246,0.1,178.65741,1591811336447
Fix,GT,37.4153936,-122.0803705,,0.0012289889,0.1,178.65674,1591811337447
Fix,GT,37.4153936,-122.0803705,,0.001,0.1,178.65637,1591811338447
Fix,GT,37.4153936,-122.0803705,,0.001,0.1,178.65594,1591811339447
Fix,GT,37.4153936,-122.0803705,,0.001552735,0.1,178.65552,1591811340447
Fix,GT,37.4153936,-122.0803705,,0.002236068,0.1,178.65503,1591811341447
Fix,GT,37.4153936,-122.0803705,,0.0025009543,0.1,178.65424,1591811342447
Fix,GT,37.4153936,-122.0803705,,0.0031759352,0.1,178.65393,1591811343447
Fix,GT,37.4153936,-122.0803705,,0.003836987,0.1,178.65387,1591811344447
Fix,GT,37.4153936,-122.0803705,,0.0041231057,0.1,178.65356,1591811345447
Fix,GT,37.4153936,-122.0803705,,0.0036208841,0.1,178.65344,1591811346447
Fix,GT,37.4153936,-122.0803705,,0.003894344,0.1,178.65283,1591811347447
Fix,GT,37.4153936,-122.0803705,,0.0043764417,0.1,178.65125,1591811348447
Fix,GT,37.4153936,-122.0803705,,0.003836987,0.1,178.65045,1591811349447
Fix,GT,37.4153936,-122.0803705,,0.0031737122,0.1,178.65009,1591811350447
Fix,GT,37.4153936,-122.0803705,,0.0017380527,0.1,178.64996,1591811351447
Fix,GT,37.4153936,-122.0803705,,0.0017817239,0.1,178.65002,1591811352447
Fix,GT,37.4153936,-122.0803705,,0.001683333,0.1,178.6496,1591811353447
Fix,GT,37.4153936,-122.0803705,,0.002788688,0.1,178.64917,1591811354447
Fix,GT,37.4153936,-122.0803705,,0.004028933,0.1,178.6485,1591811355447
Fix,GT,37.4153936,-122.0803705,,0.0020108055,0.1,178.64728,1591811356447
Fix,GT,37.4153936,-122.0803705,,0.001,0.1,178.6471,1591811357447
Fix,GT,37.4153936,-122.0803705,,0.0011852247,0.1,178.64734,1591811358447
Fix,GT,37.4153936,-122.0803705,,0.0012289889,0.1,178.64642,1591811359447
Fix,GT,37.4153936,-122.0803705,,0.001,0.1,178.64539,1591811360447
Fix,GT,37.4153936,-122.0803705,,0.0014471721,0.1,178.64539,1591811361447
Fix,GT,37.4153936,-122.0803705,,0.001552828,0.1,178.64526,1591811362447
Fix,GT,37.4153936,-122.0803705,,0.001,0.1,178.64465,1591811363447
Fix,GT,37.4153936,-122.0803705,,0.000552828,0.1,178.64374,1591811364447
Fix,GT,37.4153936,-122.0803705,,0.000447172,0.1,178.64294,1591811365447
Fix,GT,37.4153936,-122.0803705,,0.0011852247,0.1,178.64264,1591811366447
Fix,GT,37.4153936,-122.0803705,,0.0014142136,0.1,178.64209,1591811367447
Fix,GT,37.4153938,-122.0803705,,0.0020466102,0.1,178.64221,1591811368447
Fix,GT,37.4153941,-122.0803704,,0.0035634479,0.1,178.64252,1591811369447
Fix,GT,37.4153942,-122.0803704,,0.0056343055,0.1,178.64197,1591811370447
Fix,GT,37.4153942,-122.0803705,,0.0074016093,0.1,178.64087,1591811371447
Fix,GT,37.4153942,-122.0803705,,0.0078102495,0.1,178.63953,1591811372447
Fix,GT,37.4153941,-122.0803706,,0.048590016,0.1,178.6261,1591811373447
Fix,GT,37.4153932,-122.0803706,,0.17826883,0.1,178.60907,1591811374447
Fix,GT,37.4153909,-122.0803705,,0.32639384,0.1,178.6073,1591811375447
Fix,GT,37.4153873,-122.0803703,,0.51818234,0.1,178.59912,1591811376447
Fix,GT,37.4153789,-122.0803696,,1.4934294,0.1,178.3454,1591811377447
Fix,GT,37.4153575,-122.0803674,,3.369644,0.1,177.45532,1591811378447
Fix,GT,37.4153198,-122.0803626,,4.9198937,0.1,176.2326,1591811379447
Fix,GT,37.4152713,-122.080356,,5.6919193,0.1,175.53125,1591811380447
Fix,GT,37.4152197,-122.0803451,,5.9354763,0.1,170.7323,1591811381447
Fix,GT,37.4151715,-122.080322,,5.684453,0.1,158.06616,1591811382447
Fix,GT,37.4151332,-122.0802857,,5.180042,0.1,141.88629,1591811383447
Fix,GT,37.4151087,-122.0802408,,4.7604666,0.1,123.79196,1591811384447
Fix,GT,37.4150987,-122.0801927,,4.3612366,0.1,104.64581,1591811385447
Fix,GT,37.4151019,-122.0801466,,4.2437186,0.1,86.40488,1591811386447
Fix,GT,37.4151145,-122.0801003,,4.682003,0.1,73.60376,1591811387447
Fix,GT,37.4151326,-122.0800476,,5.5737143,0.1,68.60181,1591811388447
Fix,GT,37.415155,-122.0799855,,6.562173,0.1,67.05759,1591811389447
Fix,GT,37.4151813,-122.0799148,,7.16331,0.1,66.6178,1591811390447
Fix,GT,37.4152084,-122.0798413,,7.0515175,0.1,66.921265,1591811391447
Fix,GT,37.4152338,-122.07977,,6.7997665,0.1,67.67206,1591811392447
Fix,GT,37.4152576,-122.0797002,,6.6300683,0.1,68.62256,1591811393447
Fix,GT,37.4152793,-122.0796332,,6.1236024,0.1,69.53793,1591811394447
Fix,GT,37.415298,-122.0795731,,5.1315484,0.1,70.239685,1591811395447
Fix,GT,37.4153122,-122.0795269,,3.5202923,0.1,70.27902,1591811396447
Fix,GT,37.4153211,-122.0794987,,2.0651364,0.1,69.88733,1591811397447
Fix,GT,37.4153271,-122.0794784,,2.100985,0.1,70.428345,1591811398447
Fix,GT,37.4153344,-122.0794506,,3.2100182,0.1,72.58475,1591811399447
Fix,GT,37.4153437,-122.0794074,,4.6784644,0.1,76.007324,1591811400447
Fix,GT,37.4153541,-122.0793482,,6.0482745,0.1,79.21039,1591811401447
Fix,GT,37.4153663,-122.0792743,,7.3046885,0.1,79.72681,1591811402447
Fix,GT,37.4153834,-122.0791873,,8.614538,0.1,77.09137,1591811403447
Fix,GT,37.4154078,-122.0790875,,9.860411,0.1,74.13223,1591811404447
Fix,GT,37.4154372,-122.0789774,,10.622547,0.1,72.98923,1591811405447
Fix,GT,37.4154683,-122.0788624,,10.8552265,0.1,72.987885,1591811406447
Fix,GT,37.4154987,-122.0787477,,10.52397,0.1,73.71503,1591811407447
Fix,GT,37.4155243,-122.0786385,,9.568121,0.1,76.62207,1591811408447
Fix,GT,37.4155409,-122.0785389,,8.333855,0.1,81.91745,1591811409447
Fix,GT,37.4155481,-122.0784535,,6.823967,0.1,87.36676,1591811410447
Fix,GT,37.4155492,-122.0783857,,5.1091366,0.1,91.9653,1591811411447
Fix,GT,37.4155467,-122.0783373,,3.4856877,0.1,96.68826,1591811412447
Fix,GT,37.4155419,-122.0783046,,2.5181952,0.1,103.113434,1591811413447
Fix,GT,37.4155328,-122.0782774,,2.8990183,0.1,113.11273,1591811414447
Fix,GT,37.4155124,-122.0782475,,4.1670084,0.1,130.28287,1591811415447
Fix,GT,37.4154729,-122.0782221,,5.593658,0.1,155.15039,1591811416447
Fix,GT,37.415416,-122.0782113,,7.08649,0.1,174.32239,1591811417447
Fix,GT,37.4153443,-122.0782095,,8.766159,0.1,180.80792,1591811418447
Fix,GT,37.4152588,-122.0782106,,10.2368355,0.1,182.65862,1591811419447
Fix,GT,37.415161,-122.0782134,,11.46212,0.1,183.10854,1591811420447
Fix,GT,37.4150532,-122.0782161,,12.476524,0.1,182.70425,1591811421447
Fix,GT,37.4149369,-122.0782171,,13.366951,0.1,181.89351,1591811422447
Fix,GT,37.4148128,-122.0782168,,14.22893,0.1,181.59552,1591811423447
Fix,GT,37.414681,-122.0782168,,14.999197,0.1,181.97958,1591811424447
Fix,GT,37.4145437,-122.0782193,,15.380978,0.1,183.06934,1591811425447
Fix,GT,37.4144053,-122.0782266,,15.32855,0.1,184.98639,1591811426447
Fix,GT,37.4142683,-122.0782401,,15.187162,0.1,187.19864,1591811427447
Fix,GT,37.414133,-122.0782601,,15.03699,0.1,189.4254,1591811428447
Fix,GT,37.4139998,-122.0782861,,14.882658,0.1,191.23888,1591811429447
Fix,GT,37.4138685,-122.0783132,,14.723586,0.1,190.91524,1591811430447
Fix,GT,37.4137378,-122.0783361,,14.578826,0.1,189.31378,1591811431447
Fix,GT,37.4136078,-122.0783569,,14.504769,0.1,189.22072,1591811432447
Fix,GT,37.4134785,-122.0783797,,14.473184,0.1,190.38908,1591811433447
Fix,GT,37.4133504,-122.0784085,,14.334906,0.1,193.56906,1591811434447
Fix,GT,37.4132268,-122.0784517,,14.114094,0.1,200.3443,1591811435447
Fix,GT,37.4131115,-122.0785171,,13.985719,0.1,210.07166,1591811436447
Fix,GT,37.4130091,-122.078608,,13.931568,0.1,221.62563,1591811437447
Fix,GT,37.412925,-122.0787251,,14.034718,0.1,235.20963,1591811438447
Fix,GT,37.4128662,-122.0788667,,14.380371,0.1,250.25266,1591811439447
Fix,GT,37.4128375,-122.0790269,,14.773753,0.1,264.7745,1591811440447
Fix,GT,37.4128375,-122.0791959,,15.169039,0.1,276.07263,1591811441447
Fix,GT,37.4128605,-122.0793671,,15.573608,0.1,284.63507,1591811442447
Fix,GT,37.412902,-122.0795376,,16.025085,0.1,291.4129,1591811443447
Fix,GT,37.4129581,-122.0797078,,16.574238,0.1,295.74783,1591811444447
Fix,GT,37.4130234,-122.0798799,,17.169294,0.1,298.08148,1591811445447
Fix,GT,37.4130953,-122.0800554,,17.775162,0.1,299.60376,1591811446447
Fix,GT,37.4131732,-122.0802349,,18.412216,0.1,300.9284,1591811447447
Fix,GT,37.4132571,-122.0804186,,19.06506,0.1,302.04056,1591811448447
Fix,GT,37.413346,-122.080607,,19.700867,0.1,302.7145,1591811449447
Fix,GT,37.4134393,-122.0808005,,20.338646,0.1,303.28354,1591811450447
Fix,GT,37.4135377,-122.0809987,,20.989887,0.1,304.24228,1591811451447
Fix,GT,37.4136439,-122.0811991,,21.610191,0.1,306.63998,1591811452447
Fix,GT,37.4137619,-122.0813971,,22.160694,0.1,310.3687,1591811453447
Fix,GT,37.4138927,-122.0815897,,22.561272,0.1,313.70074,1591811454447
Fix,GT,37.4140316,-122.0817775,,22.686811,0.1,315.30423,1591811455447
Fix,GT,37.4141723,-122.0819637,,22.734913,0.1,315.02753,1591811456447
Fix,GT,37.4143101,-122.0821544,,22.93074,0.1,312.85553,1591811457447
Fix,GT,37.4144406,-122.082357,,23.312538,0.1,309.01498,1591811458447
Fix,GT,37.4145615,-122.0825752,,23.872997,0.1,304.61862,1591811459447
Fix,GT,37.4146725,-122.0828106,,24.653868,0.1,300.851,1591811460447
Fix,GT,37.414779,-122.0830608,,25.601585,0.1,299.56427,1591811461447
Fix,GT,37.4148892,-122.0833209,,26.518307,0.1,300.0757,1591811462447
Fix,GT,37.4150066,-122.0835868,,27.251337,0.1,301.54962,1591811463447
Fix,GT,37.4151352,-122.0838527,,27.71872,0.1,304.48672,1591811464447
Fix,GT,37.4152768,-122.0841128,,28.058807,0.1,307.7001,1591811465447
Fix,GT,37.4154303,-122.0843675,,28.454296,0.1,310.02246,1591811466447
Fix,GT,37.4155929,-122.084619,,28.855217,0.1,311.5739,1591811467447
Fix,GT,37.415762,-122.0848697,,29.26032,0.1,312.39276,1591811468447
Fix,GT,37.4159351,-122.0851218,,29.645786,0.1,312.68118,1591811469447
Fix,GT,37.416111,-122.0853764,,29.988195,0.1,312.58368,1591811470447
Fix,GT,37.4162879,-122.085635,,30.343239,0.1,312.21024,1591811471447
Fix,GT,37.416465,-122.0858988,,30.722527,0.1,311.70102,1591811472447
Fix,GT,37.4166442,-122.0861664,,31.133022,0.1,312.06323,1591811473447
Fix,GT,37.4168284,-122.0864346,,31.50853,0.1,312.9821,1591811474447
Fix,GT,37.4170173,-122.0867028,,31.798328,0.1,313.5299,1591811475447
Fix,GT,37.417209,-122.0869711,,31.927471,0.1,313.92023,1591811476447
Fix,GT,37.4174019,-122.0872385,,31.8955,0.1,314.08875,1591811477447
Fix,GT,37.4175951,-122.0875049,,31.867445,0.1,314.20462,1591811478447
Fix,GT,37.4177884,-122.0877712,,31.891945,0.1,314.10352,1591811479447
Fix,GT,37.4179814,-122.0880386,,31.998856,0.1,313.92914,1591811480447
Fix,GT,37.4181751,-122.0883076,,32.164738,0.1,313.97208,1591811481447
Fix,GT,37.41837,-122.0885779,,32.33645,0.1,313.92548,1591811482447
Fix,GT,37.4185655,-122.08885,,32.483795,0.1,313.79663,1591811483447
Fix,GT,37.4187615,-122.0891236,,32.601677,0.1,313.76718,1591811484447
Fix,GT,37.4189583,-122.0893979,,32.711117,0.1,313.8813,1591811485447
Fix,GT,37.4191563,-122.0896726,,32.828354,0.1,314.119,1591811486447
Fix,GT,37.4193559,-122.0899473,,32.96389,0.1,314.23755,1591811487447
Fix,GT,37.4195564,-122.0902229,,33.092552,0.1,314.06076,1591811488447
Fix,GT,37.4197568,-122.0905005,,33.19653,0.1,313.9952,1591811489447
Fix,GT,37.4199582,-122.0907788,,33.295395,0.1,314.24765,1591811490447
Fix,GT,37.420161,-122.0910569,,33.419044,0.1,314.31735,1591811491447
Fix,GT,37.4203646,-122.0913363,,33.58046,0.1,314.21722,1591811492447
Fix,GT,37.4205687,-122.0916175,,33.73284,0.1,314.10315,1591811493447
Fix,GT,37.4207731,-122.0919004,,33.853928,0.1,314.05478,1591811494447
Fix,GT,37.4209784,-122.0921841,,33.934296,0.1,314.16602,1591811495447
Fix,GT,37.4211846,-122.0924674,,33.95161,0.1,314.2738,1591811496447
Fix,GT,37.42139,-122.0927513,,33.931232,0.1,313.6414,1591811497447
Fix,GT,37.4215919,-122.0930391,,33.92476,0.1,312.68713,1591811498447
Fix,GT,37.4217913,-122.0933298,,33.946983,0.1,312.6245,1591811499447
Fix,GT,37.4219919,-122.0936191,,33.905216,0.1,313.21408,1591811500447
Fix,GT,37.4221944,-122.093905,,33.779762,0.1,313.6943,1591811501447
Fix,GT,37.4223974,-122.0941883,,33.637363,0.1,313.84045,1591811502447
Fix,GT,37.4226001,-122.0944696,,33.490505,0.1,313.99316,1591811503447
Fix,GT,37.422802,-122.0947495,,33.32334,0.1,313.91174,1591811504447
Fix,GT,37.4230027,-122.0950283,,33.14186,0.1,313.92993,1591811505447
Fix,GT,37.4232028,-122.0953045,,32.887337,0.1,314.2313,1591811506447
Fix,GT,37.4234018,-122.0955769,,32.501408,0.1,314.36725,1591811507447
Fix,GT,37.4235983,-122.0958461,,32.09196,0.1,314.24854,1591811508447
Fix,GT,37.4237919,-122.0961127,,31.761683,0.1,314.07016,1591811509447
Fix,GT,37.4239836,-122.0963771,,31.50732,0.1,314.27087,1591811510447
Fix,GT,37.4241753,-122.096638,,31.27914,0.1,314.79214,1591811511447
Fix,GT,37.4243675,-122.096895,,31.14323,0.1,315.1448,1591811512447
Fix,GT,37.42456,-122.0971515,,31.254879,0.1,314.9949,1591811513447
Fix,GT,37.4247534,-122.09741,,31.484474,0.1,315.23267,1591811514447
Fix,GT,37.4249505,-122.0976676,,31.68974,0.1,316.1892,1591811515447
Fix,GT,37.4251527,-122.0979218,,31.90116,0.1,317.39758,1591811516447
Fix,GT,37.4253607,-122.0981721,,32.088684,0.1,318.7675,1591811517447
Fix,GT,37.425575,-122.0984172,,32.267113,0.1,320.13513,1591811518447
Fix,GT,37.4257943,-122.0986581,,32.441837,0.1,321.12158,1591811519447
Fix,GT,37.4260177,-122.0988961,,32.612362,0.1,321.9237,1591811520447
Fix,GT,37.426245,-122.0991313,,32.767998,0.1,322.69745,1591811521447
Fix,GT,37.4264749,-122.0993647,,32.890953,0.1,322.99646,1591811522447
Fix,GT,37.4267058,-122.0995981,,32.921146,0.1,322.80664,1591811523447
Fix,GT,37.4269349,-122.099833,,32.769768,0.1,322.34033,1591811524447
Fix,GT,37.4271609,-122.100069,,32.50921,0.1,321.86407,1591811525447
Fix,GT,37.4273838,-122.1003049,,32.25128,0.1,321.4617,1591811526447
Fix,GT,37.4276037,-122.1005408,,32.007298,0.1,321.1678,1591811527447
Fix,GT,37.4278216,-122.100776,,31.801258,0.1,321.1591,1591811528447
Fix,GT,37.4280387,-122.1010088,,31.604942,0.1,321.51648,1591811529447
Fix,GT,37.4282556,-122.1012382,,31.36996,0.1,321.9231,1591811530447
Fix,GT,37.4284717,-122.1014645,,31.135334,0.1,321.97427,1591811531447
Fix,GT,37.428686,-122.1016894,,30.906204,0.1,321.91812,1591811532447
Fix,GT,37.4288988,-122.1019127,,30.675129,0.1,321.92816,1591811533447
Fix,GT,37.42911,-122.1021344,,30.47712,0.1,321.9474,1591811534447
Fix,GT,37.42932,-122.1023546,,30.290722,0.1,321.97522,1591811535447
Fix,GT,37.4295288,-122.1025735,,30.128613,0.1,321.95078,1591811536447
Fix,GT,37.4297366,-122.1027916,,30.034023,0.1,321.87415,1591811537447
Fix,GT,37.4299437,-122.1030098,,30.01326,0.1,321.7596,1591811538447
Fix,GT,37.4301505,-122.1032284,,30.019361,0.1,321.74414,1591811539447
Fix,GT,37.4303575,-122.1034467,,30.037395,0.1,321.88257,1591811540447
Fix,GT,37.4305653,-122.1036645,,30.05899,0.1,322.00214,1591811541447
Fix,GT,37.4307733,-122.1038821,,30.06475,0.1,322.02133,1591811542447
Fix,GT,37.4309812,-122.1040996,,30.027546,0.1,322.0028,1591811543447
Fix,GT,37.4311885,-122.104317,,29.96745,0.1,321.9638,1591811544447
Fix,GT,37.431395,-122.1045337,,29.772417,0.1,321.90295,1591811545447
Fix,GT,37.431599,-122.1047482,,29.256512,0.1,321.81754,1591811546447
Fix,GT,37.4317986,-122.1049582,,28.564507,0.1,321.85483,1591811547447
Fix,GT,37.431994,-122.1051633,,28.053665,0.1,321.93655,1591811548447
Fix,GT,37.4321873,-122.1053658,,27.905888,0.1,321.99292,1591811549447
Fix,GT,37.4323806,-122.1055678,,27.936367,0.1,322.09573,1591811550447
Fix,GT,37.4325745,-122.1057697,,28.015182,0.1,322.14148,1591811551447
Fix,GT,37.432769,-122.1059727,,28.16243,0.1,322.01535,1591811552447
Fix,GT,37.4329642,-122.1061777,,28.396059,0.1,321.84665,1591811553447
Fix,GT,37.4331611,-122.106385,,28.687147,0.1,321.86237,1591811554447
Fix,GT,37.4333606,-122.1065941,,29.001137,0.1,322.0573,1591811555447
Fix,GT,37.4335627,-122.1068044,,29.300518,0.1,322.22778,1591811556447
Fix,GT,37.4337671,-122.1070167,,29.56676,0.1,322.15677,1591811557447
Fix,GT,37.433972,-122.1072315,,29.723581,0.1,321.80664,1591811558447
Fix,GT,37.4341772,-122.107448,,29.800114,0.1,321.80252,1591811559447
Fix,GT,37.4343836,-122.1076644,,29.85405,0.1,322.02505,1591811560447
Fix,GT,37.4345902,-122.1078807,,29.89901,0.1,321.86002,1591811561447
Fix,GT,37.4347965,-122.1080986,,29.984547,0.1,321.673,1591811562447
Fix,GT,37.4350034,-122.1083173,,30.080654,0.1,321.799,1591811563447
Fix,GT,37.4352119,-122.1085359,,30.203548,0.1,322.07217,1591811564447
Fix,GT,37.435422,-122.1087543,,30.384125,0.1,322.30963,1591811565447
Fix,GT,37.4356339,-122.1089735,,30.578575,0.1,322.29834,1591811566447
Fix,GT,37.4358464,-122.1091949,,30.75143,0.1,321.94714,1591811567447
Fix,GT,37.4360588,-122.1094192,,30.905329,0.1,321.54004,1591811568447
Fix,GT,37.4362718,-122.1096454,,31.03136,0.1,321.65067,1591811569447
Fix,GT,37.4364862,-122.1098715,,31.135216,0.1,321.96436,1591811570447
Fix,GT,37.4367015,-122.1100978,,31.240082,0.1,321.7969,1591811571447
Fix,GT,37.4369172,-122.1103256,,31.379068,0.1,321.70477,1591811572447
Fix,GT,37.437134,-122.1105549,,31.563581,0.1,321.76813,1591811573447
Fix,GT,37.4373524,-122.110785,,31.751148,0.1,321.97107,1591811574447
Fix,GT,37.4375729,-122.1110152,,31.933683,0.1,322.16452,1591811575447
Fix,GT,37.437795,-122.1112462,,32.091892,0.1,322.20807,1591811576447
Fix,GT,37.4380181,-122.1114785,,32.224182,0.1,322.09274,1591811577447
Fix,GT,37.4382413,-122.1117121,,32.291977,0.1,322.04712,1591811578447
Fix,GT,37.438465,-122.1119456,,32.324265,0.1,322.20416,1591811579447
Fix,GT,37.4386896,-122.1121785,,32.359333,0.1,322.30887,1591811580447
Fix,GT,37.4389145,-122.112411,,32.349583,0.1,322.53162,1591811581447
Fix,GT,37.4391406,-122.1126414,,32.346565,0.1,323.1914,1591811582447
Fix,GT,37.439369,-122.1128687,,32.361237,0.1,323.51047,1591811583447
Fix,GT,37.439597,-122.1130966,,32.364044,0.1,322.89224,1591811584447
Fix,GT,37.4398227,-122.1133281,,32.391354,0.1,322.2216,1591811585447
Fix,GT,37.4400475,-122.1135625,,32.48085,0.1,322.04398,1591811586447
Fix,GT,37.4402722,-122.1137984,,32.595467,0.1,321.86826,1591811587447
Fix,GT,37.4404976,-122.1140358,,32.749634,0.1,321.88483,1591811588447
Fix,GT,37.4407246,-122.114274,,32.943733,0.1,322.03348,1591811589447
Fix,GT,37.4409533,-122.1145128,,33.136375,0.1,322.17188,1591811590447
Fix,GT,37.4411837,-122.1147525,,33.323128,0.1,322.1488,1591811591447
Fix,GT,37.4414149,-122.1149943,,33.47572,0.1,321.8689,1591811592447
Fix,GT,37.441646,-122.1152379,,33.539406,0.1,321.72037,1591811593447
Fix,GT,37.4418771,-122.1154822,,33.526344,0.1,321.709,1591811594447
Fix,GT,37.442108,-122.1157262,,33.511375,0.1,321.78403,1591811595447
Fix,GT,37.4423394,-122.1159695,,33.480522,0.1,321.99304,1591811596447
Fix,GT,37.4425703,-122.1162115,,33.319935,0.1,321.93365,1591811597447
Fix,GT,37.4427993,-122.1164527,,33.049423,0.1,321.6792,1591811598447
Fix,GT,37.4430258,-122.116693,,32.813232,0.1,321.57797,1591811599447
Fix,GT,37.4432509,-122.1169317,,32.623978,0.1,321.7188,1591811600447
Fix,GT,37.4434753,-122.1171685,,32.471306,0.1,321.88956,1591811601447
Fix,GT,37.4436994,-122.1174034,,32.34095,0.1,322.05344,1591811602447
Fix,GT,37.443923,-122.1176366,,32.223976,0.1,322.15125,1591811603447
Fix,GT,37.444146,-122.1178689,,32.10334,0.1,322.1181,1591811604447
Fix,GT,37.444368,-122.1181005,,31.984035,0.1,322.0447,1591811605447
Fix,GT,37.4445888,-122.1183315,,31.875446,0.1,321.97586,1591811606447
Fix,GT,37.4448086,-122.1185622,,31.725855,0.1,321.8117,1591811607447
Fix,GT,37.4450269,-122.1187921,,31.566435,0.1,321.7861,1591811608447
Fix,GT,37.4452443,-122.1190211,,31.483234,0.1,321.88428,1591811609447
Fix,GT,37.4454616,-122.1192496,,31.460878,0.1,321.84314,1591811610447
Fix,GT,37.4456786,-122.1194783,,31.465786,0.1,321.7578,1591811611447
Fix,GT,37.4458955,-122.1197075,,31.492199,0.1,321.7369,1591811612447
Fix,GT,37.4461129,-122.1199365,,31.522154,0.1,322.01013,1591811613447
Fix,GT,37.4463315,-122.1201643,,31.569513,0.1,322.3185,1591811614447
Fix,GT,37.4465511,-122.1203915,,31.613153,0.1,322.28378,1591811615447
Fix,GT,37.4467705,-122.1206195,,31.608398,0.1,322.1151,1591811616447
Fix,GT,37.4469889,-122.1208478,,31.508585,0.1,321.96298,1591811617447
Fix,GT,37.4472058,-122.1210755,,31.255356,0.1,321.88184,1591811618447
Fix,GT,37.4474203,-122.1213014,,30.930431,0.1,321.88504,1591811619447
Fix,GT,37.4476332,-122.1215245,,30.630741,0.1,322.09442,1591811620447
Fix,GT,37.4478447,-122.1217446,,30.40551,0.1,322.17465,1591811621447
Fix,GT,37.448055,-122.1219637,,30.278084,0.1,322.1217,1591811622447
Fix,GT,37.4482645,-122.1221825,,30.252277,0.1,321.96707,1591811623447
Fix,GT,37.4484734,-122.1224021,,30.225616,0.1,321.70456,1591811624447
Fix,GT,37.4486813,-122.1226223,,30.160269,0.1,321.65402,1591811625447
Fix,GT,37.4488892,-122.1228415,,30.107706,0.1,321.86295,1591811626447
Fix,GT,37.4490971,-122.1230595,,30.0583,0.1,321.96912,1591811627447
Fix,GT,37.4493045,-122.1232774,,29.99324,0.1,321.78857,1591811628447
Fix,GT,37.449511,-122.1234957,,29.93694,0.1,321.63116,1591811629447
Fix,GT,37.4497167,-122.1237142,,29.900734,0.1,321.64874,1591811630447
Fix,GT,37.4499226,-122.123932,,29.885563,0.1,321.86456,1591811631447
Fix,GT,37.4501289,-122.1241492,,29.895895,0.1,321.86768,1591811632447
Fix,GT,37.4503351,-122.1243667,,29.90694,0.1,321.765,1591811633447
Fix,GT,37.4505411,-122.1245853,,29.957474,0.1,321.45776,1591811634447
Fix,GT,37.4507454,-122.1248074,,30.066586,0.1,320.50046,1591811635447
Fix,GT,37.4509473,-122.1250346,,30.166733,0.1,319.50314,1591811636447
Fix,GT,37.4511472,-122.1252663,,30.275757,0.1,318.65598,1591811637447
Fix,GT,37.4513444,-122.1255034,,30.395966,0.1,317.401,1591811638447
Fix,GT,37.4515377,-122.1257476,,30.50584,0.1,315.9518,1591811639447
Fix,GT,37.4517267,-122.1259986,,30.6264,0.1,314.4742,1591811640447
Fix,GT,37.4519114,-122.1262566,,30.738876,0.1,313.16904,1591811641447
Fix,GT,37.4520926,-122.1265199,,30.827652,0.1,312.20166,1591811642447
Fix,GT,37.4522706,-122.1267874,,30.856144,0.1,311.04922,1591811643447
Fix,GT,37.4524439,-122.1270595,,30.822327,0.1,309.89148,1591811644447
Fix,GT,37.4526134,-122.1273351,,30.819138,0.1,309.16632,1591811645447
Fix,GT,37.4527804,-122.1276136,,30.854628,0.1,308.44867,1591811646447
Fix,GT,37.4529451,-122.1278949,,30.905403,0.1,307.9746,1591811647447
Fix,GT,37.4531096,-122.1281771,,30.932468,0.1,308.10623,1591811648447
Fix,GT,37.4532745,-122.1284584,,30.859026,0.1,308.1467,1591811649447
Fix,GT,37.4534388,-122.1287387,,30.713095,0.1,308.16327,1591811650447
Fix,GT,37.4536031,-122.1290173,,30.595392,0.1,308.31662,1591811651447
Fix,GT,37.4537666,-122.1292949,,30.499968,0.1,308.1964,1591811652447
Fix,GT,37.4539291,-122.1295724,,30.408482,0.1,308.02582,1591811653447
Fix,GT,37.4540907,-122.1298495,,30.335857,0.1,308.0223,1591811654447
Fix,GT,37.454252,-122.130126,,30.2829,0.1,308.03436,1591811655447
Fix,GT,37.454413,-122.1304018,,30.220465,0.1,308.06036,1591811656447
Fix,GT,37.4545739,-122.1306768,,30.155586,0.1,308.09744,1591811657447
Fix,GT,37.4547345,-122.1309513,,30.078125,0.1,308.04175,1591811658447
Fix,GT,37.4548943,-122.1312253,,29.985344,0.1,307.92816,1591811659447
Fix,GT,37.4550532,-122.1314989,,29.911198,0.1,307.8601,1591811660447
Fix,GT,37.4552118,-122.1317719,,29.869747,0.1,308.0027,1591811661447
Fix,GT,37.4553714,-122.1320439,,29.878366,0.1,308.41992,1591811662447
Fix,GT,37.4555328,-122.1323146,,29.941746,0.1,308.75854,1591811663447
Fix,GT,37.4556951,-122.1325855,,30.02861,0.1,308.6084,1591811664447
Fix,GT,37.4558568,-122.1328581,,30.098913,0.1,308.3163,1591811665447
Fix,GT,37.4560182,-122.1331319,,30.17175,0.1,308.34515,1591811666447
Fix,GT,37.4561804,-122.1334061,,30.259083,0.1,308.40375,1591811667447
Fix,GT,37.456343,-122.1336812,,30.352362,0.1,308.32922,1591811668447
Fix,GT,37.4565056,-122.1339574,,30.421299,0.1,308.25354,1591811669447
Fix,GT,37.4566684,-122.1342343,,30.467571,0.1,308.1949,1591811670447
Fix,GT,37.4568313,-122.1345116,,30.524216,0.1,308.2351,1591811671447
Fix,GT,37.4569951,-122.1347892,,30.565353,0.1,308.38763,1591811672447
Fix,GT,37.4571594,-122.1350664,,30.543533,0.1,308.50867,1591811673447
Fix,GT,37.4573235,-122.1353429,,30.450863,0.1,308.48715,1591811674447
Fix,GT,37.4574869,-122.1356187,,30.326239,0.1,308.32336,1591811675447
Fix,GT,37.4576486,-122.135894,,30.211998,0.1,308.0506,1591811676447
Fix,GT,37.4578088,-122.1361693,,30.097944,0.1,307.8473,1591811677447
Fix,GT,37.457968,-122.136444,,29.991186,0.1,307.87393,1591811678447
Fix,GT,37.4581269,-122.1367173,,29.883904,0.1,308.08923,1591811679447
Fix,GT,37.4582865,-122.1369887,,29.784365,0.1,308.40445,1591811680447
Fix,GT,37.4584467,-122.1372583,,29.697031,0.1,308.61884,1591811681447
Fix,GT,37.4586066,-122.1375268,,29.630981,0.1,308.5178,1591811682447
Fix,GT,37.4587655,-122.1377954,,29.581059,0.1,308.27457,1591811683447
Fix,GT,37.4589236,-122.1380646,,29.56801,0.1,308.07208,1591811684447
Fix,GT,37.4590811,-122.1383341,,29.57489,0.1,308.06824,1591811685447
Fix,GT,37.4592389,-122.1386035,,29.589235,0.1,308.15976,1591811686447
Fix,GT,37.459397,-122.1388731,,29.623035,0.1,308.08267,1591811687447
Fix,GT,37.4595548,-122.1391434,,29.64707,0.1,307.98724,1591811688447
Fix,GT,37.4597126,-122.1394139,,29.663322,0.1,308.09274,1591811689447
Fix,GT,37.4598714,-122.139684,,29.687275,0.1,308.3614,1591811690447
Fix,GT,37.4600309,-122.1399532,,29.679558,0.1,308.4793,1591811691447
Fix,GT,37.4601903,-122.1402221,,29.62704,0.1,308.34888,1591811692447
Fix,GT,37.4603488,-122.1404911,,29.567348,0.1,308.16415,1591811693447
Fix,GT,37.4605065,-122.14076,,29.523323,0.1,308.10437,1591811694447
Fix,GT,37.4606642,-122.1410288,,29.52853,0.1,308.1939,1591811695447
Fix,GT,37.4608223,-122.1412975,,29.577164,0.1,308.21265,1591811696447
Fix,GT,37.4609805,-122.1415668,,29.633232,0.1,308.17834,1591811697447
Fix,GT,37.4611392,-122.1418368,,29.726828,0.1,308.2627,1591811698447
Fix,GT,37.4612987,-122.1421077,,29.861301,0.1,308.21915,1591811699447
Fix,GT,37.4614585,-122.1423802,,30.00679,0.1,308.0741,1591811700447
Fix,GT,37.4616187,-122.1426544,,30.140717,0.1,307.9971,1591811701447
Fix,GT,37.4617795,-122.1429299,,30.277056,0.1,308.00107,1591811702447
Fix,GT,37.4619409,-122.1432068,,30.421799,0.1,307.9775,1591811703447
Fix,GT,37.4621027,-122.1434855,,30.592842,0.1,307.8063,1591811704447
Fix,GT,37.4622651,-122.1437664,,30.787663,0.1,307.7714,1591811705447
Fix,GT,37.4624287,-122.1440486,,30.97042,0.1,307.98697,1591811706447
Fix,GT,37.4625943,-122.1443314,,31.102165,0.1,308.17258,1591811707447
Fix,GT,37.4627606,-122.1446149,,31.175034,0.1,308.0833,1591811708447
Fix,GT,37.4629267,-122.1448995,,31.234238,0.1,307.96426,1591811709447
Fix,GT,37.463093,-122.1451849,,31.29053,0.1,308.02405,1591811710447
Fix,GT,37.46326,-122.1454701,,31.332706,0.1,308.26718,1591811711447
Fix,GT,37.4634282,-122.1457548,,31.357027,0.1,308.44,1591811712447
Fix,GT,37.4635967,-122.1460394,,31.36407,0.1,308.35208,1591811713447
Fix,GT,37.4637644,-122.1463248,,31.397673,0.1,308.13263,1591811714447
Fix,GT,37.4639319,-122.1466114,,31.48843,0.1,308.02496,1591811715447
Fix,GT,37.4640998,-122.1468991,,31.607395,0.1,308.1018,1591811716447
Fix,GT,37.4642687,-122.1471876,,31.738647,0.1,308.1627,1591811717447
Fix,GT,37.4644384,-122.1474775,,31.878937,0.1,308.14215,1591811718447
Fix,GT,37.4646089,-122.1477686,,32.05154,0.1,308.1945,1591811719447
Fix,GT,37.4647806,-122.1480611,,32.230907,0.1,308.22253,1591811720447
Fix,GT,37.4649533,-122.1483553,,32.406532,0.1,308.2508,1591811721447
Fix,GT,37.4651271,-122.1486509,,32.580254,0.1,308.27725,1591811722447
Fix,GT,37.465302,-122.148948,,32.744648,0.1,308.2863,1591811723447
Fix,GT,37.4654776,-122.1492465,,32.889206,0.1,308.24,1591811724447
Fix,GT,37.4656537,-122.1495465,,33.022293,0.1,308.13663,1591811725447
Fix,GT,37.4658301,-122.149848,,33.15277,0.1,308.08932,1591811726447
Fix,GT,37.466007,-122.1501509,,33.26966,0.1,308.0615,1591811727447
Fix,GT,37.4661845,-122.1504549,,33.39154,0.1,308.1027,1591811728447
Fix,GT,37.4663628,-122.1507598,,33.52897,0.1,308.14023,1591811729447
Fix,GT,37.4665419,-122.1510658,,33.648212,0.1,308.11862,1591811730447
Fix,GT,37.4667212,-122.1513723,,33.58718,0.1,308.08798,1591811731447
Fix,GT,37.4668994,-122.1516774,,33.303005,0.1,308.0333,1591811732447
Fix,GT,37.467076,-122.1519798,,33.012283,0.1,308.12433,1591811733447
Fix,GT,37.4672519,-122.1522792,,32.80496,0.1,308.3732,1591811734447
Fix,GT,37.4674277,-122.1525763,,32.677727,0.1,308.493,1591811735447
Fix,GT,37.4676033,-122.1528723,,32.612698,0.1,308.46417,1591811736447
Fix,GT,37.4677785,-122.1531679,,32.559464,0.1,308.41522,1591811737447
Fix,GT,37.4679531,-122.153463,,32.47498,0.1,308.40207,1591811738447
Fix,GT,37.4681271,-122.1537574,,32.37511,0.1,308.35965,1591811739447
Fix,GT,37.4683001,-122.1540512,,32.271626,0.1,308.24652,1591811740447
Fix,GT,37.4684721,-122.1543444,,32.14305,0.1,308.12842,1591811741447
Fix,GT,37.4686432,-122.1546367,,32.02868,0.1,308.1607,1591811742447
Fix,GT,37.4688144,-122.1549277,,31.959867,0.1,308.36734,1591811743447
Fix,GT,37.4689861,-122.1552175,,31.917793,0.1,308.49673,1591811744447
Fix,GT,37.4691577,-122.1555068,,31.871754,0.1,308.39996,1591811745447
Fix,GT,37.4693282,-122.1557961,,31.797237,0.1,308.21738,1591811746447
Fix,GT,37.4694976,-122.1560853,,31.710579,0.1,308.0566,1591811747447
Fix,GT,37.4696661,-122.1563742,,31.632238,0.1,307.97867,1591811748447
Fix,GT,37.4698341,-122.1566625,,31.557413,0.1,308.00766,1591811749447
Fix,GT,37.4700018,-122.1569501,,31.485,0.1,308.00372,1591811750447
Fix,GT,37.4701691,-122.1572371,,31.410686,0.1,307.97885,1591811751447
Fix,GT,37.470336,-122.1575233,,31.345325,0.1,308.05875,1591811752447
Fix,GT,37.4705031,-122.1578086,,31.296204,0.1,308.2028,1591811753447
Fix,GT,37.4706707,-122.1580929,,31.263813,0.1,308.3635,1591811754447
Fix,GT,37.4708386,-122.1583765,,31.243803,0.1,308.449,1591811755447
Fix,GT,37.4710062,-122.15866,,31.229424,0.1,308.30328,1591811756447
Fix,GT,37.4711728,-122.1589443,,31.177017,0.1,308.0437,1591811757447
Fix,GT,37.4713385,-122.1592282,,31.07209,0.1,308.0177,1591811758447
Fix,GT,37.4715036,-122.1595109,,30.959423,0.1,308.06827,1591811759447
Fix,GT,37.4716686,-122.1597925,,30.855125,0.1,308.31558,1591811760447
Fix,GT,37.4718353,-122.1600712,,30.809439,0.1,309.16495,1591811761447
Fix,GT,37.4720053,-122.1603472,,30.88134,0.1,309.83517,1591811762447
Fix,GT,37.4721771,-122.1606228,,31.019218,0.1,309.80847,1591811763447
Fix,GT,37.4723487,-122.1609003,,31.170486,0.1,309.4109,1591811764447
Fix,GT,37.4725191,-122.1611814,,31.326286,0.1,308.7128,1591811765447
Fix,GT,37.4726877,-122.1614666,,31.489082,0.1,308.10126,1591811766447
Fix,GT,37.4728558,-122.1617546,,31.65449,0.1,308.08566,1591811767447
Fix,GT,37.4730251,-122.1620435,,31.785511,0.1,308.23474,1591811768447
Fix,GT,37.4731954,-122.1623331,,31.88062,0.1,308.27362,1591811769447
Fix,GT,37.4733663,-122.1626235,,31.982052,0.1,308.3103,1591811770447
Fix,GT,37.4735377,-122.1629145,,32.05658,0.1,308.3007,1591811771447
Fix,GT,37.4737091,-122.1632064,,32.080303,0.1,308.11063,1591811772447
Fix,GT,37.4738797,-122.1634991,,32.076633,0.1,307.84717,1591811773447
Fix,GT,37.4740497,-122.1637925,,32.094543,0.1,307.85364,1591811774447
Fix,GT,37.4742203,-122.1640856,,32.108696,0.1,308.13138,1591811775447
Fix,GT,37.4743919,-122.1643777,,32.073814,0.1,308.3063,1591811776447
Fix,GT,37.4745636,-122.1646689,,32.01909,0.1,308.24252,1591811777447
Fix,GT,37.4747345,-122.1649602,,31.94719,0.1,308.08066,1591811778447
Fix,GT,37.4749047,-122.1652511,,31.897419,0.1,308.17203,1591811779447
Fix,GT,37.4750754,-122.165541,,31.86868,0.1,308.35663,1591811780447
Fix,GT,37.4752461,-122.1658305,,31.861866,0.1,308.25504,1591811781447
Fix,GT,37.4754162,-122.1661205,,31.845434,0.1,308.12878,1591811782447
Fix,GT,37.4755858,-122.1664105,,31.807507,0.1,308.07312,1591811783447
Fix,GT,37.4757551,-122.1667004,,31.763,0.1,308.02002,1591811784447
Fix,GT,37.4759242,-122.1669899,,31.744003,0.1,308.08694,1591811785447
Fix,GT,37.4760939,-122.167279,,31.791218,0.1,308.2475,1591811786447
Fix,GT,37.4762647,-122.1675685,,31.911509,0.1,308.3767,1591811787447
Fix,GT,37.4764368,-122.1678587,,32.071045,0.1,308.64816,1591811788447
Fix,GT,37.4766114,-122.1681486,,32.223667,0.1,309.16748,1591811789447
Fix,GT,37.4767888,-122.1684381,,32.3547,0.1,309.5051,1591811790447
Fix,GT,37.4769663,-122.1687288,,32.465794,0.1,308.98105,1591811791447
Fix,GT,37.4771415,-122.1690231,,32.575943,0.1,308.2995,1591811792447
Fix,GT,37.4773162,-122.16932,,32.720234,0.1,308.22885,1591811793447
Fix,GT,37.4774911,-122.169619,,32.907425,0.1,307.97888,1591811794447
Fix,GT,37.4776661,-122.1699208,,33.11889,0.1,307.75244,1591811795447
Fix,GT,37.4778414,-122.1702254,,33.36389,0.1,307.72067,1591811796447
Fix,GT,37.4780186,-122.1705321,,33.640827,0.1,307.89212,1591811797447
Fix,GT,37.478198,-122.1708408,,33.935974,0.1,308.03757,1591811798447
Fix,GT,37.4783792,-122.1711521,,34.239605,0.1,307.91245,1591811799447
Fix,GT,37.4785612,-122.1714667,,34.518505,0.1,307.77652,1591811800447
Fix,GT,37.4787444,-122.1717839,,34.735466,0.1,307.8624,1591811801447
Fix,GT,37.4789292,-122.172102,,34.87997,0.1,308.00955,1591811802447
Fix,GT,37.4791149,-122.1724207,,34.948986,0.1,308.0666,1591811803447
Fix,GT,37.4793011,-122.1727392,,34.898525,0.1,308.193,1591811804447
Fix,GT,37.4794873,-122.1730564,,34.783897,0.1,308.2574,1591811805447
Fix,GT,37.4796728,-122.1733724,,34.65952,0.1,308.19672,1591811806447
Fix,GT,37.4798573,-122.1736876,,34.54438,0.1,308.10297,1591811807447
Fix,GT,37.4800407,-122.1740025,,34.45222,0.1,307.98184,1591811808447
Fix,GT,37.4802231,-122.1743171,,34.376938,0.1,307.88748,1591811809447
Fix,GT,37.4804049,-122.1746314,,34.32213,0.1,307.88263,1591811810447
Fix,GT,37.4805866,-122.1749451,,34.27977,0.1,307.94028,1591811811447
Fix,GT,37.4807683,-122.1752583,,34.266136,0.1,307.96878,1591811812447
Fix,GT,37.4809503,-122.1755714,,34.29667,0.1,308.09833,1591811813447
Fix,GT,37.4811335,-122.1758841,,34.348633,0.1,308.36237,1591811814447
Fix,GT,37.4813177,-122.1761967,,34.41763,0.1,308.3621,1591811815447
Fix,GT,37.4815015,-122.1765105,,34.49385,0.1,308.07065,1591811816447
Fix,GT,37.4816841,-122.1768264,,34.560284,0.1,307.67862,1591811817447
Fix,GT,37.4818653,-122.1771447,,34.61635,0.1,307.17496,1591811818447
Fix,GT,37.4820438,-122.177465,,34.49352,0.1,306.41803,1591811819447
Fix,GT,37.4822166,-122.1777864,,34.059704,0.1,305.2991,1591811820447
Fix,GT,37.4823819,-122.1781069,,33.483658,0.1,304.2176,1591811821447
Fix,GT,37.4825398,-122.1784253,,32.864,0.1,303.2159,1591811822447
Fix,GT,37.4826903,-122.178741,,32.20967,0.1,302.18582,1591811823447
Fix,GT,37.4828331,-122.1790538,,31.551918,0.1,301.05536,1591811824447
Fix,GT,37.482968,-122.1793633,,30.890116,0.1,299.9564,1591811825447
Fix,GT,37.4830955,-122.1796695,,30.23852,0.1,298.71527,1591811826447
Fix,GT,37.4832134,-122.1799736,,29.667122,0.1,296.57526,1591811827447
Fix,GT,37.4833211,-122.1802777,,29.259459,0.1,295.0922,1591811828447
Fix,GT,37.4834256,-122.1805802,,29.071613,0.1,295.63318,1591811829447
Fix,GT,37.4835325,-122.18088,,29.055359,0.1,296.12402,1591811830447
Fix,GT,37.4836394,-122.1811801,,29.128048,0.1,295.55737,1591811831447
Fix,GT,37.4837436,-122.1814831,,29.256826,0.1,294.82526,1591811832447
Fix,GT,37.4838459,-122.1817887,,29.399853,0.1,294.44373,1591811833447
Fix,GT,37.4839471,-122.1820967,,29.553886,0.1,293.9724,1591811834447
Fix,GT,37.4840466,-122.1824076,,29.71614,0.1,293.4118,1591811835447
Fix,GT,37.4841441,-122.1827215,,29.873419,0.1,292.75494,1591811836447
Fix,GT,37.4842393,-122.1830383,,30.034323,0.1,292.16248,1591811837447
Fix,GT,37.4843326,-122.183358,,30.197136,0.1,291.6537,1591811838447
Fix,GT,37.484424,-122.1836804,,30.340786,0.1,291.11032,1591811839447
Fix,GT,37.4845131,-122.1840056,,30.472645,0.1,290.49265,1591811840447
Fix,GT,37.4845998,-122.1843333,,30.593782,0.1,289.923,1591811841447
Fix,GT,37.4846844,-122.1846631,,30.703655,0.1,289.39102,1591811842447
Fix,GT,37.4847668,-122.184995,,30.806082,0.1,288.8212,1591811843447
Fix,GT,37.4848465,-122.1853293,,30.919827,0.1,288.144,1591811844447
Fix,GT,37.4849235,-122.1856661,,31.063,0.1,287.4734,1591811845447
Fix,GT,37.4849978,-122.1860055,,31.216276,0.1,286.89148,1591811846447
Fix,GT,37.4850699,-122.1863475,,31.35214,0.1,286.43164,1591811847447
Fix,GT,37.4851404,-122.1866912,,31.430717,0.1,286.0557,1591811848447
Fix,GT,37.485209,-122.1870363,,31.471859,0.1,285.53348,1591811849447
Fix,GT,37.4852746,-122.1873826,,31.500574,0.1,284.76855,1591811850447
Fix,GT,37.4853361,-122.1877304,,31.518442,0.1,283.91595,1591811851447
Fix,GT,37.485394,-122.1880792,,31.493698,0.1,283.19788,1591811852447
Fix,GT,37.4854485,-122.1884281,,31.405354,0.1,282.52222,1591811853447
Fix,GT,37.4854995,-122.1887767,,31.31004,0.1,281.87912,1591811854447
Fix,GT,37.4855476,-122.1891247,,31.18872,0.1,281.4053,1591811855447
Fix,GT,37.4855938,-122.1894718,,31.061253,0.1,281.22372,1591811856447
Fix,GT,37.4856393,-122.1898177,,30.953743,0.1,281.07257,1591811857447
Fix,GT,37.4856835,-122.1901627,,30.858414,0.1,280.70752,1591811858447
Fix,GT,37.485726,-122.1905071,,30.790962,0.1,280.4397,1591811859447
Fix,GT,37.4857677,-122.190851,,30.75592,0.1,280.414,1591811860447
Fix,GT,37.4858094,-122.1911946,,30.73039,0.1,280.55798,1591811861447
Fix,GT,37.4858522,-122.1915379,,30.731636,0.1,280.68707,1591811862447
Fix,GT,37.4858951,-122.1918813,,30.768768,0.1,280.58105,1591811863447
Fix,GT,37.4859377,-122.1922253,,30.803415,0.1,280.7647,1591811864447
Fix,GT,37.4859827,-122.1925692,,30.846365,0.1,281.57733,1591811865447
Fix,GT,37.4860316,-122.1929129,,30.900377,0.1,282.16745,1591811866447
Fix,GT,37.4860813,-122.1932569,,30.949673,0.1,281.8456,1591811867447
Fix,GT,37.4861287,-122.1936018,,30.990295,0.1,281.2893,1591811868447
Fix,GT,37.4861747,-122.1939475,,31.02657,0.1,281.2468,1591811869447
Fix,GT,37.4862207,-122.1942937,,31.056442,0.1,281.25684,1591811870447
Fix,GT,37.4862667,-122.1946401,,31.073803,0.1,281.20197,1591811871447
Fix,GT,37.4863122,-122.194987,,31.098866,0.1,280.97424,1591811872447
Fix,GT,37.4863563,-122.1953343,,31.120483,0.1,280.67725,1591811873447
Fix,GT,37.4863992,-122.1956821,,31.125263,0.1,280.47443,1591811874447
Fix,GT,37.4864413,-122.1960301,,31.138313,0.1,280.39008,1591811875447
Fix,GT,37.4864835,-122.1963782,,31.143501,0.1,280.51544,1591811876447
Fix,GT,37.4865266,-122.1967263,,31.157803,0.1,280.71307,1591811877447
Fix,GT,37.4865702,-122.1970744,,31.188543,0.1,280.73108,1591811878447
Fix,GT,37.4866138,-122.197423,,31.249533,0.1,280.6479,1591811879447
Fix,GT,37.4866572,-122.1977727,,31.351353,0.1,280.6885,1591811880447
Fix,GT,37.4867015,-122.1981234,,31.440813,0.1,280.80148,1591811881447
Fix,GT,37.4867462,-122.1984748,,31.498493,0.1,280.78284,1591811882447
Fix,GT,37.4867902,-122.198827,,31.557308,0.1,280.64392,1591811883447
Fix,GT,37.4868337,-122.19918,,31.629116,0.1,280.4725,1591811884447
Fix,GT,37.4868765,-122.199534,,31.713764,0.1,280.34537,1591811885447
Fix,GT,37.4869191,-122.1998891,,31.795212,0.1,280.38605,1591811886447
Fix,GT,37.4869623,-122.2002449,,31.872849,0.1,280.6258,1591811887447
Fix,GT,37.4870067,-122.2006015,,31.964432,0.1,280.7304,1591811888447
Fix,GT,37.4870515,-122.200959,,32.039177,0.1,280.67575,1591811889447
Fix,GT,37.487096,-122.2013172,,32.07468,0.1,280.57925,1591811890447
Fix,GT,37.4871399,-122.2016758,,32.086678,0.1,280.55756,1591811891447
Fix,GT,37.4871845,-122.2020344,,32.107357,0.1,280.7749,1591811892447
Fix,GT,37.4872302,-122.202393,,32.138557,0.1,280.91904,1591811893447
Fix,GT,37.4872757,-122.2027519,,32.166237,0.1,280.71686,1591811894447
Fix,GT,37.48732,-122.2031114,,32.187656,0.1,280.45697,1591811895447
Fix,GT,37.4873636,-122.2034713,,32.1935,0.1,280.406,1591811896447
Fix,GT,37.4874072,-122.2038313,,32.197147,0.1,280.54675,1591811897447
Fix,GT,37.4874517,-122.204191,,32.21003,0.1,280.70404,1591811898447
Fix,GT,37.487497,-122.2045507,,32.20923,0.1,280.841,1591811899447
Fix,GT,37.4875429,-122.2049103,,32.193203,0.1,280.9299,1591811900447
Fix,GT,37.487589,-122.2052695,,32.175426,0.1,280.89426,1591811901447
Fix,GT,37.4876347,-122.2056287,,32.162502,0.1,280.81137,1591811902447
Fix,GT,37.48768,-122.2059879,,32.153572,0.1,280.72607,1591811903447
Fix,GT,37.4877249,-122.2063472,,32.156563,0.1,280.65964,1591811904447
Fix,GT,37.4877699,-122.2067064,,32.155342,0.1,280.85318,1591811905447
Fix,GT,37.487817,-122.2070652,,32.15517,0.1,281.55594,1591811906447
Fix,GT,37.4878685,-122.2074229,,32.100086,0.1,282.5026,1591811907447
Fix,GT,37.4879237,-122.2077784,,31.949408,0.1,283.19742,1591811908447
Fix,GT,37.4879818,-122.2081313,,31.792294,0.1,283.72864,1591811909447
Fix,GT,37.4880422,-122.2084818,,31.627666,0.1,284.26904,1591811910447
Fix,GT,37.4881049,-122.2088297,,31.445488,0.1,284.85748,1591811911447
Fix,GT,37.4881698,-122.2091743,,31.141216,0.1,285.39395,1591811912447
Fix,GT,37.4882364,-122.2095136,,30.666672,0.1,285.92038,1591811913447
Fix,GT,37.4883047,-122.2098467,,30.14441,0.1,286.58258,1591811914447
Fix,GT,37.4883751,-122.210173,,29.62381,0.1,287.32193,1591811915447
Fix,GT,37.4884475,-122.2104928,,29.189224,0.1,288.0072,1591811916447
Fix,GT,37.4885218,-122.2108078,,28.941795,0.1,288.58438,1591811917447
Fix,GT,37.4885982,-122.2111198,,28.811918,0.1,289.15677,1591811918447
Fix,GT,37.4886767,-122.2114296,,28.696442,0.1,289.73706,1591811919447
Fix,GT,37.4887573,-122.2117374,,28.610378,0.1,290.29022,1591811920447
Fix,GT,37.4888402,-122.2120435,,28.556381,0.1,290.87677,1591811921447
Fix,GT,37.4889255,-122.2123479,,28.519154,0.1,291.44006,1591811922447
Fix,GT,37.4890129,-122.2126508,,28.447239,0.1,291.9959,1591811923447
Fix,GT,37.4891026,-122.2129517,,28.405714,0.1,292.69855,1591811924447
Fix,GT,37.4891952,-122.2132513,,28.442276,0.1,293.4054,1591811925447
Fix,GT,37.4892908,-122.21355,,28.475426,0.1,294.04663,1591811926447
Fix,GT,37.489389,-122.2138479,,28.513481,0.1,294.60132,1591811927447
Fix,GT,37.4894893,-122.2141443,,28.396042,0.1,295.08115,1591811928447
Fix,GT,37.4895907,-122.2144372,,28.045033,0.1,295.58344,1591811929447
Fix,GT,37.489693,-122.2147248,,27.66438,0.1,296.22696,1591811930447
Fix,GT,37.4897969,-122.2150074,,27.402683,0.1,296.9316,1591811931447
Fix,GT,37.4899026,-122.2152867,,27.294909,0.1,297.55414,1591811932447
Fix,GT,37.4900105,-122.2155642,,27.319794,0.1,298.14313,1591811933447
Fix,GT,37.490121,-122.215841,,27.449738,0.1,298.75702,1591811934447
Fix,GT,37.4902346,-122.2161179,,27.660088,0.1,299.31076,1591811935447
Fix,GT,37.4903512,-122.2163962,,27.94049,0.1,299.76007,1591811936447
Fix,GT,37.4904707,-122.2166764,,28.252754,0.1,300.227,1591811937447
Fix,GT,37.4905934,-122.2169584,,28.553577,0.1,300.68106,1591811938447
Fix,GT,37.4907187,-122.2172421,,28.783945,0.1,300.9314,1591811939447
Fix,GT,37.4908452,-122.2175271,,28.901455,0.1,300.8935,1591811940447
Fix,GT,37.4909716,-122.217813,,28.931608,0.1,300.79724,1591811941447
Fix,GT,37.4910979,-122.2180992,,28.933563,0.1,300.85785,1591811942447
Fix,GT,37.4912246,-122.2183852,,28.940012,0.1,300.9373,1591811943447
Fix,GT,37.4913515,-122.2186712,,28.95506,0.1,300.88284,1591811944447
Fix,GT,37.4914782,-122.2189575,,28.957745,0.1,300.84357,1591811945447
Fix,GT,37.4916049,-122.2192436,,28.922081,0.1,300.9341,1591811946447
Fix,GT,37.4917316,-122.2195289,,28.858131,0.1,300.9807,1591811947447
Fix,GT,37.491858,-122.2198136,,28.79484,0.1,300.93652,1591811948447
Fix,GT,37.491984,-122.2200974,,28.653088,0.1,300.98346,1591811949447
Fix,GT,37.4921091,-122.2203789,,28.344063,0.1,301.0294,1591811950447
Fix,GT,37.492233,-122.2206566,,27.93346,0.1,301.1259,1591811951447
Fix,GT,37.4923555,-122.2209298,,27.53901,0.1,301.1903,1591811952447
Fix,GT,37.4924766,-122.2211997,,27.289322,0.1,301.16302,1591811953447
Fix,GT,37.4925965,-122.2214686,,27.244785,0.1,300.86325,1591811954447
Fix,GT,37.4927154,-122.2217383,,27.255919,0.1,300.62048,1591811955447
Fix,GT,37.4928338,-122.2220084,,27.281532,0.1,300.684,1591811956447
Fix,GT,37.4929526,-122.2222789,,27.357592,0.1,300.80093,1591811957447
Fix,GT,37.4930722,-122.22255,,27.428593,0.1,300.88156,1591811958447
Fix,GT,37.4931918,-122.2228218,,27.489822,0.1,300.6341,1591811959447
Fix,GT,37.4933102,-122.2230953,,27.567493,0.1,300.13712,1591811960447
Fix,GT,37.4934273,-122.2233706,,27.631542,0.1,299.83905,1591811961447
Fix,GT,37.4935436,-122.2236473,,27.700827,0.1,299.48547,1591811962447
Fix,GT,37.4936578,-122.2239261,,27.765165,0.1,298.7359,1591811963447
Fix,GT,37.4937692,-122.2242074,,27.80507,0.1,297.9071,1591811964447
Fix,GT,37.4938777,-122.2244898,,27.643852,0.1,297.32275,1591811965447
Fix,GT,37.493983,-122.2247706,,27.217766,0.1,296.79208,1591811966447
Fix,GT,37.4940845,-122.225048,,26.803062,0.1,296.31146,1591811967447
Fix,GT,37.4941832,-122.2253232,,26.611675,0.1,295.85025,1591811968447
Fix,GT,37.4942793,-122.2255987,,26.60616,0.1,295.0927,1591811969447
Fix,GT,37.4943721,-122.2258756,,26.479862,0.1,294.21976,1591811970447
Fix,GT,37.4944613,-122.2261514,,26.169865,0.1,293.69244,1591811971447
Fix,GT,37.4945475,-122.2264249,,25.886032,0.1,293.1703,1591811972447
Fix,GT,37.4946311,-122.226697,,25.719952,0.1,292.74634,1591811973447
Fix,GT,37.4947133,-122.2269688,,25.710365,0.1,292.61993,1591811974447
Fix,GT,37.4947949,-122.2272415,,25.834852,0.1,292.29984,1591811975447
Fix,GT,37.4948759,-122.2275164,,25.998163,0.1,291.9087,1591811976447
Fix,GT,37.494956,-122.2277938,,26.197493,0.1,291.62634,1591811977447
Fix,GT,37.4950361,-122.2280738,,26.427797,0.1,291.563,1591811978447
Fix,GT,37.4951169,-122.2283563,,26.638702,0.1,291.45,1591811979447
Fix,GT,37.4951974,-122.2286409,,26.779398,0.1,291.22495,1591811980447
Fix,GT,37.4952776,-122.2289271,,26.876354,0.1,291.16754,1591811981447
Fix,GT,37.4953582,-122.2292142,,26.978857,0.1,291.19556,1591811982447
Fix,GT,37.4954389,-122.2295027,,27.11068,0.1,291.08215,1591811983447
Fix,GT,37.4955194,-122.229793,,27.227577,0.1,290.88727,1591811984447
Fix,GT,37.4955993,-122.2300846,,27.31012,0.1,290.7128,1591811985447
Fix,GT,37.495679,-122.2303769,,27.3207,0.1,290.72333,1591811986447
Fix,GT,37.4957591,-122.2306685,,27.194908,0.1,290.91837,1591811987447
Fix,GT,37.4958398,-122.2309575,,26.965464,0.1,291.33148,1591811988447
Fix,GT,37.4959215,-122.231243,,26.663143,0.1,291.62372,1591811989447
Fix,GT,37.496002,-122.2315253,,26.372375,0.1,291.1338,1591811990447
Fix,GT,37.4960779,-122.2318068,,26.222412,0.1,289.84534,1591811991447
Fix,GT,37.4961487,-122.2320896,,26.2206,0.1,289.04666,1591811992447
Fix,GT,37.4962197,-122.2323729,,26.3213,0.1,289.63306,1591811993447
Fix,GT,37.4962943,-122.2326564,,26.517548,0.1,290.53717,1591811994447
Fix,GT,37.4963725,-122.2329409,,26.742064,0.1,291.1768,1591811995447
Fix,GT,37.4964533,-122.2332271,,26.954266,0.1,291.46115,1591811996447
Fix,GT,37.4965354,-122.2335151,,27.159618,0.1,291.4997,1591811997447
Fix,GT,37.4966176,-122.2338055,,27.41633,0.1,291.41296,1591811998447
Fix,GT,37.4967013,-122.2340999,,27.912888,0.1,291.56543,1591811999447
Fix,GT,37.4967884,-122.2344005,,28.64561,0.1,292.20865,1591812000447
Fix,GT,37.4968813,-122.2347074,,29.393919,0.1,293.16537,1591812001447
Fix,GT,37.4969813,-122.2350199,,30.145947,0.1,294.39185,1591812002447
Fix,GT,37.4970898,-122.2353367,,30.765821,0.1,295.80945,1591812003447
Fix,GT,37.4972054,-122.2356547,,30.99698,0.1,297.00925,1591812004447
Fix,GT,37.497327,-122.2359699,,30.88802,0.1,298.41895,1591812005447
Fix,GT,37.4974541,-122.2362794,,30.67229,0.1,299.82333,1591812006447
Fix,GT,37.4975859,-122.2365833,,30.50181,0.1,300.9915,1591812007447
Fix,GT,37.4977221,-122.2368815,,30.293886,0.1,302.52084,1591812008447
Fix,GT,37.4978644,-122.2371723,,30.09935,0.1,304.36478,1591812009447
Fix,GT,37.4980132,-122.2374569,,30.166224,0.1,305.925,1591812010447
Fix,GT,37.4981687,-122.2377383,,30.390303,0.1,307.37735,1591812011447
Fix,GT,37.4983315,-122.2380158,,30.55884,0.1,309.16644,1591812012447
Fix,GT,37.4985024,-122.238288,,30.705313,0.1,311.04123,1591812013447
Fix,GT,37.4986807,-122.2385546,,30.829971,0.1,312.65182,1591812014447
Fix,GT,37.4988655,-122.238816,,30.920544,0.1,314.31958,1591812015447
Fix,GT,37.4990568,-122.2390702,,30.855875,0.1,316.15628,1591812016447
Fix,GT,37.4992531,-122.2393157,,30.601929,0.1,317.65445,1591812017447
Fix,GT,37.4994514,-122.2395536,,30.281487,0.1,318.55273,1591812018447
Fix,GT,37.4996498,-122.2397861,,29.989042,0.1,319.02182,1591812019447
Fix,GT,37.4998479,-122.2400154,,29.858746,0.1,319.3308,1591812020447
Fix,GT,37.5000465,-122.2402429,,29.828821,0.1,319.63974,1591812021447
Fix,GT,37.5002457,-122.2404691,,29.80434,0.1,319.80658,1591812022447
Fix,GT,37.5004453,-122.2406948,,29.81526,0.1,319.80978,1591812023447
Fix,GT,37.500645,-122.2409204,,29.852016,0.1,319.87518,1591812024447
Fix,GT,37.5008451,-122.2411461,,29.87967,0.1,319.90515,1591812025447
Fix,GT,37.5010451,-122.2413725,,29.900164,0.1,319.79175,1591812026447
Fix,GT,37.5012449,-122.2415996,,29.91771,0.1,319.69122,1591812027447
Fix,GT,37.5014449,-122.2418268,,29.937561,0.1,319.7282,1591812028447
Fix,GT,37.501645,-122.2420538,,29.925823,0.1,319.70605,1591812029447
Fix,GT,37.5018447,-122.2422808,,29.875526,0.1,319.7164,1591812030447
Fix,GT,37.5020437,-122.2425071,,29.73138,0.1,319.71118,1591812031447
Fix,GT,37.5022413,-122.2427318,,29.444141,0.1,319.69754,1591812032447
Fix,GT,37.5024371,-122.2429542,,29.213781,0.1,319.72055,1591812033447
Fix,GT,37.5026317,-122.2431754,,29.075346,0.1,319.78195,1591812034447
Fix,GT,37.5028258,-122.243395,,28.94697,0.1,319.97974,1591812035447
Fix,GT,37.5030199,-122.2436128,,28.819664,0.1,320.11517,1591812036447
Fix,GT,37.5032129,-122.2438297,,28.688847,0.1,320.05045,1591812037447
Fix,GT,37.5034049,-122.244046,,28.58584,0.1,319.92688,1591812038447
Fix,GT,37.5035962,-122.2442619,,28.50813,0.1,319.93008,1591812039447
Fix,GT,37.5037874,-122.2444769,,28.49646,0.1,320.14343,1591812040447
Fix,GT,37.5039805,-122.2446906,,28.654736,0.1,320.86548,1591812041447
Fix,GT,37.5041777,-122.2449022,,28.94104,0.1,321.873,1591812042447
Fix,GT,37.5043788,-122.2451132,,29.222008,0.1,321.91113,1591812043447
Fix,GT,37.5045804,-122.2453281,,29.479013,0.1,321.01016,1591812044447
Fix,GT,37.5047806,-122.2455492,,29.704098,0.1,320.16757,1591812045447
Fix,GT,37.5049807,-122.2457739,,29.917137,0.1,320.06302,1591812046447
Fix,GT,37.5051825,-122.2459998,,30.08351,0.1,320.11877,1591812047447
Fix,GT,37.5053853,-122.2462268,,30.225338,0.1,320.11075,1591812048447
Fix,GT,37.5055887,-122.2464553,,30.369884,0.1,319.98425,1591812049447
Fix,GT,37.5057928,-122.2466853,,30.509552,0.1,319.8562,1591812050447
Fix,GT,37.5059974,-122.2469171,,30.64434,0.1,319.67142,1591812051447
Fix,GT,37.5062023,-122.2471505,,30.775995,0.1,319.50662,1591812052447
Fix,GT,37.506408,-122.2473851,,30.93266,0.1,319.59775,1591812053447
Fix,GT,37.5066151,-122.2476207,,31.120792,0.1,319.67264,1591812054447
Fix,GT,37.5068236,-122.2478575,,31.31113,0.1,319.7176,1591812055447
Fix,GT,37.5070333,-122.2480956,,31.441002,0.1,319.76303,1591812056447
Fix,GT,37.5072436,-122.2483342,,31.480515,0.1,319.76532,1591812057447
Fix,GT,37.5074539,-122.2485728,,31.442722,0.1,319.75845,1591812058447
Fix,GT,37.5076638,-122.2488109,,31.362185,0.1,319.78488,1591812059447
Fix,GT,37.5078731,-122.2490482,,31.243225,0.1,319.79575,1591812060447
Fix,GT,37.5080814,-122.2492848,,31.104183,0.1,319.6872,1591812061447
Fix,GT,37.5082886,-122.2495207,,30.969734,0.1,319.73126,1591812062447
Fix,GT,37.5084953,-122.2497546,,30.830214,0.1,320.05743,1591812063447
Fix,GT,37.5087021,-122.2499863,,30.6963,0.1,320.18878,1591812064447
Fix,GT,37.508908,-122.2502167,,30.54857,0.1,320.14136,1591812065447
Fix,GT,37.5091128,-122.250446,,30.36124,0.1,320.17633,1591812066447
Fix,GT,37.509316,-122.2506741,,30.140564,0.1,319.94672,1591812067447
Fix,GT,37.5095167,-122.2509019,,29.897781,0.1,319.50418,1591812068447
Fix,GT,37.5097145,-122.2511292,,29.662773,0.1,319.3237,1591812069447
Fix,GT,37.5099111,-122.251355,,29.486471,0.1,319.54907,1591812070447
Fix,GT,37.5101074,-122.2515788,,29.374992,0.1,319.68536,1591812071447
Fix,GT,37.5103028,-122.2518018,,29.226223,0.1,319.49426,1591812072447
Fix,GT,37.5104962,-122.2520242,,29.006916,0.1,319.36047,1591812073447
Fix,GT,37.5106885,-122.2522444,,28.731344,0.1,319.63675,1591812074447
Fix,GT,37.5108797,-122.252461,,28.444473,0.1,319.89035,1591812075447
Fix,GT,37.5110692,-122.2526757,,28.209984,0.1,319.74713,1591812076447
Fix,GT,37.5112572,-122.2528888,,28.003267,0.1,319.79596,1591812077447
Fix,GT,37.5114443,-122.2530999,,27.874155,0.1,319.97375,1591812078447
Fix,GT,37.5116313,-122.2533102,,27.867207,0.1,320.01895,1591812079447
Fix,GT,37.5118185,-122.2535209,,27.935448,0.1,319.878,1591812080447
Fix,GT,37.5120054,-122.2537332,,28.02296,0.1,319.61694,1591812081447
Fix,GT,37.5121921,-122.2539473,,28.124893,0.1,319.3199,1591812082447
Fix,GT,37.5123789,-122.2541632,,28.229568,0.1,319.16205,1591812083447
Fix,GT,37.5125662,-122.25438,,28.33519,0.1,319.27026,1591812084447
Fix,GT,37.5127551,-122.2545969,,28.472256,0.1,319.60468,1591812085447
Fix,GT,37.5129458,-122.254814,,28.673298,0.1,319.60217,1591812086447
Fix,GT,37.5131365,-122.2550343,,28.89834,0.1,318.79318,1591812087447
Fix,GT,37.5133262,-122.2552602,,29.137321,0.1,318.06525,1591812088447
Fix,GT,37.5135166,-122.2554892,,29.405045,0.1,318.22687,1591812089447
Fix,GT,37.51371,-122.2557189,,29.674139,0.1,318.72083,1591812090447
Fix,GT,37.5139066,-122.2559487,,29.946388,0.1,319.08237,1591812091447
Fix,GT,37.5141061,-122.2561792,,30.234896,0.1,319.41583,1591812092447
Fix,GT,37.5143085,-122.2564104,,30.49762,0.1,319.68665,1591812093447
Fix,GT,37.514513,-122.2566426,,30.705242,0.1,319.75107,1591812094447
Fix,GT,37.5147188,-122.2568757,,30.819557,0.1,319.84827,1591812095447
Fix,GT,37.5149251,-122.2571089,,30.778912,0.1,319.8804,1591812096447
Fix,GT,37.5151305,-122.2573414,,30.626396,0.1,319.7729,1591812097447
Fix,GT,37.5153347,-122.2575733,,30.478397,0.1,319.7411,1591812098447
Fix,GT,37.5155379,-122.2578039,,30.29015,0.1,319.78876,1591812099447
Fix,GT,37.5157397,-122.2580326,,30.053902,0.1,319.79178,1591812100447
Fix,GT,37.5159398,-122.2582597,,29.838886,0.1,319.73828,1591812101447
Fix,GT,37.5161387,-122.2584859,,29.753025,0.1,319.75436,1591812102447
Fix,GT,37.5163376,-122.2587116,,29.770496,0.1,319.77216,1591812103447
Fix,GT,37.5165368,-122.2589372,,29.791416,0.1,319.8764,1591812104447
Fix,GT,37.5167364,-122.2591625,,29.793453,0.1,319.99237,1591812105447
Fix,GT,37.5169361,-122.2593871,,29.704983,0.1,319.97275,1591812106447
Fix,GT,37.5171347,-122.2596109,,29.531776,0.1,319.91745,1591812107447
Fix,GT,37.517332,-122.2598338,,29.381224,0.1,319.82944,1591812108447
Fix,GT,37.517528,-122.2600561,,29.248846,0.1,319.7153,1591812109447
Fix,GT,37.5177228,-122.2602773,,29.038223,0.1,319.77127,1591812110447
Fix,GT,37.5179163,-122.2604961,,28.786243,0.1,319.89307,1591812111447
Fix,GT,37.5181086,-122.2607135,,28.687405,0.1,319.81445,1591812112447
Fix,GT,37.5183007,-122.2609313,,28.779846,0.1,319.76062,1591812113447
Fix,GT,37.5184937,-122.2611498,,28.910526,0.1,319.8902,1591812114447
Fix,GT,37.518688,-122.2613689,,29.050755,0.1,319.9694,1591812115447
Fix,GT,37.5188832,-122.2615888,,29.171219,0.1,319.928,1591812116447
Fix,GT,37.5190789,-122.2618097,,29.259491,0.1,319.92093,1591812117447
Fix,GT,37.5192752,-122.2620316,,29.356073,0.1,319.89072,1591812118447
Fix,GT,37.5194722,-122.262254,,29.480143,0.1,319.9331,1591812119447
Fix,GT,37.5196704,-122.2624772,,29.612371,0.1,319.90363,1591812120447
Fix,GT,37.5198691,-122.2627017,,29.711765,0.1,319.8565,1591812121447
Fix,GT,37.5200681,-122.262927,,29.746607,0.1,319.88004,1591812122447
Fix,GT,37.5202673,-122.2631521,,29.743568,0.1,319.95685,1591812123447
Fix,GT,37.5204676,-122.2633763,,29.805815,0.1,320.45352,1591812124447
Fix,GT,37.5206708,-122.2635983,,29.97779,0.1,321.32153,1591812125447
Fix,GT,37.5208777,-122.2638184,,30.22215,0.1,321.7636,1591812126447
Fix,GT,37.5210865,-122.26404,,30.453037,0.1,321.45758,1591812127447
Fix,GT,37.5212952,-122.2642656,,30.660421,0.1,320.798,1591812128447
Fix,GT,37.5215034,-122.2644951,,30.817188,0.1,320.38516,1591812129447
Fix,GT,37.521711,-122.2647274,,30.894287,0.1,319.97186,1591812130447
Fix,GT,37.5219178,-122.2649611,,30.850285,0.1,319.8247,1591812131447
Fix,GT,37.5221238,-122.2651942,,30.7041,0.1,319.7877,1591812132447
Fix,GT,37.5223284,-122.2654268,,30.549328,0.1,319.54865,1591812133447
Fix,GT,37.5225311,-122.2656594,,30.427778,0.1,319.369,1591812134447
Fix,GT,37.522733,-122.2658915,,30.334702,0.1,319.41092,1591812135447
Fix,GT,37.5229346,-122.2661228,,30.29893,0.1,319.45535,1591812136447
Fix,GT,37.5231361,-122.2663546,,30.340527,0.1,319.28552,1591812137447
Fix,GT,37.5233376,-122.266587,,30.410536,0.1,319.32294,1591812138447
Fix,GT,37.5235404,-122.2668192,,30.514328,0.1,319.65186,1591812139447
Fix,GT,37.5237446,-122.267051,,30.566446,0.1,319.74307,1591812140447
Fix,GT,37.5239486,-122.2672828,,30.449287,0.1,319.61993,1591812141447
Fix,GT,37.5241512,-122.2675137,,30.292206,0.1,319.787,1591812142447
Fix,GT,37.5243544,-122.2677421,,30.250526,0.1,320.14703,1591812143447
Fix,GT,37.5245581,-122.2679694,,30.226746,0.1,320.22357,1591812144447
Fix,GT,37.5247614,-122.2681965,,30.18282,0.1,320.18912,1591812145447
Fix,GT,37.5249643,-122.2684234,,30.135035,0.1,320.13675,1591812146447
Fix,GT,37.5251667,-122.26865,,30.04644,0.1,320.10297,1591812147447
Fix,GT,37.5253681,-122.2688759,,29.910822,0.1,320.08063,1591812148447
Fix,GT,37.5255684,-122.2691012,,29.77606,0.1,319.89807,1591812149447
Fix,GT,37.5257667,-122.2693268,,29.650585,0.1,319.3908,1591812150447
Fix,GT,37.5259622,-122.2695543,,29.530588,0.1,318.58255,1591812151447
Fix,GT,37.5261548,-122.2697838,,29.445057,0.1,318.19232,1591812152447
Fix,GT,37.5263471,-122.2700131,,29.427893,0.1,318.58112,1591812153447
Fix,GT,37.5265409,-122.2702398,,29.32726,0.1,319.26917,1591812154447
Fix,GT,37.5267357,-122.270462,,29.031786,0.1,319.98334,1591812155447
Fix,GT,37.5269301,-122.2706794,,28.746037,0.1,320.306,1591812156447
Fix,GT,37.5271232,-122.2708943,,28.54048,0.1,320.19965,1591812157447
Fix,GT,37.5273141,-122.2711084,,28.300499,0.1,319.95615,1591812158447
Fix,GT,37.527503,-122.2713217,,28.11142,0.1,319.88217,1591812159447
Fix,GT,37.5276913,-122.2715339,,28.092884,0.1,320.08002,1591812160447
Fix,GT,37.5278799,-122.2717454,,28.011208,0.1,320.02237,1591812161447
Fix,GT,37.5280667,-122.2719561,,27.669483,0.1,319.72617,1591812162447
Fix,GT,37.5282502,-122.2721646,,27.248253,0.1,319.6544,1591812163447
Fix,GT,37.5284306,-122.27237,,26.807869,0.1,319.6363,1591812164447
Fix,GT,37.5286077,-122.272572,,26.31781,0.1,319.50906,1591812165447
Fix,GT,37.528781,-122.272771,,25.828873,0.1,319.2711,1591812166447
Fix,GT,37.5289509,-122.2729669,,25.38292,0.1,319.36032,1591812167447
Fix,GT,37.5291189,-122.2731593,,25.168139,0.1,319.4398,1591812168447
Fix,GT,37.5292857,-122.2733526,,25.278032,0.1,318.5656,1591812169447
Fix,GT,37.529451,-122.2735511,,25.480637,0.1,317.733,1591812170447
Fix,GT,37.5296167,-122.273752,,25.670918,0.1,318.0873,1591812171447
Fix,GT,37.5297858,-122.2739523,,25.938065,0.1,318.8962,1591812172447
Fix,GT,37.5299594,-122.2741519,,26.33459,0.1,319.88568,1591812173447
Fix,GT,37.5301387,-122.2743508,,26.757202,0.1,320.84457,1591812174447
Fix,GT,37.5303231,-122.2745493,,27.14679,0.1,321.5881,1591812175447
Fix,GT,37.5305118,-122.2747481,,27.516768,0.1,322.06625,1591812176447
Fix,GT,37.5307041,-122.2749482,,27.940315,0.1,322.40253,1591812177447
Fix,GT,37.5309006,-122.2751502,,28.436985,0.1,322.8267,1591812178447
Fix,GT,37.5311022,-122.275353,,28.952301,0.1,323.50928,1591812179447
Fix,GT,37.5313099,-122.2755565,,29.604635,0.1,324.29517,1591812180447
Fix,GT,37.5315249,-122.2757622,,30.384642,0.1,324.85217,1591812181447
Fix,GT,37.5317465,-122.2759707,,31.045162,0.1,325.2751,1591812182447
Fix,GT,37.5319728,-122.2761814,,31.428614,0.1,325.3704,1591812183447
Fix,GT,37.5322004,-122.276394,,31.539553,0.1,325.0628,1591812184447
Fix,GT,37.5324282,-122.2766076,,31.563488,0.1,325.23755,1591812185447
Fix,GT,37.532657,-122.2768204,,31.650883,0.1,325.60806,1591812186447
