MessageType,Provider,LatitudeDegrees,LongitudeDegrees,AltitudeMeters,SpeedMps,AccuracyMeters,BearingDegrees,UnixTimeMillis
Fix,GT,37.4165056,-122.0799104,,0.001,0.1,94.44174,1591378785582
Fix,GT,37.4165056,-122.0799104,,0.0011831701,0.1,94.44202,1591378786442
Fix,GT,37.4165056,-122.0799104,,0.0012310435,0.1,94.44235,1591378787442
Fix,GT,37.4165056,-122.0799104,,0.0015466039,0.1,94.441956,1591378788442
Fix,GT,37.4165056,-122.0799104,,0.002236068,0.1,94.441956,1591378789442
Fix,GT,37.4165056,-122.0799104,,0.002131676,0.1,94.4418,1591378790442
Fix,GT,37.4165056,-122.0799104,,0.0024422118,0.1,94.441315,1591378791442
Fix,GT,37.4165056,-122.0799104,,0.0026621802,0.1,94.441315,1591378792442
Fix,GT,37.4165056,-122.0799104,,0.002131676,0.1,94.44165,1591378793442
Fix,GT,37.4165056,-122.0799104,,0.0024422118,0.1,94.44116,1591378794442
Fix,GT,37.4165056,-122.0799104,,0.0030717612,0.1,94.44141,1591378795442
Fix,GT,37.4165056,-122.0799104,,0.0030905164,0.1,94.44235,1591378796442
Fix,GT,37.4165056,-122.0799104,,0.003071761,0.1,94.44232,1591378797442
Fix,GT,37.4165056,-122.0799104,,0.0031622774,0.1,94.44162,1591378798442
Fix,GT,37.4165056,-122.0799104,,0.0031622774,0.1,94.44147,1591378799442
Fix,GT,37.4165056,-122.0799104,,0.0036400268,0.1,94.44183,1591378800442
Fix,GT,37.4165056,-122.0799104,,0.0033553103,0.1,94.442444,1591378801442
Fix,GT,37.4165056,-122.0799104,,0.0018726343,0.1,94.44226,1591378802442
Fix,GT,37.4165056,-122.0799104,,0.0012310435,0.1,94.44214,1591378803442
Fix,GT,37.4165056,-122.0799104,,0.0011831702,0.1,94.44202,1591378804442
Fix,GT,37.4165056,-122.0799104,,0.0021872283,0.1,94.442505,1591378805442
Fix,GT,37.4165056,-122.0799104,,0.0033582984,0.1,94.44281,1591378806442
Fix,GT,37.4165056,-122.0799104,,0.0042221933,0.1,94.44284,1591378807442
Fix,GT,37.4165056,-122.0799104,,0.005585734,0.1,94.44339,1591378808442
Fix,GT,37.4165056,-122.0799104,,0.0061810333,0.1,94.443695,1591378809442
Fix,GT,37.4165056,-122.0799104,,0.0055577876,0.1,94.44318,1591378810442
Fix,GT,37.4165056,-122.0799104,,0.004187337,0.1,94.44287,1591378811442
Fix,GT,37.4165056,-122.0799104,,0.0026483047,0.1,94.44348,1591378812442
Fix,GT,37.4165056,-122.0799104,,0.0015577881,0.1,94.44385,1591378813442
Fix,GT,37.4165056,-122.0799104,,0.0015466041,0.1,94.44357,1591378814442
Fix,GT,37.4165056,-122.0799104,,0.002645649,0.1,94.44284,1591378815442
Fix,GT,37.4165056,-122.0799104,,0.0031622776,0.1,94.442444,1591378816442
Fix,GT,37.4165056,-122.0799104,,0.0017638806,0.1,94.4429,1591378817442
Fix,GT,37.4165056,-122.0799104,,0.0009888163,0.1,94.4433,1591378818442
Fix,GT,37.4165056,-122.0799104,,0.002236068,0.1,94.44324,1591378819442
Fix,GT,37.4165056,-122.0799104,,0.002236068,0.1,94.44284,1591378820442
Fix,GT,37.4165056,-122.0799104,,0.0025738878,0.1,94.4433,1591378821442
Fix,GT,37.4165056,-122.0799104,,0.0034966508,0.1,94.44345,1591378822442
Fix,GT,37.4165056,-122.0799104,,0.003288635,0.1,94.44296,1591378823442
Fix,GT,37.4165056,-122.0799104,,0.0016894639,0.1,94.44287,1591378824442
Fix,GT,37.4165056,-122.0799104,,0.0019561853,0.1,94.44284,1591378825442
Fix,GT,37.4165056,-122.0799104,,0.0026483044,0.1,94.44284,1591378826442
Fix,GT,37.4165056,-122.0799104,,0.0021043923,0.1,94.44287,1591378827442
Fix,GT,37.4165056,-122.0799104,,0.002645649,0.1,94.44275,1591378828442
Fix,GT,37.4165056,-122.0799104,,0.0031622774,0.1,94.443054,1591378829442
Fix,GT,37.4165056,-122.0799104,,0.0030905162,0.1,94.44299,1591378830442
Fix,GT,37.4165056,-122.0799104,,0.00266218,0.1,94.44263,1591378831442
Fix,GT,37.4165056,-122.0799104,,0.002236068,0.1,94.44275,1591378832442
Fix,GT,37.4165056,-122.0799104,,0.0021316758,0.1,94.442566,1591378833442
Fix,GT,37.4165056,-122.0799104,,0.0023663407,0.1,94.44232,1591378834442
Fix,GT,37.4165056,-122.0799104,,0.0025664787,0.1,94.44174,1591378835442
Fix,GT,37.4165056,-122.0799104,,0.001872634,0.1,94.44141,1591378836442
Fix,GT,37.4165056,-122.0799104,,0.0012310434,0.1,94.4422,1591378837442
Fix,GT,37.4165056,-122.0799104,,0.0011831704,0.1,94.44162,1591378838442
Fix,GT,37.4165056,-122.0799104,,0.0014142136,0.1,94.4411,1591378839442
Fix,GT,37.4165056,-122.0799104,,0.0012310434,0.1,94.44174,1591378840442
Fix,GT,37.4165056,-122.0799104,,0.001,0.1,94.44177,1591378841442
Fix,GT,37.4165056,-122.0799104,,0.0015466043,0.1,94.44183,1591378842442
Fix,GT,37.4165056,-122.0799104,,0.002236068,0.1,94.441986,1591378843442
Fix,GT,37.4165056,-122.0799104,,0.00284167,0.1,94.44226,1591378844442
Fix,GT,37.4165056,-122.0799104,,0.0026365153,0.1,94.44263,1591378845442
Fix,GT,37.4165056,-122.0799104,,0.0012310434,0.1,94.44226,1591378846442
Fix,GT,37.4165056,-122.0799104,,0.0015466043,0.1,94.44226,1591378847442
Fix,GT,37.4165056,-122.0799104,,0.0016894637,0.1,94.442444,1591378848442
Fix,GT,37.4165056,-122.0799104,,0.001,0.1,94.4426,1591378849442
Fix,GT,37.4165056,-122.0799104,,0.0011831704,0.1,94.44284,1591378850442
Fix,GT,37.4165056,-122.0799104,,0.0021872288,0.1,94.44281,1591378851442
Fix,GT,37.4165056,-122.0799104,,0.0022060922,0.1,94.44299,1591378852442
Fix,GT,37.4165056,-122.0799104,,0.0015466043,0.1,94.44354,1591378853442
Fix,GT,37.4165056,-122.0799104,,0.0021316758,0.1,94.44324,1591378854442
Fix,GT,37.4165056,-122.0799104,,0.0025139735,0.1,94.44345,1591378855442
Fix,GT,37.4165056,-122.0799104,,0.0027526966,0.1,94.443665,1591378856442
Fix,GT,37.4165056,-122.0799104,,0.002236068,0.1,94.44336,1591378857442
Fix,GT,37.4165056,-122.0799104,,0.001872634,0.1,94.44351,1591378858442
Fix,GT,37.4165056,-122.0799104,,0.0012310434,0.1,94.44324,1591378859442
Fix,GT,37.4165056,-122.0799104,,0.0014422123,0.1,94.44293,1591378860442
Fix,GT,37.4165056,-122.0799104,,0.0017409583,0.1,94.442535,1591378861442
Fix,GT,37.4165056,-122.0799104,,0.0016732556,0.1,94.44272,1591378862442
Fix,GT,37.4165056,-122.0799104,,0.0015577881,0.1,94.44269,1591378863442
Fix,GT,37.4165056,-122.0799104,,0.0010000002,0.1,94.44211,1591378864442
Fix,GT,37.4165056,-122.0799104,,0.0010000002,0.1,94.44226,1591378865442
Fix,GT,37.4165056,-122.0799104,,0.0010000002,0.1,94.44235,1591378866442
Fix,GT,37.4165056,-122.0799104,,0.0010000002,0.1,94.44168,1591378867442
Fix,GT,37.4165056,-122.0799104,,0.0015466043,0.1,94.44177,1591378868442
Fix,GT,37.4165056,-122.0799104,,0.001872634,0.1,94.44238,1591378869442
Fix,GT,37.4165056,-122.0799104,,0.0014142136,0.1,94.44229,1591378870442
Fix,GT,37.4165056,-122.0799104,,0.0012310434,0.1,94.44238,1591378871442
Fix,GT,37.4165056,-122.0799104,,0.0015466043,0.1,94.44263,1591378872442
Fix,GT,37.4165056,-122.0799104,,0.001872634,0.1,94.44263,1591378873442
Fix,GT,37.4165056,-122.0799104,,0.0012310434,0.1,94.442535,1591378874442
Fix,GT,37.4165056,-122.0799104,,0.0014422123,0.1,94.44281,1591378875442
Fix,GT,37.4165056,-122.0799104,,0.0015577881,0.1,94.44287,1591378876442
Fix,GT,37.4165056,-122.0799104,,0.0010000002,0.1,94.441956,1591378877442
Fix,GT,37.4165056,-122.0799104,,0.0011831704,0.1,94.44223,1591378878442
Fix,GT,37.4165056,-122.0799104,,0.0023832498,0.1,94.44217,1591378879442
Fix,GT,37.4165056,-122.0799104,,0.0032618977,0.1,94.44183,1591378880442
Fix,GT,37.4165056,-122.0799104,,0.002203045,0.1,94.44153,1591378881442
Fix,GT,37.4165056,-122.0799104,,0.0012310434,0.1,94.441895,1591378882442
Fix,GT,37.4165056,-122.0799104,,0.00055778795,0.1,94.4422,1591378883442
Fix,GT,37.4165056,-122.0799104,,0.0009888164,0.1,94.442566,1591378884442
Fix,GT,37.4165056,-122.0799104,,0.0021316758,0.1,94.442505,1591378885442
Fix,GT,37.4165056,-122.0799104,,0.001557788,0.1,94.441986,1591378886442
Fix,GT,37.4165056,-122.0799104,,0.0019561856,0.1,94.44342,1591378887442
Fix,GT,37.4165056,-122.0799104,,0.0027526966,0.1,94.444214,1591378888442
Fix,GT,37.4165056,-122.0799104,,0.002236068,0.1,94.443726,1591378889442
Fix,GT,37.4165056,-122.0799104,,0.0016894639,0.1,94.44293,1591378890442
Fix,GT,37.4165056,-122.0799104,,0.001,0.1,94.44208,1591378891442
Fix,GT,37.4165056,-122.0799104,,0.0011831704,0.1,94.44232,1591378892442
Fix,GT,37.4165056,-122.0799104,,0.0016732555,0.1,94.44241,1591378893442
Fix,GT,37.4165056,-122.0799104,,0.0025139735,0.1,94.4422,1591378894442
Fix,GT,37.4165056,-122.0799104,,0.0035871675,0.1,94.44165,1591378895442
Fix,GT,37.4165056,-122.0799103,,0.004510879,0.1,94.44159,1591378896442
Fix,GT,37.4165056,-122.0799103,,0.0054422123,0.1,94.441284,1591378897442
Fix,GT,37.4165055,-122.0799102,,0.0063131764,0.1,94.44095,1591378898442
Fix,GT,37.4165055,-122.0799102,,0.0059966026,0.1,94.44055,1591378899442
Fix,GT,37.4165055,-122.0799101,,0.005422689,0.1,94.44089,1591378900442
Fix,GT,37.4165055,-122.0799101,,0.0050757215,0.1,94.44061,1591378901442
Fix,GT,37.4165054,-122.07991,,0.005946393,0.1,94.44031,1591378902442
Fix,GT,37.4165053,-122.0799098,,0.058123752,0.1,94.37744,1591378903442
Fix,GT,37.4165055,-122.0799079,,0.39286226,0.1,93.239136,1591378904442
Fix,GT,37.416507,-122.0799002,,1.096666,0.1,89.60953,1591378905442
Fix,GT,37.4165097,-122.0798837,,1.9523838,0.1,85.546326,1591378906442
Fix,GT,37.4165126,-122.0798556,,3.1541476,0.1,85.513306,1591378907442
Fix,GT,37.4165142,-122.079811,,4.6871715,0.1,89.63422,1591378908442
Fix,GT,37.4165132,-122.0797495,,6.1384797,0.1,93.86105,1591378909442
Fix,GT,37.4165098,-122.0796723,,7.5361824,0.1,95.83844,1591378910442
Fix,GT,37.4165051,-122.0795806,,8.708306,0.1,96.50311,1591378911442
Fix,GT,37.416499,-122.0794779,,9.483023,0.1,97.11981,1591378912442
Fix,GT,37.4164915,-122.0793677,,10.037564,0.1,97.64453,1591378913442
Fix,GT,37.4164833,-122.0792527,,10.357653,0.1,97.83951,1591378914442
Fix,GT,37.4164749,-122.0791358,,10.418631,0.1,97.760315,1591378915442
Fix,GT,37.4164666,-122.0790185,,10.452496,0.1,97.65613,1591378916442
Fix,GT,37.4164587,-122.0789012,,10.346909,0.1,97.44,1591378917442
Fix,GT,37.4164514,-122.0787869,,9.916834,0.1,97.1311,1591378918442
Fix,GT,37.4164448,-122.078679,,9.23841,0.1,97.12332,1591378919442
Fix,GT,37.4164382,-122.0785793,,8.433728,0.1,97.64725,1591378920442
Fix,GT,37.4164312,-122.0784896,,7.5186887,0.1,98.54083,1591378921442
Fix,GT,37.4164239,-122.0784107,,6.5041027,0.1,99.57422,1591378922442
Fix,GT,37.4164157,-122.0783439,,5.3893065,0.1,102.163025,1591378923442
Fix,GT,37.4164043,-122.0782912,,4.3160853,0.1,109.3031,1591378924442
Fix,GT,37.4163871,-122.0782503,,3.9732203,0.1,121.145935,1591378925442
Fix,GT,37.4163592,-122.0782154,,4.6668825,0.1,137.6933,1591378926442
Fix,GT,37.4163158,-122.0781897,,5.864659,0.1,158.83154,1591378927442
Fix,GT,37.4162567,-122.0781803,,7.327606,0.1,176.75635,1591378928442
Fix,GT,37.4161826,-122.0781818,,8.990837,0.1,184.08316,1591378929442
Fix,GT,37.4160949,-122.0781854,,10.425825,0.1,184.7743,1591378930442
Fix,GT,37.4159952,-122.0781906,,11.702715,0.1,185.33572,1591378931442
Fix,GT,37.4158845,-122.0781978,,12.846235,0.1,185.78006,1591378932442
Fix,GT,37.4157644,-122.0782053,,13.76885,0.1,185.31097,1591378933442
Fix,GT,37.4156374,-122.0782102,,14.429804,0.1,183.93147,1591378934442
Fix,GT,37.4155051,-122.0782114,,14.961559,0.1,182.75957,1591378935442
Fix,GT,37.4153684,-122.078211,,15.394619,0.1,182.64056,1591378936442
Fix,GT,37.4152278,-122.0782112,,15.775959,0.1,182.95517,1591378937442
Fix,GT,37.4150839,-122.0782121,,16.159828,0.1,182.97452,1591378938442
Fix,GT,37.4149367,-122.0782126,,16.508303,0.1,182.79869,1591378939442
Fix,GT,37.4147869,-122.0782123,,16.70473,0.1,182.5277,1591378940442
Fix,GT,37.4146366,-122.0782115,,16.595358,0.1,182.30042,1591378941442
Fix,GT,37.4144893,-122.0782102,,15.966326,0.1,182.2154,1591378942442
Fix,GT,37.4143513,-122.078209,,14.500193,0.1,182.36235,1591378943442
Fix,GT,37.4142295,-122.0782086,,12.472454,0.1,182.71458,1591378944442
Fix,GT,37.4141267,-122.0782094,,10.278807,0.1,183.29474,1591378945442
Fix,GT,37.4140447,-122.0782112,,7.9380713,0.1,183.79895,1591378946442
Fix,GT,37.4139837,-122.0782126,,5.668399,0.1,183.52437,1591378947442
Fix,GT,37.4139398,-122.0782129,,4.1838107,0.1,182.94788,1591378948442
Fix,GT,37.4139058,-122.078213,,3.3857741,0.1,182.7881,1591378949442
Fix,GT,37.41388,-122.0782132,,2.3011618,0.1,182.94026,1591378950442
Fix,GT,37.4138649,-122.0782136,,1.0956494,0.1,183.10223,1591378951442
Fix,GT,37.4138594,-122.0782137,,0.26536036,0.1,183.1622,1591378952442
Fix,GT,37.4138588,-122.0782137,,0.0067518777,0.1,183.15744,1591378953442
Fix,GT,37.4138587,-122.0782137,,0.0046130195,0.1,183.15543,1591378954442
Fix,GT,37.4138587,-122.0782137,,0.0034819164,0.1,183.15558,1591378955442
Fix,GT,37.4138586,-122.0782137,,0.0020198745,0.1,183.15515,1591378956442
Fix,GT,37.4138586,-122.0782137,,0.001,0.1,183.15459,1591378957442
Fix,GT,37.4138586,-122.0782137,,0.0011831702,0.1,183.15388,1591378958442
Fix,GT,37.4138586,-122.0782137,,0.0012310434,0.1,183.15309,1591378959442
Fix,GT,37.4138586,-122.0782137,,0.001,0.1,183.15245,1591378960442
Fix,GT,37.4138586,-122.0782137,,0.00055778795,0.1,183.15184,1591378961442
Fix,GT,37.4138586,-122.0782137,,0.0004422121,0.1,183.15097,1591378962442
Fix,GT,37.4138586,-122.0782137,,0.0015466042,0.1,183.15053,1591378963442
Fix,GT,37.4138586,-122.0782137,,0.002645649,0.1,183.15039,1591378964442
Fix,GT,37.4138586,-122.0782137,,0.0026483042,0.1,183.15001,1591378965442
Fix,GT,37.4138586,-122.0782137,,0.002,0.1,183.1495,1591378966442
Fix,GT,37.4138585,-122.0782137,,0.0011155759,0.1,183.1499,1591378967442
Fix,GT,37.4138585,-122.0782137,,0.0,0.1,183.151,1591378968442
Fix,GT,37.4138585,-122.0782137,,0.0006253823,0.1,183.15067,1591378969442
Fix,GT,37.4138585,-122.0782137,,0.0014142136,0.1,183.15002,1591378970442
Fix,GT,37.4138585,-122.0782137,,0.01715068,0.1,183.15001,1591378971442
Fix,GT,37.4138571,-122.0782137,,0.4686097,0.1,183.13722,1591378972442
Fix,GT,37.4138471,-122.0782136,,1.968196,0.1,183.02191,1591378973442
Fix,GT,37.4138202,-122.0782137,,3.9999652,0.1,182.67644,1591378974442
Fix,GT,37.4137766,-122.078213,,5.6215706,0.1,182.11627,1591378975442
Fix,GT,37.4137193,-122.078212,,7.0589266,0.1,181.84848,1591378976442
Fix,GT,37.4136485,-122.0782112,,8.630983,0.1,182.32512,1591378977442
Fix,GT,37.4135639,-122.0782114,,10.078975,0.1,182.923,1591378978442
Fix,GT,37.4134674,-122.0782125,,11.299566,0.1,183.2361,1591378979442
Fix,GT,37.4133608,-122.0782141,,12.28809,0.1,183.40741,1591378980442
Fix,GT,37.4132462,-122.0782159,,13.127869,0.1,183.42245,1591378981442
Fix,GT,37.4131246,-122.078218,,13.859171,0.1,183.46399,1591378982442
Fix,GT,37.4129969,-122.07822,,14.468208,0.1,183.31232,1591378983442
Fix,GT,37.4128642,-122.0782212,,15.011934,0.1,182.9009,1591378984442
Fix,GT,37.4127269,-122.0782211,,15.503883,0.1,182.45439,1591378985442
Fix,GT,37.4125854,-122.0782197,,15.877958,0.1,182.01448,1591378986442
Fix,GT,37.4124423,-122.078217,,15.840689,0.1,181.79451,1591378987442
Fix,GT,37.4123016,-122.0782152,,15.352745,0.1,182.49527,1591378988442
Fix,GT,37.4121658,-122.0782163,,14.789901,0.1,183.33757,1591378989442
Fix,GT,37.412035,-122.0782183,,14.278534,0.1,183.30515,1591378990442
Fix,GT,37.4119079,-122.07822,,13.949821,0.1,183.21132,1591378991442
Fix,GT,37.4117834,-122.0782213,,13.708654,0.1,183.12025,1591378992442
Fix,GT,37.4116609,-122.0782223,,13.477629,0.1,183.02255,1591378993442
Fix,GT,37.4115414,-122.0782235,,13.003798,0.1,183.37909,1591378994442
Fix,GT,37.4114274,-122.0782285,,12.271328,0.1,185.71056,1591378995442
Fix,GT,37.4113205,-122.0782412,,11.503767,0.1,189.66098,1591378996442
Fix,GT,37.4112217,-122.0782641,,10.714534,0.1,195.70474,1591378997442
Fix,GT,37.4111332,-122.0783026,,10.081951,0.1,205.6638,1591378998442
Fix,GT,37.4110567,-122.0783605,,9.70844,0.1,218.1905,1591378999442
Fix,GT,37.4109965,-122.078438,,9.48256,0.1,233.38243,1591379000442
Fix,GT,37.410957,-122.0785336,,9.651017,0.1,250.56897,1591379001442
Fix,GT,37.4109426,-122.0786446,,10.322695,0.1,268.98996,1591379002442
Fix,GT,37.4109566,-122.0787635,,10.90416,0.1,286.47214,1591379003442
Fix,GT,37.4109975,-122.0788778,,11.188065,0.1,301.80313,1591379004442
Fix,GT,37.4110606,-122.0789773,,11.29011,0.1,316.0411,1591379005442
Fix,GT,37.4111416,-122.079055,,11.32843,0.1,330.19653,1591379006442
Fix,GT,37.4112358,-122.0791046,,11.332956,0.1,345.03177,1591379007442
Fix,GT,37.411337,-122.0791235,,11.385632,0.1,359.02194,1591379008442
Fix,GT,37.4114393,-122.0791114,,11.461929,0.1,13.017517,1591379009442
Fix,GT,37.4115363,-122.0790668,,11.505726,0.1,28.305878,1591379010442
Fix,GT,37.4116198,-122.0789898,,11.5468445,0.1,45.036346,1591379011442
Fix,GT,37.4116817,-122.0788846,,11.67823,0.1,62.472473,1591379012442
Fix,GT,37.4117162,-122.078759,,11.942829,0.1,79.90338,1591379013442
Fix,GT,37.4117207,-122.0786214,,12.507801,0.1,95.80847,1591379014442
Fix,GT,37.4116977,-122.078479,,13.227848,0.1,108.54401,1591379015442
Fix,GT,37.4116533,-122.0783355,,14.012205,0.1,116.300995,1591379016442
Fix,GT,37.4115971,-122.0781877,,14.935297,0.1,118.86713,1591379017442
Fix,GT,37.4115348,-122.0780321,,15.880243,0.1,119.782166,1591379018442
Fix,GT,37.4114673,-122.077868,,16.789082,0.1,120.14844,1591379019442
Fix,GT,37.411396,-122.077695,,17.679562,0.1,120.25067,1591379020442
Fix,GT,37.4113205,-122.0775135,,18.567993,0.1,120.41614,1591379021442
Fix,GT,37.411241,-122.0773234,,19.429758,0.1,120.59851,1591379022442
Fix,GT,37.4111576,-122.0771254,,20.189877,0.1,120.69861,1591379023442
Fix,GT,37.4110713,-122.0769204,,20.846989,0.1,120.44672,1591379024442
Fix,GT,37.4109838,-122.0767083,,21.449116,0.1,119.94006,1591379025442
Fix,GT,37.410895,-122.0764893,,22.075693,0.1,119.69504,1591379026442
Fix,GT,37.410804,-122.0762634,,22.735126,0.1,119.65137,1591379027442
Fix,GT,37.4107103,-122.0760309,,23.377558,0.1,119.45422,1591379028442
Fix,GT,37.4106149,-122.0757917,,23.958961,0.1,119.18594,1591379029442
Fix,GT,37.4105182,-122.0755466,,24.457897,0.1,119.005615,1591379030442
Fix,GT,37.4104196,-122.0752968,,24.901192,0.1,119.26407,1591379031442
Fix,GT,37.4103176,-122.0750436,,25.278107,0.1,119.894714,1591379032442
Fix,GT,37.4102121,-122.0747891,,25.45126,0.1,120.55798,1591379033442
Fix,GT,37.4101041,-122.0745354,,25.486729,0.1,121.14801,1591379034442
Fix,GT,37.4099939,-122.0742823,,25.5891,0.1,121.64346,1591379035442
Fix,GT,37.409882,-122.0740292,,25.665535,0.1,121.80783,1591379036442
Fix,GT,37.4097697,-122.0737753,,25.735043,0.1,121.66049,1591379037442
Fix,GT,37.4096577,-122.0735202,,25.82225,0.1,121.616516,1591379038442
Fix,GT,37.4095448,-122.0732649,,25.851233,0.1,121.91052,1591379039442
Fix,GT,37.4094308,-122.0730104,,25.79723,0.1,122.06537,1591379040442
Fix,GT,37.4093178,-122.0727566,,25.657373,0.1,121.71246,1591379041442
Fix,GT,37.4092066,-122.0725039,,25.436329,0.1,121.605865,1591379042442
Fix,GT,37.4090959,-122.0722542,,25.112083,0.1,122.0856,1591379043442
Fix,GT,37.4089847,-122.0720096,,24.702312,0.1,122.74124,1591379044442
Fix,GT,37.4088728,-122.0717714,,24.254475,0.1,123.93756,1591379045442
Fix,GT,37.4087559,-122.0715428,,23.851572,0.1,127.07184,1591379046442
Fix,GT,37.4086281,-122.071328,,23.564587,0.1,131.63223,1591379047442
Fix,GT,37.4084887,-122.0711286,,23.36637,0.1,136.09851,1591379048442
Fix,GT,37.4083385,-122.0709447,,23.210468,0.1,140.53275,1591379049442
Fix,GT,37.4081786,-122.0707774,,23.001114,0.1,144.95135,1591379050442
Fix,GT,37.4080109,-122.0706275,,22.675442,0.1,149.19934,1591379051442
Fix,GT,37.4078375,-122.0704948,,22.403168,0.1,153.12695,1591379052442
Fix,GT,37.4076593,-122.0703783,,22.181686,0.1,156.89465,1591379053442
Fix,GT,37.4074774,-122.0702777,,21.972652,0.1,160.66559,1591379054442
Fix,GT,37.4072914,-122.0701932,,21.967043,0.1,164.65472,1591379055442
Fix,GT,37.4071002,-122.0701257,,22.127342,0.1,169.11163,1591379056442
Fix,GT,37.4069036,-122.0700777,,22.315517,0.1,173.97156,1591379057442
Fix,GT,37.4067027,-122.0700509,,22.559942,0.1,178.74078,1591379058442
Fix,GT,37.406498,-122.0700409,,22.878078,0.1,181.60863,1591379059442
Fix,GT,37.4062903,-122.0700379,,23.216337,0.1,182.19926,1591379060442
Fix,GT,37.4060795,-122.0700348,,23.61317,0.1,181.97552,1591379061442
Fix,GT,37.4058646,-122.0700307,,24.09009,0.1,181.83377,1591379062442
Fix,GT,37.4056454,-122.0700269,,24.570007,0.1,182.04478,1591379063442
Fix,GT,37.4054221,-122.0700238,,25.006227,0.1,182.05511,1591379064442
Fix,GT,37.405195,-122.0700198,,25.402592,0.1,181.79434,1591379065442
Fix,GT,37.4049646,-122.0700149,,25.74316,0.1,181.91722,1591379066442
Fix,GT,37.4047313,-122.0700126,,26.020824,0.1,182.6549,1591379067442
Fix,GT,37.4044956,-122.0700141,,26.2667,0.1,183.2265,1591379068442
Fix,GT,37.4042579,-122.0700174,,26.492168,0.1,183.42567,1591379069442
Fix,GT,37.4040183,-122.0700206,,26.663864,0.1,183.26797,1591379070442
Fix,GT,37.4037775,-122.0700226,,26.763664,0.1,183.0109,1591379071442
Fix,GT,37.4035367,-122.0700234,,26.683167,0.1,182.81442,1591379072442
Fix,GT,37.403297,-122.0700245,,26.55336,0.1,183.13272,1591379073442
Fix,GT,37.4030574,-122.0700272,,26.639984,0.1,183.432,1591379074442
Fix,GT,37.4028166,-122.0700303,,26.817894,0.1,183.2816,1591379075442
Fix,GT,37.402574,-122.0700333,,27.016052,0.1,183.36772,1591379076442
Fix,GT,37.4023296,-122.0700372,,27.241968,0.1,183.53433,1591379077442
Fix,GT,37.4020828,-122.0700414,,27.526976,0.1,183.55786,1591379078442
Fix,GT,37.4018334,-122.0700458,,27.843876,0.1,183.5738,1591379079442
Fix,GT,37.401581,-122.07005,,28.162617,0.1,183.46666,1591379080442
Fix,GT,37.4013258,-122.070053,,28.474566,0.1,183.09178,1591379081442
Fix,GT,37.4010679,-122.0700527,,28.786678,0.1,182.30637,1591379082442
Fix,GT,37.4008075,-122.070046,,29.044983,0.1,180.70483,1591379083442
Fix,GT,37.4005463,-122.0700284,,29.042574,0.1,178.58893,1591379084442
Fix,GT,37.4002868,-122.0699983,,28.85873,0.1,176.33667,1591379085442
Fix,GT,37.4000295,-122.0699561,,28.775894,0.1,174.21649,1591379086442
Fix,GT,37.399774,-122.0699022,,28.802277,0.1,172.31012,1591379087442
Fix,GT,37.399519,-122.0698395,,28.96746,0.1,171.15887,1591379088442
Fix,GT,37.3992623,-122.0697721,,29.237614,0.1,170.7384,1591379089442
Fix,GT,37.3990037,-122.069703,,29.421268,0.1,170.60931,1591379090442
Fix,GT,37.3987441,-122.0696331,,29.516531,0.1,170.59473,1591379091442
Fix,GT,37.3984839,-122.069563,,29.555992,0.1,170.5661,1591379092442
Fix,GT,37.3982235,-122.0694928,,29.563223,0.1,170.6211,1591379093442
Fix,GT,37.3979631,-122.069423,,29.52833,0.1,170.64197,1591379094442
Fix,GT,37.3977036,-122.0693532,,29.374819,0.1,170.57867,1591379095442
Fix,GT,37.3974457,-122.0692835,,29.171204,0.1,170.51593,1591379096442
Fix,GT,37.3971893,-122.0692139,,29.081041,0.1,170.4989,1591379097442
Fix,GT,37.3969332,-122.0691445,,29.059975,0.1,170.54395,1591379098442
Fix,GT,37.3966774,-122.0690753,,29.041306,0.1,170.55414,1591379099442
Fix,GT,37.3964217,-122.0690062,,29.024712,0.1,170.54425,1591379100442
Fix,GT,37.3961661,-122.0689375,,28.990377,0.1,170.75708,1591379101442
Fix,GT,37.3959111,-122.0688711,,28.79258,0.1,171.16077,1591379102442
Fix,GT,37.3956586,-122.0688078,,28.32101,0.1,171.65466,1591379103442
Fix,GT,37.3954102,-122.0687496,,27.853535,0.1,172.6275,1591379104442
Fix,GT,37.3951638,-122.0686983,,27.670652,0.1,173.9613,1591379105442
Fix,GT,37.3949169,-122.0686539,,27.652313,0.1,175.16211,1591379106442
Fix,GT,37.39467,-122.0686159,,27.53426,0.1,176.29578,1591379107442
Fix,GT,37.3944237,-122.0685842,,27.372322,0.1,177.34949,1591379108442
Fix,GT,37.3941786,-122.068558,,27.229206,0.1,178.38544,1591379109442
Fix,GT,37.3939343,-122.0685383,,27.110748,0.1,179.73584,1591379110442
Fix,GT,37.3936907,-122.0685263,,26.994564,0.1,181.26321,1591379111442
Fix,GT,37.3934479,-122.0685228,,26.898594,0.1,182.89288,1591379112442
Fix,GT,37.3932055,-122.0685274,,26.866436,0.1,184.32234,1591379113442
Fix,GT,37.3929637,-122.0685389,,26.857925,0.1,185.41595,1591379114442
Fix,GT,37.3927221,-122.0685557,,26.842323,0.1,186.37619,1591379115442
Fix,GT,37.3924808,-122.0685768,,26.851856,0.1,187.024,1591379116442
Fix,GT,37.3922394,-122.0686002,,26.882946,0.1,187.28818,1591379117442
Fix,GT,37.3919977,-122.0686241,,26.935658,0.1,187.26201,1591379118442
Fix,GT,37.3917552,-122.0686475,,27.062641,0.1,187.1404,1591379119442
Fix,GT,37.3915113,-122.0686711,,27.245558,0.1,187.23836,1591379120442
Fix,GT,37.3912659,-122.0686955,,27.351725,0.1,187.25117,1591379121442
Fix,GT,37.3910207,-122.0687188,,27.175426,0.1,186.86,1591379122442
Fix,GT,37.3907776,-122.0687404,,26.90406,0.1,186.81644,1591379123442
Fix,GT,37.3905357,-122.0687631,,26.951988,0.1,187.25314,1591379124442
Fix,GT,37.3902923,-122.0687879,,27.261002,0.1,187.48874,1591379125442
Fix,GT,37.390046,-122.0688134,,27.575274,0.1,187.42296,1591379126442
Fix,GT,37.3897969,-122.0688382,,27.895657,0.1,187.10945,1591379127442
Fix,GT,37.3895449,-122.0688613,,28.168514,0.1,186.73387,1591379128442
Fix,GT,37.3892907,-122.0688823,,28.34644,0.1,186.28899,1591379129442
Fix,GT,37.3890358,-122.0689,,28.292141,0.1,185.53806,1591379130442
Fix,GT,37.3887835,-122.068912,,27.699795,0.1,184.29602,1591379131442
Fix,GT,37.3885376,-122.0689161,,26.921974,0.1,182.69484,1591379132442
Fix,GT,37.3882979,-122.0689113,,26.372347,0.1,181.04898,1591379133442
Fix,GT,37.3880626,-122.0688985,,26.021257,0.1,179.51999,1591379134442
Fix,GT,37.3878287,-122.068879,,26.089684,0.1,178.39172,1591379135442
Fix,GT,37.3875927,-122.0688546,,26.437103,0.1,177.74988,1591379136442
Fix,GT,37.3873544,-122.0688277,,26.661613,0.1,177.4873,1591379137442
Fix,GT,37.3871145,-122.0688003,,26.779224,0.1,177.6189,1591379138442
Fix,GT,37.3868739,-122.0687743,,26.847748,0.1,177.89142,1591379139442
Fix,GT,37.3866323,-122.0687493,,26.994297,0.1,178.1001,1591379140442
Fix,GT,37.3863887,-122.0687249,,27.25306,0.1,178.11621,1591379141442
Fix,GT,37.3861428,-122.0686995,,27.518696,0.1,177.8609,1591379142442
Fix,GT,37.3858947,-122.0686722,,27.77322,0.1,177.65479,1591379143442
Fix,GT,37.3856443,-122.0686444,,28.017874,0.1,177.71344,1591379144442
Fix,GT,37.3853919,-122.0686166,,28.214483,0.1,177.62903,1591379145442
Fix,GT,37.3851385,-122.068588,,28.267796,0.1,177.48633,1591379146442
Fix,GT,37.3848853,-122.0685589,,28.169868,0.1,177.45782,1591379147442
Fix,GT,37.3846333,-122.0685296,,28.022442,0.1,177.3695,1591379148442
Fix,GT,37.3843824,-122.0685003,,27.911673,0.1,177.3938,1591379149442
Fix,GT,37.3841322,-122.0684716,,27.844227,0.1,177.57947,1591379150442
Fix,GT,37.3838831,-122.068444,,27.674809,0.1,177.81653,1591379151442
Fix,GT,37.383636,-122.0684174,,27.366104,0.1,177.7351,1591379152442
Fix,GT,37.3833912,-122.06839,,27.261326,0.1,177.41974,1591379153442
Fix,GT,37.3831462,-122.0683612,,27.406681,0.1,177.3667,1591379154442
Fix,GT,37.3828994,-122.0683327,,27.586613,0.1,177.57385,1591379155442
Fix,GT,37.3826508,-122.0683052,,27.794674,0.1,177.6925,1591379156442
Fix,GT,37.3824004,-122.0682778,,27.989498,0.1,177.70142,1591379157442
Fix,GT,37.3821485,-122.06825,,28.12207,0.1,177.72565,1591379158442
Fix,GT,37.3818957,-122.0682225,,28.215908,0.1,177.77667,1591379159442
Fix,GT,37.3816419,-122.0681953,,28.353882,0.1,177.82019,1591379160442
Fix,GT,37.3813866,-122.0681682,,28.504429,0.1,177.85034,1591379161442
Fix,GT,37.3811305,-122.0681413,,28.513332,0.1,177.78174,1591379162442
Fix,GT,37.3808754,-122.0681129,,28.345844,0.1,177.37964,1591379163442
Fix,GT,37.3806215,-122.068083,,28.306543,0.1,177.29639,1591379164442
Fix,GT,37.3803668,-122.0680541,,28.422157,0.1,177.71722,1591379165442
Fix,GT,37.3801114,-122.0680269,,28.42657,0.1,177.9184,1591379166442
Fix,GT,37.3798569,-122.0679999,,28.235054,0.1,177.87396,1591379167442
Fix,GT,37.3796048,-122.0679728,,27.92496,0.1,177.8695,1591379168442
Fix,GT,37.3793556,-122.0679463,,27.59026,0.1,177.79272,1591379169442
Fix,GT,37.3791096,-122.0679192,,27.209671,0.1,177.65039,1591379170442
Fix,GT,37.3788671,-122.0678919,,26.801003,0.1,177.62378,1591379171442
Fix,GT,37.3786281,-122.0678663,,26.504269,0.1,177.97223,1591379172442
Fix,GT,37.3783901,-122.0678445,,26.545338,0.1,178.8357,1591379173442
Fix,GT,37.3781503,-122.0678281,,26.767918,0.1,179.93854,1591379174442
Fix,GT,37.3779087,-122.0678189,,26.876917,0.1,181.32542,1591379175442
Fix,GT,37.3776664,-122.0678182,,26.899567,0.1,183.08669,1591379176442
Fix,GT,37.3774243,-122.0678267,,26.87993,0.1,184.9966,1591379177442
Fix,GT,37.3771825,-122.0678434,,26.864975,0.1,186.44604,1591379178442
Fix,GT,37.3769413,-122.0678659,,26.802147,0.1,187.23827,1591379179442
Fix,GT,37.3767012,-122.0678915,,26.64112,0.1,187.97227,1591379180442
Fix,GT,37.376463,-122.067918,,26.443172,0.1,188.40274,1591379181442
Fix,GT,37.3762265,-122.0679461,,26.289608,0.1,188.56984,1591379182442
Fix,GT,37.3759915,-122.0679762,,26.141312,0.1,188.7176,1591379183442
Fix,GT,37.3757583,-122.0680062,,25.874823,0.1,188.56555,1591379184442
Fix,GT,37.3755279,-122.0680333,,25.47177,0.1,187.89069,1591379185442
Fix,GT,37.3753011,-122.0680553,,25.044409,0.1,186.7432,1591379186442
Fix,GT,37.3750775,-122.0680697,,24.7155,0.1,184.79234,1591379187442
Fix,GT,37.3748564,-122.0680725,,24.395824,0.1,182.21277,1591379188442
Fix,GT,37.3746384,-122.0680631,,24.057053,0.1,179.97577,1591379189442
Fix,GT,37.3744231,-122.068044,,23.86071,0.1,177.99316,1591379190442
Fix,GT,37.3742097,-122.0680169,,23.826996,0.1,176.06897,1591379191442
Fix,GT,37.3739974,-122.0679802,,23.805054,0.1,173.78772,1591379192442
Fix,GT,37.3737866,-122.067932,,23.785002,0.1,171.23376,1591379193442
Fix,GT,37.3735774,-122.0678729,,23.918835,0.1,169.04303,1591379194442
Fix,GT,37.3733683,-122.0678039,,24.141537,0.1,167.0592,1591379195442
Fix,GT,37.3731594,-122.0677247,,24.381252,0.1,164.85974,1591379196442
Fix,GT,37.3729512,-122.067634,,24.609291,0.1,162.36816,1591379197442
Fix,GT,37.3727445,-122.0675315,,24.768024,0.1,160.1012,1591379198442
Fix,GT,37.3725394,-122.0674195,,24.93332,0.1,158.48993,1591379199442
Fix,GT,37.3723348,-122.067301,,25.10664,0.1,157.36926,1591379200442
Fix,GT,37.372131,-122.0671775,,25.138968,0.1,156.51611,1591379201442
Fix,GT,37.3719284,-122.0670521,,25.048252,0.1,156.32434,1591379202442
Fix,GT,37.371726,-122.0669276,,25.019947,0.1,156.73383,1591379203442
Fix,GT,37.3715226,-122.0668052,,25.082726,0.1,157.28839,1591379204442
Fix,GT,37.3713182,-122.0666852,,24.994373,0.1,157.76855,1591379205442
Fix,GT,37.3711149,-122.0665672,,24.727837,0.1,157.7461,1591379206442
Fix,GT,37.3709142,-122.0664486,,24.580753,0.1,157.09973,1591379207442
Fix,GT,37.3707144,-122.0663276,,24.712793,0.1,156.79382,1591379208442
Fix,GT,37.3705131,-122.0662052,,24.975168,0.1,156.81079,1591379209442
Fix,GT,37.3703099,-122.0660809,,25.22628,0.1,156.58875,1591379210442
Fix,GT,37.3701049,-122.0659549,,25.471462,0.1,156.53131,1591379211442
Fix,GT,37.3698978,-122.0658275,,25.718945,0.1,156.53082,1591379212442
Fix,GT,37.3696889,-122.0656986,,25.962559,0.1,156.43805,1591379213442
Fix,GT,37.3694783,-122.0655682,,26.168655,0.1,156.37787,1591379214442
Fix,GT,37.3692661,-122.0654366,,26.36879,0.1,156.42242,1591379215442
Fix,GT,37.369052,-122.0653044,,26.593546,0.1,156.57031,1591379216442
Fix,GT,37.3688356,-122.0651721,,26.826296,0.1,156.81165,1591379217442
Fix,GT,37.3686171,-122.0650396,,27.049965,0.1,156.94574,1591379218442
Fix,GT,37.3683967,-122.0649065,,27.252447,0.1,157.03577,1591379219442
Fix,GT,37.3681744,-122.064773,,27.461903,0.1,157.13171,1591379220442
Fix,GT,37.3679505,-122.0646385,,27.632133,0.1,156.95544,1591379221442
Fix,GT,37.3677264,-122.0645027,,27.585419,0.1,156.7182,1591379222442
Fix,GT,37.3675041,-122.0643676,,27.271957,0.1,156.80438,1591379223442
Fix,GT,37.3672842,-122.0642349,,26.94315,0.1,156.99731,1591379224442
Fix,GT,37.3670661,-122.0641038,,26.788925,0.1,156.98907,1591379225442
Fix,GT,37.3668485,-122.0639729,,26.796818,0.1,157.08386,1591379226442
Fix,GT,37.3666301,-122.0638441,,26.761084,0.1,158.00916,1591379227442
Fix,GT,37.3664098,-122.0637224,,26.653902,0.1,159.84619,1591379228442
Fix,GT,37.3661867,-122.063611,,26.64876,0.1,161.90125,1591379229442
Fix,GT,37.3659605,-122.0635086,,26.74004,0.1,163.64612,1591379230442
Fix,GT,37.365731,-122.0634147,,26.824844,0.1,165.53314,1591379231442
Fix,GT,37.3654982,-122.063331,,26.901022,0.1,167.78448,1591379232442
Fix,GT,37.3652623,-122.0632586,,27.008007,0.1,169.87817,1591379233442
Fix,GT,37.3650234,-122.0631959,,27.158976,0.1,171.72076,1591379234442
Fix,GT,37.3647816,-122.0631428,,27.338007,0.1,173.724,1591379235442
Fix,GT,37.3645366,-122.0631003,,27.539639,0.1,175.86536,1591379236442
Fix,GT,37.3642887,-122.063069,,27.738647,0.1,177.90082,1591379237442
Fix,GT,37.3640384,-122.0630486,,27.926605,0.1,179.9784,1591379238442
Fix,GT,37.363786,-122.0630391,,28.095242,0.1,181.89062,1591379239442
Fix,GT,37.3635323,-122.0630384,,28.213936,0.1,183.1919,1591379240442
Fix,GT,37.3632776,-122.0630428,,28.341797,0.1,183.69336,1591379241442
Fix,GT,37.3630217,-122.0630483,,28.474445,0.1,183.66577,1591379242442
Fix,GT,37.3627647,-122.0630532,,28.580013,0.1,183.58897,1591379243442
Fix,GT,37.3625068,-122.0630584,,28.686712,0.1,183.74559,1591379244442
Fix,GT,37.3622479,-122.063064,,28.794994,0.1,183.71959,1591379245442
Fix,GT,37.361988,-122.0630694,,28.91116,0.1,183.6359,1591379246442
Fix,GT,37.361727,-122.0630743,,29.017778,0.1,183.54088,1591379247442
Fix,GT,37.3614651,-122.0630793,,29.136375,0.1,183.65627,1591379248442
Fix,GT,37.3612022,-122.0630857,,29.183933,0.1,183.91339,1591379249442
Fix,GT,37.3609401,-122.0630924,,28.94519,0.1,183.87442,1591379250442
Fix,GT,37.3606812,-122.0630984,,28.502575,0.1,183.7168,1591379251442
Fix,GT,37.3604266,-122.0631034,,28.010166,0.1,183.56505,1591379252442
Fix,GT,37.3601765,-122.0631076,,27.5392,0.1,183.50377,1591379253442
Fix,GT,37.3599298,-122.0631118,,27.289558,0.1,183.48528,1591379254442
Fix,GT,37.3596841,-122.0631149,,27.284803,0.1,183.06363,1591379255442
Fix,GT,37.359438,-122.0631137,,27.339733,0.1,181.92488,1591379256442
Fix,GT,37.3591917,-122.0631056,,27.397648,0.1,180.66544,1591379257442
Fix,GT,37.3589447,-122.0630921,,27.503857,0.1,179.86194,1591379258442
Fix,GT,37.3586966,-122.0630739,,27.648956,0.1,178.82996,1591379259442
Fix,GT,37.3584477,-122.0630494,,27.7978,0.1,177.73682,1591379260442
Fix,GT,37.3581978,-122.0630194,,27.948303,0.1,176.79529,1591379261442
Fix,GT,37.3579477,-122.0629841,,27.917522,0.1,175.76428,1591379262442
Fix,GT,37.3576997,-122.0629432,,27.603554,0.1,174.65369,1591379263442
Fix,GT,37.357455,-122.0628965,,27.395079,0.1,173.5263,1591379264442
Fix,GT,37.3572115,-122.0628442,,27.512396,0.1,172.51215,1591379265442
Fix,GT,37.356967,-122.0627863,,27.724396,0.1,171.50995,1591379266442
Fix,GT,37.3567217,-122.0627224,,27.915289,0.1,170.39777,1591379267442
Fix,GT,37.356476,-122.0626518,,28.080765,0.1,169.27307,1591379268442
Fix,GT,37.3562299,-122.062575,,28.224258,0.1,168.21936,1591379269442
Fix,GT,37.3559838,-122.0624928,,28.3176,0.1,167.32782,1591379270442
Fix,GT,37.3557383,-122.0624053,,28.359854,0.1,166.31213,1591379271442
Fix,GT,37.3554938,-122.0623119,,28.387358,0.1,165.08081,1591379272442
Fix,GT,37.355251,-122.0622121,,28.379452,0.1,163.9859,1591379273442
Fix,GT,37.3550097,-122.0621066,,28.337402,0.1,162.98358,1591379274442
Fix,GT,37.3547702,-122.0619966,,28.291103,0.1,162.15247,1591379275442
Fix,GT,37.3545323,-122.0618825,,28.28907,0.1,161.30627,1591379276442
Fix,GT,37.3542955,-122.0617643,,28.32743,0.1,160.67346,1591379277442
Fix,GT,37.3540587,-122.0616439,,28.374626,0.1,160.63062,1591379278442
Fix,GT,37.3538214,-122.0615242,,28.432709,0.1,160.86334,1591379279442
Fix,GT,37.3535837,-122.0614053,,28.332012,0.1,160.85834,1591379280442
Fix,GT,37.353348,-122.0612873,,27.95644,0.1,160.95789,1591379281442
Fix,GT,37.3531153,-122.0611728,,27.533295,0.1,161.56476,1591379282442
Fix,GT,37.3528841,-122.0610638,,27.31595,0.1,162.49835,1591379283442
Fix,GT,37.3526528,-122.0609607,,27.101059,0.1,163.62726,1591379284442
Fix,GT,37.3524227,-122.0608647,,26.747639,0.1,164.83417,1591379285442
Fix,GT,37.3521935,-122.0607755,,26.568546,0.1,165.91968,1591379286442
Fix,GT,37.3519634,-122.0606918,,26.65995,0.1,167.01678,1591379287442
Fix,GT,37.3517309,-122.0606129,,26.80508,0.1,167.9273,1591379288442
Fix,GT,37.3514968,-122.060538,,26.782833,0.1,168.73938,1591379289442
Fix,GT,37.3512623,-122.0604676,,26.75837,0.1,169.67511,1591379290442
Fix,GT,37.3510263,-122.0604022,,26.907475,0.1,170.75238,1591379291442
Fix,GT,37.3507882,-122.0603425,,26.935005,0.1,171.89673,1591379292442
Fix,GT,37.35055,-122.0602884,,26.785648,0.1,172.8949,1591379293442
Fix,GT,37.3503117,-122.0602398,,26.820923,0.1,173.9627,1591379294442
Fix,GT,37.3500712,-122.0601967,,27.116814,0.1,175.0553,1591379295442
Fix,GT,37.3498275,-122.0601587,,27.366398,0.1,176.03949,1591379296442
Fix,GT,37.3495814,-122.0601255,,27.526417,0.1,177.04022,1591379297442
Fix,GT,37.3493338,-122.0600977,,27.641464,0.1,178.10242,1591379298442
Fix,GT,37.3490848,-122.0600755,,27.761616,0.1,179.13995,1591379299442
Fix,GT,37.3488344,-122.0600585,,27.893867,0.1,180.05688,1591379300442
Fix,GT,37.3485825,-122.0600465,,28.06211,0.1,180.97375,1591379301442
Fix,GT,37.3483288,-122.0600393,,28.252998,0.1,181.85625,1591379302442
Fix,GT,37.3480733,-122.0600364,,28.44498,0.1,182.48317,1591379303442
Fix,GT,37.347816,-122.0600362,,28.648502,0.1,182.78194,1591379304442
Fix,GT,37.3475571,-122.0600369,,28.838415,0.1,182.89738,1591379305442
Fix,GT,37.3472965,-122.060038,,29.000885,0.1,182.93832,1591379306442
Fix,GT,37.3470346,-122.0600393,,29.122314,0.1,182.91379,1591379307442
Fix,GT,37.3467719,-122.0600401,,29.217394,0.1,182.73875,1591379308442
Fix,GT,37.3465081,-122.0600398,,29.330883,0.1,182.59189,1591379309442
Fix,GT,37.3462432,-122.0600388,,29.457365,0.1,182.52867,1591379310442
Fix,GT,37.3459773,-122.0600374,,29.574621,0.1,182.47925,1591379311442
Fix,GT,37.3457111,-122.0600358,,29.491373,0.1,182.3875,1591379312442
Fix,GT,37.3454469,-122.0600338,,29.177578,0.1,182.38507,1591379313442
Fix,GT,37.3451846,-122.0600323,,29.082249,0.1,182.48555,1591379314442
Fix,GT,37.3449224,-122.060031,,29.07682,0.1,182.43477,1591379315442
Fix,GT,37.3446615,-122.060029,,28.779242,0.1,182.30026,1591379316442
Fix,GT,37.3444041,-122.0600263,,28.365665,0.1,182.12924,1591379317442
Fix,GT,37.3441504,-122.0600224,,27.958317,0.1,181.85895,1591379318442
Fix,GT,37.3439003,-122.0600174,,27.560623,0.1,181.81137,1591379319442
Fix,GT,37.3436535,-122.0600131,,27.299288,0.1,182.02907,1591379320442
Fix,GT,37.3434077,-122.0600099,,27.349915,0.1,182.19199,1591379321442
Fix,GT,37.34316,-122.0600072,,27.612804,0.1,182.25183,1591379322442
Fix,GT,37.34291,-122.0600044,,27.852438,0.1,182.10847,1591379323442
Fix,GT,37.3426581,-122.0600007,,28.065441,0.1,181.9701,1591379324442
Fix,GT,37.3424042,-122.0599969,,28.294752,0.1,182.15662,1591379325442
Fix,GT,37.3421482,-122.0599949,,28.555685,0.1,182.55685,1591379326442
Fix,GT,37.3418897,-122.0599946,,28.831284,0.1,182.7574,1591379327442
Fix,GT,37.3416287,-122.0599946,,29.095394,0.1,182.63535,1591379328442
Fix,GT,37.3413654,-122.0599937,,29.352634,0.1,182.48375,1591379329442
Fix,GT,37.3410998,-122.0599925,,29.602968,0.1,182.55667,1591379330442
Fix,GT,37.3408321,-122.0599921,,29.803993,0.1,182.70886,1591379331442
Fix,GT,37.3405636,-122.0599921,,29.757465,0.1,182.69644,1591379332442
Fix,GT,37.340297,-122.0599921,,29.387009,0.1,182.77203,1591379333442
Fix,GT,37.3400342,-122.0599938,,28.904518,0.1,183.40366,1591379334442
Fix,GT,37.3397761,-122.0600003,,28.374256,0.1,184.37288,1591379335442
Fix,GT,37.3395232,-122.0600104,,27.813404,0.1,184.51436,1591379336442
Fix,GT,37.3392747,-122.0600171,,27.411945,0.1,183.42493,1591379337442
Fix,GT,37.3390287,-122.0600177,,27.213177,0.1,182.35603,1591379338442
Fix,GT,37.3387844,-122.0600133,,26.995121,0.1,181.49307,1591379339442
Fix,GT,37.3385427,-122.0600032,,26.717306,0.1,180.10213,1591379340442
Fix,GT,37.338304,-122.0599846,,26.449379,0.1,178.20752,1591379341442
Fix,GT,37.3380678,-122.0599551,,26.319895,0.1,175.82312,1591379342442
Fix,GT,37.3378339,-122.0599131,,26.098099,0.1,173.32056,1591379343442
Fix,GT,37.337604,-122.0598596,,25.895391,0.1,171.14368,1591379344442
Fix,GT,37.337376,-122.0597973,,25.970594,0.1,169.87769,1591379345442
Fix,GT,37.3371476,-122.0597306,,26.082546,0.1,169.45288,1591379346442
Fix,GT,37.3369188,-122.0596626,,26.123703,0.1,169.29309,1591379347442
Fix,GT,37.3366901,-122.059594,,26.040754,0.1,169.08783,1591379348442
Fix,GT,37.3364632,-122.0595249,,25.747725,0.1,168.98291,1591379349442
Fix,GT,37.3362394,-122.0594569,,25.422825,0.1,169.22736,1591379350442
Fix,GT,37.336017,-122.0593918,,25.319046,0.1,169.75232,1591379351442
Fix,GT,37.3357944,-122.0593295,,25.31247,0.1,170.35205,1591379352442
Fix,GT,37.3355716,-122.0592704,,25.184578,0.1,171.15356,1591379353442
Fix,GT,37.3353503,-122.0592166,,24.710312,0.1,172.35321,1591379354442
Fix,GT,37.3351342,-122.0591703,,23.909105,0.1,173.5376,1591379355442
Fix,GT,37.3349251,-122.05913,,23.060465,0.1,174.19318,1591379356442
Fix,GT,37.3347234,-122.059093,,22.103603,0.1,174.37823,1591379357442
Fix,GT,37.3345318,-122.059057,,20.957455,0.1,173.82855,1591379358442
Fix,GT,37.3343506,-122.0590195,,19.80485,0.1,172.8158,1591379359442
Fix,GT,37.3341807,-122.058982,,18.380234,0.1,172.70709,1591379360442
Fix,GT,37.3340246,-122.0589507,,16.657715,0.1,174.4715,1591379361442
Fix,GT,37.3338807,-122.0589329,,15.53606,0.1,179.33716,1591379362442
Fix,GT,37.3337419,-122.058936,,15.341305,0.1,186.88443,1591379363442
Fix,GT,37.3336056,-122.0589637,,15.304981,0.1,195.31409,1591379364442
Fix,GT,37.3334746,-122.0590173,,15.27495,0.1,204.45944,1591379365442
Fix,GT,37.3333527,-122.0590971,,15.230092,0.1,214.25645,1591379366442
Fix,GT,37.3332449,-122.0592029,,15.191544,0.1,224.99565,1591379367442
Fix,GT,37.3331537,-122.0593323,,15.470243,0.1,235.14746,1591379368442
Fix,GT,37.3330789,-122.0594837,,16.118856,0.1,244.51093,1591379369442
Fix,GT,37.3330207,-122.0596541,,16.713583,0.1,252.52408,1591379370442
Fix,GT,37.3329767,-122.0598377,,17.199787,0.1,257.85953,1591379371442
Fix,GT,37.3329437,-122.0600301,,17.632515,0.1,262.46375,1591379372442
Fix,GT,37.3329237,-122.0602302,,18.081097,0.1,267.83786,1591379373442
Fix,GT,37.3329196,-122.060437,,18.58248,0.1,273.35168,1591379374442
Fix,GT,37.332929,-122.0606495,,19.061083,0.1,277.3154,1591379375442
Fix,GT,37.3329483,-122.0608659,,19.454258,0.1,280.53497,1591379376442
Fix,GT,37.3329801,-122.061084,,19.817112,0.1,285.16562,1591379377442
Fix,GT,37.333028,-122.0613018,,20.197454,0.1,290.2392,1591379378442
Fix,GT,37.3330896,-122.0615192,,20.664497,0.1,293.3919,1591379379442
Fix,GT,37.3331587,-122.0617397,,21.31432,0.1,294.4968,1591379380442
Fix,GT,37.3332324,-122.061967,,22.168839,0.1,294.957,1591379381442
Fix,GT,37.3333105,-122.0622025,,22.987152,0.1,295.37314,1591379382442
Fix,GT,37.3333918,-122.0624453,,23.684708,0.1,295.47955,1591379383442
Fix,GT,37.3334752,-122.0626951,,24.31897,0.1,295.33545,1591379384442
Fix,GT,37.3335605,-122.0629517,,24.931889,0.1,295.14987,1591379385442
Fix,GT,37.3336464,-122.063215,,25.497501,0.1,294.6015,1591379386442
Fix,GT,37.3337315,-122.0634853,,26.004768,0.1,293.8186,1591379387442
Fix,GT,37.3338158,-122.0637618,,26.429512,0.1,293.41034,1591379388442
Fix,GT,37.3339007,-122.0640427,,26.812757,0.1,293.5839,1591379389442
Fix,GT,37.3339877,-122.0643273,,27.221863,0.1,293.63214,1591379390442
Fix,GT,37.3340748,-122.0646171,,27.681164,0.1,292.86096,1591379391442
Fix,GT,37.334158,-122.064914,,28.108356,0.1,291.1981,1591379392442
Fix,GT,37.3342345,-122.0652183,,28.467669,0.1,289.19748,1591379393442
Fix,GT,37.3343031,-122.0655294,,28.77004,0.1,287.0357,1591379394442
Fix,GT,37.3343628,-122.0658467,,29.047626,0.1,284.82635,1591379395442
Fix,GT,37.3344136,-122.0661694,,29.289997,0.1,282.9204,1591379396442
Fix,GT,37.3344565,-122.0664965,,29.508192,0.1,281.15735,1591379397442
Fix,GT,37.3344912,-122.0668275,,29.70977,0.1,279.08752,1591379398442
Fix,GT,37.3345158,-122.0671621,,29.89355,0.1,276.81317,1591379399442
Fix,GT,37.3345305,-122.0674996,,30.050974,0.1,274.9062,1591379400442
Fix,GT,37.3345371,-122.0678392,,30.181675,0.1,273.25964,1591379401442
Fix,GT,37.334536,-122.0681804,,30.310993,0.1,271.5329,1591379402442
Fix,GT,37.3345256,-122.0685213,,30.164352,0.1,269.29932,1591379403442
Fix,GT,37.3345044,-122.0688584,,29.840298,0.1,267.06055,1591379404442
Fix,GT,37.3344741,-122.0691923,,29.815289,0.1,265.36087,1591379405442
Fix,GT,37.3344352,-122.0695253,,29.858078,0.1,263.25644,1591379406442
Fix,GT,37.3343865,-122.0698567,,29.917343,0.1,261.242,1591379407442
Fix,GT,37.3343303,-122.0701876,,30.047867,0.1,260.17877,1591379408442
Fix,GT,37.3342707,-122.070519,,30.16799,0.1,259.73813,1591379409442
Fix,GT,37.3342093,-122.0708512,,30.25687,0.1,259.4325,1591379410442
Fix,GT,37.3341466,-122.0711837,,30.30848,0.1,259.21036,1591379411442
Fix,GT,37.3340829,-122.0715166,,30.367167,0.1,259.06427,1591379412442
Fix,GT,37.3340186,-122.0718498,,30.344355,0.1,259.06305,1591379413442
Fix,GT,37.3339553,-122.0721821,,30.162193,0.1,259.4166,1591379414442
Fix,GT,37.3338942,-122.0725124,,29.928394,0.1,259.87097,1591379415442
Fix,GT,37.3338356,-122.0728409,,29.72644,0.1,260.2151,1591379416442
Fix,GT,37.3337798,-122.0731682,,29.611214,0.1,261.0111,1591379417442
Fix,GT,37.3337296,-122.0734959,,29.51138,0.1,262.59995,1591379418442
Fix,GT,37.3336879,-122.0738241,,29.376556,0.1,264.72812,1591379419442
Fix,GT,37.3336572,-122.0741525,,29.237946,0.1,267.38623,1591379420442
Fix,GT,37.3336392,-122.074481,,29.10096,0.1,270.08728,1591379421442
Fix,GT,37.3336328,-122.0748087,,29.019306,0.1,272.40625,1591379422442
Fix,GT,37.3336362,-122.0751359,,28.978855,0.1,274.40967,1591379423442
Fix,GT,37.3336491,-122.0754625,,28.973766,0.1,276.59286,1591379424442
Fix,GT,37.3336722,-122.0757883,,29.000202,0.1,278.84058,1591379425442
Fix,GT,37.3337052,-122.0761133,,29.059742,0.1,280.9685,1591379426442
Fix,GT,37.3337485,-122.0764372,,29.157827,0.1,283.39215,1591379427442
Fix,GT,37.3338028,-122.07676,,29.29441,0.1,285.79102,1591379428442
Fix,GT,37.3338682,-122.0770813,,29.451488,0.1,288.16763,1591379429442
Fix,GT,37.333945,-122.0774004,,29.586134,0.1,290.7661,1591379430442
Fix,GT,37.3340331,-122.0777165,,29.736908,0.1,293.06696,1591379431442
Fix,GT,37.3341319,-122.0780298,,29.962948,0.1,295.43933,1591379432442
Fix,GT,37.3342416,-122.0783402,,30.207886,0.1,297.72025,1591379433442
Fix,GT,37.3343617,-122.0786476,,30.44474,0.1,299.88474,1591379434442
Fix,GT,37.3344927,-122.0789512,,30.703814,0.1,302.3866,1591379435442
Fix,GT,37.3346355,-122.0792497,,30.966057,0.1,304.98834,1591379436442
Fix,GT,37.3347901,-122.0795416,,31.054546,0.1,307.72186,1591379437442
Fix,GT,37.3349561,-122.0798238,,31.048918,0.1,310.44135,1591379438442
Fix,GT,37.3351321,-122.0800974,,31.249752,0.1,312.64725,1591379439442
Fix,GT,37.3353173,-122.0803653,,31.526037,0.1,314.62717,1591379440442
Fix,GT,37.3355107,-122.0806275,,31.727089,0.1,316.13388,1591379441442
Fix,GT,37.3357089,-122.0808868,,31.870356,0.1,316.7024,1591379442442
Fix,GT,37.3359094,-122.0811454,,31.987976,0.1,317.04633,1591379443442
Fix,GT,37.336111,-122.0814029,,31.922476,0.1,317.24744,1591379444442
Fix,GT,37.3363121,-122.0816592,,31.763226,0.1,317.13605,1591379445442
Fix,GT,37.3365116,-122.0819159,,31.734602,0.1,316.80264,1591379446442
Fix,GT,37.3367096,-122.0821739,,31.687397,0.1,316.35376,1591379447442
Fix,GT,37.3369049,-122.082434,,31.59327,0.1,315.466,1591379448442
Fix,GT,37.3370958,-122.0826972,,31.408283,0.1,314.29745,1591379449442
Fix,GT,37.3372801,-122.0829632,,31.021786,0.1,312.9604,1591379450442
Fix,GT,37.3374566,-122.0832318,,30.723343,0.1,311.41516,1591379451442
Fix,GT,37.3376263,-122.083505,,30.65002,0.1,309.77225,1591379452442
Fix,GT,37.3377892,-122.0837834,,30.56184,0.1,308.1351,1591379453442
Fix,GT,37.3379471,-122.0840655,,30.534142,0.1,307.5061,1591379454442
Fix,GT,37.3381045,-122.0843486,,30.590195,0.1,307.53442,1591379455442
Fix,GT,37.3382624,-122.0846319,,30.653393,0.1,307.6414,1591379456442
Fix,GT,37.3384209,-122.0849156,,30.744707,0.1,307.73822,1591379457442
Fix,GT,37.3385803,-122.0852002,,30.873922,0.1,307.70486,1591379458442
Fix,GT,37.3387402,-122.0854864,,31.03523,0.1,307.61795,1591379459442
Fix,GT,37.3389006,-122.0857742,,31.161242,0.1,307.55374,1591379460442
Fix,GT,37.3390611,-122.0860631,,31.243465,0.1,307.4934,1591379461442
Fix,GT,37.3392221,-122.0863529,,31.357138,0.1,307.536,1591379462442
Fix,GT,37.3393842,-122.086644,,31.568882,0.1,307.6036,1591379463442
Fix,GT,37.3395477,-122.0869373,,31.817347,0.1,307.55222,1591379464442
Fix,GT,37.3397119,-122.087233,,32.008957,0.1,307.41205,1591379465442
Fix,GT,37.339876,-122.0875313,,32.189728,0.1,307.09848,1591379466442
Fix,GT,37.3400391,-122.0878329,,32.367447,0.1,306.42178,1591379467442
Fix,GT,37.3401994,-122.0881387,,32.46151,0.1,305.40842,1591379468442
Fix,GT,37.3403553,-122.0884484,,32.392765,0.1,304.3838,1591379469442
Fix,GT,37.3405067,-122.0887598,,32.238163,0.1,303.70566,1591379470442
Fix,GT,37.3406553,-122.0890712,,32.051598,0.1,303.48267,1591379471442
Fix,GT,37.3408025,-122.0893813,,31.877745,0.1,303.45645,1591379472442
Fix,GT,37.3409494,-122.0896901,,31.863333,0.1,303.45975,1591379473442
Fix,GT,37.3410972,-122.0899998,,32.09875,0.1,303.65,1591379474442
Fix,GT,37.3412475,-122.0903116,,32.4529,0.1,304.12592,1591379475442
Fix,GT,37.3414032,-122.0906237,,32.776234,0.1,305.2954,1591379476442
Fix,GT,37.3415669,-122.0909334,,33.04072,0.1,307.0628,1591379477442
Fix,GT,37.3417399,-122.0912387,,33.270164,0.1,309.04803,1591379478442
Fix,GT,37.3419227,-122.0915374,,33.41781,0.1,311.40598,1591379479442
Fix,GT,37.3421166,-122.0918265,,33.441734,0.1,314.20535,1591379480442
Fix,GT,37.342321,-122.0921034,,33.354218,0.1,316.81647,1591379481442
Fix,GT,37.3425334,-122.0923681,,33.12458,0.1,318.82745,1591379482442
Fix,GT,37.3427495,-122.0926237,,32.85146,0.1,319.98038,1591379483442
Fix,GT,37.3429669,-122.092874,,32.686943,0.1,320.24548,1591379484442
Fix,GT,37.3431838,-122.0931223,,32.554615,0.1,320.28198,1591379485442
Fix,GT,37.3433998,-122.0933699,,32.42728,0.1,320.19598,1591379486442
Fix,GT,37.3436149,-122.0936169,,32.360367,0.1,320.2056,1591379487442
Fix,GT,37.3438295,-122.0938637,,32.320694,0.1,320.06696,1591379488442
Fix,GT,37.3440425,-122.0941119,,32.285786,0.1,319.3786,1591379489442
Fix,GT,37.3442516,-122.0943648,,32.31185,0.1,317.84857,1591379490442
Fix,GT,37.3444541,-122.0946271,,32.37157,0.1,315.5871,1591379491442
Fix,GT,37.3446487,-122.0948993,,32.37645,0.1,313.3233,1591379492442
Fix,GT,37.3448337,-122.0951806,,32.220753,0.1,310.7938,1591379493442
Fix,GT,37.345007,-122.0954705,,32.084946,0.1,308.26422,1591379494442
Fix,GT,37.3451715,-122.0957687,,32.23188,0.1,306.43912,1591379495442
Fix,GT,37.3453295,-122.0960752,,32.48474,0.1,304.46323,1591379496442
Fix,GT,37.3454796,-122.0963913,,32.75882,0.1,302.23706,1591379497442
Fix,GT,37.3456219,-122.0967167,,33.031,0.1,300.62836,1591379498442
Fix,GT,37.3457607,-122.0970479,,33.26422,0.1,300.29138,1591379499442
Fix,GT,37.3459012,-122.0973809,,33.48123,0.1,300.805,1591379500442
Fix,GT,37.3460449,-122.0977147,,33.72932,0.1,301.12503,1591379501442
Fix,GT,37.3461895,-122.0980502,,33.822823,0.1,300.87857,1591379502442
Fix,GT,37.3463324,-122.0983862,,33.632,0.1,300.4698,1591379503442
Fix,GT,37.3464727,-122.0987205,,33.287697,0.1,300.27905,1591379504442
Fix,GT,37.3466111,-122.0990511,,32.852875,0.1,300.4279,1591379505442
Fix,GT,37.3467486,-122.0993768,,32.430916,0.1,300.78192,1591379506442
Fix,GT,37.3468854,-122.0996976,,32.036232,0.1,300.82205,1591379507442
Fix,GT,37.3470202,-122.1000149,,31.687439,0.1,300.5469,1591379508442
Fix,GT,37.3471533,-122.1003303,,31.565594,0.1,300.59384,1591379509442
Fix,GT,37.3472868,-122.1006445,,31.492733,0.1,300.8079,1591379510442
Fix,GT,37.3474202,-122.1009566,,31.191324,0.1,300.90805,1591379511442
Fix,GT,37.3475533,-122.101264,,30.763868,0.1,301.50256,1591379512442
Fix,GT,37.347689,-122.1015644,,30.390715,0.1,302.905,1591379513442
Fix,GT,37.3478302,-122.1018559,,30.001472,0.1,305.00183,1591379514442
Fix,GT,37.3479786,-122.1021363,,29.590103,0.1,307.53067,1591379515442
Fix,GT,37.3481345,-122.1024046,,29.188778,0.1,309.9914,1591379516442
Fix,GT,37.348297,-122.1026612,,28.835295,0.1,312.2507,1591379517442
Fix,GT,37.348465,-122.1029064,,28.404984,0.1,314.36853,1591379518442
Fix,GT,37.348638,-122.1031387,,27.882114,0.1,317.0559,1591379519442
Fix,GT,37.3488168,-122.1033557,,27.35925,0.1,320.04544,1591379520442
Fix,GT,37.3490001,-122.1035582,,26.89904,0.1,322.35977,1591379521442
Fix,GT,37.3491867,-122.1037495,,26.626284,0.1,324.40164,1591379522442
Fix,GT,37.3493771,-122.1039301,,26.343811,0.1,326.63074,1591379523442
Fix,GT,37.3495708,-122.104099,,25.988426,0.1,328.99023,1591379524442
Fix,GT,37.3497665,-122.1042566,,25.626987,0.1,330.8117,1591379525442
Fix,GT,37.3499624,-122.1044064,,25.323975,0.1,331.7203,1591379526442
Fix,GT,37.3501576,-122.1045519,,25.084253,0.1,331.98657,1591379527442
Fix,GT,37.3503508,-122.1046964,,24.863163,0.1,331.70508,1591379528442
Fix,GT,37.3505417,-122.1048408,,24.669632,0.1,331.39838,1591379529442
Fix,GT,37.3507316,-122.1049857,,24.772358,0.1,331.27686,1591379530442
Fix,GT,37.3509233,-122.1051324,,25.148863,0.1,331.34464,1591379531442
Fix,GT,37.3511181,-122.105281,,25.41277,0.1,331.4607,1591379532442
Fix,GT,37.351314,-122.1054307,,25.52634,0.1,331.2228,1591379533442
Fix,GT,37.3515094,-122.1055836,,25.623661,0.1,330.36685,1591379534442
Fix,GT,37.351703,-122.105742,,25.726337,0.1,328.83105,1591379535442
Fix,GT,37.3518934,-122.1059079,,25.79373,0.1,326.98398,1591379536442
Fix,GT,37.35208,-122.106082,,25.900333,0.1,325.2165,1591379537442
Fix,GT,37.3522632,-122.1062643,,26.09042,0.1,323.35352,1591379538442
Fix,GT,37.3524427,-122.1064559,,26.309326,0.1,321.43323,1591379539442
Fix,GT,37.3526195,-122.1066556,,26.569199,0.1,320.06555,1591379540442
Fix,GT,37.352794,-122.1068627,,26.798903,0.1,318.44757,1591379541442
Fix,GT,37.3529638,-122.1070788,,26.967735,0.1,316.0382,1591379542442
Fix,GT,37.3531273,-122.1073048,,27.109104,0.1,313.81076,1591379543442
Fix,GT,37.3532848,-122.1075395,,27.271511,0.1,311.84372,1591379544442
Fix,GT,37.3534376,-122.1077817,,27.47298,0.1,310.2889,1591379545442
Fix,GT,37.3535865,-122.1080306,,27.66159,0.1,308.86087,1591379546442
Fix,GT,37.3537316,-122.1082858,,27.883572,0.1,307.4508,1591379547442
Fix,GT,37.3538721,-122.108548,,28.128696,0.1,305.6345,1591379548442
Fix,GT,37.3540061,-122.1088189,,28.381985,0.1,303.364,1591379549442
Fix,GT,37.3541325,-122.1090986,,28.558483,0.1,301.08276,1591379550442
Fix,GT,37.3542502,-122.1093843,,28.344128,0.1,299.0031,1591379551442
Fix,GT,37.3543589,-122.1096697,,27.674053,0.1,297.44333,1591379552442
Fix,GT,37.3544591,-122.1099509,,26.903881,0.1,296.01456,1591379553442
Fix,GT,37.3545499,-122.1102275,,26.122265,0.1,294.1112,1591379554442
Fix,GT,37.3546308,-122.1104988,,25.228985,0.1,292.3611,1591379555442
Fix,GT,37.3547034,-122.1107635,,24.45721,0.1,291.04944,1591379556442
Fix,GT,37.3547708,-122.1110231,,23.98964,0.1,290.31326,1591379557442
Fix,GT,37.3548351,-122.1112789,,23.504044,0.1,290.0467,1591379558442
Fix,GT,37.3548978,-122.1115287,,22.914764,0.1,290.18454,1591379559442
Fix,GT,37.3549597,-122.1117724,,22.458687,0.1,290.35864,1591379560442
Fix,GT,37.3550206,-122.1120125,,22.158613,0.1,290.25134,1591379561442
Fix,GT,37.3550802,-122.1122492,,21.811394,0.1,290.11157,1591379562442
Fix,GT,37.3551386,-122.1124821,,21.443422,0.1,290.10547,1591379563442
Fix,GT,37.3551965,-122.1127119,,21.286991,0.1,290.2805,1591379564442
Fix,GT,37.3552553,-122.1129412,,21.41667,0.1,290.66516,1591379565442
Fix,GT,37.3553165,-122.1131717,,21.622618,0.1,291.37463,1591379566442
Fix,GT,37.3553816,-122.1134038,,21.960136,0.1,292.72134,1591379567442
Fix,GT,37.3554534,-122.113637,,22.306335,0.1,294.54303,1591379568442
Fix,GT,37.355532,-122.1138709,,22.636742,0.1,296.22458,1591379569442
Fix,GT,37.355617,-122.1141055,,22.976448,0.1,297.80347,1591379570442
Fix,GT,37.3557081,-122.1143407,,23.303785,0.1,299.17786,1591379571442
Fix,GT,37.3558043,-122.1145762,,23.551659,0.1,300.31476,1591379572442
Fix,GT,37.3559054,-122.1148112,,23.710917,0.1,301.63733,1591379573442
Fix,GT,37.3560122,-122.1150445,,23.910015,0.1,303.34662,1591379574442
Fix,GT,37.3561264,-122.1152757,,24.285816,0.1,305.31677,1591379575442
Fix,GT,37.3562488,-122.1155062,,24.7359,0.1,307.165,1591379576442
Fix,GT,37.3563788,-122.1157356,,25.086273,0.1,308.8039,1591379577442
Fix,GT,37.3565155,-122.115963,,25.258064,0.1,310.51328,1591379578442
Fix,GT,37.3566582,-122.1161844,,25.103313,0.1,312.7283,1591379579442
Fix,GT,37.3568058,-122.1163957,,24.605856,0.1,314.9101,1591379580442
Fix,GT,37.3569554,-122.1165967,,24.077414,0.1,316.3614,1591379581442
Fix,GT,37.3571052,-122.1167894,,23.677961,0.1,317.49142,1591379582442
Fix,GT,37.3572569,-122.1169763,,23.617496,0.1,318.80304,1591379583442
Fix,GT,37.3574129,-122.1171592,,23.75497,0.1,320.45157,1591379584442
Fix,GT,37.3575742,-122.1173362,,23.793636,0.1,322.4876,1591379585442
Fix,GT,37.35774,-122.1175058,,23.66073,0.1,324.35318,1591379586442
Fix,GT,37.357909,-122.1176689,,23.689169,0.1,325.62973,1591379587442
Fix,GT,37.3580817,-122.1178291,,24.066566,0.1,326.635,1591379588442
Fix,GT,37.35826,-122.1179879,,24.488825,0.1,327.95148,1591379589442
Fix,GT,37.358445,-122.1181429,,24.914608,0.1,329.90796,1591379590442
Fix,GT,37.3586371,-122.1182913,,25.119972,0.1,332.0766,1591379591442
Fix,GT,37.3588338,-122.1184315,,25.04321,0.1,333.96408,1591379592442
Fix,GT,37.3590332,-122.1185648,,25.136784,0.1,335.2132,1591379593442
Fix,GT,37.3592362,-122.1186948,,25.438454,0.1,336.02808,1591379594442
Fix,GT,37.3594428,-122.1188232,,25.773079,0.1,336.6668,1591379595442
Fix,GT,37.3596536,-122.118951,,26.22733,0.1,337.1399,1591379596442
Fix,GT,37.359869,-122.1190792,,26.70465,0.1,337.51254,1591379597442
Fix,GT,37.3600885,-122.1192087,,27.130577,0.1,337.3828,1591379598442
Fix,GT,37.3603106,-122.119342,,27.535591,0.1,336.9427,1591379599442
Fix,GT,37.3605351,-122.1194784,,27.804108,0.1,336.8486,1591379600442
Fix,GT,37.3607606,-122.1196157,,27.829596,0.1,336.7025,1591379601442
Fix,GT,37.3609856,-122.1197548,,27.83892,0.1,336.29633,1591379602442
Fix,GT,37.36121,-122.1198959,,27.86694,0.1,336.00763,1591379603442
Fix,GT,37.3614339,-122.120039,,27.96492,0.1,335.40054,1591379604442
Fix,GT,37.3616575,-122.1201882,,28.35206,0.1,333.8679,1591379605442
Fix,GT,37.3618808,-122.1203489,,28.877457,0.1,331.86478,1591379606442
Fix,GT,37.3621032,-122.1205235,,29.389278,0.1,329.61426,1591379607442
Fix,GT,37.3623235,-122.1207118,,29.850986,0.1,327.21484,1591379608442
Fix,GT,37.3625398,-122.1209152,,30.23153,0.1,324.45325,1591379609442
Fix,GT,37.3627501,-122.1211343,,30.532383,0.1,321.63995,1591379610442
Fix,GT,37.3629546,-122.1213666,,30.782183,0.1,319.46286,1591379611442
Fix,GT,37.3631532,-122.1216104,,30.990763,0.1,317.0127,1591379612442
Fix,GT,37.3633436,-122.1218669,,31.127523,0.1,314.26764,1591379613442
Fix,GT,37.3635252,-122.1221349,,31.21499,0.1,311.7616,1591379614442
Fix,GT,37.3636976,-122.1224127,,31.166328,0.1,309.29834,1591379615442
Fix,GT,37.3638586,-122.122699,,30.935764,0.1,306.42282,1591379616442
Fix,GT,37.3640071,-122.122992,,30.611362,0.1,303.90228,1591379617442
Fix,GT,37.3641451,-122.1232887,,30.276361,0.1,302.04462,1591379618442
Fix,GT,37.3642738,-122.1235884,,30.103582,0.1,299.90454,1591379619442
Fix,GT,37.364392,-122.123893,,29.950445,0.1,297.2649,1591379620442
Fix,GT,37.364498,-122.1242016,,29.633333,0.1,294.65973,1591379621442
Fix,GT,37.3645924,-122.1245124,,29.361296,0.1,292.41946,1591379622442
Fix,GT,37.3646763,-122.1248255,,29.245533,0.1,290.094,1591379623442
Fix,GT,37.3647494,-122.125142,,29.168072,0.1,287.59515,1591379624442
Fix,GT,37.3648115,-122.1254608,,29.039486,0.1,285.2884,1591379625442
Fix,GT,37.3648636,-122.1257811,,28.947363,0.1,283.25677,1591379626442
Fix,GT,37.3649064,-122.126103,,28.932579,0.1,281.036,1591379627442
Fix,GT,37.3649383,-122.126427,,28.936092,0.1,278.44785,1591379628442
Fix,GT,37.3649593,-122.1267521,,28.916534,0.1,276.2744,1591379629442
Fix,GT,37.3649719,-122.1270781,,28.925802,0.1,274.7006,1591379630442
Fix,GT,37.364978,-122.1274043,,28.881954,0.1,273.47452,1591379631442
Fix,GT,37.3649803,-122.1277289,,28.530762,0.1,272.98407,1591379632442
Fix,GT,37.3649822,-122.1280463,,27.608818,0.1,273.1384,1591379633442
Fix,GT,37.3649844,-122.1283512,,26.430649,0.1,273.25507,1591379634442
Fix,GT,37.3649865,-122.1286441,,25.536358,0.1,273.20596,1591379635442
Fix,GT,37.3649891,-122.1289282,,24.783651,0.1,273.5208,1591379636442
Fix,GT,37.3649935,-122.1292038,,24.047873,0.1,274.1134,1591379637442
Fix,GT,37.3650016,-122.1294719,,23.499805,0.1,275.53976,1591379638442
Fix,GT,37.3650165,-122.1297339,,23.014994,0.1,277.85303,1591379639442
Fix,GT,37.3650394,-122.1299894,,22.515305,0.1,280.06433,1591379640442
Fix,GT,37.3650689,-122.1302381,,22.030209,0.1,281.99487,1591379641442
Fix,GT,37.3651043,-122.1304815,,21.809492,0.1,283.78958,1591379642442
Fix,GT,37.3651455,-122.1307225,,21.88527,0.1,285.63348,1591379643442
