MessageType,Provider,LatitudeDegrees,LongitudeDegrees,AltitudeMeters,SpeedMps,AccuracyMeters,BearingDegrees,UnixTimeMillis
Fix,GT,37.5250539,-122.353147,,0.001,0.1,139.82483,1595027614435
Fix,GT,37.5250539,-122.353147,,0.0014353471,0.1,139.82513,1595027615435
Fix,GT,37.5250539,-122.353147,,0.0030762372,0.1,139.82507,1595027616435
Fix,GT,37.5250539,-122.353147,,0.006035085,0.1,139.82397,1595027617435
Fix,GT,37.5250539,-122.353147,,0.005168052,0.1,139.82208,1595027618435
Fix,GT,37.5250539,-122.3531471,,0.0014142136,0.1,139.8197,1595027619435
Fix,GT,37.5250539,-122.3531471,,0.003967914,0.1,139.81683,1595027620435
Fix,GT,37.5250539,-122.3531471,,0.0049814302,0.1,139.82019,1595027621435
Fix,GT,37.525054,-122.3531471,,0.0011293062,0.1,139.82642,1595027622435
Fix,GT,37.525054,-122.3531471,,0.000435347,0.1,139.82526,1595027623435
Fix,GT,37.525054,-122.3531471,,0.0005646531,0.1,139.82495,1595027624435
Fix,GT,37.525054,-122.3531471,,0.0006156736,0.1,139.82526,1595027625435
Fix,GT,37.525054,-122.3531471,,0.0012338869,0.1,139.82562,1595027626435
Fix,GT,37.525054,-122.3531471,,0.0005646531,0.1,139.82568,1595027627435
Fix,GT,37.525054,-122.3531471,,0.000435347,0.1,139.8258,1595027628435
Fix,GT,37.525054,-122.3531471,,0.0011803267,0.1,139.82568,1595027629435
Fix,GT,37.525054,-122.3531471,,0.002175228,0.1,139.82544,1595027630435
Fix,GT,37.525054,-122.3531471,,0.0027590552,0.1,139.82535,1595027631435
Fix,GT,37.525054,-122.3531471,,0.0032095336,0.1,139.8252,1595027632435
Fix,GT,37.525054,-122.3531471,,0.0048696203,0.1,139.82507,1595027633435
Fix,GT,37.525054,-122.3531471,,0.0061800815,0.1,139.82382,1595027634435
Fix,GT,37.525054,-122.3531471,,0.008201836,0.1,139.82104,1595027635435
Fix,GT,37.5250541,-122.3531472,,0.008866648,0.1,139.82233,1595027636435
Fix,GT,37.5250542,-122.3531472,,0.005783725,0.1,139.82379,1595027637435
Fix,GT,37.5250542,-122.3531472,,0.002973768,0.1,139.82208,1595027638435
Fix,GT,37.5250543,-122.3531472,,0.004130005,0.1,139.82346,1595027639435
Fix,GT,37.5250543,-122.3531473,,0.018737411,0.1,139.82733,1595027640435
Fix,GT,37.5250525,-122.353145,,0.6724827,0.1,139.20795,1595027641435
Fix,GT,37.5250437,-122.3531326,,2.428605,0.1,135.83646,1595027642435
Fix,GT,37.5250242,-122.3531022,,4.425268,0.1,130.78067,1595027643435
Fix,GT,37.5249934,-122.3530556,,6.1771564,0.1,130.50467,1595027644435
Fix,GT,37.5249498,-122.3530006,,7.37823,0.1,135.99207,1595027645435
Fix,GT,37.5248974,-122.3529459,,7.392091,0.1,140.98297,1595027646435
Fix,GT,37.5248472,-122.3528979,,6.472987,0.1,142.98361,1595027647435
Fix,GT,37.5248037,-122.3528598,,5.3162346,0.1,145.33917,1595027648435
Fix,GT,37.5247648,-122.3528335,,4.5935507,0.1,152.9414,1595027649435
Fix,GT,37.5247232,-122.3528225,,4.9009724,0.1,169.06427,1595027650435
Fix,GT,37.5246753,-122.3528318,,5.80877,0.1,190.70836,1595027651435
Fix,GT,37.5246245,-122.3528644,,6.849366,0.1,209.76955,1595027652435
Fix,GT,37.5245722,-122.3529175,,8.066745,0.1,220.91707,1595027653435
Fix,GT,37.5245162,-122.3529858,,9.140002,0.1,225.30257,1595027654435
Fix,GT,37.5244568,-122.3530629,,9.774628,0.1,226.67294,1595027655435
Fix,GT,37.5243954,-122.3531441,,10.005337,0.1,226.7565,1595027656435
Fix,GT,37.5243327,-122.353226,,10.048729,0.1,226.17735,1595027657435
Fix,GT,37.5242696,-122.3533064,,9.967258,0.1,225.5131,1595027658435
Fix,GT,37.5242053,-122.3533852,,10.077397,0.1,224.07004,1595027659435
Fix,GT,37.5241373,-122.3534634,,10.42519,0.1,221.86963,1595027660435
Fix,GT,37.5240639,-122.3535407,,10.869546,0.1,219.21811,1595027661435
Fix,GT,37.5239834,-122.3536147,,11.362911,0.1,214.83833,1595027662435
Fix,GT,37.5238939,-122.3536818,,11.869034,0.1,208.90378,1595027663435
Fix,GT,37.5237951,-122.3537394,,12.400499,0.1,203.33754,1595027664435
Fix,GT,37.5236894,-122.353792,,12.856035,0.1,201.13377,1595027665435
Fix,GT,37.5235804,-122.353845,,13.013611,0.1,201.55359,1595027666435
Fix,GT,37.5234735,-122.3539038,,12.893161,0.1,205.65897,1595027667435
Fix,GT,37.5233745,-122.3539786,,12.778694,0.1,214.8073,1595027668435
Fix,GT,37.523289,-122.3540752,,12.826515,0.1,226.5386,1595027669435
Fix,GT,37.5232223,-122.3541939,,13.002881,0.1,239.8494,1595027670435
Fix,GT,37.5231792,-122.3543309,,13.124277,0.1,253.93048,1595027671435
Fix,GT,37.52316,-122.354477,,13.127241,0.1,264.36023,1595027672435
Fix,GT,37.5231539,-122.3546256,,13.21665,0.1,268.3327,1595027673435
Fix,GT,37.5231513,-122.3547755,,13.299804,0.1,269.20093,1595027674435
Fix,GT,37.5231491,-122.3549263,,13.383642,0.1,269.1845,1595027675435
Fix,GT,37.5231464,-122.3550785,,13.526701,0.1,268.95157,1595027676435
Fix,GT,37.5231434,-122.3552322,,13.660721,0.1,268.7945,1595027677435
Fix,GT,37.52314,-122.3553877,,13.819546,0.1,268.489,1595027678435
Fix,GT,37.5231359,-122.3555446,,13.93523,0.1,268.24792,1595027679435
Fix,GT,37.5231317,-122.3557028,,14.0848675,0.1,268.36227,1595027680435
Fix,GT,37.5231282,-122.3558625,,14.145435,0.1,268.8272,1595027681435
Fix,GT,37.5231259,-122.356022,,13.985155,0.1,269.2243,1595027682435
Fix,GT,37.5231239,-122.3561779,,13.523541,0.1,269.19464,1595027683435
Fix,GT,37.5231216,-122.3563258,,12.575327,0.1,268.84564,1595027684435
Fix,GT,37.5231188,-122.3564607,,11.197811,0.1,268.51837,1595027685435
Fix,GT,37.5231158,-122.3565781,,9.44175,0.1,268.35437,1595027686435
Fix,GT,37.5231137,-122.3566733,,7.3367343,0.1,268.5869,1595027687435
Fix,GT,37.5231123,-122.3567429,,4.9200325,0.1,268.57745,1595027688435
Fix,GT,37.5231111,-122.3567838,,2.36253,0.1,268.13818,1595027689435
Fix,GT,37.5231106,-122.356799,,0.55703163,0.1,267.86465,1595027690435
Fix,GT,37.5231105,-122.356801,,0.014134713,0.1,267.85168,1595027691435
Fix,GT,37.5231105,-122.356801,,0.0071478058,0.1,267.84988,1595027692435
Fix,GT,37.5231105,-122.3568009,,0.009680396,0.1,267.85004,1595027693435
Fix,GT,37.5231105,-122.3568008,,0.009934201,0.1,267.85022,1595027694435
Fix,GT,37.5231105,-122.3568007,,0.009668243,0.1,267.85016,1595027695435
Fix,GT,37.5231105,-122.3568006,,0.011003157,0.1,267.84982,1595027696435
Fix,GT,37.5231105,-122.3568006,,0.013640839,0.1,267.84918,1595027697435
Fix,GT,37.5231105,-122.3568006,,0.01538916,0.1,267.849,1595027698435
Fix,GT,37.5231104,-122.3568005,,0.019180909,0.1,267.8488,1595027699435
Fix,GT,37.5231105,-122.3568003,,0.0215041,0.1,267.8491,1595027700435
Fix,GT,37.5231105,-122.3568002,,0.020851348,0.1,267.84946,1595027701435
Fix,GT,37.5231106,-122.3568001,,0.023365635,0.1,267.84927,1595027702435
Fix,GT,37.5231106,-122.3568,,0.03051698,0.1,267.8491,1595027703435
Fix,GT,37.5231108,-122.3567998,,0.043021806,0.1,267.84842,1595027704435
Fix,GT,37.523111,-122.3567996,,0.05836975,0.1,267.8483,1595027705435
Fix,GT,37.5231112,-122.3567994,,0.07444449,0.1,267.8482,1595027706435
Fix,GT,37.5231115,-122.3568016,,0.71051925,0.1,267.54538,1595027707435
Fix,GT,37.523108,-122.3568173,,2.472846,0.1,260.8643,1595027708435
Fix,GT,37.5230918,-122.3568499,,4.396437,0.1,241.6621,1595027709435
Fix,GT,37.5230555,-122.3568828,,5.918905,0.1,215.53001,1595027710435
Fix,GT,37.5229999,-122.3569007,,7.1959095,0.1,192.22719,1595027711435
Fix,GT,37.5229314,-122.356901,,8.087353,0.1,178.54973,1595027712435
Fix,GT,37.5228565,-122.356888,,8.877339,0.1,170.71997,1595027713435
Fix,GT,37.5227753,-122.3568609,,9.940997,0.1,163.7539,1595027714435
Fix,GT,37.5226869,-122.3568222,,10.801928,0.1,160.31232,1595027715435
Fix,GT,37.5225948,-122.3567793,,10.913332,0.1,159.95288,1595027716435
Fix,GT,37.5225052,-122.3567383,,10.114813,0.1,160.4967,1595027717435
Fix,GT,37.5224255,-122.3567037,,8.496715,0.1,161.73987,1595027718435
Fix,GT,37.5223606,-122.3566777,,6.6630015,0.1,162.57013,1595027719435
Fix,GT,37.5223109,-122.356652,,5.569068,0.1,154.91626,1595027720435
Fix,GT,37.5222749,-122.3566117,,5.6260605,0.1,134.79175,1595027721435
Fix,GT,37.5222536,-122.3565517,,6.5182323,0.1,111.90039,1595027722435
Fix,GT,37.5222435,-122.3564705,,8.346174,0.1,98.076904,1595027723435
Fix,GT,37.5222314,-122.3563643,,10.619484,0.1,99.92139,1595027724435
Fix,GT,37.5222011,-122.3562373,,12.812376,0.1,110.44272,1595027725435
Fix,GT,37.5221414,-122.3561013,,14.656942,0.1,123.948395,1595027726435
Fix,GT,37.5220478,-122.3559731,,16.270412,0.1,138.04144,1595027727435
Fix,GT,37.5219225,-122.3558623,,17.919323,0.1,148.823,1595027728435
Fix,GT,37.5217732,-122.3557616,,19.719769,0.1,153.17633,1595027729435
Fix,GT,37.5216065,-122.3556578,,21.547462,0.1,154.12335,1595027730435
Fix,GT,37.5214241,-122.3555478,,23.31723,0.1,154.73853,1595027731435
Fix,GT,37.5212279,-122.3554317,,24.756557,0.1,154.86035,1595027732435
Fix,GT,37.5210218,-122.3553076,,26.03548,0.1,154.04724,1595027733435
Fix,GT,37.5208066,-122.3551719,,27.380836,0.1,153.06097,1595027734435
Fix,GT,37.5205834,-122.3550269,,28.234869,0.1,152.69946,1595027735435
Fix,GT,37.5203565,-122.3548794,,28.314238,0.1,153.02124,1595027736435
Fix,GT,37.5201314,-122.3547358,,27.728199,0.1,153.31152,1595027737435
Fix,GT,37.5199117,-122.3545949,,27.059351,0.1,152.66919,1595027738435
Fix,GT,37.5196983,-122.3544509,,26.827114,0.1,150.944,1595027739435
Fix,GT,37.5194892,-122.3542992,,26.809088,0.1,149.57806,1595027740435
Fix,GT,37.5192819,-122.3541441,,26.705206,0.1,149.2815,1595027741435
Fix,GT,37.5190755,-122.3539888,,26.76917,0.1,148.9624,1595027742435
Fix,GT,37.5188687,-122.3538292,,27.164177,0.1,148.05807,1595027743435
Fix,GT,37.5186602,-122.3536616,,27.833712,0.1,147.05005,1595027744435
Fix,GT,37.5184488,-122.3534859,,28.456444,0.1,146.27634,1595027745435
Fix,GT,37.5182359,-122.3533044,,28.59637,0.1,145.66064,1595027746435
Fix,GT,37.518025,-122.3531203,,28.40802,0.1,144.9524,1595027747435
Fix,GT,37.5178176,-122.3529334,,28.318579,0.1,143.95276,1595027748435
Fix,GT,37.5176126,-122.3527411,,28.568802,0.1,142.7074,1595027749435
Fix,GT,37.5174083,-122.3525396,,29.180437,0.1,141.17822,1595027750435
Fix,GT,37.5172031,-122.3523253,,30.143684,0.1,139.59763,1595027751435
Fix,GT,37.5169954,-122.3520966,,31.185673,0.1,138.20038,1595027752435
Fix,GT,37.5167851,-122.3518556,,31.965694,0.1,137.39825,1595027753435
Fix,GT,37.5165712,-122.3516085,,32.47089,0.1,137.87012,1595027754435
Fix,GT,37.5163519,-122.3513632,,32.73521,0.1,139.04819,1595027755435
Fix,GT,37.5161275,-122.3511202,,33.10683,0.1,139.48492,1595027756435
Fix,GT,37.5158991,-122.3508742,,33.709587,0.1,139.56451,1595027757435
Fix,GT,37.5156664,-122.3506247,,34.18652,0.1,139.79712,1595027758435
Fix,GT,37.5154301,-122.3503734,,34.52356,0.1,139.93042,1595027759435
Fix,GT,37.5151915,-122.3501205,,34.789547,0.1,139.95193,1595027760435
Fix,GT,37.5149511,-122.3498657,,35.00643,0.1,139.85364,1595027761435
Fix,GT,37.5147103,-122.3496093,,35.055454,0.1,139.66718,1595027762435
Fix,GT,37.5144702,-122.3493517,,35.06876,0.1,139.54083,1595027763435
Fix,GT,37.5142299,-122.349093,,35.248108,0.1,139.52332,1595027764435
Fix,GT,37.5139882,-122.348833,,35.379257,0.1,139.4834,1595027765435
Fix,GT,37.5137466,-122.348572,,35.376526,0.1,139.33167,1595027766435
Fix,GT,37.5135055,-122.34831,,35.422848,0.1,139.2016,1595027767435
Fix,GT,37.5132644,-122.3480464,,35.576344,0.1,138.97601,1595027768435
Fix,GT,37.5130234,-122.3477799,,35.69394,0.1,138.44766,1595027769435
Fix,GT,37.5127844,-122.3475097,,35.672092,0.1,137.75226,1595027770435
Fix,GT,37.5125493,-122.347236,,35.50455,0.1,136.98517,1595027771435
Fix,GT,37.5123177,-122.3469609,,35.247555,0.1,136.51392,1595027772435
Fix,GT,37.5120898,-122.3466859,,34.919434,0.1,136.04657,1595027773435
Fix,GT,37.5118662,-122.3464109,,34.57034,0.1,135.38757,1595027774435
Fix,GT,37.5116472,-122.3461355,,34.24841,0.1,134.74878,1595027775435
Fix,GT,37.5114328,-122.3458592,,33.966557,0.1,133.99286,1595027776435
Fix,GT,37.5112231,-122.3455814,,33.717392,0.1,133.21036,1595027777435
Fix,GT,37.5110178,-122.3453024,,33.4924,0.1,132.53394,1595027778435
Fix,GT,37.5108159,-122.3450222,,33.330906,0.1,131.96753,1595027779435
Fix,GT,37.5106169,-122.3447408,,33.17816,0.1,131.46368,1595027780435
Fix,GT,37.5104211,-122.3444584,,33.017296,0.1,130.86841,1595027781435
Fix,GT,37.5102281,-122.3441751,,32.89709,0.1,130.30072,1595027782435
Fix,GT,37.5100382,-122.3438901,,32.82132,0.1,129.61136,1595027783435
Fix,GT,37.5098514,-122.3436025,,32.811462,0.1,128.97327,1595027784435
Fix,GT,37.5096669,-122.3433123,,32.862816,0.1,128.33496,1595027785435
Fix,GT,37.5094848,-122.3430187,,32.955696,0.1,127.70001,1595027786435
Fix,GT,37.5093044,-122.3427218,,33.076183,0.1,127.375244,1595027787435
Fix,GT,37.5091238,-122.3424233,,33.199005,0.1,127.31976,1595027788435
Fix,GT,37.5089427,-122.3421238,,33.300846,0.1,127.27399,1595027789435
Fix,GT,37.5087611,-122.3418231,,33.412407,0.1,127.25787,1595027790435
Fix,GT,37.5085788,-122.3415213,,33.57379,0.1,127.38272,1595027791435
Fix,GT,37.5083952,-122.3412186,,33.726917,0.1,127.453735,1595027792435
Fix,GT,37.5082106,-122.3409145,,33.848648,0.1,127.44107,1595027793435
Fix,GT,37.5080253,-122.3406095,,33.994614,0.1,127.48541,1595027794435
Fix,GT,37.5078386,-122.3403035,,34.178116,0.1,127.678955,1595027795435
Fix,GT,37.5076499,-122.3399966,,34.342648,0.1,127.899536,1595027796435
Fix,GT,37.5074599,-122.3396891,,34.471832,0.1,127.85095,1595027797435
Fix,GT,37.5072698,-122.33938,,34.60849,0.1,127.63623,1595027798435
Fix,GT,37.50708,-122.3390681,,34.79545,0.1,127.49225,1595027799435
Fix,GT,37.5068893,-122.3387544,,34.989883,0.1,127.5647,1595027800435
Fix,GT,37.506697,-122.3384399,,35.10676,0.1,127.61636,1595027801435
Fix,GT,37.5065047,-122.3381242,,35.16441,0.1,127.55408,1595027802435
Fix,GT,37.506312,-122.3378083,,35.215466,0.1,127.66037,1595027803435
Fix,GT,37.5061186,-122.3374925,,35.199413,0.1,127.63394,1595027804435
Fix,GT,37.5059263,-122.3371773,,34.988518,0.1,127.62576,1595027805435
Fix,GT,37.5057353,-122.3368654,,34.562126,0.1,127.94647,1595027806435
Fix,GT,37.5055449,-122.3365593,,34.097485,0.1,128.39719,1595027807435
Fix,GT,37.5053551,-122.3362588,,33.72512,0.1,128.70795,1595027808435
Fix,GT,37.505166,-122.3359618,,33.54081,0.1,128.90918,1595027809435
Fix,GT,37.5049764,-122.3356669,,33.507153,0.1,129.22809,1595027810435
Fix,GT,37.5047847,-122.3353733,,33.643383,0.1,129.63632,1595027811435
Fix,GT,37.50459,-122.3350796,,33.94719,0.1,130.16833,1595027812435
Fix,GT,37.5043909,-122.3347856,,34.288376,0.1,130.82935,1595027813435
Fix,GT,37.5041878,-122.3344913,,34.553276,0.1,131.1958,1595027814435
Fix,GT,37.5039827,-122.3341957,,34.72522,0.1,131.17206,1595027815435
Fix,GT,37.5037769,-122.3338986,,34.867188,0.1,131.16571,1595027816435
Fix,GT,37.50357,-122.3336009,,35.0128,0.1,131.31226,1595027817435
Fix,GT,37.5033615,-122.3333024,,35.205074,0.1,131.45282,1595027818435
Fix,GT,37.5031513,-122.3330025,,35.45804,0.1,131.53491,1595027819435
Fix,GT,37.5029391,-122.3327008,,35.75023,0.1,131.56369,1595027820435
Fix,GT,37.5027254,-122.332396,,36.03585,0.1,131.43793,1595027821435
Fix,GT,37.5025112,-122.3320884,,36.216007,0.1,131.16595,1595027822435
Fix,GT,37.502298,-122.3317779,,36.284283,0.1,130.44366,1595027823435
Fix,GT,37.5020895,-122.3314616,,36.367485,0.1,128.80121,1595027824435
Fix,GT,37.5018895,-122.3311355,,36.43558,0.1,126.24585,1595027825435
Fix,GT,37.5017021,-122.3307979,,36.35395,0.1,123.42624,1595027826435
Fix,GT,37.5015272,-122.3304511,,36.276337,0.1,121.326416,1595027827435
Fix,GT,37.5013624,-122.3300971,,36.27518,0.1,119.24591,1595027828435
Fix,GT,37.5012092,-122.329735,,36.256504,0.1,116.70712,1595027829435
Fix,GT,37.5010692,-122.3293648,,36.27601,0.1,114.30438,1595027830435
Fix,GT,37.5009405,-122.3289875,,36.354195,0.1,112.158936,1595027831435
Fix,GT,37.5008222,-122.3286035,,36.46981,0.1,110.14627,1595027832435
Fix,GT,37.5007147,-122.3282134,,36.577385,0.1,107.99371,1595027833435
Fix,GT,37.5006194,-122.3278174,,36.626083,0.1,105.62787,1595027834435
Fix,GT,37.5005374,-122.3274164,,36.629402,0.1,103.1759,1595027835435
Fix,GT,37.500469,-122.3270114,,36.644398,0.1,100.80029,1595027836435
Fix,GT,37.5004137,-122.3266027,,36.723763,0.1,98.52435,1595027837435
Fix,GT,37.5003711,-122.3261902,,36.901825,0.1,96.34158,1595027838435
Fix,GT,37.5003407,-122.3257739,,37.066826,0.1,94.17883,1595027839435
Fix,GT,37.5003225,-122.3253546,,37.227013,0.1,92.13083,1595027840435
Fix,GT,37.5003146,-122.324933,,37.35276,0.1,90.79254,1595027841435
Fix,GT,37.5003114,-122.3245103,,37.412605,0.1,90.5462,1595027842435
Fix,GT,37.500308,-122.3240871,,37.436768,0.1,90.815155,1595027843435
Fix,GT,37.5003032,-122.3236636,,37.455635,0.1,91.09119,1595027844435
Fix,GT,37.5002964,-122.3232403,,37.428776,0.1,91.471344,1595027845435
Fix,GT,37.5002858,-122.3228174,,37.404602,0.1,92.58182,1595027846435
Fix,GT,37.500266,-122.3223954,,37.357918,0.1,94.70657,1595027847435
Fix,GT,37.5002328,-122.3219749,,37.3597,0.1,97.017456,1595027848435
Fix,GT,37.5001871,-122.321556,,37.430332,0.1,98.987946,1595027849435
Fix,GT,37.5001303,-122.3211386,,37.46437,0.1,100.8168,1595027850435
Fix,GT,37.5000627,-122.3207237,,37.429672,0.1,102.77377,1595027851435
Fix,GT,37.4999838,-122.3203123,,37.40655,0.1,104.740326,1595027852435
Fix,GT,37.4998938,-122.3199048,,37.353653,0.1,106.6918,1595027853435
Fix,GT,37.4997929,-122.3195024,,37.242096,0.1,108.73474,1595027854435
Fix,GT,37.4996805,-122.3191062,,37.166836,0.1,110.975494,1595027855435
Fix,GT,37.4995555,-122.3187163,,37.16474,0.1,113.26059,1595027856435
Fix,GT,37.4994186,-122.3183324,,37.215267,0.1,115.348724,1595027857435
Fix,GT,37.499271,-122.3179544,,37.23364,0.1,117.262695,1595027858435
Fix,GT,37.4991135,-122.3175829,,37.195988,0.1,119.167694,1595027859435
Fix,GT,37.4989466,-122.3172183,,37.164093,0.1,121.01935,1595027860435
Fix,GT,37.4987709,-122.3168607,,37.11178,0.1,122.73212,1595027861435
Fix,GT,37.4985875,-122.3165102,,37.04625,0.1,124.149536,1595027862435
Fix,GT,37.498399,-122.316165,,36.978157,0.1,124.956085,1595027863435
Fix,GT,37.4982079,-122.3158225,,37.00762,0.1,125.31543,1595027864435
Fix,GT,37.4980152,-122.3154802,,37.090973,0.1,125.28238,1595027865435
Fix,GT,37.4978229,-122.3151369,,37.121243,0.1,125.1181,1595027866435
Fix,GT,37.4976312,-122.314793,,37.11341,0.1,125.088776,1595027867435
Fix,GT,37.4974397,-122.314449,,37.094307,0.1,125.01141,1595027868435
Fix,GT,37.4972493,-122.3141042,,37.10064,0.1,124.614716,1595027869435
Fix,GT,37.4970615,-122.3137573,,37.10435,0.1,123.865295,1595027870435
Fix,GT,37.4968785,-122.3134066,,37.02362,0.1,122.62036,1595027871435
Fix,GT,37.4967034,-122.3130523,,36.65837,0.1,121.04895,1595027872435
Fix,GT,37.4965387,-122.3126973,,36.033115,0.1,119.41614,1595027873435
Fix,GT,37.4963845,-122.3123423,,35.540916,0.1,117.98401,1595027874435
Fix,GT,37.4962383,-122.3119866,,35.29316,0.1,116.72189,1595027875435
Fix,GT,37.4960996,-122.311629,,35.042942,0.1,115.337555,1595027876435
Fix,GT,37.4959688,-122.311271,,34.588196,0.1,114.02112,1595027877435
Fix,GT,37.4958466,-122.310915,,33.98201,0.1,112.749725,1595027878435
Fix,GT,37.4957327,-122.3105624,,33.33458,0.1,111.51178,1595027879435
Fix,GT,37.495627,-122.3102136,,32.7071,0.1,110.250244,1595027880435
Fix,GT,37.4955289,-122.3098683,,32.16246,0.1,109.13577,1595027881435
Fix,GT,37.4954367,-122.3095257,,31.86657,0.1,108.245636,1595027882435
Fix,GT,37.495349,-122.3091828,,31.91315,0.1,107.51361,1595027883435
Fix,GT,37.4952639,-122.3088365,,32.221992,0.1,106.99753,1595027884435
Fix,GT,37.4951792,-122.3084846,,32.844093,0.1,106.83539,1595027885435
Fix,GT,37.4950927,-122.308125,,33.53612,0.1,106.94989,1595027886435
Fix,GT,37.4950042,-122.3077598,,33.879242,0.1,107.06406,1595027887435
Fix,GT,37.4949151,-122.3073943,,33.681255,0.1,107.16766,1595027888435
Fix,GT,37.4948265,-122.3070334,,33.092888,0.1,107.31528,1595027889435
Fix,GT,37.4947392,-122.3066787,,32.60981,0.1,107.20978,1595027890435
Fix,GT,37.4946534,-122.3063272,,32.441032,0.1,107.01611,1595027891435
Fix,GT,37.4945682,-122.3059757,,32.648457,0.1,107.153015,1595027892435
Fix,GT,37.4944794,-122.3056208,,33.187565,0.1,108.19968,1595027893435
Fix,GT,37.4943815,-122.3052623,,33.748505,0.1,110.11893,1595027894435
Fix,GT,37.4942708,-122.304905,,34.008743,0.1,112.806274,1595027895435
Fix,GT,37.4941455,-122.304553,,34.289013,0.1,115.73108,1595027896435
Fix,GT,37.4940055,-122.3042043,,34.852097,0.1,118.07822,1595027897435
Fix,GT,37.493852,-122.303856,,35.53451,0.1,120.26486,1595027898435
Fix,GT,37.4936856,-122.3035094,,36.01732,0.1,122.178955,1595027899435
Fix,GT,37.4935083,-122.303167,,36.148075,0.1,124.16876,1595027900435
Fix,GT,37.4933216,-122.3028323,,36.066765,0.1,126.370605,1595027901435
Fix,GT,37.4931256,-122.302508,,35.96827,0.1,128.42322,1595027902435
Fix,GT,37.4929208,-122.3021927,,36.00124,0.1,130.34631,1595027903435
Fix,GT,37.4927072,-122.3018856,,36.087112,0.1,132.39374,1595027904435
Fix,GT,37.4924844,-122.3015885,,36.061012,0.1,134.6582,1595027905435
Fix,GT,37.4922527,-122.3013037,,35.91499,0.1,137.00851,1595027906435
Fix,GT,37.492013,-122.3010322,,35.765186,0.1,139.31064,1595027907435
Fix,GT,37.4917654,-122.3007742,,35.68907,0.1,141.70807,1595027908435
Fix,GT,37.4915092,-122.3005302,,35.736744,0.1,144.37195,1595027909435
Fix,GT,37.4912433,-122.3002999,,36.01088,0.1,146.83417,1595027910435
Fix,GT,37.4909676,-122.3000814,,36.3555,0.1,149.03845,1595027911435
Fix,GT,37.4906832,-122.2998745,,36.601383,0.1,151.21887,1595027912435
Fix,GT,37.4903909,-122.2996802,,36.813404,0.1,153.38055,1595027913435
Fix,GT,37.4900913,-122.2994993,,36.998695,0.1,155.69989,1595027914435
Fix,GT,37.4897848,-122.2993335,,37.06681,0.1,158.12256,1595027915435
Fix,GT,37.4894731,-122.299184,,36.978325,0.1,160.45996,1595027916435
Fix,GT,37.4891583,-122.2990503,,36.770523,0.1,162.67444,1595027917435
Fix,GT,37.4888415,-122.2989331,,36.541107,0.1,164.9386,1595027918435
Fix,GT,37.4885233,-122.2988327,,36.28703,0.1,167.26782,1595027919435
Fix,GT,37.4882048,-122.2987494,,35.942726,0.1,169.64807,1595027920435
Fix,GT,37.4878866,-122.2986833,,35.634834,0.1,171.96204,1595027921435
Fix,GT,37.4875693,-122.2986331,,35.343945,0.1,174.11658,1595027922435
Fix,GT,37.4872535,-122.298598,,35.030804,0.1,176.1878,1595027923435
Fix,GT,37.4869399,-122.298578,,34.69336,0.1,178.4447,1595027924435
Fix,GT,37.4866288,-122.298574,,34.36052,0.1,180.84216,1595027925435
Fix,GT,37.4863209,-122.2985865,,34.049805,0.1,183.28423,1595027926435
Fix,GT,37.4860164,-122.2986144,,33.69861,0.1,185.50266,1595027927435
Fix,GT,37.4857165,-122.2986548,,33.216164,0.1,186.96466,1595027928435
Fix,GT,37.4854218,-122.2987012,,32.731033,0.1,187.46953,1595027929435
Fix,GT,37.4851311,-122.2987485,,32.35905,0.1,187.45627,1595027930435
Fix,GT,37.4848434,-122.2987945,,32.01111,0.1,187.3221,1595027931435
Fix,GT,37.4845591,-122.2988395,,31.588917,0.1,187.33195,1595027932435
Fix,GT,37.4842788,-122.2988845,,31.166649,0.1,187.48753,1595027933435
Fix,GT,37.4840018,-122.298929,,30.852043,0.1,187.23222,1595027934435
Fix,GT,37.4837264,-122.2989704,,30.771458,0.1,186.5601,1595027935435
Fix,GT,37.4834498,-122.2990077,,31.05608,0.1,186.028,1595027936435
Fix,GT,37.4831691,-122.2990442,,31.62096,0.1,186.10886,1595027937435
Fix,GT,37.4828828,-122.2990831,,32.338512,0.1,186.61067,1595027938435
Fix,GT,37.4825899,-122.2991264,,33.117966,0.1,187.09482,1595027939435
Fix,GT,37.4822908,-122.2991735,,33.78333,0.1,187.42157,1595027940435
Fix,GT,37.4819866,-122.2992229,,34.254818,0.1,187.49626,1595027941435
Fix,GT,37.4816792,-122.299273,,34.525288,0.1,187.4875,1595027942435
Fix,GT,37.4813705,-122.2993233,,34.563347,0.1,187.61674,1595027943435
Fix,GT,37.4810624,-122.2993743,,34.40793,0.1,187.57529,1595027944435
Fix,GT,37.4807563,-122.2994243,,34.108795,0.1,187.52922,1595027945435
Fix,GT,37.4804529,-122.299474,,33.810917,0.1,187.58037,1595027946435
Fix,GT,37.480152,-122.2995229,,33.504696,0.1,187.41101,1595027947435
Fix,GT,37.4798538,-122.2995691,,33.21954,0.1,186.85728,1595027948435
Fix,GT,37.4795572,-122.2996101,,33.05348,0.1,185.89969,1595027949435
Fix,GT,37.4792609,-122.2996432,,33.022804,0.1,184.47229,1595027950435
Fix,GT,37.4789639,-122.2996657,,33.048393,0.1,182.62224,1595027951435
Fix,GT,37.4786664,-122.2996756,,33.044388,0.1,180.52448,1595027952435
Fix,GT,37.4783689,-122.299672,,33.04361,0.1,178.57141,1595027953435
Fix,GT,37.4780714,-122.2996561,,33.102962,0.1,176.65302,1595027954435
Fix,GT,37.4777739,-122.2996267,,33.16593,0.1,174.39337,1595027955435
Fix,GT,37.4774774,-122.2995819,,33.155186,0.1,171.9945,1595027956435
Fix,GT,37.4771829,-122.2995221,,33.102314,0.1,169.81451,1595027957435
Fix,GT,37.4768908,-122.2994488,,33.058224,0.1,167.71832,1595027958435
Fix,GT,37.4766013,-122.2993625,,33.020447,0.1,165.72168,1595027959435
Fix,GT,37.4763148,-122.299264,,32.937325,0.1,163.74774,1595027960435
Fix,GT,37.4760326,-122.2991537,,32.650745,0.1,161.78015,1595027961435
Fix,GT,37.4757574,-122.2990328,,32.09086,0.1,159.79834,1595027962435
Fix,GT,37.4754905,-122.2989027,,31.501041,0.1,157.89447,1595027963435
Fix,GT,37.4752314,-122.2987639,,31.085262,0.1,155.98407,1595027964435
Fix,GT,37.4749795,-122.2986156,,30.750238,0.1,153.94373,1595027965435
Fix,GT,37.4747342,-122.2984579,,30.453377,0.1,152.01605,1595027966435
Fix,GT,37.4744953,-122.2982919,,30.203268,0.1,150.21985,1595027967435
Fix,GT,37.4742623,-122.2981181,,30.018505,0.1,148.47186,1595027968435
Fix,GT,37.4740348,-122.2979363,,29.87128,0.1,146.76337,1595027969435
Fix,GT,37.4738125,-122.2977466,,29.824314,0.1,144.95612,1595027970435
Fix,GT,37.4735953,-122.2975476,,29.927631,0.1,143.05316,1595027971435
Fix,GT,37.4733825,-122.2973389,,30.075386,0.1,141.17853,1595027972435
Fix,GT,37.4731734,-122.2971212,,30.24564,0.1,139.69714,1595027973435
Fix,GT,37.4729664,-122.2968978,,30.371502,0.1,139.39783,1595027974435
Fix,GT,37.4727585,-122.2966744,,30.334967,0.1,139.61145,1595027975435
Fix,GT,37.4725511,-122.2964523,,30.161394,0.1,139.51544,1595027976435
Fix,GT,37.4723458,-122.2962311,,29.938581,0.1,139.37506,1595027977435
Fix,GT,37.4721421,-122.2960107,,29.761368,0.1,139.26617,1595027978435
Fix,GT,37.4719399,-122.295791,,29.626911,0.1,139.19196,1595027979435
Fix,GT,37.4717385,-122.2955723,,29.497107,0.1,139.35919,1595027980435
Fix,GT,37.4715371,-122.2953558,,29.360796,0.1,139.68051,1595027981435
Fix,GT,37.4713355,-122.2951414,,29.307106,0.1,139.9899,1595027982435
Fix,GT,37.4711333,-122.2949273,,29.468206,0.1,139.83588,1595027983435
Fix,GT,37.4709301,-122.2947101,,29.79878,0.1,139.48792,1595027984435
Fix,GT,37.470725,-122.2944889,,30.272436,0.1,139.35944,1595027985435
Fix,GT,37.4705161,-122.2942636,,30.833763,0.1,139.58838,1595027986435
Fix,GT,37.470302,-122.2940371,,31.337273,0.1,140.44434,1595027987435
Fix,GT,37.4700817,-122.2938125,,31.592583,0.1,141.61823,1595027988435
Fix,GT,37.4698568,-122.2935936,,31.543102,0.1,143.25012,1595027989435
Fix,GT,37.4696267,-122.2933851,,31.502712,0.1,145.43219,1595027990435
Fix,GT,37.4693907,-122.2931872,,31.49984,0.1,147.28986,1595027991435
Fix,GT,37.4691509,-122.2929978,,31.342518,0.1,148.69244,1595027992435
Fix,GT,37.4689089,-122.292817,,31.16069,0.1,149.97974,1595027993435
Fix,GT,37.468665,-122.2926432,,31.107002,0.1,151.1319,1595027994435
Fix,GT,37.4684185,-122.2924761,,31.076126,0.1,152.41809,1595027995435
Fix,GT,37.4681696,-122.2923168,,30.911419,0.1,153.82166,1595027996435
Fix,GT,37.4679194,-122.2921668,,30.624567,0.1,155.47107,1595027997435
Fix,GT,37.4676683,-122.2920277,,30.312796,0.1,157.28021,1595027998435
Fix,GT,37.4674162,-122.2918997,,30.036064,0.1,158.84229,1595027999435
Fix,GT,37.4671636,-122.2917807,,29.888828,0.1,160.27264,1595028000435
Fix,GT,37.4669091,-122.2916696,,30.00069,0.1,161.6612,1595028001435
Fix,GT,37.4666504,-122.2915657,,30.260551,0.1,163.15509,1595028002435
Fix,GT,37.4663878,-122.2914701,,30.430384,0.1,164.77985,1595028003435
Fix,GT,37.4661223,-122.2913837,,30.431423,0.1,166.42883,1595028004435
Fix,GT,37.4658554,-122.291307,,30.334026,0.1,168.05786,1595028005435
Fix,GT,37.4655877,-122.2912391,,30.303818,0.1,169.33228,1595028006435
Fix,GT,37.4653184,-122.2911781,,30.437298,0.1,170.48126,1595028007435
Fix,GT,37.4650467,-122.2911238,,30.663078,0.1,171.69232,1595028008435
Fix,GT,37.4647719,-122.2910765,,30.890078,0.1,173.05548,1595028009435
Fix,GT,37.4644947,-122.2910389,,30.999916,0.1,174.96997,1595028010435
Fix,GT,37.464216,-122.2910133,,31.020798,0.1,176.84747,1595028011435
Fix,GT,37.4639369,-122.2909966,,30.95253,0.1,177.89026,1595028012435
Fix,GT,37.4636589,-122.2909848,,30.80453,0.1,178.5332,1595028013435
Fix,GT,37.4633816,-122.2909763,,30.791126,0.1,178.86023,1595028014435
Fix,GT,37.4631039,-122.2909687,,30.869377,0.1,178.76208,1595028015435
Fix,GT,37.4628254,-122.2909604,,30.9798,0.1,178.75159,1595028016435
Fix,GT,37.4625462,-122.2909522,,30.975834,0.1,178.85901,1595028017435
Fix,GT,37.4622679,-122.2909441,,30.785149,0.1,178.68939,1595028018435
Fix,GT,37.4619917,-122.2909337,,30.563616,0.1,178.08319,1595028019435
Fix,GT,37.4617179,-122.2909187,,30.30397,0.1,177.11932,1595028020435
Fix,GT,37.4614468,-122.2908959,,30.037804,0.1,175.34723,1595028021435
Fix,GT,37.4611786,-122.2908615,,29.86641,0.1,173.22241,1595028022435
Fix,GT,37.4609121,-122.2908159,,29.928152,0.1,171.48999,1595028023435
Fix,GT,37.4606454,-122.2907599,,30.080887,0.1,169.76392,1595028024435
Fix,GT,37.4603791,-122.2906937,,30.21915,0.1,168.0362,1595028025435
Fix,GT,37.4601129,-122.290617,,30.428452,0.1,166.30634,1595028026435
Fix,GT,37.4598472,-122.2905298,,30.519024,0.1,164.53925,1595028027435
Fix,GT,37.4595839,-122.2904314,,30.494373,0.1,162.55914,1595028028435
Fix,GT,37.4593233,-122.2903218,,30.55417,0.1,160.66913,1595028029435
Fix,GT,37.4590647,-122.2902021,,30.67256,0.1,159.01624,1595028030435
Fix,GT,37.4588077,-122.2900717,,30.926012,0.1,157.02063,1595028031435
Fix,GT,37.4585522,-122.2899277,,31.295908,0.1,154.78821,1595028032435
Fix,GT,37.458298,-122.2897698,,31.67418,0.1,152.67664,1595028033435
Fix,GT,37.4580458,-122.2895986,,32.016773,0.1,150.70764,1595028034435
Fix,GT,37.4577956,-122.2894152,,32.31929,0.1,148.83545,1595028035435
Fix,GT,37.4575482,-122.2892204,,32.52018,0.1,147.01895,1595028036435
Fix,GT,37.4573053,-122.2890139,,32.629616,0.1,145.00049,1595028037435
Fix,GT,37.4570671,-122.2887968,,32.79724,0.1,143.31354,1595028038435
Fix,GT,37.4568313,-122.2885706,,33.110783,0.1,141.9628,1595028039435
Fix,GT,37.4565983,-122.288334,,33.46633,0.1,140.06253,1595028040435
Fix,GT,37.4563704,-122.288084,,33.766453,0.1,137.75229,1595028041435
Fix,GT,37.4561492,-122.2878203,,34.02121,0.1,135.3453,1595028042435
Fix,GT,37.4559353,-122.2875437,,34.2006,0.1,133.12146,1595028043435
Fix,GT,37.4557284,-122.2872563,,34.362247,0.1,131.25372,1595028044435
Fix,GT,37.4555266,-122.2869601,,34.59641,0.1,129.99567,1595028045435
Fix,GT,37.4553273,-122.2866578,,34.783974,0.1,129.43542,1595028046435
Fix,GT,37.4551285,-122.2863531,,34.885384,0.1,129.36273,1595028047435
Fix,GT,37.4549292,-122.2860473,,35.008713,0.1,129.31223,1595028048435
Fix,GT,37.4547297,-122.2857403,,35.082672,0.1,129.32135,1595028049435
Fix,GT,37.4545295,-122.2854334,,35.10977,0.1,129.50922,1595028050435
Fix,GT,37.4543281,-122.2851264,,35.27571,0.1,129.60037,1595028051435
Fix,GT,37.4541253,-122.2848173,,35.539604,0.1,129.54285,1595028052435
Fix,GT,37.4539216,-122.2845059,,35.74744,0.1,129.39484,1595028053435
Fix,GT,37.4537174,-122.2841927,,35.84004,0.1,129.37946,1595028054435
Fix,GT,37.4535125,-122.2838789,,35.9327,0.1,129.50876,1595028055435
Fix,GT,37.4533065,-122.2835647,,36.01598,0.1,129.57169,1595028056435
Fix,GT,37.4531002,-122.2832505,,35.97789,0.1,129.64053,1595028057435
Fix,GT,37.4528942,-122.282938,,35.80166,0.1,129.79321,1595028058435
Fix,GT,37.4526887,-122.2826276,,35.604404,0.1,129.84338,1595028059435
Fix,GT,37.452484,-122.2823186,,35.514374,0.1,129.79706,1595028060435
Fix,GT,37.4522796,-122.2820095,,35.557285,0.1,129.71399,1595028061435
Fix,GT,37.4520754,-122.2816996,,35.58418,0.1,129.72263,1595028062435
Fix,GT,37.4518707,-122.2813903,,35.567986,0.1,129.91571,1595028063435
Fix,GT,37.4516653,-122.2810814,,35.62621,0.1,129.94427,1595028064435
Fix,GT,37.4514597,-122.2807715,,35.68747,0.1,129.78284,1595028065435
Fix,GT,37.4512548,-122.2804608,,35.681,0.1,129.60922,1595028066435
Fix,GT,37.4510506,-122.2801491,,35.715908,0.1,129.406,1595028067435
Fix,GT,37.4508468,-122.2798362,,35.80932,0.1,129.23697,1595028068435
Fix,GT,37.4506429,-122.2795216,,35.93922,0.1,129.1767,1595028069435
Fix,GT,37.4504382,-122.2792059,,36.06838,0.1,129.25824,1595028070435
Fix,GT,37.4502324,-122.2788897,,36.159203,0.1,129.43848,1595028071435
Fix,GT,37.4500254,-122.2785732,,36.288906,0.1,129.5216,1595028072435
Fix,GT,37.4498173,-122.2782552,,36.503845,0.1,129.52008,1595028073435
Fix,GT,37.4496076,-122.2779358,,36.691536,0.1,129.6831,1595028074435
Fix,GT,37.449396,-122.2776161,,36.83014,0.1,129.92047,1595028075435
Fix,GT,37.449183,-122.2772957,,36.988495,0.1,129.9126,1595028076435
Fix,GT,37.4489691,-122.2769739,,37.149784,0.1,129.81116,1595028077435
Fix,GT,37.4487548,-122.2766501,,37.33841,0.1,129.63022,1595028078435
Fix,GT,37.4485403,-122.2763236,,37.539948,0.1,129.69342,1595028079435
Fix,GT,37.4483231,-122.2759969,,37.704357,0.1,130.29724,1595028080435
Fix,GT,37.4481023,-122.2756729,,37.687668,0.1,131.03775,1595028081435
Fix,GT,37.4478795,-122.2753529,,37.50332,0.1,131.47241,1595028082435
Fix,GT,37.4476566,-122.2750359,,37.322388,0.1,131.57037,1595028083435
Fix,GT,37.4474342,-122.2747207,,37.147263,0.1,131.6319,1595028084435
Fix,GT,37.447213,-122.274407,,36.985733,0.1,131.5481,1595028085435
Fix,GT,37.4469933,-122.2740938,,36.8269,0.1,131.31506,1595028086435
Fix,GT,37.4467755,-122.2737812,,36.647213,0.1,131.17944,1595028087435
Fix,GT,37.4465591,-122.27347,,36.41885,0.1,131.30676,1595028088435
Fix,GT,37.4463436,-122.2731617,,36.11043,0.1,131.4165,1595028089435
Fix,GT,37.4461301,-122.2728565,,35.755436,0.1,131.31061,1595028090435
Fix,GT,37.4459204,-122.2725524,,35.39171,0.1,130.49487,1595028091435
Fix,GT,37.4457179,-122.2722464,,34.9941,0.1,128.97076,1595028092435
Fix,GT,37.4455246,-122.2719369,,34.651737,0.1,127.346924,1595028093435
Fix,GT,37.4453398,-122.2716229,,34.461185,0.1,125.67688,1595028094435
Fix,GT,37.4451633,-122.2713035,,34.373302,0.1,123.887695,1595028095435
Fix,GT,37.4449952,-122.2709779,,34.28355,0.1,122.094696,1595028096435
Fix,GT,37.4448362,-122.2706468,,34.17652,0.1,120.16876,1595028097435
Fix,GT,37.4446863,-122.2703103,,34.05909,0.1,118.29791,1595028098435
Fix,GT,37.4445458,-122.2699694,,33.889465,0.1,116.44568,1595028099435
Fix,GT,37.444415,-122.2696245,,33.737293,0.1,114.545135,1595028100435
Fix,GT,37.4442938,-122.2692756,,33.65325,0.1,112.615845,1595028101435
Fix,GT,37.4441819,-122.2689229,,33.58429,0.1,110.90802,1595028102435
Fix,GT,37.4440782,-122.2685667,,33.546207,0.1,109.27466,1595028103435
Fix,GT,37.4439831,-122.2682066,,33.64488,0.1,107.40677,1595028104435
Fix,GT,37.4438972,-122.2678409,,33.84587,0.1,105.58215,1595028105435
Fix,GT,37.44382,-122.2674699,,34.045174,0.1,103.79727,1595028106435
Fix,GT,37.4437517,-122.2670942,,34.178688,0.1,102.03357,1595028107435
Fix,GT,37.4436926,-122.2667152,,34.17179,0.1,100.13672,1595028108435
Fix,GT,37.4436441,-122.2663345,,34.082447,0.1,98.132324,1595028109435
Fix,GT,37.4436059,-122.2659532,,33.92518,0.1,96.33884,1595028110435
Fix,GT,37.4435769,-122.2655733,,33.608093,0.1,94.727234,1595028111435
Fix,GT,37.4435569,-122.2651972,,33.140972,0.1,92.96881,1595028112435
Fix,GT,37.4435463,-122.2648256,,32.67573,0.1,91.23181,1595028113435
Fix,GT,37.4435444,-122.264459,,32.252655,0.1,89.661804,1595028114435
Fix,GT,37.4435507,-122.2640973,,31.794285,0.1,87.98657,1595028115435
Fix,GT,37.4435657,-122.2637418,,31.222435,0.1,86.070465,1595028116435
Fix,GT,37.4435902,-122.2633938,,30.670633,0.1,84.03729,1595028117435
Fix,GT,37.4436231,-122.2630524,,30.271923,0.1,82.48724,1595028118435
Fix,GT,37.4436606,-122.2627152,,29.983015,0.1,81.968475,1595028119435
Fix,GT,37.4436983,-122.2623809,,29.783741,0.1,82.23944,1595028120435
Fix,GT,37.443734,-122.2620475,,29.771622,0.1,82.653625,1595028121435
Fix,GT,37.4437684,-122.2617131,,29.907043,0.1,82.76123,1595028122435
Fix,GT,37.4438028,-122.2613778,,29.893703,0.1,82.75406,1595028123435
Fix,GT,37.4438376,-122.2610442,,29.65576,0.1,82.46048,1595028124435
Fix,GT,37.443874,-122.260713,,29.546642,0.1,82.013855,1595028125435
Fix,GT,37.4439116,-122.2603819,,29.687584,0.1,81.91876,1595028126435
Fix,GT,37.4439493,-122.2600487,,29.881123,0.1,82.24225,1595028127435
Fix,GT,37.4439842,-122.259713,,30.03503,0.1,83.201904,1595028128435
Fix,GT,37.4440134,-122.2593745,,30.254303,0.1,84.73987,1595028129435
Fix,GT,37.4440342,-122.2590315,,30.651474,0.1,86.72583,1595028130435
Fix,GT,37.4440455,-122.2586826,,31.141731,0.1,88.88281,1595028131435
Fix,GT,37.4440463,-122.2583281,,31.573217,0.1,91.209656,1595028132435
Fix,GT,37.4440347,-122.2579701,,31.836678,0.1,93.64093,1595028133435
Fix,GT,37.4440127,-122.2576102,,32.03574,0.1,95.370605,1595028134435
Fix,GT,37.4439822,-122.2572492,,32.175735,0.1,97.02527,1595028135435
Fix,GT,37.4439423,-122.2568891,,32.145042,0.1,99.16626,1595028136435
Fix,GT,37.4438921,-122.2565322,,31.970963,0.1,101.26935,1595028137435
Fix,GT,37.4438314,-122.2561807,,31.682943,0.1,103.37167,1595028138435
Fix,GT,37.4437621,-122.2558345,,31.5069,0.1,105.12445,1595028139435
Fix,GT,37.4436845,-122.2554925,,31.440718,0.1,107.10812,1595028140435
Fix,GT,37.4435963,-122.2551551,,31.398232,0.1,109.53754,1595028141435
Fix,GT,37.4434976,-122.2548229,,31.362396,0.1,111.5163,1595028142435
Fix,GT,37.443391,-122.2544947,,31.350056,0.1,113.196655,1595028143435
Fix,GT,37.4432762,-122.2541711,,31.346079,0.1,115.10278,1595028144435
Fix,GT,37.4431529,-122.2538523,,31.34432,0.1,116.9039,1595028145435
Fix,GT,37.4430215,-122.2535388,,31.33561,0.1,119.007416,1595028146435
Fix,GT,37.4428802,-122.2532324,,31.321644,0.1,121.506805,1595028147435
Fix,GT,37.4427285,-122.252934,,31.304476,0.1,123.7034,1595028148435
Fix,GT,37.4425695,-122.2526418,,31.298683,0.1,125.27417,1595028149435
Fix,GT,37.442404,-122.2523555,,31.287868,0.1,126.94269,1595028150435
Fix,GT,37.4422317,-122.2520759,,31.253056,0.1,128.86139,1595028151435
Fix,GT,37.4420513,-122.251805,,31.214458,0.1,131.29663,1595028152435
Fix,GT,37.4418618,-122.2515447,,31.175884,0.1,133.75745,1595028153435
Fix,GT,37.4416666,-122.2512915,,31.138672,0.1,134.41669,1595028154435
Fix,GT,37.4414715,-122.2510389,,31.123526,0.1,134.10803,1595028155435
Fix,GT,37.4412768,-122.2507859,,31.135784,0.1,134.12933,1595028156435
Fix,GT,37.4410816,-122.250533,,31.13659,0.1,134.159,1595028157435
Fix,GT,37.4408865,-122.2502803,,31.116272,0.1,134.18747,1595028158435
Fix,GT,37.4406916,-122.2500278,,31.097673,0.1,134.19424,1595028159435
Fix,GT,37.4404967,-122.2497754,,31.075447,0.1,134.1659,1595028160435
Fix,GT,37.4403024,-122.2495228,,31.058739,0.1,133.97397,1595028161435
Fix,GT,37.440109,-122.2492693,,31.051521,0.1,133.69864,1595028162435
Fix,GT,37.439916,-122.2490146,,31.132477,0.1,133.62885,1595028163435
Fix,GT,37.4397224,-122.2487591,,31.262348,0.1,133.7428,1595028164435
Fix,GT,37.439527,-122.2485043,,31.32119,0.1,134.33258,1595028165435
Fix,GT,37.439329,-122.2482517,,31.356968,0.1,134.9201,1595028166435
Fix,GT,37.4391296,-122.2480006,,31.373138,0.1,135.02905,1595028167435
Fix,GT,37.4389297,-122.2477499,,31.383528,0.1,135.2237,1595028168435
Fix,GT,37.4387289,-122.2475,,31.399132,0.1,135.50586,1595028169435
Fix,GT,37.4385269,-122.2472518,,31.395432,0.1,135.99942,1595028170435
Fix,GT,37.4383234,-122.2470053,,31.357403,0.1,136.2174,1595028171435
Fix,GT,37.4381206,-122.2467595,,31.250986,0.1,136.02902,1595028172435
Fix,GT,37.4379188,-122.2465146,,31.090874,0.1,136.2059,1595028173435
Fix,GT,37.437717,-122.246272,,30.976078,0.1,136.53421,1595028174435
Fix,GT,37.4375146,-122.2460316,,30.886795,0.1,136.78665,1595028175435
Fix,GT,37.4373124,-122.2457925,,30.821058,0.1,136.79596,1595028176435
Fix,GT,37.4371109,-122.2455533,,30.773817,0.1,136.5358,1595028177435
Fix,GT,37.4369107,-122.2453132,,30.722515,0.1,136.3515,1595028178435
Fix,GT,37.4367108,-122.2450737,,30.615843,0.1,136.54358,1595028179435
Fix,GT,37.4365111,-122.2448362,,30.463478,0.1,136.72992,1595028180435
Fix,GT,37.436312,-122.2446007,,30.286772,0.1,136.86642,1595028181435
Fix,GT,37.4361138,-122.244367,,30.097214,0.1,136.8479,1595028182435
Fix,GT,37.4359174,-122.244134,,29.900505,0.1,136.58228,1595028183435
Fix,GT,37.435723,-122.2439022,,29.616692,0.1,136.5412,1595028184435
Fix,GT,37.4355304,-122.2436731,,29.32105,0.1,136.75912,1595028185435
Fix,GT,37.4353386,-122.2434468,,29.215675,0.1,136.9455,1595028186435
Fix,GT,37.4351463,-122.2432204,,29.362152,0.1,136.81201,1595028187435
Fix,GT,37.4349528,-122.2429901,,29.881618,0.1,136.41058,1595028188435
Fix,GT,37.4347558,-122.2427535,,30.61356,0.1,136.2779,1595028189435
Fix,GT,37.4345552,-122.2425131,,30.8144,0.1,136.60504,1595028190435
Fix,GT,37.4343542,-122.2422748,,30.5357,0.1,136.79651,1595028191435
Fix,GT,37.434155,-122.2420387,,30.364632,0.1,136.61359,1595028192435
Fix,GT,37.4339567,-122.2418017,,30.442558,0.1,136.44763,1595028193435
Fix,GT,37.4337578,-122.241564,,30.571348,0.1,136.58261,1595028194435
Fix,GT,37.4335577,-122.2413257,,30.674828,0.1,136.60986,1595028195435
Fix,GT,37.4333571,-122.2410871,,30.603653,0.1,136.62085,1595028196435
Fix,GT,37.4331579,-122.2408503,,30.314571,0.1,136.71219,1595028197435
Fix,GT,37.4329601,-122.2406155,,30.199986,0.1,136.60214,1595028198435
Fix,GT,37.4327627,-122.2403796,,30.360046,0.1,136.4281,1595028199435
Fix,GT,37.4325646,-122.2401418,,30.496052,0.1,136.43686,1595028200435
Fix,GT,37.4323654,-122.2399032,,30.65365,0.1,136.44153,1595028201435
Fix,GT,37.4321649,-122.239663,,30.91323,0.1,136.46033,1595028202435
Fix,GT,37.4319627,-122.2394207,,31.164284,0.1,136.34851,1595028203435
Fix,GT,37.4317596,-122.2391757,,31.357134,0.1,135.95578,1595028204435
Fix,GT,37.4315573,-122.2389273,,31.48222,0.1,135.4367,1595028205435
Fix,GT,37.4313566,-122.2386762,,31.435608,0.1,134.94754,1595028206435
Fix,GT,37.4311586,-122.2384239,,31.201305,0.1,134.31982,1595028207435
Fix,GT,37.4309649,-122.2381708,,30.891533,0.1,133.53094,1595028208435
Fix,GT,37.4307757,-122.237917,,30.661442,0.1,132.84875,1595028209435
Fix,GT,37.4305892,-122.2376619,,30.63814,0.1,132.41592,1595028210435
Fix,GT,37.4304036,-122.2374055,,30.640179,0.1,132.30371,1595028211435
Fix,GT,37.4302184,-122.2371499,,30.479637,0.1,132.41632,1595028212435
Fix,GT,37.4300339,-122.2368954,,30.395119,0.1,132.28796,1595028213435
Fix,GT,37.4298501,-122.2366399,,30.588932,0.1,132.06415,1595028214435
Fix,GT,37.4296651,-122.2363813,,30.984756,0.1,131.94046,1595028215435
Fix,GT,37.429478,-122.2361175,,31.545506,0.1,131.47784,1595028216435
Fix,GT,37.4292892,-122.2358457,,32.309,0.1,130.89972,1595028217435
Fix,GT,37.4290975,-122.235565,,33.09899,0.1,130.621,1595028218435
Fix,GT,37.4289019,-122.2352778,,33.735397,0.1,130.72192,1595028219435
Fix,GT,37.4287014,-122.2349872,,34.255417,0.1,131.31503,1595028220435
Fix,GT,37.4284955,-122.2346955,,34.706596,0.1,132.00647,1595028221435
Fix,GT,37.4282844,-122.2344028,,35.146984,0.1,132.50974,1595028222435
Fix,GT,37.4280691,-122.2341085,,35.536465,0.1,132.72516,1595028223435
Fix,GT,37.427851,-122.233812,,35.84861,0.1,132.88727,1595028224435
Fix,GT,37.4276305,-122.2335139,,36.117306,0.1,133.03381,1595028225435
Fix,GT,37.427408,-122.2332148,,36.24355,0.1,133.21744,1595028226435
Fix,GT,37.4271846,-122.2329161,,36.24276,0.1,133.33795,1595028227435
Fix,GT,37.4269606,-122.2326177,,36.313103,0.1,133.46198,1595028228435
Fix,GT,37.4267353,-122.2323194,,36.43461,0.1,133.65894,1595028229435
Fix,GT,37.4265084,-122.2320211,,36.504616,0.1,133.89838,1595028230435
Fix,GT,37.4262807,-122.2317237,,36.47661,0.1,134.0523,1595028231435
Fix,GT,37.4260527,-122.2314278,,36.34327,0.1,134.24847,1595028232435
Fix,GT,37.4258253,-122.2311339,,36.126854,0.1,134.21765,1595028233435
Fix,GT,37.4256003,-122.2308411,,35.853046,0.1,133.84085,1595028234435
Fix,GT,37.4253788,-122.2305487,,35.55316,0.1,133.47546,1595028235435
Fix,GT,37.4251608,-122.2302568,,35.21381,0.1,133.01172,1595028236435
Fix,GT,37.4249471,-122.2299656,,34.86636,0.1,132.4895,1595028237435
Fix,GT,37.4247372,-122.2296748,,34.559586,0.1,131.97632,1595028238435
Fix,GT,37.4245314,-122.2293841,,34.278336,0.1,131.44754,1595028239435
Fix,GT,37.424329,-122.2290937,,34.011086,0.1,131.1413,1595028240435
Fix,GT,37.4241288,-122.2288047,,33.73621,0.1,131.11023,1595028241435
Fix,GT,37.4239302,-122.2285187,,33.418747,0.1,131.16882,1595028242435
Fix,GT,37.4237332,-122.2282356,,33.10923,0.1,131.22632,1595028243435
Fix,GT,37.4235379,-122.2279549,,32.83838,0.1,131.18192,1595028244435
Fix,GT,37.4233446,-122.2276758,,32.5913,0.1,131.01471,1595028245435
Fix,GT,37.4231531,-122.2273983,,32.378857,0.1,130.99377,1595028246435
Fix,GT,37.4229623,-122.2271226,,32.24254,0.1,131.10294,1595028247435
Fix,GT,37.4227719,-122.2268479,,32.186775,0.1,131.04941,1595028248435
Fix,GT,37.4225822,-122.2265733,,32.150806,0.1,130.95148,1595028249435
Fix,GT,37.4223929,-122.2262985,,32.155067,0.1,130.90118,1595028250435
Fix,GT,37.4222034,-122.2260227,,32.308853,0.1,130.8164,1595028251435
Fix,GT,37.4220129,-122.2257447,,32.57759,0.1,130.79807,1595028252435
Fix,GT,37.4218206,-122.2254646,,32.870647,0.1,130.9354,1595028253435
Fix,GT,37.4216259,-122.2251826,,33.133316,0.1,131.06082,1595028254435
Fix,GT,37.4214294,-122.2248989,,33.389183,0.1,131.16547,1595028255435
Fix,GT,37.421231,-122.2246133,,33.67192,0.1,131.24884,1595028256435
Fix,GT,37.4210307,-122.2243259,,33.867428,0.1,131.27817,1595028257435
Fix,GT,37.4208294,-122.2240375,,33.93706,0.1,131.33533,1595028258435
Fix,GT,37.4206278,-122.2237488,,34.01724,0.1,131.33667,1595028259435
Fix,GT,37.420426,-122.2234583,,34.229156,0.1,130.92365,1595028260435
Fix,GT,37.4202262,-122.223162,,34.48533,0.1,129.34705,1595028261435
Fix,GT,37.4200345,-122.2228544,,34.671158,0.1,126.421326,1595028262435
Fix,GT,37.4198559,-122.2225329,,34.746284,0.1,123.46057,1595028263435
Fix,GT,37.41969,-122.2221999,,34.789303,0.1,120.51694,1595028264435
Fix,GT,37.4195379,-122.2218565,,34.789284,0.1,117.6535,1595028265435
Fix,GT,37.4193999,-122.2215052,,34.56018,0.1,114.89313,1595028266435
Fix,GT,37.4192769,-122.2211499,,34.035576,0.1,112.16321,1595028267435
Fix,GT,37.419169,-122.2207938,,33.43551,0.1,109.634705,1595028268435
Fix,GT,37.4190747,-122.2204385,,32.912357,0.1,107.22345,1595028269435
Fix,GT,37.4189941,-122.2200831,,32.59285,0.1,104.47699,1595028270435
Fix,GT,37.4189278,-122.2197253,,32.52789,0.1,101.77707,1595028271435
Fix,GT,37.4188713,-122.2193641,,32.689568,0.1,100.6702,1595028272435
Fix,GT,37.4188166,-122.2189999,,32.91017,0.1,100.93622,1595028273435
Fix,GT,37.4187607,-122.2186337,,33.103966,0.1,100.8327,1595028274435
Fix,GT,37.4187061,-122.2182653,,33.239788,0.1,100.41446,1595028275435
Fix,GT,37.4186527,-122.2178955,,33.29677,0.1,100.36865,1595028276435
Fix,GT,37.4185988,-122.2175252,,33.34829,0.1,100.565094,1595028277435
Fix,GT,37.4185437,-122.2171545,,33.396854,0.1,100.79248,1595028278435
Fix,GT,37.4184873,-122.2167842,,33.34275,0.1,101.06412,1595028279435
Fix,GT,37.4184299,-122.2164148,,33.286854,0.1,101.153015,1595028280435
Fix,GT,37.4183712,-122.216046,,33.29421,0.1,101.83124,1595028281435
Fix,GT,37.4183058,-122.2156788,,33.279953,0.1,103.86545,1595028282435
Fix,GT,37.4182282,-122.2153162,,33.187828,0.1,106.400665,1595028283435
Fix,GT,37.4181382,-122.2149594,,33.05632,0.1,109.091675,1595028284435
Fix,GT,37.4180353,-122.2146099,,32.925476,0.1,111.83588,1595028285435
Fix,GT,37.4179196,-122.214268,,32.832264,0.1,114.41699,1595028286435
Fix,GT,37.4177926,-122.2139341,,32.622,0.1,116.86789,1595028287435
Fix,GT,37.417656,-122.2136105,,32.207542,0.1,119.27551,1595028288435
Fix,GT,37.4175107,-122.2132985,,31.753307,0.1,121.64685,1595028289435
Fix,GT,37.4173576,-122.2129972,,31.53609,0.1,123.5679,1595028290435
Fix,GT,37.4171971,-122.2127018,,31.770737,0.1,125.179504,1595028291435
Fix,GT,37.4170279,-122.2124094,,32.218914,0.1,127.17935,1595028292435
Fix,GT,37.4168468,-122.2121223,,32.611267,0.1,129.95966,1595028293435
Fix,GT,37.4166517,-122.2118444,,32.952225,0.1,133.19476,1595028294435
Fix,GT,37.4164423,-122.2115778,,33.307167,0.1,136.39862,1595028295435
Fix,GT,37.416219,-122.2113233,,33.661427,0.1,139.48224,1595028296435
Fix,GT,37.4159848,-122.2110788,,33.98679,0.1,141.07697,1595028297435
Fix,GT,37.4157461,-122.2108354,,34.331627,0.1,140.84998,1595028298435
Fix,GT,37.4155056,-122.2105879,,34.71881,0.1,140.61954,1595028299435
Fix,GT,37.4152626,-122.2103376,,35.077873,0.1,140.8273,1595028300435
Fix,GT,37.4150168,-122.210086,,35.35811,0.1,140.84076,1595028301435
Fix,GT,37.4147712,-122.20983,,35.543514,0.1,139.71503,1595028302435
Fix,GT,37.4145299,-122.2095646,,35.745308,0.1,137.7984,1595028303435
Fix,GT,37.4142957,-122.209286,,35.970856,0.1,135.35345,1595028304435
Fix,GT,37.4140704,-122.2089926,,36.202675,0.1,132.47461,1595028305435
Fix,GT,37.4138555,-122.2086836,,36.411064,0.1,129.6991,1595028306435
Fix,GT,37.4136516,-122.2083603,,36.611343,0.1,127.01654,1595028307435
Fix,GT,37.4134589,-122.2080238,,36.811474,0.1,124.26111,1595028308435
Fix,GT,37.4132783,-122.207674,,37.008804,0.1,121.447876,1595028309435
Fix,GT,37.4131108,-122.2073119,,37.123978,0.1,118.65726,1595028310435
Fix,GT,37.4129575,-122.2069399,,37.055695,0.1,116.0318,1595028311435
Fix,GT,37.4128184,-122.2065605,,36.933647,0.1,113.55011,1595028312435
Fix,GT,37.4126908,-122.2061753,,36.945305,0.1,111.91327,1595028313435
Fix,GT,37.4125676,-122.2057871,,37.044857,0.1,111.877655,1595028314435
Fix,GT,37.4124413,-122.2053992,,37.15915,0.1,112.73508,1595028315435
Fix,GT,37.412311,-122.2050115,,37.308384,0.1,113.07196,1595028316435
Fix,GT,37.4121797,-122.2046227,,37.45201,0.1,112.97882,1595028317435
Fix,GT,37.4120491,-122.2042319,,37.55659,0.1,112.62549,1595028318435
Fix,GT,37.4119201,-122.2038394,,37.60187,0.1,112.32623,1595028319435
Fix,GT,37.4117926,-122.203446,,37.597076,0.1,112.179016,1595028320435
Fix,GT,37.4116654,-122.2030525,,37.59783,0.1,112.161224,1595028321435
Fix,GT,37.4115384,-122.2026591,,37.543053,0.1,112.14697,1595028322435
Fix,GT,37.4114118,-122.2022668,,37.376587,0.1,112.13245,1595028323435
Fix,GT,37.4112859,-122.2018764,,37.153336,0.1,112.052246,1595028324435
Fix,GT,37.4111616,-122.2014884,,36.88177,0.1,111.93909,1595028325435
Fix,GT,37.4110385,-122.2011034,,36.574257,0.1,111.94501,1595028326435
Fix,GT,37.4109164,-122.2007211,,36.341072,0.1,111.87961,1595028327435
Fix,GT,37.4107953,-122.2003407,,36.20215,0.1,111.84668,1595028328435
Fix,GT,37.4106746,-122.1999616,,36.068993,0.1,111.84384,1595028329435
Fix,GT,37.4105544,-122.1995838,,35.938164,0.1,111.80426,1595028330435
Fix,GT,37.410435,-122.1992073,,35.815735,0.1,111.7677,1595028331435
Fix,GT,37.4103159,-122.1988318,,35.73446,0.1,111.75043,1595028332435
Fix,GT,37.4101972,-122.198457,,35.659435,0.1,111.682495,1595028333435
Fix,GT,37.4100794,-122.1980831,,35.509853,0.1,111.65805,1595028334435
Fix,GT,37.4099621,-122.1977113,,35.284386,0.1,111.67734,1595028335435
Fix,GT,37.4098456,-122.197342,,35.031322,0.1,111.716156,1595028336435
Fix,GT,37.4097293,-122.1969759,,34.75796,0.1,111.960175,1595028337435
Fix,GT,37.409613,-122.1966129,,34.49685,0.1,111.98642,1595028338435
Fix,GT,37.4094982,-122.1962522,,34.28434,0.1,111.7587,1595028339435
Fix,GT,37.4093848,-122.1958928,,34.145657,0.1,111.66852,1595028340435
Fix,GT,37.4092719,-122.1955347,,34.050125,0.1,111.75867,1595028341435
Fix,GT,37.4091584,-122.1951779,,33.966866,0.1,111.95447,1595028342435
Fix,GT,37.4090439,-122.1948224,,33.953323,0.1,112.2012,1595028343435
Fix,GT,37.4089288,-122.1944664,,34.11724,0.1,112.00687,1595028344435
Fix,GT,37.4088144,-122.1941068,,34.44642,0.1,111.723816,1595028345435
Fix,GT,37.4086994,-122.1937433,,34.774612,0.1,111.80899,1595028346435
Fix,GT,37.4085822,-122.1933773,,35.06092,0.1,112.14703,1595028347435
Fix,GT,37.4084623,-122.1930093,,35.315487,0.1,112.6373,1595028348435
Fix,GT,37.4083378,-122.1926412,,35.439243,0.1,113.69357,1595028349435
Fix,GT,37.4082061,-122.1922766,,35.44442,0.1,115.37738,1595028350435
Fix,GT,37.4080661,-122.1919167,,35.457447,0.1,117.06525,1595028351435
Fix,GT,37.4079166,-122.1915628,,35.464767,0.1,119.25336,1595028352435
Fix,GT,37.4077555,-122.1912168,,35.45297,0.1,121.789154,1595028353435
Fix,GT,37.4075831,-122.1908797,,35.4593,0.1,123.98349,1595028354435
Fix,GT,37.4074006,-122.190551,,35.441345,0.1,126.15979,1595028355435
Fix,GT,37.4072083,-122.1902321,,35.33455,0.1,128.53229,1595028356435
Fix,GT,37.407006,-122.1899248,,35.199875,0.1,130.94983,1595028357435
Fix,GT,37.4067947,-122.1896292,,35.085754,0.1,133.24725,1595028358435
Fix,GT,37.4065752,-122.1893451,,34.96318,0.1,135.41946,1595028359435
Fix,GT,37.406348,-122.1890723,,34.831394,0.1,137.45569,1595028360435
Fix,GT,37.4061142,-122.188811,,34.71099,0.1,139.66022,1595028361435
Fix,GT,37.4058734,-122.1885617,,34.62358,0.1,141.76715,1595028362435
Fix,GT,37.4056269,-122.1883225,,34.55871,0.1,143.09631,1595028363435
Fix,GT,37.4053776,-122.1880893,,34.515915,0.1,143.77649,1595028364435
Fix,GT,37.4051272,-122.1878585,,34.476616,0.1,143.84378,1595028365435
Fix,GT,37.4048771,-122.1876278,,34.454464,0.1,143.70648,1595028366435
Fix,GT,37.4046272,-122.1873967,,34.48764,0.1,143.68747,1595028367435
Fix,GT,37.4043769,-122.1871651,,34.567524,0.1,143.70139,1595028368435
Fix,GT,37.4041261,-122.1869326,,34.670998,0.1,143.544,1595028369435
Fix,GT,37.4038754,-122.1866984,,34.732063,0.1,143.30548,1595028370435
Fix,GT,37.4036251,-122.1864627,,34.744186,0.1,143.11316,1595028371435
Fix,GT,37.4033756,-122.1862256,,34.76205,0.1,142.83514,1595028372435
Fix,GT,37.4031269,-122.1859864,,34.83633,0.1,142.38666,1595028373435
Fix,GT,37.4028791,-122.1857439,,34.94561,0.1,141.89441,1595028374435
Fix,GT,37.4026322,-122.1854986,,34.974014,0.1,141.5296,1595028375435
Fix,GT,37.4023862,-122.1852516,,34.992477,0.1,141.3851,1595028376435
Fix,GT,37.4021402,-122.1850042,,34.997646,0.1,141.37738,1595028377435
Fix,GT,37.4018946,-122.1847579,,34.804916,0.1,141.44974,1595028378435
Fix,GT,37.4016508,-122.1845135,,34.466038,0.1,141.38617,1595028379435
Fix,GT,37.4014099,-122.1842706,,34.170654,0.1,141.15894,1595028380435
Fix,GT,37.4011715,-122.1840287,,33.903534,0.1,141.06155,1595028381435
Fix,GT,37.4009352,-122.1837887,,33.60172,0.1,141.1543,1595028382435
Fix,GT,37.4007009,-122.1835513,,33.269203,0.1,141.13226,1595028383435
Fix,GT,37.4004692,-122.183316,,32.931908,0.1,141.00082,1595028384435
Fix,GT,37.4002404,-122.1830821,,32.633102,0.1,140.83008,1595028385435
Fix,GT,37.4000135,-122.1828497,,32.370056,0.1,140.86868,1595028386435
Fix,GT,37.3997886,-122.1826199,,32.014187,0.1,141.06183,1595028387435
Fix,GT,37.3995662,-122.1823943,,31.472088,0.1,141.1861,1595028388435
Fix,GT,37.3993477,-122.182173,,30.870512,0.1,141.13611,1595028389435
Fix,GT,37.3991336,-122.1819556,,30.289078,0.1,141.06589,1595028390435
Fix,GT,37.3989237,-122.1817422,,29.71727,0.1,141.0581,1595028391435
Fix,GT,37.3987177,-122.1815327,,29.159798,0.1,141.09302,1595028392435
Fix,GT,37.3985153,-122.1813277,,28.62481,0.1,141.20816,1595028393435
Fix,GT,37.3983161,-122.1811262,,28.209396,0.1,141.17548,1595028394435
Fix,GT,37.3981192,-122.1809263,,28.060076,0.1,140.98404,1595028395435
Fix,GT,37.3979232,-122.1807258,,28.141174,0.1,140.81372,1595028396435
Fix,GT,37.3977262,-122.1805239,,28.351662,0.1,140.87836,1595028397435
Fix,GT,37.3975272,-122.1803209,,28.594154,0.1,141.06702,1595028398435
Fix,GT,37.3973262,-122.1801172,,28.765503,0.1,141.22363,1595028399435
Fix,GT,37.3971239,-122.1799133,,28.839314,0.1,141.36597,1595028400435
Fix,GT,37.3969211,-122.1797089,,28.964,0.1,141.20258,1595028401435
Fix,GT,37.3967178,-122.1795019,,29.206715,0.1,140.85144,1595028402435
Fix,GT,37.3965128,-122.1792922,,29.504238,0.1,140.89822,1595028403435
Fix,GT,37.3963056,-122.1790807,,29.82158,0.1,140.91455,1595028404435
Fix,GT,37.3960966,-122.1788668,,30.039845,0.1,140.87234,1595028405435
Fix,GT,37.3958866,-122.1786523,,30.097607,0.1,141.06647,1595028406435
Fix,GT,37.3956758,-122.178439,,30.00409,0.1,141.3414,1595028407435
Fix,GT,37.3954656,-122.1782279,,29.786295,0.1,141.44342,1595028408435
Fix,GT,37.395257,-122.178018,,29.599834,0.1,141.26291,1595028409435
Fix,GT,37.3950501,-122.1778086,,29.429955,0.1,141.09726,1595028410435
Fix,GT,37.394845,-122.1775998,,29.215527,0.1,140.91623,1595028411435
Fix,GT,37.3946425,-122.1773912,,29.00959,0.1,140.4939,1595028412435
Fix,GT,37.3944432,-122.1771801,,28.928165,0.1,139.2373,1595028413435
Fix,GT,37.3942489,-122.1769623,,28.980095,0.1,137.17255,1595028414435
Fix,GT,37.3940613,-122.1767343,,29.10104,0.1,134.72784,1595028415435
Fix,GT,37.3938806,-122.1764951,,29.281534,0.1,132.30005,1595028416435
Fix,GT,37.3937067,-122.1762451,,29.523968,0.1,130.0802,1595028417435
Fix,GT,37.3935389,-122.1759847,,29.791752,0.1,127.97159,1595028418435
Fix,GT,37.393377,-122.1757149,,30.011848,0.1,126.066956,1595028419435
Fix,GT,37.3932217,-122.1754366,,30.12583,0.1,124.06183,1595028420435
Fix,GT,37.3930746,-122.1751509,,30.13211,0.1,121.70676,1595028421435
Fix,GT,37.3929373,-122.1748577,,30.140821,0.1,119.24158,1595028422435
Fix,GT,37.3928097,-122.1745571,,30.183647,0.1,116.92395,1595028423435
Fix,GT,37.3926914,-122.1742502,,30.194698,0.1,114.73706,1595028424435
Fix,GT,37.3925829,-122.173938,,30.166538,0.1,112.52814,1595028425435
Fix,GT,37.3924842,-122.1736211,,30.123255,0.1,110.2074,1595028426435
Fix,GT,37.3923961,-122.1732998,,30.081112,0.1,107.76376,1595028427435
Fix,GT,37.3923193,-122.1729745,,30.041332,0.1,105.36981,1595028428435
Fix,GT,37.3922531,-122.1726463,,29.956867,0.1,103.18579,1595028429435
Fix,GT,37.3921968,-122.1723164,,29.802927,0.1,101.127014,1595028430435
Fix,GT,37.3921502,-122.1719862,,29.595676,0.1,99.082306,1595028431435
Fix,GT,37.3921134,-122.1716566,,29.383709,0.1,97.06207,1595028432435
Fix,GT,37.3920845,-122.1713274,,29.322475,0.1,95.8197,1595028433435
Fix,GT,37.3920596,-122.1709973,,29.401447,0.1,95.153595,1595028434435
Fix,GT,37.3920368,-122.170666,,29.481977,0.1,94.73871,1595028435435
Fix,GT,37.392016,-122.1703339,,29.48883,0.1,94.41791,1595028436435
Fix,GT,37.3919967,-122.1700022,,29.414383,0.1,94.16919,1595028437435
Fix,GT,37.3919773,-122.1696714,,29.338295,0.1,94.48514,1595028438435
Fix,GT,37.3919557,-122.1693412,,29.34391,0.1,95.16055,1595028439435
Fix,GT,37.3919289,-122.1690112,,29.388477,0.1,96.82761,1595028440435
Fix,GT,37.3918919,-122.1686824,,29.404732,0.1,99.65222,1595028441435
Fix,GT,37.3918412,-122.1683564,,29.414665,0.1,102.688965,1595028442435
Fix,GT,37.391777,-122.168034,,29.428352,0.1,105.64435,1595028443435
Fix,GT,37.3917,-122.167716,,29.419525,0.1,108.39511,1595028444435
Fix,GT,37.3916114,-122.1674032,,29.368107,0.1,110.95996,1595028445435
Fix,GT,37.3915114,-122.1670967,,29.265774,0.1,113.85773,1595028446435
Fix,GT,37.3913994,-122.1667984,,29.117218,0.1,116.88385,1595028447435
Fix,GT,37.3912761,-122.1665095,,28.90913,0.1,119.65146,1595028448435
Fix,GT,37.3911431,-122.1662304,,28.649315,0.1,122.39523,1595028449435
Fix,GT,37.3910013,-122.1659616,,28.430065,0.1,124.83899,1595028450435
Fix,GT,37.3908525,-122.1657012,,28.324081,0.1,126.47296,1595028451435
Fix,GT,37.3906998,-122.1654449,,28.324478,0.1,127.30951,1595028452435
Fix,GT,37.3905446,-122.1651905,,28.390137,0.1,127.707794,1595028453435
Fix,GT,37.3903881,-122.1649366,,28.423176,0.1,127.90411,1595028454435
Fix,GT,37.3902322,-122.1646827,,28.281166,0.1,127.46518,1595028455435
Fix,GT,37.3900803,-122.1644286,,27.943382,0.1,126.51413,1595028456435
Fix,GT,37.3899341,-122.1641743,,27.564373,0.1,125.2475,1595028457435
Fix,GT,37.3897951,-122.1639185,,27.309704,0.1,123.58118,1595028458435
Fix,GT,37.3896636,-122.1636594,,27.10551,0.1,121.607544,1595028459435
Fix,GT,37.3895402,-122.1633965,,26.910416,0.1,119.54419,1595028460435
Fix,GT,37.3894257,-122.1631303,,26.69434,0.1,117.35065,1595028461435
Fix,GT,37.3893205,-122.1628609,,26.452911,0.1,115.13495,1595028462435
Fix,GT,37.3892243,-122.162589,,26.269764,0.1,112.944916,1595028463435
Fix,GT,37.3891365,-122.1623143,,26.192574,0.1,111.00003,1595028464435
Fix,GT,37.3890558,-122.1620367,,26.199345,0.1,109.28235,1595028465435
Fix,GT,37.3889822,-122.1617554,,26.261509,0.1,107.33353,1595028466435
Fix,GT,37.3889161,-122.1614703,,26.382545,0.1,105.31442,1595028467435
Fix,GT,37.3888576,-122.1611807,,26.57713,0.1,103.382355,1595028468435
Fix,GT,37.3888059,-122.1608865,,26.827581,0.1,101.74286,1595028469435
Fix,GT,37.3887595,-122.1605877,,27.10993,0.1,100.50186,1595028470435
Fix,GT,37.3887164,-122.1602846,,27.428764,0.1,99.86688,1595028471435
Fix,GT,37.3886746,-122.1599776,,27.738163,0.1,99.80182,1595028472435
Fix,GT,37.3886317,-122.1596674,,28.013687,0.1,100.203766,1595028473435
Fix,GT,37.3885861,-122.1593548,,28.273603,0.1,100.6994,1595028474435
Fix,GT,37.3885392,-122.1590395,,28.536503,0.1,100.60919,1595028475435
