MessageType,Provider,LatitudeDegrees,LongitudeDegrees,AltitudeMeters,SpeedMps,AccuracyMeters,BearingDegrees,UnixTimeMillis
Fix,GT,37.5865932,-122.3258627,,0.56009495,0.1,278.4536,1593048149432
Fix,GT,37.5865936,-122.3258707,,0.923947,0.1,277.8351,1593048150432
Fix,GT,37.5865936,-122.3258865,,1.9621665,0.1,274.9633,1593048151432
Fix,GT,37.5865905,-122.3259167,,3.4663415,0.1,266.5751,1593048152432
Fix,GT,37.5865773,-122.3259611,,5.071207,0.1,251.38719,1593048153432
Fix,GT,37.5865455,-122.3260144,,7.0135226,0.1,232.82901,1593048154432
Fix,GT,37.5864912,-122.3260728,,9.011864,0.1,219.8193,1593048155432
Fix,GT,37.5864185,-122.326139,,10.872862,0.1,216.81679,1593048156432
Fix,GT,37.5863363,-122.3262227,,12.58612,0.1,220.65585,1593048157432
Fix,GT,37.58625,-122.3263257,,13.81211,0.1,225.29114,1593048158432
Fix,GT,37.5861608,-122.3264428,,14.799744,0.1,227.0331,1593048159432
Fix,GT,37.5860666,-122.3265685,,15.63719,0.1,226.8611,1593048160432
Fix,GT,37.5859691,-122.3266982,,15.785568,0.1,226.93864,1593048161432
Fix,GT,37.585874,-122.3268269,,15.181025,0.1,227.67209,1593048162432
Fix,GT,37.585785,-122.3269504,,14.211203,0.1,228.23143,1593048163432
Fix,GT,37.5857043,-122.3270642,,12.615366,0.1,228.66803,1593048164432
Fix,GT,37.5856361,-122.3271623,,10.261955,0.1,229.43874,1593048165432
Fix,GT,37.5855839,-122.3272398,,7.705458,0.1,230.32425,1593048166432
Fix,GT,37.5855464,-122.3272975,,5.60622,0.1,231.34274,1593048167432
Fix,GT,37.5855204,-122.3273398,,3.8476024,0.1,232.64505,1593048168432
Fix,GT,37.5855051,-122.3273661,,1.9289713,0.1,233.64578,1593048169432
Fix,GT,37.5854987,-122.3273773,,0.6238699,0.1,233.98418,1593048170432
Fix,GT,37.5854969,-122.3273806,,0.20648795,0.1,234.00778,1593048171432
Fix,GT,37.5854958,-122.3273826,,0.28833064,0.1,234.01543,1593048172432
Fix,GT,37.585494,-122.3273857,,0.35431615,0.1,234.02316,1593048173432
Fix,GT,37.5854926,-122.3273881,,0.13684554,0.1,234.026,1593048174432
Fix,GT,37.5854924,-122.3273885,,0.0047718724,0.1,234.02692,1593048175432
Fix,GT,37.5854925,-122.3273885,,0.0022264733,0.1,234.0275,1593048176432
Fix,GT,37.5854926,-122.3273886,,0.0015349535,0.1,234.02872,1593048177432
Fix,GT,37.5854926,-122.3273886,,0.002236068,0.1,234.02863,1593048178432
Fix,GT,37.5854926,-122.3273886,,0.002133901,0.1,234.02852,1593048179432
Fix,GT,37.5854926,-122.3273886,,0.0017464797,0.1,234.02853,1593048180432
Fix,GT,37.5854926,-122.3273886,,0.0014142136,0.1,234.02853,1593048181432
Fix,GT,37.5854926,-122.3273886,,0.0014142136,0.1,234.02846,1593048182432
Fix,GT,37.5854926,-122.3273886,,0.0014142136,0.1,234.02838,1593048183432
Fix,GT,37.5854926,-122.3273886,,0.0012349476,0.1,234.02835,1593048184432
Fix,GT,37.5854926,-122.3273886,,0.001179266,0.1,234.02826,1593048185432
Fix,GT,37.5854926,-122.3273886,,0.0012349476,0.1,234.02814,1593048186432
Fix,GT,37.5854926,-122.3273886,,0.001179266,0.1,234.028,1593048187432
Fix,GT,37.5854926,-122.3273886,,0.00080216123,0.1,234.0278,1593048188432
Fix,GT,37.5854926,-122.3273886,,0.0006120523,0.1,234.02762,1593048189432
Fix,GT,37.5854926,-122.3273886,,0.0014142136,0.1,234.02759,1593048190432
Fix,GT,37.5854926,-122.3273886,,0.0014142136,0.1,234.02763,1593048191432
Fix,GT,37.5854926,-122.3273886,,0.0014142136,0.1,234.0275,1593048192432
Fix,GT,37.5854926,-122.3273886,,0.0012349476,0.1,234.02747,1593048193432
Fix,GT,37.5854926,-122.3273886,,0.0005672137,0.1,234.02744,1593048194432
Fix,GT,37.5854926,-122.3273886,,0.0006120523,0.1,234.02724,1593048195432
Fix,GT,37.5854926,-122.3273886,,0.0012349476,0.1,234.02716,1593048196432
Fix,GT,37.5854926,-122.3273886,,0.0005672137,0.1,234.02725,1593048197432
Fix,GT,37.5854926,-122.3273886,,0.0,0.1,234.02722,1593048198432
Fix,GT,37.5854926,-122.3273886,,0.0006120523,0.1,234.02716,1593048199432
Fix,GT,37.5854926,-122.3273886,,0.0014142136,0.1,234.02692,1593048200432
Fix,GT,37.5854926,-122.3273886,,0.0012349476,0.1,234.0267,1593048201432
Fix,GT,37.5854926,-122.3273886,,0.001,0.1,234.0268,1593048202432
Fix,GT,37.5854926,-122.3273886,,0.0005672137,0.1,234.02676,1593048203432
Fix,GT,37.5854926,-122.3273886,,0.044231102,0.1,234.02917,1593048204432
Fix,GT,37.5854918,-122.32739,,0.25006148,0.1,234.03583,1593048205432
Fix,GT,37.5854902,-122.3273927,,0.2695226,0.1,234.04205,1593048206432
Fix,GT,37.5854893,-122.3273942,,0.05030051,0.1,234.04547,1593048207432
Fix,GT,37.5854892,-122.3273945,,0.03602091,0.1,234.04599,1593048208432
Fix,GT,37.5854891,-122.3273946,,0.0017699008,0.1,234.04535,1593048209432
Fix,GT,37.5854891,-122.3273946,,0.0012683283,0.1,234.04564,1593048210432
Fix,GT,37.5854891,-122.3273946,,0.0,0.1,234.04572,1593048211432
Fix,GT,37.5854891,-122.3273946,,0.0,0.1,234.04558,1593048212432
Fix,GT,37.5854891,-122.3273946,,0.0,0.1,234.04558,1593048213432
Fix,GT,37.5854891,-122.3273946,,0.0,0.1,234.0457,1593048214432
Fix,GT,37.5854891,-122.3273946,,0.0,0.1,234.0456,1593048215432
Fix,GT,37.5854891,-122.3273946,,0.0,0.1,234.04556,1593048216432
Fix,GT,37.5854891,-122.3273946,,0.0,0.1,234.04532,1593048217432
Fix,GT,37.5854891,-122.3273946,,0.0,0.1,234.0451,1593048218432
Fix,GT,37.5854891,-122.3273946,,0.0006120523,0.1,234.04523,1593048219432
Fix,GT,37.5854891,-122.3273946,,0.0012349476,0.1,234.04547,1593048220432
Fix,GT,37.5854891,-122.3273946,,0.001,0.1,234.04556,1593048221432
Fix,GT,37.5854891,-122.3273946,,0.0005672137,0.1,234.04529,1593048222432
Fix,GT,37.5854891,-122.3273946,,0.0,0.1,234.04501,1593048223432
Fix,GT,37.5854891,-122.3273946,,0.00043278636,0.1,234.04482,1593048224432
Fix,GT,37.5854891,-122.3273946,,0.001,0.1,234.04475,1593048225432
Fix,GT,37.5854891,-122.3273946,,0.001,0.1,234.04471,1593048226432
Fix,GT,37.5854891,-122.3273946,,0.001,0.1,234.04475,1593048227432
Fix,GT,37.5854891,-122.3273946,,0.001,0.1,234.04486,1593048228432
Fix,GT,37.5854891,-122.3273946,,0.0014327865,0.1,234.04477,1593048229432
Fix,GT,37.5854891,-122.3273946,,0.0015672138,0.1,234.04443,1593048230432
Fix,GT,37.5854891,-122.3273946,,0.001179266,0.1,234.04425,1593048231432
Fix,GT,37.5854891,-122.3273946,,0.0012349476,0.1,234.04425,1593048232432
Fix,GT,37.5854891,-122.3273946,,0.0015349535,0.1,234.04422,1593048233432
Fix,GT,37.5854891,-122.3273946,,0.0018803807,0.1,234.04387,1593048234432
Fix,GT,37.5854891,-122.3273946,,0.001769901,0.1,234.04361,1593048235432
Fix,GT,37.5854892,-122.3273946,,0.0025666873,0.1,234.0437,1593048236432
Fix,GT,37.5854892,-122.3273946,,0.0034327866,0.1,234.04398,1593048237432
Fix,GT,37.5854888,-122.3273952,,0.22801082,0.1,234.04715,1593048238432
Fix,GT,37.5854854,-122.3274011,,1.2535883,0.1,234.0679,1593048239432
Fix,GT,37.585474,-122.3274213,,3.2541745,0.1,234.8436,1593048240432
Fix,GT,37.5854527,-122.3274631,,5.5435762,0.1,237.30374,1593048241432
Fix,GT,37.5854221,-122.3275279,,7.7058687,0.1,239.53642,1593048242432
Fix,GT,37.5853824,-122.3276129,,9.639032,0.1,239.61517,1593048243432
Fix,GT,37.585333,-122.3277115,,10.889061,0.1,236.9931,1593048244432
Fix,GT,37.5852725,-122.3278134,,11.598889,0.1,231.60394,1593048245432
Fix,GT,37.5852015,-122.3279111,,11.738203,0.1,225.9687,1593048246432
Fix,GT,37.5851256,-122.3279992,,11.182122,0.1,221.30937,1593048247432
Fix,GT,37.5850498,-122.3280753,,10.311512,0.1,217.47777,1593048248432
Fix,GT,37.5849783,-122.3281377,,8.98209,0.1,213.85457,1593048249432
Fix,GT,37.5849149,-122.3281868,,7.5742326,0.1,211.22386,1593048250432
Fix,GT,37.5848606,-122.3282252,,6.2036433,0.1,209.15634,1593048251432
Fix,GT,37.5848183,-122.3282532,,4.3619413,0.1,207.99632,1593048252432
Fix,GT,37.5847909,-122.328271,,2.5251682,0.1,207.92114,1593048253432
Fix,GT,37.5847773,-122.3282798,,0.9767567,0.1,207.84259,1593048254432
Fix,GT,37.5847735,-122.3282821,,0.09629539,0.1,207.72923,1593048255432
Fix,GT,37.5847734,-122.3282821,,0.00874304,0.1,207.7285,1593048256432
Fix,GT,37.5847734,-122.3282821,,0.0056411414,0.1,207.72964,1593048257432
Fix,GT,37.5847734,-122.328282,,0.003775074,0.1,207.72932,1593048258432
Fix,GT,37.5847734,-122.328282,,0.0024057392,0.1,207.72859,1593048259432
Fix,GT,37.5847734,-122.328282,,0.0012349475,0.1,207.72879,1593048260432
Fix,GT,37.5847734,-122.328282,,0.001,0.1,207.72864,1593048261432
Fix,GT,37.5847734,-122.328282,,0.001,0.1,207.7283,1593048262432
Fix,GT,37.5847734,-122.328282,,0.001,0.1,207.728,1593048263432
Fix,GT,37.5847734,-122.328282,,0.0014327865,0.1,207.7281,1593048264432
Fix,GT,37.5847734,-122.328282,,0.024173955,0.1,207.72739,1593048265432
Fix,GT,37.5847725,-122.3282826,,0.19340737,0.1,207.65977,1593048266432
Fix,GT,37.5847703,-122.3282839,,0.32520074,0.1,207.47208,1593048267432
Fix,GT,37.5847681,-122.3282852,,0.20121932,0.1,207.28906,1593048268432
Fix,GT,37.5847668,-122.3282861,,0.14804006,0.1,207.18097,1593048269432
Fix,GT,37.5847656,-122.3282867,,0.14887346,0.1,207.09099,1593048270432
Fix,GT,37.5847647,-122.3282873,,0.07147423,0.1,207.02542,1593048271432
Fix,GT,37.5847644,-122.3282875,,0.008333157,0.1,207.00217,1593048272432
Fix,GT,37.5847644,-122.3282875,,0.0021276472,0.1,207.00197,1593048273432
Fix,GT,37.5847644,-122.3282875,,0.0039805975,0.1,207.00186,1593048274432
Fix,GT,37.5847643,-122.3282875,,0.004984866,0.1,207.00185,1593048275432
Fix,GT,37.5847643,-122.3282876,,0.020280411,0.1,207.00127,1593048276432
Fix,GT,37.5847624,-122.3282887,,0.50336546,0.1,206.81293,1593048277432
Fix,GT,37.5847525,-122.3282947,,2.0232244,0.1,206.39716,1593048278432
Fix,GT,37.584727,-122.3283103,,4.347735,0.1,206.12856,1593048279432
Fix,GT,37.5846821,-122.3283381,,6.797347,0.1,206.4938,1593048280432
Fix,GT,37.5846199,-122.3283807,,8.942511,0.1,209.32199,1593048281432
Fix,GT,37.5845453,-122.3284422,,10.724513,0.1,214.99231,1593048282432
Fix,GT,37.5844656,-122.3285237,,12.094343,0.1,221.09644,1593048283432
Fix,GT,37.5843834,-122.3286247,,13.462845,0.1,225.77454,1593048284432
Fix,GT,37.5842966,-122.3287422,,14.804491,0.1,227.73067,1593048285432
Fix,GT,37.5842046,-122.3288707,,15.612907,0.1,228.1663,1593048286432
Fix,GT,37.5841096,-122.3290043,,15.935682,0.1,228.42703,1593048287432
Fix,GT,37.5840139,-122.3291398,,16.048792,0.1,228.62578,1593048288432
Fix,GT,37.5839183,-122.3292763,,16.015661,0.1,228.9108,1593048289432
Fix,GT,37.5838241,-122.3294131,,15.936935,0.1,229.51263,1593048290432
Fix,GT,37.5837314,-122.3295505,,15.922952,0.1,230.06995,1593048291432
Fix,GT,37.5836391,-122.3296885,,15.910904,0.1,230.13129,1593048292432
Fix,GT,37.5835469,-122.3298269,,15.92635,0.1,230.36276,1593048293432
Fix,GT,37.5834564,-122.3299666,,15.823773,0.1,231.60245,1593048294432
Fix,GT,37.5833708,-122.3301074,,15.3584,0.1,233.8157,1593048295432
Fix,GT,37.5832938,-122.330246,,14.423389,0.1,236.1944,1593048296432
Fix,GT,37.5832261,-122.3303759,,12.935987,0.1,237.35858,1593048297432
Fix,GT,37.5831678,-122.3304909,,11.167747,0.1,237.8792,1593048298432
Fix,GT,37.5831181,-122.3305895,,9.479628,0.1,237.5799,1593048299432
Fix,GT,37.5830738,-122.3306691,,7.750412,0.1,233.182,1593048300432
Fix,GT,37.5830292,-122.3307248,,6.5794954,0.1,221.4326,1593048301432
Fix,GT,37.5829795,-122.3307567,,6.1343307,0.1,203.8528,1593048302432
Fix,GT,37.5829288,-122.3307646,,5.376481,0.1,184.36865,1593048303432
Fix,GT,37.582886,-122.3307521,,4.499645,0.1,165.25928,1593048304432
Fix,GT,37.5828533,-122.3307268,,4.302264,0.1,150.00116,1593048305432
Fix,GT,37.5828218,-122.3306945,,4.9688444,0.1,142.49097,1593048306432
Fix,GT,37.5827831,-122.3306529,,6.4207225,0.1,140.3779,1593048307432
Fix,GT,37.5827348,-122.3305992,,7.8645945,0.1,139.10846,1593048308432
Fix,GT,37.5826781,-122.3305349,,9.030407,0.1,138.36655,1593048309432
Fix,GT,37.5826156,-122.3304632,,9.618686,0.1,137.96732,1593048310432
Fix,GT,37.5825514,-122.33039,,9.618818,0.1,138.38385,1593048311432
Fix,GT,37.5824855,-122.3303177,,9.889118,0.1,139.69391,1593048312432
Fix,GT,37.582415,-122.3302439,,10.525736,0.1,140.51776,1593048313432
Fix,GT,37.5823398,-122.330165,,11.164905,0.1,140.22876,1593048314432
Fix,GT,37.5822617,-122.3300815,,11.536136,0.1,139.54779,1593048315432
Fix,GT,37.5821833,-122.3299956,,11.484318,0.1,138.95706,1593048316432
Fix,GT,37.5821063,-122.3299102,,11.310757,0.1,138.81436,1593048317432
Fix,GT,37.5820309,-122.3298275,,10.761391,0.1,139.32709,1593048318432
Fix,GT,37.5819619,-122.329753,,9.176902,0.1,139.65009,1593048319432
Fix,GT,37.5819067,-122.3296936,,6.984992,0.1,139.56677,1593048320432
Fix,GT,37.5818646,-122.3296481,,5.561385,0.1,139.52213,1593048321432
Fix,GT,37.5818284,-122.3296086,,5.190749,0.1,139.30902,1593048322432
Fix,GT,37.5817931,-122.3295698,,5.223941,0.1,139.0086,1593048323432
Fix,GT,37.5817574,-122.3295303,,5.29432,0.1,138.84406,1593048324432
Fix,GT,37.5817209,-122.3294902,,5.5487766,0.1,139.11621,1593048325432
Fix,GT,37.58168,-122.3294461,,6.567645,0.1,139.565,1593048326432
Fix,GT,37.5816307,-122.3293931,,7.775373,0.1,139.77814,1593048327432
Fix,GT,37.5815744,-122.3293331,,8.507044,0.1,139.9353,1593048328432
Fix,GT,37.5815149,-122.3292698,,8.745365,0.1,139.78162,1593048329432
Fix,GT,37.5814556,-122.3292052,,8.687692,0.1,139.09534,1593048330432
Fix,GT,37.5813966,-122.3291398,,8.857351,0.1,138.6712,1593048331432
Fix,GT,37.5813349,-122.3290711,,9.499456,0.1,138.76056,1593048332432
Fix,GT,37.5812683,-122.3289975,,10.201996,0.1,138.91211,1593048333432
Fix,GT,37.5811969,-122.328919,,10.902965,0.1,139.06989,1593048334432
Fix,GT,37.5811201,-122.3288354,,11.62271,0.1,139.37079,1593048335432
Fix,GT,37.5810388,-122.3287478,,12.084554,0.1,139.51886,1593048336432
Fix,GT,37.5809555,-122.3286574,,12.334133,0.1,139.41876,1593048337432
Fix,GT,37.5808709,-122.3285654,,12.503992,0.1,139.21347,1593048338432
Fix,GT,37.5807855,-122.3284718,,12.626188,0.1,139.1586,1593048339432
Fix,GT,37.5806995,-122.3283778,,12.681682,0.1,139.19409,1593048340432
Fix,GT,37.5806135,-122.3282839,,12.587578,0.1,139.23999,1593048341432
Fix,GT,37.5805287,-122.3281913,,12.3310585,0.1,139.20547,1593048342432
Fix,GT,37.5804458,-122.3281009,,12.022572,0.1,139.22739,1593048343432
Fix,GT,37.5803653,-122.3280132,,11.594482,0.1,139.40594,1593048344432
Fix,GT,37.5802881,-122.3279293,,11.084452,0.1,139.37134,1593048345432
Fix,GT,37.5802142,-122.3278488,,10.701122,0.1,139.26718,1593048346432
Fix,GT,37.5801419,-122.3277701,,10.541227,0.1,139.30698,1593048347432
Fix,GT,37.5800698,-122.3276917,,10.643827,0.1,139.41342,1593048348432
Fix,GT,37.5799959,-122.3276116,,11.081877,0.1,139.41278,1593048349432
Fix,GT,37.579918,-122.3275269,,11.831601,0.1,139.24377,1593048350432
Fix,GT,37.5798351,-122.3274359,,12.595669,0.1,139.04382,1593048351432
Fix,GT,37.5797478,-122.3273398,,13.100638,0.1,138.94238,1593048352432
Fix,GT,37.5796584,-122.3272414,,13.20142,0.1,139.1127,1593048353432
Fix,GT,37.579569,-122.3271442,,13.043217,0.1,139.36353,1593048354432
Fix,GT,37.5794808,-122.3270485,,12.808791,0.1,139.36197,1593048355432
Fix,GT,37.5793948,-122.3269549,,12.391436,0.1,139.24222,1593048356432
Fix,GT,37.5793125,-122.3268651,,11.759441,0.1,139.25507,1593048357432
Fix,GT,37.5792346,-122.3267802,,11.113943,0.1,139.23099,1593048358432
Fix,GT,37.5791619,-122.3267005,,10.170071,0.1,139.02667,1593048359432
Fix,GT,37.5790983,-122.3266307,,8.426751,0.1,138.96573,1593048360432
Fix,GT,37.5790486,-122.3265761,,6.2772856,0.1,139.08105,1593048361432
Fix,GT,37.5790116,-122.3265356,,4.7836294,0.1,139.32837,1593048362432
Fix,GT,37.5789836,-122.3265052,,3.4178004,0.1,139.406,1593048363432
Fix,GT,37.5789663,-122.3264863,,1.6600896,0.1,139.17111,1593048364432
Fix,GT,37.5789596,-122.3264787,,0.44446975,0.1,139.07062,1593048365432
Fix,GT,37.5789582,-122.3264772,,0.016372016,0.1,139.05292,1593048366432
Fix,GT,37.5789582,-122.3264772,,0.002026266,0.1,139.05542,1593048367432
Fix,GT,37.5789583,-122.3264771,,0.0022163745,0.1,139.05426,1593048368432
Fix,GT,37.5789583,-122.3264771,,0.0014142136,0.1,139.05423,1593048369432
Fix,GT,37.5789583,-122.3264771,,0.000802161,0.1,139.05411,1593048370432
Fix,GT,37.5789583,-122.3264771,,0.0,0.1,139.05405,1593048371432
Fix,GT,37.5789583,-122.3264771,,0.00043278653,0.1,139.05408,1593048372432
Fix,GT,37.5789583,-122.3264771,,0.00056721346,0.1,139.05408,1593048373432
Fix,GT,37.5789583,-122.3264771,,0.00043278656,0.1,139.0542,1593048374432
Fix,GT,37.5789583,-122.3264771,,0.001,0.1,139.0542,1593048375432
Fix,GT,37.5789583,-122.3264771,,0.001,0.1,139.05414,1593048376432
Fix,GT,37.5789583,-122.3264771,,0.00056721346,0.1,139.05402,1593048377432
Fix,GT,37.5789583,-122.3264771,,0.00043278656,0.1,139.05399,1593048378432
Fix,GT,37.5789583,-122.3264771,,0.001,0.1,139.05414,1593048379432
Fix,GT,37.5789583,-122.3264771,,0.001,0.1,139.0542,1593048380432
Fix,GT,37.5789583,-122.3264771,,0.00056721346,0.1,139.05417,1593048381432
Fix,GT,37.5789583,-122.3264771,,0.00043278656,0.1,139.05402,1593048382432
Fix,GT,37.5789583,-122.3264771,,0.001,0.1,139.05396,1593048383432
Fix,GT,37.5789583,-122.3264771,,0.001179266,0.1,139.05399,1593048384432
Fix,GT,37.5789583,-122.3264771,,0.0012349475,0.1,139.05408,1593048385432
Fix,GT,37.5789583,-122.3264771,,0.0036880819,0.1,139.05441,1593048386432
Fix,GT,37.5789583,-122.3264771,,0.0045230207,0.1,139.05524,1593048387432
Fix,GT,37.5789583,-122.3264771,,0.0017913189,0.1,139.05548,1593048388432
Fix,GT,37.5789583,-122.3264771,,0.002572062,0.1,139.05505,1593048389432
Fix,GT,37.5789583,-122.3264771,,0.0018803806,0.1,139.0549,1593048390432
Fix,GT,37.5789583,-122.3264771,,0.0017699011,0.1,139.05487,1593048391432
Fix,GT,37.5789583,-122.3264771,,0.002236068,0.1,139.055,1593048392432
Fix,GT,37.5789583,-122.3264771,,0.0017011145,0.1,139.05511,1593048393432
Fix,GT,37.5789583,-122.3264771,,0.0011792661,0.1,139.055,1593048394432
Fix,GT,37.5789583,-122.3264771,,0.0017699011,0.1,139.05463,1593048395432
Fix,GT,37.5789583,-122.3264771,,0.0034322608,0.1,139.05438,1593048396432
Fix,GT,37.5789583,-122.3264771,,0.0062983595,0.1,139.05457,1593048397432
Fix,GT,37.5789583,-122.3264771,,0.009749148,0.1,139.05463,1593048398432
Fix,GT,37.5789583,-122.3264771,,0.013967853,0.1,139.05463,1593048399432
Fix,GT,37.5789584,-122.3264771,,0.018806927,0.1,139.05463,1593048400432
Fix,GT,37.5789585,-122.3264771,,0.024849076,0.1,139.05444,1593048401432
Fix,GT,37.5789586,-122.3264772,,0.05158958,0.1,139.05365,1593048402432
Fix,GT,37.5789574,-122.3264757,,0.44059888,0.1,139.0326,1593048403432
Fix,GT,37.5789509,-122.3264684,,1.623392,0.1,138.9848,1593048404432
Fix,GT,37.5789344,-122.3264501,,3.3101726,0.1,139.0256,1593048405432
Fix,GT,37.5789078,-122.3264196,,4.607608,0.1,137.794,1593048406432
Fix,GT,37.5788796,-122.3263776,,5.1161375,0.1,129.21582,1593048407432
Fix,GT,37.5788628,-122.3263241,,5.230162,0.1,109.48056,1593048408432
Fix,GT,37.5788659,-122.326267,,5.2797766,0.1,84.01495,1593048409432
Fix,GT,37.5788892,-122.3262144,,5.821644,0.1,60.337982,1593048410432
Fix,GT,37.5789283,-122.326164,,6.7131023,0.1,45.89029,1593048411432
Fix,GT,37.5789756,-122.3261124,,7.152687,0.1,41.50583,1593048412432
Fix,GT,37.5790258,-122.3260597,,7.391074,0.1,40.674072,1593048413432
Fix,GT,37.5790779,-122.326005,,7.5875998,0.1,40.717773,1593048414432
Fix,GT,37.5791294,-122.3259489,,7.6124268,0.1,41.743103,1593048415432
Fix,GT,37.5791816,-122.3258891,,8.178616,0.1,43.372406,1593048416432
Fix,GT,37.5792374,-122.3258213,,9.020727,0.1,44.895447,1593048417432
Fix,GT,37.5792966,-122.3257457,,9.609785,0.1,46.15439,1593048418432
Fix,GT,37.5793574,-122.3256656,,9.8378935,0.1,46.757263,1593048419432
Fix,GT,37.5794177,-122.325585,,9.697092,0.1,47.015533,1593048420432
Fix,GT,37.5794771,-122.3255056,,9.551119,0.1,47.048035,1593048421432
Fix,GT,37.5795362,-122.3254273,,9.555064,0.1,46.78354,1593048422432
Fix,GT,37.5795963,-122.3253483,,9.775711,0.1,46.352417,1593048423432
Fix,GT,37.5796573,-122.3252677,,9.737205,0.1,46.651062,1593048424432
Fix,GT,37.5797146,-122.3251905,,8.684932,0.1,47.519073,1593048425432
Fix,GT,37.5797614,-122.3251252,,6.80867,0.1,48.34555,1593048426432
Fix,GT,37.5797951,-122.3250772,,4.552228,0.1,49.031372,1593048427432
Fix,GT,37.5798144,-122.3250494,,1.9305034,0.1,49.183197,1593048428432
Fix,GT,37.5798205,-122.3250406,,0.4235896,0.1,49.214935,1593048429432
Fix,GT,37.5798226,-122.3250375,,0.6852766,0.1,49.243256,1593048430432
Fix,GT,37.5798295,-122.3250271,,1.7526491,0.1,49.644623,1593048431432
Fix,GT,37.5798422,-122.3250069,,2.682818,0.1,50.63571,1593048432432
Fix,GT,37.5798582,-122.3249813,,2.927051,0.1,51.331482,1593048433432
Fix,GT,37.5798758,-122.3249528,,3.572687,0.1,51.754883,1593048434432
Fix,GT,37.5799002,-122.3249147,,5.3337326,0.1,50.904022,1593048435432
Fix,GT,37.579938,-122.3248619,,7.2928333,0.1,47.93802,1593048436432
Fix,GT,37.5799867,-122.3247966,,8.441178,0.1,47.108307,1593048437432
Fix,GT,37.5800337,-122.3247202,,8.582064,0.1,54.628815,1593048438432
Fix,GT,37.5800649,-122.3246316,,8.720926,0.1,70.89526,1593048439432
Fix,GT,37.5800735,-122.3245301,,9.528648,0.1,88.277954,1593048440432
Fix,GT,37.5800575,-122.3244175,,10.834698,0.1,104.38681,1593048441432
Fix,GT,37.5800143,-122.3242989,,12.400872,0.1,118.693634,1593048442432
Fix,GT,37.5799448,-122.3241764,,14.249529,0.1,128.5126,1593048443432
Fix,GT,37.5798527,-122.3240482,,16.293232,0.1,133.49307,1593048444432
Fix,GT,37.5797427,-122.3239083,,18.465244,0.1,135.02551,1593048445432
Fix,GT,37.5796192,-122.3237499,,20.714283,0.1,134.28992,1593048446432
Fix,GT,37.5794818,-122.323573,,22.953674,0.1,135.10474,1593048447432
Fix,GT,37.5793246,-122.3233855,,25.15237,0.1,137.69354,1593048448432
Fix,GT,37.5791476,-122.3231881,,27.362259,0.1,138.97449,1593048449432
Fix,GT,37.5789546,-122.3229779,,29.317837,0.1,139.44897,1593048450432
Fix,GT,37.5787483,-122.322756,,30.96577,0.1,139.71075,1593048451432
Fix,GT,37.5785299,-122.3225233,,32.586517,0.1,140.08215,1593048452432
Fix,GT,37.5783,-122.3222808,,34.00946,0.1,140.14795,1593048453432
Fix,GT,37.5780624,-122.3220277,,35.074432,0.1,139.58267,1593048454432
Fix,GT,37.5778213,-122.3217648,,35.765785,0.1,138.96893,1593048455432
Fix,GT,37.5775779,-122.3214961,,36.119682,0.1,138.90753,1593048456432
Fix,GT,37.5773329,-122.3212265,,36.07407,0.1,139.13153,1593048457432
Fix,GT,37.5770889,-122.3209598,,35.722534,0.1,139.25754,1593048458432
Fix,GT,37.5768469,-122.3206959,,35.452293,0.1,139.24384,1593048459432
Fix,GT,37.5766061,-122.3204333,,35.314102,0.1,139.26395,1593048460432
Fix,GT,37.576366,-122.3201716,,35.269043,0.1,139.3518,1593048461432
Fix,GT,37.5761254,-122.3199102,,35.36227,0.1,139.4253,1593048462432
Fix,GT,37.5758839,-122.3196484,,35.428688,0.1,139.39838,1593048463432
Fix,GT,37.5756426,-122.3193862,,35.36414,0.1,139.33527,1593048464432
Fix,GT,37.5754021,-122.3191242,,35.28659,0.1,139.2674,1593048465432
Fix,GT,37.5751622,-122.3188622,,35.30435,0.1,139.13483,1593048466432
Fix,GT,37.5749225,-122.3185988,,35.40737,0.1,138.80957,1593048467432
Fix,GT,37.5746836,-122.318332,,35.55728,0.1,138.32294,1593048468432
Fix,GT,37.5744451,-122.3180613,,35.790344,0.1,138.01746,1593048469432
Fix,GT,37.5742054,-122.3177885,,35.984634,0.1,138.1058,1593048470432
Fix,GT,37.5739636,-122.3175157,,36.147537,0.1,138.48425,1593048471432
Fix,GT,37.5737192,-122.3172436,,36.31619,0.1,138.83728,1593048472432
Fix,GT,37.5734727,-122.3169718,,36.486057,0.1,139.05646,1593048473432
Fix,GT,37.5732242,-122.3167001,,36.63985,0.1,139.34897,1593048474432
Fix,GT,37.5729738,-122.3164288,,36.742046,0.1,139.5765,1593048475432
Fix,GT,37.5727221,-122.3161577,,36.83411,0.1,139.67584,1593048476432
Fix,GT,37.5724699,-122.3158863,,36.854977,0.1,139.58069,1593048477432
Fix,GT,37.5722184,-122.3156149,,36.7251,0.1,139.5881,1593048478432
Fix,GT,37.571968,-122.3153454,,36.467148,0.1,139.80011,1593048479432
Fix,GT,37.5717185,-122.3150792,,36.178444,0.1,140.08554,1593048480432
Fix,GT,37.5714697,-122.3148164,,36.000576,0.1,140.32092,1593048481432
Fix,GT,37.5712208,-122.3145552,,36.028362,0.1,140.29077,1593048482432
Fix,GT,37.5709719,-122.3142926,,36.137486,0.1,140.09894,1593048483432
Fix,GT,37.5707228,-122.3140283,,36.216393,0.1,139.93936,1593048484432
Fix,GT,37.5704741,-122.3137623,,36.286476,0.1,139.65732,1593048485432
Fix,GT,37.5702261,-122.313494,,36.351723,0.1,139.38916,1593048486432
Fix,GT,37.5699783,-122.313225,,36.333908,0.1,139.48138,1593048487432
Fix,GT,37.5697307,-122.3129576,,36.12246,0.1,139.61209,1593048488432
Fix,GT,37.5694849,-122.3126929,,35.686913,0.1,139.5907,1593048489432
Fix,GT,37.5692427,-122.3124316,,35.166977,0.1,139.59912,1593048490432
Fix,GT,37.5690043,-122.3121748,,34.526505,0.1,139.7149,1593048491432
Fix,GT,37.5687704,-122.3119236,,33.785954,0.1,139.71939,1593048492432
Fix,GT,37.5685411,-122.3116768,,33.333984,0.1,139.55096,1593048493432
Fix,GT,37.5683136,-122.3114306,,33.443527,0.1,139.33057,1593048494432
Fix,GT,37.5680847,-122.3111802,,33.95485,0.1,138.97485,1593048495432
Fix,GT,37.5678531,-122.3109248,,34.396732,0.1,138.99603,1593048496432
Fix,GT,37.5676186,-122.3106679,,34.64148,0.1,139.387,1593048497432
Fix,GT,37.5673815,-122.3104122,,34.71363,0.1,139.70325,1593048498432
Fix,GT,37.5671439,-122.3101576,,34.59868,0.1,139.77032,1593048499432
Fix,GT,37.5669071,-122.3099036,,34.49784,0.1,139.59415,1593048500432
Fix,GT,37.5666714,-122.3096495,,34.45569,0.1,139.52603,1593048501432
Fix,GT,37.5664363,-122.3093954,,34.37664,0.1,139.56677,1593048502432
Fix,GT,37.5662017,-122.3091426,,34.23868,0.1,139.65143,1593048503432
Fix,GT,37.5659675,-122.308891,,34.165226,0.1,139.60239,1593048504432
Fix,GT,37.5657344,-122.3086392,,34.07731,0.1,139.42645,1593048505432
Fix,GT,37.5655029,-122.3083877,,33.806343,0.1,139.31927,1593048506432
Fix,GT,37.5652741,-122.3081386,,33.403633,0.1,139.29364,1593048507432
Fix,GT,37.5650476,-122.3078922,,33.162987,0.1,139.29462,1593048508432
Fix,GT,37.5648225,-122.3076463,,33.043716,0.1,139.04636,1593048509432
Fix,GT,37.5646005,-122.3073991,,32.80529,0.1,138.2265,1593048510432
Fix,GT,37.5643828,-122.307149,,32.76248,0.1,137.39984,1593048511432
Fix,GT,37.5641654,-122.3068956,,33.14902,0.1,137.39624,1593048512432
Fix,GT,37.563943,-122.3066399,,33.82105,0.1,137.99811,1593048513432
Fix,GT,37.5637148,-122.3063797,,34.60102,0.1,137.85565,1593048514432
Fix,GT,37.5634834,-122.306111,,35.35856,0.1,137.38446,1593048515432
Fix,GT,37.5632463,-122.3058375,,36.073788,0.1,138.09668,1593048516432
Fix,GT,37.5630015,-122.3055632,,36.71398,0.1,138.88257,1593048517432
Fix,GT,37.5627508,-122.3052883,,37.09349,0.1,139.3053,1593048518432
Fix,GT,37.5624972,-122.3050131,,37.2446,0.1,139.4776,1593048519432
Fix,GT,37.5622422,-122.304738,,37.366314,0.1,139.61017,1593048520432
Fix,GT,37.5619864,-122.304463,,37.350525,0.1,139.66635,1593048521432
Fix,GT,37.5617311,-122.3041881,,37.291454,0.1,139.48181,1593048522432
Fix,GT,37.5614768,-122.303912,,37.321156,0.1,139.26642,1593048523432
Fix,GT,37.5612222,-122.3036351,,37.45361,0.1,139.36362,1593048524432
Fix,GT,37.5609658,-122.3033582,,37.60241,0.1,139.74112,1593048525432
Fix,GT,37.5607072,-122.3030826,,37.64807,0.1,140.10657,1593048526432
Fix,GT,37.560448,-122.3028083,,37.604324,0.1,140.07767,1593048527432
Fix,GT,37.5601887,-122.3025334,,37.74083,0.1,140.21747,1593048528432
Fix,GT,37.5599257,-122.3022602,,38.03937,0.1,141.27124,1593048529432
Fix,GT,37.5596559,-122.3019913,,38.420982,0.1,142.51352,1593048530432
Fix,GT,37.5593789,-122.3017268,,38.785454,0.1,143.54254,1593048531432
Fix,GT,37.5590959,-122.3014657,,39.122612,0.1,144.2644,1593048532432
Fix,GT,37.5588086,-122.3012055,,39.46517,0.1,144.56415,1593048533432
Fix,GT,37.558518,-122.3009448,,39.825737,0.1,144.90341,1593048534432
Fix,GT,37.5582234,-122.300684,,40.14485,0.1,145.23831,1593048535432
Fix,GT,37.5579262,-122.3004227,,40.349663,0.1,145.31595,1593048536432
Fix,GT,37.5576278,-122.3001608,,40.409996,0.1,145.31491,1593048537432
Fix,GT,37.5573299,-122.2998987,,40.29081,0.1,145.01306,1593048538432
Fix,GT,37.5570348,-122.2996346,,40.14715,0.1,144.37775,1593048539432
Fix,GT,37.5567431,-122.2993681,,39.86537,0.1,144.0597,1593048540432
Fix,GT,37.5564549,-122.2991036,,39.340393,0.1,144.00958,1593048541432
Fix,GT,37.5561707,-122.2988417,,38.917892,0.1,143.84555,1593048542432
Fix,GT,37.5558892,-122.2985801,,38.871735,0.1,143.57904,1593048543432
Fix,GT,37.5556076,-122.2983167,,39.07895,0.1,143.54987,1593048544432
Fix,GT,37.5553243,-122.2980526,,39.233116,0.1,143.76343,1593048545432
Fix,GT,37.5550397,-122.2977887,,39.286842,0.1,143.73083,1593048546432
Fix,GT,37.5547554,-122.2975233,,39.339844,0.1,143.30139,1593048547432
Fix,GT,37.5544728,-122.2972546,,39.32522,0.1,142.77512,1593048548432
Fix,GT,37.5541925,-122.2969829,,39.277657,0.1,142.34888,1593048549432
Fix,GT,37.5539138,-122.2967091,,39.322746,0.1,142.23053,1593048550432
Fix,GT,37.5536336,-122.2964357,,39.455894,0.1,142.65509,1593048551432
Fix,GT,37.5533497,-122.2961648,,39.655205,0.1,143.3247,1593048552432
Fix,GT,37.5530624,-122.2958961,,39.850204,0.1,143.79565,1593048553432
Fix,GT,37.5527729,-122.2956278,,40.03071,0.1,143.81613,1593048554432
Fix,GT,37.5524826,-122.295358,,40.128265,0.1,143.63235,1593048555432
Fix,GT,37.5521925,-122.2950876,,40.00167,0.1,143.71213,1593048556432
Fix,GT,37.5519041,-122.2948196,,39.592857,0.1,143.84827,1593048557432
Fix,GT,37.5516189,-122.2945549,,39.169235,0.1,143.72852,1593048558432
Fix,GT,37.5513365,-122.2942916,,38.94665,0.1,143.60114,1593048559432
Fix,GT,37.5510553,-122.2940286,,38.92837,0.1,143.58789,1593048560432
Fix,GT,37.5507733,-122.2937655,,39.07287,0.1,143.69446,1593048561432
Fix,GT,37.5504898,-122.2935017,,39.255928,0.1,143.67157,1593048562432
Fix,GT,37.5502049,-122.293236,,39.49311,0.1,143.5451,1593048563432
Fix,GT,37.5499184,-122.292968,,39.78736,0.1,143.53864,1593048564432
Fix,GT,37.54963,-122.2926985,,40.001663,0.1,143.65033,1593048565432
Fix,GT,37.5493399,-122.2924284,,40.172394,0.1,143.69778,1593048566432
Fix,GT,37.5490486,-122.2921566,,40.371494,0.1,143.54791,1593048567432
Fix,GT,37.5487562,-122.2918829,,40.55388,0.1,143.51154,1593048568432
Fix,GT,37.5484622,-122.2916088,,40.721012,0.1,143.74597,1593048569432
Fix,GT,37.5481663,-122.2913349,,40.85942,0.1,143.87207,1593048570432
Fix,GT,37.5478696,-122.2910604,,40.948845,0.1,143.7767,1593048571432
Fix,GT,37.5475726,-122.2907848,,41.012062,0.1,143.75806,1593048572432
Fix,GT,37.547275,-122.2905086,,41.13874,0.1,143.75336,1593048573432
Fix,GT,37.5469764,-122.2902313,,41.285534,0.1,143.69037,1593048574432
Fix,GT,37.5466771,-122.2899532,,41.355183,0.1,143.6737,1593048575432
Fix,GT,37.5463776,-122.2896746,,41.365387,0.1,143.67664,1593048576432
Fix,GT,37.5460784,-122.2893956,,41.33915,0.1,143.64221,1593048577432
Fix,GT,37.5457797,-122.2891173,,41.165936,0.1,143.75507,1593048578432
Fix,GT,37.5454825,-122.2888415,,40.818863,0.1,143.80566,1593048579432
Fix,GT,37.5451883,-122.2885684,,40.383556,0.1,143.80237,1593048580432
Fix,GT,37.5448971,-122.2882988,,39.934242,0.1,143.89746,1593048581432
Fix,GT,37.5446088,-122.2880328,,39.48889,0.1,143.99231,1593048582432
Fix,GT,37.5443234,-122.2877704,,39.051254,0.1,144.00266,1593048583432
Fix,GT,37.5440413,-122.2875103,,38.629593,0.1,143.81805,1593048584432
Fix,GT,37.5437631,-122.2872516,,38.24201,0.1,143.66827,1593048585432
Fix,GT,37.5434874,-122.2869949,,37.953606,0.1,143.75513,1593048586432
Fix,GT,37.5432129,-122.2867406,,37.744423,0.1,143.88696,1593048587432
Fix,GT,37.5429398,-122.2864882,,37.526802,0.1,143.89566,1593048588432
Fix,GT,37.542668,-122.2862374,,37.344376,0.1,143.98761,1593048589432
Fix,GT,37.5423968,-122.2859883,,37.254745,0.1,144.02777,1593048590432
Fix,GT,37.5421262,-122.2857393,,37.214645,0.1,143.96542,1593048591432
Fix,GT,37.5418559,-122.2854906,,37.135864,0.1,144.02917,1593048592432
Fix,GT,37.5415864,-122.2852435,,36.924065,0.1,144.16266,1593048593432
Fix,GT,37.5413185,-122.2849992,,36.52565,0.1,144.30927,1593048594432
Fix,GT,37.5410528,-122.2847589,,36.228027,0.1,144.82751,1593048595432
Fix,GT,37.5407856,-122.2845233,,36.336826,0.1,145.60226,1593048596432
Fix,GT,37.5405153,-122.2842891,,36.5932,0.1,145.48102,1593048597432
Fix,GT,37.5402447,-122.284051,,36.761032,0.1,144.92511,1593048598432
Fix,GT,37.5399746,-122.2838092,,36.85544,0.1,144.51141,1593048599432
Fix,GT,37.5397053,-122.2835644,,36.94545,0.1,144.05905,1593048600432
Fix,GT,37.5394367,-122.2833167,,36.99301,0.1,143.80997,1593048601432
Fix,GT,37.5391687,-122.2830683,,36.929214,0.1,143.7713,1593048602432
Fix,GT,37.5389015,-122.2828203,,36.835808,0.1,143.73401,1593048603432
Fix,GT,37.5386347,-122.2825729,,36.78121,0.1,143.85309,1593048604432
Fix,GT,37.5383676,-122.2823266,,36.777885,0.1,143.92639,1593048605432
Fix,GT,37.5381004,-122.2820799,,36.845078,0.1,143.83215,1593048606432
Fix,GT,37.5378328,-122.2818325,,36.892166,0.1,143.8778,1593048607432
Fix,GT,37.5375656,-122.281586,,36.619724,0.1,143.95325,1593048608432
Fix,GT,37.5373015,-122.2813422,,36.08581,0.1,143.84247,1593048609432
Fix,GT,37.5370422,-122.2811018,,35.4281,0.1,143.79553,1593048610432
Fix,GT,37.5367879,-122.2808663,,34.75173,0.1,143.90427,1593048611432
Fix,GT,37.536537,-122.2806362,,34.265133,0.1,144.37137,1593048612432
Fix,GT,37.5362867,-122.2804119,,34.023315,0.1,145.0798,1593048613432
Fix,GT,37.5360358,-122.2801903,,34.103813,0.1,145.11407,1593048614432
Fix,GT,37.5357837,-122.2799667,,34.37052,0.1,144.86102,1593048615432
Fix,GT,37.5355309,-122.2797407,,34.469604,0.1,144.6195,1593048616432
Fix,GT,37.535279,-122.2795132,,34.382828,0.1,144.22418,1593048617432
Fix,GT,37.5350293,-122.2792841,,34.292995,0.1,143.76923,1593048618432
Fix,GT,37.5347808,-122.2790534,,34.378838,0.1,143.69467,1593048619432
Fix,GT,37.5345308,-122.2788219,,34.57448,0.1,143.96478,1593048620432
Fix,GT,37.5342792,-122.278591,,34.551735,0.1,144.09378,1593048621432
Fix,GT,37.5340287,-122.2783602,,34.428356,0.1,143.78687,1593048622432
Fix,GT,37.5337795,-122.2781282,,34.438232,0.1,143.54776,1593048623432
Fix,GT,37.5335301,-122.2778952,,34.566345,0.1,143.5929,1593048624432
Fix,GT,37.5332797,-122.2776619,,34.602306,0.1,143.76456,1593048625432
Fix,GT,37.5330287,-122.2774297,,34.598995,0.1,143.88397,1593048626432
Fix,GT,37.5327775,-122.2771976,,34.652164,0.1,143.8446,1593048627432
Fix,GT,37.5325257,-122.276965,,34.71079,0.1,143.86401,1593048628432
Fix,GT,37.5322735,-122.2767319,,34.81176,0.1,143.83899,1593048629432
Fix,GT,37.5320208,-122.2764978,,34.922718,0.1,143.74976,1593048630432
Fix,GT,37.5317678,-122.2762623,,34.964222,0.1,143.5054,1593048631432
Fix,GT,37.5315162,-122.2760244,,34.9674,0.1,142.85721,1593048632432
Fix,GT,37.5312672,-122.2757817,,35.036697,0.1,141.81174,1593048633432
Fix,GT,37.5310214,-122.2755318,,35.19335,0.1,140.52502,1593048634432
Fix,GT,37.5307788,-122.2752741,,35.39364,0.1,139.59753,1593048635432
Fix,GT,37.5305365,-122.2750114,,35.65693,0.1,139.40363,1593048636432
Fix,GT,37.5302922,-122.2747471,,35.897423,0.1,139.51657,1593048637432
Fix,GT,37.5300465,-122.2744809,,36.12914,0.1,139.1872,1593048638432
Fix,GT,37.5298015,-122.2742103,,36.28645,0.1,138.55682,1593048639432
Fix,GT,37.5295578,-122.2739359,,36.3739,0.1,138.09036,1593048640432
Fix,GT,37.5293147,-122.2736591,,36.487343,0.1,138.0213,1593048641432
Fix,GT,37.5290708,-122.2733819,,36.518,0.1,138.12918,1593048642432
Fix,GT,37.5288271,-122.273105,,36.416832,0.1,138.01773,1593048643432
Fix,GT,37.5285846,-122.2728285,,36.29816,0.1,137.87628,1593048644432
Fix,GT,37.5283435,-122.2725521,,36.186516,0.1,137.83865,1593048645432
Fix,GT,37.5281029,-122.2722765,,36.110493,0.1,137.92273,1593048646432
Fix,GT,37.5278622,-122.272002,,36.08246,0.1,138.03204,1593048647432
Fix,GT,37.5276214,-122.2717279,,36.03907,0.1,138.01678,1593048648432
Fix,GT,37.5273816,-122.2714547,,35.83445,0.1,137.9596,1593048649432
Fix,GT,37.5271439,-122.2711831,,35.47085,0.1,137.81378,1593048650432
Fix,GT,37.5269096,-122.2709136,,35.076523,0.1,137.69476,1593048651432
Fix,GT,37.5266781,-122.2706469,,34.671036,0.1,137.6532,1593048652432
Fix,GT,37.5264491,-122.2703836,,34.267727,0.1,137.88245,1593048653432
Fix,GT,37.5262214,-122.2701245,,33.949387,0.1,138.12112,1593048654432
Fix,GT,37.5259956,-122.2698665,,33.888046,0.1,137.50507,1593048655432
Fix,GT,37.5257719,-122.2696042,,34.114944,0.1,136.88416,1593048656432
Fix,GT,37.5255468,-122.2693387,,34.4177,0.1,137.18646,1593048657432
Fix,GT,37.5253182,-122.269074,,34.599037,0.1,137.80664,1593048658432
Fix,GT,37.5250875,-122.2688097,,34.727062,0.1,137.83801,1593048659432
Fix,GT,37.5248561,-122.2685438,,34.920563,0.1,137.73706,1593048660432
Fix,GT,37.5246229,-122.2682765,,35.149864,0.1,137.89307,1593048661432
Fix,GT,37.5243876,-122.2680083,,35.431583,0.1,138.06,1593048662432
Fix,GT,37.5241499,-122.2677385,,35.682346,0.1,138.09778,1593048663432
Fix,GT,37.5239108,-122.2674675,,35.783295,0.1,138.25665,1593048664432
Fix,GT,37.5236712,-122.2671976,,35.66195,0.1,138.40607,1593048665432
Fix,GT,37.5234325,-122.2669296,,35.43026,0.1,138.32916,1593048666432
Fix,GT,37.5231958,-122.2666625,,35.188324,0.1,138.2279,1593048667432
Fix,GT,37.522961,-122.2663965,,35.059994,0.1,138.09772,1593048668432
Fix,GT,37.5227269,-122.2661306,,35.03581,0.1,138.09616,1593048669432
Fix,GT,37.5224925,-122.2658649,,35.082474,0.1,138.23389,1593048670432
Fix,GT,37.5222572,-122.265599,,35.209988,0.1,138.19568,1593048671432
Fix,GT,37.5220213,-122.2653312,,35.38591,0.1,137.98465,1593048672432
Fix,GT,37.5217847,-122.2650616,,35.51927,0.1,138.0315,1593048673432
Fix,GT,37.521547,-122.2647919,,35.639084,0.1,138.21155,1593048674432
Fix,GT,37.5213077,-122.2645215,,35.846676,0.1,138.21179,1593048675432
Fix,GT,37.521067,-122.2642492,,36.049667,0.1,138.1589,1593048676432
Fix,GT,37.5208251,-122.2639752,,36.263187,0.1,138.17984,1593048677432
Fix,GT,37.5205815,-122.2636995,,36.543827,0.1,138.26062,1593048678432
Fix,GT,37.5203353,-122.2634222,,36.836227,0.1,138.44678,1593048679432
Fix,GT,37.5200862,-122.2631438,,37.175262,0.1,138.5669,1593048680432
Fix,GT,37.5198347,-122.2628629,,37.552124,0.1,138.53912,1593048681432
Fix,GT,37.5195806,-122.2625793,,37.92716,0.1,138.72687,1593048682432
Fix,GT,37.5193223,-122.262295,,38.312687,0.1,139.25812,1593048683432
Fix,GT,37.5190598,-122.2620107,,38.63704,0.1,139.4674,1593048684432
Fix,GT,37.5187956,-122.2617238,,38.88611,0.1,139.15656,1593048685432
Fix,GT,37.5185317,-122.2614327,,39.094696,0.1,138.7626,1593048686432
Fix,GT,37.5182673,-122.2611396,,39.191605,0.1,138.9353,1593048687432
Fix,GT,37.5180011,-122.2608485,,39.162296,0.1,139.46783,1593048688432
Fix,GT,37.5177336,-122.2605602,,39.12508,0.1,139.63596,1593048689432
Fix,GT,37.5174661,-122.2602717,,39.147797,0.1,139.33557,1593048690432
Fix,GT,37.5172001,-122.2599805,,39.2045,0.1,138.91739,1593048691432
Fix,GT,37.5169347,-122.2596872,,39.281998,0.1,139.01184,1593048692432
Fix,GT,37.5166674,-122.2593954,,39.360336,0.1,139.50446,1593048693432
Fix,GT,37.516398,-122.2591052,,39.42094,0.1,139.63403,1593048694432
Fix,GT,37.5161284,-122.2588145,,39.477386,0.1,139.33636,1593048695432
Fix,GT,37.51586,-122.2585209,,39.532806,0.1,138.85022,1593048696432
Fix,GT,37.5155936,-122.2582237,,39.60665,0.1,138.34961,1593048697432
Fix,GT,37.5153281,-122.2579236,,39.68206,0.1,138.10596,1593048698432
Fix,GT,37.5150628,-122.2576222,,39.748756,0.1,138.03049,1593048699432
Fix,GT,37.5147974,-122.2573201,,39.770382,0.1,138.06342,1593048700432
Fix,GT,37.5145315,-122.2570185,,39.756542,0.1,138.25711,1593048701432
Fix,GT,37.5142647,-122.2567183,,39.77012,0.1,138.47107,1593048702432
Fix,GT,37.513997,-122.256419,,39.815544,0.1,138.57977,1593048703432
Fix,GT,37.5137288,-122.2561197,,39.81601,0.1,138.55347,1593048704432
Fix,GT,37.5134614,-122.25582,,39.73915,0.1,138.29889,1593048705432
Fix,GT,37.5131957,-122.2555195,,39.655037,0.1,138.08887,1593048706432
Fix,GT,37.5129308,-122.255219,,39.590157,0.1,138.15692,1593048707432
Fix,GT,37.512666,-122.2549195,,39.52935,0.1,138.21625,1593048708432
Fix,GT,37.5124016,-122.2546205,,39.46337,0.1,138.18805,1593048709432
Fix,GT,37.5121376,-122.2543219,,39.39562,0.1,138.18896,1593048710432
Fix,GT,37.5118742,-122.2540236,,39.34247,0.1,138.15506,1593048711432
Fix,GT,37.5116111,-122.2537258,,39.304478,0.1,138.18854,1593048712432
Fix,GT,37.511348,-122.2534284,,39.274887,0.1,138.24182,1593048713432
Fix,GT,37.5110852,-122.2531315,,39.1799,0.1,138.20825,1593048714432
Fix,GT,37.5108238,-122.2528357,,38.90297,0.1,138.16455,1593048715432
Fix,GT,37.5105649,-122.252542,,38.58657,0.1,138.06146,1593048716432
Fix,GT,37.5103082,-122.2522492,,38.403107,0.1,137.82092,1593048717432
Fix,GT,37.5100538,-122.2519559,,38.285774,0.1,137.4541,1593048718432
Fix,GT,37.5098015,-122.2516612,,38.23082,0.1,137.06088,1593048719432
Fix,GT,37.5095506,-122.251365,,38.22989,0.1,136.8829,1593048720432
Fix,GT,37.5092999,-122.2510682,,38.277893,0.1,136.92688,1593048721432
Fix,GT,37.5090481,-122.2507718,,38.34973,0.1,137.26361,1593048722432
Fix,GT,37.5087942,-122.2504768,,38.43515,0.1,137.66241,1593048723432
Fix,GT,37.5085383,-122.2501837,,38.467678,0.1,138.06055,1593048724432
Fix,GT,37.508281,-122.2498927,,38.356964,0.1,138.31201,1593048725432
Fix,GT,37.5080245,-122.2496038,,38.14418,0.1,138.33197,1593048726432
Fix,GT,37.5077694,-122.2493161,,38.001324,0.1,138.12067,1593048727432
Fix,GT,37.5075163,-122.2490268,,38.00408,0.1,137.55402,1593048728432
Fix,GT,37.5072652,-122.2487341,,38.064636,0.1,137.16937,1593048729432
Fix,GT,37.5070141,-122.2484399,,38.190556,0.1,137.28473,1593048730432
Fix,GT,37.5067611,-122.2481458,,38.34633,0.1,137.57874,1593048731432
Fix,GT,37.506506,-122.2478523,,38.46306,0.1,137.87729,1593048732432
Fix,GT,37.506249,-122.2475597,,38.530685,0.1,138.16443,1593048733432
Fix,GT,37.5059909,-122.247268,,38.569542,0.1,138.30688,1593048734432
Fix,GT,37.5057324,-122.2469762,,38.597717,0.1,138.24933,1593048735432
Fix,GT,37.5054738,-122.2466837,,38.68284,0.1,138.12985,1593048736432
Fix,GT,37.5052148,-122.24639,,38.78978,0.1,138.11517,1593048737432
Fix,GT,37.5049552,-122.2460956,,38.83165,0.1,138.1264,1593048738432
Fix,GT,37.5046958,-122.2458012,,38.810257,0.1,138.10019,1593048739432
Fix,GT,37.5044366,-122.2455068,,38.792877,0.1,138.11517,1593048740432
Fix,GT,37.5041774,-122.2452127,,38.772095,0.1,138.10852,1593048741432
Fix,GT,37.5039183,-122.244919,,38.70352,0.1,138.1203,1593048742432
Fix,GT,37.5036601,-122.244626,,38.573425,0.1,138.09344,1593048743432
Fix,GT,37.503403,-122.2443335,,38.44089,0.1,137.97742,1593048744432
Fix,GT,37.5031472,-122.2440414,,38.320312,0.1,137.84576,1593048745432
Fix,GT,37.5028926,-122.2437497,,38.187424,0.1,137.82678,1593048746432
Fix,GT,37.5026389,-122.2434592,,38.0434,0.1,137.92181,1593048747432
Fix,GT,37.5023854,-122.2431705,,37.94378,0.1,138.08862,1593048748432
Fix,GT,37.5021316,-122.2428828,,37.974827,0.1,138.08643,1593048749432
Fix,GT,37.5018775,-122.2425942,,38.081314,0.1,138.0549,1593048750432
Fix,GT,37.5016227,-122.2423052,,38.1039,0.1,138.10706,1593048751432
Fix,GT,37.5013681,-122.2420165,,38.05152,0.1,138.13446,1593048752432
Fix,GT,37.5011141,-122.241728,,37.996655,0.1,138.05258,1593048753432
Fix,GT,37.5008609,-122.2414397,,37.881485,0.1,138.02734,1593048754432
Fix,GT,37.5006086,-122.2411529,,37.67973,0.1,138.07141,1593048755432
Fix,GT,37.5003577,-122.2408677,,37.453888,0.1,138.03302,1593048756432
Fix,GT,37.5001087,-122.2405837,,37.198425,0.1,137.92444,1593048757432
Fix,GT,37.4998615,-122.2403017,,36.970398,0.1,138.0351,1593048758432
Fix,GT,37.4996149,-122.240022,,36.803993,0.1,138.36856,1593048759432
Fix,GT,37.4993685,-122.239745,,36.594193,0.1,138.40607,1593048760432
Fix,GT,37.4991254,-122.2394677,,36.33613,0.1,137.31516,1593048761432
Fix,GT,37.4988902,-122.239184,,36.109055,0.1,135.3551,1593048762432
Fix,GT,37.4986644,-122.238892,,35.86891,0.1,133.36188,1593048763432
Fix,GT,37.498448,-122.2385932,,35.55372,0.1,131.59485,1593048764432
Fix,GT,37.4982407,-122.2382897,,35.13683,0.1,129.93918,1593048765432
Fix,GT,37.4980437,-122.2379821,,34.670998,0.1,127.90265,1593048766432
Fix,GT,37.4978591,-122.2376696,,34.178394,0.1,125.515625,1593048767432
Fix,GT,37.4976879,-122.2373519,,33.688133,0.1,122.99371,1593048768432
Fix,GT,37.4975297,-122.2370298,,33.300133,0.1,120.781494,1593048769432
Fix,GT,37.4973822,-122.2367039,,33.020374,0.1,118.92215,1593048770432
Fix,GT,37.4972443,-122.236375,,32.723923,0.1,117.0564,1593048771432
Fix,GT,37.4971161,-122.2360444,,32.31804,0.1,115.441284,1593048772432
Fix,GT,37.4969961,-122.2357142,,31.90379,0.1,114.12323,1593048773432
Fix,GT,37.4968836,-122.2353857,,31.29546,0.1,112.89636,1593048774432
Fix,GT,37.4967793,-122.2350628,,30.26799,0.1,111.72421,1593048775432
Fix,GT,37.4966837,-122.2347499,,28.879759,0.1,110.72308,1593048776432
Fix,GT,37.4965969,-122.2344535,,26.897507,0.1,110.1358,1593048777432
Fix,GT,37.4965176,-122.2341764,,25.267654,0.1,109.82605,1593048778432
Fix,GT,37.4964423,-122.2339097,,24.851053,0.1,109.74283,1593048779432
Fix,GT,37.4963677,-122.2336455,,24.784977,0.1,109.7926,1593048780432
Fix,GT,37.4962924,-122.2333797,,25.130676,0.1,109.80176,1593048781432
Fix,GT,37.4962159,-122.2331098,,25.481632,0.1,109.901245,1593048782432
Fix,GT,37.4961381,-122.232838,,25.55159,0.1,110.03955,1593048783432
Fix,GT,37.4960599,-122.232566,,25.613342,0.1,110.14383,1593048784432
Fix,GT,37.4959811,-122.232293,,25.794613,0.1,110.139465,1593048785432
Fix,GT,37.495902,-122.2320168,,26.136713,0.1,109.87891,1593048786432
Fix,GT,37.4958227,-122.231736,,26.556473,0.1,109.684265,1593048787432
Fix,GT,37.4957426,-122.231451,,26.837639,0.1,109.65454,1593048788432
Fix,GT,37.495662,-122.2311649,,26.779875,0.1,109.694855,1593048789432
Fix,GT,37.4955815,-122.23088,,26.7301,0.1,109.80145,1593048790432
Fix,GT,37.4955002,-122.2305942,,26.972775,0.1,110.00549,1593048791432
Fix,GT,37.495417,-122.2303066,,27.103878,0.1,110.48334,1593048792432
Fix,GT,37.4953319,-122.2300202,,26.920486,0.1,110.85907,1593048793432
Fix,GT,37.495247,-122.2297361,,26.739655,0.1,110.64606,1593048794432
Fix,GT,37.4951639,-122.2294525,,26.716438,0.1,110.24475,1593048795432
Fix,GT,37.495082,-122.2291681,,26.751818,0.1,109.990875,1593048796432
Fix,GT,37.4950005,-122.2288831,,26.790657,0.1,109.89612,1593048797432
Fix,GT,37.4949196,-122.2285977,,26.765785,0.1,109.733795,1593048798432
Fix,GT,37.4948395,-122.2283134,,26.536846,0.1,109.69885,1593048799432
Fix,GT,37.4947601,-122.2280328,,26.112257,0.1,109.83038,1593048800432
Fix,GT,37.4946816,-122.2277572,,25.667486,0.1,110.01773,1593048801432
Fix,GT,37.4946033,-122.2274857,,25.48143,0.1,110.21466,1593048802432
Fix,GT,37.4945243,-122.227214,,25.734585,0.1,110.26752,1593048803432
Fix,GT,37.4944439,-122.2269386,,26.102016,0.1,110.57083,1593048804432
Fix,GT,37.4943602,-122.2266608,,26.447807,0.1,111.32666,1593048805432
Fix,GT,37.4942719,-122.2263799,,26.965387,0.1,112.07648,1593048806432
Fix,GT,37.4941792,-122.2260947,,27.497787,0.1,112.80368,1593048807432
Fix,GT,37.4940819,-122.2258069,,27.707848,0.1,113.57666,1593048808432
Fix,GT,37.4939817,-122.2255205,,27.573883,0.1,114.30249,1593048809432
Fix,GT,37.4938797,-122.2252374,,27.394875,0.1,114.86075,1593048810432
Fix,GT,37.4937762,-122.224957,,27.261906,0.1,115.30261,1593048811432
Fix,GT,37.4936713,-122.2246791,,27.125734,0.1,115.90219,1593048812432
Fix,GT,37.4935643,-122.2244043,,26.976307,0.1,116.57388,1593048813432
Fix,GT,37.493456,-122.2241324,,26.757082,0.1,116.95264,1593048814432
Fix,GT,37.4933476,-122.223864,,26.473053,0.1,117.19202,1593048815432
Fix,GT,37.4932393,-122.2235993,,26.120811,0.1,117.61316,1593048816432
Fix,GT,37.493131,-122.2233398,,25.66114,0.1,118.16498,1593048817432
Fix,GT,37.4930225,-122.2230863,,25.210957,0.1,118.70294,1593048818432
Fix,GT,37.4929143,-122.2228379,,24.868858,0.1,119.02203,1593048819432
Fix,GT,37.4928064,-122.222593,,24.63412,0.1,119.295044,1593048820432
Fix,GT,37.4926984,-122.2223503,,24.54577,0.1,119.395386,1593048821432
Fix,GT,37.492591,-122.2221076,,24.58812,0.1,119.182465,1593048822432
Fix,GT,37.4924832,-122.2218628,,24.906076,0.1,119.13379,1593048823432
Fix,GT,37.4923734,-122.2216141,,25.35904,0.1,119.276764,1593048824432
Fix,GT,37.4922615,-122.2213621,,25.668438,0.1,119.3916,1593048825432
Fix,GT,37.4921481,-122.2211072,,25.978472,0.1,119.37546,1593048826432
Fix,GT,37.4920334,-122.2208486,,26.384674,0.1,119.31644,1593048827432
Fix,GT,37.4919171,-122.2205862,,26.761494,0.1,119.26724,1593048828432
Fix,GT,37.4917991,-122.2203196,,27.18829,0.1,119.21271,1593048829432
Fix,GT,37.4916794,-122.2200485,,27.630829,0.1,119.24158,1593048830432
Fix,GT,37.4915576,-122.2197735,,27.987457,0.1,119.394196,1593048831432
Fix,GT,37.4914337,-122.2194963,,28.2204,0.1,119.729095,1593048832432
Fix,GT,37.4913076,-122.2192176,,28.49387,0.1,119.82687,1593048833432
Fix,GT,37.49118,-122.2189354,,28.866825,0.1,119.70996,1593048834432
Fix,GT,37.4910511,-122.2186496,,29.198713,0.1,119.703156,1593048835432
Fix,GT,37.4909215,-122.2183617,,29.252441,0.1,119.6597,1593048836432
Fix,GT,37.4907924,-122.2180738,,29.174145,0.1,119.556335,1593048837432
Fix,GT,37.4906636,-122.2177856,,29.275467,0.1,119.415405,1593048838432
Fix,GT,37.490535,-122.2174955,,29.440071,0.1,119.22476,1593048839432
Fix,GT,37.4904064,-122.2172036,,29.556114,0.1,119.18161,1593048840432
Fix,GT,37.4902778,-122.2169103,,29.614761,0.1,118.88953,1593048841432
Fix,GT,37.490151,-122.2166158,,29.58953,0.1,118.339874,1593048842432
Fix,GT,37.4900268,-122.2163202,,29.523506,0.1,117.773315,1593048843432
Fix,GT,37.4899055,-122.2160234,,29.470116,0.1,116.98459,1593048844432
Fix,GT,37.4897882,-122.2157249,,29.421448,0.1,116.07214,1593048845432
Fix,GT,37.4896744,-122.2154247,,29.375937,0.1,115.45404,1593048846432
Fix,GT,37.4895627,-122.2151239,,29.347786,0.1,115.05151,1593048847432
Fix,GT,37.4894525,-122.2148221,,29.380764,0.1,114.76825,1593048848432
Fix,GT,37.4893434,-122.2145191,,29.40855,0.1,114.33414,1593048849432
Fix,GT,37.4892368,-122.2142154,,29.249702,0.1,113.74347,1593048850432
Fix,GT,37.4891333,-122.2139119,,29.193436,0.1,113.14938,1593048851432
Fix,GT,37.4890321,-122.2136057,,29.520966,0.1,112.420654,1593048852432
Fix,GT,37.4889327,-122.2132933,,29.991127,0.1,111.60394,1593048853432
Fix,GT,37.4888354,-122.2129745,,30.386644,0.1,110.859375,1593048854432
Fix,GT,37.4887401,-122.2126505,,30.72348,0.1,110.22403,1593048855432
Fix,GT,37.4886465,-122.2123216,,31.052135,0.1,109.58411,1593048856432
Fix,GT,37.4885552,-122.2119879,,31.329552,0.1,108.897705,1593048857432
Fix,GT,37.4884662,-122.2116509,,31.413857,0.1,108.340576,1593048858432
Fix,GT,37.4883797,-122.2113133,,31.30833,0.1,107.7995,1593048859432
Fix,GT,37.4882965,-122.2109757,,31.226841,0.1,107.157196,1593048860432
Fix,GT,37.4882164,-122.2106377,,31.126879,0.1,106.59219,1593048861432
Fix,GT,37.4881394,-122.2103005,,30.87836,0.1,106.01755,1593048862432
Fix,GT,37.4880659,-122.2099657,,30.551273,0.1,105.453766,1593048863432
Fix,GT,37.4879957,-122.2096336,,30.254393,0.1,104.76172,1593048864432
Fix,GT,37.4879297,-122.2093027,,30.13964,0.1,103.86548,1593048865432
Fix,GT,37.4878677,-122.2089707,,30.186592,0.1,103.05078,1593048866432
Fix,GT,37.487809,-122.208637,,30.242199,0.1,102.37439,1593048867432
Fix,GT,37.4877532,-122.2083029,,30.080025,0.1,101.8642,1593048868432
Fix,GT,37.4877001,-122.207972,,29.57807,0.1,101.47104,1593048869432
Fix,GT,37.4876501,-122.207647,,28.998377,0.1,100.98862,1593048870432
Fix,GT,37.4876027,-122.2073273,,28.527206,0.1,100.63672,1593048871432
Fix,GT,37.4875579,-122.2070118,,28.17408,0.1,100.00586,1593048872432
Fix,GT,37.4875171,-122.206699,,27.924065,0.1,99.00391,1593048873432
Fix,GT,37.4874797,-122.2063874,,27.831852,0.1,98.63449,1593048874432
Fix,GT,37.4874431,-122.2060769,,27.66988,0.1,98.75601,1593048875432
Fix,GT,37.4874064,-122.2057693,,27.348991,0.1,98.75845,1593048876432
Fix,GT,37.4873702,-122.205465,,27.0941,0.1,98.69745,1593048877432
Fix,GT,37.4873343,-122.2051627,,26.990475,0.1,98.91455,1593048878432
Fix,GT,37.4872972,-122.2048616,,26.85413,0.1,99.15549,1593048879432
Fix,GT,37.4872595,-122.2045633,,26.57151,0.1,99.37891,1593048880432
Fix,GT,37.4872217,-122.2042684,,26.260174,0.1,99.36047,1593048881432
Fix,GT,37.4871848,-122.203977,,25.923489,0.1,99.2254,1593048882432
Fix,GT,37.4871488,-122.2036893,,25.59347,0.1,99.03668,1593048883432
Fix,GT,37.4871142,-122.2034049,,25.323544,0.1,98.84268,1593048884432
Fix,GT,37.4870801,-122.2031222,,25.272417,0.1,98.83502,1593048885432
Fix,GT,37.4870457,-122.202839,,25.40294,0.1,98.90765,1593048886432
Fix,GT,37.487011,-122.2025544,,25.5219,0.1,98.98407,1593048887432
Fix,GT,37.486976,-122.2022679,,25.747673,0.1,98.91049,1593048888432
Fix,GT,37.486941,-122.2019794,,25.845743,0.1,98.97952,1593048889432
Fix,GT,37.4869055,-122.2016917,,25.620716,0.1,99.15024,1593048890432
Fix,GT,37.4868699,-122.201407,,25.361235,0.1,99.20538,1593048891432
Fix,GT,37.4868344,-122.2011242,,25.287277,0.1,99.22516,1593048892432
Fix,GT,37.4867988,-122.2008417,,25.249134,0.1,99.2298,1593048893432
Fix,GT,37.4867635,-122.2005602,,25.165955,0.1,99.149445,1593048894432
Fix,GT,37.4867286,-122.2002788,,25.249586,0.1,99.10269,1593048895432
Fix,GT,37.4866936,-122.1999961,,25.363882,0.1,99.03732,1593048896432
Fix,GT,37.486659,-122.1997114,,25.619366,0.1,98.84131,1593048897432
Fix,GT,37.4866247,-122.1994228,,25.992897,0.1,98.65558,1593048898432
Fix,GT,37.4865902,-122.1991305,,26.222635,0.1,98.70743,1593048899432
Fix,GT,37.4865549,-122.1988377,,26.142035,0.1,99.17572,1593048900432
Fix,GT,37.486518,-122.1985471,,25.907364,0.1,99.58853,1593048901432
Fix,GT,37.48648,-122.1982587,,25.801485,0.1,99.5509,1593048902432
Fix,GT,37.486443,-122.197971,,25.765053,0.1,99.27753,1593048903432
Fix,GT,37.4864069,-122.197684,,25.598793,0.1,99.16147,1593048904432
Fix,GT,37.4863716,-122.197399,,25.45715,0.1,98.90335,1593048905432
Fix,GT,37.4863375,-122.1971145,,25.43864,0.1,98.70389,1593048906432
Fix,GT,37.4863034,-122.19683,,25.439018,0.1,98.96893,1593048907432
Fix,GT,37.486268,-122.1965459,,25.403389,0.1,99.3212,1593048908432
Fix,GT,37.4862317,-122.1962627,,25.301006,0.1,99.48038,1593048909432
Fix,GT,37.4861949,-122.1959811,,25.171722,0.1,99.66867,1593048910432
Fix,GT,37.486158,-122.1957011,,25.058342,0.1,99.59097,1593048911432
Fix,GT,37.4861217,-122.1954207,,25.290049,0.1,99.27701,1593048912432
Fix,GT,37.486086,-122.1951346,,25.96334,0.1,99.086975,1593048913432
Fix,GT,37.4860502,-122.1948412,,26.467335,0.1,98.75641,1593048914432
Fix,GT,37.4860152,-122.1945446,,26.4762,0.1,98.601135,1593048915432
Fix,GT,37.4859803,-122.1942485,,26.532574,0.1,98.77338,1593048916432
Fix,GT,37.4859443,-122.1939493,,27.038849,0.1,98.87378,1593048917432
Fix,GT,37.4859072,-122.1936438,,27.60881,0.1,98.99011,1593048918432
Fix,GT,37.4858688,-122.193333,,27.980293,0.1,99.13678,1593048919432
Fix,GT,37.4858293,-122.1930199,,28.026173,0.1,99.414154,1593048920432
Fix,GT,37.4857889,-122.1927086,,27.735111,0.1,99.572174,1593048921432
Fix,GT,37.485749,-122.192401,,27.389248,0.1,99.31015,1593048922432
Fix,GT,37.4857109,-122.1920971,,27.045263,0.1,99.02234,1593048923432
Fix,GT,37.485674,-122.1917966,,26.763678,0.1,98.938934,1593048924432
Fix,GT,37.4856377,-122.1914976,,26.814919,0.1,98.809326,1593048925432
Fix,GT,37.4856018,-122.1911959,,27.20282,0.1,98.69049,1593048926432
Fix,GT,37.4855655,-122.1908889,,27.702637,0.1,98.6698,1593048927432
Fix,GT,37.4855289,-122.1905761,,28.211887,0.1,98.61932,1593048928432
Fix,GT,37.4854913,-122.1902581,,28.63671,0.1,98.86133,1593048929432
Fix,GT,37.4854516,-122.1899363,,28.937044,0.1,99.30353,1593048930432
Fix,GT,37.4854095,-122.1896121,,29.136177,0.1,99.75015,1593048931432
Fix,GT,37.4853653,-122.1892868,,29.191639,0.1,100.233246,1593048932432
Fix,GT,37.4853188,-122.1889622,,29.157265,0.1,100.6557,1593048933432
Fix,GT,37.4852705,-122.1886377,,29.267883,0.1,101.071014,1593048934432
Fix,GT,37.4852198,-122.1883114,,29.515703,0.1,101.62909,1593048935432
Fix,GT,37.4851656,-122.1879839,,29.646103,0.1,102.400085,1593048936432
Fix,GT,37.4851076,-122.1876563,,29.705915,0.1,103.20166,1593048937432
Fix,GT,37.4850462,-122.1873291,,29.741568,0.1,103.77359,1593048938432
Fix,GT,37.4849825,-122.1870023,,29.74243,0.1,104.21661,1593048939432
Fix,GT,37.484917,-122.1866765,,29.72723,0.1,104.57684,1593048940432
Fix,GT,37.48485,-122.1863508,,29.780594,0.1,104.80011,1593048941432
Fix,GT,37.4847818,-122.1860245,,29.893764,0.1,105.16846,1593048942432
Fix,GT,37.4847109,-122.1856978,,29.982355,0.1,105.84668,1593048943432
Fix,GT,37.4846367,-122.1853717,,29.987532,0.1,106.58774,1593048944432
Fix,GT,37.4845592,-122.1850475,,29.873585,0.1,107.31317,1593048945432
Fix,GT,37.4844792,-122.1847262,,29.702337,0.1,107.944275,1593048946432
Fix,GT,37.4843966,-122.1844075,,29.535625,0.1,108.648254,1593048947432
Fix,GT,37.4843112,-122.1840925,,29.327618,0.1,109.47992,1593048948432
Fix,GT,37.484223,-122.183781,,29.17235,0.1,110.181244,1593048949432
Fix,GT,37.4841323,-122.1834718,,29.09676,0.1,110.7359,1593048950432
Fix,GT,37.48404,-122.1831655,,28.698395,0.1,111.10901,1593048951432
Fix,GT,37.4839492,-122.1828684,,27.421724,0.1,111.38269,1593048952432
Fix,GT,37.4838625,-122.1825892,,25.642464,0.1,111.732025,1593048953432
Fix,GT,37.4837792,-122.1823262,,24.536293,0.1,112.126526,1593048954432
Fix,GT,37.4836967,-122.1820711,,24.18095,0.1,112.59741,1593048955432
Fix,GT,37.4836132,-122.1818204,,23.886364,0.1,113.31369,1593048956432
Fix,GT,37.483528,-122.1815741,,23.618458,0.1,114.06329,1593048957432
Fix,GT,37.4834414,-122.1813307,,23.610931,0.1,114.46585,1593048958432
Fix,GT,37.4833533,-122.1810856,,24.023592,0.1,114.55884,1593048959432
Fix,GT,37.4832626,-122.1808353,,24.597706,0.1,114.79907,1593048960432
Fix,GT,37.4831684,-122.1805806,,25.072327,0.1,115.49963,1593048961432
Fix,GT,37.4830696,-122.1803234,,25.395275,0.1,116.45035,1593048962432
Fix,GT,37.4829666,-122.1800658,,25.549324,0.1,117.29718,1593048963432
Fix,GT,37.4828603,-122.1798093,,25.601795,0.1,118.11691,1593048964432
Fix,GT,37.4827507,-122.1795538,,25.766293,0.1,118.98593,1593048965432
Fix,GT,37.4826367,-122.179299,,25.869362,0.1,120.05942,1593048966432
Fix,GT,37.4825191,-122.179047,,25.78695,0.1,121.13388,1593048967432
Fix,GT,37.4823985,-122.1787982,,25.699577,0.1,122.019684,1593048968432
Fix,GT,37.4822755,-122.1785532,,25.461342,0.1,122.8811,1593048969432
Fix,GT,37.482152,-122.1783139,,24.92295,0.1,123.43823,1593048970432
Fix,GT,37.4820295,-122.178081,,24.455395,0.1,123.92154,1593048971432
Fix,GT,37.4819074,-122.1778531,,24.149574,0.1,124.31094,1593048972432
Fix,GT,37.4817855,-122.1776288,,23.875923,0.1,124.69,1593048973432
Fix,GT,37.4816632,-122.1774074,,23.833881,0.1,125.23312,1593048974432
Fix,GT,37.4815389,-122.1771858,,24.146488,0.1,125.474945,1593048975432
Fix,GT,37.4814119,-122.176961,,24.578613,0.1,125.71051,1593048976432
Fix,GT,37.4812819,-122.1767336,,24.893824,0.1,126.07825,1593048977432
Fix,GT,37.4811494,-122.1765046,,25.16531,0.1,126.349304,1593048978432
Fix,GT,37.4810148,-122.1762733,,25.514183,0.1,126.38193,1593048979432
Fix,GT,37.4808786,-122.1760385,,25.85726,0.1,126.16327,1593048980432
Fix,GT,37.4807415,-122.1757998,,26.190344,0.1,125.933624,1593048981432
Fix,GT,37.4806033,-122.1755582,,26.374907,0.1,125.97363,1593048982432
Fix,GT,37.4804639,-122.1753165,,26.360336,0.1,126.369934,1593048983432
Fix,GT,37.4803233,-122.1750765,,26.348772,0.1,126.72949,1593048984432
Fix,GT,37.480182,-122.1748367,,26.428787,0.1,126.65039,1593048985432
Fix,GT,37.4800406,-122.174595,,26.623112,0.1,126.47272,1593048986432
Fix,GT,37.4798985,-122.1743513,,26.761814,0.1,126.422485,1593048987432
Fix,GT,37.479756,-122.1741065,,26.87387,0.1,126.40817,1593048988432
Fix,GT,37.4796127,-122.1738604,,27.065125,0.1,126.39621,1593048989432
Fix,GT,37.4794685,-122.1736125,,27.206707,0.1,126.33917,1593048990432
Fix,GT,37.4793243,-122.1733636,,27.232182,0.1,126.229614,1593048991432
Fix,GT,37.4791807,-122.1731144,,27.170486,0.1,126.08292,1593048992432
Fix,GT,37.4790377,-122.172865,,27.23093,0.1,125.97061,1593048993432
Fix,GT,37.4788937,-122.1726142,,27.453888,0.1,126.12952,1593048994432
Fix,GT,37.4787477,-122.172362,,27.714645,0.1,126.45953,1593048995432
Fix,GT,37.4785989,-122.1721087,,27.938461,0.1,126.86252,1593048996432
Fix,GT,37.4784481,-122.1718551,,27.992188,0.1,127.07721,1593048997432
Fix,GT,37.4782976,-122.1716028,,27.742601,0.1,126.92154,1593048998432
Fix,GT,37.47815,-122.1713528,,27.293797,0.1,126.671936,1593048999432
Fix,GT,37.4780057,-122.1711063,,26.792904,0.1,126.46542,1593049000432
Fix,GT,37.4778645,-122.170864,,26.296906,0.1,126.43057,1593049001432
Fix,GT,37.4777256,-122.1706262,,25.914875,0.1,126.621704,1593049002432
Fix,GT,37.4775873,-122.1703911,,25.889,0.1,126.63138,1593049003432
Fix,GT,37.4774485,-122.1701537,,26.276917,0.1,126.28638,1593049004432
Fix,GT,37.4773082,-122.1699105,,26.812656,0.1,126.023895,1593049005432
Fix,GT,37.477166,-122.1696619,,27.330935,0.1,125.82501,1593049006432
Fix,GT,37.4770216,-122.1694085,,27.776108,0.1,125.79593,1593049007432
Fix,GT,37.4768752,-122.1691508,,28.202549,0.1,125.71338,1593049008432
Fix,GT,37.476727,-122.168889,,28.613804,0.1,125.56122,1593049009432
