MessageType,Provider,LatitudeDegrees,LongitudeDegrees,AltitudeMeters,SpeedMps,AccuracyMeters,BearingDegrees,UnixTimeMillis
Fix,GT,37.4282827,-122.072535,,0.019191083,0.1,238.76546,1593045252440
Fix,GT,37.4282828,-122.0725351,,0.025371335,0.1,238.76532,1593045253440
Fix,GT,37.4282829,-122.0725353,,0.03409365,0.1,238.76053,1593045254440
Fix,GT,37.4282816,-122.0725376,,0.5119489,0.1,237.57797,1593045255440
Fix,GT,37.4282757,-122.0725463,,1.4988757,0.1,234.02328,1593045256440
Fix,GT,37.4282669,-122.0725648,,2.2896976,0.1,237.00328,1593045257440
Fix,GT,37.4282642,-122.0725949,,3.0582821,0.1,256.69952,1593045258440
Fix,GT,37.428276,-122.0726327,,4.275374,0.1,285.03574,1593045259440
Fix,GT,37.4283022,-122.0726798,,6.0959067,0.1,302.65643,1593045260440
Fix,GT,37.4283358,-122.0727471,,7.8944025,0.1,300.4829,1593045261440
Fix,GT,37.4283644,-122.0728376,,9.264551,0.1,288.5817,1593045262440
Fix,GT,37.4283797,-122.0729469,,10.428449,0.1,277.26334,1593045263440
Fix,GT,37.4283836,-122.0730707,,11.499556,0.1,271.1109,1593045264440
Fix,GT,37.4283821,-122.0732062,,12.46707,0.1,269.0235,1593045265440
Fix,GT,37.4283799,-122.0733522,,13.346298,0.1,269.13892,1593045266440
Fix,GT,37.4283785,-122.0735081,,14.271326,0.1,269.72562,1593045267440
Fix,GT,37.4283776,-122.073673,,14.8566,0.1,269.87082,1593045268440
Fix,GT,37.4283771,-122.0738413,,14.905516,0.1,269.9347,1593045269440
Fix,GT,37.4283763,-122.0740107,,15.129341,0.1,269.82318,1593045270440
Fix,GT,37.4283754,-122.0741843,,15.613211,0.1,269.6875,1593045271440
Fix,GT,37.4283743,-122.0743628,,15.975421,0.1,269.79755,1593045272440
Fix,GT,37.4283737,-122.0745457,,16.466522,0.1,270.07074,1593045273440
Fix,GT,37.4283742,-122.0747353,,17.091047,0.1,270.4233,1593045274440
Fix,GT,37.4283754,-122.0749317,,17.672464,0.1,270.6445,1593045275440
Fix,GT,37.4283766,-122.0751336,,18.011417,0.1,270.56293,1593045276440
Fix,GT,37.4283776,-122.0753374,,18.02519,0.1,270.51166,1593045277440
Fix,GT,37.4283785,-122.0755404,,17.913834,0.1,270.48413,1593045278440
Fix,GT,37.4283791,-122.075742,,17.780092,0.1,270.3422,1593045279440
Fix,GT,37.4283795,-122.0759417,,17.56916,0.1,270.13904,1593045280440
Fix,GT,37.4283779,-122.076139,,17.360151,0.1,268.86896,1593045281440
Fix,GT,37.4283696,-122.0763343,,17.275858,0.1,265.467,1593045282440
Fix,GT,37.4283497,-122.076528,,17.314089,0.1,260.66486,1593045283440
Fix,GT,37.4283167,-122.0767191,,17.288055,0.1,256.12646,1593045284440
Fix,GT,37.4282746,-122.0769059,,17.021667,0.1,253.27983,1593045285440
Fix,GT,37.4282293,-122.077086,,16.349403,0.1,252.48137,1593045286440
Fix,GT,37.4281871,-122.0772576,,15.399706,0.1,253.88907,1593045287440
Fix,GT,37.4281544,-122.0774204,,14.33555,0.1,258.03058,1593045288440
Fix,GT,37.4281346,-122.0775725,,12.933742,0.1,262.961,1593045289440
Fix,GT,37.4281252,-122.0777075,,11.0056095,0.1,266.59387,1593045290440
Fix,GT,37.4281218,-122.0778187,,8.63268,0.1,268.7196,1593045291440
Fix,GT,37.4281208,-122.077903,,6.4792004,0.1,269.85922,1593045292440
Fix,GT,37.4281194,-122.0779693,,5.5202513,0.1,268.0551,1593045293440
Fix,GT,37.4281105,-122.0780319,,5.759493,0.1,257.94067,1593045294440
Fix,GT,37.4280847,-122.0780922,,6.4308662,0.1,239.1228,1593045295440
Fix,GT,37.4280383,-122.078143,,7.3613863,0.1,218.26172,1593045296440
Fix,GT,37.4279721,-122.0781788,,8.755638,0.1,200.46448,1593045297440
Fix,GT,37.4278874,-122.0781968,,10.396501,0.1,187.59018,1593045298440
Fix,GT,37.4277865,-122.0782009,,11.992044,0.1,180.50302,1593045299440
Fix,GT,37.4276719,-122.0781965,,13.399967,0.1,177.78528,1593045300440
Fix,GT,37.4275464,-122.0781865,,14.416056,0.1,175.97083,1593045301440
Fix,GT,37.4274142,-122.0781708,,15.007616,0.1,174.20514,1593045302440
Fix,GT,37.4272778,-122.0781506,,15.490432,0.1,173.20135,1593045303440
Fix,GT,37.4271364,-122.0781294,,16.159706,0.1,173.77844,1593045304440
Fix,GT,37.4269879,-122.0781108,,16.971384,0.1,174.99951,1593045305440
Fix,GT,37.4268322,-122.0780958,,17.653358,0.1,176.33508,1593045306440
Fix,GT,37.4266712,-122.0780854,,18.128244,0.1,177.85858,1593045307440
Fix,GT,37.4265063,-122.0780802,,18.471085,0.1,179.26349,1593045308440
Fix,GT,37.4263386,-122.0780794,,18.771526,0.1,180.30054,1593045309440
Fix,GT,37.4261679,-122.0780823,,19.11908,0.1,181.41107,1593045310440
Fix,GT,37.4259944,-122.0780899,,19.399935,0.1,182.60641,1593045311440
Fix,GT,37.4258197,-122.0781017,,19.319843,0.1,183.58455,1593045312440
Fix,GT,37.4256488,-122.0781156,,18.518185,0.1,183.88986,1593045313440
Fix,GT,37.4254894,-122.078128,,16.75827,0.1,183.32465,1593045314440
Fix,GT,37.4253491,-122.0781365,,14.343398,0.1,182.58295,1593045315440
Fix,GT,37.4252317,-122.0781421,,11.725508,0.1,182.17746,1593045316440
Fix,GT,37.425138,-122.0781459,,9.089846,0.1,181.79358,1593045317440
Fix,GT,37.4250661,-122.078148,,6.879353,0.1,181.16534,1593045318440
Fix,GT,37.4250127,-122.0781488,,4.9540176,0.1,180.5149,1593045319440
Fix,GT,37.4249774,-122.0781487,,2.9809053,0.1,179.96855,1593045320440
Fix,GT,37.4249576,-122.0781483,,1.5244132,0.1,179.68109,1593045321440
Fix,GT,37.4249483,-122.0781482,,0.56113946,0.1,179.6189,1593045322440
Fix,GT,37.424946,-122.0781482,,0.04403263,0.1,179.6062,1593045323440
Fix,GT,37.424946,-122.0781482,,0.0016910203,0.1,179.607,1593045324440
Fix,GT,37.424946,-122.0781482,,0.001,0.1,179.6062,1593045325440
Fix,GT,37.424946,-122.0781482,,0.001,0.1,179.60565,1593045326440
Fix,GT,37.4249459,-122.0781481,,0.00055904716,0.1,179.60571,1593045327440
Fix,GT,37.4249453,-122.0781481,,0.16315316,0.1,179.60114,1593045328440
Fix,GT,37.4249436,-122.0781481,,0.26196727,0.1,179.58893,1593045329440
Fix,GT,37.4249421,-122.0781481,,0.10295236,0.1,179.58258,1593045330440
Fix,GT,37.4249414,-122.0781481,,0.09660846,0.1,179.57825,1593045331440
Fix,GT,37.4249405,-122.0781481,,0.1292953,0.1,179.57031,1593045332440
Fix,GT,37.4249386,-122.0781481,,0.37103283,0.1,179.55688,1593045333440
Fix,GT,37.4249323,-122.0781479,,1.1920042,0.1,179.22223,1593045334440
Fix,GT,37.4249154,-122.0781469,,2.701955,0.1,178.25488,1593045335440
Fix,GT,37.4248826,-122.0781449,,4.6375704,0.1,177.61792,1593045336440
Fix,GT,37.4248306,-122.0781428,,6.930625,0.1,178.27808,1593045337440
Fix,GT,37.4247567,-122.0781412,,9.333754,0.1,179.23682,1593045338440
Fix,GT,37.4246644,-122.0781398,,11.100033,0.1,179.26648,1593045339440
Fix,GT,37.4245586,-122.0781368,,12.412238,0.1,178.38922,1593045340440
Fix,GT,37.4244423,-122.078131,,13.354223,0.1,177.40295,1593045341440
Fix,GT,37.4243192,-122.0781226,,13.956203,0.1,176.57776,1593045342440
Fix,GT,37.4241925,-122.0781119,,14.138527,0.1,175.66516,1593045343440
Fix,GT,37.4240663,-122.0780989,,13.860289,0.1,175.15125,1593045344440
Fix,GT,37.423944,-122.0780862,,13.325696,0.1,175.37024,1593045345440
Fix,GT,37.423828,-122.0780756,,12.47542,0.1,175.93713,1593045346440
Fix,GT,37.4237215,-122.0780674,,11.123671,0.1,176.6535,1593045347440
Fix,GT,37.4236285,-122.0780642,,9.521616,0.1,179.71326,1593045348440
Fix,GT,37.4235499,-122.0780734,,8.287834,0.1,188.71799,1593045349440
Fix,GT,37.4234845,-122.0781056,,7.7137413,0.1,206.91852,1593045350440
Fix,GT,37.4234384,-122.0781665,,7.757395,0.1,232.75667,1593045351440
Fix,GT,37.4234161,-122.0782505,,8.510879,0.1,255.95169,1593045352440
Fix,GT,37.4234097,-122.0783534,,9.983982,0.1,267.22308,1593045353440
Fix,GT,37.4234071,-122.0784759,,11.708172,0.1,268.50507,1593045354440
Fix,GT,37.4234032,-122.0786176,,13.38023,0.1,268.015,1593045355440
Fix,GT,37.4233977,-122.0787778,,14.969523,0.1,267.54437,1593045356440
Fix,GT,37.423391,-122.0789541,,16.254986,0.1,267.30157,1593045357440
Fix,GT,37.4233834,-122.0791425,,17.132809,0.1,267.18152,1593045358440
Fix,GT,37.4233749,-122.0793393,,17.731247,0.1,266.7881,1593045359440
Fix,GT,37.4233642,-122.0795411,,18.059969,0.1,265.957,1593045360440
Fix,GT,37.4233506,-122.0797457,,18.28888,0.1,264.93213,1593045361440
Fix,GT,37.4233341,-122.0799527,,18.488836,0.1,264.09528,1593045362440
Fix,GT,37.4233157,-122.0801599,,18.37086,0.1,263.5622,1593045363440
Fix,GT,37.4232959,-122.0803641,,18.039938,0.1,263.0302,1593045364440
Fix,GT,37.4232757,-122.0805644,,17.696297,0.1,263.01807,1593045365440
Fix,GT,37.4232574,-122.080761,,17.377422,0.1,264.1264,1593045366440
Fix,GT,37.4232423,-122.0809546,,17.07012,0.1,264.8513,1593045367440
Fix,GT,37.423228,-122.081145,,16.794266,0.1,264.62744,1593045368440
Fix,GT,37.4232129,-122.0813323,,16.54606,0.1,264.17422,1593045369440
Fix,GT,37.4231971,-122.0815168,,16.30922,0.1,263.97913,1593045370440
Fix,GT,37.4231816,-122.0816987,,16.076023,0.1,264.14355,1593045371440
Fix,GT,37.4231665,-122.081878,,15.839895,0.1,263.92633,1593045372440
Fix,GT,37.4231503,-122.0820546,,15.639257,0.1,263.38388,1593045373440
Fix,GT,37.4231338,-122.0822296,,15.558951,0.1,263.41977,1593045374440
Fix,GT,37.4231181,-122.082404,,15.497074,0.1,264.02878,1593045375440
Fix,GT,37.4231052,-122.0825771,,15.29165,0.1,265.35217,1593045376440
Fix,GT,37.423096,-122.082748,,15.02663,0.1,266.7464,1593045377440
Fix,GT,37.4230896,-122.0829159,,14.752604,0.1,267.80902,1593045378440
Fix,GT,37.423086,-122.0830809,,14.472097,0.1,269.03268,1593045379440
Fix,GT,37.4230851,-122.0832438,,14.444862,0.1,269.98877,1593045380440
Fix,GT,37.4230856,-122.0834088,,14.832922,0.1,270.5401,1593045381440
Fix,GT,37.4230882,-122.0835798,,15.446489,0.1,271.6496,1593045382440
Fix,GT,37.4230943,-122.083758,,16.121347,0.1,273.1722,1593045383440
Fix,GT,37.4231042,-122.0839431,,16.742044,0.1,274.3295,1593045384440
Fix,GT,37.4231172,-122.0841354,,17.432173,0.1,275.37714,1593045385440
Fix,GT,37.4231338,-122.0843348,,18.00555,0.1,276.58792,1593045386440
Fix,GT,37.4231541,-122.0845387,,18.336956,0.1,277.5401,1593045387440
Fix,GT,37.4231769,-122.084745,,18.534828,0.1,278.26065,1593045388440
Fix,GT,37.4232019,-122.0849529,,18.639359,0.1,279.02896,1593045389440
Fix,GT,37.4232294,-122.0851603,,18.556465,0.1,279.90994,1593045390440
Fix,GT,37.4232587,-122.085365,,18.239164,0.1,280.49042,1593045391440
Fix,GT,37.4232892,-122.0855654,,17.899141,0.1,281.4786,1593045392440
Fix,GT,37.4233231,-122.0857618,,17.73584,0.1,283.15906,1593045393440
Fix,GT,37.4233608,-122.0859556,,17.58844,0.1,284.18976,1593045394440
Fix,GT,37.4233998,-122.0861473,,17.446844,0.1,284.58728,1593045395440
Fix,GT,37.4234394,-122.0863379,,17.460049,0.1,284.80127,1593045396440
Fix,GT,37.4234795,-122.0865296,,17.652178,0.1,284.82867,1593045397440
Fix,GT,37.4235199,-122.0867238,,17.892681,0.1,284.75797,1593045398440
Fix,GT,37.4235609,-122.0869209,,18.162611,0.1,284.66373,1593045399440
Fix,GT,37.4236022,-122.0871214,,18.505741,0.1,284.57184,1593045400440
Fix,GT,37.4236442,-122.087326,,18.905891,0.1,284.5333,1593045401440
Fix,GT,37.4236869,-122.0875352,,19.328594,0.1,284.52838,1593045402440
Fix,GT,37.4237306,-122.0877486,,19.623808,0.1,284.58682,1593045403440
Fix,GT,37.4237749,-122.0879639,,19.671486,0.1,284.60565,1593045404440
Fix,GT,37.4238184,-122.0881786,,19.527754,0.1,284.2308,1593045405440
Fix,GT,37.4238598,-122.0883912,,19.17458,0.1,283.65002,1593045406440
Fix,GT,37.4238988,-122.0885986,,18.486105,0.1,283.33304,1593045407440
Fix,GT,37.4239349,-122.0887972,,17.517496,0.1,282.6192,1593045408440
Fix,GT,37.4239647,-122.0889848,,16.313065,0.1,280.0598,1593045409440
Fix,GT,37.4239832,-122.0891597,,14.8959675,0.1,275.5864,1593045410440
Fix,GT,37.4239895,-122.0893192,,13.369362,0.1,271.08655,1593045411440
Fix,GT,37.4239869,-122.0894611,,11.8632965,0.1,267.31668,1593045412440
Fix,GT,37.423977,-122.0895885,,10.904678,0.1,262.6373,1593045413440
Fix,GT,37.4239586,-122.0897063,,10.32608,0.1,257.099,1593045414440
Fix,GT,37.4239354,-122.0898141,,9.353168,0.1,254.65674,1593045415440
Fix,GT,37.4239192,-122.0899105,,8.162901,0.1,260.99756,1593045416440
Fix,GT,37.4239221,-122.0899957,,7.3168254,0.1,277.61072,1593045417440
Fix,GT,37.4239482,-122.0900668,,7.049816,0.1,300.04767,1593045418440
Fix,GT,37.4239946,-122.0901214,,7.5713005,0.1,319.90283,1593045419440
Fix,GT,37.4240558,-122.0901705,,8.6793785,0.1,328.14523,1593045420440
Fix,GT,37.4241267,-122.0902271,,9.980444,0.1,327.11203,1593045421440
Fix,GT,37.4242054,-122.0902965,,11.343668,0.1,323.93115,1593045422440
Fix,GT,37.4242892,-122.0903807,,12.38809,0.1,320.03635,1593045423440
Fix,GT,37.4243736,-122.0904792,,13.169088,0.1,315.53073,1593045424440
Fix,GT,37.4244552,-122.0905923,,13.788616,0.1,310.25858,1593045425440
Fix,GT,37.4245309,-122.0907182,,14.079047,0.1,305.27658,1593045426440
Fix,GT,37.4245986,-122.0908535,,14.19153,0.1,300.20236,1593045427440
Fix,GT,37.4246566,-122.0909974,,14.389341,0.1,294.8327,1593045428440
Fix,GT,37.4247044,-122.0911489,,14.439897,0.1,289.74268,1593045429440
Fix,GT,37.4247428,-122.0913036,,14.231716,0.1,286.1712,1593045430440
Fix,GT,37.4247755,-122.0914575,,13.933829,0.1,284.53088,1593045431440
Fix,GT,37.424806,-122.091609,,13.791398,0.1,284.3175,1593045432440
Fix,GT,37.4248372,-122.0917611,,14.112837,0.1,284.90024,1593045433440
Fix,GT,37.4248717,-122.0919178,,14.691544,0.1,286.26752,1593045434440
Fix,GT,37.4249119,-122.0920789,,15.157923,0.1,288.2672,1593045435440
Fix,GT,37.4249573,-122.0922413,,15.287638,0.1,290.22003,1593045436440
Fix,GT,37.4250073,-122.0924015,,15.1681385,0.1,292.33536,1593045437440
Fix,GT,37.4250617,-122.0925578,,15.050191,0.1,294.50986,1593045438440
Fix,GT,37.42512,-122.0927104,,14.906956,0.1,296.4007,1593045439440
Fix,GT,37.4251817,-122.0928595,,14.835707,0.1,298.264,1593045440440
Fix,GT,37.4252474,-122.0930058,,14.9354315,0.1,300.3142,1593045441440
Fix,GT,37.4253184,-122.0931501,,15.0709305,0.1,302.72592,1593045442440
Fix,GT,37.4253946,-122.0932909,,14.99864,0.1,305.13055,1593045443440
Fix,GT,37.4254732,-122.0934268,,14.751398,0.1,306.5005,1593045444440
Fix,GT,37.4255528,-122.0935583,,14.481287,0.1,307.87665,1593045445440
Fix,GT,37.4256345,-122.0936841,,14.238733,0.1,309.89337,1593045446440
Fix,GT,37.4257169,-122.093804,,13.764402,0.1,311.17776,1593045447440
Fix,GT,37.4257977,-122.0939172,,13.153645,0.1,312.38605,1593045448440
Fix,GT,37.4258783,-122.0940239,,12.967537,0.1,314.19916,1593045449440
Fix,GT,37.4259625,-122.0941277,,13.327202,0.1,316.3651,1593045450440
Fix,GT,37.4260536,-122.0942306,,13.900604,0.1,319.0105,1593045451440
Fix,GT,37.4261521,-122.0943323,,14.416202,0.1,321.45612,1593045452440
Fix,GT,37.4262564,-122.0944334,,14.82862,0.1,322.92517,1593045453440
Fix,GT,37.4263644,-122.094534,,14.995125,0.1,323.74298,1593045454440
Fix,GT,37.4264745,-122.0946333,,15.102573,0.1,325.03665,1593045455440
Fix,GT,37.4265878,-122.0947275,,15.058391,0.1,327.93283,1593045456440
Fix,GT,37.4267031,-122.0948116,,14.465084,0.1,331.28964,1593045457440
Fix,GT,37.4268155,-122.0948855,,13.705483,0.1,333.04236,1593045458440
Fix,GT,37.426923,-122.0949539,,13.062787,0.1,333.05783,1593045459440
Fix,GT,37.4270238,-122.0950215,,12.349515,0.1,331.08615,1593045460440
Fix,GT,37.4271171,-122.0950918,,12.000145,0.1,328.0564,1593045461440
Fix,GT,37.4272077,-122.0951686,,12.369998,0.1,325.08224,1593045462440
Fix,GT,37.427299,-122.0952556,,13.057629,0.1,321.60336,1593045463440
Fix,GT,37.4273897,-122.0953547,,13.551791,0.1,317.55362,1593045464440
Fix,GT,37.4274763,-122.0954649,,13.774729,0.1,313.03638,1593045465440
Fix,GT,37.4275562,-122.0955839,,13.7121105,0.1,308.5668,1593045466440
Fix,GT,37.4276282,-122.0957079,,13.41876,0.1,304.8205,1593045467440
Fix,GT,37.4276924,-122.0958352,,13.299749,0.1,301.09158,1593045468440
Fix,GT,37.427749,-122.095968,,13.372945,0.1,296.60602,1593045469440
Fix,GT,37.4277975,-122.0961064,,13.398312,0.1,292.37964,1593045470440
Fix,GT,37.4278383,-122.09625,,13.592733,0.1,288.25317,1593045471440
Fix,GT,37.4278711,-122.0963993,,13.729095,0.1,284.01096,1593045472440
Fix,GT,37.4278951,-122.096551,,13.629377,0.1,279.90784,1593045473440
Fix,GT,37.4279103,-122.0967034,,13.572594,0.1,275.62527,1593045474440
Fix,GT,37.4279163,-122.096856,,13.435255,0.1,271.43008,1593045475440
Fix,GT,37.4279137,-122.0970062,,13.160042,0.1,267.34738,1593045476440
Fix,GT,37.4279024,-122.0971525,,12.677593,0.1,262.92804,1593045477440
Fix,GT,37.427884,-122.0972882,,11.500113,0.1,259.2638,1593045478440
Fix,GT,37.4278636,-122.0974073,,10.023168,0.1,257.63876,1593045479440
Fix,GT,37.4278449,-122.0975113,,8.830272,0.1,257.5711,1593045480440
Fix,GT,37.4278287,-122.0976041,,8.070055,0.1,258.00784,1593045481440
Fix,GT,37.4278133,-122.0976924,,7.956774,0.1,257.57294,1593045482440
Fix,GT,37.4277973,-122.09778,,7.9812174,0.1,257.12735,1593045483440
Fix,GT,37.4277807,-122.0978692,,8.282913,0.1,257.0608,1593045484440
Fix,GT,37.4277636,-122.097963,,8.761681,0.1,257.34122,1593045485440
Fix,GT,37.4277471,-122.0980625,,9.25481,0.1,258.6966,1593045486440
Fix,GT,37.4277318,-122.0981685,,9.890902,0.1,259.93985,1593045487440
Fix,GT,37.4277151,-122.098283,,10.703815,0.1,259.53745,1593045488440
Fix,GT,37.4276963,-122.0984061,,11.424049,0.1,259.0809,1593045489440
Fix,GT,37.4276757,-122.0985352,,11.832029,0.1,258.6077,1593045490440
Fix,GT,37.427654,-122.0986664,,11.78001,0.1,258.23206,1593045491440
Fix,GT,37.4276325,-122.0987937,,11.125359,0.1,257.90802,1593045492440
Fix,GT,37.4276123,-122.0989106,,9.976204,0.1,257.55923,1593045493440
Fix,GT,37.4275941,-122.0990133,,8.633993,0.1,257.29233,1593045494440
Fix,GT,37.4275783,-122.0991005,,7.16722,0.1,257.02563,1593045495440
Fix,GT,37.4275659,-122.099169,,5.131193,0.1,257.0655,1593045496440
Fix,GT,37.4275579,-122.0992154,,3.33984,0.1,257.42783,1593045497440
Fix,GT,37.4275526,-122.0992488,,2.8447065,0.1,257.78265,1593045498440
Fix,GT,37.4275483,-122.099281,,3.0517964,0.1,259.38803,1593045499440
Fix,GT,37.4275477,-122.0993186,,3.69451,0.1,266.78345,1593045500440
Fix,GT,37.4275571,-122.0993639,,4.706677,0.1,283.2149,1593045501440
Fix,GT,37.4275842,-122.0994116,,5.8554845,0.1,305.81247,1593045502440
Fix,GT,37.4276319,-122.0994512,,7.217942,0.1,328.2525,1593045503440
Fix,GT,37.4276982,-122.0994829,,8.739379,0.1,340.52228,1593045504440
Fix,GT,37.4277795,-122.0995166,,10.223769,0.1,341.5403,1593045505440
Fix,GT,37.427873,-122.0995579,,11.745838,0.1,340.36224,1593045506440
Fix,GT,37.4279784,-122.0996061,,13.100309,0.1,339.95123,1593045507440
Fix,GT,37.4280948,-122.0996592,,14.333828,0.1,340.1678,1593045508440
Fix,GT,37.4282208,-122.0997157,,15.395493,0.1,340.41486,1593045509440
Fix,GT,37.4283548,-122.0997758,,16.165375,0.1,340.59048,1593045510440
Fix,GT,37.4284935,-122.0998371,,16.426035,0.1,340.94266,1593045511440
Fix,GT,37.4286333,-122.0998971,,16.444424,0.1,341.4325,1593045512440
Fix,GT,37.428775,-122.0999563,,16.735046,0.1,341.87418,1593045513440
Fix,GT,37.4289196,-122.1000158,,17.053925,0.1,342.01642,1593045514440
Fix,GT,37.4290663,-122.1000762,,17.190052,0.1,341.81848,1593045515440
Fix,GT,37.4292129,-122.1001376,,17.016014,0.1,341.4408,1593045516440
Fix,GT,37.4293556,-122.1001987,,16.36714,0.1,341.03162,1593045517440
Fix,GT,37.4294908,-122.1002569,,15.330971,0.1,341.33224,1593045518440
Fix,GT,37.4296177,-122.1003085,,14.333256,0.1,342.7541,1593045519440
Fix,GT,37.4297387,-122.1003507,,13.658493,0.1,346.04755,1593045520440
Fix,GT,37.4298574,-122.1003774,,13.161192,0.1,352.8688,1593045521440
Fix,GT,37.4299723,-122.1003813,,12.51195,0.1,2.3043823,1593045522440
Fix,GT,37.4300804,-122.1003621,,11.990646,0.1,11.593323,1593045523440
Fix,GT,37.430184,-122.1003255,,12.0726185,0.1,17.872498,1593045524440
Fix,GT,37.4302882,-122.1002792,,12.467876,0.1,20.324371,1593045525440
Fix,GT,37.4303929,-122.1002286,,12.282465,0.1,21.553375,1593045526440
Fix,GT,37.4304928,-122.1001814,,11.260741,0.1,19.546936,1593045527440
Fix,GT,37.4305863,-122.1001527,,10.128822,0.1,9.402771,1593045528440
Fix,GT,37.430673,-122.1001549,,9.297346,0.1,353.0707,1593045529440
Fix,GT,37.4307474,-122.1001868,,8.265301,0.1,335.12033,1593045530440
Fix,GT,37.4308035,-122.1002376,,7.278115,0.1,320.71533,1593045531440
Fix,GT,37.4308488,-122.100293,,6.9875965,0.1,315.8228,1593045532440
Fix,GT,37.430897,-122.1003448,,7.152527,0.1,321.32928,1593045533440
Fix,GT,37.4309546,-122.1003815,,7.4020023,0.1,336.85715,1593045534440
Fix,GT,37.4310203,-122.1003969,,7.719114,0.1,352.6163,1593045535440
Fix,GT,37.4310925,-122.1003978,,8.454658,0.1,0.80810547,1593045536440
Fix,GT,37.4311734,-122.1003919,,9.557922,0.1,3.6634521,1593045537440
Fix,GT,37.4312644,-122.100384,,10.629669,0.1,3.8840942,1593045538440
Fix,GT,37.431364,-122.1003756,,11.461956,0.1,3.848297,1593045539440
Fix,GT,37.4314689,-122.1003649,,11.870005,0.1,4.9811096,1593045540440
Fix,GT,37.4315748,-122.100351,,11.76075,0.1,6.363556,1593045541440
Fix,GT,37.4316797,-122.1003356,,11.744666,0.1,6.5189514,1593045542440
Fix,GT,37.4317857,-122.1003202,,11.933716,0.1,6.5076294,1593045543440
Fix,GT,37.4318919,-122.100304,,11.690756,0.1,6.9944763,1593045544440
Fix,GT,37.431993,-122.1002865,,10.843399,0.1,7.9079895,1593045545440
Fix,GT,37.4320832,-122.100265,,9.558027,0.1,12.689728,1593045546440
Fix,GT,37.4321571,-122.1002278,,8.452494,0.1,27.286469,1593045547440
Fix,GT,37.432209,-122.1001666,,8.010835,0.1,49.630432,1593045548440
Fix,GT,37.4322358,-122.1000846,,8.2894535,0.1,72.99817,1593045549440
Fix,GT,37.4322397,-122.0999869,,9.368973,0.1,90.58792,1593045550440
Fix,GT,37.4322296,-122.0998745,,10.731697,0.1,97.79761,1593045551440
Fix,GT,37.4322144,-122.0997473,,12.005651,0.1,98.71527,1593045552440
Fix,GT,37.4321984,-122.099607,,13.050121,0.1,97.96619,1593045553440
Fix,GT,37.4321835,-122.0994564,,13.812775,0.1,96.75305,1593045554440
Fix,GT,37.4321704,-122.0992988,,14.139279,0.1,95.888855,1593045555440
Fix,GT,37.4321583,-122.09914,,14.046006,0.1,95.63406,1593045556440
Fix,GT,37.432146,-122.0989826,,13.965876,0.1,95.82544,1593045557440
Fix,GT,37.4321331,-122.098825,,14.095423,0.1,96.07202,1593045558440
Fix,GT,37.4321195,-122.0986658,,14.225142,0.1,96.41113,1593045559440
Fix,GT,37.4321045,-122.0985064,,14.129667,0.1,97.035675,1593045560440
Fix,GT,37.4320882,-122.0983495,,13.876083,0.1,97.757935,1593045561440
Fix,GT,37.432071,-122.0981964,,13.385466,0.1,98.04477,1593045562440
Fix,GT,37.4320552,-122.0980523,,12.241276,0.1,97.33081,1593045563440
Fix,GT,37.4320451,-122.0979238,,10.540871,0.1,93.93588,1593045564440
Fix,GT,37.4320469,-122.097814,,9.002718,0.1,84.86633,1593045565440
Fix,GT,37.4320668,-122.0977224,,7.969783,0.1,69.569305,1593045566440
Fix,GT,37.4321051,-122.0976525,,7.245116,0.1,50.32489,1593045567440
Fix,GT,37.4321561,-122.097611,,6.4258103,0.1,27.249268,1593045568440
Fix,GT,37.4322072,-122.0976048,,5.188257,0.1,359.72208,1593045569440
Fix,GT,37.4322438,-122.0976299,,4.2164726,0.1,329.39517,1593045570440
Fix,GT,37.4322614,-122.09767,,3.842575,0.1,301.1142,1593045571440
Fix,GT,37.4322675,-122.0977125,,3.7913818,0.1,283.6506,1593045572440
Fix,GT,37.432271,-122.0977556,,4.0020847,0.1,277.92856,1593045573440
Fix,GT,37.4322754,-122.0978073,,5.3946633,0.1,277.0492,1593045574440
Fix,GT,37.4322822,-122.0978798,,7.542696,0.1,277.38055,1593045575440
Fix,GT,37.4322922,-122.0979741,,9.168043,0.1,278.1415,1593045576440
Fix,GT,37.4323043,-122.0980814,,9.89608,0.1,278.36148,1593045577440
Fix,GT,37.4323146,-122.0981921,,9.616798,0.1,275.53113,1593045578440
Fix,GT,37.4323137,-122.0982948,,8.462648,0.1,265.30875,1593045579440
Fix,GT,37.4322944,-122.098378,,6.978711,0.1,248.43552,1593045580440
Fix,GT,37.4322622,-122.0984347,,5.491007,0.1,230.53171,1593045581440
Fix,GT,37.4322282,-122.0984656,,3.8907201,0.1,214.29027,1593045582440
Fix,GT,37.4322006,-122.0984823,,2.863531,0.1,207.41086,1593045583440
Fix,GT,37.4321793,-122.0985042,,3.431019,0.1,217.53462,1593045584440
Fix,GT,37.4321631,-122.0985455,,5.046959,0.1,241.01175,1593045585440
Fix,GT,37.4321573,-122.0986143,,7.577844,0.1,264.11948,1593045586440
Fix,GT,37.4321637,-122.0987148,,10.338507,0.1,275.7586,1593045587440
Fix,GT,37.4321782,-122.0988444,,12.735849,0.1,278.3914,1593045588440
Fix,GT,37.4321937,-122.0989988,,14.719271,0.1,276.54443,1593045589440
Fix,GT,37.4322065,-122.0991719,,15.971865,0.1,274.7752,1593045590440
Fix,GT,37.4322176,-122.0993538,,16.142515,0.1,274.50058,1593045591440
Fix,GT,37.4322299,-122.0995312,,15.251587,0.1,275.4937,1593045592440
Fix,GT,37.4322436,-122.0996936,,13.580622,0.1,276.43866,1593045593440
Fix,GT,37.4322563,-122.0998356,,11.694208,0.1,276.43863,1593045594440
Fix,GT,37.4322663,-122.0999558,,9.657478,0.1,275.57596,1593045595440
Fix,GT,37.4322734,-122.1000508,,7.127201,0.1,275.3696,1593045596440
Fix,GT,37.432278,-122.1001154,,4.604232,0.1,275.17993,1593045597440
Fix,GT,37.4322783,-122.1001593,,3.6169825,0.1,269.9222,1593045598440
Fix,GT,37.4322676,-122.1002044,,4.8926964,0.1,254.78638,1593045599440
Fix,GT,37.432235,-122.1002582,,7.121936,0.1,231.85135,1593045600440
Fix,GT,37.4321736,-122.1003054,,9.033776,0.1,208.259,1593045601440
Fix,GT,37.4320871,-122.1003353,,10.936232,0.1,193.02165,1593045602440
Fix,GT,37.4319806,-122.1003544,,12.973394,0.1,187.74792,1593045603440
Fix,GT,37.4318559,-122.1003749,,14.843343,0.1,188.0709,1593045604440
Fix,GT,37.4317178,-122.100403,,16.06702,0.1,190.24442,1593045605440
Fix,GT,37.4315745,-122.1004394,,16.252417,0.1,192.45248,1593045606440
Fix,GT,37.4314336,-122.1004795,,15.748774,0.1,193.0116,1593045607440
Fix,GT,37.4312974,-122.100516,,15.139999,0.1,191.36627,1593045608440
Fix,GT,37.4311676,-122.100544,,14.030594,0.1,188.9278,1593045609440
Fix,GT,37.4310496,-122.1005646,,12.548036,0.1,187.69766,1593045610440
Fix,GT,37.4309413,-122.1005816,,11.954567,0.1,187.06406,1593045611440
Fix,GT,37.4308322,-122.1005971,,12.643461,0.1,186.28705,1593045612440
Fix,GT,37.4307126,-122.1006132,,14.171545,0.1,186.22392,1593045613440
Fix,GT,37.4305789,-122.1006336,,15.620603,0.1,187.64037,1593045614440
Fix,GT,37.4304357,-122.1006639,,16.528002,0.1,191.1046,1593045615440
Fix,GT,37.4302883,-122.1007099,,17.20817,0.1,195.96288,1593045616440
Fix,GT,37.4301394,-122.1007753,,17.833242,0.1,201.2281,1593045617440
Fix,GT,37.4299904,-122.1008577,,18.308891,0.1,205.11374,1593045618440
Fix,GT,37.4298424,-122.1009503,,18.29033,0.1,207.36131,1593045619440
Fix,GT,37.4296995,-122.1010484,,17.796295,0.1,209.4542,1593045620440
Fix,GT,37.4295648,-122.1011507,,17.148228,0.1,212.83125,1593045621440
Fix,GT,37.4294444,-122.1012647,,16.487125,0.1,220.7847,1593045622440
Fix,GT,37.4293477,-122.1014,,16.01881,0.1,233.69907,1593045623440
Fix,GT,37.4292837,-122.101557,,15.6584,0.1,249.56677,1593045624440
Fix,GT,37.4292589,-122.1017269,,15.503662,0.1,266.6455,1593045625440
Fix,GT,37.4292771,-122.1018982,,15.767037,0.1,284.8396,1593045626440
Fix,GT,37.4293382,-122.1020588,,16.359612,0.1,302.47485,1593045627440
Fix,GT,37.4294347,-122.1022017,,17.23595,0.1,314.5771,1593045628440
Fix,GT,37.4295527,-122.1023378,,18.608068,0.1,318.468,1593045629440
Fix,GT,37.4296836,-122.1024844,,20.50818,0.1,318.11636,1593045630440
Fix,GT,37.429827,-122.102649,,22.631119,0.1,317.37735,1593045631440
Fix,GT,37.4299826,-122.1028302,,24.459805,0.1,317.1731,1593045632440
Fix,GT,37.4301489,-122.1030234,,25.827015,0.1,317.5038,1593045633440
Fix,GT,37.430325,-122.1032238,,26.917542,0.1,318.16882,1593045634440
Fix,GT,37.4305094,-122.1034293,,27.761063,0.1,318.69452,1593045635440
Fix,GT,37.4306995,-122.1036378,,28.121952,0.1,319.15976,1593045636440
Fix,GT,37.4308913,-122.1038443,,27.910976,0.1,319.73984,1593045637440
Fix,GT,37.4310817,-122.1040468,,27.502611,0.1,319.8197,1593045638440
Fix,GT,37.4312677,-122.1042454,,26.698605,0.1,319.59338,1593045639440
Fix,GT,37.4314469,-122.1044381,,25.752987,0.1,319.2696,1593045640440
Fix,GT,37.4316201,-122.1046283,,25.481073,0.1,318.43695,1593045641440
Fix,GT,37.4317912,-122.104822,,25.822205,0.1,317.81427,1593045642440
Fix,GT,37.4319659,-122.1050194,,26.473995,0.1,318.3603,1593045643440
Fix,GT,37.4321478,-122.1052189,,27.254234,0.1,319.44147,1593045644440
Fix,GT,37.4323381,-122.1054216,,28.237719,0.1,319.97372,1593045645440
Fix,GT,37.4325363,-122.1056304,,29.259697,0.1,320.133,1593045646440
Fix,GT,37.4327412,-122.1058455,,29.94666,0.1,320.2225,1593045647440
Fix,GT,37.4329491,-122.1060632,,30.138916,0.1,320.31528,1593045648440
Fix,GT,37.4331584,-122.1062811,,30.19476,0.1,320.4245,1593045649440
Fix,GT,37.4333675,-122.1064992,,30.171404,0.1,320.27194,1593045650440
Fix,GT,37.4335758,-122.1067179,,30.105354,0.1,319.97974,1593045651440
Fix,GT,37.4337826,-122.1069365,,29.893692,0.1,320.0073,1593045652440
Fix,GT,37.4339875,-122.1071528,,29.54636,0.1,320.01263,1593045653440
Fix,GT,37.4341898,-122.1073666,,29.19199,0.1,319.99158,1593045654440
Fix,GT,37.4343898,-122.1075778,,28.857311,0.1,320.10602,1593045655440
Fix,GT,37.4345879,-122.107786,,28.529535,0.1,320.162,1593045656440
Fix,GT,37.4347839,-122.1079919,,28.218563,0.1,320.18304,1593045657440
Fix,GT,37.4349776,-122.108195,,27.856552,0.1,320.29156,1593045658440
Fix,GT,37.435169,-122.1083951,,27.473267,0.1,320.2812,1593045659440
Fix,GT,37.4353579,-122.108593,,27.177313,0.1,320.21295,1593045660440
Fix,GT,37.4355449,-122.1087889,,26.88934,0.1,320.25037,1593045661440
Fix,GT,37.4357298,-122.1089825,,26.594074,0.1,320.27155,1593045662440
Fix,GT,37.4359129,-122.109174,,26.358654,0.1,320.3029,1593045663440
Fix,GT,37.4360952,-122.1093646,,26.422369,0.1,320.25684,1593045664440
Fix,GT,37.4362786,-122.1095568,,26.631392,0.1,320.2089,1593045665440
Fix,GT,37.4364625,-122.1097499,,26.545177,0.1,320.20093,1593045666440
Fix,GT,37.4366454,-122.1099418,,26.43886,0.1,320.19702,1593045667440
Fix,GT,37.4368285,-122.1101333,,26.442633,0.1,320.38104,1593045668440
Fix,GT,37.4370116,-122.1103243,,26.45724,0.1,320.32712,1593045669440
Fix,GT,37.437195,-122.1105173,,26.76205,0.1,319.8971,1593045670440
Fix,GT,37.4373806,-122.110715,,27.286945,0.1,319.71115,1593045671440
Fix,GT,37.4375692,-122.1109156,,27.551006,0.1,319.9359,1593045672440
Fix,GT,37.4377594,-122.1111159,,27.547657,0.1,320.18472,1593045673440
Fix,GT,37.4379497,-122.1113155,,27.525723,0.1,320.23688,1593045674440
Fix,GT,37.4381402,-122.111515,,27.572653,0.1,320.21564,1593045675440
Fix,GT,37.4383308,-122.111715,,27.554333,0.1,320.13797,1593045676440
Fix,GT,37.4385205,-122.1119144,,27.412392,0.1,320.15823,1593045677440
Fix,GT,37.43871,-122.1121133,,27.473783,0.1,320.2248,1593045678440
Fix,GT,37.4389005,-122.1123128,,27.596539,0.1,320.26007,1593045679440
Fix,GT,37.4390913,-122.1125126,,27.58728,0.1,320.2456,1593045680440
Fix,GT,37.4392823,-122.1127125,,27.648235,0.1,320.21008,1593045681440
Fix,GT,37.4394739,-122.1129138,,27.876995,0.1,320.10156,1593045682440
Fix,GT,37.4396679,-122.1131178,,28.335169,0.1,320.11877,1593045683440
Fix,GT,37.4398657,-122.1133254,,28.943594,0.1,320.20038,1593045684440
Fix,GT,37.4400677,-122.1135379,,29.559109,0.1,320.0738,1593045685440
Fix,GT,37.4402732,-122.1137547,,29.966814,0.1,320.03235,1593045686440
Fix,GT,37.4404801,-122.1139727,,29.962318,0.1,320.16516,1593045687440
Fix,GT,37.4406865,-122.114189,,29.739563,0.1,320.26068,1593045688440
Fix,GT,37.4408911,-122.1144036,,29.454075,0.1,320.16922,1593045689440
Fix,GT,37.4410933,-122.1146162,,29.0887,0.1,320.14258,1593045690440
Fix,GT,37.4412927,-122.1148259,,28.693047,0.1,320.2243,1593045691440
Fix,GT,37.4414897,-122.1150323,,28.281769,0.1,320.286,1593045692440
Fix,GT,37.441684,-122.1152355,,27.878342,0.1,320.3366,1593045693440
Fix,GT,37.4418759,-122.1154357,,27.533257,0.1,320.4514,1593045694440
Fix,GT,37.442066,-122.1156334,,27.282942,0.1,320.3824,1593045695440
Fix,GT,37.4422539,-122.1158303,,27.09805,0.1,320.06665,1593045696440
Fix,GT,37.4424402,-122.1160276,,27.055481,0.1,319.90036,1593045697440
Fix,GT,37.4426269,-122.1162252,,27.175802,0.1,319.99066,1593045698440
Fix,GT,37.4428147,-122.1164235,,27.308542,0.1,320.02228,1593045699440
Fix,GT,37.4430033,-122.1166227,,27.434177,0.1,319.99915,1593045700440
Fix,GT,37.443193,-122.1168229,,27.572483,0.1,320.14832,1593045701440
Fix,GT,37.4433841,-122.1170227,,27.640896,0.1,320.4433,1593045702440
Fix,GT,37.443576,-122.1172217,,27.59572,0.1,320.59235,1593045703440
Fix,GT,37.4437671,-122.11742,,27.443338,0.1,320.45718,1593045704440
Fix,GT,37.4439562,-122.1176176,,27.180996,0.1,320.20673,1593045705440
Fix,GT,37.4441427,-122.117814,,26.859947,0.1,319.99548,1593045706440
Fix,GT,37.4443264,-122.1180087,,26.546124,0.1,319.91373,1593045707440
Fix,GT,37.444508,-122.1182015,,26.254543,0.1,319.8492,1593045708440
Fix,GT,37.4446879,-122.1183918,,25.986721,0.1,320.1804,1593045709440
Fix,GT,37.4448676,-122.1185787,,25.892578,0.1,320.71915,1593045710440
Fix,GT,37.4450487,-122.1187649,,26.11185,0.1,320.6383,1593045711440
Fix,GT,37.4452311,-122.1189543,,26.420858,0.1,320.3376,1593045712440
Fix,GT,37.4454148,-122.1191459,,26.572931,0.1,320.3296,1593045713440
Fix,GT,37.4455986,-122.1193375,,26.420929,0.1,320.38095,1593045714440
Fix,GT,37.4457805,-122.1195268,,26.055834,0.1,320.48688,1593045715440
Fix,GT,37.4459603,-122.1197127,,25.670097,0.1,320.67178,1593045716440
Fix,GT,37.446138,-122.1198964,,25.50542,0.1,320.47723,1593045717440
Fix,GT,37.4463147,-122.1200812,,25.585068,0.1,320.09045,1593045718440
Fix,GT,37.4464912,-122.1202671,,25.484604,0.1,320.0579,1593045719440
Fix,GT,37.446666,-122.1204508,,25.16165,0.1,320.16797,1593045720440
Fix,GT,37.4468386,-122.1206321,,24.78984,0.1,320.11984,1593045721440
Fix,GT,37.4470083,-122.120811,,24.42641,0.1,319.99496,1593045722440
Fix,GT,37.4471755,-122.1209876,,24.092417,0.1,319.97504,1593045723440
Fix,GT,37.4473404,-122.121162,,23.824682,0.1,319.95386,1593045724440
Fix,GT,37.4475041,-122.1213356,,23.840559,0.1,319.86282,1593045725440
Fix,GT,37.4476693,-122.1215112,,24.27761,0.1,319.8034,1593045726440
Fix,GT,37.4478381,-122.1216901,,24.780415,0.1,319.97388,1593045727440
Fix,GT,37.44801,-122.1218709,,24.960098,0.1,320.21887,1593045728440
Fix,GT,37.4481823,-122.1220512,,24.81116,0.1,320.34998,1593045729440
Fix,GT,37.4483529,-122.1222293,,24.483257,0.1,320.27713,1593045730440
Fix,GT,37.4485209,-122.1224055,,24.125923,0.1,320.13895,1593045731440
Fix,GT,37.4486864,-122.122579,,23.76987,0.1,320.27643,1593045732440
Fix,GT,37.4488499,-122.1227495,,23.44727,0.1,320.44098,1593045733440
Fix,GT,37.4490121,-122.1229178,,23.337051,0.1,320.62076,1593045734440
Fix,GT,37.4491749,-122.1230858,,23.4846,0.1,320.56772,1593045735440
Fix,GT,37.4493388,-122.1232562,,23.780785,0.1,320.26324,1593045736440
Fix,GT,37.4495044,-122.12343,,24.124641,0.1,320.08847,1593045737440
Fix,GT,37.4496716,-122.1236062,,24.31115,0.1,320.04544,1593045738440
Fix,GT,37.4498394,-122.1237832,,24.32682,0.1,320.05225,1593045739440
Fix,GT,37.4500072,-122.1239601,,24.35852,0.1,320.00064,1593045740440
Fix,GT,37.4501754,-122.1241383,,24.530441,0.1,319.84058,1593045741440
Fix,GT,37.4503446,-122.1243189,,24.776089,0.1,319.55402,1593045742440
Fix,GT,37.4505145,-122.1245028,,25.03859,0.1,319.11624,1593045743440
Fix,GT,37.4506848,-122.1246903,,25.17337,0.1,318.56537,1593045744440
Fix,GT,37.4508521,-122.1248783,,24.542862,0.1,318.0428,1593045745440
Fix,GT,37.4510113,-122.1250597,,23.257175,0.1,317.75455,1593045746440
Fix,GT,37.4511624,-122.1252339,,22.401882,0.1,317.33618,1593045747440
Fix,GT,37.4513076,-122.1254064,,22.0261,0.1,316.09558,1593045748440
Fix,GT,37.4514468,-122.1255825,,21.89227,0.1,313.81967,1593045749440
Fix,GT,37.4515819,-122.1257687,,22.796408,0.1,311.3403,1593045750440
Fix,GT,37.4517202,-122.1259732,,24.825523,0.1,309.9437,1593045751440
Fix,GT,37.4518699,-122.126198,,26.9873,0.1,310.1079,1593045752440
Fix,GT,37.4520329,-122.126439,,28.80679,0.1,310.57144,1593045753440
Fix,GT,37.4522029,-122.1266918,,29.489594,0.1,309.84467,1593045754440
Fix,GT,37.4523704,-122.1269488,,29.244987,0.1,308.7161,1593045755440
Fix,GT,37.4525315,-122.1272094,,29.133472,0.1,307.23535,1593045756440
Fix,GT,37.4526873,-122.1274767,,29.587383,0.1,305.5783,1593045757440
Fix,GT,37.452842,-122.1277557,,30.60935,0.1,304.48206,1593045758440
Fix,GT,37.453,-122.1280456,,31.398739,0.1,304.71414,1593045759440
Fix,GT,37.4531631,-122.1283376,,31.602592,0.1,305.67133,1593045760440
Fix,GT,37.45333,-122.1286269,,31.545626,0.1,306.23938,1593045761440
Fix,GT,37.4534973,-122.1289136,,31.293047,0.1,306.34903,1593045762440
Fix,GT,37.4536635,-122.1291976,,31.062063,0.1,306.38116,1593045763440
Fix,GT,37.4538287,-122.1294803,,30.992882,0.1,306.33752,1593045764440
Fix,GT,37.4539941,-122.1297634,,31.160961,0.1,306.3453,1593045765440
Fix,GT,37.4541611,-122.1300485,,31.44513,0.1,306.45724,1593045766440
Fix,GT,37.4543299,-122.1303355,,31.642006,0.1,306.54672,1593045767440
Fix,GT,37.4544996,-122.1306239,,31.801575,0.1,306.44678,1593045768440
Fix,GT,37.4546698,-122.1309151,,32.15338,0.1,306.26947,1593045769440
Fix,GT,37.454842,-122.1312103,,32.536255,0.1,306.34244,1593045770440
Fix,GT,37.4550166,-122.131508,,32.817883,0.1,306.59613,1593045771440
Fix,GT,37.455194,-122.131806,,32.999897,0.1,307.07874,1593045772440
Fix,GT,37.4553743,-122.1321031,,33.063988,0.1,307.66187,1593045773440
Fix,GT,37.4555569,-122.1323988,,33.120018,0.1,307.99286,1593045774440
Fix,GT,37.4557402,-122.1326945,,33.181446,0.1,307.93314,1593045775440
Fix,GT,37.4559234,-122.1329913,,33.241234,0.1,307.66733,1593045776440
Fix,GT,37.4561058,-122.1332897,,33.27196,0.1,307.37082,1593045777440
Fix,GT,37.4562865,-122.1335895,,33.242805,0.1,306.96695,1593045778440
Fix,GT,37.4564656,-122.1338906,,33.227646,0.1,306.67148,1593045779440
Fix,GT,37.4566437,-122.1341927,,33.256157,0.1,306.43625,1593045780440
Fix,GT,37.4568213,-122.1344957,,33.294235,0.1,306.36157,1593045781440
Fix,GT,37.4569992,-122.134799,,33.32014,0.1,306.46692,1593045782440
Fix,GT,37.4571776,-122.1351019,,33.347534,0.1,306.54495,1593045783440
Fix,GT,37.4573561,-122.1354051,,33.320816,0.1,306.495,1593045784440
Fix,GT,37.4575336,-122.1357075,,33.05812,0.1,306.42377,1593045785440
Fix,GT,37.4577089,-122.1360067,,32.633026,0.1,306.38416,1593045786440
Fix,GT,37.4578819,-122.136302,,32.218987,0.1,306.3857,1593045787440
Fix,GT,37.4580528,-122.1365934,,31.823374,0.1,306.49323,1593045788440
Fix,GT,37.4582221,-122.136881,,31.455471,0.1,306.5927,1593045789440
Fix,GT,37.4583898,-122.137165,,31.083767,0.1,306.681,1593045790440
Fix,GT,37.4585559,-122.1374451,,30.685513,0.1,306.7886,1593045791440
Fix,GT,37.4587204,-122.1377211,,30.29335,0.1,306.92685,1593045792440
Fix,GT,37.4588831,-122.1379936,,30.00298,0.1,306.83292,1593045793440
Fix,GT,37.4590451,-122.1382648,,30.058014,0.1,307.0252,1593045794440
Fix,GT,37.4592112,-122.1385364,,30.66093,0.1,308.04596,1593045795440
Fix,GT,37.4593848,-122.1388124,,31.610973,0.1,308.30353,1593045796440
Fix,GT,37.4595622,-122.1390985,,32.474117,0.1,307.52048,1593045797440
Fix,GT,37.4597405,-122.1393937,,32.98248,0.1,307.034,1593045798440
Fix,GT,37.4599194,-122.1396931,,33.197098,0.1,306.84103,1593045799440
Fix,GT,37.4600979,-122.1399935,,33.067642,0.1,306.66443,1593045800440
Fix,GT,37.4602739,-122.1402922,,32.64293,0.1,306.48972,1593045801440
Fix,GT,37.4604472,-122.1405877,,32.299614,0.1,306.41776,1593045802440
Fix,GT,37.4606192,-122.1408813,,32.22223,0.1,306.2693,1593045803440
Fix,GT,37.4607904,-122.1411761,,32.322594,0.1,306.0407,1593045804440
Fix,GT,37.4609619,-122.1414725,,32.481194,0.1,306.1593,1593045805440
Fix,GT,37.4611351,-122.1417696,,32.660423,0.1,306.35217,1593045806440
Fix,GT,37.4613099,-122.1420681,,32.884968,0.1,306.36237,1593045807440
Fix,GT,37.4614857,-122.1423692,,33.16651,0.1,306.2717,1593045808440
Fix,GT,37.4616627,-122.1426728,,33.371105,0.1,306.3554,1593045809440
Fix,GT,37.4618412,-122.1429773,,33.466515,0.1,306.45895,1593045810440
Fix,GT,37.4620199,-122.1432822,,33.482635,0.1,306.35004,1593045811440
Fix,GT,37.4621979,-122.1435872,,33.430534,0.1,306.19275,1593045812440
Fix,GT,37.4623755,-122.1438925,,33.46481,0.1,306.20374,1593045813440
Fix,GT,37.4625537,-122.1441985,,33.587044,0.1,306.2592,1593045814440
Fix,GT,37.4627327,-122.1445053,,33.672104,0.1,306.33273,1593045815440
Fix,GT,37.4629125,-122.1448122,,33.724636,0.1,306.47144,1593045816440
Fix,GT,37.4630933,-122.1451194,,33.866383,0.1,306.55157,1593045817440
Fix,GT,37.4632748,-122.1454283,,34.0204,0.1,306.4779,1593045818440
Fix,GT,37.463457,-122.1457379,,34.050346,0.1,306.5849,1593045819440
Fix,GT,37.4636398,-122.146047,,34.060467,0.1,306.62695,1593045820440
Fix,GT,37.4638227,-122.1463573,,34.228245,0.1,306.41428,1593045821440
Fix,GT,37.4640056,-122.1466706,,34.500023,0.1,306.2084,1593045822440
Fix,GT,37.4641895,-122.1469868,,34.770863,0.1,306.23975,1593045823440
Fix,GT,37.4643754,-122.1473052,,35.0548,0.1,306.3806,1593045824440
Fix,GT,37.4645633,-122.1476256,,35.34162,0.1,306.4169,1593045825440
Fix,GT,37.4647524,-122.147949,,35.630524,0.1,306.18927,1593045826440
Fix,GT,37.4649419,-122.1482758,,35.863113,0.1,306.0774,1593045827440
Fix,GT,37.4651325,-122.148604,,35.986015,0.1,306.27142,1593045828440
Fix,GT,37.4653245,-122.1489322,,36.025764,0.1,306.48288,1593045829440
Fix,GT,37.4655176,-122.1492599,,36.10335,0.1,306.68234,1593045830440
Fix,GT,37.4657122,-122.1495882,,36.277092,0.1,306.6435,1593045831440
Fix,GT,37.4659069,-122.1499188,,36.434296,0.1,306.39874,1593045832440
Fix,GT,37.4661016,-122.1502512,,36.534615,0.1,306.43103,1593045833440
Fix,GT,37.4662971,-122.1505837,,36.58947,0.1,306.49893,1593045834440
Fix,GT,37.4664926,-122.1509171,,36.60788,0.1,306.3741,1593045835440
Fix,GT,37.4666874,-122.1512505,,36.551952,0.1,306.35056,1593045836440
Fix,GT,37.4668821,-122.1515831,,36.4533,0.1,306.3509,1593045837440
Fix,GT,37.4670761,-122.1519148,,36.32395,0.1,306.35565,1593045838440
Fix,GT,37.4672697,-122.152245,,36.187775,0.1,306.5218,1593045839440
Fix,GT,37.4674635,-122.1525731,,36.05036,0.1,306.69232,1593045840440
Fix,GT,37.4676569,-122.1528995,,35.912155,0.1,306.73224,1593045841440
Fix,GT,37.4678495,-122.153224,,35.65045,0.1,306.78387,1593045842440
Fix,GT,37.4680409,-122.1535448,,35.222416,0.1,307.0447,1593045843440
Fix,GT,37.4682308,-122.1538605,,34.75988,0.1,307.0595,1593045844440
Fix,GT,37.4684178,-122.1541732,,34.406876,0.1,306.75244,1593045845440
Fix,GT,37.4686017,-122.1544848,,34.238373,0.1,306.37723,1593045846440
Fix,GT,37.4687835,-122.1547967,,34.164017,0.1,306.19586,1593045847440
Fix,GT,37.4689647,-122.1551085,,34.093285,0.1,306.21216,1593045848440
Fix,GT,37.4691457,-122.1554193,,34.01455,0.1,306.26184,1593045849440
Fix,GT,37.4693265,-122.1557292,,33.941486,0.1,306.2533,1593045850440
Fix,GT,37.4695067,-122.1560389,,33.89029,0.1,306.08057,1593045851440
Fix,GT,37.4696857,-122.1563489,,33.845272,0.1,305.9572,1593045852440
Fix,GT,37.4698642,-122.1566583,,33.68403,0.1,306.0835,1593045853440
Fix,GT,37.4700423,-122.1569649,,33.43583,0.1,306.26337,1593045854440
Fix,GT,37.4702197,-122.1572687,,33.18876,0.1,306.38422,1593045855440
Fix,GT,37.4703963,-122.1575697,,32.968216,0.1,306.49908,1593045856440
Fix,GT,37.4705722,-122.1578689,,32.804676,0.1,306.55356,1593045857440
Fix,GT,37.4707475,-122.1581664,,32.66474,0.1,306.61996,1593045858440
Fix,GT,37.4709228,-122.1584624,,32.58218,0.1,306.72397,1593045859440
Fix,GT,37.471098,-122.1587579,,32.55893,0.1,306.70486,1593045860440
Fix,GT,37.4712724,-122.1590534,,32.50009,0.1,306.55258,1593045861440
Fix,GT,37.4714458,-122.1593484,,32.323105,0.1,306.46414,1593045862440
Fix,GT,37.4716179,-122.1596419,,32.168427,0.1,306.37485,1593045863440
Fix,GT,37.4717889,-122.1599345,,32.016464,0.1,306.30774,1593045864440
Fix,GT,37.4719586,-122.1602254,,31.757446,0.1,306.20117,1593045865440
Fix,GT,37.4721264,-122.1605143,,31.44662,0.1,306.10406,1593045866440
Fix,GT,37.4722921,-122.1608001,,31.085505,0.1,306.1703,1593045867440
Fix,GT,37.4724563,-122.161082,,30.69616,0.1,306.25745,1593045868440
Fix,GT,37.4726186,-122.1613602,,30.313587,0.1,306.30048,1593045869440
Fix,GT,37.4727791,-122.161635,,29.949375,0.1,306.31363,1593045870440
Fix,GT,37.4729379,-122.1619064,,29.600367,0.1,306.37332,1593045871440
Fix,GT,37.473095,-122.1621744,,29.24485,0.1,306.44156,1593045872440
Fix,GT,37.4732503,-122.1624389,,28.88596,0.1,306.48486,1593045873440
Fix,GT,37.4734038,-122.1627,,28.535072,0.1,306.49423,1593045874440
Fix,GT,37.4735555,-122.1629581,,28.192766,0.1,306.4352,1593045875440
Fix,GT,37.4737053,-122.1632141,,28.035954,0.1,306.27402,1593045876440
Fix,GT,37.4738545,-122.1634728,,28.509714,0.1,305.58545,1593045877440
Fix,GT,37.4740044,-122.1637413,,29.520683,0.1,304.65726,1593045878440
Fix,GT,37.4741571,-122.1640219,,30.568573,0.1,304.31943,1593045879440
Fix,GT,37.4743153,-122.1643114,,31.56147,0.1,304.8155,1593045880440
Fix,GT,37.474482,-122.1646079,,32.658573,0.1,305.81235,1593045881440
Fix,GT,37.4746585,-122.1649123,,33.93682,0.1,306.32916,1593045882440
Fix,GT,37.4748424,-122.1652266,,35.020195,0.1,306.36725,1593045883440
Fix,GT,37.4750313,-122.1655492,,35.75263,0.1,306.37814,1593045884440
Fix,GT,37.4752232,-122.1658765,,36.11255,0.1,306.50452,1593045885440
Fix,GT,37.4754172,-122.1662053,,36.24142,0.1,306.68747,1593045886440
Fix,GT,37.4756123,-122.1665345,,36.297474,0.1,306.71072,1593045887440
Fix,GT,37.4758074,-122.1668637,,36.25908,0.1,306.7235,1593045888440
Fix,GT,37.4760028,-122.1671916,,36.145992,0.1,307.05228,1593045889440
Fix,GT,37.4761994,-122.1675156,,35.863514,0.1,307.7259,1593045890440
Fix,GT,37.4763974,-122.1678337,,35.541096,0.1,308.45813,1593045891440
Fix,GT,37.4765968,-122.1681466,,35.33619,0.1,308.97653,1593045892440
Fix,GT,37.476796,-122.1684569,,35.167194,0.1,308.79877,1593045893440
Fix,GT,37.4769919,-122.1687685,,35.068924,0.1,307.77414,1593045894440
Fix,GT,37.4771829,-122.1690848,,35.1679,0.1,306.6475,1593045895440
Fix,GT,37.4773709,-122.1694065,,35.413254,0.1,305.9474,1593045896440
Fix,GT,37.4775576,-122.169733,,35.682777,0.1,305.59937,1593045897440
Fix,GT,37.4777453,-122.170063,,36.029278,0.1,305.6733,1593045898440
Fix,GT,37.4779355,-122.1703954,,36.331383,0.1,305.8854,1593045899440
Fix,GT,37.4781278,-122.1707295,,36.589584,0.1,306.02576,1593045900440
Fix,GT,37.4783223,-122.1710654,,36.83809,0.1,306.14145,1593045901440
Fix,GT,37.4785183,-122.1714027,,37.005836,0.1,306.24997,1593045902440
Fix,GT,37.4787155,-122.1717407,,37.052856,0.1,306.29446,1593045903440
Fix,GT,37.4789128,-122.1720784,,36.98687,0.1,306.30945,1593045904440
Fix,GT,37.4791098,-122.1724144,,36.779293,0.1,306.51172,1593045905440
Fix,GT,37.479306,-122.1727473,,36.468018,0.1,306.62823,1593045906440
Fix,GT,37.4795006,-122.173077,,36.08256,0.1,306.53354,1593045907440
Fix,GT,37.4796924,-122.1734033,,35.618217,0.1,306.38324,1593045908440
Fix,GT,37.4798808,-122.1737264,,35.229942,0.1,306.14725,1593045909440
Fix,GT,37.4800666,-122.1740472,,34.955177,0.1,306.03802,1593045910440
Fix,GT,37.4802509,-122.1743661,,34.763676,0.1,306.01404,1593045911440
Fix,GT,37.4804344,-122.174684,,34.686882,0.1,306.03354,1593045912440
Fix,GT,37.4806179,-122.1750015,,34.681953,0.1,306.1054,1593045913440
Fix,GT,37.4808016,-122.1753184,,34.65165,0.1,306.23398,1593045914440
Fix,GT,37.4809858,-122.1756346,,34.607807,0.1,306.35413,1593045915440
Fix,GT,37.4811703,-122.1759497,,34.525066,0.1,306.38126,1593045916440
Fix,GT,37.4813538,-122.1762639,,34.38225,0.1,306.27972,1593045917440
Fix,GT,37.481536,-122.1765772,,34.23079,0.1,306.182,1593045918440
Fix,GT,37.4817166,-122.1768898,,34.064186,0.1,305.89435,1593045919440
Fix,GT,37.4818946,-122.1772022,,33.885174,0.1,305.36322,1593045920440
Fix,GT,37.482069,-122.1775158,,33.74799,0.1,304.56067,1593045921440
Fix,GT,37.4822385,-122.1778318,,33.644993,0.1,303.484,1593045922440
Fix,GT,37.482403,-122.178151,,33.618332,0.1,302.40216,1593045923440
Fix,GT,37.4825627,-122.1784741,,33.620903,0.1,301.321,1593045924440
Fix,GT,37.4827173,-122.1788006,,33.545513,0.1,300.22034,1593045925440
Fix,GT,37.4828663,-122.1791299,,33.42637,0.1,298.94342,1593045926440
Fix,GT,37.4830086,-122.1794622,,33.298157,0.1,297.62317,1593045927440
Fix,GT,37.4831451,-122.1797966,,33.160202,0.1,296.75705,1593045928440
Fix,GT,37.4832781,-122.1801316,,33.06485,0.1,296.41455,1593045929440
Fix,GT,37.4834091,-122.1804674,,33.07911,0.1,295.90677,1593045930440
Fix,GT,37.4835374,-122.1808058,,33.209084,0.1,295.0452,1593045931440
Fix,GT,37.4836618,-122.1811481,,33.306664,0.1,294.0932,1593045932440
Fix,GT,37.4837816,-122.1814932,,33.257256,0.1,293.17383,1593045933440
Fix,GT,37.4838968,-122.1818397,,33.143932,0.1,292.31558,1593045934440
Fix,GT,37.484008,-122.1821869,,33.043465,0.1,291.68646,1593045935440
Fix,GT,37.4841162,-122.1825345,,32.965233,0.1,291.20752,1593045936440
Fix,GT,37.4842215,-122.1828827,,32.921223,0.1,290.4335,1593045937440
Fix,GT,37.4843216,-122.1832329,,32.891193,0.1,289.14783,1593045938440
Fix,GT,37.4844155,-122.1835856,,32.877785,0.1,287.98718,1593045939440
Fix,GT,37.4845054,-122.1839398,,32.89949,0.1,287.57855,1593045940440
Fix,GT,37.4845944,-122.1842952,,33.00527,0.1,287.50433,1593045941440
Fix,GT,37.4846834,-122.1846523,,33.19815,0.1,287.347,1593045942440
Fix,GT,37.4847717,-122.185012,,33.36105,0.1,286.96597,1593045943440
Fix,GT,37.4848579,-122.185374,,33.47469,0.1,286.39008,1593045944440
Fix,GT,37.4849413,-122.1857386,,33.620735,0.1,285.71518,1593045945440
Fix,GT,37.4850214,-122.1861064,,33.82754,0.1,284.9938,1593045946440
Fix,GT,37.4850984,-122.1864779,,34.063232,0.1,284.27902,1593045947440
Fix,GT,37.4851724,-122.1868532,,34.336372,0.1,283.66107,1593045948440
Fix,GT,37.485244,-122.1872326,,34.63858,0.1,283.08447,1593045949440
Fix,GT,37.485313,-122.1876162,,34.92009,0.1,282.41565,1593045950440
Fix,GT,37.4853787,-122.1880039,,35.19024,0.1,281.69897,1593045951440
Fix,GT,37.4854409,-122.1883957,,35.463272,0.1,280.9272,1593045952440
Fix,GT,37.4854994,-122.1887914,,35.723434,0.1,280.17838,1593045953440
Fix,GT,37.4855546,-122.1891909,,35.97735,0.1,279.62994,1593045954440
Fix,GT,37.4856075,-122.1895937,,36.19873,0.1,279.22055,1593045955440
Fix,GT,37.485659,-122.1899988,,36.34606,0.1,279.08636,1593045956440
Fix,GT,37.4857111,-122.1904051,,36.462578,0.1,279.40186,1593045957440
Fix,GT,37.4857656,-122.1908123,,36.572784,0.1,279.802,1593045958440
Fix,GT,37.4858221,-122.1912205,,36.697792,0.1,279.9726,1593045959440
Fix,GT,37.485879,-122.1916301,,36.867447,0.1,279.88052,1593045960440
Fix,GT,37.4859354,-122.1920418,,37.029976,0.1,279.61926,1593045961440
Fix,GT,37.4859905,-122.1924556,,37.167137,0.1,279.4304,1593045962440
Fix,GT,37.4860448,-122.192871,,37.267464,0.1,279.24045,1593045963440
Fix,GT,37.486098,-122.1932874,,37.31447,0.1,279.0483,1593045964440
Fix,GT,37.4861505,-122.1937041,,37.29836,0.1,279.00323,1593045965440
Fix,GT,37.4862025,-122.1941206,,37.257133,0.1,278.93854,1593045966440
Fix,GT,37.4862544,-122.1945366,,37.206436,0.1,278.87738,1593045967440
Fix,GT,37.4863057,-122.1949519,,37.139618,0.1,278.8512,1593045968440
Fix,GT,37.4863569,-122.1953665,,37.06964,0.1,278.8561,1593045969440
Fix,GT,37.486408,-122.1957803,,36.998203,0.1,278.82056,1593045970440
Fix,GT,37.4864587,-122.1961934,,36.938805,0.1,278.77423,1593045971440
Fix,GT,37.4865091,-122.1966059,,36.888603,0.1,278.74753,1593045972440
Fix,GT,37.4865591,-122.1970181,,36.85408,0.1,278.62558,1593045973440
Fix,GT,37.4866089,-122.1974299,,36.82981,0.1,278.75903,1593045974440
Fix,GT,37.4866598,-122.1978413,,36.811447,0.1,279.0772,1593045975440
Fix,GT,37.4867119,-122.1982523,,36.784187,0.1,279.06598,1593045976440
Fix,GT,37.4867638,-122.1986624,,36.645134,0.1,279.02158,1593045977440
Fix,GT,37.4868151,-122.1990701,,36.34269,0.1,279.1053,1593045978440
Fix,GT,37.4868665,-122.199474,,36.00139,0.1,279.13745,1593045979440
Fix,GT,37.4869173,-122.1998742,,35.683937,0.1,279.00995,1593045980440
Fix,GT,37.4869669,-122.2002709,,35.350136,0.1,278.9649,1593045981440
Fix,GT,37.4870158,-122.2006639,,35.00371,0.1,278.8258,1593045982440
Fix,GT,37.4870633,-122.2010533,,34.691833,0.1,278.66382,1593045983440
Fix,GT,37.48711,-122.2014395,,34.42169,0.1,278.7077,1593045984440
Fix,GT,37.4871569,-122.201823,,34.216373,0.1,278.78638,1593045985440
Fix,GT,37.4872031,-122.2022047,,34.103046,0.1,278.67633,1593045986440
Fix,GT,37.4872494,-122.2025862,,34.159714,0.1,278.74976,1593045987440
Fix,GT,37.4872967,-122.2029689,,34.321815,0.1,279.0205,1593045988440
Fix,GT,37.4873449,-122.2033526,,34.3805,0.1,278.99316,1593045989440
Fix,GT,37.4873926,-122.2037368,,34.396297,0.1,278.7259,1593045990440
Fix,GT,37.487439,-122.2041216,,34.42664,0.1,278.6012,1593045991440
Fix,GT,37.4874856,-122.2045062,,34.374367,0.1,278.85907,1593045992440
Fix,GT,37.4875337,-122.2048893,,34.228565,0.1,279.15955,1593045993440
Fix,GT,37.4875824,-122.2052706,,34.068592,0.1,279.09848,1593045994440
Fix,GT,37.4876303,-122.2056501,,33.899593,0.1,278.975,1593045995440
Fix,GT,37.4876776,-122.206028,,33.79029,0.1,278.94226,1593045996440
Fix,GT,37.4877249,-122.2064053,,33.758575,0.1,278.99075,1593045997440
Fix,GT,37.4877727,-122.2067822,,33.760895,0.1,279.34222,1593045998440
Fix,GT,37.4878234,-122.2071588,,33.785187,0.1,280.1443,1593045999440
Fix,GT,37.4878791,-122.2075345,,33.837456,0.1,281.0169,1593046000440
Fix,GT,37.4879385,-122.2079101,,33.86042,0.1,281.48834,1593046001440
Fix,GT,37.4879999,-122.208285,,33.8462,0.1,281.86163,1593046002440
Fix,GT,37.4880628,-122.20866,,33.96144,0.1,281.93085,1593046003440
Fix,GT,37.4881258,-122.2090373,,34.225193,0.1,281.8012,1593046004440
Fix,GT,37.4881896,-122.2094175,,34.480614,0.1,282.2388,1593046005440
Fix,GT,37.4882579,-122.209799,,34.70195,0.1,283.48706,1593046006440
Fix,GT,37.4883349,-122.2101804,,34.902588,0.1,285.1465,1593046007440
Fix,GT,37.4884204,-122.2105613,,35.06404,0.1,286.36224,1593046008440
Fix,GT,37.4885106,-122.2109416,,35.130413,0.1,286.88663,1593046009440
Fix,GT,37.4886037,-122.2113211,,35.10358,0.1,287.58328,1593046010440
Fix,GT,37.488701,-122.2116983,,35.03962,0.1,288.54034,1593046011440
Fix,GT,37.4888022,-122.2120732,,34.974163,0.1,289.1018,1593046012440
Fix,GT,37.4889064,-122.212446,,34.917366,0.1,289.79477,1593046013440
Fix,GT,37.4890149,-122.2128165,,34.902332,0.1,290.82892,1593046014440
Fix,GT,37.4891293,-122.2131843,,34.98609,0.1,292.03687,1593046015440
Fix,GT,37.4892493,-122.2135511,,35.161552,0.1,292.67773,1593046016440
Fix,GT,37.4893719,-122.213919,,35.377995,0.1,292.8335,1593046017440
Fix,GT,37.4894973,-122.2142877,,35.527027,0.1,293.50375,1593046018440
Fix,GT,37.4896264,-122.2146557,,35.620686,0.1,294.30826,1593046019440
Fix,GT,37.4897604,-122.2150228,,35.814774,0.1,295.19992,1593046020440
Fix,GT,37.4898998,-122.2153897,,36.078323,0.1,295.91873,1593046021440
Fix,GT,37.4900436,-122.2157572,,36.324516,0.1,296.52756,1593046022440
Fix,GT,37.4901918,-122.2161244,,36.44362,0.1,297.38977,1593046023440
Fix,GT,37.490344,-122.2164892,,36.384506,0.1,298.12848,1593046024440
Fix,GT,37.4904993,-122.2168512,,36.36197,0.1,298.6466,1593046025440
Fix,GT,37.4906568,-122.2172119,,36.393764,0.1,298.97607,1593046026440
Fix,GT,37.4908157,-122.2175721,,36.415947,0.1,299.01318,1593046027440
Fix,GT,37.4909748,-122.2179319,,36.366814,0.1,299.12592,1593046028440
Fix,GT,37.4911342,-122.2182907,,36.29014,0.1,299.31226,1593046029440
Fix,GT,37.4912938,-122.2186486,,36.255814,0.1,299.19333,1593046030440
Fix,GT,37.4914525,-122.2190068,,36.250984,0.1,299.14957,1593046031440
Fix,GT,37.4916117,-122.219365,,36.300102,0.1,299.3581,1593046032440
Fix,GT,37.4917726,-122.2197229,,36.39577,0.1,299.5932,1593046033440
Fix,GT,37.4919343,-122.2200816,,36.504738,0.1,299.459,1593046034440
Fix,GT,37.4920953,-122.2204422,,36.617203,0.1,299.2042,1593046035440
Fix,GT,37.4922564,-122.2208043,,36.729973,0.1,299.16745,1593046036440
Fix,GT,37.4924174,-122.221168,,36.855446,0.1,298.98294,1593046037440
Fix,GT,37.4925783,-122.2215335,,36.983845,0.1,298.94922,1593046038440
Fix,GT,37.4927396,-122.2219001,,37.069862,0.1,299.03482,1593046039440
Fix,GT,37.4929018,-122.2222667,,37.096992,0.1,299.12085,1593046040440
Fix,GT,37.493064,-122.2226339,,37.166595,0.1,298.92813,1593046041440
Fix,GT,37.4932248,-122.2230031,,37.24445,0.1,298.58936,1593046042440
Fix,GT,37.4933834,-122.2233744,,37.27392,0.1,298.07886,1593046043440
Fix,GT,37.4935389,-122.2237481,,37.290817,0.1,297.21457,1593046044440
Fix,GT,37.4936908,-122.2241248,,37.377728,0.1,296.56308,1593046045440
Fix,GT,37.4938393,-122.2245048,,37.466797,0.1,295.81937,1593046046440
Fix,GT,37.493984,-122.2248879,,37.518734,0.1,295.05676,1593046047440
Fix,GT,37.4941248,-122.2252741,,37.612373,0.1,294.24036,1593046048440
Fix,GT,37.4942616,-122.225664,,37.75228,0.1,293.33817,1593046049440
Fix,GT,37.4943941,-122.2260581,,37.876415,0.1,292.45142,1593046050440
Fix,GT,37.4945221,-122.2264558,,37.99729,0.1,291.59143,1593046051440
Fix,GT,37.4946458,-122.2268575,,38.168114,0.1,290.81842,1593046052440
Fix,GT,37.4947664,-122.2272629,,38.363186,0.1,290.16235,1593046053440
Fix,GT,37.4948844,-122.2276722,,38.6248,0.1,289.71585,1593046054440
Fix,GT,37.4950017,-122.2280853,,38.930115,0.1,289.6006,1593046055440
Fix,GT,37.4951196,-122.2285014,,39.13958,0.1,289.65814,1593046056440
Fix,GT,37.4952379,-122.2289186,,39.144627,0.1,289.61258,1593046057440
Fix,GT,37.4953555,-122.2293351,,38.96815,0.1,289.52264,1593046058440
Fix,GT,37.495472,-122.2297488,,38.60709,0.1,289.50122,1593046059440
Fix,GT,37.4955868,-122.2301581,,38.152657,0.1,289.39117,1593046060440
Fix,GT,37.4957,-122.2305633,,37.818535,0.1,289.36362,1593046061440
Fix,GT,37.4958124,-122.230966,,37.673706,0.1,289.36185,1593046062440
Fix,GT,37.4959245,-122.2313683,,37.71077,0.1,289.31726,1593046063440
Fix,GT,37.496037,-122.2317713,,37.81507,0.1,289.49716,1593046064440
Fix,GT,37.4961509,-122.232175,,37.901535,0.1,289.59137,1593046065440
Fix,GT,37.4962652,-122.232579,,37.890564,0.1,289.64197,1593046066440
Fix,GT,37.4963799,-122.2329814,,37.699833,0.1,289.84497,1593046067440
Fix,GT,37.496495,-122.233381,,37.466858,0.1,289.99478,1593046068440
Fix,GT,37.4966099,-122.2337786,,37.36142,0.1,289.972,1593046069440
Fix,GT,37.4967242,-122.2341753,,37.23693,0.1,289.95715,1593046070440
Fix,GT,37.4968396,-122.2345695,,37.00236,0.1,290.73062,1593046071440
Fix,GT,37.4969603,-122.2349573,,36.611637,0.1,292.28113,1593046072440
Fix,GT,37.497088,-122.2353365,,36.2104,0.1,293.73248,1593046073440
Fix,GT,37.4972227,-122.2357074,,35.922153,0.1,295.42313,1593046074440
Fix,GT,37.4973647,-122.2360708,,35.68266,0.1,296.9892,1593046075440
Fix,GT,37.4975131,-122.236427,,35.409904,0.1,298.48706,1593046076440
Fix,GT,37.4976678,-122.2367746,,35.047455,0.1,300.23227,1593046077440
Fix,GT,37.497829,-122.2371123,,34.589138,0.1,302.01627,1593046078440
Fix,GT,37.4979963,-122.2374386,,34.03907,0.1,303.88702,1593046079440
Fix,GT,37.498169,-122.2377517,,33.235714,0.1,305.8952,1593046080440
Fix,GT,37.4983439,-122.2380466,,31.719349,0.1,307.7251,1593046081440
Fix,GT,37.4985166,-122.2383195,,29.985098,0.1,309.48035,1593046082440
Fix,GT,37.4986875,-122.2385729,,28.757858,0.1,311.08456,1593046083440
Fix,GT,37.4988568,-122.2388114,,27.812737,0.1,312.55496,1593046084440
Fix,GT,37.4990265,-122.2390379,,27.3055,0.1,314.10846,1593046085440
Fix,GT,37.4991993,-122.2392564,,27.182974,0.1,315.49103,1593046086440
Fix,GT,37.4993757,-122.2394704,,27.315285,0.1,316.50058,1593046087440
Fix,GT,37.4995558,-122.2396824,,27.497969,0.1,317.2055,1593046088440
Fix,GT,37.4997384,-122.2398931,,27.546425,0.1,317.6441,1593046089440
Fix,GT,37.4999215,-122.2401019,,27.335623,0.1,317.9977,1593046090440
Fix,GT,37.5001035,-122.2403079,,27.061626,0.1,317.95032,1593046091440
Fix,GT,37.5002835,-122.2405121,,26.842585,0.1,317.9083,1593046092440
Fix,GT,37.5004631,-122.2407154,,26.905222,0.1,317.96127,1593046093440
Fix,GT,37.500644,-122.2409206,,27.316858,0.1,317.88208,1593046094440
Fix,GT,37.5008285,-122.2411301,,27.940308,0.1,317.9438,1593046095440
Fix,GT,37.5010171,-122.2413444,,28.473448,0.1,317.9268,1593046096440
Fix,GT,37.5012081,-122.2415614,,28.646801,0.1,317.93564,1593046097440
Fix,GT,37.5014001,-122.2417793,,28.873013,0.1,317.9349,1593046098440
Fix,GT,37.5015947,-122.2420004,,29.419247,0.1,317.80927,1593046099440
Fix,GT,37.5017934,-122.2422273,,30.176777,0.1,317.65298,1593046100440
Fix,GT,37.5019966,-122.2424603,,30.878248,0.1,317.7155,1593046101440
Fix,GT,37.502204,-122.2426966,,31.306202,0.1,317.94836,1593046102440
Fix,GT,37.5024141,-122.2429366,,31.772802,0.1,317.46353,1593046103440
Fix,GT,37.5026253,-122.243185,,32.499474,0.1,316.38785,1593046104440
Fix,GT,37.5028394,-122.243443,,33.41578,0.1,316.2374,1593046105440
Fix,GT,37.5030603,-122.2437067,,34.2328,0.1,316.8852,1593046106440
Fix,GT,37.5032883,-122.2439724,,34.82328,0.1,317.5174,1593046107440
Fix,GT,37.5035224,-122.2442393,,35.343445,0.1,318.03012,1593046108440
Fix,GT,37.5037608,-122.2445084,,35.831856,0.1,318.15704,1593046109440
Fix,GT,37.5040027,-122.2447809,,36.280098,0.1,318.12848,1593046110440
Fix,GT,37.5042471,-122.2450565,,36.636993,0.1,318.0862,1593046111440
Fix,GT,37.5044935,-122.2453347,,36.87033,0.1,318.14355,1593046112440
Fix,GT,37.5047416,-122.2456127,,36.92208,0.1,318.59225,1593046113440
Fix,GT,37.5049917,-122.2458875,,36.796913,0.1,319.17853,1593046114440
Fix,GT,37.5052418,-122.2461579,,36.45115,0.1,319.44452,1593046115440
Fix,GT,37.5054896,-122.2464246,,36.00082,0.1,319.37766,1593046116440
