MessageType,Provider,LatitudeDegrees,LongitudeDegrees,AltitudeMeters,SpeedMps,AccuracyMeters,BearingDegrees,UnixTimeMillis
Fix,GT,37.5865956,-122.3258461,,0.06668432,0.1,280.7049,1593048146431
Fix,GT,37.5865956,-122.3258487,,0.3929175,0.1,280.1862,1593048147431
Fix,GT,37.5865959,-122.3258551,,0.6401831,0.1,279.16626,1593048148431
Fix,GT,37.5865963,-122.3258621,,0.559912,0.1,278.45428,1593048149431
Fix,GT,37.5865968,-122.3258702,,0.92307454,0.1,277.83615,1593048150431
Fix,GT,37.5865968,-122.3258861,,1.9601364,0.1,274.9707,1593048151431
Fix,GT,37.5865937,-122.325917,,3.4644043,0.1,266.591,1593048152431
Fix,GT,37.5865803,-122.3259623,,5.068841,0.1,251.41277,1593048153431
Fix,GT,37.5865482,-122.3260167,,7.0106874,0.1,232.85223,1593048154431
Fix,GT,37.5864933,-122.3260758,,9.00947,0.1,219.82864,1593048155431
Fix,GT,37.5864205,-122.3261421,,10.870308,0.1,216.81372,1593048156431
Fix,GT,37.5863386,-122.3262257,,12.5842285,0.1,220.64813,1593048157431
Fix,GT,37.5862524,-122.3263284,,13.810841,0.1,225.28708,1593048158431
Fix,GT,37.5861632,-122.3264454,,14.7983885,0.1,227.0331,1593048159431
Fix,GT,37.5860691,-122.3265711,,15.636406,0.1,226.86163,1593048160431
Fix,GT,37.5859715,-122.3267008,,15.78614,0.1,226.93771,1593048161431
Fix,GT,37.5858765,-122.3268295,,15.18212,0.1,227.67107,1593048162431
Fix,GT,37.5857875,-122.326953,,14.21273,0.1,228.23106,1593048163431
Fix,GT,37.5857068,-122.3270667,,12.618244,0.1,228.66718,1593048164431
Fix,GT,37.5856386,-122.3271647,,10.265379,0.1,229.4375,1593048165431
Fix,GT,37.5855865,-122.3272423,,7.708786,0.1,230.32317,1593048166431
Fix,GT,37.585549,-122.3273001,,5.6082764,0.1,231.34105,1593048167431
Fix,GT,37.585523,-122.3273422,,3.8502831,0.1,232.64328,1593048168431
Fix,GT,37.5855076,-122.3273685,,1.9313228,0.1,233.64503,1593048169431
Fix,GT,37.5855013,-122.3273797,,0.62477756,0.1,233.98413,1593048170431
Fix,GT,37.5854995,-122.3273829,,0.20657422,0.1,234.00778,1593048171431
Fix,GT,37.5854984,-122.3273849,,0.28796738,0.1,234.01541,1593048172431
Fix,GT,37.5854966,-122.327388,,0.35459054,0.1,234.02316,1593048173431
Fix,GT,37.5854952,-122.3273904,,0.13715072,0.1,234.026,1593048174431
Fix,GT,37.585495,-122.3273908,,0.0047756266,0.1,234.02692,1593048175431
Fix,GT,37.5854951,-122.3273908,,0.002229334,0.1,234.0275,1593048176431
Fix,GT,37.5854952,-122.3273909,,0.0015333181,0.1,234.02872,1593048177431
Fix,GT,37.5854952,-122.3273909,,0.002236068,0.1,234.02863,1593048178431
Fix,GT,37.5854952,-122.3273909,,0.0021342132,0.1,234.02852,1593048179431
Fix,GT,37.5854952,-122.3273909,,0.0017472547,0.1,234.02853,1593048180431
Fix,GT,37.5854952,-122.3273909,,0.0014142136,0.1,234.02853,1593048181431
Fix,GT,37.5854952,-122.3273909,,0.0014142136,0.1,234.02846,1593048182431
Fix,GT,37.5854952,-122.3273909,,0.0014142136,0.1,234.02838,1593048183431
Fix,GT,37.5854952,-122.3273909,,0.0012354957,0.1,234.02835,1593048184431
Fix,GT,37.5854952,-122.3273909,,0.0011787179,0.1,234.02826,1593048185431
Fix,GT,37.5854952,-122.3273909,,0.0012354957,0.1,234.02814,1593048186431
Fix,GT,37.5854952,-122.3273909,,0.0011787179,0.1,234.028,1593048187431
Fix,GT,37.5854952,-122.3273909,,0.0008040324,0.1,234.0278,1593048188431
Fix,GT,37.5854952,-122.3273909,,0.0006101812,0.1,234.02762,1593048189431
Fix,GT,37.5854952,-122.3273909,,0.0014142136,0.1,234.02759,1593048190431
Fix,GT,37.5854952,-122.3273909,,0.0014142136,0.1,234.02763,1593048191431
Fix,GT,37.5854952,-122.3273909,,0.0014142136,0.1,234.0275,1593048192431
Fix,GT,37.5854952,-122.3273909,,0.0012354957,0.1,234.02747,1593048193431
Fix,GT,37.5854952,-122.3273909,,0.0005685368,0.1,234.02744,1593048194431
Fix,GT,37.5854952,-122.3273909,,0.0006101812,0.1,234.02724,1593048195431
Fix,GT,37.5854952,-122.3273909,,0.0012354957,0.1,234.02716,1593048196431
Fix,GT,37.5854952,-122.3273909,,0.0005685368,0.1,234.02725,1593048197431
Fix,GT,37.5854952,-122.3273909,,0.0,0.1,234.02722,1593048198431
Fix,GT,37.5854952,-122.3273909,,0.0006101812,0.1,234.02716,1593048199431
Fix,GT,37.5854952,-122.3273909,,0.0014142136,0.1,234.02692,1593048200431
Fix,GT,37.5854952,-122.3273909,,0.0012354957,0.1,234.0267,1593048201431
Fix,GT,37.5854952,-122.3273909,,0.001,0.1,234.0268,1593048202431
Fix,GT,37.5854952,-122.3273909,,0.0005685368,0.1,234.02676,1593048203431
Fix,GT,37.5854952,-122.3273909,,0.04409588,0.1,234.02917,1593048204431
Fix,GT,37.5854944,-122.3273923,,0.24960947,0.1,234.03583,1593048205431
Fix,GT,37.5854928,-122.327395,,0.27005553,0.1,234.04205,1593048206431
Fix,GT,37.5854919,-122.3273965,,0.050272226,0.1,234.04547,1593048207431
Fix,GT,37.5854918,-122.3273968,,0.03610163,0.1,234.04599,1593048208431
Fix,GT,37.5854917,-122.3273969,,0.0017688135,0.1,234.04535,1593048209431
Fix,GT,37.5854917,-122.3273969,,0.0012712869,0.1,234.04564,1593048210431
Fix,GT,37.5854917,-122.3273969,,0.0,0.1,234.04572,1593048211431
Fix,GT,37.5854917,-122.3273969,,0.0,0.1,234.04558,1593048212431
Fix,GT,37.5854917,-122.3273969,,0.0,0.1,234.04558,1593048213431
Fix,GT,37.5854917,-122.3273969,,0.0,0.1,234.0457,1593048214431
Fix,GT,37.5854917,-122.3273969,,0.0,0.1,234.0456,1593048215431
Fix,GT,37.5854917,-122.3273969,,0.0,0.1,234.04556,1593048216431
Fix,GT,37.5854917,-122.3273969,,0.0,0.1,234.04532,1593048217431
Fix,GT,37.5854917,-122.3273969,,0.0,0.1,234.0451,1593048218431
Fix,GT,37.5854917,-122.3273969,,0.00061018113,0.1,234.04523,1593048219431
Fix,GT,37.5854917,-122.3273969,,0.0012354956,0.1,234.04547,1593048220431
Fix,GT,37.5854917,-122.3273969,,0.001,0.1,234.04556,1593048221431
Fix,GT,37.5854917,-122.3273969,,0.0005685368,0.1,234.04529,1593048222431
Fix,GT,37.5854917,-122.3273969,,0.0,0.1,234.04501,1593048223431
Fix,GT,37.5854917,-122.3273969,,0.00043146324,0.1,234.04482,1593048224431
Fix,GT,37.5854917,-122.3273969,,0.001,0.1,234.04475,1593048225431
Fix,GT,37.5854917,-122.3273969,,0.001,0.1,234.04471,1593048226431
Fix,GT,37.5854917,-122.3273969,,0.001,0.1,234.04475,1593048227431
Fix,GT,37.5854917,-122.3273969,,0.001,0.1,234.04486,1593048228431
Fix,GT,37.5854917,-122.3273969,,0.0014314633,0.1,234.04477,1593048229431
Fix,GT,37.5854917,-122.3273969,,0.0015685369,0.1,234.04443,1593048230431
Fix,GT,37.5854917,-122.3273969,,0.0011787179,0.1,234.04425,1593048231431
Fix,GT,37.5854917,-122.3273969,,0.0012354956,0.1,234.04425,1593048232431
Fix,GT,37.5854917,-122.3273969,,0.0015333178,0.1,234.04422,1593048233431
Fix,GT,37.5854917,-122.3273969,,0.001881468,0.1,234.04387,1593048234431
Fix,GT,37.5854917,-122.3273969,,0.0017688135,0.1,234.04361,1593048235431
Fix,GT,37.5854918,-122.3273969,,0.0025656766,0.1,234.0437,1593048236431
Fix,GT,37.5854918,-122.3273969,,0.0034314634,0.1,234.04398,1593048237431
Fix,GT,37.5854914,-122.3273975,,0.22732596,0.1,234.04715,1593048238431
Fix,GT,37.585488,-122.3274034,,1.2513504,0.1,234.06786,1593048239431
Fix,GT,37.5854767,-122.3274236,,3.2509909,0.1,234.84128,1593048240431
Fix,GT,37.5854554,-122.3274652,,5.540749,0.1,237.29926,1593048241431
Fix,GT,37.5854249,-122.3275298,,7.702963,0.1,239.53549,1593048242431
Fix,GT,37.5853852,-122.3276148,,9.6369295,0.1,239.61615,1593048243431
Fix,GT,37.5853358,-122.3277135,,10.887995,0.1,236.99985,1593048244431
Fix,GT,37.5852751,-122.3278158,,11.598116,0.1,231.61157,1593048245431
Fix,GT,37.5852039,-122.3279138,,11.738789,0.1,225.97592,1593048246431
Fix,GT,37.5851278,-122.3280021,,11.183054,0.1,221.31415,1593048247431
Fix,GT,37.5850519,-122.3280784,,10.312953,0.1,217.4832,1593048248431
Fix,GT,37.5849801,-122.3281409,,8.984264,0.1,213.85852,1593048249431
Fix,GT,37.5849166,-122.3281901,,7.575686,0.1,211.22673,1593048250431
Fix,GT,37.5848622,-122.3282287,,6.205929,0.1,209.1589,1593048251431
Fix,GT,37.5848199,-122.3282567,,4.3645763,0.1,207.99652,1593048252431
Fix,GT,37.5847924,-122.3282746,,2.52733,0.1,207.92113,1593048253431
Fix,GT,37.5847788,-122.3282834,,0.97865754,0.1,207.84285,1593048254431
Fix,GT,37.584775,-122.3282857,,0.09649599,0.1,207.72923,1593048255431
Fix,GT,37.5847749,-122.3282857,,0.008747788,0.1,207.7285,1593048256431
Fix,GT,37.5847749,-122.3282857,,0.005644404,0.1,207.72964,1593048257431
Fix,GT,37.5847749,-122.3282856,,0.0037765037,0.1,207.72932,1593048258431
Fix,GT,37.5847749,-122.3282856,,0.0024080523,0.1,207.72859,1593048259431
Fix,GT,37.5847749,-122.3282856,,0.0012354957,0.1,207.72879,1593048260431
Fix,GT,37.5847749,-122.3282856,,0.001,0.1,207.72864,1593048261431
Fix,GT,37.5847749,-122.3282856,,0.001,0.1,207.7283,1593048262431
Fix,GT,37.5847749,-122.3282856,,0.001,0.1,207.728,1593048263431
Fix,GT,37.5847749,-122.3282856,,0.0014314633,0.1,207.7281,1593048264431
Fix,GT,37.5847749,-122.3282856,,0.02410616,0.1,207.72739,1593048265431
Fix,GT,37.584774,-122.3282862,,0.1929788,0.1,207.65997,1593048266431
Fix,GT,37.5847718,-122.3282875,,0.3253595,0.1,207.47238,1593048267431
Fix,GT,37.5847696,-122.3282888,,0.20139036,0.1,207.28922,1593048268431
Fix,GT,37.5847683,-122.3282897,,0.1479785,0.1,207.18109,1593048269431
Fix,GT,37.5847671,-122.3282903,,0.14895159,0.1,207.0911,1593048270431
Fix,GT,37.5847662,-122.3282909,,0.07160848,0.1,207.02548,1593048271431
Fix,GT,37.5847659,-122.3282911,,0.008350264,0.1,207.00217,1593048272431
Fix,GT,37.5847658,-122.3282911,,0.0021241996,0.1,207.00197,1593048273431
Fix,GT,37.5847658,-122.3282911,,0.003979451,0.1,207.00186,1593048274431
Fix,GT,37.5847657,-122.3282911,,0.0049832985,0.1,207.00185,1593048275431
Fix,GT,37.5847657,-122.3282912,,0.0202357,0.1,207.00127,1593048276431
Fix,GT,37.5847638,-122.3282923,,0.50194705,0.1,206.81349,1593048277431
Fix,GT,37.584754,-122.3282983,,2.0204365,0.1,206.39767,1593048278431
Fix,GT,37.5847285,-122.3283139,,4.3442817,0.1,206.1287,1593048279431
Fix,GT,37.5846836,-122.3283417,,6.794384,0.1,206.49251,1593048280431
Fix,GT,37.5846216,-122.3283841,,8.9398365,0.1,209.31505,1593048281431
Fix,GT,37.5845472,-122.3284454,,10.72257,0.1,214.98407,1593048282431
Fix,GT,37.5844678,-122.3285266,,12.092703,0.1,221.08858,1593048283431
Fix,GT,37.5843858,-122.3286273,,13.4608135,0.1,225.77055,1593048284431
Fix,GT,37.584299,-122.3287448,,14.803055,0.1,227.72992,1593048285431
Fix,GT,37.5842071,-122.3288732,,15.612322,0.1,228.16595,1593048286431
Fix,GT,37.5841122,-122.3290068,,15.935465,0.1,228.4267,1593048287431
Fix,GT,37.5840164,-122.3291423,,16.048729,0.1,228.62563,1593048288431
Fix,GT,37.5839209,-122.3292787,,16.015844,0.1,228.91014,1593048289431
Fix,GT,37.5838267,-122.3294155,,15.936937,0.1,229.51166,1593048290431
Fix,GT,37.5837339,-122.3295529,,15.922993,0.1,230.06952,1593048291431
Fix,GT,37.5836416,-122.3296909,,15.910887,0.1,230.13165,1593048292431
Fix,GT,37.5835495,-122.3298293,,15.926325,0.1,230.36156,1593048293431
Fix,GT,37.583459,-122.3299689,,15.824121,0.1,231.60022,1593048294431
Fix,GT,37.5833735,-122.3301096,,15.359367,0.1,233.81186,1593048295431
Fix,GT,37.5832964,-122.330248,,14.42498,0.1,236.19217,1593048296431
Fix,GT,37.5832288,-122.330378,,12.93845,0.1,237.35793,1593048297431
Fix,GT,37.5831706,-122.3304928,,11.169925,0.1,237.87845,1593048298431
Fix,GT,37.5831209,-122.3305916,,9.481934,0.1,237.58179,1593048299431
Fix,GT,37.5830765,-122.3306714,,7.752676,0.1,233.19296,1593048300431
Fix,GT,37.5830314,-122.3307278,,6.5801077,0.1,221.45415,1593048301431
Fix,GT,37.5829808,-122.3307603,,6.1348906,0.1,203.87831,1593048302431
Fix,GT,37.582929,-122.3307687,,5.378065,0.1,184.39478,1593048303431
Fix,GT,37.5828853,-122.330756,,4.5002494,0.1,165.28345,1593048304431
Fix,GT,37.5828517,-122.3307304,,4.3020754,0.1,150.01611,1593048305431
Fix,GT,37.5828198,-122.3306977,,4.9670544,0.1,142.49432,1593048306431
Fix,GT,37.5827811,-122.3306561,,6.41863,0.1,140.37994,1593048307431
Fix,GT,37.5827328,-122.3306023,,7.8629217,0.1,139.10965,1593048308431
Fix,GT,37.582676,-122.330538,,9.029034,0.1,138.36728,1593048309431
Fix,GT,37.5826135,-122.3304663,,9.618687,0.1,137.96759,1593048310431
Fix,GT,37.5825493,-122.3303931,,9.618816,0.1,138.3822,1593048311431
Fix,GT,37.5824835,-122.3303209,,9.888292,0.1,139.69202,1593048312431
Fix,GT,37.5824131,-122.3302471,,10.524872,0.1,140.5177,1593048313431
Fix,GT,37.5823379,-122.3301682,,11.1640835,0.1,140.22968,1593048314431
Fix,GT,37.5822597,-122.3300847,,11.5360775,0.1,139.54865,1593048315431
Fix,GT,37.5821813,-122.3299987,,11.484554,0.1,138.95776,1593048316431
Fix,GT,37.5821043,-122.3299134,,11.310978,0.1,138.81387,1593048317431
Fix,GT,37.5820289,-122.3298307,,10.762779,0.1,139.32617,1593048318431
Fix,GT,37.5819599,-122.3297562,,9.179926,0.1,139.65033,1593048319431
Fix,GT,37.5819047,-122.3296968,,6.98773,0.1,139.56671,1593048320431
Fix,GT,37.5818626,-122.3296513,,5.562149,0.1,139.52234,1593048321431
Fix,GT,37.5818263,-122.3296118,,5.190881,0.1,139.30939,1593048322431
Fix,GT,37.581791,-122.3295729,,5.223666,0.1,139.00906,1593048323431
Fix,GT,37.5817554,-122.3295334,,5.294464,0.1,138.844,1593048324431
Fix,GT,37.581719,-122.3294934,,5.5478096,0.1,139.11548,1593048325431
Fix,GT,37.581678,-122.3294492,,6.5657988,0.1,139.56458,1593048326431
Fix,GT,37.5816287,-122.3293963,,7.774102,0.1,139.77802,1593048327431
Fix,GT,37.5815724,-122.3293363,,8.506474,0.1,139.935,1593048328431
Fix,GT,37.5815129,-122.3292729,,8.745385,0.1,139.78253,1593048329431
Fix,GT,37.5814535,-122.3292084,,8.687843,0.1,139.09631,1593048330431
Fix,GT,37.5813946,-122.3291429,,8.856635,0.1,138.67126,1593048331431
Fix,GT,37.5813328,-122.3290742,,9.498432,0.1,138.76025,1593048332431
Fix,GT,37.5812663,-122.3290006,,10.201189,0.1,138.91211,1593048333431
Fix,GT,37.5811949,-122.3289222,,10.901878,0.1,139.0694,1593048334431
Fix,GT,37.5811181,-122.3288386,,11.621933,0.1,139.37048,1593048335431
Fix,GT,37.5810369,-122.3287509,,12.08416,0.1,139.5188,1593048336431
Fix,GT,37.5809535,-122.3286607,,12.333887,0.1,139.41913,1593048337431
Fix,GT,37.5808689,-122.3285685,,12.503798,0.1,139.21362,1593048338431
Fix,GT,37.5807835,-122.328475,,12.626072,0.1,139.15857,1593048339431
Fix,GT,37.5806975,-122.328381,,12.681665,0.1,139.19406,1593048340431
Fix,GT,37.5806115,-122.3282871,,12.587887,0.1,139.23993,1593048341431
Fix,GT,37.5805267,-122.3281945,,12.331437,0.1,139.20569,1593048342431
Fix,GT,37.5804438,-122.328104,,12.023018,0.1,139.22705,1593048343431
Fix,GT,37.5803633,-122.3280164,,11.595205,0.1,139.40582,1593048344431
Fix,GT,37.5802861,-122.3279325,,11.085062,0.1,139.37158,1593048345431
Fix,GT,37.5802122,-122.3278519,,10.701492,0.1,139.26721,1593048346431
Fix,GT,37.5801399,-122.3277733,,10.541231,0.1,139.30682,1593048347431
Fix,GT,37.5800678,-122.3276949,,10.64351,0.1,139.41327,1593048348431
Fix,GT,37.5799939,-122.3276148,,11.080955,0.1,139.41296,1593048349431
Fix,GT,37.5799161,-122.32753,,11.830519,0.1,139.24405,1593048350431
Fix,GT,37.5798331,-122.3274392,,12.594753,0.1,139.04407,1593048351431
Fix,GT,37.5797459,-122.3273429,,13.100296,0.1,138.94235,1593048352431
Fix,GT,37.5796565,-122.3272447,,13.201559,0.1,139.11224,1593048353431
Fix,GT,37.579567,-122.3271474,,13.043516,0.1,139.36337,1593048354431
Fix,GT,37.5794788,-122.3270517,,12.809115,0.1,139.36218,1593048355431
Fix,GT,37.5793928,-122.326958,,12.392286,0.1,139.24231,1593048356431
Fix,GT,37.5793105,-122.3268682,,11.760258,0.1,139.25488,1593048357431
Fix,GT,37.5792326,-122.3267833,,11.114845,0.1,139.2313,1593048358431
Fix,GT,37.5791599,-122.3267036,,10.171771,0.1,139.02692,1593048359431
Fix,GT,37.5790963,-122.3266338,,8.429849,0.1,138.96564,1593048360431
Fix,GT,37.5790466,-122.3265792,,6.279794,0.1,139.08087,1593048361431
Fix,GT,37.5790095,-122.3265387,,4.7849054,0.1,139.32788,1593048362431
Fix,GT,37.5789815,-122.3265083,,3.4203017,0.1,139.40643,1593048363431
Fix,GT,37.5789642,-122.3264893,,1.6621826,0.1,139.17133,1593048364431
Fix,GT,37.5789575,-122.3264818,,0.44544125,0.1,139.07068,1593048365431
Fix,GT,37.5789561,-122.3264803,,0.016406892,0.1,139.05292,1593048366431
Fix,GT,37.5789561,-122.3264803,,0.0020243959,0.1,139.05542,1593048367431
Fix,GT,37.5789562,-122.3264802,,0.002218245,0.1,139.05426,1593048368431
Fix,GT,37.5789562,-122.3264802,,0.0014142136,0.1,139.05423,1593048369431
Fix,GT,37.5789562,-122.3264802,,0.0008040314,0.1,139.05411,1593048370431
Fix,GT,37.5789562,-122.3264802,,0.0,0.1,139.05405,1593048371431
Fix,GT,37.5789562,-122.3264802,,0.00043146397,0.1,139.05408,1593048372431
Fix,GT,37.5789562,-122.3264802,,0.00056853605,0.1,139.05408,1593048373431
Fix,GT,37.5789562,-122.3264802,,0.00043146397,0.1,139.0542,1593048374431
Fix,GT,37.5789562,-122.3264802,,0.001,0.1,139.0542,1593048375431
Fix,GT,37.5789562,-122.3264802,,0.001,0.1,139.05414,1593048376431
Fix,GT,37.5789562,-122.3264802,,0.00056853605,0.1,139.05402,1593048377431
Fix,GT,37.5789562,-122.3264802,,0.00043146397,0.1,139.05399,1593048378431
Fix,GT,37.5789562,-122.3264802,,0.001,0.1,139.05414,1593048379431
Fix,GT,37.5789562,-122.3264802,,0.001,0.1,139.0542,1593048380431
Fix,GT,37.5789562,-122.3264802,,0.00056853605,0.1,139.05417,1593048381431
Fix,GT,37.5789562,-122.3264802,,0.00043146397,0.1,139.05402,1593048382431
Fix,GT,37.5789562,-122.3264802,,0.001,0.1,139.05396,1593048383431
Fix,GT,37.5789562,-122.3264802,,0.0011787182,0.1,139.05399,1593048384431
Fix,GT,37.5789562,-122.3264802,,0.0012354953,0.1,139.05408,1593048385431
Fix,GT,37.5789562,-122.3264802,,0.0036798667,0.1,139.05441,1593048386431
Fix,GT,37.5789562,-122.3264802,,0.004531236,0.1,139.05524,1593048387431
Fix,GT,37.5789562,-122.3264802,,0.0017889002,0.1,139.05548,1593048388431
Fix,GT,37.5789562,-122.3264802,,0.0025728457,0.1,139.05505,1593048389431
Fix,GT,37.5789562,-122.3264802,,0.0018814674,0.1,139.0549,1593048390431
Fix,GT,37.5789562,-122.3264802,,0.0017688142,0.1,139.05487,1593048391431
Fix,GT,37.5789562,-122.3264802,,0.002236068,0.1,139.055,1593048392431
Fix,GT,37.5789562,-122.3264802,,0.0017027492,0.1,139.05511,1593048393431
Fix,GT,37.5789562,-122.3264802,,0.0011787182,0.1,139.055,1593048394431
Fix,GT,37.5789562,-122.3264802,,0.0017688142,0.1,139.05463,1593048395431
Fix,GT,37.5789562,-122.3264802,,0.003428605,0.1,139.05438,1593048396431
Fix,GT,37.5789562,-122.3264802,,0.006294392,0.1,139.05457,1593048397431
Fix,GT,37.5789562,-122.3264802,,0.009743802,0.1,139.05463,1593048398431
Fix,GT,37.5789562,-122.3264802,,0.013961967,0.1,139.05463,1593048399431
Fix,GT,37.5789563,-122.3264802,,0.018799853,0.1,139.05463,1593048400431
Fix,GT,37.5789564,-122.3264802,,0.024839882,0.1,139.05444,1593048401431
Fix,GT,37.5789565,-122.3264803,,0.051519908,0.1,139.05365,1593048402431
Fix,GT,37.5789553,-122.3264787,,0.43950132,0.1,139.03265,1593048403431
Fix,GT,37.5789488,-122.3264714,,1.6212158,0.1,138.98486,1593048404431
Fix,GT,37.5789323,-122.3264532,,3.30787,0.1,139.02539,1593048405431
Fix,GT,37.5789057,-122.3264227,,4.606661,0.1,137.79803,1593048406431
Fix,GT,37.5788771,-122.3263803,,5.1158247,0.1,129.23672,1593048407431
Fix,GT,37.5788598,-122.3263256,,5.230223,0.1,109.51346,1593048408431
Fix,GT,37.5788627,-122.3262666,,5.279545,0.1,84.04968,1593048409431
Fix,GT,37.5788864,-122.3262125,,5.820292,0.1,60.36487,1593048410431
Fix,GT,37.5789259,-122.3261613,,6.7121496,0.1,45.89923,1593048411431
Fix,GT,37.5789735,-122.3261095,,7.152592,0.1,41.507507,1593048412431
Fix,GT,37.5790236,-122.3260567,,7.390469,0.1,40.67444,1593048413431
Fix,GT,37.5790757,-122.326002,,7.5877914,0.1,40.717194,1593048414431
Fix,GT,37.5791272,-122.325946,,7.6120996,0.1,41.740753,1593048415431
Fix,GT,37.5791793,-122.3258861,,8.177314,0.1,43.370483,1593048416431
Fix,GT,37.579235,-122.3258185,,9.019859,0.1,44.89328,1593048417431
Fix,GT,37.5792942,-122.325743,,9.609121,0.1,46.15338,1593048418431
Fix,GT,37.579355,-122.325663,,9.838065,0.1,46.756744,1593048419431
Fix,GT,37.5794154,-122.3255824,,9.697298,0.1,47.01544,1593048420431
Fix,GT,37.5794747,-122.325503,,9.551296,0.1,47.048065,1593048421431
Fix,GT,37.5795338,-122.3254247,,9.55482,0.1,46.78427,1593048422431
Fix,GT,37.579594,-122.3253456,,9.775356,0.1,46.352753,1593048423431
Fix,GT,37.579655,-122.325265,,9.737787,0.1,46.64972,1593048424431
Fix,GT,37.5797121,-122.3251878,,8.687386,0.1,47.51819,1593048425431
Fix,GT,37.5797591,-122.3251227,,6.8111887,0.1,48.344208,1593048426431
Fix,GT,37.5797927,-122.3250746,,4.5558224,0.1,49.031067,1593048427431
Fix,GT,37.579812,-122.3250468,,1.9338043,0.1,49.183167,1593048428431
Fix,GT,37.5798181,-122.325038,,0.42386883,0.1,49.214905,1593048429431
Fix,GT,37.5798202,-122.3250349,,0.68411094,0.1,49.243225,1593048430431
Fix,GT,37.579827,-122.3250245,,1.7509149,0.1,49.643433,1593048431431
Fix,GT,37.5798397,-122.3250044,,2.6822479,0.1,50.634247,1593048432431
Fix,GT,37.5798557,-122.3249788,,2.9270515,0.1,51.33127,1593048433431
Fix,GT,37.5798733,-122.3249503,,3.570713,0.1,51.753876,1593048434431
Fix,GT,37.5798977,-122.3249122,,5.3309374,0.1,50.90796,1593048435431
Fix,GT,37.5799355,-122.3248593,,7.290509,0.1,47.941895,1593048436431
Fix,GT,37.5799843,-122.324794,,8.440714,0.1,47.105743,1593048437431
Fix,GT,37.5800311,-122.324718,,8.582242,0.1,54.609222,1593048438431
Fix,GT,37.5800619,-122.3246304,,8.72027,0.1,70.87125,1593048439431
Fix,GT,37.5800703,-122.32453,,9.5270405,0.1,88.25629,1593048440431
Fix,GT,37.5800544,-122.3244187,,10.832813,0.1,104.36597,1593048441431
Fix,GT,37.5800116,-122.3243009,,12.398556,0.1,118.677246,1593048442431
Fix,GT,37.5799424,-122.3241791,,14.246916,0.1,128.50409,1593048443431
Fix,GT,37.5798505,-122.3240511,,16.29041,0.1,133.48901,1593048444431
Fix,GT,37.5797406,-122.3239113,,18.462303,0.1,135.02618,1593048445431
Fix,GT,37.5796171,-122.3237529,,20.711262,0.1,134.29129,1593048446431
Fix,GT,37.5794797,-122.3235762,,22.950787,0.1,135.10043,1593048447431
Fix,GT,37.5793226,-122.3233888,,25.149433,0.1,137.69125,1593048448431
Fix,GT,37.5791457,-122.3231914,,27.359352,0.1,138.97354,1593048449431
Fix,GT,37.5789528,-122.3229812,,29.315666,0.1,139.44873,1593048450431
Fix,GT,37.5787465,-122.3227593,,30.963577,0.1,139.71027,1593048451431
Fix,GT,37.5785281,-122.3225267,,32.584442,0.1,140.08167,1593048452431
Fix,GT,37.5782983,-122.3222842,,34.00783,0.1,140.1484,1593048453431
Fix,GT,37.5780606,-122.3220312,,35.07331,0.1,139.58383,1593048454431
Fix,GT,37.5778196,-122.3217681,,35.765144,0.1,138.96927,1593048455431
Fix,GT,37.5775761,-122.3214995,,36.119442,0.1,138.90723,1593048456431
Fix,GT,37.5773311,-122.32123,,36.074528,0.1,139.13123,1593048457431
Fix,GT,37.5770871,-122.3209632,,35.72301,0.1,139.25757,1593048458431
Fix,GT,37.5768451,-122.3206992,,35.4525,0.1,139.24384,1593048459431
Fix,GT,37.5766044,-122.3204367,,35.31426,0.1,139.26385,1593048460431
Fix,GT,37.5763642,-122.3201751,,35.268974,0.1,139.35162,1593048461431
Fix,GT,37.5761236,-122.3199137,,35.362072,0.1,139.4253,1593048462431
Fix,GT,37.5758821,-122.3196519,,35.428745,0.1,139.39844,1593048463431
Fix,GT,37.5756408,-122.3193897,,35.364258,0.1,139.33533,1593048464431
Fix,GT,37.5754003,-122.3191276,,35.286663,0.1,139.26752,1593048465431
Fix,GT,37.5751604,-122.3188656,,35.304195,0.1,139.13513,1593048466431
Fix,GT,37.5749207,-122.3186022,,35.407257,0.1,138.81024,1593048467431
Fix,GT,37.5746818,-122.3183355,,35.556973,0.1,138.32361,1593048468431
Fix,GT,37.5744432,-122.3180647,,35.790043,0.1,138.01752,1593048469431
Fix,GT,37.5742036,-122.3177919,,35.98444,0.1,138.10547,1593048470431
Fix,GT,37.5739618,-122.317519,,36.147293,0.1,138.48352,1593048471431
Fix,GT,37.5737174,-122.3172471,,36.315987,0.1,138.8371,1593048472431
Fix,GT,37.573471,-122.3169753,,36.4858,0.1,139.05603,1593048473431
Fix,GT,37.5732224,-122.3167036,,36.639717,0.1,139.3487,1593048474431
Fix,GT,37.572972,-122.3164322,,36.741913,0.1,139.5762,1593048475431
Fix,GT,37.5727203,-122.3161611,,36.834007,0.1,139.67593,1593048476431
Fix,GT,37.5724681,-122.3158897,,36.85505,0.1,139.58087,1593048477431
Fix,GT,37.5722166,-122.3156183,,36.72541,0.1,139.58786,1593048478431
Fix,GT,37.5719662,-122.3153488,,36.46754,0.1,139.7998,1593048479431
Fix,GT,37.5717168,-122.3150826,,36.178818,0.1,140.08508,1593048480431
Fix,GT,37.571468,-122.3148199,,36.00063,0.1,140.3208,1593048481431
Fix,GT,37.5712192,-122.3145586,,36.028206,0.1,140.29102,1593048482431
Fix,GT,37.5709701,-122.3142961,,36.13736,0.1,140.09915,1593048483431
Fix,GT,37.5707211,-122.3140318,,36.21632,0.1,139.93958,1593048484431
Fix,GT,37.5704723,-122.3137658,,36.286358,0.1,139.65793,1593048485431
Fix,GT,37.5702244,-122.3134975,,36.351673,0.1,139.38919,1593048486431
Fix,GT,37.5699766,-122.3132284,,36.334023,0.1,139.48105,1593048487431
Fix,GT,37.5697289,-122.312961,,36.122955,0.1,139.61212,1593048488431
Fix,GT,37.5694831,-122.3126964,,35.687595,0.1,139.59076,1593048489431
Fix,GT,37.5692409,-122.3124351,,35.16767,0.1,139.59906,1593048490431
Fix,GT,37.5690025,-122.3121781,,34.527554,0.1,139.71466,1593048491431
Fix,GT,37.5687686,-122.3119269,,33.786842,0.1,139.7197,1593048492431
Fix,GT,37.5685393,-122.3116802,,33.3342,0.1,139.55109,1593048493431
Fix,GT,37.5683118,-122.3114341,,33.44291,0.1,139.33109,1593048494431
Fix,GT,37.5680829,-122.3111836,,33.954094,0.1,138.97522,1593048495431
Fix,GT,37.5678513,-122.3109281,,34.39637,0.1,138.99545,1593048496431
Fix,GT,37.5676168,-122.3106714,,34.64121,0.1,139.38654,1593048497431
Fix,GT,37.5673798,-122.3104155,,34.713768,0.1,139.70285,1593048498431
Fix,GT,37.5671421,-122.310161,,34.598854,0.1,139.77063,1593048499431
Fix,GT,37.5669053,-122.3099071,,34.497917,0.1,139.5943,1593048500431
Fix,GT,37.5666697,-122.3096529,,34.45571,0.1,139.52603,1593048501431
Fix,GT,37.5664345,-122.3093988,,34.376854,0.1,139.56665,1593048502431
Fix,GT,37.5661999,-122.3091461,,34.238827,0.1,139.65137,1593048503431
Fix,GT,37.5659657,-122.3088944,,34.16526,0.1,139.60266,1593048504431
Fix,GT,37.5657326,-122.3086426,,34.07753,0.1,139.42667,1593048505431
Fix,GT,37.5655011,-122.3083911,,33.806885,0.1,139.31937,1593048506431
Fix,GT,37.5652723,-122.308142,,33.404156,0.1,139.29364,1593048507431
Fix,GT,37.5650458,-122.3078956,,33.16304,0.1,139.29462,1593048508431
Fix,GT,37.5648207,-122.3076498,,33.04402,0.1,139.04712,1593048509431
Fix,GT,37.5645987,-122.3074025,,32.805626,0.1,138.22803,1593048510431
Fix,GT,37.5643809,-122.3071523,,32.76217,0.1,137.40039,1593048511431
Fix,GT,37.5641635,-122.3068989,,33.148247,0.1,137.39551,1593048512431
Fix,GT,37.5639411,-122.3066432,,33.82001,0.1,137.9972,1593048513431
Fix,GT,37.563713,-122.306383,,34.6,0.1,137.8573,1593048514431
Fix,GT,37.5634815,-122.3061144,,35.357586,0.1,137.38376,1593048515431
Fix,GT,37.5632445,-122.3058408,,36.072884,0.1,138.09543,1593048516431
Fix,GT,37.5629997,-122.3055666,,36.713215,0.1,138.88184,1593048517431
Fix,GT,37.562749,-122.3052917,,37.093338,0.1,139.30505,1593048518431
Fix,GT,37.5624955,-122.3050165,,37.244335,0.1,139.47748,1593048519431
Fix,GT,37.5622404,-122.3047414,,37.366283,0.1,139.60999,1593048520431
Fix,GT,37.5619846,-122.3044664,,37.35061,0.1,139.66644,1593048521431
Fix,GT,37.5617294,-122.3041914,,37.29152,0.1,139.48227,1593048522431
Fix,GT,37.5614751,-122.3039154,,37.32098,0.1,139.26648,1593048523431
Fix,GT,37.5612204,-122.3036386,,37.453438,0.1,139.36322,1593048524431
Fix,GT,37.5609641,-122.3033616,,37.60218,0.1,139.74048,1593048525431
Fix,GT,37.5607054,-122.3030861,,37.64823,0.1,140.10626,1593048526431
Fix,GT,37.5604462,-122.3028117,,37.604248,0.1,140.07812,1593048527431
Fix,GT,37.560187,-122.3025369,,37.74051,0.1,140.21643,1593048528431
Fix,GT,37.559924,-122.3022638,,38.03888,0.1,141.26941,1593048529431
Fix,GT,37.5596543,-122.3019948,,38.420467,0.1,142.51215,1593048530431
Fix,GT,37.5593774,-122.3017304,,38.78502,0.1,143.5412,1593048531431
Fix,GT,37.5590944,-122.3014693,,39.122154,0.1,144.26392,1593048532431
Fix,GT,37.5588072,-122.3012091,,39.46472,0.1,144.56384,1593048533431
Fix,GT,37.5585165,-122.3009484,,39.825226,0.1,144.90277,1593048534431
Fix,GT,37.5582219,-122.3006877,,40.14455,0.1,145.2381,1593048535431
Fix,GT,37.5579247,-122.3004265,,40.349434,0.1,145.31598,1593048536431
Fix,GT,37.5576263,-122.3001645,,40.41012,0.1,145.31488,1593048537431
Fix,GT,37.5573285,-122.2999024,,40.291016,0.1,145.014,1593048538431
Fix,GT,37.5570332,-122.2996381,,40.14731,0.1,144.37848,1593048539431
Fix,GT,37.5567416,-122.2993717,,39.866013,0.1,144.05975,1593048540431
Fix,GT,37.5564534,-122.2991072,,39.34115,0.1,144.00967,1593048541431
Fix,GT,37.5561692,-122.2988454,,38.918186,0.1,143.84595,1593048542431
Fix,GT,37.5558877,-122.2985838,,38.871483,0.1,143.57935,1593048543431
Fix,GT,37.5556061,-122.2983204,,39.078636,0.1,143.54956,1593048544431
Fix,GT,37.5553228,-122.2980563,,39.233044,0.1,143.76318,1593048545431
Fix,GT,37.5550382,-122.2977923,,39.286766,0.1,143.73126,1593048546431
Fix,GT,37.5547539,-122.2975269,,39.339775,0.1,143.30212,1593048547431
Fix,GT,37.5544712,-122.2972581,,39.325348,0.1,142.7757,1593048548431
Fix,GT,37.554191,-122.2969865,,39.277626,0.1,142.34937,1593048549431
Fix,GT,37.5539121,-122.2967126,,39.322647,0.1,142.23022,1593048550431
Fix,GT,37.5536319,-122.2964392,,39.45562,0.1,142.65417,1593048551431
Fix,GT,37.5533482,-122.2961685,,39.654957,0.1,143.32385,1593048552431
Fix,GT,37.553061,-122.2958997,,39.849937,0.1,143.79535,1593048553431
Fix,GT,37.5527714,-122.2956315,,40.030506,0.1,143.81647,1593048554431
Fix,GT,37.5524811,-122.2953615,,40.128227,0.1,143.6325,1593048555431
Fix,GT,37.552191,-122.2950913,,40.002106,0.1,143.71173,1593048556431
Fix,GT,37.5519026,-122.2948232,,39.59354,0.1,143.84839,1593048557431
Fix,GT,37.5516174,-122.2945585,,39.169636,0.1,143.7287,1593048558431
Fix,GT,37.551335,-122.2942951,,38.946808,0.1,143.60126,1593048559431
Fix,GT,37.5510538,-122.2940322,,38.928223,0.1,143.58777,1593048560431
Fix,GT,37.5507718,-122.2937691,,39.07262,0.1,143.69434,1593048561431
Fix,GT,37.5504882,-122.2935052,,39.255688,0.1,143.67178,1593048562431
Fix,GT,37.5502034,-122.2932397,,39.4927,0.1,143.54517,1593048563431
Fix,GT,37.5499169,-122.2929716,,39.787003,0.1,143.53857,1593048564431
Fix,GT,37.5496284,-122.2927021,,40.00148,0.1,143.65009,1593048565431
Fix,GT,37.5493383,-122.292432,,40.17211,0.1,143.69794,1593048566431
Fix,GT,37.549047,-122.2921603,,40.371254,0.1,143.54816,1593048567431
Fix,GT,37.5487547,-122.2918866,,40.55364,0.1,143.51135,1593048568431
Fix,GT,37.5484607,-122.2916125,,40.720818,0.1,143.74554,1593048569431
Fix,GT,37.5481648,-122.2913385,,40.859253,0.1,143.87225,1593048570431
Fix,GT,37.5478681,-122.291064,,40.9488,0.1,143.77676,1593048571431
Fix,GT,37.5475711,-122.2907885,,41.011936,0.1,143.75806,1593048572431
Fix,GT,37.5472735,-122.2905123,,41.13852,0.1,143.75342,1593048573431
Fix,GT,37.5469748,-122.2902349,,41.285378,0.1,143.69052,1593048574431
Fix,GT,37.5466756,-122.2899567,,41.35518,0.1,143.67358,1593048575431
Fix,GT,37.5463761,-122.2896782,,41.365368,0.1,143.67682,1593048576431
Fix,GT,37.5460769,-122.2893992,,41.339264,0.1,143.64212,1593048577431
Fix,GT,37.5457782,-122.289121,,41.16632,0.1,143.75482,1593048578431
Fix,GT,37.5454811,-122.2888451,,40.81942,0.1,143.80579,1593048579431
Fix,GT,37.5451869,-122.2885721,,40.384155,0.1,143.80225,1593048580431
Fix,GT,37.5448956,-122.2883023,,39.93483,0.1,143.89737,1593048581431
Fix,GT,37.5446072,-122.2880364,,39.48948,0.1,143.99213,1593048582431
Fix,GT,37.5443219,-122.287774,,39.051815,0.1,144.00284,1593048583431
Fix,GT,37.5440399,-122.2875139,,38.630142,0.1,143.81839,1593048584431
Fix,GT,37.5437615,-122.2872551,,38.24247,0.1,143.66833,1593048585431
Fix,GT,37.5434859,-122.2869985,,37.95388,0.1,143.75482,1593048586431
Fix,GT,37.5432114,-122.2867442,,37.7447,0.1,143.88693,1593048587431
Fix,GT,37.5429382,-122.2864917,,37.5271,0.1,143.89563,1593048588431
Fix,GT,37.5426665,-122.286241,,37.344543,0.1,143.98737,1593048589431
Fix,GT,37.5423953,-122.2859919,,37.254795,0.1,144.02798,1593048590431
Fix,GT,37.5421246,-122.2857429,,37.2147,0.1,143.96533,1593048591431
Fix,GT,37.5418544,-122.2854942,,37.13604,0.1,144.02911,1593048592431
Fix,GT,37.5415848,-122.2852471,,36.924488,0.1,144.16238,1593048593431
Fix,GT,37.5413169,-122.2850028,,36.526314,0.1,144.3092,1593048594431
Fix,GT,37.5410512,-122.2847625,,36.228065,0.1,144.82605,1593048595431
Fix,GT,37.5407842,-122.284527,,36.336437,0.1,145.60187,1593048596431
Fix,GT,37.5405138,-122.2842927,,36.592926,0.1,145.48193,1593048597431
Fix,GT,37.5402431,-122.2840546,,36.760883,0.1,144.9256,1593048598431
Fix,GT,37.539973,-122.2838129,,36.855347,0.1,144.51202,1593048599431
Fix,GT,37.5397037,-122.283568,,36.945297,0.1,144.05963,1593048600431
Fix,GT,37.5394352,-122.2833203,,36.99307,0.1,143.80997,1593048601431
Fix,GT,37.5391672,-122.283072,,36.929333,0.1,143.77142,1593048602431
Fix,GT,37.5389,-122.2828239,,36.835934,0.1,143.73395,1593048603431
Fix,GT,37.5386331,-122.2825765,,36.78121,0.1,143.85278,1593048604431
Fix,GT,37.5383661,-122.2823301,,36.777893,0.1,143.92657,1593048605431
Fix,GT,37.5380988,-122.2820836,,36.84486,0.1,143.83221,1593048606431
Fix,GT,37.5378313,-122.281836,,36.892307,0.1,143.87756,1593048607431
Fix,GT,37.5375641,-122.2815896,,36.620377,0.1,143.95325,1593048608431
Fix,GT,37.5373,-122.2813458,,36.086586,0.1,143.84277,1593048609431
Fix,GT,37.5370407,-122.2811054,,35.42909,0.1,143.79529,1593048610431
Fix,GT,37.5367863,-122.2808698,,34.7525,0.1,143.90424,1593048611431
Fix,GT,37.5365354,-122.2806397,,34.265614,0.1,144.37,1593048612431
Fix,GT,37.5362853,-122.2804155,,34.023422,0.1,145.07947,1593048613431
Fix,GT,37.5360343,-122.2801939,,34.10342,0.1,145.11441,1593048614431
Fix,GT,37.5357821,-122.2799703,,34.370216,0.1,144.86136,1593048615431
Fix,GT,37.5355294,-122.2797443,,34.469704,0.1,144.61981,1593048616431
Fix,GT,37.5352776,-122.2795168,,34.382965,0.1,144.22498,1593048617431
Fix,GT,37.5350277,-122.2792877,,34.293087,0.1,143.76959,1593048618431
Fix,GT,37.5347792,-122.2790569,,34.37845,0.1,143.69446,1593048619431
Fix,GT,37.5345292,-122.2788255,,34.574387,0.1,143.96426,1593048620431
Fix,GT,37.5342776,-122.2785945,,34.551926,0.1,144.09406,1593048621431
Fix,GT,37.5340271,-122.2783638,,34.428482,0.1,143.78741,1593048622431
Fix,GT,37.5337779,-122.2781318,,34.438034,0.1,143.54776,1593048623431
Fix,GT,37.5335285,-122.2778987,,34.566216,0.1,143.59277,1593048624431
Fix,GT,37.5332781,-122.2776655,,34.60237,0.1,143.76422,1593048625431
Fix,GT,37.5330272,-122.2774332,,34.598923,0.1,143.88403,1593048626431
Fix,GT,37.5327759,-122.2772011,,34.652096,0.1,143.8446,1593048627431
Fix,GT,37.5325242,-122.2769686,,34.7107,0.1,143.86392,1593048628431
Fix,GT,37.5322719,-122.2767355,,34.81156,0.1,143.83914,1593048629431
Fix,GT,37.5320192,-122.2765014,,34.92263,0.1,143.74982,1593048630431
Fix,GT,37.5317663,-122.2762659,,34.964203,0.1,143.50607,1593048631431
Fix,GT,37.5315146,-122.2760279,,34.967407,0.1,142.8583,1593048632431
Fix,GT,37.5312655,-122.2757851,,35.036472,0.1,141.8135,1593048633431
Fix,GT,37.5310198,-122.2755352,,35.19317,0.1,140.52661,1593048634431
Fix,GT,37.530777,-122.2752775,,35.393272,0.1,139.59824,1593048635431
Fix,GT,37.5305347,-122.2750148,,35.65661,0.1,139.40329,1593048636431
Fix,GT,37.5302905,-122.2747505,,35.897102,0.1,139.51666,1593048637431
Fix,GT,37.5300447,-122.2744842,,36.128845,0.1,139.18805,1593048638431
Fix,GT,37.5297998,-122.2742138,,36.286354,0.1,138.55762,1593048639431
Fix,GT,37.5295561,-122.2739393,,36.373764,0.1,138.09076,1593048640431
Fix,GT,37.5293128,-122.2736624,,36.48718,0.1,138.021,1593048641431
Fix,GT,37.529069,-122.2733852,,36.51812,0.1,138.12924,1593048642431
Fix,GT,37.5288252,-122.2731084,,36.416985,0.1,138.018,1593048643431
Fix,GT,37.5285829,-122.2728319,,36.29832,0.1,137.87637,1593048644431
Fix,GT,37.5283417,-122.2725554,,36.18664,0.1,137.83865,1593048645431
Fix,GT,37.5281011,-122.2722798,,36.110554,0.1,137.92245,1593048646431
Fix,GT,37.5278603,-122.2720053,,36.08246,0.1,138.03204,1593048647431
Fix,GT,37.5276195,-122.2717313,,36.0392,0.1,138.01685,1593048648431
Fix,GT,37.5273797,-122.271458,,35.834904,0.1,137.95969,1593048649431
Fix,GT,37.5271422,-122.2711865,,35.471367,0.1,137.81409,1593048650431
Fix,GT,37.5269077,-122.270917,,35.077053,0.1,137.69476,1593048651431
Fix,GT,37.5266762,-122.2706502,,34.671577,0.1,137.65332,1593048652431
Fix,GT,37.5264473,-122.2703869,,34.268246,0.1,137.88153,1593048653431
Fix,GT,37.5262196,-122.2701278,,33.949677,0.1,138.12158,1593048654431
Fix,GT,37.5259938,-122.2698698,,33.88785,0.1,137.50635,1593048655431
Fix,GT,37.52577,-122.2696075,,34.114506,0.1,136.88437,1593048656431
Fix,GT,37.5255449,-122.2693421,,34.41735,0.1,137.18524,1593048657431
Fix,GT,37.5253164,-122.2690774,,34.598946,0.1,137.80634,1593048658431
Fix,GT,37.5250857,-122.268813,,34.72679,0.1,137.83835,1593048659431
Fix,GT,37.5248542,-122.2685472,,34.920322,0.1,137.73697,1593048660431
Fix,GT,37.5246212,-122.2682799,,35.14948,0.1,137.8927,1593048661431
Fix,GT,37.5243857,-122.2680117,,35.43123,0.1,138.05994,1593048662431
Fix,GT,37.5241481,-122.2677418,,35.682045,0.1,138.09772,1593048663431
Fix,GT,37.523909,-122.2674708,,35.783386,0.1,138.25623,1593048664431
Fix,GT,37.5236693,-122.267201,,35.6622,0.1,138.40619,1593048665431
Fix,GT,37.5234307,-122.2669329,,35.430634,0.1,138.32922,1593048666431
Fix,GT,37.523194,-122.2666659,,35.188576,0.1,138.22812,1593048667431
Fix,GT,37.5229592,-122.2663998,,35.06006,0.1,138.09784,1593048668431
Fix,GT,37.5227252,-122.2661339,,35.035797,0.1,138.09601,1593048669431
Fix,GT,37.5224907,-122.2658682,,35.08235,0.1,138.23367,1593048670431
Fix,GT,37.5222554,-122.2656024,,35.209763,0.1,138.19604,1593048671431
Fix,GT,37.5220194,-122.2653346,,35.385666,0.1,137.9848,1593048672431
Fix,GT,37.5217828,-122.265065,,35.519184,0.1,138.03116,1593048673431
Fix,GT,37.5215452,-122.2647953,,35.638836,0.1,138.21143,1593048674431
Fix,GT,37.5213059,-122.2645248,,35.846375,0.1,138.21198,1593048675431
Fix,GT,37.5210652,-122.2642526,,36.049446,0.1,138.15887,1593048676431
Fix,GT,37.5208233,-122.2639786,,36.262825,0.1,138.17984,1593048677431
Fix,GT,37.5205797,-122.2637028,,36.54345,0.1,138.26038,1593048678431
Fix,GT,37.5203335,-122.2634256,,36.835827,0.1,138.44653,1593048679431
Fix,GT,37.5200845,-122.2631472,,37.17475,0.1,138.56683,1593048680431
Fix,GT,37.5198329,-122.2628663,,37.551643,0.1,138.53925,1593048681431
Fix,GT,37.5195788,-122.2625827,,37.92664,0.1,138.72607,1593048682431
Fix,GT,37.5193206,-122.2622985,,38.312195,0.1,139.2575,1593048683431
Fix,GT,37.5190582,-122.2620141,,38.6367,0.1,139.46759,1593048684431
Fix,GT,37.5187939,-122.2617272,,38.88579,0.1,139.15729,1593048685431
Fix,GT,37.5185299,-122.2614362,,39.094467,0.1,138.76285,1593048686431
Fix,GT,37.5182656,-122.2611429,,39.19161,0.1,138.93445,1593048687431
Fix,GT,37.5179995,-122.2608518,,39.162384,0.1,139.46735,1593048688431
Fix,GT,37.5177318,-122.2605637,,39.125076,0.1,139.63611,1593048689431
Fix,GT,37.5174644,-122.2602752,,39.147728,0.1,139.3363,1593048690431
Fix,GT,37.5171983,-122.2599839,,39.204414,0.1,138.91772,1593048691431
Fix,GT,37.5169329,-122.2596907,,39.281868,0.1,139.01111,1593048692431
Fix,GT,37.5166657,-122.2593988,,39.360268,0.1,139.5039,1593048693431
Fix,GT,37.5163963,-122.2591087,,39.420853,0.1,139.63434,1593048694431
Fix,GT,37.5161267,-122.2588179,,39.477333,0.1,139.33691,1593048695431
Fix,GT,37.5158583,-122.2585244,,39.532707,0.1,138.85107,1593048696431
Fix,GT,37.5155918,-122.258227,,39.606556,0.1,138.35004,1593048697431
Fix,GT,37.5153263,-122.257927,,39.681957,0.1,138.10611,1593048698431
Fix,GT,37.515061,-122.2576256,,39.748688,0.1,138.03052,1593048699431
Fix,GT,37.5147956,-122.2573235,,39.7704,0.1,138.06323,1593048700431
Fix,GT,37.5145298,-122.2570219,,39.756554,0.1,138.25674,1593048701431
Fix,GT,37.514263,-122.2567217,,39.770058,0.1,138.47089,1593048702431
Fix,GT,37.5139953,-122.2564224,,39.815483,0.1,138.57968,1593048703431
Fix,GT,37.513727,-122.2561232,,39.816093,0.1,138.55371,1593048704431
Fix,GT,37.5134597,-122.2558235,,39.739277,0.1,138.29938,1593048705431
Fix,GT,37.5131939,-122.2555229,,39.65512,0.1,138.08887,1593048706431
Fix,GT,37.512929,-122.2552224,,39.59024,0.1,138.15671,1593048707431
Fix,GT,37.5126642,-122.2549228,,39.52943,0.1,138.21637,1593048708431
Fix,GT,37.5123998,-122.2546239,,39.463467,0.1,138.18799,1593048709431
Fix,GT,37.5121359,-122.2543253,,39.3957,0.1,138.18903,1593048710431
Fix,GT,37.5118724,-122.254027,,39.342525,0.1,138.15509,1593048711431
Fix,GT,37.5116093,-122.2537292,,39.30452,0.1,138.18842,1593048712431
Fix,GT,37.5113462,-122.2534318,,39.274925,0.1,138.24182,1593048713431
Fix,GT,37.5110834,-122.2531349,,39.180145,0.1,138.20834,1593048714431
Fix,GT,37.5108221,-122.2528391,,38.903496,0.1,138.16455,1593048715431
Fix,GT,37.5105631,-122.2525454,,38.586845,0.1,138.06177,1593048716431
Fix,GT,37.5103065,-122.2522526,,38.403305,0.1,137.82123,1593048717431
Fix,GT,37.510052,-122.2519593,,38.28587,0.1,137.45477,1593048718431
Fix,GT,37.5097997,-122.2516646,,38.230858,0.1,137.06116,1593048719431
Fix,GT,37.5095487,-122.2513684,,38.229843,0.1,136.88309,1593048720431
Fix,GT,37.509298,-122.2510715,,38.2778,0.1,136.92651,1593048721431
Fix,GT,37.5090462,-122.2507751,,38.34963,0.1,137.26306,1593048722431
Fix,GT,37.5087924,-122.2504802,,38.435028,0.1,137.66193,1593048723431
Fix,GT,37.5085364,-122.2501871,,38.467743,0.1,138.06,1593048724431
Fix,GT,37.5082793,-122.2498961,,38.357224,0.1,138.31195,1593048725431
Fix,GT,37.5080226,-122.2496072,,38.144497,0.1,138.33197,1593048726431
Fix,GT,37.5077676,-122.2493195,,38.001343,0.1,138.12134,1593048727431
Fix,GT,37.5075144,-122.2490302,,38.004044,0.1,137.55487,1593048728431
Fix,GT,37.5072633,-122.2487375,,38.064503,0.1,137.16943,1593048729431
Fix,GT,37.5070123,-122.2484432,,38.190346,0.1,137.28436,1593048730431
Fix,GT,37.5067593,-122.2481491,,38.346123,0.1,137.57837,1593048731431
Fix,GT,37.5065043,-122.2478556,,38.462963,0.1,137.87686,1593048732431
Fix,GT,37.5062473,-122.2475631,,38.5306,0.1,138.1641,1593048733431
Fix,GT,37.5059892,-122.2472714,,38.569534,0.1,138.30685,1593048734431
Fix,GT,37.5057306,-122.2469796,,38.59764,0.1,138.24951,1593048735431
Fix,GT,37.505472,-122.2466871,,38.682686,0.1,138.12997,1593048736431
Fix,GT,37.505213,-122.2463934,,38.789658,0.1,138.11505,1593048737431
Fix,GT,37.5049535,-122.246099,,38.83168,0.1,138.12653,1593048738431
Fix,GT,37.5046941,-122.2458046,,38.810284,0.1,138.1001,1593048739431
Fix,GT,37.5044349,-122.2455102,,38.7929,0.1,138.11523,1593048740431
Fix,GT,37.5041756,-122.245216,,38.772133,0.1,138.10846,1593048741431
Fix,GT,37.5039166,-122.2449224,,38.703682,0.1,138.12036,1593048742431
Fix,GT,37.5036583,-122.2446294,,38.573616,0.1,138.0935,1593048743431
Fix,GT,37.5034012,-122.2443369,,38.441048,0.1,137.97772,1593048744431
Fix,GT,37.5031455,-122.2440448,,38.320473,0.1,137.84576,1593048745431
Fix,GT,37.5028909,-122.2437531,,38.187614,0.1,137.82681,1593048746431
Fix,GT,37.5026372,-122.2434626,,38.043587,0.1,137.92151,1593048747431
Fix,GT,37.5023836,-122.2431739,,37.943836,0.1,138.0886,1593048748431
Fix,GT,37.5021299,-122.2428861,,37.97466,0.1,138.08649,1593048749431
Fix,GT,37.5018756,-122.2425976,,38.081215,0.1,138.0549,1593048750431
Fix,GT,37.501621,-122.2423086,,38.103966,0.1,138.10687,1593048751431
Fix,GT,37.5013663,-122.2420199,,38.05159,0.1,138.13458,1593048752431
Fix,GT,37.5011123,-122.2417314,,37.996727,0.1,138.05267,1593048753431
Fix,GT,37.500859,-122.2414431,,37.88174,0.1,138.02731,1593048754431
Fix,GT,37.5006067,-122.2411563,,37.680008,0.1,138.07129,1593048755431
Fix,GT,37.5003558,-122.2408711,,37.454212,0.1,138.03326,1593048756431
Fix,GT,37.5001069,-122.2405871,,37.198784,0.1,137.92447,1593048757431
Fix,GT,37.4998596,-122.2403051,,36.970627,0.1,138.03473,1593048758431
Fix,GT,37.499613,-122.2400253,,36.804203,0.1,138.36801,1593048759431
Fix,GT,37.4993667,-122.2397484,,36.59456,0.1,138.40668,1593048760431
Fix,GT,37.4991235,-122.2394711,,36.336437,0.1,137.31769,1593048761431
Fix,GT,37.4988882,-122.2391873,,36.109344,0.1,135.35776,1593048762431
Fix,GT,37.4986623,-122.2388952,,35.869263,0.1,133.36447,1593048763431
Fix,GT,37.4984459,-122.2385962,,35.554222,0.1,131.59683,1593048764431
Fix,GT,37.4982386,-122.2382926,,35.137444,0.1,129.94162,1593048765431
Fix,GT,37.4980414,-122.237985,,34.671608,0.1,127.90564,1593048766431
Fix,GT,37.4978567,-122.2376723,,34.179092,0.1,125.51898,1593048767431
Fix,GT,37.4976855,-122.2373546,,33.688713,0.1,122.99701,1593048768431
Fix,GT,37.4975272,-122.2370323,,33.300556,0.1,120.783905,1593048769431
Fix,GT,37.4973796,-122.2367063,,33.02067,0.1,118.92465,1593048770431
Fix,GT,37.4972417,-122.2363773,,32.724438,0.1,117.05878,1593048771431
Fix,GT,37.4971133,-122.2360466,,32.3186,0.1,115.443054,1593048772431
Fix,GT,37.4969933,-122.2357162,,31.904316,0.1,114.12494,1593048773431
Fix,GT,37.4968808,-122.2353876,,31.296623,0.1,112.89789,1593048774431
Fix,GT,37.4967764,-122.2350647,,30.269592,0.1,111.7258,1593048775431
Fix,GT,37.4966808,-122.2347518,,28.881886,0.1,110.72406,1593048776431
Fix,GT,37.496594,-122.2344552,,26.90076,0.1,110.13629,1593048777431
Fix,GT,37.4965147,-122.2341782,,25.26836,0.1,109.826324,1593048778431
Fix,GT,37.4964393,-122.2339115,,24.8514,0.1,109.74274,1593048779431
Fix,GT,37.4963648,-122.2336473,,24.784721,0.1,109.7926,1593048780431
Fix,GT,37.4962895,-122.2333814,,25.12996,0.1,109.8017,1593048781431
Fix,GT,37.496213,-122.2331116,,25.481506,0.1,109.901,1593048782431
Fix,GT,37.4961352,-122.2328398,,25.55154,0.1,110.03949,1593048783431
Fix,GT,37.496057,-122.2325678,,25.613216,0.1,110.143616,1593048784431
Fix,GT,37.4959782,-122.2322948,,25.794224,0.1,110.13977,1593048785431
Fix,GT,37.4958991,-122.2320185,,26.13618,0.1,109.8793,1593048786431
Fix,GT,37.4958198,-122.2317377,,26.555891,0.1,109.684326,1593048787431
Fix,GT,37.4957397,-122.2314527,,26.837543,0.1,109.65454,1593048788431
Fix,GT,37.4956592,-122.2311666,,26.780174,0.1,109.69473,1593048789431
Fix,GT,37.4955786,-122.2308818,,26.729858,0.1,109.80127,1593048790431
Fix,GT,37.4954973,-122.230596,,26.97235,0.1,110.00513,1593048791431
Fix,GT,37.4954141,-122.2303083,,27.104034,0.1,110.48236,1593048792431
Fix,GT,37.495329,-122.2300219,,26.920841,0.1,110.85916,1593048793431
Fix,GT,37.4952441,-122.2297379,,26.739738,0.1,110.646576,1593048794431
Fix,GT,37.495161,-122.2294543,,26.716393,0.1,110.2453,1593048795431
Fix,GT,37.495079,-122.2291699,,26.751762,0.1,109.990906,1593048796431
Fix,GT,37.4949976,-122.2288849,,26.790607,0.1,109.8963,1593048797431
Fix,GT,37.4949166,-122.2285995,,26.765926,0.1,109.73401,1593048798431
Fix,GT,37.4948366,-122.2283151,,26.537361,0.1,109.69867,1593048799431
Fix,GT,37.4947572,-122.2280345,,26.112875,0.1,109.83023,1593048800431
Fix,GT,37.4946787,-122.2277589,,25.66803,0.1,110.017365,1593048801431
Fix,GT,37.4946004,-122.2274875,,25.481285,0.1,110.21454,1593048802431
Fix,GT,37.4945214,-122.2272157,,25.734005,0.1,110.26755,1593048803431
Fix,GT,37.494441,-122.2269404,,26.101658,0.1,110.569885,1593048804431
Fix,GT,37.4943573,-122.2266626,,26.447226,0.1,111.32562,1593048805431
Fix,GT,37.4942692,-122.2263819,,26.964573,0.1,112.07556,1593048806431
Fix,GT,37.4941763,-122.2260966,,27.49723,0.1,112.80267,1593048807431
Fix,GT,37.4940791,-122.2258089,,27.707937,0.1,113.57562,1593048808431
Fix,GT,37.4939789,-122.2255225,,27.574177,0.1,114.301575,1593048809431
Fix,GT,37.4938769,-122.2252394,,27.395037,0.1,114.8602,1593048810431
Fix,GT,37.4937735,-122.224959,,27.2621,0.1,115.302,1593048811431
Fix,GT,37.4936686,-122.2246813,,27.125896,0.1,115.901184,1593048812431
Fix,GT,37.4935615,-122.2244064,,26.976547,0.1,116.57315,1593048813431
Fix,GT,37.4934532,-122.2241346,,26.757431,0.1,116.95245,1593048814431
Fix,GT,37.4933448,-122.2238661,,26.473457,0.1,117.1915,1593048815431
Fix,GT,37.4932367,-122.2236015,,26.12135,0.1,117.61252,1593048816431
Fix,GT,37.4931283,-122.2233421,,25.661835,0.1,118.16412,1593048817431
Fix,GT,37.4930199,-122.2230885,,25.211422,0.1,118.70239,1593048818431
Fix,GT,37.4929117,-122.2228401,,24.869293,0.1,119.02173,1593048819431
Fix,GT,37.4928037,-122.2225953,,24.634266,0.1,119.294586,1593048820431
Fix,GT,37.4926959,-122.2223526,,24.545853,0.1,119.39569,1593048821431
Fix,GT,37.4925884,-122.2221099,,24.587883,0.1,119.18271,1593048822431
Fix,GT,37.4924806,-122.2218651,,24.905418,0.1,119.133606,1593048823431
Fix,GT,37.4923708,-122.2216164,,25.358524,0.1,119.27655,1593048824431
Fix,GT,37.492259,-122.2213643,,25.668175,0.1,119.39151,1593048825431
Fix,GT,37.4921456,-122.2211094,,25.977875,0.1,119.37561,1593048826431
Fix,GT,37.4920308,-122.220851,,26.384218,0.1,119.31641,1593048827431
Fix,GT,37.4919144,-122.2205886,,26.760944,0.1,119.267426,1593048828431
Fix,GT,37.4917964,-122.220322,,27.18771,0.1,119.21265,1593048829431
Fix,GT,37.4916768,-122.2200509,,27.630243,0.1,119.24158,1593048830431
Fix,GT,37.4915551,-122.2197757,,27.98714,0.1,119.39371,1593048831431
Fix,GT,37.491431,-122.2194986,,28.220104,0.1,119.7287,1593048832431
Fix,GT,37.491305,-122.21922,,28.493427,0.1,119.82709,1593048833431
Fix,GT,37.4911773,-122.2189378,,28.866278,0.1,119.71002,1593048834431
Fix,GT,37.4910485,-122.218652,,29.198425,0.1,119.703064,1593048835431
Fix,GT,37.4909189,-122.2183641,,29.252655,0.1,119.65997,1593048836431
Fix,GT,37.4907898,-122.2180762,,29.174103,0.1,119.556335,1593048837431
Fix,GT,37.490661,-122.2177879,,29.275213,0.1,119.41583,1593048838431
Fix,GT,37.4905324,-122.2174979,,29.4399,0.1,119.22476,1593048839431
Fix,GT,37.4904037,-122.217206,,29.555984,0.1,119.18176,1593048840431
Fix,GT,37.4902752,-122.2169127,,29.614754,0.1,118.89023,1593048841431
Fix,GT,37.4901484,-122.2166181,,29.589622,0.1,118.34061,1593048842431
Fix,GT,37.4900242,-122.2163225,,29.523588,0.1,117.77408,1593048843431
Fix,GT,37.4899029,-122.2160257,,29.470167,0.1,116.98599,1593048844431
Fix,GT,37.4897855,-122.215727,,29.421526,0.1,116.07306,1593048845431
Fix,GT,37.4896716,-122.2154269,,29.375969,0.1,115.45468,1593048846431
Fix,GT,37.48956,-122.215126,,29.347828,0.1,115.05188,1593048847431
Fix,GT,37.4894497,-122.2148242,,29.380611,0.1,114.768616,1593048848431
Fix,GT,37.4893406,-122.2145212,,29.408665,0.1,114.33496,1593048849431
Fix,GT,37.4892341,-122.2142175,,29.250038,0.1,113.7442,1593048850431
Fix,GT,37.4891306,-122.2139139,,29.193176,0.1,113.15027,1593048851431
Fix,GT,37.4890292,-122.2136076,,29.520317,0.1,112.42175,1593048852431
Fix,GT,37.4889299,-122.2132952,,29.990551,0.1,111.60498,1593048853431
Fix,GT,37.4888325,-122.2129764,,30.386198,0.1,110.86026,1593048854431
Fix,GT,37.4887372,-122.2126523,,30.723045,0.1,110.22479,1593048855431
Fix,GT,37.4886436,-122.2123233,,31.051708,0.1,109.58505,1593048856431
Fix,GT,37.4885523,-122.2119896,,31.329266,0.1,108.89856,1593048857431
Fix,GT,37.4884633,-122.2116527,,31.413975,0.1,108.341125,1593048858431
Fix,GT,37.4883768,-122.211315,,31.308498,0.1,107.800446,1593048859431
Fix,GT,37.4882935,-122.2109772,,31.226871,0.1,107.15793,1593048860431
Fix,GT,37.4882134,-122.2106392,,31.127146,0.1,106.59296,1593048861431
Fix,GT,37.4881365,-122.210302,,30.878765,0.1,106.01831,1593048862431
Fix,GT,37.4880629,-122.2099672,,30.551735,0.1,105.4545,1593048863431
Fix,GT,37.4879928,-122.2096351,,30.254692,0.1,104.76291,1593048864431
Fix,GT,37.4879267,-122.2093041,,30.1396,0.1,103.86664,1593048865431
Fix,GT,37.4878647,-122.2089721,,30.186504,0.1,103.05173,1593048866431
Fix,GT,37.487806,-122.2086384,,30.242147,0.1,102.375244,1593048867431
Fix,GT,37.4877502,-122.2083042,,30.08059,0.1,101.864655,1593048868431
Fix,GT,37.487697,-122.2079733,,29.578857,0.1,101.47168,1593048869431
Fix,GT,37.4876469,-122.2076482,,28.999107,0.1,100.98929,1593048870431
Fix,GT,37.4875997,-122.2073285,,28.52768,0.1,100.63696,1593048871431
Fix,GT,37.4875548,-122.2070129,,28.174534,0.1,100.00748,1593048872431
Fix,GT,37.4875139,-122.2067,,27.924232,0.1,99.00482,1593048873431
Fix,GT,37.4874767,-122.2063884,,27.831913,0.1,98.63446,1593048874431
Fix,GT,37.48744,-122.2060779,,27.670296,0.1,98.75571,1593048875431
Fix,GT,37.4874032,-122.2057703,,27.349426,0.1,98.75885,1593048876431
Fix,GT,37.4873672,-122.205466,,27.094307,0.1,98.69714,1593048877431
Fix,GT,37.4873312,-122.2051637,,26.990519,0.1,98.91431,1593048878431
Fix,GT,37.4872942,-122.2048626,,26.854488,0.1,99.15506,1593048879431
Fix,GT,37.4872564,-122.2045644,,26.5719,0.1,99.378784,1593048880431
Fix,GT,37.4872187,-122.2042695,,26.260605,0.1,99.36072,1593048881431
Fix,GT,37.4871816,-122.203978,,25.923943,0.1,99.225494,1593048882431
Fix,GT,37.4871457,-122.2036902,,25.593876,0.1,99.03714,1593048883431
Fix,GT,37.487111,-122.2034058,,25.32383,0.1,98.84268,1593048884431
Fix,GT,37.4870769,-122.2031232,,25.272196,0.1,98.83505,1593048885431
Fix,GT,37.4870427,-122.20284,,25.402836,0.1,98.90738,1593048886431
Fix,GT,37.4870079,-122.2025553,,25.521675,0.1,98.98419,1593048887431
Fix,GT,37.4869729,-122.2022689,,25.747276,0.1,98.91055,1593048888431
Fix,GT,37.4869378,-122.2019804,,25.84596,0.1,98.97925,1593048889431
Fix,GT,37.4869024,-122.2016927,,25.621113,0.1,99.150116,1593048890431
Fix,GT,37.4868669,-122.201408,,25.3615,0.1,99.20538,1593048891431
Fix,GT,37.4868312,-122.2011251,,25.287151,0.1,99.22513,1593048892431
Fix,GT,37.4867956,-122.2008427,,25.249416,0.1,99.22986,1593048893431
Fix,GT,37.4867604,-122.2005612,,25.16584,0.1,99.1496,1593048894431
Fix,GT,37.4867255,-122.2002797,,25.249481,0.1,99.1026,1593048895431
Fix,GT,37.4866904,-122.1999971,,25.363672,0.1,99.0376,1593048896431
Fix,GT,37.4866559,-122.1997123,,25.618866,0.1,98.84152,1593048897431
Fix,GT,37.4866216,-122.1994238,,25.992416,0.1,98.65588,1593048898431
Fix,GT,37.4865872,-122.1991315,,26.222565,0.1,98.70688,1593048899431
Fix,GT,37.4865518,-122.1988387,,26.142372,0.1,99.17502,1593048900431
Fix,GT,37.4865148,-122.1985481,,25.907635,0.1,99.588196,1593048901431
Fix,GT,37.4864769,-122.1982598,,25.80145,0.1,99.55142,1593048902431
Fix,GT,37.4864398,-122.1979719,,25.76521,0.1,99.27765,1593048903431
Fix,GT,37.4864038,-122.197685,,25.599094,0.1,99.16165,1593048904431
Fix,GT,37.4863685,-122.1973999,,25.457184,0.1,98.9039,1593048905431
Fix,GT,37.4863344,-122.1971155,,25.438652,0.1,98.7038,1593048906431
Fix,GT,37.4863002,-122.196831,,25.439001,0.1,98.96826,1593048907431
Fix,GT,37.4862649,-122.1965468,,25.403517,0.1,99.321014,1593048908431
Fix,GT,37.4862286,-122.1962638,,25.301147,0.1,99.48013,1593048909431
Fix,GT,37.4861919,-122.1959821,,25.171932,0.1,99.66843,1593048910431
Fix,GT,37.4861548,-122.1957022,,25.058414,0.1,99.59155,1593048911431
Fix,GT,37.4861185,-122.1954217,,25.28925,0.1,99.27722,1593048912431
Fix,GT,37.4860829,-122.1951356,,25.96234,0.1,99.08731,1593048913431
Fix,GT,37.4860471,-122.1948422,,26.467113,0.1,98.75699,1593048914431
Fix,GT,37.486012,-122.1945456,,26.476463,0.1,98.60083,1593048915431
Fix,GT,37.4859771,-122.1942495,,26.532059,0.1,98.773254,1593048916431
Fix,GT,37.4859413,-122.1939503,,27.037987,0.1,98.87363,1593048917431
Fix,GT,37.485904,-122.1936448,,27.608206,0.1,98.98999,1593048918431
Fix,GT,37.4858658,-122.193334,,27.979956,0.1,99.136505,1593048919431
Fix,GT,37.4858263,-122.193021,,28.026476,0.1,99.413635,1593048920431
Fix,GT,37.4857858,-122.1927097,,27.735598,0.1,99.57236,1593048921431
Fix,GT,37.4857459,-122.192402,,27.38966,0.1,99.3107,1593048922431
Fix,GT,37.4857077,-122.1920981,,27.045765,0.1,99.02249,1593048923431
Fix,GT,37.485671,-122.1917976,,26.763874,0.1,98.938965,1593048924431
Fix,GT,37.4856346,-122.1914986,,26.814507,0.1,98.80966,1593048925431
Fix,GT,37.4855987,-122.1911969,,27.202183,0.1,98.6904,1593048926431
Fix,GT,37.4855625,-122.1908899,,27.701954,0.1,98.66998,1593048927431
Fix,GT,37.4855258,-122.1905771,,28.211235,0.1,98.61923,1593048928431
Fix,GT,37.4854882,-122.1902591,,28.63627,0.1,98.86072,1593048929431
Fix,GT,37.4854485,-122.1899373,,28.936703,0.1,99.30298,1593048930431
Fix,GT,37.4854064,-122.1896132,,29.136017,0.1,99.74951,1593048931431
Fix,GT,37.4853621,-122.189288,,29.191683,0.1,100.232635,1593048932431
Fix,GT,37.4853158,-122.1889633,,29.157314,0.1,100.65521,1593048933431
Fix,GT,37.4852675,-122.188639,,29.26748,0.1,101.07037,1593048934431
Fix,GT,37.4852168,-122.1883126,,29.515474,0.1,101.628235,1593048935431
Fix,GT,37.4851626,-122.1879852,,29.646008,0.1,102.398865,1593048936431
Fix,GT,37.4851046,-122.1876576,,29.705858,0.1,103.200775,1593048937431
Fix,GT,37.4850431,-122.1873305,,29.741528,0.1,103.77298,1593048938431
Fix,GT,37.4849795,-122.1870038,,29.742474,0.1,104.216064,1593048939431
Fix,GT,37.484914,-122.1866779,,29.727217,0.1,104.57648,1593048940431
Fix,GT,37.484847,-122.1863522,,29.78045,0.1,104.7999,1593048941431
Fix,GT,37.4847787,-122.186026,,29.893608,0.1,105.1676,1593048942431
Fix,GT,37.4847079,-122.1856993,,29.982288,0.1,105.84573,1593048943431
Fix,GT,37.4846337,-122.1853733,,29.9876,0.1,106.58673,1593048944431
Fix,GT,37.4845563,-122.1850492,,29.87384,0.1,107.31229,1593048945431
Fix,GT,37.4844762,-122.1847278,,29.702526,0.1,107.94354,1593048946431
Fix,GT,37.4843937,-122.1844093,,29.535887,0.1,108.647064,1593048947431
Fix,GT,37.4843082,-122.1840942,,29.327908,0.1,109.47894,1593048948431
Fix,GT,37.4842201,-122.1837827,,29.172443,0.1,110.18042,1593048949431
Fix,GT,37.4841294,-122.1834737,,29.096867,0.1,110.73529,1593048950431
Fix,GT,37.4840371,-122.1831673,,28.699465,0.1,111.10864,1593048951431
Fix,GT,37.4839463,-122.1828703,,27.424202,0.1,111.38229,1593048952431
Fix,GT,37.4838596,-122.182591,,25.644623,0.1,111.731476,1593048953431
Fix,GT,37.4837764,-122.182328,,24.536827,0.1,112.12604,1593048954431
Fix,GT,37.4836939,-122.182073,,24.181335,0.1,112.59659,1593048955431
Fix,GT,37.4836103,-122.1818223,,23.886757,0.1,113.31259,1593048956431
Fix,GT,37.4835251,-122.181576,,23.61876,0.1,114.06247,1593048957431
Fix,GT,37.4834386,-122.1813327,,23.61056,0.1,114.4657,1593048958431
Fix,GT,37.4833505,-122.1810876,,24.022821,0.1,114.55878,1593048959431
Fix,GT,37.4832599,-122.1808373,,24.596966,0.1,114.79843,1593048960431
Fix,GT,37.4831656,-122.1805826,,25.07185,0.1,115.49829,1593048961431
Fix,GT,37.4830669,-122.1803255,,25.394917,0.1,116.44919,1593048962431
Fix,GT,37.482964,-122.1800681,,25.549324,0.1,117.29611,1593048963431
Fix,GT,37.4828577,-122.1798116,,25.601635,0.1,118.115814,1593048964431
Fix,GT,37.482748,-122.179556,,25.766003,0.1,118.98474,1593048965431
Fix,GT,37.4826341,-122.1793014,,25.86943,0.1,120.05774,1593048966431
Fix,GT,37.4825166,-122.1790493,,25.78711,0.1,121.13284,1593048967431
Fix,GT,37.482396,-122.1788007,,25.699633,0.1,122.01834,1593048968431
Fix,GT,37.482273,-122.1785557,,25.461994,0.1,122.88025,1593048969431
Fix,GT,37.4821495,-122.1783165,,24.923733,0.1,123.43768,1593048970431
Fix,GT,37.482027,-122.1780835,,24.455795,0.1,123.92078,1593048971431
Fix,GT,37.4819049,-122.1778556,,24.149982,0.1,124.31079,1593048972431
Fix,GT,37.4817831,-122.1776314,,23.87622,0.1,124.68909,1593048973431
Fix,GT,37.4816607,-122.17741,,23.833618,0.1,125.2327,1593048974431
Fix,GT,37.4815365,-122.1771884,,24.145878,0.1,125.47479,1593048975431
Fix,GT,37.4814095,-122.1769637,,24.578093,0.1,125.70999,1593048976431
Fix,GT,37.4812795,-122.1767363,,24.893543,0.1,126.07779,1593048977431
Fix,GT,37.4811471,-122.1765073,,25.164852,0.1,126.34906,1593048978431
Fix,GT,37.4810124,-122.176276,,25.513723,0.1,126.38214,1593048979431
Fix,GT,37.4808762,-122.1760411,,25.85682,0.1,126.1637,1593048980431
Fix,GT,37.4807391,-122.1758025,,26.189909,0.1,125.93378,1593048981431
Fix,GT,37.4806009,-122.1755609,,26.374916,0.1,125.9733,1593048982431
Fix,GT,37.4804616,-122.1753192,,26.360367,0.1,126.36914,1593048983431
Fix,GT,37.4803209,-122.1750792,,26.348766,0.1,126.72943,1593048984431
Fix,GT,37.4801797,-122.1748394,,26.428553,0.1,126.650696,1593048985431
Fix,GT,37.4800382,-122.1745977,,26.62283,0.1,126.47284,1593048986431
Fix,GT,37.4798961,-122.174354,,26.761763,0.1,126.422485,1593048987431
Fix,GT,37.4797536,-122.1741093,,26.873596,0.1,126.4082,1593048988431
Fix,GT,37.4796103,-122.1738631,,27.064903,0.1,126.39621,1593048989431
Fix,GT,37.4794662,-122.1736152,,27.206568,0.1,126.339355,1593048990431
Fix,GT,37.4793219,-122.1733664,,27.232288,0.1,126.22974,1593048991431
Fix,GT,37.4791783,-122.1731172,,27.170534,0.1,126.08322,1593048992431
Fix,GT,37.4790353,-122.1728677,,27.230682,0.1,125.97055,1593048993431
Fix,GT,37.4788913,-122.172617,,27.453533,0.1,126.12912,1593048994431
Fix,GT,37.4787453,-122.1723647,,27.714317,0.1,126.459076,1593048995431
Fix,GT,37.4785965,-122.1721114,,27.938213,0.1,126.86191,1593048996431
Fix,GT,37.4784457,-122.1718578,,27.99235,0.1,127.07733,1593048997431
Fix,GT,37.4782953,-122.1716055,,27.743145,0.1,126.921844,1593048998431
Fix,GT,37.4781476,-122.1713555,,27.294449,0.1,126.6723,1593048999431
Fix,GT,37.4780033,-122.171109,,26.793573,0.1,126.46561,1593049000431
Fix,GT,37.4778621,-122.1708667,,26.297539,0.1,126.43045,1593049001431
Fix,GT,37.4777233,-122.1706289,,25.91521,0.1,126.62128,1593049002431
Fix,GT,37.477585,-122.1703938,,25.88864,0.1,126.63193,1593049003431
Fix,GT,37.4774461,-122.1701564,,26.27621,0.1,126.28671,1593049004431
Fix,GT,37.4773059,-122.1699132,,26.811954,0.1,126.02426,1593049005431
Fix,GT,37.4771636,-122.1696645,,27.330278,0.1,125.825134,1593049006431
