MessageType,Provider,LatitudeDegrees,LongitudeDegrees,AltitudeMeters,SpeedMps,AccuracyMeters,BearingDegrees,UnixTimeMillis
Fix,GT,37.3179094,-121.9485157,,0.002357257,0.1,1.116272,1607640762431
Fix,GT,37.3179094,-121.9485157,,0.00423185,0.1,1.1153564,1607640763431
Fix,GT,37.3179094,-121.9485157,,0.005388184,0.1,1.1148682,1607640764431
Fix,GT,37.3179094,-121.9485156,,0.008166315,0.1,1.1147461,1607640765431
Fix,GT,37.3179094,-121.9485155,,0.014329048,0.1,1.1140442,1607640766431
Fix,GT,37.3179095,-121.9485153,,0.020833129,0.1,1.1137695,1607640767431
Fix,GT,37.3179095,-121.948515,,0.030981716,0.1,1.1131897,1607640768431
Fix,GT,37.3179095,-121.9485146,,0.039893914,0.1,1.111969,1607640769431
Fix,GT,37.3179095,-121.9485143,,0.053287473,0.1,0.66567993,1607640770431
Fix,GT,37.3179088,-121.9485149,,0.17965972,0.1,358.66986,1607640771431
Fix,GT,37.3179058,-121.9485153,,0.46394962,0.1,358.1562,1607640772431
Fix,GT,37.3179005,-121.9485128,,0.726406,0.1,3.7855225,1607640773431
Fix,GT,37.3178929,-121.9485089,,0.90933174,0.1,14.105743,1607640774431
Fix,GT,37.3178831,-121.9485061,,0.9687172,0.1,26.739716,1607640775431
Fix,GT,37.317873,-121.9485058,,0.793897,0.1,39.120605,1607640776431
Fix,GT,37.317866,-121.9485068,,0.38898528,0.1,46.828217,1607640777431
Fix,GT,37.3178634,-121.9485066,,0.1613988,0.1,48.839966,1607640778431
Fix,GT,37.317863,-121.9485026,,0.56239504,0.1,51.87787,1607640779431
Fix,GT,37.3178654,-121.9484905,,1.4287934,0.1,61.707794,1607640780431
Fix,GT,37.3178691,-121.9484661,,2.6450944,0.1,77.52881,1607640781431
Fix,GT,37.31787,-121.9484274,,4.077731,0.1,90.9704,1607640782431
Fix,GT,37.3178652,-121.9483751,,5.0819707,0.1,95.73132,1607640783431
Fix,GT,37.3178573,-121.9483164,,5.204761,0.1,95.03998,1607640784431
Fix,GT,37.3178508,-121.9482606,,4.6052594,0.1,92.38986,1607640785431
Fix,GT,37.3178473,-121.948215,,3.3448699,0.1,90.03613,1607640786431
Fix,GT,37.3178443,-121.9481857,,1.8699661,0.1,89.027985,1607640787431
Fix,GT,37.317841,-121.9481684,,1.2992003,0.1,88.58688,1607640788431
Fix,GT,37.3178308,-121.9481509,,1.8346195,0.1,90.13385,1607640789431
Fix,GT,37.3178008,-121.9481267,,2.351791,0.1,103.06906,1607640790431
Fix,GT,37.3177545,-121.9481004,,3.0863566,0.1,131.26254,1607640791431
Fix,GT,37.3177254,-121.9480823,,4.413907,0.1,161.48584,1607640792431
Fix,GT,37.317704,-121.9480703,,5.172366,0.1,178.0719,1607640793431
Fix,GT,37.3176569,-121.948058,,5.371952,0.1,179.83156,1607640794431
Fix,GT,37.3176106,-121.94805,,5.618564,0.1,178.7976,1607640795431
Fix,GT,37.3175653,-121.9480482,,5.139373,0.1,177.62262,1607640796431
Fix,GT,37.3175262,-121.9480522,,4.26345,0.1,177.00098,1607640797431
Fix,GT,37.3174973,-121.948063,,3.9684603,0.1,177.01257,1607640798431
Fix,GT,37.3174705,-121.9480775,,4.4677963,0.1,177.51282,1607640799431
Fix,GT,37.3174317,-121.9480872,,5.5204477,0.1,178.49829,1607640800431
Fix,GT,37.317385,-121.9480962,,5.971283,0.1,179.77344,1607640801431
Fix,GT,37.3173377,-121.9481033,,5.3134074,0.1,179.73273,1607640802431
Fix,GT,37.3172993,-121.9481077,,3.7457905,0.1,178.15613,1607640803431
Fix,GT,37.3172792,-121.9481123,,2.224916,0.1,177.05713,1607640804431
Fix,GT,37.3172717,-121.9481165,,1.9074411,0.1,176.35535,1607640805431
Fix,GT,37.3172618,-121.9481223,,2.3083556,0.1,182.4245,1607640806431
Fix,GT,37.3172455,-121.9481384,,2.5915875,0.1,204.19586,1607640807431
Fix,GT,37.3172348,-121.948168,,3.18628,0.1,234.91074,1607640808431
Fix,GT,37.3172325,-121.948211,,4.6615047,0.1,260.4873,1607640809431
Fix,GT,37.3172355,-121.9482748,,6.7761564,0.1,272.61166,1607640810431
Fix,GT,37.3172415,-121.9483635,,8.950072,0.1,274.62054,1607640811431
Fix,GT,37.3172474,-121.9484744,,10.720883,0.1,273.64474,1607640812431
Fix,GT,37.3172532,-121.9486021,,11.923992,0.1,273.19116,1607640813431
Fix,GT,37.3172591,-121.9487404,,12.489588,0.1,273.00146,1607640814431
Fix,GT,37.317265,-121.9488812,,12.40636,0.1,273.09885,1607640815431
Fix,GT,37.3172715,-121.9490189,,12.060801,0.1,273.65417,1607640816431
Fix,GT,37.3172788,-121.9491527,,11.733248,0.1,274.04254,1607640817431
Fix,GT,37.3172859,-121.9492832,,11.455216,0.1,273.96408,1607640818431
Fix,GT,37.3172928,-121.9494104,,11.109348,0.1,273.93726,1607640819431
Fix,GT,37.3172992,-121.9495318,,10.35181,0.1,273.8523,1607640820431
Fix,GT,37.3173048,-121.9496405,,8.896336,0.1,273.92126,1607640821431
Fix,GT,37.3173097,-121.9497305,,7.07022,0.1,273.972,1607640822431
Fix,GT,37.3173135,-121.9498001,,5.30783,0.1,273.9011,1607640823431
Fix,GT,37.3173161,-121.9498502,,3.5946336,0.1,273.80463,1607640824431
Fix,GT,37.3173177,-121.949882,,2.0818672,0.1,273.76773,1607640825431
Fix,GT,37.3173184,-121.9498974,,0.76770324,0.1,273.6906,1607640826431
Fix,GT,37.3173185,-121.9499009,,0.0442056,0.1,273.6809,1607640827431
Fix,GT,37.3173185,-121.9499009,,0.0036281808,0.1,273.68073,1607640828431
Fix,GT,37.3173185,-121.9499009,,0.003967898,0.1,273.67892,1607640829431
Fix,GT,37.3173185,-121.9499009,,0.003414391,0.1,273.67786,1607640830431
Fix,GT,37.3173185,-121.9499009,,0.0027628527,0.1,273.67722,1607640831431
Fix,GT,37.3173185,-121.9499009,,0.002236068,0.1,273.67786,1607640832431
Fix,GT,37.3173185,-121.9499008,,0.0021342644,0.1,273.6791,1607640833431
Fix,GT,37.3173185,-121.9499008,,0.002,0.1,273.6786,1607640834431
Fix,GT,37.3173185,-121.9499008,,0.002,0.1,273.67792,1607640835431
Fix,GT,37.3173185,-121.9499009,,0.0021018037,0.1,273.67725,1607640836431
Fix,GT,37.3173185,-121.9499009,,0.0024915207,0.1,273.67642,1607640837431
Fix,GT,37.3173185,-121.9499009,,0.0031635594,0.1,273.6756,1607640838431
Fix,GT,37.3173185,-121.9499009,,0.003605551,0.1,273.6748,1607640839431
Fix,GT,37.3173185,-121.9499009,,0.0038802936,0.1,273.67395,1607640840431
Fix,GT,37.3173185,-121.9499009,,0.003967898,0.1,273.67328,1607640841431
Fix,GT,37.3173185,-121.9499009,,0.0038802936,0.1,273.6727,1607640842431
Fix,GT,37.3173185,-121.9499009,,0.0042426405,0.1,273.67224,1607640843431
Fix,GT,37.3173185,-121.9499009,,0.0042426405,0.1,273.67126,1607640844431
Fix,GT,37.3173185,-121.9499009,,0.0042426405,0.1,273.67026,1607640845431
Fix,GT,37.3173185,-121.9499008,,0.0042426405,0.1,273.66977,1607640846431
Fix,GT,37.3173185,-121.9499008,,0.0042426405,0.1,273.6693,1607640847431
Fix,GT,37.3173185,-121.9499008,,0.0042426405,0.1,273.66873,1607640848431
Fix,GT,37.3173185,-121.9499008,,0.0042426405,0.1,273.66797,1607640849431
Fix,GT,37.3173185,-121.9499008,,0.003967898,0.1,273.66718,1607640850431
Fix,GT,37.3173185,-121.9499008,,0.0036055513,0.1,273.6665,1607640851431
Fix,GT,37.3173184,-121.9499008,,0.0036055513,0.1,273.66583,1607640852431
Fix,GT,37.3173184,-121.9499008,,0.0032704188,0.1,273.66525,1607640853431
Fix,GT,37.3173184,-121.9499008,,0.0031635594,0.1,273.66464,1607640854431
Fix,GT,37.3173184,-121.9499008,,0.0032704188,0.1,273.6641,1607640855431
Fix,GT,37.3173184,-121.9499008,,0.0028284271,0.1,273.66333,1607640856431
Fix,GT,37.3173184,-121.9499008,,0.0028284271,0.1,273.6626,1607640857431
Fix,GT,37.3173184,-121.9499008,,0.0022185524,0.1,273.6619,1607640858431
Fix,GT,37.3173184,-121.9499008,,0.0014142136,0.1,273.66116,1607640859431
Fix,GT,37.3173184,-121.9499008,,0.0020240885,0.1,273.66046,1607640860431
Fix,GT,37.3173184,-121.9499008,,0.0025729742,0.1,273.6596,1607640861431
Fix,GT,37.3173184,-121.9499008,,0.002236068,0.1,273.65884,1607640862431
Fix,GT,37.3173184,-121.9499008,,0.0017030177,0.1,273.65808,1607640863431
Fix,GT,37.3173185,-121.9499008,,0.0011786283,0.1,273.6573,1607640864431
Fix,GT,37.3173185,-121.9499008,,0.0014142136,0.1,273.65656,1607640865431
Fix,GT,37.3173185,-121.9499008,,0.0012355854,0.1,273.65594,1607640866431
Fix,GT,37.3173185,-121.9499008,,0.0011786283,0.1,273.6553,1607640867431
Fix,GT,37.3173185,-121.9499008,,0.0012355854,0.1,273.6546,1607640868431
Fix,GT,37.3173185,-121.9499008,,0.0005687534,0.1,273.65384,1607640869431
Fix,GT,37.3173185,-121.9499008,,0.0,0.1,273.6531,1607640870431
Fix,GT,37.3173185,-121.9499009,,0.0,0.1,273.6523,1607640871431
Fix,GT,37.3173185,-121.9499009,,0.0,0.1,273.65155,1607640872431
Fix,GT,37.3173185,-121.9499009,,0.0,0.1,273.65088,1607640873431
Fix,GT,37.3173186,-121.9499009,,0.0,0.1,273.65012,1607640874431
Fix,GT,37.3173186,-121.9499009,,0.0,0.1,273.6493,1607640875431
Fix,GT,37.3173186,-121.9499009,,0.00043124668,0.1,273.64856,1607640876431
Fix,GT,37.3173186,-121.9499009,,0.0011786283,0.1,273.6478,1607640877431
Fix,GT,37.3173186,-121.9499009,,0.0014142136,0.1,273.64697,1607640878431
Fix,GT,37.3173186,-121.949901,,0.0012355854,0.1,273.6463,1607640879431
Fix,GT,37.3173186,-121.949901,,0.0011786283,0.1,273.6457,1607640880431
Fix,GT,37.3173186,-121.949901,,0.0014142136,0.1,273.6451,1607640881431
Fix,GT,37.3173186,-121.949901,,0.0014142136,0.1,273.6443,1607640882431
Fix,GT,37.3173186,-121.949901,,0.0014142136,0.1,273.64355,1607640883431
Fix,GT,37.3173186,-121.949901,,0.0014142136,0.1,273.643,1607640884431
Fix,GT,37.3173186,-121.949901,,0.0014142136,0.1,273.64246,1607640885431
Fix,GT,37.3173186,-121.949901,,0.0014142136,0.1,273.64175,1607640886431
Fix,GT,37.3173186,-121.949901,,0.0014142136,0.1,273.64105,1607640887431
Fix,GT,37.3173186,-121.949901,,0.0014142136,0.1,273.64038,1607640888431
Fix,GT,37.3173186,-121.949901,,0.0014142136,0.1,273.6397,1607640889431
Fix,GT,37.3173186,-121.949901,,0.0014142136,0.1,273.639,1607640890431
Fix,GT,37.3173186,-121.949901,,0.0014142136,0.1,273.63837,1607640891431
Fix,GT,37.3173186,-121.949901,,0.0014142136,0.1,273.63773,1607640892431
Fix,GT,37.3173186,-121.949901,,0.0014142136,0.1,273.63696,1607640893431
Fix,GT,37.3173186,-121.949901,,0.0017686356,0.1,273.63617,1607640894431
Fix,GT,37.3173186,-121.949901,,0.001881646,0.1,273.6355,1607640895431
Fix,GT,37.3173186,-121.949901,,0.0014142136,0.1,273.63483,1607640896431
Fix,GT,37.3173186,-121.949901,,0.0014142136,0.1,273.6342,1607640897431
Fix,GT,37.3173186,-121.949901,,0.0012355854,0.1,273.6335,1607640898431
Fix,GT,37.3173186,-121.949901,,0.0011786283,0.1,273.6328,1607640899431
Fix,GT,37.3173186,-121.949901,,0.0012355854,0.1,273.6322,1607640900431
Fix,GT,37.3173186,-121.949901,,0.0011786283,0.1,273.63165,1607640901431
Fix,GT,37.3173186,-121.949901,,0.0012355854,0.1,273.63098,1607640902431
Fix,GT,37.3173186,-121.949901,,0.001,0.1,273.63037,1607640903431
Fix,GT,37.3173186,-121.949901,,0.001,0.1,273.62976,1607640904431
Fix,GT,37.3173186,-121.949901,,0.001,0.1,273.6291,1607640905431
Fix,GT,37.3173186,-121.949901,,0.001,0.1,273.62842,1607640906431
Fix,GT,37.3173186,-121.949901,,0.001,0.1,273.62778,1607640907431
Fix,GT,37.3173186,-121.949901,,0.0005687534,0.1,273.62717,1607640908431
Fix,GT,37.3173186,-121.949901,,0.00043124668,0.1,273.62637,1607640909431
Fix,GT,37.3173186,-121.949901,,0.001,0.1,273.62564,1607640910431
Fix,GT,37.3173186,-121.949901,,0.0014312468,0.1,273.62512,1607640911431
Fix,GT,37.3173186,-121.949901,,0.0026923888,0.1,273.62457,1607640912431
Fix,GT,37.3173185,-121.949901,,0.0038802938,0.1,273.62396,1607640913431
Fix,GT,37.3173185,-121.9499016,,0.23521473,0.1,273.6184,1607640914431
Fix,GT,37.3173188,-121.9499113,,1.7431409,0.1,273.4749,1607640915431
Fix,GT,37.3173198,-121.9499466,,4.643685,0.1,272.54593,1607640916431
Fix,GT,37.3173195,-121.9500158,,7.635105,0.1,270.01862,1607640917431
Fix,GT,37.3173152,-121.9501176,,10.588417,0.1,267.04352,1607640918431
Fix,GT,37.3173067,-121.9502532,,13.510118,0.1,265.48328,1607640919431
Fix,GT,37.3172952,-121.9504196,,16.06277,0.1,265.02774,1607640920431
Fix,GT,37.3172817,-121.9506122,,18.273083,0.1,265.0088,1607640921431
Fix,GT,37.3172663,-121.9508298,,20.489124,0.1,264.94092,1607640922431
Fix,GT,37.3172487,-121.9510717,,22.51213,0.1,264.6982,1607640923431
Fix,GT,37.3172284,-121.9513346,,24.243107,0.1,264.24063,1607640924431
Fix,GT,37.3172042,-121.9516157,,25.848118,0.1,263.49176,1607640925431
Fix,GT,37.3171753,-121.951913,,27.189661,0.1,262.73935,1607640926431
Fix,GT,37.3171421,-121.9522225,,28.180706,0.1,262.09357,1607640927431
Fix,GT,37.3171055,-121.9525418,,29.025366,0.1,261.5121,1607640928431
Fix,GT,37.3170645,-121.9528697,,29.80168,0.1,260.7697,1607640929431
Fix,GT,37.3170197,-121.9532043,,30.263834,0.1,260.38232,1607640930431
Fix,GT,37.3169742,-121.9535411,,30.159657,0.1,260.48456,1607640931431
Fix,GT,37.3169306,-121.9538747,,29.736198,0.1,260.8663,1607640932431
Fix,GT,37.3168897,-121.954204,,29.364635,0.1,261.3681,1607640933431
Fix,GT,37.3168507,-121.9545303,,29.161785,0.1,261.612,1607640934431
Fix,GT,37.316813,-121.9548554,,29.091038,0.1,261.85883,1607640935431
Fix,GT,37.316777,-121.9551807,,29.150024,0.1,262.43277,1607640936431
Fix,GT,37.3167445,-121.9555083,,29.372932,0.1,263.42725,1607640937431
Fix,GT,37.3167166,-121.9558397,,29.710358,0.1,264.36633,1607640938431
Fix,GT,37.3166917,-121.9561755,,30.078384,0.1,264.83636,1607640939431
Fix,GT,37.316668,-121.9565156,,30.413502,0.1,265.18164,1607640940431
Fix,GT,37.3166466,-121.9568589,,30.590914,0.1,265.86795,1607640941431
Fix,GT,37.3166289,-121.9572034,,30.600548,0.1,266.64212,1607640942431
Fix,GT,37.3166147,-121.9575481,,30.602077,0.1,267.40015,1607640943431
Fix,GT,37.3166043,-121.9578933,,30.634602,0.1,268.26227,1607640944431
Fix,GT,37.3165986,-121.9582393,,30.702057,0.1,269.23056,1607640945431
Fix,GT,37.3165969,-121.9585863,,30.794666,0.1,270.0094,1607640946431
Fix,GT,37.3165987,-121.9589343,,30.88092,0.1,270.66592,1607640947431
Fix,GT,37.3166033,-121.9592833,,30.976192,0.1,271.03043,1607640948431
Fix,GT,37.3166092,-121.9596334,,31.10001,0.1,271.09485,1607640949431
Fix,GT,37.3166152,-121.9599847,,31.209106,0.1,271.13666,1607640950431
Fix,GT,37.3166208,-121.9603371,,31.29198,0.1,271.1242,1607640951431
Fix,GT,37.3166262,-121.9606904,,31.345808,0.1,271.05612,1607640952431
Fix,GT,37.3166314,-121.961044,,31.34872,0.1,271.03375,1607640953431
Fix,GT,37.3166367,-121.9613972,,31.259075,0.1,271.1792,1607640954431
Fix,GT,37.3166427,-121.9617492,,31.092789,0.1,271.26227,1607640955431
Fix,GT,37.3166487,-121.9620981,,30.744791,0.1,271.18753,1607640956431
Fix,GT,37.3166543,-121.9624417,,30.175829,0.1,271.1233,1607640957431
Fix,GT,37.3166588,-121.9627788,,29.61306,0.1,270.845,1607640958431
Fix,GT,37.3166621,-121.96311,,29.145618,0.1,270.63855,1607640959431
Fix,GT,37.3166649,-121.9634367,,28.815514,0.1,270.67224,1607640960431
Fix,GT,37.3166669,-121.9637604,,28.594341,0.1,270.25705,1607640961431
Fix,GT,37.3166658,-121.9640821,,28.445152,0.1,269.38596,1607640962431
Fix,GT,37.3166608,-121.9644022,,28.32724,0.1,268.51868,1607640963431
Fix,GT,37.3166524,-121.9647211,,28.242954,0.1,267.9449,1607640964431
Fix,GT,37.3166424,-121.9650393,,28.234371,0.1,267.68726,1607640965431
Fix,GT,37.3166318,-121.9653581,,28.323177,0.1,267.57605,1607640966431
Fix,GT,37.3166215,-121.9656776,,28.317259,0.1,267.68124,1607640967431
Fix,GT,37.3166115,-121.9659959,,28.161324,0.1,267.71973,1607640968431
Fix,GT,37.3166013,-121.9663125,,28.004608,0.1,267.58105,1607640969431
Fix,GT,37.3165906,-121.9666274,,27.88147,0.1,267.4906,1607640970431
Fix,GT,37.3165793,-121.9669412,,27.814775,0.1,267.37274,1607640971431
Fix,GT,37.316568,-121.9672543,,27.762415,0.1,267.42023,1607640972431
Fix,GT,37.316557,-121.9675663,,27.608131,0.1,267.44748,1607640973431
Fix,GT,37.3165462,-121.967876,,27.34957,0.1,267.4784,1607640974431
Fix,GT,37.3165367,-121.9681826,,27.02752,0.1,268.0659,1607640975431
Fix,GT,37.3165318,-121.9684857,,26.665943,0.1,269.56555,1607640976431
Fix,GT,37.3165344,-121.9687846,,26.298622,0.1,271.52972,1607640977431
Fix,GT,37.3165442,-121.9690789,,25.916433,0.1,272.98328,1607640978431
Fix,GT,37.3165572,-121.9693669,,25.130573,0.1,273.35144,1607640979431
Fix,GT,37.3165699,-121.9696422,,23.64188,0.1,273.09515,1607640980431
Fix,GT,37.3165805,-121.9698994,,22.041897,0.1,272.41513,1607640981431
Fix,GT,37.3165882,-121.9701407,,20.837116,0.1,271.99936,1607640982431
Fix,GT,37.3165946,-121.9703713,,20.122086,0.1,271.86487,1607640983431
Fix,GT,37.3166013,-121.9705961,,19.782524,0.1,272.27838,1607640984431
Fix,GT,37.3166102,-121.9708174,,19.496986,0.1,273.17877,1607640985431
Fix,GT,37.3166226,-121.9710353,,19.23283,0.1,274.55157,1607640986431
Fix,GT,37.3166397,-121.97125,,18.980839,0.1,276.1996,1607640987431
Fix,GT,37.3166611,-121.9714611,,18.731422,0.1,277.66608,1607640988431
Fix,GT,37.3166859,-121.971669,,18.510643,0.1,278.83914,1607640989431
Fix,GT,37.3167138,-121.971874,,18.332172,0.1,280.06775,1607640990431
Fix,GT,37.3167464,-121.9720761,,18.207582,0.1,282.22653,1607640991431
Fix,GT,37.3167873,-121.9722748,,18.124798,0.1,285.7753,1607640992431
Fix,GT,37.3168385,-121.9724687,,18.044857,0.1,289.547,1607640993431
Fix,GT,37.316899,-121.9726582,,18.128906,0.1,292.75482,1607640994431
Fix,GT,37.3169671,-121.972846,,18.399763,0.1,295.0812,1607640995431
Fix,GT,37.31704,-121.9730332,,18.394371,0.1,296.4093,1607640996431
Fix,GT,37.3171138,-121.9732164,,17.932545,0.1,296.8866,1607640997431
Fix,GT,37.3171848,-121.9733922,,16.894302,0.1,296.8491,1607640998431
Fix,GT,37.31725,-121.9735536,,15.115126,0.1,296.91907,1607640999431
Fix,GT,37.3173078,-121.9736964,,13.337395,0.1,296.82788,1607641000431
Fix,GT,37.3173582,-121.9738239,,11.932587,0.1,296.6968,1607641001431
Fix,GT,37.3174024,-121.9739376,,10.510024,0.1,296.8614,1607641002431
Fix,GT,37.3174435,-121.9740337,,8.695081,0.1,298.4713,1607641003431
Fix,GT,37.3174827,-121.9741093,,7.1951075,0.1,302.41962,1607641004431
Fix,GT,37.3175214,-121.9741698,,6.5095663,0.1,309.11523,1607641005431
Fix,GT,37.3175644,-121.9742166,,5.9499416,0.1,319.5931,1607641006431
Fix,GT,37.3176107,-121.9742467,,5.460185,0.1,332.5487,1607641007431
Fix,GT,37.3176556,-121.9742635,,4.8236094,0.1,342.43665,1607641008431
Fix,GT,37.3176935,-121.9742757,,3.8017983,0.1,344.85727,1607641009431
Fix,GT,37.3177212,-121.9742857,,2.7105696,0.1,343.98047,1607641010431
Fix,GT,37.3177414,-121.9742932,,2.1043708,0.1,343.2804,1607641011431
Fix,GT,37.3177589,-121.9742997,,2.0168083,0.1,343.0313,1607641012431
Fix,GT,37.3177769,-121.974306,,2.103427,0.1,343.5056,1607641013431
Fix,GT,37.3177956,-121.974311,,2.099974,0.1,345.72925,1607641014431
Fix,GT,37.3178151,-121.974314,,2.2809093,0.1,349.40842,1607641015431
Fix,GT,37.3178393,-121.9743158,,3.1664648,0.1,353.52563,1607641016431
Fix,GT,37.3178753,-121.9743147,,4.878407,0.1,359.21942,1607641017431
Fix,GT,37.3179275,-121.9743032,,6.7858543,0.1,9.4053955,1607641018431
Fix,GT,37.3179915,-121.9742718,,8.276988,0.1,22.259003,1607641019431
Fix,GT,37.318059,-121.9742234,,8.79719,0.1,30.386963,1607641020431
Fix,GT,37.3181236,-121.97417,,8.2366295,0.1,33.37982,1607641021431
Fix,GT,37.3181801,-121.974122,,6.8113985,0.1,33.849,1607641022431
Fix,GT,37.3182249,-121.9740873,,4.917902,0.1,30.170502,1607641023431
Fix,GT,37.3182598,-121.9740778,,3.491665,0.1,10.919983,1607641024431
Fix,GT,37.3182837,-121.9740998,,3.27009,0.1,333.79858,1607641025431
Fix,GT,37.3182879,-121.9741403,,3.7396173,0.1,290.0998,1607641026431
Fix,GT,37.3182663,-121.97418,,4.845568,0.1,245.53873,1607641027431
Fix,GT,37.3182215,-121.9742128,,6.9371443,0.1,214.92422,1607641028431
Fix,GT,37.3181562,-121.9742534,,9.311647,0.1,207.408,1607641029431
Fix,GT,37.3180743,-121.9743107,,11.471294,0.1,209.61522,1607641030431
Fix,GT,37.3179773,-121.9743813,,13.391722,0.1,210.0998,1607641031431
Fix,GT,37.3178654,-121.9744611,,15.190188,0.1,209.86485,1607641032431
Fix,GT,37.3177421,-121.9745516,,16.363678,0.1,211.03229,1607641033431
Fix,GT,37.3176154,-121.9746499,,16.56669,0.1,212.16818,1607641034431
Fix,GT,37.3174907,-121.9747492,,16.24133,0.1,212.61858,1607641035431
Fix,GT,37.3173698,-121.9748469,,15.535539,0.1,213.05826,1607641036431
Fix,GT,37.3172583,-121.9749385,,13.827497,0.1,213.4878,1607641037431
Fix,GT,37.3171642,-121.9750171,,11.309226,0.1,213.79567,1607641038431
Fix,GT,37.317089,-121.9750801,,8.82733,0.1,213.80458,1607641039431
Fix,GT,37.3170319,-121.9751279,,6.4024773,0.1,213.70854,1607641040431
Fix,GT,37.3169924,-121.975161,,4.212126,0.1,213.6401,1607641041431
Fix,GT,37.316968,-121.9751813,,2.354936,0.1,213.49734,1607641042431
Fix,GT,37.3169562,-121.9751911,,0.83315593,0.1,213.42485,1607641043431
Fix,GT,37.316953,-121.9751938,,0.09575344,0.1,213.40822,1607641044431
Fix,GT,37.316953,-121.9751939,,0.005536156,0.1,213.40785,1607641045431
Fix,GT,37.316953,-121.975194,,0.0030149664,0.1,213.40598,1607641046431
Fix,GT,37.3169531,-121.975194,,0.002236068,0.1,213.40451,1607641047431
Fix,GT,37.3169531,-121.975194,,0.0034280042,0.1,213.4036,1607641048431
Fix,GT,37.3169531,-121.975194,,0.0065030158,0.1,213.40285,1607641049431
Fix,GT,37.3169532,-121.975194,,0.010627862,0.1,213.40208,1607641050431
Fix,GT,37.3169533,-121.9751938,,0.016276726,0.1,213.40121,1607641051431
Fix,GT,37.3169534,-121.9751937,,0.022760306,0.1,213.40048,1607641052431
Fix,GT,37.3169536,-121.9751935,,0.030109154,0.1,213.39986,1607641053431
Fix,GT,37.3169537,-121.9751933,,0.12796356,0.1,213.39644,1607641054431
Fix,GT,37.31695,-121.975196,,1.1700957,0.1,213.28905,1607641055431
Fix,GT,37.3169332,-121.9752087,,3.403686,0.1,212.49866,1607641056431
Fix,GT,37.316897,-121.975232,,5.611724,0.1,207.95049,1607641057431
Fix,GT,37.3168418,-121.9752519,,7.1223755,0.1,194.95975,1607641058431
Fix,GT,37.3167764,-121.9752474,,7.628985,0.1,172.84668,1607641059431
Fix,GT,37.3167182,-121.9752066,,7.693883,0.1,145.83606,1607641060431
Fix,GT,37.3166778,-121.9751353,,8.38599,0.1,122.55792,1607641061431
Fix,GT,37.3166478,-121.9750371,,10.477221,0.1,110.06641,1607641062431
Fix,GT,37.3166177,-121.9749085,,13.244516,0.1,105.91876,1607641063431
Fix,GT,37.3165848,-121.9747521,,15.3679085,0.1,104.852936,1607641064431
Fix,GT,37.3165493,-121.9745775,,16.525225,0.1,104.355225,1607641065431
Fix,GT,37.3165128,-121.974393,,17.175106,0.1,104.040955,1607641066431
Fix,GT,37.3164751,-121.9742013,,17.828522,0.1,104.06763,1607641067431
Fix,GT,37.3164359,-121.9740027,,18.422897,0.1,104.03757,1607641068431
Fix,GT,37.3163955,-121.9737979,,18.98094,0.1,103.983154,1607641069431
Fix,GT,37.3163548,-121.9735861,,19.62854,0.1,103.56641,1607641070431
Fix,GT,37.3163154,-121.9733677,,20.015223,0.1,102.30972,1607641071431
Fix,GT,37.3162806,-121.973146,,20.073883,0.1,100.39609,1607641072431
Fix,GT,37.3162535,-121.9729207,,20.350227,0.1,97.46658,1607641073431
Fix,GT,37.3162358,-121.9726903,,20.74503,0.1,94.573,1607641074431
Fix,GT,37.3162241,-121.9724544,,21.17284,0.1,93.477295,1607641075431
Fix,GT,37.3162129,-121.9722134,,21.645197,0.1,93.66614,1607641076431
Fix,GT,37.3161999,-121.9719669,,22.159042,0.1,94.08682,1607641077431
Fix,GT,37.3161854,-121.9717145,,22.702354,0.1,94.41766,1607641078431
Fix,GT,37.3161693,-121.9714559,,23.31347,0.1,94.680115,1607641079431
Fix,GT,37.316153,-121.9711899,,23.984184,0.1,94.30005,1607641080431
Fix,GT,37.3161384,-121.9709158,,24.731112,0.1,93.59491,1607641081431
Fix,GT,37.316127,-121.9706326,,25.558338,0.1,92.48688,1607641082431
Fix,GT,37.316121,-121.9703394,,26.440783,0.1,90.77753,1607641083431
Fix,GT,37.316122,-121.9700363,,27.336235,0.1,89.1702,1607641084431
Fix,GT,37.3161286,-121.9697231,,28.18494,0.1,88.146484,1607641085431
Fix,GT,37.3161378,-121.9694016,,28.819773,0.1,87.8898,1607641086431
Fix,GT,37.3161474,-121.9690742,,29.261559,0.1,87.87668,1607641087431
Fix,GT,37.3161574,-121.9687414,,29.76578,0.1,87.82468,1607641088431
Fix,GT,37.316168,-121.9684029,,30.30437,0.1,87.72662,1607641089431
Fix,GT,37.3161792,-121.9680583,,30.845333,0.1,87.598694,1607641090431
Fix,GT,37.316191,-121.9677079,,31.330479,0.1,87.64191,1607641091431
Fix,GT,37.3162024,-121.9673525,,31.679913,0.1,87.76343,1607641092431
Fix,GT,37.3162137,-121.9669944,,31.833881,0.1,87.78177,1607641093431
Fix,GT,37.316225,-121.9666354,,31.847939,0.1,87.755615,1607641094431
Fix,GT,37.3162363,-121.9662768,,31.758167,0.1,87.75958,1607641095431
Fix,GT,37.3162473,-121.9659192,,31.68198,0.1,87.83093,1607641096431
Fix,GT,37.3162581,-121.9655624,,31.609694,0.1,87.91141,1607641097431
Fix,GT,37.3162685,-121.9652072,,31.366276,0.1,87.961395,1607641098431
Fix,GT,37.3162784,-121.9648558,,30.974678,0.1,87.98709,1607641099431
Fix,GT,37.316288,-121.9645088,,30.582647,0.1,88.25452,1607641100431
Fix,GT,37.3162954,-121.9641659,,30.255764,0.1,89.0061,1607641101431
Fix,GT,37.3162987,-121.9638253,,30.181156,0.1,89.78949,1607641102431
Fix,GT,37.3162983,-121.9634838,,30.391447,0.1,90.474915,1607641103431
Fix,GT,37.3162951,-121.9631389,,30.740116,0.1,90.90552,1607641104431
Fix,GT,37.3162905,-121.9627904,,31.026337,0.1,91.0939,1607641105431
Fix,GT,37.3162848,-121.96244,,31.084278,0.1,91.168304,1607641106431
Fix,GT,37.3162796,-121.9620896,,31.065899,0.1,91.0141,1607641107431
Fix,GT,37.3162754,-121.9617386,,31.18162,0.1,90.865326,1607641108431
Fix,GT,37.3162716,-121.961386,,31.325827,0.1,90.79645,1607641109431
Fix,GT,37.3162677,-121.9610325,,31.346817,0.1,90.837494,1607641110431
Fix,GT,37.3162634,-121.9606795,,31.24579,0.1,90.90436,1607641111431
Fix,GT,37.3162588,-121.9603279,,31.077597,0.1,91.068665,1607641112431
Fix,GT,37.3162535,-121.9599791,,30.754896,0.1,91.1326,1607641113431
Fix,GT,37.3162486,-121.9596342,,30.404785,0.1,91.05075,1607641114431
Fix,GT,37.316244,-121.9592925,,30.216457,0.1,90.97925,1607641115431
Fix,GT,37.3162405,-121.9589514,,30.294512,0.1,90.59979,1607641116431
Fix,GT,37.3162398,-121.9586087,,30.505367,0.1,89.78888,1607641117431
Fix,GT,37.3162431,-121.9582632,,30.748997,0.1,89.03259,1607641118431
Fix,GT,37.3162493,-121.9579161,,30.765415,0.1,88.50098,1607641119431
Fix,GT,37.3162583,-121.9575709,,30.445023,0.1,87.86734,1607641120431
Fix,GT,37.3162705,-121.9572299,,30.066082,0.1,87.056366,1607641121431
Fix,GT,37.3162863,-121.9568934,,29.697384,0.1,86.39926,1607641122431
Fix,GT,37.3163048,-121.9565612,,29.332352,0.1,85.75662,1607641123431
Fix,GT,37.3163259,-121.9562333,,28.999424,0.1,85.092896,1607641124431
Fix,GT,37.3163494,-121.9559092,,28.701435,0.1,84.80734,1607641125431
Fix,GT,37.3163728,-121.9555884,,28.396524,0.1,84.82849,1607641126431
Fix,GT,37.316395,-121.9552711,,28.062826,0.1,85.21362,1607641127431
Fix,GT,37.3164137,-121.9549575,,27.693691,0.1,86.303314,1607641128431
Fix,GT,37.3164266,-121.9546476,,27.325554,0.1,87.740234,1607641129431
Fix,GT,37.3164341,-121.9543414,,26.979288,0.1,88.67078,1607641130431
Fix,GT,37.3164389,-121.9540389,,26.659315,0.1,88.7399,1607641131431
Fix,GT,37.3164444,-121.9537413,,25.991776,0.1,88.5083,1607641132431
Fix,GT,37.3164506,-121.9534561,,24.412066,0.1,88.393585,1607641133431
Fix,GT,37.3164561,-121.9531931,,22.184654,0.1,88.58563,1607641134431
Fix,GT,37.3164606,-121.9529552,,20.04015,0.1,88.66052,1607641135431
Fix,GT,37.3164644,-121.9527386,,18.495018,0.1,88.650116,1607641136431
Fix,GT,37.3164678,-121.9525352,,17.73525,0.1,88.7796,1607641137431
Fix,GT,37.3164709,-121.9523373,,17.376717,0.1,88.79425,1607641138431
Fix,GT,37.3164745,-121.9521437,,16.888348,0.1,88.38544,1607641139431
Fix,GT,37.3164786,-121.9519594,,15.624985,0.1,88.326385,1607641140431
Fix,GT,37.3164808,-121.9517948,,13.431612,0.1,89.82089,1607641141431
Fix,GT,37.3164734,-121.9516576,,11.0507965,0.1,97.91446,1607641142431
Fix,GT,37.3164446,-121.9515516,,9.359583,0.1,116.3176,1607641143431
Fix,GT,37.3163902,-121.9514802,,8.788531,0.1,140.79968,1607641144431
Fix,GT,37.3163197,-121.9514422,,8.565584,0.1,160.8092,1607641145431
Fix,GT,37.3162478,-121.9514144,,8.163455,0.1,160.9986,1607641146431
Fix,GT,37.3161893,-121.9513681,,7.5459456,0.1,142.22104,1607641147431
Fix,GT,37.3161524,-121.9513017,,7.136838,0.1,120.43152,1607641148431
Fix,GT,37.316136,-121.9512256,,7.133807,0.1,102.26614,1607641149431
Fix,GT,37.3161331,-121.9511428,,7.734146,0.1,91.70987,1607641150431
Fix,GT,37.3161323,-121.9510514,,8.390635,0.1,91.03656,1607641151431
Fix,GT,37.3161309,-121.9509558,,8.461508,0.1,91.45981,1607641152431
Fix,GT,37.3161291,-121.9508616,,8.207148,0.1,91.84027,1607641153431
Fix,GT,37.3161263,-121.9507726,,7.4430485,0.1,92.56033,1607641154431
Fix,GT,37.3161241,-121.9506966,,5.9907217,0.1,92.29349,1607641155431
Fix,GT,37.3161226,-121.9506384,,4.358002,0.1,91.93591,1607641156431
Fix,GT,37.3161214,-121.9505979,,2.8606088,0.1,92.49292,1607641157431
Fix,GT,37.3161205,-121.9505737,,1.4873658,0.1,92.68805,1607641158431
Fix,GT,37.3161203,-121.9505638,,0.42613304,0.1,92.72745,1607641159431
Fix,GT,37.3161202,-121.9505621,,0.011690256,0.1,92.724915,1607641160431
Fix,GT,37.3161202,-121.950562,,0.0045687514,0.1,92.72412,1607641161431
Fix,GT,37.3161203,-121.950562,,0.0038298946,0.1,92.72357,1607641162431
Fix,GT,37.3161203,-121.950562,,0.0030149636,0.1,92.72327,1607641163431
Fix,GT,37.3161203,-121.950562,,0.0017030156,0.1,92.722626,1607641164431
Fix,GT,37.3161203,-121.950562,,0.001,0.1,92.721924,1607641165431
Fix,GT,37.3161203,-121.950562,,0.001,0.1,92.72116,1607641166431
Fix,GT,37.3161203,-121.950562,,0.0005687516,0.1,92.72034,1607641167431
Fix,GT,37.3161203,-121.950562,,0.0,0.1,92.71936,1607641168431
Fix,GT,37.3161203,-121.950562,,0.0,0.1,92.71854,1607641169431
Fix,GT,37.3161203,-121.950562,,0.0,0.1,92.717804,1607641170431
Fix,GT,37.3161203,-121.950562,,0.00060987746,0.1,92.71704,1607641171431
Fix,GT,37.3161203,-121.950562,,0.0012355846,0.1,92.71625,1607641172431
Fix,GT,37.3161203,-121.950562,,0.001178629,0.1,92.715454,1607641173431
Fix,GT,37.3161203,-121.950562,,0.0012355846,0.1,92.71454,1607641174431
Fix,GT,37.3161203,-121.950562,,0.0005687515,0.1,92.71399,1607641175431
Fix,GT,37.3161203,-121.950562,,0.00043124857,0.1,92.71344,1607641176431
Fix,GT,37.3161203,-121.950562,,0.0005687515,0.1,92.712585,1607641177431
Fix,GT,37.3161203,-121.950562,,0.0006098776,0.1,92.71173,1607641178431
Fix,GT,37.3161203,-121.950562,,0.0012355846,0.1,92.710846,1607641179431
Fix,GT,37.3161203,-121.950562,,0.0005687515,0.1,92.710144,1607641180431
Fix,GT,37.3161203,-121.950562,,0.00043124863,0.1,92.70929,1607641181431
Fix,GT,37.3161203,-121.950562,,0.001178629,0.1,92.708435,1607641182431
Fix,GT,37.3161203,-121.950562,,0.0012355845,0.1,92.70734,1607641183431
Fix,GT,37.3161203,-121.950562,,0.00056875136,0.1,92.70618,1607641184431
Fix,GT,37.3161203,-121.950562,,0.00043124869,0.1,92.70557,1607641185431
Fix,GT,37.3161203,-121.950562,,0.001178629,0.1,92.70502,1607641186431
Fix,GT,37.3161203,-121.950562,,0.0012355846,0.1,92.70441,1607641187431
Fix,GT,37.3161203,-121.950562,,0.0011786291,0.1,92.703674,1607641188431
Fix,GT,37.3161203,-121.950562,,0.0014142136,0.1,92.70279,1607641189431
Fix,GT,37.3161203,-121.950562,,0.00080433575,0.1,92.70203,1607641190431
Fix,GT,37.3161203,-121.950562,,0.00043124874,0.1,92.70117,1607641191431
Fix,GT,37.3161203,-121.950562,,0.001178629,0.1,92.70038,1607641192431
Fix,GT,37.3161203,-121.950562,,0.0012355845,0.1,92.69977,1607641193431
Fix,GT,37.3161203,-121.950562,,0.001,0.1,92.699066,1607641194431
Fix,GT,37.3161203,-121.950562,,0.001,0.1,92.69818,1607641195431
Fix,GT,37.3161203,-121.950562,,0.0005687512,0.1,92.69708,1607641196431
Fix,GT,37.3161203,-121.950562,,0.00043124886,0.1,92.69635,1607641197431
Fix,GT,37.3161203,-121.950562,,0.001,0.1,92.69577,1607641198431
Fix,GT,37.3161203,-121.950562,,0.0011786291,0.1,92.69507,1607641199431
Fix,GT,37.3161203,-121.950562,,0.0014142136,0.1,92.69394,1607641200431
Fix,GT,37.3161203,-121.950562,,0.0012355844,0.1,92.69293,1607641201431
Fix,GT,37.3161203,-121.950562,,0.001,0.1,92.69208,1607641202431
Fix,GT,37.3161203,-121.950562,,0.00056875113,0.1,92.691315,1607641203431
Fix,GT,37.3161203,-121.950562,,0.00043124892,0.1,92.690704,1607641204431
Fix,GT,37.3161203,-121.950562,,0.0011786292,0.1,92.68997,1607641205431
Fix,GT,37.3161203,-121.950562,,0.0014142136,0.1,92.68906,1607641206431
Fix,GT,37.3161203,-121.950562,,0.0014142136,0.1,92.6882,1607641207431
Fix,GT,37.3161203,-121.950562,,0.0012355845,0.1,92.68744,1607641208431
Fix,GT,37.3161203,-121.950562,,0.001,0.1,92.6868,1607641209431
Fix,GT,37.3161203,-121.950562,,0.001,0.1,92.68622,1607641210431
Fix,GT,37.3161203,-121.950562,,0.001,0.1,92.68561,1607641211431
Fix,GT,37.3161203,-121.950562,,0.0011786292,0.1,92.684814,1607641212431
Fix,GT,37.3161203,-121.950562,,0.0017686374,0.1,92.68396,1607641213431
Fix,GT,37.3161203,-121.950562,,0.002236068,0.1,92.683105,1607641214431
Fix,GT,37.3161203,-121.950562,,0.0024915223,0.1,92.68222,1607641215431
Fix,GT,37.3161203,-121.950562,,0.0028284271,0.1,92.681366,1607641216431
Fix,GT,37.3161203,-121.950562,,0.0031635612,0.1,92.68063,1607641217431
Fix,GT,37.3161203,-121.950562,,0.0039792648,0.1,92.680115,1607641218431
Fix,GT,37.3161203,-121.950562,,0.004472136,0.1,92.67938,1607641219431
Fix,GT,37.3161203,-121.950562,,0.004472136,0.1,92.67847,1607641220431
Fix,GT,37.3161203,-121.950562,,0.004472136,0.1,92.677734,1607641221431
Fix,GT,37.3161203,-121.950562,,0.004321617,0.1,92.677124,1607641222431
Fix,GT,37.3161203,-121.950562,,0.0037087495,0.1,92.67636,1607641223431
Fix,GT,37.3161203,-121.950562,,0.0022297974,0.1,92.67554,1607641224431
Fix,GT,37.3161203,-121.9505619,,0.0014312491,0.1,92.67474,1607641225431
Fix,GT,37.3161202,-121.9505619,,0.0029671364,0.1,92.67383,1607641226431
Fix,GT,37.3161202,-121.9505619,,0.0067254957,0.1,92.67322,1607641227431
Fix,GT,37.3161203,-121.9505613,,0.2015548,0.1,92.66962,1607641228431
Fix,GT,37.3161202,-121.9505565,,0.7451048,0.1,92.65289,1607641229431
Fix,GT,37.3161198,-121.9505446,,1.3256172,0.1,92.618835,1607641230431
Fix,GT,37.3161193,-121.9505268,,1.8817439,0.1,92.614624,1607641231431
Fix,GT,37.3161183,-121.9505005,,2.9564028,0.1,93.02139,1607641232431
Fix,GT,37.3161164,-121.950458,,4.6982327,0.1,93.30133,1607641233431
Fix,GT,37.3161157,-121.9503936,,6.6001368,0.1,90.8501,1607641234431
Fix,GT,37.3161212,-121.9503121,,7.6869555,0.1,83.69104,1607641235431
Fix,GT,37.3161403,-121.9502313,,7.294318,0.1,70.63379,1607641236431
Fix,GT,37.316174,-121.9501675,,6.4245963,0.1,53.244995,1607641237431
Fix,GT,37.3162182,-121.9501279,,5.878616,0.1,32.624756,1607641238431
Fix,GT,37.3162686,-121.9501138,,5.9579477,0.1,11.328888,1607641239431
Fix,GT,37.3163256,-121.9501141,,6.880115,0.1,0.7263794,1607641240431
Fix,GT,37.3163927,-121.9501153,,7.9805107,0.1,359.76962,1607641241431
Fix,GT,37.3164674,-121.9501163,,8.525064,0.1,359.85864,1607641242431
Fix,GT,37.316544,-121.9501173,,8.436454,0.1,359.67172,1607641243431
Fix,GT,37.3166185,-121.9501186,,8.018959,0.1,359.51108,1607641244431
Fix,GT,37.3166867,-121.9501195,,7.0100884,0.1,359.68433,1607641245431
Fix,GT,37.3167435,-121.95012,,5.540745,0.1,359.85095,1607641246431
Fix,GT,37.3167864,-121.9501203,,4.0038486,0.1,359.84332,1607641247431
Fix,GT,37.3168167,-121.9501206,,2.7798624,0.1,359.79532,1607641248431
Fix,GT,37.316837,-121.9501207,,1.6917268,0.1,359.84875,1607641249431
Fix,GT,37.3168467,-121.9501208,,0.5530646,0.1,359.87415,1607641250431
Fix,GT,37.3168484,-121.9501208,,0.011770571,0.1,359.8772,1607641251431
Fix,GT,37.3168485,-121.9501208,,0.002236068,0.1,359.87686,1607641252431
Fix,GT,37.3168485,-121.9501208,,0.0024915223,0.1,359.87506,1607641253431
Fix,GT,37.3168485,-121.9501207,,0.0029723998,0.1,359.87442,1607641254431
Fix,GT,37.3168485,-121.9501207,,0.0031622776,0.1,359.87387,1607641255431
Fix,GT,37.3168485,-121.9501207,,0.0030922955,0.1,359.87323,1607641256431
Fix,GT,37.3168485,-121.9501206,,0.003,0.1,359.8726,1607641257431
Fix,GT,37.3168485,-121.9501206,,0.003431249,0.1,359.87167,1607641258431
Fix,GT,37.3168485,-121.9501206,,0.003568751,0.1,359.87073,1607641259431
Fix,GT,37.3168485,-121.9501206,,0.0026705551,0.1,359.87024,1607641260431
Fix,GT,37.3168485,-121.9501206,,0.002236068,0.1,359.86972,1607641261431
Fix,GT,37.3168485,-121.9501206,,0.002635495,0.1,359.86905,1607641262431
Fix,GT,37.3168485,-121.9501206,,0.0027628506,0.1,359.86835,1607641263431
Fix,GT,37.3168485,-121.9501206,,0.002236068,0.1,359.86758,1607641264431
Fix,GT,37.3168485,-121.9501206,,0.002134264,0.1,359.86697,1607641265431
Fix,GT,37.3168485,-121.9501206,,0.002,0.1,359.8664,1607641266431
Fix,GT,37.3168485,-121.9501206,,0.0021018041,0.1,359.86588,1607641267431
Fix,GT,37.3168485,-121.9501206,,0.002134264,0.1,359.86517,1607641268431
Fix,GT,37.3168485,-121.9501206,,0.002,0.1,359.86447,1607641269431
Fix,GT,37.3168485,-121.9501206,,0.0021018041,0.1,359.86392,1607641270431
Fix,GT,37.3168485,-121.9501206,,0.002134264,0.1,359.86328,1607641271431
Fix,GT,37.3168485,-121.9501206,,0.0021018041,0.1,359.86252,1607641272431
Fix,GT,37.3168485,-121.9501206,,0.0026354948,0.1,359.86182,1607641273431
Fix,GT,37.3168485,-121.9501206,,0.0031622774,0.1,359.86124,1607641274431
Fix,GT,37.3168485,-121.9501206,,0.003353439,0.1,359.86057,1607641275431
Fix,GT,37.3168485,-121.9501206,,0.003605551,0.1,359.85992,1607641276431
Fix,GT,37.3168485,-121.9501206,,0.004206906,0.1,359.85916,1607641277431
Fix,GT,37.3168485,-121.9501206,,0.0046733893,0.1,359.8583,1607641278431
Fix,GT,37.3168485,-121.9501206,,0.00434161,0.1,359.85767,1607641279431
Fix,GT,37.3168485,-121.9501206,,0.0043731662,0.1,359.8571,1607641280431
Fix,GT,37.3168485,-121.9501205,,0.0045692506,0.1,359.8565,1607641281431
Fix,GT,37.3168486,-121.9501205,,0.005,0.1,359.85568,1607641282431
Fix,GT,37.3168487,-121.9501205,,0.045125954,0.1,359.85577,1607641283431
Fix,GT,37.3168494,-121.9501204,,0.122612864,0.1,359.8561,1607641284431
Fix,GT,37.316851,-121.9501204,,0.20460816,0.1,359.85587,1607641285431
Fix,GT,37.3168533,-121.9501203,,0.2506071,0.1,359.85513,1607641286431
Fix,GT,37.3168553,-121.9501203,,0.19094229,0.1,359.85126,1607641287431
Fix,GT,37.3168567,-121.9501203,,0.10806159,0.1,359.84805,1607641288431
Fix,GT,37.3168576,-121.9501202,,0.14899924,0.1,359.8472,1607641289431
Fix,GT,37.3168599,-121.9501202,,0.39837727,0.1,359.84326,1607641290431
Fix,GT,37.3168652,-121.9501203,,0.8074921,0.1,359.82706,1607641291431
Fix,GT,37.316875,-121.9501203,,1.4178611,0.1,359.73306,1607641292431
Fix,GT,37.3168917,-121.9501205,,2.4333267,0.1,359.88232,1607641293431
Fix,GT,37.3169208,-121.9501202,,4.111135,0.1,0.38674927,1607641294431
Fix,GT,37.3169662,-121.9501196,,5.766278,0.1,0.6253967,1607641295431
Fix,GT,37.3170223,-121.9501189,,6.453288,0.1,0.7757263,1607641296431
Fix,GT,37.3170801,-121.9501181,,6.3153143,0.1,0.79226685,1607641297431
Fix,GT,37.3171357,-121.9501195,,6.052342,0.1,358.23376,1607641298431
Fix,GT,37.3171887,-121.9501333,,6.147443,0.1,346.4261,1607641299431
Fix,GT,37.3172362,-121.9501721,,6.8022494,0.1,324.4612,1607641300431
Fix,GT,37.3172702,-121.9502386,,7.5712547,0.1,299.05353,1607641301431
Fix,GT,37.3172811,-121.9503258,,8.505481,0.1,275.99948,1607641302431
Fix,GT,37.3172747,-121.9504285,,9.954485,0.1,264.79907,1607641303431
Fix,GT,37.3172633,-121.95055,,11.81354,0.1,263.6748,1607641304431
Fix,GT,37.3172503,-121.9506936,,14.020941,0.1,263.92136,1607641305431
Fix,GT,37.3172354,-121.9508637,,16.26537,0.1,264.0721,1607641306431
Fix,GT,37.3172193,-121.9510551,,17.426193,0.1,264.1831,1607641307431
Fix,GT,37.3172027,-121.9512518,,17.679121,0.1,264.08765,1607641308431
Fix,GT,37.3171853,-121.9514539,,18.53656,0.1,263.84628,1607641309431
Fix,GT,37.3171659,-121.9516689,,20.010061,0.1,263.53174,1607641310431
Fix,GT,37.3171431,-121.9519028,,21.900349,0.1,262.87726,1607641311431
Fix,GT,37.3171155,-121.9521602,,24.151352,0.1,262.17328,1607641312431
Fix,GT,37.3170829,-121.9524428,,26.48049,0.1,261.6807,1607641313431
Fix,GT,37.3170461,-121.9527514,,28.824413,0.1,261.5658,1607641314431
Fix,GT,37.3170068,-121.9530855,,31.002438,0.1,261.86508,1607641315431
Fix,GT,37.3169673,-121.9534398,,32.220528,0.1,262.27597,1607641316431
Fix,GT,37.3169288,-121.9538008,,32.14475,0.1,262.45,1607641317431
Fix,GT,37.3168906,-121.9541581,,31.73475,0.1,262.2456,1607641318431
Fix,GT,37.3168519,-121.9545101,,31.266273,0.1,262.09338,1607641319431
Fix,GT,37.3168136,-121.954857,,30.823236,0.1,262.13528,1607641320431
Fix,GT,37.3167764,-121.9551992,,30.399418,0.1,262.49973,1607641321431
Fix,GT,37.316743,-121.9555374,,29.996769,0.1,263.3572,1607641322431
Fix,GT,37.3167138,-121.9558717,,29.629808,0.1,263.87793,1607641323431
Fix,GT,37.3166849,-121.9562019,,29.271282,0.1,263.54254,1607641324431
Fix,GT,37.3166547,-121.9565279,,28.915024,0.1,263.37534,1607641325431
Fix,GT,37.3166265,-121.9568502,,28.588894,0.1,264.2438,1607641326431
Fix,GT,37.3166036,-121.9571698,,28.333073,0.1,265.6658,1607641327431
Fix,GT,37.3165874,-121.9574879,,28.18639,0.1,266.9701,1607641328431
Fix,GT,37.3165763,-121.9578052,,28.123154,0.1,267.89127,1607641329431
Fix,GT,37.3165688,-121.9581216,,27.977577,0.1,268.67075,1607641330431
Fix,GT,37.3165648,-121.958436,,27.805128,0.1,269.43915,1607641331431
Fix,GT,37.3165638,-121.9587496,,27.853157,0.1,270.0833,1607641332431
Fix,GT,37.3165654,-121.9590651,,28.120247,0.1,270.6777,1607641333431
Fix,GT,37.3165693,-121.9593846,,28.532812,0.1,271.08554,1607641334431
Fix,GT,37.3165748,-121.9597092,,29.028059,0.1,271.265,1607641335431
Fix,GT,37.316581,-121.9600395,,29.570545,0.1,271.35257,1607641336431
Fix,GT,37.3165871,-121.9603764,,30.179878,0.1,271.1883,1607641337431
Fix,GT,37.3165928,-121.9607207,,30.834232,0.1,271.10913,1607641338431
Fix,GT,37.3165983,-121.9610717,,31.355907,0.1,271.04553,1607641339431
Fix,GT,37.3166035,-121.9614275,,31.649323,0.1,271.018,1607641340431
Fix,GT,37.3166088,-121.9617852,,31.68311,0.1,271.05377,1607641341431
Fix,GT,37.3166143,-121.9621416,,31.415668,0.1,271.07843,1607641342431
Fix,GT,37.3166195,-121.9624932,,30.880707,0.1,271.06317,1607641343431
Fix,GT,37.3166243,-121.9628386,,30.334885,0.1,271.02762,1607641344431
Fix,GT,37.316629,-121.9631782,,29.842293,0.1,270.94928,1607641345431
Fix,GT,37.3166326,-121.9635124,,29.405811,0.1,270.5266,1607641346431
Fix,GT,37.3166331,-121.9638416,,29.010506,0.1,269.73773,1607641347431
Fix,GT,37.3166299,-121.9641665,,28.673439,0.1,268.9922,1607641348431
Fix,GT,37.3166237,-121.9644878,,28.379425,0.1,268.3078,1607641349431
Fix,GT,37.3166149,-121.9648066,,28.225376,0.1,267.84027,1607641350431
Fix,GT,37.3166047,-121.9651255,,28.432144,0.1,267.66742,1607641351431
Fix,GT,37.3165946,-121.9654487,,28.925856,0.1,267.80597,1607641352431
Fix,GT,37.3165849,-121.9657767,,29.244501,0.1,267.82547,1607641353431
Fix,GT,37.3165746,-121.9661075,,29.527544,0.1,267.6245,1607641354431
Fix,GT,37.3165627,-121.9664442,,30.30237,0.1,267.31134,1607641355431
Fix,GT,37.3165497,-121.9667914,,31.316055,0.1,267.278,1607641356431
Fix,GT,37.3165372,-121.9671497,,32.181377,0.1,267.69708,1607641357431
Fix,GT,37.3165275,-121.9675149,,32.49285,0.1,268.64642,1607641358431
Fix,GT,37.3165239,-121.9678802,,32.251503,0.1,269.91373,1607641359431
Fix,GT,37.3165255,-121.9682423,,31.900215,0.1,270.59125,1607641360431
Fix,GT,37.31653,-121.9686,,31.495192,0.1,271.2182,1607641361431
Fix,GT,37.3165389,-121.9689527,,31.075697,0.1,272.37427,1607641362431
Fix,GT,37.3165532,-121.9693006,,30.663519,0.1,273.31494,1607641363431
Fix,GT,37.3165696,-121.9696437,,30.266129,0.1,273.15717,1607641364431
Fix,GT,37.3165837,-121.9699826,,29.885136,0.1,272.24875,1607641365431
Fix,GT,37.3165943,-121.9703173,,29.489037,0.1,271.95532,1607641366431
Fix,GT,37.3166048,-121.970646,,28.837101,0.1,272.69287,1607641367431
Fix,GT,37.316621,-121.9709667,,28.182991,0.1,274.41858,1607641368431
Fix,GT,37.3166457,-121.9712814,,27.908735,0.1,276.4668,1607641369431
Fix,GT,37.3166789,-121.971592,,27.62075,0.1,278.50885,1607641370431
Fix,GT,37.3167208,-121.971896,,27.07582,0.1,280.97614,1607641371431
Fix,GT,37.3167742,-121.9721905,,26.518139,0.1,284.67053,1607641372431
Fix,GT,37.3168441,-121.9724752,,26.375671,0.1,289.19376,1607641373431
Fix,GT,37.3169314,-121.9727506,,26.18111,0.1,293.56396,1607641374431
Fix,GT,37.3170319,-121.9730157,,25.827953,0.1,296.48517,1607641375431
Fix,GT,37.3171371,-121.9732722,,25.237007,0.1,297.32166,1607641376431
Fix,GT,37.3172389,-121.9735195,,23.85846,0.1,296.9418,1607641377431
Fix,GT,37.3173308,-121.973747,,21.06565,0.1,296.45795,1607641378431
Fix,GT,37.3174082,-121.9739402,,17.193861,0.1,296.9049,1607641379431
Fix,GT,37.317475,-121.974089,,13.149513,0.1,302.50833,1607641380431
Fix,GT,37.3175403,-121.9741885,,9.994418,0.1,315.10532,1607641381431
Fix,GT,37.3176053,-121.9742451,,7.844388,0.1,329.99393,1607641382431
Fix,GT,37.3176625,-121.9742714,,5.7309966,0.1,342.66803,1607641383431
Fix,GT,37.3177031,-121.9742816,,3.4642425,0.1,348.432,1607641384431
Fix,GT,37.3177248,-121.9742866,,1.5194168,0.1,348.87286,1607641385431
Fix,GT,37.3177326,-121.9742884,,0.3873955,0.1,348.9579,1607641386431
Fix,GT,37.3177341,-121.9742886,,0.0316631,0.1,348.94403,1607641387431
Fix,GT,37.3177344,-121.9742886,,0.028320644,0.1,348.9428,1607641388431
Fix,GT,37.3177345,-121.9742885,,0.022274807,0.1,348.94147,1607641389431
Fix,GT,37.3177347,-121.9742885,,0.027160265,0.1,348.93234,1607641390431
Fix,GT,37.3177352,-121.9742885,,0.08692326,0.1,348.88577,1607641391431
Fix,GT,37.3177364,-121.9742889,,0.21099189,0.1,348.64868,1607641392431
Fix,GT,37.3177392,-121.9742902,,0.4728508,0.1,347.2821,1607641393431
Fix,GT,37.3177446,-121.9742941,,0.8835732,0.1,343.00165,1607641394431
Fix,GT,37.3177528,-121.9743021,,1.3719468,0.1,334.93106,1607641395431
Fix,GT,37.3177632,-121.9743165,,1.9736497,0.1,322.80878,1607641396431
Fix,GT,37.3177748,-121.9743386,,2.6608877,0.1,310.14886,1607641397431
Fix,GT,37.3177913,-121.9743661,,3.406385,0.1,308.03122,1607641398431
Fix,GT,37.3178182,-121.9743882,,3.6519606,0.1,324.4729,1607641399431
Fix,GT,37.3178492,-121.9743926,,3.1950917,0.1,349.6003,1607641400431
Fix,GT,37.3178745,-121.9743836,,2.541223,0.1,9.617828,1607641401431
Fix,GT,37.3178912,-121.9743706,,1.6547189,0.1,23.771301,1607641402431
Fix,GT,37.3178988,-121.9743624,,0.5857202,0.1,29.979279,1607641403431
Fix,GT,37.3179003,-121.9743605,,0.06702141,0.1,30.514465,1607641404431
Fix,GT,37.3179005,-121.97436,,0.045525808,0.1,30.51297,1607641405431
Fix,GT,37.3179007,-121.9743596,,0.038272142,0.1,30.51065,1607641406431
Fix,GT,37.3179009,-121.9743593,,0.03181678,0.1,30.509369,1607641407431
Fix,GT,37.317901,-121.974359,,0.025426093,0.1,30.5083,1607641408431
Fix,GT,37.3179012,-121.9743588,,0.019376969,0.1,30.507263,1607641409431
Fix,GT,37.3179013,-121.9743587,,0.014245199,0.1,30.506104,1607641410431
Fix,GT,37.3179014,-121.9743586,,0.009961596,0.1,30.504913,1607641411431
Fix,GT,37.3179015,-121.9743585,,0.0065140175,0.1,30.503784,1607641412431
Fix,GT,37.3179016,-121.9743585,,0.0031534065,0.1,30.502533,1607641413431
Fix,GT,37.3179016,-121.9743584,,0.0025824236,0.1,30.501526,1607641414431
Fix,GT,37.3179017,-121.9743584,,0.0059011956,0.1,30.500519,1607641415431
Fix,GT,37.3179017,-121.9743583,,0.009607039,0.1,30.499298,1607641416431
Fix,GT,37.3179017,-121.9743583,,0.01124806,0.1,30.499573,1607641417431
Fix,GT,37.3179026,-121.9743576,,0.29790574,0.1,30.549438,1607641418431
Fix,GT,37.3179074,-121.9743541,,0.9744266,0.1,30.609192,1607641419431
Fix,GT,37.3179178,-121.9743459,,1.744751,0.1,30.928436,1607641420431
Fix,GT,37.3179343,-121.9743326,,2.6378863,0.1,31.950531,1607641421431
Fix,GT,37.317958,-121.9743128,,3.6917176,0.1,33.174133,1607641422431
Fix,GT,37.3179905,-121.974285,,5.020041,0.1,33.873047,1607641423431
Fix,GT,37.318033,-121.9742489,,6.2707195,0.1,33.95172,1607641424431
Fix,GT,37.3180824,-121.9742067,,6.822403,0.1,34.0083,1607641425431
Fix,GT,37.3181329,-121.974163,,6.7683334,0.1,34.512756,1607641426431
Fix,GT,37.3181817,-121.97412,,6.3331733,0.1,34.87506,1607641427431
Fix,GT,37.3182258,-121.9740854,,5.098647,0.1,29.809967,1607641428431
Fix,GT,37.3182634,-121.9740771,,3.7753859,0.1,6.616394,1607641429431
Fix,GT,37.3182875,-121.9741024,,3.3795187,0.1,326.5043,1607641430431
Fix,GT,37.3182891,-121.9741434,,3.6481433,0.1,283.0237,1607641431431
Fix,GT,37.3182666,-121.9741803,,4.447671,0.1,241.50885,1607641432431
Fix,GT,37.3182263,-121.9742091,,5.922651,0.1,214.48888,1607641433431
Fix,GT,37.3181701,-121.9742432,,7.9778366,0.1,207.1161,1607641434431
Fix,GT,37.3180974,-121.974293,,10.439386,0.1,209.5149,1607641435431
Fix,GT,37.3180087,-121.9743613,,12.623922,0.1,212.13197,1607641436431
Fix,GT,37.3179046,-121.9744432,,14.579183,0.1,211.98274,1607641437431
Fix,GT,37.3177867,-121.9745321,,15.874014,0.1,210.7897,1607641438431
Fix,GT,37.3176624,-121.9746234,,15.981617,0.1,210.55914,1607641439431
Fix,GT,37.3175396,-121.9747155,,15.765342,0.1,211.4361,1607641440431
Fix,GT,37.3174205,-121.9748089,,15.4257965,0.1,212.53511,1607641441431
Fix,GT,37.3173068,-121.9749009,,14.514798,0.1,213.1416,1607641442431
Fix,GT,37.3172039,-121.9749857,,12.670359,0.1,213.54897,1607641443431
Fix,GT,37.3171176,-121.9750579,,10.382764,0.1,213.808,1607641444431
Fix,GT,37.317049,-121.9751153,,7.9229593,0.1,213.70805,1607641445431
Fix,GT,37.3169991,-121.9751569,,5.3628874,0.1,213.67314,1607641446431
Fix,GT,37.3169677,-121.9751832,,3.0882816,0.1,213.77019,1607641447431
Fix,GT,37.3169522,-121.9751962,,1.1306057,0.1,213.69958,1607641448431
Fix,GT,37.316948,-121.9751998,,0.04434862,0.1,213.61931,1607641449431
Fix,GT,37.3169481,-121.9751998,,0.0056252163,0.1,213.61919,1607641450431
Fix,GT,37.3169481,-121.9751999,,0.003,0.1,213.61624,1607641451431
Fix,GT,37.3169481,-121.9751999,,0.0026705535,0.1,213.61507,1607641452431
Fix,GT,37.3169481,-121.9752,,0.0022360682,0.1,213.61417,1607641453431
Fix,GT,37.3169481,-121.9752,,0.0025655148,0.1,213.6132,1607641454431
Fix,GT,37.3169481,-121.9752001,,0.0034312513,0.1,213.61215,1607641455431
Fix,GT,37.316948,-121.9752001,,0.0044739535,0.1,213.61108,1607641456431
Fix,GT,37.316948,-121.9752001,,0.006184372,0.1,213.61032,1607641457431
Fix,GT,37.316948,-121.9752002,,0.008399878,0.1,213.60954,1607641458431
Fix,GT,37.3169481,-121.9752002,,0.010629658,0.1,213.60857,1607641459431
Fix,GT,37.3169481,-121.9752002,,0.01401551,0.1,213.60745,1607641460431
Fix,GT,37.3169481,-121.9752002,,0.018218644,0.1,213.60638,1607641461431
Fix,GT,37.3169482,-121.9752002,,0.023110416,0.1,213.60548,1607641462431
Fix,GT,37.3169483,-121.9752001,,0.028822176,0.1,213.60461,1607641463431
Fix,GT,37.3169484,-121.9752,,0.03538326,0.1,213.60376,1607641464431
Fix,GT,37.3169486,-121.9751998,,0.04319243,0.1,213.6027,1607641465431
Fix,GT,37.3169487,-121.9751995,,0.07052845,0.1,213.6029,1607641466431
Fix,GT,37.3169464,-121.9752012,,0.8334549,0.1,213.60802,1607641467431
Fix,GT,37.3169337,-121.9752114,,2.6292536,0.1,213.393,1607641468431
Fix,GT,37.3169062,-121.975231,,4.232211,0.1,210.5705,1607641469431
Fix,GT,37.3168646,-121.9752506,,5.6860356,0.1,201.25273,1607641470431
Fix,GT,37.316808,-121.9752561,,6.9189024,0.1,182.93985,1607641471431
Fix,GT,37.3167482,-121.9752305,,7.4615664,0.1,157.35474,1607641472431
Fix,GT,37.316699,-121.9751687,,8.510991,0.1,131.95935,1607641473431
Fix,GT,37.3166612,-121.9750761,,10.106402,0.1,115.087585,1607641474431
Fix,GT,37.3166299,-121.9749599,,11.587285,0.1,107.99695,1607641475431
Fix,GT,37.3166008,-121.974827,,12.848288,0.1,105.039154,1607641476431
Fix,GT,37.3165711,-121.9746802,,14.068263,0.1,104.24481,1607641477431
Fix,GT,37.3165394,-121.9745191,,15.388586,0.1,103.95209,1607641478431
Fix,GT,37.3165048,-121.9743431,,16.77438,0.1,104.065735,1607641479431
Fix,GT,37.3164665,-121.9741524,,18.042728,0.1,104.3761,1607641480431
Fix,GT,37.3164256,-121.9739496,,18.939941,0.1,104.31561,1607641481431
Fix,GT,37.3163835,-121.9737394,,19.468332,0.1,104.168976,1607641482431
Fix,GT,37.3163413,-121.9735233,,20.000347,0.1,103.64749,1607641483431
Fix,GT,37.3163015,-121.9732999,,20.614712,0.1,102.01611,1607641484431
Fix,GT,37.3162681,-121.9730679,,21.214598,0.1,99.00665,1607641485431
Fix,GT,37.3162448,-121.9728266,,21.93763,0.1,95.85083,1607641486431
Fix,GT,37.316229,-121.9725748,,22.870201,0.1,94.03876,1607641487431
Fix,GT,37.316216,-121.9723123,,23.695435,0.1,93.39349,1607641488431
Fix,GT,37.3162039,-121.972043,,24.084652,0.1,93.47601,1607641489431
Fix,GT,37.3161902,-121.9717727,,23.88043,0.1,94.1857,1607641490431
Fix,GT,37.3161747,-121.9715058,,23.577032,0.1,94.229675,1607641491431
Fix,GT,37.3161614,-121.9712418,,23.333437,0.1,93.087006,1607641492431
Fix,GT,37.3161536,-121.9709792,,23.332676,0.1,91.50958,1607641493431
Fix,GT,37.3161507,-121.970714,,23.758194,0.1,90.527954,1607641494431
Fix,GT,37.3161503,-121.9704424,,24.394905,0.1,90.06204,1607641495431
Fix,GT,37.3161518,-121.9701636,,25.036976,0.1,89.37143,1607641496431
Fix,GT,37.3161568,-121.9698789,,25.431875,0.1,88.41269,1607641497431
Fix,GT,37.3161645,-121.969592,,25.40737,0.1,88.0325,1607641498431
Fix,GT,37.3161726,-121.9693058,,25.364332,0.1,88.00067,1607641499431
Fix,GT,37.316181,-121.9690193,,25.494257,0.1,87.833984,1607641500431
Fix,GT,37.3161903,-121.9687307,,25.712322,0.1,87.665344,1607641501431
Fix,GT,37.3161995,-121.9684398,,25.909521,0.1,87.79581,1607641502431
Fix,GT,37.3162085,-121.9681469,,26.0615,0.1,87.78735,1607641503431
Fix,GT,37.3162182,-121.9678524,,26.15451,0.1,87.605194,1607641504431
Fix,GT,37.3162282,-121.9675581,,25.997402,0.1,87.662476,1607641505431
Fix,GT,37.3162375,-121.9672673,,25.588406,0.1,87.749756,1607641506431
Fix,GT,37.3162464,-121.9669815,,25.106016,0.1,87.81445,1607641507431
Fix,GT,37.3162548,-121.9667014,,24.596907,0.1,87.87445,1607641508431
Fix,GT,37.3162632,-121.9664269,,24.093864,0.1,87.77374,1607641509431
Fix,GT,37.3162717,-121.9661579,,23.659838,0.1,87.765076,1607641510431
Fix,GT,37.3162801,-121.9658929,,23.374989,0.1,87.79617,1607641511431
Fix,GT,37.3162883,-121.9656303,,23.205715,0.1,87.746124,1607641512431
Fix,GT,37.3162968,-121.9653695,,23.0649,0.1,87.68176,1607641513431
Fix,GT,37.3163053,-121.9651106,,22.865044,0.1,87.73901,1607641514431
Fix,GT,37.316313,-121.9648544,,22.571476,0.1,88.01993,1607641515431
Fix,GT,37.3163199,-121.9646014,,22.33006,0.1,88.11258,1607641516431
Fix,GT,37.3163263,-121.9643499,,22.32917,0.1,88.275055,1607641517431
Fix,GT,37.3163315,-121.9640968,,22.56913,0.1,88.85904,1607641518431
Fix,GT,37.3163341,-121.9638403,,22.906635,0.1,89.65411,1607641519431
Fix,GT,37.3163339,-121.9635794,,23.358017,0.1,90.38779,1607641520431
Fix,GT,37.3163316,-121.9633125,,23.945606,0.1,90.84305,1607641521431
Fix,GT,37.3163278,-121.9630392,,24.443977,0.1,91.12048,1607641522431
Fix,GT,37.3163237,-121.9627623,,24.570673,0.1,91.07544,1607641523431
Fix,GT,37.3163197,-121.9624857,,24.479435,0.1,90.954956,1607641524431
Fix,GT,37.3163161,-121.9622101,,24.377003,0.1,90.99121,1607641525431
Fix,GT,37.3163121,-121.9619356,,24.308928,0.1,91.11554,1607641526431
Fix,GT,37.3163079,-121.9616616,,24.264149,0.1,91.11627,1607641527431
Fix,GT,37.3163039,-121.9613878,,24.284876,0.1,90.93057,1607641528431
Fix,GT,37.3163006,-121.9611137,,24.309631,0.1,90.87958,1607641529431
Fix,GT,37.3162971,-121.9608399,,24.22324,0.1,90.94241,1607641530431
Fix,GT,37.3162935,-121.9605675,,24.07429,0.1,90.951294,1607641531431
Fix,GT,37.3162902,-121.960297,,23.898888,0.1,90.848755,1607641532431
Fix,GT,37.3162871,-121.9600284,,23.716906,0.1,90.868835,1607641533431
Fix,GT,37.3162838,-121.9597622,,23.488754,0.1,90.95697,1607641534431
Fix,GT,37.3162804,-121.9594981,,23.391819,0.1,90.985565,1607641535431
Fix,GT,37.3162759,-121.9592328,,23.702477,0.1,91.5141,1607641536431
Fix,GT,37.316268,-121.9589614,,24.502527,0.1,92.5408,1607641537431
Fix,GT,37.3162573,-121.9586789,,25.665377,0.1,92.72031,1607641538431
Fix,GT,37.3162488,-121.9583834,,26.689583,0.1,91.41724,1607641539431
Fix,GT,37.3162471,-121.9580779,,27.419136,0.1,89.58945,1607641540431
Fix,GT,37.3162521,-121.9577651,,28.041374,0.1,88.37259,1607641541431
Fix,GT,37.3162615,-121.9574456,,28.615318,0.1,87.58029,1607641542431
Fix,GT,37.3162743,-121.9571215,,28.83641,0.1,86.87146,1607641543431
Fix,GT,37.3162903,-121.9567981,,28.573582,0.1,86.075165,1607641544431
Fix,GT,37.3163099,-121.9564786,,28.237274,0.1,85.2439,1607641545431
Fix,GT,37.3163322,-121.956163,,27.931076,0.1,84.7663,1607641546431
Fix,GT,37.3163556,-121.9558511,,27.635511,0.1,84.55649,1607641547431
Fix,GT,37.3163786,-121.9555424,,27.331278,0.1,84.75336,1607641548431
Fix,GT,37.3163996,-121.9552371,,27.001823,0.1,85.478424,1607641549431
Fix,GT,37.3164163,-121.9549353,,26.653442,0.1,86.73151,1607641550431
Fix,GT,37.3164268,-121.9546359,,26.528973,0.1,88.16644,1607641551431
Fix,GT,37.3164327,-121.9543363,,26.576872,0.1,88.7738,1607641552431
Fix,GT,37.3164376,-121.9540371,,26.407814,0.1,88.783264,1607641553431
Fix,GT,37.3164426,-121.953741,,26.064842,0.1,88.67813,1607641554431
Fix,GT,37.316448,-121.9534494,,25.639963,0.1,88.49542,1607641555431
Fix,GT,37.3164542,-121.9531628,,25.187408,0.1,88.29349,1607641556431
Fix,GT,37.3164606,-121.9528814,,24.725609,0.1,88.35205,1607641557431
Fix,GT,37.3164658,-121.9526061,,23.983086,0.1,88.71698,1607641558431
Fix,GT,37.31647,-121.9523439,,22.344658,0.1,88.77252,1607641559431
Fix,GT,37.3164742,-121.9521055,,19.856777,0.1,88.43417,1607641560431
Fix,GT,37.3164784,-121.9518976,,17.00496,0.1,88.49634,1607641561431
Fix,GT,37.3164773,-121.9517233,,13.850361,0.1,93.226746,1607641562431
Fix,GT,37.3164564,-121.9515878,,11.042065,0.1,108.285645,1607641563431
Fix,GT,37.3164082,-121.9514962,,9.137251,0.1,132.29926,1607641564431
Fix,GT,37.316344,-121.9514494,,7.900835,0.1,156.16907,1607641565431
Fix,GT,37.3162785,-121.9514283,,7.232497,0.1,166.5636,1607641566431
Fix,GT,37.3162196,-121.9514013,,6.813958,0.1,156.93536,1607641567431
Fix,GT,37.3161736,-121.9513548,,6.5254517,0.1,137.67929,1607641568431
Fix,GT,37.316145,-121.9512937,,6.2802687,0.1,117.50763,1607641569431
Fix,GT,37.3161346,-121.9512257,,6.2290688,0.1,99.62213,1607641570431
Fix,GT,37.3161332,-121.9511531,,6.749908,0.1,91.626434,1607641571431
Fix,GT,37.3161329,-121.9510743,,7.1976986,0.1,90.59198,1607641572431
Fix,GT,37.3161326,-121.9509928,,7.140365,0.1,90.56348,1607641573431
Fix,GT,37.3161317,-121.950915,,6.5437393,0.1,91.21188,1607641574431
Fix,GT,37.3161301,-121.9508478,,5.3261614,0.1,92.17334,1607641575431
Fix,GT,37.3161284,-121.9507965,,3.7841587,0.1,92.77478,1607641576431
Fix,GT,37.3161271,-121.9507617,,2.4304543,0.1,92.825226,1607641577431
Fix,GT,37.3161265,-121.9507405,,1.336354,0.1,92.75702,1607641578431
Fix,GT,37.3161262,-121.9507314,,0.3830669,0.1,92.7218,1607641579431
Fix,GT,37.3161262,-121.9507303,,0.010705862,0.1,92.71423,1607641580431
Fix,GT,37.3161263,-121.9507302,,0.007979958,0.1,92.71146,1607641581431
Fix,GT,37.3161264,-121.9507302,,0.005971534,0.1,92.70996,1607641582431
Fix,GT,37.3161264,-121.9507302,,0.0047723567,0.1,92.70947,1607641583431
Fix,GT,37.3161264,-121.9507301,,0.004321615,0.1,92.708374,1607641584431
Fix,GT,37.3161264,-121.9507301,,0.0041231057,0.1,92.707275,1607641585431
Fix,GT,37.3161264,-121.9507301,,0.0040700156,0.1,92.70618,1607641586431
Fix,GT,37.3161264,-121.9507301,,0.0035687461,0.1,92.70526,1607641587431
Fix,GT,37.3161264,-121.9507301,,0.0026705512,0.1,92.70422,1607641588431
Fix,GT,37.3161264,-121.95073,,0.0018816399,0.1,92.703064,1607641589431
Fix,GT,37.3161264,-121.95073,,0.0016668364,0.1,92.701904,1607641590431
Fix,GT,37.3161264,-121.95073,,0.002692401,0.1,92.700806,1607641591431
Fix,GT,37.3161264,-121.95073,,0.004812016,0.1,92.69977,1607641592431
Fix,GT,37.3161264,-121.9507297,,0.13566262,0.1,92.69565,1607641593431
Fix,GT,37.3161263,-121.9507247,,0.9380628,0.1,92.65344,1607641594431
Fix,GT,37.3161256,-121.9507046,,2.746167,0.1,92.74988,1607641595431
Fix,GT,37.3161237,-121.9506614,,4.771406,0.1,93.06775,1607641596431
Fix,GT,37.3161211,-121.9505997,,6.0282288,0.1,93.10202,1607641597431
Fix,GT,37.3161185,-121.9505274,,6.8684044,0.1,92.67084,1607641598431
Fix,GT,37.3161164,-121.9504453,,7.6214347,0.1,91.9892,1607641599431
Fix,GT,37.3161166,-121.950358,,7.7177286,0.1,88.83896,1607641600431
Fix,GT,37.316126,-121.9502737,,7.4575596,0.1,79.523895,1607641601431
Fix,GT,37.316151,-121.9501989,,7.1152062,0.1,64.12564,1607641602431
Fix,GT,37.3161931,-121.9501426,,6.8262653,0.1,42.623108,1607641603431
Fix,GT,37.3162487,-121.950116,,6.8545775,0.1,17.406555,1607641604431
Fix,GT,37.3163131,-121.9501127,,7.7956247,0.1,1.9164124,1607641605431
Fix,GT,37.316393,-121.9501153,,10.047458,0.1,359.57977,1607641606431
Fix,GT,37.3164968,-121.9501177,,12.896349,0.1,359.56265,1607641607431
Fix,GT,37.3166214,-121.9501192,,14.599038,0.1,359.80658,1607641608431
Fix,GT,37.3167538,-121.9501201,,14.412884,0.1,359.9606,1607641609431
Fix,GT,37.3168765,-121.9501205,,12.477038,0.1,0.014953613,1607641610431
Fix,GT,37.3169747,-121.9501205,,9.25786,0.1,0.17144775,1607641611431
Fix,GT,37.3170429,-121.9501206,,5.9355383,0.1,0.27798462,1607641612431
Fix,GT,37.3170835,-121.9501205,,3.2924836,0.1,0.24429321,1607641613431
Fix,GT,37.3171047,-121.9501206,,1.5488932,0.1,359.92355,1607641614431
Fix,GT,37.3171127,-121.9501209,,0.3837571,0.1,359.70377,1607641615431
Fix,GT,37.3171134,-121.950121,,0.003428026,0.1,359.68887,1607641616431
Fix,GT,37.3171134,-121.950121,,0.004063499,0.1,359.688,1607641617431
Fix,GT,37.3171134,-121.950121,,0.0028284271,0.1,359.68542,1607641618431
Fix,GT,37.3171134,-121.950121,,0.0029724017,0.1,359.6843,1607641619431
Fix,GT,37.3171133,-121.950121,,0.0031622776,0.1,359.6833,1607641620431
Fix,GT,37.3171133,-121.950121,,0.0030922948,0.1,359.68228,1607641621431
