MessageType,Provider,LatitudeDegrees,LongitudeDegrees,AltitudeMeters,SpeedMps,AccuracyMeters,BearingDegrees,UnixTimeMillis
Fix,GT,37.4240588,-122.0907239,,0.0039606425,0.1,322.07404,1592515700442
Fix,GT,37.4240587,-122.0907237,,0.003989132,0.1,322.07312,1592515701442
Fix,GT,37.4240586,-122.0907235,,0.0042631524,0.1,322.07214,1592515702442
Fix,GT,37.4240586,-122.0907232,,0.05575171,0.1,322.0619,1592515703442
Fix,GT,37.4240595,-122.0907238,,0.27101347,0.1,322.31088,1592515704442
Fix,GT,37.424063,-122.0907274,,0.81690115,0.1,323.37482,1592515705442
Fix,GT,37.4240724,-122.0907367,,1.876235,0.1,325.6349,1592515706442
Fix,GT,37.4240902,-122.0907509,,2.7810888,0.1,331.80786,1592515707442
Fix,GT,37.4241145,-122.0907609,,3.0666504,0.1,345.70605,1592515708442
Fix,GT,37.4241416,-122.0907585,,3.3249502,0.1,6.8238525,1592515709442
Fix,GT,37.4241674,-122.0907417,,3.5518994,0.1,30.264801,1592515710442
Fix,GT,37.4241893,-122.0907157,,3.3875515,0.1,47.60138,1592515711442
Fix,GT,37.4242069,-122.0906898,,2.7493658,0.1,54.049835,1592515712442
Fix,GT,37.4242212,-122.0906693,,2.0345767,0.1,54.358948,1592515713442
Fix,GT,37.4242302,-122.0906563,,0.96935225,0.1,54.12805,1592515714442
Fix,GT,37.4242332,-122.090652,,0.09034318,0.1,54.04895,1592515715442
Fix,GT,37.4242336,-122.0906522,,0.0052585066,0.1,54.05417,1592515716442
Fix,GT,37.4242338,-122.0906523,,0.004719956,0.1,54.05664,1592515717442
Fix,GT,37.4242337,-122.0906518,,0.0049456833,0.1,54.055786,1592515718442
Fix,GT,37.4242336,-122.0906512,,0.0054631433,0.1,54.054413,1592515719442
Fix,GT,37.4242329,-122.0906471,,0.31057394,0.1,54.025635,1592515720442
Fix,GT,37.424234,-122.090637,,0.9991823,0.1,54.92389,1592515721442
Fix,GT,37.4242383,-122.0906231,,1.6038465,0.1,60.73642,1592515722442
Fix,GT,37.4242407,-122.090603,,2.2210414,0.1,75.70593,1592515723442
Fix,GT,37.4242351,-122.0905759,,2.9941225,0.1,99.65494,1592515724442
Fix,GT,37.4242184,-122.090547,,3.673142,0.1,125.71188,1592515725442
Fix,GT,37.4241919,-122.0905186,,4.3142776,0.1,142.6554,1592515726442
Fix,GT,37.4241586,-122.0904869,,5.0907874,0.1,147.86148,1592515727442
Fix,GT,37.4241194,-122.0904493,,5.9103837,0.1,148.08179,1592515728442
Fix,GT,37.4240749,-122.0904072,,6.647044,0.1,148.56598,1592515729442
Fix,GT,37.4240253,-122.0903647,,6.9885015,0.1,151.61646,1592515730442
Fix,GT,37.4239725,-122.0903261,,6.7320642,0.1,156.20288,1592515731442
Fix,GT,37.4239193,-122.0902993,,6.3037233,0.1,165.79443,1592515732442
Fix,GT,37.4238659,-122.0902943,,6.26415,0.1,184.50348,1592515733442
Fix,GT,37.4238131,-122.0903163,,6.7615232,0.1,207.43205,1592515734442
Fix,GT,37.4237665,-122.0903682,,7.754078,0.1,231.11604,1592515735442
Fix,GT,37.4237298,-122.0904476,,8.905022,0.1,247.99377,1592515736442
Fix,GT,37.4236972,-122.0905465,,10.103344,0.1,253.35455,1592515737442
Fix,GT,37.4236605,-122.0906581,,11.232359,0.1,252.16176,1592515738442
Fix,GT,37.4236151,-122.0907783,,12.209577,0.1,248.31561,1592515739442
Fix,GT,37.4235581,-122.0909012,,12.87566,0.1,243.07338,1592515740442
Fix,GT,37.4234894,-122.0910216,,13.239963,0.1,237.4938,1592515741442
Fix,GT,37.4234109,-122.091135,,13.309078,0.1,232.38142,1592515742442
Fix,GT,37.4233259,-122.0912403,,13.228139,0.1,228.53183,1592515743442
Fix,GT,37.423237,-122.0913385,,13.126194,0.1,225.34259,1592515744442
Fix,GT,37.4231447,-122.0914281,,12.965597,0.1,222.14754,1592515745442
Fix,GT,37.423051,-122.0915102,,12.692974,0.1,220.66277,1592515746442
Fix,GT,37.4229612,-122.091594,,12.388575,0.1,223.90178,1592515747442
Fix,GT,37.4228811,-122.0916874,,12.129719,0.1,231.49895,1592515748442
Fix,GT,37.4228147,-122.0917934,,12.035036,0.1,240.84857,1592515749442
Fix,GT,37.4227618,-122.0919128,,12.391619,0.1,248.81818,1592515750442
Fix,GT,37.4227152,-122.0920434,,12.920703,0.1,251.98373,1592515751442
Fix,GT,37.4226684,-122.0921787,,13.099628,0.1,251.96515,1592515752442
Fix,GT,37.4226208,-122.092314,,13.044277,0.1,251.60666,1592515753442
Fix,GT,37.4225731,-122.0924479,,12.926083,0.1,251.23102,1592515754442
Fix,GT,37.4225256,-122.0925809,,12.91625,0.1,251.39981,1592515755442
Fix,GT,37.4224788,-122.0927152,,13.096205,0.1,252.27133,1592515756442
Fix,GT,37.4224335,-122.0928532,,13.3836155,0.1,253.6091,1592515757442
Fix,GT,37.42239,-122.092996,,13.750755,0.1,255.33456,1592515758442
Fix,GT,37.422349,-122.0931438,,13.991001,0.1,257.17032,1592515759442
Fix,GT,37.422315,-122.0932952,,13.978294,0.1,262.0624,1592515760442
Fix,GT,37.4222976,-122.0934503,,14.109341,0.1,271.85483,1592515761442
Fix,GT,37.422305,-122.0936093,,14.548067,0.1,283.9887,1592515762442
Fix,GT,37.4223403,-122.0937679,,15.048706,0.1,296.1298,1592515763442
Fix,GT,37.4224021,-122.0939207,,15.577575,0.1,306.10202,1592515764442
Fix,GT,37.4224821,-122.094068,,16.142231,0.1,311.69934,1592515765442
Fix,GT,37.4225721,-122.0942159,,16.877594,0.1,313.39316,1592515766442
Fix,GT,37.4226689,-122.0943704,,17.961058,0.1,313.89108,1592515767442
Fix,GT,37.4227734,-122.0945344,,19.207584,0.1,314.63885,1592515768442
Fix,GT,37.4228875,-122.0947061,,20.353388,0.1,316.0125,1592515769442
Fix,GT,37.4230111,-122.0948843,,21.48024,0.1,317.09518,1592515770442
Fix,GT,37.4231436,-122.0950701,,22.649887,0.1,317.55872,1592515771442
Fix,GT,37.4232835,-122.0952653,,23.807535,0.1,317.4703,1592515772442
Fix,GT,37.4234285,-122.0954702,,24.662231,0.1,317.02628,1592515773442
Fix,GT,37.4235764,-122.0956821,,25.167267,0.1,316.6115,1592515774442
Fix,GT,37.4237259,-122.0958995,,25.646738,0.1,316.1941,1592515775442
Fix,GT,37.423877,-122.0961222,,26.13348,0.1,315.84857,1592515776442
Fix,GT,37.424031,-122.0963494,,26.646051,0.1,316.23383,1592515777442
Fix,GT,37.4241906,-122.0965779,,27.164,0.1,317.53998,1592515778442
Fix,GT,37.4243574,-122.0968062,,27.677158,0.1,318.60986,1592515779442
Fix,GT,37.4245299,-122.0970356,,28.154013,0.1,319.29535,1592515780442
Fix,GT,37.4247083,-122.0972652,,28.601295,0.1,320.4084,1592515781442
Fix,GT,37.4248932,-122.0974938,,29.063374,0.1,321.51312,1592515782442
Fix,GT,37.4250835,-122.0977229,,29.482647,0.1,322.14798,1592515783442
Fix,GT,37.425278,-122.0979518,,29.707848,0.1,322.82385,1592515784442
Fix,GT,37.4254756,-122.0981788,,29.734085,0.1,323.54623,1592515785442
Fix,GT,37.4256758,-122.0984018,,29.758549,0.1,324.48685,1592515786442
Fix,GT,37.4258791,-122.0986215,,29.817642,0.1,325.25134,1592515787442
Fix,GT,37.4260844,-122.0988388,,29.832867,0.1,325.68997,1592515788442
Fix,GT,37.4262909,-122.0990544,,29.81728,0.1,326.00684,1592515789442
Fix,GT,37.4264977,-122.0992688,,29.740038,0.1,326.084,1592515790442
Fix,GT,37.4267039,-122.0994823,,29.621273,0.1,326.0322,1592515791442
Fix,GT,37.4269089,-122.0996956,,29.52565,0.1,325.82764,1592515792442
Fix,GT,37.4271128,-122.0999096,,29.463688,0.1,325.5969,1592515793442
Fix,GT,37.4273157,-122.1001238,,29.402603,0.1,325.46057,1592515794442
Fix,GT,37.4275174,-122.1003386,,29.314491,0.1,325.18103,1592515795442
Fix,GT,37.4277178,-122.1005533,,29.211746,0.1,325.12674,1592515796442
Fix,GT,37.4279179,-122.1007667,,29.128073,0.1,325.41733,1592515797442
Fix,GT,37.4281184,-122.1009786,,29.095945,0.1,325.6598,1592515798442
Fix,GT,37.4283192,-122.1011898,,29.09898,0.1,325.72278,1592515799442
Fix,GT,37.4285205,-122.1014003,,29.111244,0.1,325.90924,1592515800442
Fix,GT,37.4287224,-122.1016104,,29.100388,0.1,325.98227,1592515801442
Fix,GT,37.4289236,-122.1018204,,28.979729,0.1,325.73087,1592515802442
Fix,GT,37.4291229,-122.1020301,,28.71842,0.1,325.43887,1592515803442
Fix,GT,37.4293198,-122.1022388,,28.504974,0.1,325.4216,1592515804442
Fix,GT,37.4295161,-122.102446,,28.453785,0.1,325.74847,1592515805442
Fix,GT,37.4297135,-122.1026516,,28.488846,0.1,326.07144,1592515806442
Fix,GT,37.4299116,-122.1028567,,28.528637,0.1,326.15173,1592515807442
Fix,GT,37.4301097,-122.1030618,,28.44154,0.1,325.9751,1592515808442
Fix,GT,37.430306,-122.1032668,,28.25565,0.1,325.66983,1592515809442
Fix,GT,37.4304999,-122.1034718,,28.028948,0.1,325.3931,1592515810442
Fix,GT,37.4306911,-122.1036758,,27.679562,0.1,325.20645,1592515811442
Fix,GT,37.4308793,-122.1038771,,27.22638,0.1,325.24588,1592515812442
Fix,GT,37.431065,-122.1040748,,26.902485,0.1,325.42468,1592515813442
Fix,GT,37.4312499,-122.1042705,,26.827288,0.1,325.49945,1592515814442
Fix,GT,37.4314346,-122.1044657,,26.764563,0.1,325.57983,1592515815442
Fix,GT,37.4316186,-122.1046596,,26.571262,0.1,325.6175,1592515816442
Fix,GT,37.4318012,-122.1048519,,26.376404,0.1,325.6107,1592515817442
Fix,GT,37.431983,-122.1050431,,26.32031,0.1,325.66833,1592515818442
Fix,GT,37.4321649,-122.1052342,,26.357954,0.1,325.75278,1592515819442
Fix,GT,37.4323472,-122.1054251,,26.357141,0.1,325.80505,1592515820442
Fix,GT,37.4325294,-122.1056156,,26.336414,0.1,325.8374,1592515821442
Fix,GT,37.4327122,-122.1058063,,26.488838,0.1,325.92487,1592515822442
Fix,GT,37.4328967,-122.1059985,,26.773338,0.1,325.9621,1592515823442
Fix,GT,37.4330832,-122.106193,,27.060432,0.1,325.8127,1592515824442
Fix,GT,37.4332713,-122.1063902,,27.35381,0.1,325.71976,1592515825442
Fix,GT,37.4334614,-122.1065897,,27.663815,0.1,325.74335,1592515826442
Fix,GT,37.4336534,-122.1067912,,27.919163,0.1,325.74445,1592515827442
Fix,GT,37.4338471,-122.1069944,,28.132046,0.1,325.71582,1592515828442
Fix,GT,37.4340421,-122.1071993,,28.304802,0.1,325.6735,1592515829442
Fix,GT,37.4342379,-122.1074053,,28.420048,0.1,325.59036,1592515830442
Fix,GT,37.4344343,-122.1076124,,28.540646,0.1,325.69434,1592515831442
Fix,GT,37.434632,-122.1078195,,28.660206,0.1,325.89487,1592515832442
Fix,GT,37.4348309,-122.1080267,,28.752178,0.1,325.97357,1592515833442
Fix,GT,37.4350306,-122.1082343,,28.816837,0.1,326.0174,1592515834442
Fix,GT,37.4352305,-122.1084423,,28.859873,0.1,325.88702,1592515835442
Fix,GT,37.4354302,-122.1086516,,28.905458,0.1,325.72327,1592515836442
Fix,GT,37.4356302,-122.1088614,,28.978426,0.1,325.74362,1592515837442
Fix,GT,37.4358308,-122.1090718,,29.05527,0.1,325.6761,1592515838442
Fix,GT,37.4360315,-122.1092834,,29.131264,0.1,325.63257,1592515839442
Fix,GT,37.4362329,-122.109495,,29.200476,0.1,325.78195,1592515840442
Fix,GT,37.4364351,-122.1097067,,29.270355,0.1,325.8062,1592515841442
Fix,GT,37.4366377,-122.1099193,,29.356123,0.1,325.69843,1592515842442
Fix,GT,37.4368407,-122.1101328,,29.459501,0.1,325.61588,1592515843442
Fix,GT,37.4370442,-122.1103476,,29.576553,0.1,325.55002,1592515844442
Fix,GT,37.4372485,-122.1105636,,29.730663,0.1,325.56067,1592515845442
Fix,GT,37.4374539,-122.1107802,,29.854471,0.1,325.73016,1592515846442
Fix,GT,37.4376605,-122.1109968,,29.925758,0.1,325.79694,1592515847442
Fix,GT,37.4378676,-122.111214,,29.990002,0.1,325.70132,1592515848442
Fix,GT,37.4380747,-122.111432,,30.0047,0.1,325.5773,1592515849442
Fix,GT,37.4382811,-122.1116504,,29.925518,0.1,325.49057,1592515850442
Fix,GT,37.4384869,-122.1118677,,29.771526,0.1,325.7201,1592515851442
Fix,GT,37.4386924,-122.1120824,,29.594084,0.1,325.87827,1592515852442
Fix,GT,37.4388968,-122.1122957,,29.414782,0.1,325.8947,1592515853442
Fix,GT,37.4391002,-122.1125073,,29.245361,0.1,326.06793,1592515854442
Fix,GT,37.439303,-122.1127168,,29.083118,0.1,326.149,1592515855442
Fix,GT,37.4395047,-122.1129253,,28.938673,0.1,326.02847,1592515856442
Fix,GT,37.4397048,-122.1131339,,28.824177,0.1,325.86713,1592515857442
Fix,GT,37.439904,-122.1133423,,28.76289,0.1,325.77173,1592515858442
Fix,GT,37.4401028,-122.113551,,28.791567,0.1,325.62042,1592515859442
Fix,GT,37.4403016,-122.1137606,,28.85897,0.1,325.5321,1592515860442
Fix,GT,37.4405007,-122.1139713,,28.972916,0.1,325.42633,1592515861442
Fix,GT,37.4407006,-122.1141835,,29.163567,0.1,325.48782,1592515862442
Fix,GT,37.4409022,-122.1143967,,29.35184,0.1,325.54602,1592515863442
Fix,GT,37.4411051,-122.114611,,29.504139,0.1,325.57245,1592515864442
Fix,GT,37.4413089,-122.1148259,,29.591831,0.1,325.62234,1592515865442
Fix,GT,37.4415131,-122.115041,,29.60085,0.1,325.6446,1592515866442
Fix,GT,37.4417175,-122.1152562,,29.647213,0.1,325.74994,1592515867442
Fix,GT,37.4419226,-122.1154715,,29.705269,0.1,325.69806,1592515868442
Fix,GT,37.4421277,-122.1156873,,29.719147,0.1,325.7091,1592515869442
Fix,GT,37.4423332,-122.1159027,,29.741644,0.1,325.84357,1592515870442
Fix,GT,37.4425389,-122.116118,,29.7006,0.1,325.75244,1592515871442
Fix,GT,37.4427436,-122.1163332,,29.56541,0.1,325.69714,1592515872442
Fix,GT,37.442947,-122.1165471,,29.359257,0.1,325.73688,1592515873442
Fix,GT,37.4431489,-122.1167594,,29.13607,0.1,325.68704,1592515874442
Fix,GT,37.4433497,-122.1169698,,28.978275,0.1,325.86023,1592515875442
Fix,GT,37.4435503,-122.1171788,,28.90808,0.1,325.9183,1592515876442
Fix,GT,37.4437504,-122.1173874,,28.803953,0.1,325.87177,1592515877442
Fix,GT,37.4439491,-122.1175953,,28.607225,0.1,325.80258,1592515878442
Fix,GT,37.444146,-122.1178017,,28.323116,0.1,325.75842,1592515879442
Fix,GT,37.4443407,-122.1180058,,28.016903,0.1,325.79663,1592515880442
Fix,GT,37.4445334,-122.118208,,27.721754,0.1,325.74252,1592515881442
Fix,GT,37.444724,-122.1184081,,27.450912,0.1,325.73642,1592515882442
Fix,GT,37.4449132,-122.1186062,,27.297997,0.1,325.8841,1592515883442
Fix,GT,37.4451024,-122.1188035,,27.326397,0.1,325.96414,1592515884442
Fix,GT,37.4452922,-122.1190011,,27.419712,0.1,325.964,1592515885442
Fix,GT,37.4454825,-122.1191994,,27.490166,0.1,325.8714,1592515886442
Fix,GT,37.4456726,-122.1193981,,27.42791,0.1,325.7752,1592515887442
Fix,GT,37.4458616,-122.1195961,,27.255777,0.1,325.6758,1592515888442
Fix,GT,37.4460492,-122.1197936,,27.170002,0.1,325.5661,1592515889442
Fix,GT,37.4462365,-122.1199916,,27.224949,0.1,325.49677,1592515890442
Fix,GT,37.4464241,-122.1201904,,27.26302,0.1,325.42307,1592515891442
Fix,GT,37.4466115,-122.1203892,,27.168922,0.1,325.49194,1592515892442
Fix,GT,37.4467982,-122.1205862,,26.979816,0.1,325.69296,1592515893442
Fix,GT,37.446984,-122.1207814,,26.838089,0.1,325.74405,1592515894442
Fix,GT,37.4471694,-122.1209758,,26.817799,0.1,325.8165,1592515895442
Fix,GT,37.4473551,-122.1211697,,26.805061,0.1,325.95193,1592515896442
Fix,GT,37.4475407,-122.1213631,,26.748724,0.1,325.95554,1592515897442
Fix,GT,37.4477259,-122.1215564,,26.755466,0.1,325.8425,1592515898442
Fix,GT,37.4479111,-122.1217503,,26.80844,0.1,325.78992,1592515899442
Fix,GT,37.4480968,-122.1219446,,26.858963,0.1,325.8709,1592515900442
Fix,GT,37.4482831,-122.1221389,,26.92241,0.1,325.94446,1592515901442
Fix,GT,37.44847,-122.1223336,,27.017944,0.1,325.9426,1592515902442
Fix,GT,37.4486578,-122.122529,,27.12094,0.1,325.93655,1592515903442
Fix,GT,37.4488461,-122.1227252,,27.229115,0.1,325.90475,1592515904442
Fix,GT,37.4490352,-122.1229223,,27.343838,0.1,325.92386,1592515905442
Fix,GT,37.4492248,-122.1231204,,27.392616,0.1,325.78247,1592515906442
Fix,GT,37.4494137,-122.1233194,,27.344658,0.1,325.5021,1592515907442
Fix,GT,37.4496017,-122.1235187,,27.326069,0.1,325.4482,1592515908442
Fix,GT,37.4497899,-122.1237182,,27.382027,0.1,325.4393,1592515909442
Fix,GT,37.4499784,-122.1239183,,27.42723,0.1,325.39197,1592515910442
Fix,GT,37.450167,-122.1241189,,27.46574,0.1,325.38403,1592515911442
Fix,GT,37.4503559,-122.1243199,,27.501507,0.1,325.40228,1592515912442
Fix,GT,37.450545,-122.1245214,,27.546104,0.1,325.21866,1592515913442
Fix,GT,37.4507331,-122.1247253,,27.635168,0.1,324.41656,1592515914442
Fix,GT,37.450919,-122.1249341,,27.75747,0.1,323.23273,1592515915442
Fix,GT,37.4511026,-122.1251481,,27.853575,0.1,322.36554,1592515916442
Fix,GT,37.451284,-122.1253659,,27.880295,0.1,321.49826,1592515917442
Fix,GT,37.4514626,-122.1255879,,27.9085,0.1,320.32922,1592515918442
Fix,GT,37.4516378,-122.1258147,,27.984114,0.1,319.20584,1592515919442
Fix,GT,37.4518101,-122.1260465,,28.052395,0.1,318.12122,1592515920442
Fix,GT,37.4519792,-122.1262824,,28.078997,0.1,317.13846,1592515921442
Fix,GT,37.4521453,-122.1265221,,28.08366,0.1,316.06888,1592515922442
Fix,GT,37.4523069,-122.1267656,,27.92912,0.1,314.78217,1592515923442
Fix,GT,37.4524626,-122.127011,,27.614298,0.1,313.6551,1592515924442
Fix,GT,37.4526141,-122.1272576,,27.519604,0.1,312.9516,1592515925442
Fix,GT,37.452764,-122.1275062,,27.606106,0.1,312.53705,1592515926442
Fix,GT,37.4529128,-122.127757,,27.698198,0.1,312.14612,1592515927442
Fix,GT,37.4530609,-122.1280096,,27.762547,0.1,311.89096,1592515928442
Fix,GT,37.4532085,-122.1282627,,27.714893,0.1,311.85324,1592515929442
Fix,GT,37.4533558,-122.1285148,,27.566545,0.1,311.89548,1592515930442
Fix,GT,37.4535025,-122.1287651,,27.381859,0.1,311.97882,1592515931442
Fix,GT,37.4536484,-122.1290139,,27.301933,0.1,311.92526,1592515932442
Fix,GT,37.4537939,-122.1292631,,27.374023,0.1,311.87735,1592515933442
Fix,GT,37.4539401,-122.1295129,,27.453999,0.1,311.96802,1592515934442
Fix,GT,37.4540867,-122.1297628,,27.451136,0.1,311.9959,1592515935442
Fix,GT,37.4542333,-122.1300127,,27.45859,0.1,311.93018,1592515936442
Fix,GT,37.45438,-122.1302633,,27.577003,0.1,311.86533,1592515937442
Fix,GT,37.4545273,-122.1305155,,27.755196,0.1,311.86688,1592515938442
Fix,GT,37.4546758,-122.1307692,,27.92524,0.1,311.9608,1592515939442
Fix,GT,37.4548255,-122.1310239,,28.090136,0.1,312.05588,1592515940442
Fix,GT,37.454976,-122.1312804,,28.24805,0.1,311.89783,1592515941442
Fix,GT,37.4551266,-122.1315385,,28.363739,0.1,311.77402,1592515942442
Fix,GT,37.4552777,-122.1317975,,28.38951,0.1,311.8466,1592515943442
Fix,GT,37.4554286,-122.1320558,,28.251425,0.1,311.8476,1592515944442
Fix,GT,37.4555784,-122.1323118,,27.916492,0.1,311.97507,1592515945442
Fix,GT,37.455727,-122.132564,,27.598553,0.1,312.21817,1592515946442
Fix,GT,37.4558749,-122.1328134,,27.413982,0.1,312.34875,1592515947442
Fix,GT,37.4560224,-122.133061,,27.267992,0.1,312.42056,1592515948442
Fix,GT,37.4561693,-122.1333072,,27.168968,0.1,312.43143,1592515949442
Fix,GT,37.4563161,-122.1335532,,27.217384,0.1,312.41843,1592515950442
Fix,GT,37.4564631,-122.1338003,,27.360191,0.1,312.35257,1592515951442
Fix,GT,37.4566104,-122.1340488,,27.429224,0.1,312.17035,1592515952442
Fix,GT,37.4567574,-122.1342979,,27.42868,0.1,312.0716,1592515953442
Fix,GT,37.456904,-122.1345473,,27.358768,0.1,311.97232,1592515954442
Fix,GT,37.4570493,-122.1347958,,27.14476,0.1,311.82886,1592515955442
Fix,GT,37.4571932,-122.1350421,,26.91211,0.1,311.9124,1592515956442
Fix,GT,37.4573365,-122.1352865,,26.783897,0.1,312.05173,1592515957442
Fix,GT,37.4574797,-122.1355291,,26.646862,0.1,312.12613,1592515958442
Fix,GT,37.4576221,-122.1357704,,26.476557,0.1,312.075,1592515959442
Fix,GT,37.4577631,-122.1360107,,26.317867,0.1,311.95306,1592515960442
Fix,GT,37.4579031,-122.1362497,,26.183777,0.1,311.95868,1592515961442
Fix,GT,37.4580428,-122.1364876,,26.11132,0.1,312.0584,1592515962442
Fix,GT,37.4581828,-122.1367249,,26.131498,0.1,312.19183,1592515963442
Fix,GT,37.4583232,-122.1369626,,26.225193,0.1,312.10602,1592515964442
Fix,GT,37.4584638,-122.1372018,,26.341839,0.1,312.02438,1592515965442
Fix,GT,37.4586049,-122.1374418,,26.410269,0.1,312.09058,1592515966442
Fix,GT,37.458746,-122.1376816,,26.29824,0.1,312.07123,1592515967442
Fix,GT,37.458886,-122.1379197,,26.015444,0.1,312.02444,1592515968442
Fix,GT,37.4590248,-122.1381553,,25.865337,0.1,312.12866,1592515969442
Fix,GT,37.4591637,-122.1383904,,25.958324,0.1,312.22717,1592515970442
Fix,GT,37.4593035,-122.1386268,,26.107029,0.1,312.14902,1592515971442
Fix,GT,37.4594433,-122.1388645,,26.131504,0.1,311.94684,1592515972442
Fix,GT,37.4595822,-122.1391025,,26.039215,0.1,311.70126,1592515973442
Fix,GT,37.4597201,-122.13934,,25.929245,0.1,311.71188,1592515974442
Fix,GT,37.4598579,-122.1395758,,25.812656,0.1,312.04874,1592515975442
Fix,GT,37.4599958,-122.1398097,,25.680939,0.1,312.08017,1592515976442
Fix,GT,37.4601328,-122.1400431,,25.619473,0.1,311.96716,1592515977442
Fix,GT,37.4602697,-122.1402765,,25.677807,0.1,312.04556,1592515978442
Fix,GT,37.4604071,-122.1405104,,25.720306,0.1,312.0147,1592515979442
Fix,GT,37.4605445,-122.1407445,,25.718441,0.1,312.024,1592515980442
Fix,GT,37.4606821,-122.1409783,,25.716114,0.1,312.2129,1592515981442
Fix,GT,37.4608203,-122.1412118,,25.742962,0.1,312.24695,1592515982442
Fix,GT,37.4609584,-122.1414454,,25.739252,0.1,312.14932,1592515983442
Fix,GT,37.4610961,-122.1416792,,25.677227,0.1,312.0894,1592515984442
Fix,GT,37.4612335,-122.1419122,,25.613064,0.1,312.19366,1592515985442
Fix,GT,37.461371,-122.1421444,,25.578114,0.1,312.27,1592515986442
Fix,GT,37.4615083,-122.1423764,,25.557621,0.1,312.12155,1592515987442
Fix,GT,37.4616449,-122.1426094,,25.593842,0.1,311.84113,1592515988442
Fix,GT,37.4617811,-122.1428434,,25.694588,0.1,311.773,1592515989442
Fix,GT,37.4619181,-122.1430781,,25.786638,0.1,311.9712,1592515990442
Fix,GT,37.4620562,-122.1433132,,25.898418,0.1,312.01538,1592515991442
Fix,GT,37.4621947,-122.1435498,,26.03386,0.1,311.79913,1592515992442
Fix,GT,37.4623331,-122.1437885,,26.162273,0.1,311.51785,1592515993442
Fix,GT,37.4624713,-122.1440291,,26.337006,0.1,311.27295,1592515994442
Fix,GT,37.4626099,-122.144272,,26.521717,0.1,311.2223,1592515995442
Fix,GT,37.4627498,-122.1445162,,26.686024,0.1,311.4525,1592515996442
Fix,GT,37.4628917,-122.1447607,,26.843634,0.1,311.89023,1592515997442
Fix,GT,37.4630357,-122.1450054,,26.995352,0.1,312.20108,1592515998442
Fix,GT,37.4631814,-122.1452508,,27.151417,0.1,312.3622,1592515999442
Fix,GT,37.4633281,-122.1454976,,27.300034,0.1,312.32538,1592516000442
Fix,GT,37.4634749,-122.1457459,,27.396248,0.1,312.08054,1592516001442
Fix,GT,37.4636215,-122.1459954,,27.412176,0.1,311.95355,1592516002442
Fix,GT,37.4637675,-122.1462448,,27.351734,0.1,311.87564,1592516003442
Fix,GT,37.4639128,-122.1464939,,27.231312,0.1,311.75085,1592516004442
Fix,GT,37.4640568,-122.1467417,,27.018827,0.1,311.7191,1592516005442
Fix,GT,37.4641996,-122.146987,,26.709675,0.1,311.7979,1592516006442
Fix,GT,37.4643408,-122.1472292,,26.408169,0.1,311.85324,1592516007442
Fix,GT,37.464481,-122.1474688,,26.182934,0.1,312.0068,1592516008442
Fix,GT,37.4646205,-122.147706,,25.966282,0.1,312.06628,1592516009442
Fix,GT,37.4647585,-122.1479412,,25.692535,0.1,311.99588,1592516010442
Fix,GT,37.464895,-122.1481738,,25.392452,0.1,312.0058,1592516011442
Fix,GT,37.4650297,-122.1484036,,25.103668,0.1,311.90186,1592516012442
Fix,GT,37.4651632,-122.1486316,,24.975452,0.1,311.97556,1592516013442
Fix,GT,37.4652972,-122.1488589,,25.108482,0.1,312.29846,1592516014442
Fix,GT,37.4654332,-122.1490872,,25.274132,0.1,312.45343,1592516015442
Fix,GT,37.4655697,-122.1493166,,25.383942,0.1,312.26694,1592516016442
Fix,GT,37.4657058,-122.1495477,,25.440851,0.1,311.92447,1592516017442
Fix,GT,37.4658413,-122.1497798,,25.454723,0.1,311.79666,1592516018442
Fix,GT,37.4659769,-122.1500119,,25.476826,0.1,311.9441,1592516019442
Fix,GT,37.4661129,-122.1502442,,25.50092,0.1,311.99136,1592516020442
Fix,GT,37.4662488,-122.1504764,,25.438066,0.1,311.84097,1592516021442
Fix,GT,37.4663836,-122.150708,,25.311962,0.1,311.72714,1592516022442
Fix,GT,37.4665179,-122.1509386,,25.228504,0.1,311.82187,1592516023442
Fix,GT,37.4666522,-122.1511687,,25.228977,0.1,311.8979,1592516024442
Fix,GT,37.4667867,-122.1513989,,25.286951,0.1,311.87256,1592516025442
Fix,GT,37.4669215,-122.1516299,,25.356743,0.1,311.82812,1592516026442
Fix,GT,37.4670567,-122.1518615,,25.437857,0.1,311.96106,1592516027442
Fix,GT,37.4671932,-122.1520932,,25.579187,0.1,312.21066,1592516028442
Fix,GT,37.4673309,-122.1523263,,25.741856,0.1,312.09485,1592516029442
Fix,GT,37.4674684,-122.152561,,25.790627,0.1,311.85822,1592516030442
Fix,GT,37.4676061,-122.1527962,,25.873888,0.1,312.0125,1592516031442
Fix,GT,37.4677454,-122.1530319,,26.057907,0.1,312.3225,1592516032442
Fix,GT,37.4678865,-122.1532686,,26.22511,0.1,312.46353,1592516033442
Fix,GT,37.4680286,-122.1535065,,26.345848,0.1,312.49387,1592516034442
Fix,GT,37.4681706,-122.153745,,26.301952,0.1,312.33823,1592516035442
Fix,GT,37.468311,-122.1539829,,26.035774,0.1,312.0347,1592516036442
Fix,GT,37.468449,-122.1542182,,25.597296,0.1,311.97897,1592516037442
Fix,GT,37.4685842,-122.1544486,,24.983097,0.1,312.05154,1592516038442
Fix,GT,37.4687164,-122.1546729,,24.41225,0.1,312.12396,1592516039442
Fix,GT,37.4688461,-122.1548928,,24.012089,0.1,312.17416,1592516040442
Fix,GT,37.468974,-122.1551095,,23.699715,0.1,312.12524,1592516041442
Fix,GT,37.4691003,-122.1553243,,23.564837,0.1,312.0301,1592516042442
Fix,GT,37.4692263,-122.155539,,23.682209,0.1,311.98264,1592516043442
Fix,GT,37.4693534,-122.1557556,,23.89606,0.1,312.03046,1592516044442
Fix,GT,37.4694817,-122.1559739,,24.103645,0.1,312.05817,1592516045442
Fix,GT,37.4696111,-122.1561941,,24.315628,0.1,312.02917,1592516046442
Fix,GT,37.4697416,-122.1564165,,24.51923,0.1,311.9641,1592516047442
Fix,GT,37.4698728,-122.1566411,,24.736296,0.1,311.75455,1592516048442
Fix,GT,37.4700042,-122.1568685,,24.955423,0.1,311.47305,1592516049442
Fix,GT,37.4701362,-122.1570983,,25.149712,0.1,311.36887,1592516050442
Fix,GT,37.470269,-122.15733,,25.346815,0.1,311.40793,1592516051442
Fix,GT,37.4704034,-122.1575631,,25.573126,0.1,311.67136,1592516052442
Fix,GT,37.4705399,-122.1577976,,25.807034,0.1,311.98502,1592516053442
Fix,GT,37.4706786,-122.1580329,,25.941559,0.1,312.213,1592516054442
Fix,GT,37.4708181,-122.1582682,,25.926666,0.1,312.35873,1592516055442
Fix,GT,37.4709577,-122.1585031,,25.939354,0.1,312.3083,1592516056442
Fix,GT,37.4710973,-122.1587389,,26.040771,0.1,312.14664,1592516057442
Fix,GT,37.4712368,-122.1589761,,26.053581,0.1,311.97968,1592516058442
Fix,GT,37.4713753,-122.1592132,,25.939255,0.1,311.76816,1592516059442
Fix,GT,37.4715129,-122.1594496,,25.892841,0.1,311.74487,1592516060442
Fix,GT,37.4716508,-122.1596865,,26.030462,0.1,311.84515,1592516061442
Fix,GT,37.4717898,-122.1599245,,26.160404,0.1,311.91605,1592516062442
Fix,GT,37.4719294,-122.1601629,,26.187202,0.1,311.9322,1592516063442
Fix,GT,37.4720691,-122.1604019,,26.269768,0.1,311.887,1592516064442
Fix,GT,37.4722096,-122.1606419,,26.402805,0.1,311.97552,1592516065442
Fix,GT,37.472351,-122.1608824,,26.460148,0.1,312.12872,1592516066442
Fix,GT,37.4724926,-122.1611225,,26.35121,0.1,312.17355,1592516067442
Fix,GT,37.4726332,-122.1613608,,26.095062,0.1,312.10077,1592516068442
Fix,GT,37.4727719,-122.161597,,25.788948,0.1,311.8933,1592516069442
Fix,GT,37.472908,-122.1618306,,25.406868,0.1,311.79678,1592516070442
Fix,GT,37.4730423,-122.1620606,,25.075497,0.1,311.9759,1592516071442
Fix,GT,37.4731763,-122.1622882,,25.051634,0.1,312.19617,1592516072442
Fix,GT,37.4733114,-122.1625164,,25.236088,0.1,312.30963,1592516073442
Fix,GT,37.4734476,-122.1627461,,25.401733,0.1,312.17795,1592516074442
Fix,GT,37.4735841,-122.1629779,,25.567327,0.1,311.99725,1592516075442
Fix,GT,37.473721,-122.1632116,,25.73713,0.1,311.9069,1592516076442
Fix,GT,37.4738586,-122.1634472,,25.928907,0.1,311.83478,1592516077442
Fix,GT,37.4739966,-122.1636841,,25.957212,0.1,311.7286,1592516078442
Fix,GT,37.4741337,-122.1639204,,25.711063,0.1,311.60355,1592516079442
Fix,GT,37.4742691,-122.164154,,25.406963,0.1,311.69708,1592516080442
Fix,GT,37.4744039,-122.164385,,25.28447,0.1,311.96893,1592516081442
Fix,GT,37.4745397,-122.1646156,,25.52322,0.1,312.2171,1592516082442
Fix,GT,37.4746779,-122.1648489,,25.904266,0.1,312.3659,1592516083442
Fix,GT,37.4748184,-122.1650852,,26.221498,0.1,312.32254,1592516084442
Fix,GT,37.4749598,-122.1653242,,26.414303,0.1,312.13586,1592516085442
Fix,GT,37.4751013,-122.1655651,,26.485052,0.1,312.00854,1592516086442
Fix,GT,37.4752427,-122.165806,,26.419819,0.1,311.99658,1592516087442
Fix,GT,37.4753831,-122.1660459,,26.231836,0.1,311.80667,1592516088442
Fix,GT,37.4755217,-122.1662843,,25.978228,0.1,311.74518,1592516089442
Fix,GT,37.475659,-122.1665201,,25.677355,0.1,311.81705,1592516090442
Fix,GT,37.4757946,-122.1667534,,25.425556,0.1,311.69382,1592516091442
Fix,GT,37.4759292,-122.1669853,,25.3769,0.1,311.71942,1592516092442
Fix,GT,37.4760645,-122.1672174,,25.513916,0.1,311.86316,1592516093442
Fix,GT,37.4762011,-122.1674508,,25.709824,0.1,312.02582,1592516094442
Fix,GT,37.4763395,-122.1676853,,25.922543,0.1,312.30566,1592516095442
Fix,GT,37.4764801,-122.167921,,26.169777,0.1,312.54712,1592516096442
Fix,GT,37.476623,-122.1681582,,26.442783,0.1,312.9248,1592516097442
Fix,GT,37.476769,-122.1683963,,26.730608,0.1,313.506,1592516098442
Fix,GT,37.4769175,-122.1686362,,26.957905,0.1,313.43875,1592516099442
Fix,GT,37.4770653,-122.1688785,,26.982798,0.1,312.76083,1592516100442
Fix,GT,37.4772106,-122.169122,,26.804846,0.1,312.2618,1592516101442
Fix,GT,37.4773532,-122.1693652,,26.607643,0.1,311.75305,1592516102442
Fix,GT,37.4774933,-122.1696089,,26.600218,0.1,311.23,1592516103442
Fix,GT,37.4776329,-122.1698545,,26.785767,0.1,311.18604,1592516104442
Fix,GT,37.4777743,-122.170102,,27.075626,0.1,311.47128,1592516105442
Fix,GT,37.4779183,-122.1703513,,27.390743,0.1,311.69623,1592516106442
Fix,GT,37.4780642,-122.1706026,,27.596283,0.1,311.77704,1592516107442
Fix,GT,37.478211,-122.1708549,,27.651865,0.1,311.7869,1592516108442
Fix,GT,37.478358,-122.1711072,,27.62133,0.1,311.87344,1592516109442
Fix,GT,37.4785049,-122.1713584,,27.471264,0.1,311.94217,1592516110442
Fix,GT,37.4786503,-122.1716077,,27.17236,0.1,311.7301,1592516111442
Fix,GT,37.4787931,-122.1718548,,26.793236,0.1,311.5103,1592516112442
Fix,GT,37.4789343,-122.1720991,,26.628298,0.1,311.69406,1592516113442
Fix,GT,37.4790759,-122.172342,,26.601564,0.1,312.05695,1592516114442
Fix,GT,37.4792178,-122.1725829,,26.385624,0.1,312.21317,1592516115442
Fix,GT,37.4793588,-122.1728211,,26.101677,0.1,312.32996,1592516116442
Fix,GT,37.4794987,-122.1730564,,25.786701,0.1,312.4552,1592516117442
Fix,GT,37.4796368,-122.1732886,,25.476215,0.1,312.34427,1592516118442
Fix,GT,37.4797728,-122.1735184,,25.162346,0.1,312.18173,1592516119442
Fix,GT,37.4799065,-122.1737456,,24.788595,0.1,312.02228,1592516120442
Fix,GT,37.4800379,-122.1739706,,24.600412,0.1,311.64066,1592516121442
Fix,GT,37.4801674,-122.1741964,,24.635822,0.1,311.31146,1592516122442
Fix,GT,37.4802974,-122.1744231,,24.756042,0.1,311.5002,1592516123442
Fix,GT,37.4804288,-122.1746503,,24.925983,0.1,311.7157,1592516124442
Fix,GT,37.4805611,-122.1748792,,25.08423,0.1,311.5294,1592516125442
Fix,GT,37.4806939,-122.1751097,,25.236872,0.1,311.5573,1592516126442
Fix,GT,37.4808281,-122.1753413,,25.42659,0.1,311.85587,1592516127442
Fix,GT,37.4809641,-122.1755739,,25.618065,0.1,311.98724,1592516128442
Fix,GT,37.4811014,-122.1758078,,25.864326,0.1,312.08783,1592516129442
Fix,GT,37.481241,-122.1760446,,26.29851,0.1,312.26648,1592516130442
Fix,GT,37.4813838,-122.176286,,26.881134,0.1,312.23923,1592516131442
Fix,GT,37.4815289,-122.1765334,,27.43969,0.1,311.77173,1592516132442
Fix,GT,37.4816748,-122.1767876,,27.964506,0.1,311.23648,1592516133442
Fix,GT,37.4818221,-122.1770479,,28.474598,0.1,310.97266,1592516134442
Fix,GT,37.4819713,-122.1773131,,28.922108,0.1,310.74234,1592516135442
Fix,GT,37.4821203,-122.177583,,29.069103,0.1,309.9361,1592516136442
Fix,GT,37.4822652,-122.1778558,,28.866032,0.1,308.73758,1592516137442
Fix,GT,37.4824044,-122.1781297,,28.59277,0.1,307.65704,1592516138442
Fix,GT,37.4825388,-122.1784041,,28.378286,0.1,306.91766,1592516139442
Fix,GT,37.4826703,-122.1786786,,28.286821,0.1,306.3399,1592516140442
Fix,GT,37.4827989,-122.178955,,28.301968,0.1,305.49036,1592516141442
Fix,GT,37.4829238,-122.1792332,,28.162598,0.1,304.54977,1592516142442
Fix,GT,37.4830437,-122.1795116,,27.810583,0.1,303.53635,1592516143442
Fix,GT,37.4831582,-122.1797888,,27.377872,0.1,302.5769,1592516144442
Fix,GT,37.4832676,-122.1800633,,26.875242,0.1,301.9317,1592516145442
Fix,GT,37.4833729,-122.1803338,,26.362854,0.1,301.53275,1592516146442
Fix,GT,37.4834746,-122.1806003,,25.857569,0.1,300.97714,1592516147442
Fix,GT,37.4835722,-122.1808627,,25.314793,0.1,300.32886,1592516148442
Fix,GT,37.4836656,-122.1811207,,24.814125,0.1,299.87094,1592516149442
Fix,GT,37.4837558,-122.1813746,,24.359898,0.1,299.42062,1592516150442
Fix,GT,37.4838426,-122.1816249,,23.950533,0.1,298.84454,1592516151442
Fix,GT,37.4839258,-122.1818729,,23.64296,0.1,298.10873,1592516152442
Fix,GT,37.4840054,-122.1821195,,23.379581,0.1,297.3413,1592516153442
Fix,GT,37.4840817,-122.1823643,,23.097893,0.1,296.70285,1592516154442
Fix,GT,37.4841552,-122.1826068,,22.8018,0.1,296.27133,1592516155442
Fix,GT,37.4842267,-122.1828468,,22.517075,0.1,296.06766,1592516156442
Fix,GT,37.4842969,-122.1830841,,22.257935,0.1,295.94388,1592516157442
Fix,GT,37.4843658,-122.1833193,,22.123686,0.1,295.69214,1592516158442
Fix,GT,37.4844335,-122.1835551,,22.2605,0.1,295.27798,1592516159442
Fix,GT,37.4845004,-122.1837943,,22.540827,0.1,294.74918,1592516160442
Fix,GT,37.4845659,-122.184037,,22.77858,0.1,294.0327,1592516161442
Fix,GT,37.4846296,-122.1842833,,23.010826,0.1,293.27182,1592516162442
Fix,GT,37.484692,-122.1845329,,23.268703,0.1,292.96262,1592516163442
Fix,GT,37.4847548,-122.1847855,,23.54572,0.1,292.97855,1592516164442
Fix,GT,37.484818,-122.1850412,,23.817604,0.1,292.70953,1592516165442
Fix,GT,37.4848805,-122.1853003,,24.054401,0.1,292.34613,1592516166442
Fix,GT,37.4849425,-122.1855623,,24.292665,0.1,291.98145,1592516167442
Fix,GT,37.4850036,-122.1858276,,24.551031,0.1,291.5656,1592516168442
Fix,GT,37.4850634,-122.1860961,,24.762835,0.1,290.9061,1592516169442
Fix,GT,37.4851206,-122.1863679,,24.937302,0.1,289.9624,1592516170442
Fix,GT,37.4851751,-122.1866426,,25.123947,0.1,289.31384,1592516171442
Fix,GT,37.4852283,-122.1869199,,25.323763,0.1,289.08032,1592516172442
Fix,GT,37.485281,-122.1871997,,25.514141,0.1,288.757,1592516173442
Fix,GT,37.4853324,-122.187482,,25.6998,0.1,288.28717,1592516174442
Fix,GT,37.4853821,-122.1877669,,25.875298,0.1,287.664,1592516175442
Fix,GT,37.4854294,-122.1880545,,26.05979,0.1,286.9679,1592516176442
Fix,GT,37.4854744,-122.1883447,,26.240593,0.1,286.41608,1592516177442
Fix,GT,37.4855181,-122.1886373,,26.415901,0.1,286.09058,1592516178442
Fix,GT,37.4855606,-122.1889321,,26.581486,0.1,285.6886,1592516179442
Fix,GT,37.4856012,-122.1892291,,26.670692,0.1,285.019,1592516180442
Fix,GT,37.4856392,-122.1895266,,26.55616,0.1,284.5041,1592516181442
Fix,GT,37.4856757,-122.1898218,,26.272408,0.1,284.46207,1592516182442
Fix,GT,37.4857123,-122.1901136,,25.976032,0.1,284.66333,1592516183442
Fix,GT,37.4857493,-122.190402,,25.68761,0.1,284.75278,1592516184442
Fix,GT,37.4857859,-122.1906869,,25.365723,0.1,284.65222,1592516185442
Fix,GT,37.4858216,-122.1909682,,25.037842,0.1,284.57233,1592516186442
Fix,GT,37.4858566,-122.1912472,,24.968342,0.1,284.4903,1592516187442
Fix,GT,37.4858914,-122.1915269,,25.138983,0.1,284.4373,1592516188442
Fix,GT,37.4859264,-122.1918084,,25.232113,0.1,284.4796,1592516189442
Fix,GT,37.4859617,-122.1920905,,25.276558,0.1,284.52313,1592516190442
Fix,GT,37.4859969,-122.1923732,,25.337475,0.1,284.43005,1592516191442
Fix,GT,37.4860319,-122.1926568,,25.43334,0.1,284.34125,1592516192442
Fix,GT,37.4860667,-122.1929418,,25.567766,0.1,284.23193,1592516193442
Fix,GT,37.4861013,-122.1932285,,25.723328,0.1,284.18695,1592516194442
Fix,GT,37.4861361,-122.1935168,,25.823189,0.1,284.22424,1592516195442
Fix,GT,37.486171,-122.1938054,,25.792896,0.1,284.2377,1592516196442
Fix,GT,37.4862057,-122.1940929,,25.640438,0.1,284.28015,1592516197442
Fix,GT,37.4862407,-122.1943787,,25.498724,0.1,284.36282,1592516198442
Fix,GT,37.4862756,-122.1946627,,25.320644,0.1,284.34732,1592516199442
Fix,GT,37.4863101,-122.1949445,,25.104942,0.1,284.3537,1592516200442
Fix,GT,37.4863447,-122.1952242,,24.956215,0.1,284.50156,1592516201442
Fix,GT,37.4863797,-122.1955022,,24.837864,0.1,284.60443,1592516202442
Fix,GT,37.4864148,-122.1957788,,24.70544,0.1,284.64413,1592516203442
Fix,GT,37.4864497,-122.196054,,24.600166,0.1,284.61798,1592516204442
Fix,GT,37.4864847,-122.1963284,,24.55832,0.1,284.66876,1592516205442
Fix,GT,37.4865197,-122.1966028,,24.61319,0.1,284.6981,1592516206442
Fix,GT,37.4865545,-122.196878,,24.657497,0.1,284.53375,1592516207442
Fix,GT,37.4865886,-122.1971531,,24.533905,0.1,284.291,1592516208442
Fix,GT,37.4866215,-122.1974262,,24.284126,0.1,284.08835,1592516209442
Fix,GT,37.4866536,-122.1976963,,24.022308,0.1,284.08817,1592516210442
Fix,GT,37.4866857,-122.1979636,,23.83171,0.1,284.27267,1592516211442
Fix,GT,37.4867185,-122.1982295,,23.802002,0.1,284.53665,1592516212442
Fix,GT,37.4867524,-122.1984956,,23.869888,0.1,284.73196,1592516213442
Fix,GT,37.4867867,-122.1987628,,24.003237,0.1,284.6938,1592516214442
Fix,GT,37.4868208,-122.199032,,24.219135,0.1,284.56955,1592516215442
Fix,GT,37.4868547,-122.1993038,,24.441212,0.1,284.49026,1592516216442
Fix,GT,37.4868889,-122.1995779,,24.627546,0.1,284.48898,1592516217442
Fix,GT,37.4869234,-122.1998538,,24.75872,0.1,284.51657,1592516218442
Fix,GT,37.486958,-122.2001308,,24.841438,0.1,284.47092,1592516219442
Fix,GT,37.4869924,-122.200409,,24.956978,0.1,284.34775,1592516220442
Fix,GT,37.4870266,-122.2006891,,25.154194,0.1,284.26245,1592516221442
Fix,GT,37.4870611,-122.2009714,,25.36267,0.1,284.34772,1592516222442
Fix,GT,37.4870965,-122.2012559,,25.559837,0.1,284.5368,1592516223442
Fix,GT,37.4871327,-122.2015418,,25.618624,0.1,284.61572,1592516224442
Fix,GT,37.4871686,-122.2018273,,25.469442,0.1,284.50092,1592516225442
Fix,GT,37.4872036,-122.2021105,,25.202118,0.1,284.28418,1592516226442
Fix,GT,37.4872377,-122.2023904,,24.874517,0.1,284.22397,1592516227442
Fix,GT,37.4872711,-122.2026664,,24.519207,0.1,284.2583,1592516228442
Fix,GT,37.4873042,-122.2029386,,24.197449,0.1,284.2518,1592516229442
Fix,GT,37.4873369,-122.2032076,,23.936678,0.1,284.25775,1592516230442
Fix,GT,37.4873695,-122.2034745,,23.856186,0.1,284.3334,1592516231442
Fix,GT,37.4874025,-122.2037415,,23.916925,0.1,284.4866,1592516232442
Fix,GT,37.487436,-122.2040084,,23.831295,0.1,284.52347,1592516233442
Fix,GT,37.4874691,-122.2042734,,23.605755,0.1,284.48688,1592516234442
Fix,GT,37.4875022,-122.2045356,,23.340542,0.1,284.6217,1592516235442
Fix,GT,37.4875352,-122.2047946,,23.060282,0.1,284.69266,1592516236442
Fix,GT,37.4875676,-122.2050509,,22.872517,0.1,284.51404,1592516237442
Fix,GT,37.4875993,-122.2053063,,22.907139,0.1,284.35297,1592516238442
Fix,GT,37.4876308,-122.2055633,,23.09069,0.1,284.31805,1592516239442
Fix,GT,37.4876627,-122.2058224,,23.272144,0.1,284.38263,1592516240442
Fix,GT,37.4876951,-122.2060836,,23.48265,0.1,284.45734,1592516241442
Fix,GT,37.487728,-122.2063472,,23.723331,0.1,284.53265,1592516242442
Fix,GT,37.4877618,-122.2066139,,24.041477,0.1,284.6662,1592516243442
Fix,GT,37.4877966,-122.206884,,24.313856,0.1,284.9808,1592516244442
Fix,GT,37.4878334,-122.2071552,,24.253807,0.1,285.5104,1592516245442
Fix,GT,37.4878719,-122.2074234,,23.966259,0.1,286.11014,1592516246442
Fix,GT,37.4879122,-122.207688,,23.728363,0.1,286.70425,1592516247442
Fix,GT,37.4879544,-122.2079507,,23.72274,0.1,287.23932,1592516248442
Fix,GT,37.4879986,-122.2082141,,23.88945,0.1,287.78424,1592516249442
Fix,GT,37.4880454,-122.2084789,,24.077396,0.1,288.39804,1592516250442
Fix,GT,37.4880948,-122.2087451,,24.276041,0.1,288.86594,1592516251442
Fix,GT,37.4881457,-122.2090134,,24.492226,0.1,289.04987,1592516252442
Fix,GT,37.4881976,-122.2092838,,24.720137,0.1,289.233,1592516253442
Fix,GT,37.488251,-122.2095566,,24.979435,0.1,289.62177,1592516254442
Fix,GT,37.488307,-122.2098319,,25.27118,0.1,290.1828,1592516255442
Fix,GT,37.4883659,-122.2101094,,25.53888,0.1,290.8956,1592516256442
Fix,GT,37.4884284,-122.2103885,,25.729393,0.1,291.6586,1592516257442
Fix,GT,37.488494,-122.2106681,,25.83044,0.1,292.26224,1592516258442
Fix,GT,37.4885618,-122.2109476,,25.86267,0.1,292.81116,1592516259442
Fix,GT,37.4886318,-122.2112263,,25.81774,0.1,293.35156,1592516260442
Fix,GT,37.4887032,-122.2115035,,25.65269,0.1,293.73795,1592516261442
Fix,GT,37.4887752,-122.211777,,25.265427,0.1,294.03607,1592516262442
Fix,GT,37.4888472,-122.2120447,,24.731136,0.1,294.42633,1592516263442
Fix,GT,37.4889196,-122.2123075,,24.450222,0.1,294.94086,1592516264442
Fix,GT,37.4889934,-122.2125677,,24.418354,0.1,295.48502,1592516265442
Fix,GT,37.4890695,-122.212826,,24.325676,0.1,296.36475,1592516266442
Fix,GT,37.4891487,-122.2130822,,24.318027,0.1,297.25784,1592516267442
Fix,GT,37.4892304,-122.2133375,,24.364117,0.1,297.69678,1592516268442
Fix,GT,37.4893135,-122.2135922,,24.31442,0.1,298.07068,1592516269442
Fix,GT,37.4893976,-122.2138453,,24.180706,0.1,298.42578,1592516270442
Fix,GT,37.4894824,-122.2140962,,24.041908,0.1,298.74338,1592516271442
Fix,GT,37.4895677,-122.2143454,,23.923176,0.1,299.04166,1592516272442
Fix,GT,37.4896541,-122.2145925,,23.811657,0.1,299.55978,1592516273442
Fix,GT,37.489742,-122.2148371,,23.686699,0.1,300.1857,1592516274442
Fix,GT,37.4898315,-122.2150795,,23.580044,0.1,300.60797,1592516275442
Fix,GT,37.4899216,-122.2153202,,23.457739,0.1,300.99014,1592516276442
Fix,GT,37.4900128,-122.2155589,,23.386637,0.1,301.4605,1592516277442
Fix,GT,37.4901056,-122.2157961,,23.377874,0.1,302.0343,1592516278442
Fix,GT,37.4902002,-122.2160322,,23.379662,0.1,302.58356,1592516279442
Fix,GT,37.4902968,-122.2162673,,23.423923,0.1,303.18066,1592516280442
Fix,GT,37.4903956,-122.2165018,,23.504047,0.1,303.81696,1592516281442
Fix,GT,37.4904965,-122.2167354,,23.46978,0.1,304.38678,1592516282442
Fix,GT,37.4905985,-122.2169661,,23.10527,0.1,304.80258,1592516283442
Fix,GT,37.4906988,-122.2171909,,22.43749,0.1,304.9474,1592516284442
Fix,GT,37.4907961,-122.2174085,,21.712286,0.1,304.87357,1592516285442
Fix,GT,37.4908903,-122.2176197,,21.155993,0.1,304.80658,1592516286442
Fix,GT,37.4909824,-122.2178268,,20.84868,0.1,304.73956,1592516287442
Fix,GT,37.4910732,-122.2180319,,20.636417,0.1,304.6583,1592516288442
Fix,GT,37.491163,-122.2182349,,20.431957,0.1,304.6213,1592516289442
Fix,GT,37.4912517,-122.2184359,,20.217705,0.1,304.60422,1592516290442
Fix,GT,37.4913395,-122.2186349,,20.006596,0.1,304.61255,1592516291442
Fix,GT,37.4914265,-122.2188318,,19.814896,0.1,304.66144,1592516292442
Fix,GT,37.491513,-122.2190266,,19.626125,0.1,304.79095,1592516293442
Fix,GT,37.491599,-122.2192194,,19.503136,0.1,304.93506,1592516294442
Fix,GT,37.4916853,-122.2194124,,19.727724,0.1,304.9013,1592516295442
Fix,GT,37.4917732,-122.2196097,,20.243149,0.1,304.79694,1592516296442
Fix,GT,37.4918631,-122.2198121,,20.730366,0.1,304.7598,1592516297442
Fix,GT,37.4919547,-122.2200189,,21.129398,0.1,304.70395,1592516298442
Fix,GT,37.4920477,-122.220229,,21.345783,0.1,304.68033,1592516299442
Fix,GT,37.4921417,-122.2204406,,21.496628,0.1,304.82455,1592516300442
Fix,GT,37.492237,-122.2206536,,21.74149,0.1,305.0311,1592516301442
Fix,GT,37.4923343,-122.2208692,,22.116741,0.1,305.25412,1592516302442
Fix,GT,37.4924342,-122.2210882,,22.456696,0.1,305.4325,1592516303442
Fix,GT,37.4925348,-122.2213089,,22.454401,0.1,305.30008,1592516304442
Fix,GT,37.4926341,-122.221529,,22.238008,0.1,304.9483,1592516305442
Fix,GT,37.4927314,-122.2217472,,21.959835,0.1,304.81036,1592516306442
Fix,GT,37.4928272,-122.2219626,,21.72452,0.1,304.8814,1592516307442
Fix,GT,37.4929227,-122.2221771,,21.785713,0.1,304.7836,1592516308442
Fix,GT,37.4930182,-122.222394,,22.029074,0.1,304.4399,1592516309442
Fix,GT,37.4931136,-122.2226136,,22.221737,0.1,304.1041,1592516310442
Fix,GT,37.4932097,-122.2228364,,22.59871,0.1,304.10968,1592516311442
Fix,GT,37.493308,-122.2230636,,23.13396,0.1,304.17502,1592516312442
Fix,GT,37.4934079,-122.2232965,,23.627167,0.1,303.68176,1592516313442
Fix,GT,37.4935077,-122.2235356,,24.087593,0.1,303.01727,1592516314442
Fix,GT,37.4936073,-122.2237803,,24.496788,0.1,302.56433,1592516315442
Fix,GT,37.4937068,-122.2240288,,24.632942,0.1,302.09113,1592516316442
Fix,GT,37.4938041,-122.2242781,,24.413668,0.1,301.42728,1592516317442
Fix,GT,37.4938978,-122.2245257,,24.022877,0.1,300.68903,1592516318442
Fix,GT,37.4939876,-122.2247701,,23.5093,0.1,300.1918,1592516319442
Fix,GT,37.4940738,-122.2250084,,22.76103,0.1,299.97147,1592516320442
Fix,GT,37.4941565,-122.225239,,22.047157,0.1,299.70627,1592516321442
Fix,GT,37.4942361,-122.2254653,,21.786625,0.1,299.29572,1592516322442
Fix,GT,37.4943142,-122.2256919,,21.911037,0.1,298.83774,1592516323442
Fix,GT,37.4943921,-122.2259221,,22.301575,0.1,298.54727,1592516324442
Fix,GT,37.4944707,-122.2261571,,22.746222,0.1,298.27936,1592516325442
Fix,GT,37.4945495,-122.2263976,,23.223297,0.1,297.72757,1592516326442
Fix,GT,37.4946276,-122.2266442,,23.721512,0.1,296.92914,1592516327442
Fix,GT,37.4947047,-122.2268971,,24.15496,0.1,296.31122,1592516328442
Fix,GT,37.4947813,-122.2271543,,24.346428,0.1,295.98813,1592516329442
Fix,GT,37.4948569,-122.2274122,,24.211487,0.1,295.62695,1592516330442
Fix,GT,37.4949304,-122.2276685,,23.929897,0.1,295.24792,1592516331442
Fix,GT,37.4950019,-122.2279216,,23.559155,0.1,295.05402,1592516332442
Fix,GT,37.495072,-122.2281709,,23.21621,0.1,295.17908,1592516333442
Fix,GT,37.4951423,-122.2284178,,23.251122,0.1,295.39307,1592516334442
Fix,GT,37.4952139,-122.2286666,,23.594984,0.1,295.53296,1592516335442
Fix,GT,37.4952868,-122.2289191,,23.858082,0.1,295.4933,1592516336442
Fix,GT,37.4953593,-122.2291732,,23.842018,0.1,295.05258,1592516337442
Fix,GT,37.4954301,-122.2294265,,23.62794,0.1,294.82755,1592516338442
Fix,GT,37.4954999,-122.2296773,,23.367268,0.1,294.89114,1592516339442
Fix,GT,37.4955687,-122.2299251,,23.07674,0.1,294.76413,1592516340442
Fix,GT,37.4956363,-122.2301708,,22.935333,0.1,294.5551,1592516341442
Fix,GT,37.4957031,-122.2304166,,23.048328,0.1,294.43713,1592516342442
Fix,GT,37.4957705,-122.2306638,,23.136944,0.1,294.7007,1592516343442
Fix,GT,37.4958396,-122.2309104,,23.124725,0.1,295.1798,1592516344442
Fix,GT,37.4959101,-122.2311566,,23.172712,0.1,295.47888,1592516345442
Fix,GT,37.4959814,-122.2314038,,23.322319,0.1,295.45193,1592516346442
Fix,GT,37.4960525,-122.2316531,,23.505634,0.1,295.16794,1592516347442
Fix,GT,37.4961229,-122.2319042,,23.522331,0.1,294.90823,1592516348442
Fix,GT,37.4961926,-122.2321542,,23.297386,0.1,294.89813,1592516349442
Fix,GT,37.496262,-122.2324008,,22.947227,0.1,295.2118,1592516350442
Fix,GT,37.4963312,-122.2326426,,22.501839,0.1,295.45724,1592516351442
Fix,GT,37.4963994,-122.2328791,,22.0053,0.1,295.3802,1592516352442
Fix,GT,37.4964656,-122.2331113,,21.629536,0.1,295.2478,1592516353442
Fix,GT,37.4965309,-122.2333403,,21.37193,0.1,295.35046,1592516354442
Fix,GT,37.4965965,-122.2335672,,21.324425,0.1,295.6533,1592516355442
Fix,GT,37.4966627,-122.2337946,,21.538998,0.1,295.6434,1592516356442
Fix,GT,37.496729,-122.2340247,,21.72929,0.1,295.3111,1592516357442
Fix,GT,37.4967951,-122.2342572,,21.94556,0.1,295.1977,1592516358442
Fix,GT,37.4968623,-122.2344918,,22.15392,0.1,295.584,1592516359442
Fix,GT,37.4969323,-122.2347273,,22.302725,0.1,296.65762,1592516360442
Fix,GT,37.4970075,-122.234962,,22.485466,0.1,298.17047,1592516361442
Fix,GT,37.497088,-122.2351965,,22.665024,0.1,299.39734,1592516362442
Fix,GT,37.4971715,-122.2354303,,22.620083,0.1,300.1127,1592516363442
Fix,GT,37.4972568,-122.2356609,,22.324596,0.1,300.85635,1592516364442
Fix,GT,37.4973434,-122.2358863,,21.949387,0.1,301.79468,1592516365442
Fix,GT,37.4974319,-122.2361061,,21.64864,0.1,302.8496,1592516366442
Fix,GT,37.497522,-122.2363215,,21.39883,0.1,303.61105,1592516367442
Fix,GT,37.4976131,-122.2365332,,21.21796,0.1,304.32825,1592516368442
Fix,GT,37.4977066,-122.2367425,,21.277771,0.1,305.3427,1592516369442
Fix,GT,37.4978041,-122.2369514,,21.525106,0.1,306.53668,1592516370442
Fix,GT,37.4979064,-122.2371595,,21.800606,0.1,308.01535,1592516371442
Fix,GT,37.4980151,-122.2373672,,22.204113,0.1,309.55627,1592516372442
Fix,GT,37.4981302,-122.2375758,,22.712627,0.1,310.98022,1592516373442
Fix,GT,37.4982516,-122.2377856,,23.182224,0.1,312.1158,1592516374442
Fix,GT,37.4983778,-122.237997,,23.49842,0.1,312.88235,1592516375442
Fix,GT,37.4985078,-122.238207,,23.497177,0.1,314.00375,1592516376442
Fix,GT,37.4986403,-122.2384115,,23.09929,0.1,315.42706,1592516377442
Fix,GT,37.4987737,-122.2386073,,22.50259,0.1,316.85013,1592516378442
Fix,GT,37.4989076,-122.2387942,,21.974333,0.1,318.22934,1592516379442
Fix,GT,37.4990421,-122.2389733,,21.583498,0.1,319.5993,1592516380442
Fix,GT,37.4991776,-122.2391452,,21.218243,0.1,320.9393,1592516381442
Fix,GT,37.4993136,-122.2393106,,20.849934,0.1,321.94995,1592516382442
Fix,GT,37.4994491,-122.239471,,20.541996,0.1,322.66144,1592516383442
Fix,GT,37.4995843,-122.2396273,,20.299364,0.1,323.19272,1592516384442
Fix,GT,37.4997187,-122.2397809,,20.052444,0.1,323.3525,1592516385442
Fix,GT,37.4998513,-122.2399327,,19.824823,0.1,323.2837,1592516386442
Fix,GT,37.4999829,-122.2400838,,19.827644,0.1,323.16797,1592516387442
Fix,GT,37.5001154,-122.2402368,,20.230806,0.1,323.01343,1592516388442
Fix,GT,37.5002512,-122.2403938,,20.78138,0.1,323.06976,1592516389442
Fix,GT,37.5003909,-122.2405542,,21.212536,0.1,323.2682,1592516390442
Fix,GT,37.5005331,-122.2407163,,21.354027,0.1,323.48138,1592516391442
Fix,GT,37.5006755,-122.2408776,,21.245039,0.1,323.6519,1592516392442
Fix,GT,37.5008177,-122.2410379,,21.215256,0.1,323.7969,1592516393442
Fix,GT,37.5009603,-122.2411978,,21.239056,0.1,323.97394,1592516394442
Fix,GT,37.501103,-122.2413571,,21.107254,0.1,323.987,1592516395442
Fix,GT,37.5012443,-122.2415158,,20.994839,0.1,323.65652,1592516396442
Fix,GT,37.5013845,-122.2416758,,21.087341,0.1,323.25497,1592516397442
Fix,GT,37.5015249,-122.2418375,,21.148335,0.1,322.9753,1592516398442
Fix,GT,37.5016643,-122.2419992,,20.964111,0.1,322.87885,1592516399442
Fix,GT,37.5018022,-122.242159,,20.690308,0.1,323.04852,1592516400442
Fix,GT,37.5019389,-122.2423158,,20.420353,0.1,323.30283,1592516401442
Fix,GT,37.5020744,-122.2424702,,20.198915,0.1,323.55646,1592516402442
Fix,GT,37.502209,-122.242622,,19.999256,0.1,323.83234,1592516403442
Fix,GT,37.5023429,-122.2427716,,19.7861,0.1,323.99683,1592516404442
Fix,GT,37.5024753,-122.2429199,,19.643873,0.1,323.7428,1592516405442
Fix,GT,37.5026067,-122.2430689,,19.710321,0.1,323.41312,1592516406442
Fix,GT,37.5027391,-122.2432198,,20.024582,0.1,323.46616,1592516407442
Fix,GT,37.5028743,-122.2433732,,20.45248,0.1,323.59702,1592516408442
Fix,GT,37.5030127,-122.2435298,,20.884243,0.1,323.65646,1592516409442
Fix,GT,37.5031536,-122.2436895,,21.202744,0.1,323.52176,1592516410442
Fix,GT,37.503296,-122.2438514,,21.384827,0.1,323.4594,1592516411442
Fix,GT,37.5034391,-122.2440135,,21.393719,0.1,323.74216,1592516412442
Fix,GT,37.5035823,-122.2441742,,21.263958,0.1,323.87064,1592516413442
Fix,GT,37.5037248,-122.244334,,21.193748,0.1,323.80292,1592516414442
Fix,GT,37.503867,-122.2444943,,21.23267,0.1,323.60025,1592516415442
Fix,GT,37.5040091,-122.2446563,,21.38364,0.1,323.34076,1592516416442
Fix,GT,37.5041521,-122.2448198,,21.565706,0.1,323.41486,1592516417442
Fix,GT,37.5042968,-122.244984,,21.76678,0.1,323.64886,1592516418442
Fix,GT,37.5044435,-122.2451496,,22.022865,0.1,323.77304,1592516419442
Fix,GT,37.5045923,-122.2453168,,22.31609,0.1,323.83554,1592516420442
Fix,GT,37.504743,-122.2454864,,22.611544,0.1,323.7195,1592516421442
Fix,GT,37.5048954,-122.2456588,,22.87717,0.1,323.5368,1592516422442
Fix,GT,37.5050486,-122.2458331,,22.98226,0.1,323.3755,1592516423442
Fix,GT,37.5052012,-122.246008,,22.865036,0.1,323.20593,1592516424442
Fix,GT,37.5053527,-122.2461816,,22.631916,0.1,323.3246,1592516425442
Fix,GT,37.505503,-122.2463523,,22.378395,0.1,323.67987,1592516426442
Fix,GT,37.5056522,-122.2465207,,22.127495,0.1,323.70337,1592516427442
Fix,GT,37.5057994,-122.2466872,,21.8726,0.1,323.61462,1592516428442
Fix,GT,37.5059449,-122.2468519,,21.630302,0.1,323.71964,1592516429442
Fix,GT,37.5060892,-122.2470143,,21.355322,0.1,323.77118,1592516430442
Fix,GT,37.506231,-122.247174,,20.917858,0.1,323.68185,1592516431442
Fix,GT,37.5063691,-122.2473303,,20.30663,0.1,323.5072,1592516432442
Fix,GT,37.5065026,-122.2474824,,19.739857,0.1,323.3004,1592516433442
Fix,GT,37.5066325,-122.2476315,,19.397896,0.1,323.2384,1592516434442
Fix,GT,37.5067612,-122.2477783,,19.195389,0.1,323.5338,1592516435442
Fix,GT,37.5068893,-122.2479227,,19.067533,0.1,323.87936,1592516436442
Fix,GT,37.5070177,-122.2480663,,19.171648,0.1,323.98624,1592516437442
Fix,GT,37.5071477,-122.2482118,,19.493551,0.1,323.9471,1592516438442
Fix,GT,37.5072796,-122.2483596,,19.720337,0.1,323.92062,1592516439442
Fix,GT,37.5074125,-122.2485082,,19.762926,0.1,323.96484,1592516440442
Fix,GT,37.5075456,-122.2486572,,19.813103,0.1,323.85437,1592516441442
Fix,GT,37.5076786,-122.2488068,,19.79578,0.1,323.73535,1592516442442
Fix,GT,37.5078109,-122.2489562,,19.700726,0.1,323.58755,1592516443442
Fix,GT,37.5079425,-122.2491057,,19.688473,0.1,323.4969,1592516444442
Fix,GT,37.5080739,-122.2492552,,19.71157,0.1,323.498,1592516445442
Fix,GT,37.5082055,-122.2494048,,19.694386,0.1,323.50513,1592516446442
Fix,GT,37.5083371,-122.2495541,,19.658571,0.1,323.5177,1592516447442
Fix,GT,37.5084682,-122.249703,,19.571842,0.1,323.5165,1592516448442
Fix,GT,37.5085987,-122.2498514,,19.542892,0.1,323.49326,1592516449442
Fix,GT,37.5087294,-122.2500001,,19.637226,0.1,323.455,1592516450442
Fix,GT,37.5088611,-122.25015,,19.821304,0.1,323.47504,1592516451442
Fix,GT,37.5089945,-122.2503015,,20.103123,0.1,323.55344,1592516452442
Fix,GT,37.5091296,-122.2504545,,20.23399,0.1,323.58627,1592516453442
Fix,GT,37.5092646,-122.2506075,,20.113808,0.1,323.59485,1592516454442
Fix,GT,37.5093987,-122.2507589,,19.926228,0.1,323.78262,1592516455442
Fix,GT,37.5095322,-122.2509083,,19.800432,0.1,324.0289,1592516456442
Fix,GT,37.5096656,-122.2510573,,19.854624,0.1,323.92395,1592516457442
Fix,GT,37.5097992,-122.2512083,,19.990297,0.1,323.4842,1592516458442
Fix,GT,37.5099326,-122.2513604,,19.98107,0.1,323.42166,1592516459442
Fix,GT,37.5100658,-122.2515115,,19.858013,0.1,323.65195,1592516460442
Fix,GT,37.5101984,-122.2516612,,19.769272,0.1,323.71,1592516461442
Fix,GT,37.5103307,-122.2518107,,19.740612,0.1,323.5169,1592516462442
Fix,GT,37.5104623,-122.2519616,,19.86242,0.1,323.08228,1592516463442
Fix,GT,37.5105946,-122.252115,,20.144478,0.1,322.8764,1592516464442
Fix,GT,37.5107287,-122.2522706,,20.340582,0.1,322.95282,1592516465442
Fix,GT,37.5108633,-122.2524266,,20.297497,0.1,323.0166,1592516466442
Fix,GT,37.510998,-122.2525813,,20.210215,0.1,323.34717,1592516467442
Fix,GT,37.5111333,-122.2527344,,20.265148,0.1,323.88342,1592516468442
Fix,GT,37.5112708,-122.2528872,,20.529884,0.1,324.32025,1592516469442
Fix,GT,37.5114111,-122.2530412,,20.845387,0.1,324.47708,1592516470442
Fix,GT,37.5115529,-122.2531983,,21.12045,0.1,323.97845,1592516471442
Fix,GT,37.511695,-122.2533589,,21.28527,0.1,323.35596,1592516472442
Fix,GT,37.5118365,-122.2535216,,21.274673,0.1,323.09723,1592516473442
Fix,GT,37.5119774,-122.2536839,,21.18594,0.1,323.14725,1592516474442
Fix,GT,37.5121183,-122.2538452,,21.146961,0.1,323.3837,1592516475442
Fix,GT,37.5122597,-122.2540059,,21.210653,0.1,323.57672,1592516476442
Fix,GT,37.5124018,-122.2541672,,21.333168,0.1,323.50198,1592516477442
Fix,GT,37.5125444,-122.2543302,,21.48382,0.1,323.20303,1592516478442
Fix,GT,37.5126875,-122.2544952,,21.624107,0.1,323.0205,1592516479442
Fix,GT,37.512831,-122.2546615,,21.69463,0.1,322.86316,1592516480442
Fix,GT,37.5129744,-122.254828,,21.628853,0.1,322.92157,1592516481442
Fix,GT,37.5131174,-122.2549929,,21.479258,0.1,323.17654,1592516482442
Fix,GT,37.5132599,-122.2551563,,21.338745,0.1,323.34756,1592516483442
Fix,GT,37.5134019,-122.2553176,,21.162552,0.1,323.60413,1592516484442
Fix,GT,37.513543,-122.2554769,,20.951117,0.1,323.76505,1592516485442
Fix,GT,37.5136828,-122.2556342,,20.731462,0.1,323.82965,1592516486442
Fix,GT,37.5138213,-122.2557898,,20.54086,0.1,323.81717,1592516487442
Fix,GT,37.5139588,-122.2559445,,20.445122,0.1,323.68997,1592516488442
Fix,GT,37.5140953,-122.2560992,,20.400799,0.1,323.52612,1592516489442
Fix,GT,37.5142314,-122.2562541,,20.348186,0.1,323.3872,1592516490442
Fix,GT,37.514367,-122.2564091,,20.355629,0.1,323.34253,1592516491442
Fix,GT,37.5145031,-122.2565643,,20.47043,0.1,323.54016,1592516492442
Fix,GT,37.5146408,-122.2567195,,20.626606,0.1,323.90076,1592516493442
Fix,GT,37.5147802,-122.256875,,20.789457,0.1,324.08887,1592516494442
Fix,GT,37.5149207,-122.2570316,,20.888073,0.1,324.00568,1592516495442
Fix,GT,37.5150616,-122.2571892,,21.008352,0.1,323.85223,1592516496442
Fix,GT,37.5152032,-122.2573484,,21.207077,0.1,323.76123,1592516497442
Fix,GT,37.515346,-122.2575094,,21.386164,0.1,323.66565,1592516498442
Fix,GT,37.5154901,-122.2576724,,21.667652,0.1,323.58353,1592516499442
Fix,GT,37.5156364,-122.2578383,,22.098997,0.1,323.5434,1592516500442
Fix,GT,37.5157854,-122.2580074,,22.421595,0.1,323.50958,1592516501442
Fix,GT,37.5159355,-122.2581781,,22.476124,0.1,323.40802,1592516502442
Fix,GT,37.5160848,-122.2583488,,22.346054,0.1,323.24097,1592516503442
Fix,GT,37.5162328,-122.2585188,,22.182838,0.1,323.17926,1592516504442
Fix,GT,37.5163798,-122.2586873,,21.99032,0.1,323.36942,1592516505442
Fix,GT,37.5165263,-122.2588536,,21.908356,0.1,323.6836,1592516506442
Fix,GT,37.5166738,-122.2590193,,22.05078,0.1,323.98636,1592516507442
Fix,GT,37.5168231,-122.2591854,,22.23212,0.1,324.14343,1592516508442
Fix,GT,37.5169729,-122.2593525,,22.229069,0.1,323.85968,1592516509442
Fix,GT,37.5171211,-122.2595203,,22.043556,0.1,323.40268,1592516510442
Fix,GT,37.517267,-122.2596874,,21.79195,0.1,323.26822,1592516511442
Fix,GT,37.5174114,-122.2598525,,21.564577,0.1,323.43555,1592516512442
Fix,GT,37.5175549,-122.2600152,,21.364065,0.1,323.61673,1592516513442
Fix,GT,37.5176973,-122.2601759,,21.145138,0.1,323.69827,1592516514442
Fix,GT,37.5178385,-122.2603353,,21.026012,0.1,323.6319,1592516515442
Fix,GT,37.5179792,-122.2604948,,21.056162,0.1,323.53067,1592516516442
Fix,GT,37.51812,-122.2606548,,21.090893,0.1,323.52347,1592516517442
Fix,GT,37.5182612,-122.260815,,21.156666,0.1,323.5282,1592516518442
Fix,GT,37.5184031,-122.260976,,21.296434,0.1,323.57983,1592516519442
Fix,GT,37.5185464,-122.2611377,,21.493776,0.1,323.8013,1592516520442
Fix,GT,37.5186917,-122.2613004,,21.710331,0.1,323.9446,1592516521442
Fix,GT,37.5188382,-122.2614649,,21.927088,0.1,323.6827,1592516522442
Fix,GT,37.5189854,-122.2616322,,22.134253,0.1,323.3587,1592516523442
Fix,GT,37.5191337,-122.261801,,22.249836,0.1,323.52444,1592516524442
Fix,GT,37.5192827,-122.2619693,,22.206833,0.1,323.7112,1592516525442
Fix,GT,37.5194312,-122.2621369,,22.130486,0.1,323.62454,1592516526442
Fix,GT,37.5195792,-122.2623048,,22.135546,0.1,323.52454,1592516527442
Fix,GT,37.519727,-122.262473,,22.126335,0.1,323.39078,1592516528442
Fix,GT,37.5198744,-122.262641,,22.037739,0.1,323.40332,1592516529442
Fix,GT,37.5200216,-122.2628084,,22.043064,0.1,323.5521,1592516530442
Fix,GT,37.5201694,-122.2629754,,22.0806,0.1,323.74057,1592516531442
Fix,GT,37.5203172,-122.2631414,,21.938301,0.1,323.89145,1592516532442
Fix,GT,37.5204641,-122.263306,,21.76855,0.1,323.83917,1592516533442
Fix,GT,37.5206101,-122.2634702,,21.749813,0.1,323.80106,1592516534442
Fix,GT,37.5207568,-122.2636349,,21.926888,0.1,323.86386,1592516535442
Fix,GT,37.5209049,-122.2638009,,22.12101,0.1,323.80933,1592516536442
Fix,GT,37.5210538,-122.2639688,,22.296082,0.1,323.63187,1592516537442
Fix,GT,37.5212033,-122.2641388,,22.47103,0.1,323.3232,1592516538442
Fix,GT,37.5213533,-122.264311,,22.6674,0.1,323.2193,1592516539442
Fix,GT,37.5215051,-122.2644843,,22.880266,0.1,323.5141,1592516540442
Fix,GT,37.5216591,-122.2646582,,23.10067,0.1,323.7517,1592516541442
Fix,GT,37.5218148,-122.2648335,,23.33517,0.1,323.75644,1592516542442
Fix,GT,37.5219719,-122.265011,,23.567064,0.1,323.5381,1592516543442
Fix,GT,37.5221301,-122.2651907,,23.790327,0.1,323.5026,1592516544442
Fix,GT,37.5222901,-122.2653716,,24.00759,0.1,323.70956,1592516545442
Fix,GT,37.5224516,-122.2655541,,24.231003,0.1,323.58517,1592516546442
Fix,GT,37.5226142,-122.2657391,,24.467896,0.1,323.33008,1592516547442
Fix,GT,37.5227777,-122.2659266,,24.688587,0.1,323.2345,1592516548442
Fix,GT,37.5229424,-122.2661156,,24.790443,0.1,323.1663,1592516549442
Fix,GT,37.5231067,-122.2663051,,24.648094,0.1,323.03183,1592516550442
Fix,GT,37.5232693,-122.2664926,,24.341198,0.1,323.1138,1592516551442
Fix,GT,37.5234301,-122.2666768,,23.964134,0.1,323.38943,1592516552442
Fix,GT,37.5235886,-122.2668576,,23.553532,0.1,323.31873,1592516553442
Fix,GT,37.523744,-122.2670355,,23.164871,0.1,323.2891,1592516554442
Fix,GT,37.5238975,-122.2672103,,22.83221,0.1,323.4895,1592516555442
Fix,GT,37.5240492,-122.2673822,,22.550123,0.1,323.5921,1592516556442
Fix,GT,37.5241994,-122.2675516,,22.275833,0.1,323.84943,1592516557442
Fix,GT,37.5243487,-122.267718,,22.038837,0.1,324.1654,1592516558442
Fix,GT,37.5244968,-122.2678821,,21.793991,0.1,324.26224,1592516559442
Fix,GT,37.524643,-122.2680444,,21.532764,0.1,324.0397,1592516560442
Fix,GT,37.5247869,-122.2682058,,21.2856,0.1,323.7124,1592516561442
Fix,GT,37.5249287,-122.2683662,,21.077415,0.1,323.5979,1592516562442
