MessageType,Provider,LatitudeDegrees,LongitudeDegrees,AltitudeMeters,SpeedMps,AccuracyMeters,BearingDegrees,UnixTimeMillis
Fix,GT,37.6296293,-122.4224864,,0.003579792,0.1,242.50694,1596500445434
Fix,GT,37.6296293,-122.4224864,,0.004069612,0.1,242.50708,1596500446434
Fix,GT,37.6296293,-122.4224864,,0.004053494,0.1,242.50717,1596500447434
Fix,GT,37.6296293,-122.4224864,,0.004069612,0.1,242.50739,1596500448434
Fix,GT,37.6296293,-122.4224864,,0.0035654642,0.1,242.50735,1596500449434
Fix,GT,37.6296293,-122.4224864,,0.003,0.1,242.50714,1596500450434
Fix,GT,37.6296293,-122.4224864,,0.003434536,0.1,242.50696,1596500451434
Fix,GT,37.6296293,-122.4224864,,0.0044775633,0.1,242.50687,1596500452434
Fix,GT,37.6296293,-122.4224864,,0.0055264914,0.1,242.50687,1596500453434
Fix,GT,37.6296293,-122.4224864,,0.0056552906,0.1,242.5069,1596500454434
Fix,GT,37.6296293,-122.4224864,,0.00509902,0.1,242.507,1596500455434
Fix,GT,37.6296293,-122.4224864,,0.00486888,0.1,242.50674,1596500458434
Fix,GT,37.6296293,-122.4224864,,0.0062085865,0.1,242.50656,1596500459434
Fix,GT,37.6296293,-122.4224864,,0.006332348,0.1,242.50641,1596500460434
Fix,GT,37.6296294,-122.4224863,,0.005055992,0.1,242.50613,1596500461434
Fix,GT,37.6296294,-122.4224863,,0.0055755666,0.1,242.50624,1596500462434
Fix,GT,37.6296294,-122.4224863,,0.0068856357,0.1,242.50623,1596500463434
Fix,GT,37.6296294,-122.4224862,,0.00604459,0.1,242.50595,1596500464434
Fix,GT,37.6296294,-122.4224862,,0.005765197,0.1,242.50641,1596500465434
Fix,GT,37.6296292,-122.4224867,,0.138069,0.1,242.48694,1596500466434
Fix,GT,37.6296274,-122.4224898,,0.68117785,0.1,241.30385,1596500467434
Fix,GT,37.6296213,-122.4225013,,1.8465295,0.1,239.27106,1596500468434
Fix,GT,37.6296088,-122.4225262,,3.347387,0.1,238.34703,1596500469434
Fix,GT,37.6295891,-122.4225652,,4.8105717,0.1,237.72475,1596500470434
Fix,GT,37.629562,-122.4226179,,6.2724705,0.1,237.04236,1596500471434
Fix,GT,37.6295276,-122.4226831,,7.3673944,0.1,236.44882,1596500472434
Fix,GT,37.6294886,-122.4227558,,7.977573,0.1,235.84576,1596500473434
Fix,GT,37.6294479,-122.4228333,,8.370565,0.1,237.05502,1596500474434
Fix,GT,37.6294094,-122.4229166,,8.636787,0.1,241.16418,1596500475434
Fix,GT,37.6293749,-122.4230059,,8.875662,0.1,244.99097,1596500476434
Fix,GT,37.6293425,-122.423099,,9.0563345,0.1,246.65118,1596500477434
Fix,GT,37.6293096,-122.4231941,,9.243172,0.1,246.57402,1596500478434
Fix,GT,37.6292753,-122.423291,,9.501757,0.1,245.88004,1596500479434
Fix,GT,37.6292391,-122.4233892,,9.508722,0.1,244.99628,1596500480434
Fix,GT,37.6292032,-122.423485,,9.134549,0.1,244.75928,1596500481434
Fix,GT,37.6291688,-122.4235763,,8.7368765,0.1,244.99664,1596500482434
Fix,GT,37.6291357,-122.4236637,,8.328251,0.1,244.28403,1596500483434
Fix,GT,37.6291026,-122.423744,,7.608938,0.1,241.52002,1596500484434
Fix,GT,37.6290663,-122.4238109,,6.762556,0.1,232.51114,1596500485434
Fix,GT,37.6290223,-122.4238555,,6.043566,0.1,213.90878,1596500486434
Fix,GT,37.6289729,-122.4238702,,5.5410113,0.1,189.0316,1596500487434
Fix,GT,37.6289269,-122.4238545,,5.414801,0.1,161.54736,1596500488434
Fix,GT,37.6288925,-122.4238117,,5.6982718,0.1,132.04279,1596500489434
Fix,GT,37.6288781,-122.423748,,6.4099393,0.1,102.94879,1596500490434
Fix,GT,37.6288858,-122.4236713,,7.495041,0.1,80.09076,1596500491434
Fix,GT,37.6289115,-122.423586,,8.675241,0.1,67.42786,1596500492434
Fix,GT,37.6289485,-122.4234929,,9.620346,0.1,63.039948,1596500493434
Fix,GT,37.6289897,-122.4233929,,10.236698,0.1,62.913666,1596500494434
Fix,GT,37.629033,-122.4232871,,10.743748,0.1,63.089417,1596500495434
Fix,GT,37.6290778,-122.423177,,11.052593,0.1,63.0672,1596500496434
Fix,GT,37.6291234,-122.4230645,,11.239136,0.1,63.16565,1596500497434
Fix,GT,37.6291696,-122.4229496,,11.445911,0.1,63.49283,1596500498434
Fix,GT,37.629216,-122.4228326,,11.564943,0.1,63.902466,1596500499434
Fix,GT,37.6292614,-122.4227155,,11.365439,0.1,64.25888,1596500500434
Fix,GT,37.6293048,-122.4226031,,10.6260395,0.1,64.26407,1596500501434
Fix,GT,37.6293448,-122.4225009,,9.478298,0.1,63.870483,1596500502434
Fix,GT,37.6293808,-122.4224106,,8.483469,0.1,63.569794,1596500503434
Fix,GT,37.6294137,-122.4223278,,8.001741,0.1,63.61075,1596500504434
Fix,GT,37.6294454,-122.4222473,,7.865197,0.1,63.976746,1596500505434
Fix,GT,37.6294759,-122.4221686,,7.588934,0.1,64.564026,1596500506434
Fix,GT,37.6295043,-122.4220934,,7.0254583,0.1,65.04126,1596500507434
Fix,GT,37.6295278,-122.4220252,,5.9855113,0.1,68.193634,1596500508434
Fix,GT,37.6295377,-122.4219647,,5.0554695,0.1,82.245056,1596500509434
Fix,GT,37.6295256,-122.4219125,,4.979492,0.1,108.83063,1596500510434
Fix,GT,37.6294924,-122.4218701,,5.8258915,0.1,135.07971,1596500511434
Fix,GT,37.6294426,-122.421832,,7.122225,0.1,149.31653,1596500512434
Fix,GT,37.6293816,-122.4217929,,7.8625736,0.1,154.0133,1596500513434
Fix,GT,37.6293167,-122.4217574,,7.7446165,0.1,157.9137,1596500514434
Fix,GT,37.6292547,-122.4217281,,6.929599,0.1,159.71375,1596500515434
Fix,GT,37.6292016,-122.4217021,,5.6401234,0.1,158.43518,1596500516434
Fix,GT,37.6291604,-122.4216796,,4.2913036,0.1,155.96313,1596500517434
Fix,GT,37.6291307,-122.4216582,,3.4987135,0.1,150.00366,1596500518434
Fix,GT,37.6291066,-122.4216336,,3.5431457,0.1,141.86511,1596500519434
Fix,GT,37.6290835,-122.4215991,,4.4312353,0.1,130.69934,1596500520434
Fix,GT,37.6290674,-122.4215463,,5.683807,0.1,110.27954,1596500521434
Fix,GT,37.6290684,-122.4214749,,7.2274246,0.1,87.16571,1596500522434
Fix,GT,37.6290895,-122.421388,,8.993415,0.1,70.99112,1596500523434
Fix,GT,37.629126,-122.4212867,,10.647083,0.1,64.994385,1596500524434
Fix,GT,37.6291716,-122.4211701,,12.251591,0.1,63.864258,1596500525434
Fix,GT,37.629224,-122.421039,,13.5808525,0.1,63.341248,1596500526434
Fix,GT,37.6292814,-122.4208979,,14.262021,0.1,63.102356,1596500527434
Fix,GT,37.6293402,-122.4207538,,14.155233,0.1,63.10379,1596500528434
Fix,GT,37.6293965,-122.4206149,,13.233063,0.1,63.217896,1596500529434
Fix,GT,37.6294472,-122.4204891,,11.577031,0.1,63.333374,1596500530434
Fix,GT,37.6294904,-122.4203824,,9.527714,0.1,63.10565,1596500531434
Fix,GT,37.6295252,-122.4202981,,7.2876396,0.1,62.76715,1596500532434
Fix,GT,37.6295522,-122.4202322,,5.9205737,0.1,63.094147,1596500533434
Fix,GT,37.6295767,-122.420171,,6.3094554,0.1,63.506866,1596500534434
Fix,GT,37.6296047,-122.4200987,,8.058508,0.1,64.242035,1596500535434
Fix,GT,37.62964,-122.4200046,,10.227608,0.1,65.114685,1596500536434
Fix,GT,37.6296825,-122.4198907,,11.875255,0.1,64.95932,1596500537434
Fix,GT,37.6297324,-122.419763,,13.160866,0.1,63.513947,1596500538434
Fix,GT,37.6297903,-122.4196267,,14.106036,0.1,61.197845,1596500539434
Fix,GT,37.6298579,-122.4194859,,14.9319,0.1,57.713806,1596500540434
Fix,GT,37.6299369,-122.419345,,15.48085,0.1,53.199707,1596500541434
Fix,GT,37.6300264,-122.4192091,,15.661837,0.1,49.102203,1596500542434
Fix,GT,37.6301208,-122.4190786,,15.453438,0.1,47.626495,1596500543434
Fix,GT,37.6302126,-122.4189506,,14.981873,0.1,48.733826,1596500544434
Fix,GT,37.6302983,-122.4188237,,14.339449,0.1,50.41745,1596500545434
Fix,GT,37.630378,-122.4187028,,13.308654,0.1,50.38916,1596500546434
Fix,GT,37.6304512,-122.418593,,11.91362,0.1,50.242462,1596500547434
Fix,GT,37.630514,-122.4184957,,10.157675,0.1,52.065308,1596500548434
Fix,GT,37.6305622,-122.4184122,,8.034514,0.1,55.720245,1596500549434
Fix,GT,37.6305949,-122.4183458,,5.7467775,0.1,59.551758,1596500550434
Fix,GT,37.6306151,-122.4183005,,3.4149652,0.1,61.084625,1596500551434
Fix,GT,37.6306253,-122.4182771,,1.3952396,0.1,61.26596,1596500552434
Fix,GT,37.6306285,-122.4182699,,0.25691485,0.1,61.30429,1596500553434
Fix,GT,37.6306288,-122.4182693,,0.003317852,0.1,61.319916,1596500554434
Fix,GT,37.6306288,-122.4182693,,0.001,0.1,61.319885,1596500555434
Fix,GT,37.6306288,-122.4182693,,0.001,0.1,61.319824,1596500556434
Fix,GT,37.6306288,-122.4182693,,0.001,0.1,61.319824,1596500557434
Fix,GT,37.6306288,-122.4182693,,0.001,0.1,61.319794,1596500558434
Fix,GT,37.6306288,-122.4182693,,0.001,0.1,61.319885,1596500559434
Fix,GT,37.6306288,-122.4182693,,0.001,0.1,61.319824,1596500560434
Fix,GT,37.6306288,-122.4182693,,0.001,0.1,61.319794,1596500561434
Fix,GT,37.6306288,-122.4182693,,0.001,0.1,61.319824,1596500562434
Fix,GT,37.6306289,-122.4182694,,0.0015371147,0.1,61.319733,1596500563434
Fix,GT,37.6306289,-122.4182694,,0.0021334882,0.1,61.31955,1596500564434
Fix,GT,37.6306289,-122.4182694,,0.0015654651,0.1,61.319336,1596500565434
Fix,GT,37.6306289,-122.4182694,,0.0011799902,0.1,61.319336,1596500566434
Fix,GT,37.6306289,-122.4182694,,0.001771338,0.1,61.319458,1596500567434
Fix,GT,37.6306289,-122.4182694,,0.0024934686,0.1,61.31955,1596500568434
Fix,GT,37.6306289,-122.4182694,,0.0025710266,0.1,61.319366,1596500569434
Fix,GT,37.6306289,-122.4182694,,0.0016989536,0.1,61.319275,1596500570434
Fix,GT,37.6306289,-122.4182694,,0.001,0.1,61.319366,1596500571434
Fix,GT,37.6306289,-122.4182694,,0.001,0.1,61.319458,1596500572434
Fix,GT,37.6306289,-122.4182694,,0.001,0.1,61.31955,1596500573434
Fix,GT,37.6306289,-122.4182694,,0.0015371145,0.1,61.31967,1596500574434
Fix,GT,37.6306289,-122.4182694,,0.0024934686,0.1,61.319702,1596500575434
Fix,GT,37.6306289,-122.4182694,,0.0025710263,0.1,61.31967,1596500576434
Fix,GT,37.6306289,-122.4182694,,0.002568023,0.1,61.31967,1596500577434
Fix,GT,37.6306289,-122.4182694,,0.0025654654,0.1,61.319794,1596500578434
Fix,GT,37.6306289,-122.4182694,,0.0015654655,0.1,61.319916,1596500579434
Fix,GT,37.6306289,-122.4182694,,0.0011799901,0.1,61.319916,1596500580434
Fix,GT,37.6306289,-122.4182694,,0.0012342234,0.1,61.31958,1596500581434
Fix,GT,37.6306289,-122.4182694,,0.0018690693,0.1,61.319275,1596500582434
Fix,GT,37.6306289,-122.4182694,,0.002668045,0.1,61.319366,1596500583434
Fix,GT,37.6306289,-122.4182694,,0.0018789438,0.1,61.319336,1596500584434
Fix,GT,37.6306289,-122.4182694,,0.0012342235,0.1,61.319366,1596500585434
Fix,GT,37.6306289,-122.4182694,,0.001,0.1,61.319183,1596500586434
Fix,GT,37.6306289,-122.4182694,,0.0011799901,0.1,61.31906,1596500587434
Fix,GT,37.6306289,-122.4182694,,0.0014142136,0.1,61.31891,1596500588434
Fix,GT,37.6306289,-122.4182694,,0.0017713376,0.1,61.31888,1596500589434
Fix,GT,37.6306289,-122.4182694,,0.002236068,0.1,61.31906,1596500590434
Fix,GT,37.6306289,-122.4182694,,0.002236068,0.1,61.31906,1596500591434
Fix,GT,37.6306289,-122.4182694,,0.0021334884,0.1,61.31897,1596500592434
Fix,GT,37.6306289,-122.4182694,,0.0017454557,0.1,61.31909,1596500593434
Fix,GT,37.6306289,-122.4182694,,0.0012342236,0.1,61.31891,1596500594434
Fix,GT,37.6306289,-122.4182694,,0.001,0.1,61.318787,1596500595434
Fix,GT,37.6306289,-122.4182694,,0.0011799901,0.1,61.318573,1596500596434
Fix,GT,37.6306289,-122.4182694,,0.0014142136,0.1,61.318665,1596500597434
Fix,GT,37.6306289,-122.4182694,,0.0014142136,0.1,61.31906,1596500598434
Fix,GT,37.6306289,-122.4182694,,0.0017713376,0.1,61.318726,1596500599434
Fix,GT,37.6306289,-122.4182694,,0.0012644198,0.1,61.31833,1596500600434
Fix,GT,37.6306289,-122.4182694,,0.00043453433,0.1,61.317993,1596500601434
Fix,GT,37.6306289,-122.4182694,,0.0005654657,0.1,61.317627,1596500602434
Fix,GT,37.6306289,-122.4182694,,0.0,0.1,61.317627,1596500603434
Fix,GT,37.6306289,-122.4182694,,0.0,0.1,61.317932,1596500604434
Fix,GT,37.6306289,-122.4182694,,0.00043453425,0.1,61.31848,1596500605434
Fix,GT,37.6306289,-122.4182694,,0.001,0.1,61.318726,1596500606434
Fix,GT,37.6306289,-122.4182694,,0.0011799899,0.1,61.3183,1596500607434
Fix,GT,37.6306289,-122.4182694,,0.0012342236,0.1,61.318146,1596500608434
Fix,GT,37.6306289,-122.4182694,,0.0011799899,0.1,61.318115,1596500609434
Fix,GT,37.6306289,-122.4182694,,0.0012342237,0.1,61.31787,1596500610434
Fix,GT,37.6306289,-122.4182694,,0.001,0.1,61.317993,1596500611434
Fix,GT,37.6306289,-122.4182694,,0.00056546595,0.1,61.318024,1596500612434
Fix,GT,37.6306289,-122.4182694,,0.00043453407,0.1,61.317688,1596500613434
Fix,GT,37.6306289,-122.4182694,,0.0011799899,0.1,61.317566,1596500614434
Fix,GT,37.6306289,-122.4182694,,0.0014142136,0.1,61.31775,1596500615434
Fix,GT,37.6306289,-122.4182694,,0.00079968973,0.1,61.318176,1596500616434
Fix,GT,37.6306289,-122.4182694,,0.000434534,0.1,61.31787,1596500617434
Fix,GT,37.6306289,-122.4182694,,0.0014345341,0.1,61.31714,1596500618434
Fix,GT,37.6306289,-122.4182694,,0.001565466,0.1,61.31729,1596500619434
Fix,GT,37.6306289,-122.4182694,,0.001,0.1,61.31787,1596500620434
Fix,GT,37.6306289,-122.4182694,,0.0011799899,0.1,61.318146,1596500621434
Fix,GT,37.6306289,-122.4182694,,0.0016687578,0.1,61.318085,1596500622434
Fix,GT,37.6306289,-122.4182694,,0.001745456,0.1,61.31775,1596500623434
Fix,GT,37.6306289,-122.4182694,,0.0012342238,0.1,61.317627,1596500624434
Fix,GT,37.6306289,-122.4182694,,0.0005654662,0.1,61.317657,1596500625434
Fix,GT,37.6306289,-122.4182694,,0.00061452354,0.1,61.317627,1596500626434
Fix,GT,37.6306289,-122.4182694,,0.0014142136,0.1,61.317505,1596500627434
Fix,GT,37.6306289,-122.4182694,,0.0007996901,0.1,61.317383,1596500628434
Fix,GT,37.6306289,-122.4182694,,0.0006145234,0.1,61.31732,1596500629434
Fix,GT,37.6306289,-122.4182694,,0.001771337,0.1,61.31714,1596500630434
Fix,GT,37.6306289,-122.4182694,,0.002236068,0.1,61.31659,1596500631434
Fix,GT,37.6306289,-122.4182694,,0.0021334887,0.1,61.31659,1596500632434
Fix,GT,37.6306289,-122.4182694,,0.002,0.1,61.316803,1596500633434
Fix,GT,37.6306289,-122.4182694,,0.0021025795,0.1,61.316803,1596500634434
Fix,GT,37.6306289,-122.4182694,,0.001698955,0.1,61.316895,1596500635434
Fix,GT,37.6306289,-122.4182694,,0.0005654665,0.1,61.316925,1596500636434
Fix,GT,37.630629,-122.4182695,,0.0,0.1,61.316956,1596500637434
Fix,GT,37.630629,-122.4182695,,0.00043453352,0.1,61.31717,1596500638434
Fix,GT,37.630629,-122.4182695,,0.001,0.1,61.317413,1596500639434
Fix,GT,37.630629,-122.4182695,,0.0009999999,0.1,61.317535,1596500640434
Fix,GT,37.630629,-122.4182695,,0.001,0.1,61.31787,1596500641434
Fix,GT,37.630629,-122.4182695,,0.001,0.1,61.317535,1596500642434
Fix,GT,37.630629,-122.4182695,,0.0011799897,0.1,61.316803,1596500643434
Fix,GT,37.630629,-122.4182695,,0.0014142136,0.1,61.31656,1596500644434
Fix,GT,37.630629,-122.4182695,,0.001234224,0.1,61.316254,1596500645434
Fix,GT,37.630629,-122.4182695,,0.0011799897,0.1,61.3161,1596500646434
Fix,GT,37.630629,-122.4182695,,0.0017713367,0.1,61.315887,1596500647434
Fix,GT,37.630629,-122.4182695,,0.002236068,0.1,61.3161,1596500648434
Fix,GT,37.630629,-122.4182695,,0.002638537,0.1,61.31613,1596500649434
Fix,GT,37.630629,-122.4182694,,0.067684084,0.1,61.31949,1596500650434
Fix,GT,37.6306307,-122.4182653,,1.0003594,0.1,61.36087,1596500651434
Fix,GT,37.630639,-122.4182456,,3.1376214,0.1,61.894928,1596500652434
Fix,GT,37.6306568,-122.4182024,,5.4231997,0.1,62.77887,1596500653434
Fix,GT,37.6306826,-122.4181386,,7.149296,0.1,63.24893,1596500654434
Fix,GT,37.6307148,-122.4180615,,8.1564455,0.1,61.80011,1596500655434
Fix,GT,37.6307573,-122.4179831,,8.577,0.1,52.843933,1596500656434
Fix,GT,37.6308144,-122.4179207,,8.443091,0.1,35.586914,1596500657434
Fix,GT,37.6308836,-122.4178864,,8.476702,0.1,16.493988,1596500658434
Fix,GT,37.6309616,-122.4178806,,9.194875,0.1,359.70566,1596500659434
Fix,GT,37.6310476,-122.4178983,,10.19327,0.1,348.20267,1596500660434
Fix,GT,37.631138,-122.4179329,,10.780733,0.1,341.55496,1596500661434
Fix,GT,37.6312296,-122.4179779,,10.991307,0.1,338.0563,1596500662434
Fix,GT,37.63132,-122.4180268,,10.765329,0.1,336.55026,1596500663434
Fix,GT,37.6314057,-122.4180751,,10.017694,0.1,335.9727,1596500664434
Fix,GT,37.6314827,-122.418119,,8.678187,0.1,335.86087,1596500665434
Fix,GT,37.6315477,-122.418156,,7.083686,0.1,335.8045,1596500666434
Fix,GT,37.6315979,-122.4181845,,5.056239,0.1,335.9111,1596500667434
Fix,GT,37.6316306,-122.4182031,,3.010566,0.1,336.07526,1596500668434
Fix,GT,37.6316493,-122.4182134,,1.7835817,0.1,336.11658,1596500669434
Fix,GT,37.6316617,-122.4182204,,1.2386962,0.1,336.1278,1596500670434
Fix,GT,37.6316697,-122.4182249,,0.6080589,0.1,336.13394,1596500671434
Fix,GT,37.6316721,-122.4182263,,0.035670318,0.1,336.13995,1596500672434
Fix,GT,37.6316722,-122.4182263,,0.003911735,0.1,336.14435,1596500673434
Fix,GT,37.6316722,-122.4182263,,0.0020287356,0.1,336.1438,1596500674434
Fix,GT,37.6316722,-122.4182263,,0.0020339158,0.1,336.14285,1596500675434
Fix,GT,37.6316722,-122.4182263,,0.0014345327,0.1,336.14243,1596500676434
Fix,GT,37.6316722,-122.4182263,,0.0015654676,0.1,336.14236,1596500677434
Fix,GT,37.6316722,-122.4182263,,0.0005654675,0.1,336.14252,1596500678434
Fix,GT,37.6316722,-122.4182263,,0.0,0.1,336.14243,1596500679434
Fix,GT,37.6316722,-122.4182263,,0.00043453244,0.1,336.14233,1596500680434
Fix,GT,37.6316722,-122.4182263,,0.001,0.1,336.14206,1596500681434
Fix,GT,37.6316722,-122.4182263,,0.0011799892,0.1,336.14185,1596500682434
Fix,GT,37.6316722,-122.4182263,,0.00079969194,0.1,336.14227,1596500683434
Fix,GT,37.6316722,-122.4182263,,0.0,0.1,336.14264,1596500684434
Fix,GT,37.6316722,-122.4182263,,0.00061452144,0.1,336.14258,1596500685434
Fix,GT,37.6316722,-122.4182263,,0.0016687566,0.1,336.14224,1596500686434
Fix,GT,37.6316722,-122.4182263,,0.0015654678,0.1,336.14233,1596500687434
Fix,GT,37.6316722,-122.4182263,,0.001,0.1,336.14246,1596500688434
Fix,GT,37.6316722,-122.4182263,,0.001,0.1,336.14233,1596500689434
Fix,GT,37.6316722,-122.4182263,,0.0011799892,0.1,336.14218,1596500690434
Fix,GT,37.6316722,-122.4182263,,0.0014142136,0.1,336.14206,1596500691434
Fix,GT,37.6316722,-122.4182263,,0.0014142136,0.1,336.14194,1596500692434
Fix,GT,37.6316722,-122.4182264,,0.0012342245,0.1,336.1419,1596500693434
Fix,GT,37.6316725,-122.4182265,,0.15092672,0.1,336.14624,1596500694434
Fix,GT,37.631676,-122.4182286,,0.80969244,0.1,336.04828,1596500695434
Fix,GT,37.6316879,-122.4182356,,2.1618996,0.1,335.6364,1596500696434
Fix,GT,37.6317129,-122.4182504,,3.9795196,0.1,335.16574,1596500697434
Fix,GT,37.6317543,-122.4182749,,6.2074685,0.1,335.05246,1596500698434
Fix,GT,37.6318152,-122.4183105,,8.691599,0.1,335.421,1596500699434
Fix,GT,37.6318951,-122.4183559,,10.690877,0.1,336.07132,1596500700434
Fix,GT,37.6319897,-122.4184084,,12.104174,0.1,336.4889,1596500701434
Fix,GT,37.6320934,-122.418465,,12.797276,0.1,337.0211,1596500702434
Fix,GT,37.6322,-122.4185195,,12.674503,0.1,339.0755,1596500703434
Fix,GT,37.6323069,-122.4185644,,12.360018,0.1,343.4284,1596500704434
Fix,GT,37.6324134,-122.4185962,,11.97328,0.1,349.40793,1596500705434
Fix,GT,37.6325181,-122.4186088,,11.432877,0.1,358.7657,1596500706434
Fix,GT,37.6326165,-122.4185929,,10.8067465,0.1,13.16449,1596500707434
Fix,GT,37.632702,-122.4185448,,10.418531,0.1,30.188751,1596500708434
Fix,GT,37.632773,-122.418468,,10.795624,0.1,45.127045,1596500709434
Fix,GT,37.6328365,-122.4183669,,12.18882,0.1,53.72345,1596500710434
Fix,GT,37.632903,-122.418244,,14.049652,0.1,56.3609,1596500711434
Fix,GT,37.6329771,-122.4181036,,15.668007,0.1,56.66687,1596500712434
Fix,GT,37.6330583,-122.4179492,,17.027344,0.1,56.701324,1596500713434
Fix,GT,37.6331462,-122.4177832,,18.20564,0.1,56.364075,1596500714434
Fix,GT,37.6332409,-122.4176072,,19.32076,0.1,56.039093,1596500715434
Fix,GT,37.6333414,-122.41742,,20.563412,0.1,56.428345,1596500716434
Fix,GT,37.6334449,-122.4172185,,21.773726,0.1,58.373016,1596500717434
Fix,GT,37.6335461,-122.4169991,,22.975727,0.1,61.582855,1596500718434
Fix,GT,37.6336424,-122.4167608,,24.22256,0.1,64.61673,1596500719434
Fix,GT,37.6337341,-122.4165045,,25.382504,0.1,67.2276,1596500720434
Fix,GT,37.6338195,-122.4162323,,26.259949,0.1,70.046326,1596500721434
Fix,GT,37.633897,-122.4159473,,26.868412,0.1,72.74118,1596500722434
Fix,GT,37.6339642,-122.4156525,,27.307377,0.1,75.627686,1596500723434
Fix,GT,37.6340206,-122.415349,,27.750067,0.1,78.64679,1596500724434
Fix,GT,37.6340641,-122.4150367,,28.27312,0.1,81.99606,1596500725434
Fix,GT,37.6340932,-122.4147157,,28.786652,0.1,85.355286,1596500726434
Fix,GT,37.6341087,-122.4143881,,29.121944,0.1,88.19183,1596500727434
Fix,GT,37.634112,-122.4140573,,29.210323,0.1,90.84982,1596500728434
Fix,GT,37.6341038,-122.4137277,,28.916622,0.1,93.25812,1596500729434
Fix,GT,37.634086,-122.4134051,,28.02002,0.1,95.30951,1596500730434
Fix,GT,37.6340602,-122.4130978,,26.57866,0.1,97.25943,1596500731434
Fix,GT,37.6340296,-122.4128062,,25.423168,0.1,98.105774,1596500732434
Fix,GT,37.6339974,-122.4125244,,24.841143,0.1,98.62836,1596500733434
Fix,GT,37.6339636,-122.4122482,,24.597584,0.1,99.204315,1596500734434
Fix,GT,37.6339277,-122.4119727,,24.69679,0.1,99.77228,1596500735434
Fix,GT,37.6338894,-122.4116957,,24.920404,0.1,100.29303,1596500736434
Fix,GT,37.6338492,-122.4114168,,25.095211,0.1,100.566284,1596500737434
Fix,GT,37.6338084,-122.4111364,,25.189058,0.1,100.53046,1596500738434
Fix,GT,37.6337677,-122.4108559,,25.07888,0.1,100.52991,1596500739434
Fix,GT,37.6337278,-122.4105773,,24.854986,0.1,100.239624,1596500740434
Fix,GT,37.6336901,-122.4103008,,24.681229,0.1,99.59338,1596500741434
Fix,GT,37.633655,-122.4100247,,24.685455,0.1,98.88272,1596500742434
Fix,GT,37.6336232,-122.4097467,,24.969555,0.1,97.585754,1596500743434
Fix,GT,37.6335977,-122.409463,,25.495605,0.1,95.35397,1596500744434
Fix,GT,37.6335824,-122.4091715,,26.106022,0.1,92.381165,1596500745434
Fix,GT,37.6335795,-122.4088726,,26.719019,0.1,89.36429,1596500746434
Fix,GT,37.6335885,-122.4085672,,27.213575,0.1,86.60239,1596500747434
Fix,GT,37.6336088,-122.4082585,,27.446825,0.1,84.138306,1596500748434
Fix,GT,37.6336383,-122.4079502,,27.375458,0.1,82.39697,1596500749434
Fix,GT,37.6336734,-122.407644,,27.249432,0.1,81.42935,1596500750434
Fix,GT,37.6337111,-122.4073394,,27.155373,0.1,81.11636,1596500751434
Fix,GT,37.6337491,-122.4070359,,27.056055,0.1,81.34189,1596500752434
Fix,GT,37.6337838,-122.4067334,,26.894033,0.1,82.74118,1596500753434
Fix,GT,37.6338102,-122.406431,,26.911552,0.1,85.42444,1596500754434
Fix,GT,37.6338227,-122.4061255,,27.200745,0.1,89.41748,1596500755434
Fix,GT,37.6338141,-122.4058166,,27.437159,0.1,95.17868,1596500756434
Fix,GT,37.6337795,-122.4055088,,27.54329,0.1,101.572754,1596500757434
Fix,GT,37.6337177,-122.4052077,,27.433826,0.1,107.996796,1596500758434
Fix,GT,37.6336304,-122.4049192,,27.1123,0.1,114.27295,1596500759434
Fix,GT,37.6335208,-122.404648,,26.631931,0.1,120.28711,1596500760434
Fix,GT,37.6333916,-122.4043977,,26.150753,0.1,126.461975,1596500761434
Fix,GT,37.6332439,-122.4041703,,25.774673,0.1,132.60678,1596500762434
Fix,GT,37.63308,-122.4039662,,25.541632,0.1,138.32874,1596500763434
Fix,GT,37.6329017,-122.4037843,,25.566402,0.1,143.97571,1596500764434
Fix,GT,37.6327098,-122.4036246,,25.597116,0.1,149.51575,1596500765434
Fix,GT,37.6325072,-122.4034887,,25.45678,0.1,154.93176,1596500766434
Fix,GT,37.6322959,-122.4033787,,25.445166,0.1,160.65314,1596500767434
Fix,GT,37.6320755,-122.403296,,25.781384,0.1,166.59705,1596500768434
Fix,GT,37.6318455,-122.4032398,,26.232084,0.1,171.5755,1596500769434
Fix,GT,37.63161,-122.4032013,,26.450132,0.1,173.74072,1596500770434
Fix,GT,37.6313726,-122.4031676,,26.633835,0.1,173.81262,1596500771434
Fix,GT,37.6311327,-122.4031332,,27.052397,0.1,173.70355,1596500772434
Fix,GT,37.6308881,-122.4030978,,27.560875,0.1,173.65564,1596500773434
Fix,GT,37.6306397,-122.4030617,,27.914007,0.1,173.6336,1596500774434
Fix,GT,37.6303882,-122.4030259,,28.302685,0.1,173.83624,1596500775434
Fix,GT,37.6301323,-122.4029903,,28.833473,0.1,174.02014,1596500776434
Fix,GT,37.6298725,-122.4029552,,29.122866,0.1,174.23053,1596500777434
Fix,GT,37.6296114,-122.4029214,,29.155994,0.1,174.36346,1596500778434
Fix,GT,37.6293495,-122.4028876,,29.288727,0.1,174.34644,1596500779434
Fix,GT,37.6290864,-122.4028531,,29.395817,0.1,174.1612,1596500780434
Fix,GT,37.6288231,-122.4028172,,29.334585,0.1,173.8681,1596500781434
Fix,GT,37.6285611,-122.4027791,,29.231422,0.1,173.29822,1596500782434
Fix,GT,37.6283002,-122.4027365,,29.215649,0.1,172.14374,1596500783434
Fix,GT,37.6280393,-122.4026857,,29.394264,0.1,170.58783,1596500784434
Fix,GT,37.6277774,-122.4026264,,29.66565,0.1,169.33765,1596500785434
Fix,GT,37.6275141,-122.4025604,,29.934708,0.1,168.42328,1596500786434
Fix,GT,37.6272486,-122.4024884,,30.345383,0.1,167.42401,1596500787434
Fix,GT,37.6269811,-122.4024089,,30.62047,0.1,166.18115,1596500788434
Fix,GT,37.626714,-122.4023209,,30.68394,0.1,164.63348,1596500789434
Fix,GT,37.6264489,-122.4022228,,30.608624,0.1,162.74072,1596500790434
Fix,GT,37.6261876,-122.4021146,,30.500717,0.1,161.23535,1596500791434
Fix,GT,37.6259278,-122.4020005,,30.63328,0.1,160.64392,1596500792434
Fix,GT,37.625667,-122.4018848,,30.698597,0.1,160.90894,1596500793434
Fix,GT,37.6254065,-122.4017725,,30.373238,0.1,162.07196,1596500794434
Fix,GT,37.6251469,-122.4016688,,30.09445,0.1,163.33752,1596500795434
Fix,GT,37.6248874,-122.4015718,,30.05856,0.1,163.82397,1596500796434
Fix,GT,37.6246277,-122.4014736,,30.091068,0.1,162.94592,1596500797434
Fix,GT,37.6243696,-122.4013714,,29.939547,0.1,162.4848,1596500798434
Fix,GT,37.6241133,-122.4012684,,29.792646,0.1,162.53058,1596500799434
Fix,GT,37.6238575,-122.4011665,,29.804289,0.1,162.81183,1596500800434
Fix,GT,37.623601,-122.4010658,,29.860285,0.1,162.68823,1596500801434
Fix,GT,37.6233443,-122.4009617,,29.992315,0.1,161.83337,1596500802434
Fix,GT,37.6230871,-122.4008544,,30.192486,0.1,162.16876,1596500803434
Fix,GT,37.6228265,-122.4007515,,30.492262,0.1,163.5011,1596500804434
Fix,GT,37.6225621,-122.4006532,,30.77584,0.1,163.62872,1596500805434
Fix,GT,37.6222956,-122.4005514,,31.051361,0.1,162.84076,1596500806434
Fix,GT,37.6220271,-122.4004466,,31.362782,0.1,163.22888,1596500807434
Fix,GT,37.6217549,-122.4003439,,31.786043,0.1,163.60468,1596500808434
Fix,GT,37.6214788,-122.4002379,,32.37625,0.1,162.95789,1596500809434
Fix,GT,37.6211961,-122.4001283,,33.312855,0.1,163.35632,1596500810434
Fix,GT,37.6209025,-122.4000202,,34.635334,0.1,164.13489,1596500811434
Fix,GT,37.6205965,-122.3999116,,35.91467,0.1,164.66486,1596500812434
Fix,GT,37.620279,-122.3998033,,37.08631,0.1,165.36658,1596500813434
Fix,GT,37.6199516,-122.3996943,,38.00766,0.1,165.33289,1596500814434
Fix,GT,37.619619,-122.399582,,38.315727,0.1,165.19653,1596500815434
Fix,GT,37.6192868,-122.3994687,,38.113228,0.1,165.1098,1596500816434
Fix,GT,37.6189556,-122.3993556,,38.130394,0.1,165.04974,1596500817434
Fix,GT,37.6186234,-122.3992433,,38.147964,0.1,165.28442,1596500818434
Fix,GT,37.6182921,-122.399133,,37.891582,0.1,165.43628,1596500819434
Fix,GT,37.6179635,-122.3990238,,37.558975,0.1,165.43542,1596500820434
Fix,GT,37.6176376,-122.3989158,,37.25972,0.1,165.54681,1596500821434
Fix,GT,37.6173146,-122.3988095,,36.85367,0.1,165.51904,1596500822434
Fix,GT,37.6169956,-122.398703,,36.403458,0.1,165.14551,1596500823434
Fix,GT,37.6166812,-122.3985946,,35.981323,0.1,164.29492,1596500824434
Fix,GT,37.6163722,-122.3984794,,35.567635,0.1,162.58472,1596500825434
Fix,GT,37.6160705,-122.398352,,35.119545,0.1,160.29138,1596500826434
Fix,GT,37.6157765,-122.3982116,,34.69503,0.1,158.16626,1596500827434
Fix,GT,37.6154903,-122.398061,,34.181355,0.1,156.48474,1596500828434
Fix,GT,37.6152126,-122.3979019,,33.572353,0.1,154.54169,1596500829434
Fix,GT,37.6149442,-122.3977336,,33.065712,0.1,152.62256,1596500830434
Fix,GT,37.6146832,-122.3975577,,32.71218,0.1,151.2945,1596500831434
Fix,GT,37.6144272,-122.3973766,,32.532066,0.1,150.13593,1596500832434
Fix,GT,37.6141751,-122.397189,,32.53691,0.1,148.74286,1596500833434
Fix,GT,37.6139261,-122.3969921,,32.783043,0.1,146.9779,1596500834434
Fix,GT,37.6136796,-122.3967839,,33.140522,0.1,145.29114,1596500835434
Fix,GT,37.6134358,-122.3965651,,33.352173,0.1,143.72385,1596500836434
Fix,GT,37.6131958,-122.3963366,,33.4657,0.1,142.04001,1596500837434
Fix,GT,37.6129609,-122.3960991,,33.466423,0.1,140.55197,1596500838434
Fix,GT,37.6127308,-122.3958536,,33.572132,0.1,138.9884,1596500839434
Fix,GT,37.6125046,-122.395599,,33.850883,0.1,137.4978,1596500840434
Fix,GT,37.612282,-122.395335,,34.091526,0.1,135.96484,1596500841434
Fix,GT,37.612064,-122.3950623,,34.13619,0.1,134.42493,1596500842434
Fix,GT,37.6118523,-122.3947826,,34.025566,0.1,132.88525,1596500843434
Fix,GT,37.6116475,-122.3944965,,33.98583,0.1,131.19925,1596500844434
Fix,GT,37.611449,-122.3942026,,34.11144,0.1,129.71362,1596500845434
Fix,GT,37.6112544,-122.3939025,,34.250687,0.1,129.02423,1596500846434
Fix,GT,37.6110606,-122.3935998,,34.373497,0.1,128.99307,1596500847434
Fix,GT,37.6108662,-122.3932968,,34.33546,0.1,128.99664,1596500848434
Fix,GT,37.6106738,-122.3929957,,33.825665,0.1,128.88135,1596500849434
Fix,GT,37.6104854,-122.3926991,,33.18586,0.1,128.7414,1596500850434
Fix,GT,37.6103005,-122.3924069,,32.766457,0.1,128.66266,1596500851434
Fix,GT,37.6101173,-122.3921178,,32.53433,0.1,128.83075,1596500852434
Fix,GT,37.6099339,-122.3918297,,32.692207,0.1,128.86823,1596500853434
Fix,GT,37.6097487,-122.3915388,,33.10788,0.1,128.84131,1596500854434
Fix,GT,37.6095611,-122.3912447,,33.445145,0.1,128.98901,1596500855434
Fix,GT,37.6093711,-122.3909488,,33.706604,0.1,129.26862,1596500856434
Fix,GT,37.6091782,-122.3906516,,34.06178,0.1,129.5636,1596500857434
Fix,GT,37.6089823,-122.3903515,,34.443363,0.1,129.62115,1596500858434
Fix,GT,37.6087843,-122.3900485,,34.760612,0.1,129.62439,1596500859434
Fix,GT,37.6085846,-122.3897433,,35.021854,0.1,129.63727,1596500860434
Fix,GT,37.6083841,-122.3894365,,35.036343,0.1,129.62866,1596500861434
Fix,GT,37.6081841,-122.3891306,,34.87124,0.1,129.66568,1596500862434
Fix,GT,37.6079852,-122.3888264,,34.659588,0.1,129.62091,1596500863434
Fix,GT,37.6077877,-122.3885241,,34.411057,0.1,129.5802,1596500864434
Fix,GT,37.6075917,-122.3882235,,34.22902,0.1,129.48877,1596500865434
Fix,GT,37.6073971,-122.387924,,34.075687,0.1,129.51025,1596500866434
Fix,GT,37.6072028,-122.3876259,,33.982822,0.1,129.60065,1596500867434
Fix,GT,37.6070084,-122.3873285,,34.008232,0.1,129.637,1596500868434
Fix,GT,37.6068133,-122.3870306,,34.136864,0.1,129.7095,1596500869434
Fix,GT,37.6066171,-122.3867315,,34.35103,0.1,129.71149,1596500870434
Fix,GT,37.6064195,-122.38643,,34.634354,0.1,129.63345,1596500871434
Fix,GT,37.6062208,-122.3861254,,34.897537,0.1,129.48288,1596500872434
Fix,GT,37.6060213,-122.3858187,,35.031265,0.1,129.52924,1596500873434
Fix,GT,37.6058208,-122.3855122,,35.007027,0.1,129.74304,1596500874434
Fix,GT,37.6056204,-122.3852064,,34.956326,0.1,129.64374,1596500875434
Fix,GT,37.605421,-122.3849011,,34.76889,0.1,129.5401,1596500876434
Fix,GT,37.6052231,-122.3845978,,34.542664,0.1,129.65039,1596500877434
Fix,GT,37.6050254,-122.3842958,,34.57352,0.1,129.58453,1596500878434
Fix,GT,37.604828,-122.3839919,,34.695126,0.1,129.3382,1596500879434
Fix,GT,37.6046306,-122.3836863,,34.830402,0.1,129.24124,1596500880434
Fix,GT,37.6044327,-122.3833791,,34.929977,0.1,129.04767,1596500881434
Fix,GT,37.6042357,-122.3830712,,34.795883,0.1,128.95349,1596500882434
Fix,GT,37.6040398,-122.3827646,,34.70681,0.1,128.93668,1596500883434
Fix,GT,37.6038435,-122.3824573,,34.90085,0.1,128.92859,1596500884434
Fix,GT,37.6036451,-122.38215,,34.894066,0.1,129.56805,1596500885434
Fix,GT,37.6034448,-122.3818469,,34.66918,0.1,130.11139,1596500886434
Fix,GT,37.603245,-122.3815459,,34.61088,0.1,129.80017,1596500887434
Fix,GT,37.6030466,-122.3812437,,34.56364,0.1,129.57135,1596500888434
Fix,GT,37.6028489,-122.3809424,,34.431526,0.1,129.70251,1596500889434
Fix,GT,37.6026506,-122.3806418,,34.607235,0.1,129.8404,1596500890434
Fix,GT,37.6024509,-122.3803382,,34.98655,0.1,129.57898,1596500891434
Fix,GT,37.6022502,-122.3800304,,35.228485,0.1,129.40201,1596500892434
Fix,GT,37.6020492,-122.3797221,,35.12895,0.1,129.48486,1596500893434
Fix,GT,37.6018494,-122.3794162,,34.757355,0.1,129.5697,1596500894434
Fix,GT,37.601652,-122.3791138,,34.313957,0.1,129.44287,1596500895434
Fix,GT,37.6014575,-122.3788149,,33.886284,0.1,129.45746,1596500896434
Fix,GT,37.6012649,-122.3785193,,33.652424,0.1,129.48334,1596500897434
Fix,GT,37.6010725,-122.3782244,,33.779175,0.1,129.46179,1596500898434
Fix,GT,37.6008786,-122.377927,,34.16088,0.1,129.61438,1596500899434
Fix,GT,37.6006814,-122.3776258,,34.7362,0.1,129.66577,1596500900434
Fix,GT,37.6004808,-122.3773199,,35.21468,0.1,129.59116,1596500901434
Fix,GT,37.6002788,-122.3770118,,35.186485,0.1,129.81848,1596500902434
Fix,GT,37.6000753,-122.3767071,,35.118484,0.1,130.60547,1596500903434
Fix,GT,37.5998676,-122.3764052,,35.440105,0.1,131.31335,1596500904434
Fix,GT,37.5996566,-122.3761012,,35.79109,0.1,131.02026,1596500905434
Fix,GT,37.5994469,-122.375792,,35.92343,0.1,130.16321,1596500906434
Fix,GT,37.5992408,-122.3754796,,35.68875,0.1,129.58737,1596500907434
Fix,GT,37.5990387,-122.3751684,,35.24878,0.1,129.2489,1596500908434
Fix,GT,37.59884,-122.37486,,34.861805,0.1,129.19781,1596500909434
Fix,GT,37.5986428,-122.3745545,,34.664856,0.1,129.17249,1596500910434
Fix,GT,37.5984466,-122.3742482,,34.82913,0.1,128.85269,1596500911434
Fix,GT,37.5982498,-122.3739386,,35.10391,0.1,128.8451,1596500912434
Fix,GT,37.5980516,-122.3736289,,35.04208,0.1,129.14459,1596500913434
Fix,GT,37.5978543,-122.3733215,,34.67856,0.1,129.11478,1596500914434
Fix,GT,37.5976592,-122.3730175,,34.318535,0.1,129.16946,1596500915434
Fix,GT,37.5974656,-122.3727169,,34.011295,0.1,129.38928,1596500916434
Fix,GT,37.5972725,-122.3724204,,33.615494,0.1,129.61597,1596500917434
Fix,GT,37.5970815,-122.3721286,,33.134888,0.1,129.72089,1596500918434
Fix,GT,37.596893,-122.3718413,,32.6644,0.1,129.71033,1596500919434
Fix,GT,37.5967073,-122.3715574,,32.24942,0.1,129.4046,1596500920434
Fix,GT,37.596526,-122.3712746,,31.91074,0.1,128.66809,1596500921434
Fix,GT,37.5963495,-122.3709916,,31.582407,0.1,127.99628,1596500922434
Fix,GT,37.5961762,-122.3707104,,31.275375,0.1,128.04477,1596500923434
Fix,GT,37.596003,-122.3704325,,31.10864,0.1,128.5982,1596500924434
Fix,GT,37.5958278,-122.3701579,,31.045658,0.1,129.25403,1596500925434
Fix,GT,37.5956512,-122.3698863,,30.878407,0.1,129.66492,1596500926434
Fix,GT,37.5954747,-122.369617,,30.791187,0.1,129.60297,1596500927434
Fix,GT,37.5952987,-122.3693465,,30.9775,0.1,129.3211,1596500928434
Fix,GT,37.5951219,-122.3690729,,31.293415,0.1,129.307,1596500929434
Fix,GT,37.5949429,-122.3687966,,31.61954,0.1,129.39752,1596500930434
Fix,GT,37.594762,-122.3685183,,31.82975,0.1,129.5149,1596500931434
Fix,GT,37.5945797,-122.3682397,,31.846416,0.1,129.7826,1596500932434
Fix,GT,37.5943968,-122.3679622,,31.83479,0.1,129.8963,1596500933434
Fix,GT,37.5942132,-122.3676832,,32.143784,0.1,129.7042,1596500934434
Fix,GT,37.5940286,-122.3674014,,32.26971,0.1,129.70303,1596500935434
Fix,GT,37.5938444,-122.3671202,,32.03133,0.1,129.63483,1596500936434
Fix,GT,37.5936623,-122.366841,,31.718746,0.1,129.46536,1596500937434
Fix,GT,37.5934826,-122.3665643,,31.359732,0.1,129.46417,1596500938434
Fix,GT,37.5933046,-122.3662914,,30.969292,0.1,129.60748,1596500939434
Fix,GT,37.5931282,-122.3660217,,30.748234,0.1,129.56384,1596500940434
Fix,GT,37.5929526,-122.3657523,,30.786406,0.1,129.45917,1596500941434
Fix,GT,37.5927769,-122.3654813,,30.991922,0.1,129.41748,1596500942434
Fix,GT,37.5925989,-122.3652082,,31.41647,0.1,129.66705,1596500943434
Fix,GT,37.5924167,-122.3649317,,32.01665,0.1,129.97092,1596500944434
Fix,GT,37.5922307,-122.3646499,,32.654034,0.1,129.78107,1596500945434
Fix,GT,37.5920417,-122.364362,,33.237244,0.1,129.65958,1596500946434
Fix,GT,37.5918504,-122.3640696,,33.53937,0.1,129.61877,1596500947434
Fix,GT,37.5916583,-122.3637756,,33.64447,0.1,129.56378,1596500948434
Fix,GT,37.5914655,-122.3634804,,33.871773,0.1,129.63666,1596500949434
Fix,GT,37.5912705,-122.363183,,34.19932,0.1,129.79462,1596500950434
Fix,GT,37.591073,-122.3628828,,34.56613,0.1,129.80243,1596500951434
Fix,GT,37.5908734,-122.3625799,,34.88446,0.1,129.87875,1596500952434
Fix,GT,37.5906721,-122.3622743,,35.20014,0.1,129.76587,1596500953434
Fix,GT,37.5904695,-122.3619655,,35.492165,0.1,129.71481,1596500954434
Fix,GT,37.5902657,-122.3616542,,35.697037,0.1,129.53271,1596500955434
Fix,GT,37.590062,-122.3613402,,35.81191,0.1,129.22485,1596500956434
Fix,GT,37.5898591,-122.3610254,,35.702812,0.1,129.2417,1596500957434
Fix,GT,37.5896576,-122.3607121,,35.487026,0.1,128.97992,1596500958434
Fix,GT,37.589459,-122.360398,,35.42764,0.1,127.99933,1596500959434
Fix,GT,37.5892655,-122.3600784,,35.529564,0.1,126.65088,1596500960434
Fix,GT,37.5890784,-122.3597513,,35.663822,0.1,124.961975,1596500961434
Fix,GT,37.5888997,-122.3594156,,35.69318,0.1,122.70465,1596500962434
Fix,GT,37.5887318,-122.3590707,,35.72641,0.1,120.447815,1596500963434
Fix,GT,37.5885725,-122.3587195,,35.681942,0.1,119.3526,1596500964434
Fix,GT,37.5884174,-122.3583662,,35.57292,0.1,118.39838,1596500965434
Fix,GT,37.5882692,-122.3580097,,35.50847,0.1,116.64853,1596500966434
Fix,GT,37.5881311,-122.3576471,,35.563904,0.1,114.46643,1596500967434
Fix,GT,37.5880034,-122.3572771,,35.671486,0.1,112.432556,1596500968434
Fix,GT,37.5878854,-122.3569009,,35.793846,0.1,110.66754,1596500969434
Fix,GT,37.587776,-122.3565192,,35.86264,0.1,109.042694,1596500970434
Fix,GT,37.5876745,-122.3561338,,35.846687,0.1,107.541046,1596500971434
Fix,GT,37.5875816,-122.3557455,,35.745953,0.1,105.88626,1596500972434
Fix,GT,37.5874984,-122.3553558,,35.540016,0.1,104.16174,1596500973434
Fix,GT,37.5874257,-122.3549654,,35.309914,0.1,102.2937,1596500974434
Fix,GT,37.5873632,-122.3545748,,35.088173,0.1,100.565186,1596500975434
Fix,GT,37.5873099,-122.3541841,,34.951466,0.1,99.03592,1596500976434
Fix,GT,37.5872655,-122.3537924,,34.977467,0.1,97.328125,1596500977434
Fix,GT,37.5872302,-122.3533982,,35.128597,0.1,95.58313,1596500978434
Fix,GT,37.5872046,-122.3530005,,35.35925,0.1,93.926636,1596500979434
Fix,GT,37.5871874,-122.3525991,,35.672966,0.1,92.551575,1596500980434
Fix,GT,37.5871759,-122.3521934,,36.03557,0.1,91.887146,1596500981434
Fix,GT,37.587166,-122.3517838,,36.320843,0.1,92.08765,1596500982434
Fix,GT,37.5871547,-122.3513724,,36.35787,0.1,92.29346,1596500983434
Fix,GT,37.5871436,-122.3509623,,36.076958,0.1,92.09076,1596500984434
Fix,GT,37.5871334,-122.3505569,,35.571793,0.1,91.98932,1596500985434
Fix,GT,37.5871236,-122.3501574,,35.034286,0.1,91.85889,1596500986434
Fix,GT,37.5871147,-122.3497634,,34.59591,0.1,91.85614,1596500987434
Fix,GT,37.5871055,-122.3493743,,34.205482,0.1,92.01364,1596500988434
Fix,GT,37.587096,-122.3489883,,34.050797,0.1,91.94174,1596500989434
Fix,GT,37.5870868,-122.3486024,,34.200306,0.1,91.8851,1596500990434
Fix,GT,37.5870773,-122.3482137,,34.528324,0.1,92.06244,1596500991434
Fix,GT,37.5870664,-122.3478216,,34.71502,0.1,92.250305,1596500992434
Fix,GT,37.5870552,-122.3474297,,34.48638,0.1,92.28528,1596500993434
Fix,GT,37.587044,-122.3470417,,34.102272,0.1,92.25589,1596500994434
Fix,GT,37.5870331,-122.3466582,,33.688602,0.1,92.283325,1596500995434
Fix,GT,37.5870218,-122.3462792,,33.30839,0.1,92.44333,1596500996434
Fix,GT,37.5870101,-122.3459038,,33.09644,0.1,92.375916,1596500997434
Fix,GT,37.5869996,-122.3455294,,33.11743,0.1,91.99225,1596500998434
Fix,GT,37.5869908,-122.345154,,33.210808,0.1,91.799805,1596500999434
Fix,GT,37.5869822,-122.3447778,,33.25822,0.1,91.87851,1596501000434
Fix,GT,37.5869732,-122.3444011,,33.322006,0.1,91.87631,1596501001434
Fix,GT,37.5869645,-122.3440232,,33.45556,0.1,91.827576,1596501002434
Fix,GT,37.5869558,-122.3436428,,33.802628,0.1,91.91574,1596501003434
Fix,GT,37.5869464,-122.3432576,,34.2743,0.1,92.023254,1596501004434
Fix,GT,37.5869361,-122.3428678,,34.622555,0.1,92.14722,1596501005434
Fix,GT,37.5869255,-122.3424743,,34.930786,0.1,92.16971,1596501006434
Fix,GT,37.5869148,-122.3420774,,35.214493,0.1,92.10681,1596501007434
Fix,GT,37.5869043,-122.3416774,,35.459354,0.1,92.02716,1596501008434
Fix,GT,37.586894,-122.3412752,,35.583633,0.1,91.98987,1596501009434
Fix,GT,37.5868837,-122.3408728,,35.50856,0.1,92.06445,1596501010434
Fix,GT,37.5868734,-122.3404721,,35.301643,0.1,91.96048,1596501011434
Fix,GT,37.5868639,-122.3400735,,35.179474,0.1,91.837585,1596501012434
Fix,GT,37.5868546,-122.3396752,,35.245316,0.1,91.98346,1596501013434
Fix,GT,37.5868442,-122.3392755,,35.39138,0.1,92.11926,1596501014434
Fix,GT,37.5868334,-122.3388741,,35.561264,0.1,92.141815,1596501015434
Fix,GT,37.5868226,-122.3384707,,35.753117,0.1,92.119415,1596501016434
Fix,GT,37.5868117,-122.3380651,,35.92776,0.1,92.18213,1596501017434
Fix,GT,37.5868004,-122.3376573,,36.161537,0.1,92.15015,1596501018434
Fix,GT,37.5867895,-122.3372465,,36.42551,0.1,92.06177,1596501019434
Fix,GT,37.5867786,-122.3368333,,36.577885,0.1,92.136475,1596501020434
Fix,GT,37.5867672,-122.3364188,,36.67944,0.1,92.20584,1596501021434
Fix,GT,37.5867556,-122.3360038,,36.649467,0.1,92.161835,1596501022434
Fix,GT,37.5867447,-122.3355904,,36.389217,0.1,92.01105,1596501023434
Fix,GT,37.5867346,-122.33518,,36.149357,0.1,91.83334,1596501024434
Fix,GT,37.5867248,-122.3347721,,35.96442,0.1,92.12216,1596501025434
Fix,GT,37.5867119,-122.3343661,,35.825512,0.1,93.138214,1596501026434
Fix,GT,37.5866915,-122.333962,,35.692158,0.1,94.96289,1596501027434
Fix,GT,37.586659,-122.3335611,,35.50682,0.1,97.44452,1596501028434
Fix,GT,37.5866118,-122.3331646,,35.35668,0.1,100.34558,1596501029434
Fix,GT,37.5865481,-122.3327731,,35.251488,0.1,103.562805,1596501030434
Fix,GT,37.5864665,-122.3323881,,35.186962,0.1,107.01767,1596501031434
Fix,GT,37.5863669,-122.3320108,,35.09069,0.1,110.44562,1596501032434
Fix,GT,37.5862499,-122.3316426,,34.990845,0.1,113.97778,1596501033434
Fix,GT,37.5861153,-122.3312851,,34.95414,0.1,117.58328,1596501034434
Fix,GT,37.5859633,-122.3309387,,34.9728,0.1,121.05963,1596501035434
Fix,GT,37.5857943,-122.3306041,,35.02703,0.1,124.60297,1596501036434
Fix,GT,37.5856093,-122.3302825,,35.12029,0.1,127.9751,1596501037434
Fix,GT,37.5854093,-122.3299745,,35.141945,0.1,131.29285,1596501038434
Fix,GT,37.5851963,-122.3296809,,35.049076,0.1,134.29578,1596501039434
Fix,GT,37.5849727,-122.3294024,,34.85319,0.1,136.92615,1596501040434
Fix,GT,37.5847415,-122.3291371,,34.681335,0.1,138.75232,1596501041434
Fix,GT,37.5845064,-122.3288791,,34.58703,0.1,139.34149,1596501042434
Fix,GT,37.5842709,-122.328623,,34.56302,0.1,139.29358,1596501043434
Fix,GT,37.5840354,-122.3283662,,34.67206,0.1,139.11688,1596501044434
Fix,GT,37.583799,-122.3281077,,34.915115,0.1,139.21875,1596501045434
Fix,GT,37.5835602,-122.3278475,,35.233868,0.1,139.27701,1596501046434
Fix,GT,37.5833191,-122.3275851,,35.570076,0.1,139.2341,1596501047434
Fix,GT,37.5830757,-122.3273199,,35.914726,0.1,139.29492,1596501048434
Fix,GT,37.5828297,-122.3270532,,36.16917,0.1,139.41241,1596501049434
Fix,GT,37.5825831,-122.3267853,,36.18312,0.1,139.2503,1596501050434
Fix,GT,37.5823373,-122.3265172,,36.058975,0.1,139.19733,1596501051434
Fix,GT,37.582092,-122.3262502,,35.9711,0.1,139.33179,1596501052434
Fix,GT,37.5818472,-122.3259842,,35.90381,0.1,139.37817,1596501053434
Fix,GT,37.581602,-122.3257185,,35.960102,0.1,139.46027,1596501054434
Fix,GT,37.581356,-122.3254521,,36.109947,0.1,139.32355,1596501055434
Fix,GT,37.5811095,-122.3251843,,36.243244,0.1,139.36676,1596501056434
Fix,GT,37.580862,-122.3249157,,36.34167,0.1,139.46042,1596501057434
Fix,GT,37.5806139,-122.3246469,,36.37423,0.1,139.35986,1596501058434
Fix,GT,37.580366,-122.3243771,,36.456505,0.1,139.26956,1596501059434
Fix,GT,37.5801178,-122.3241052,,36.600006,0.1,138.99963,1596501060434
Fix,GT,37.5798691,-122.3238318,,36.792603,0.1,139.16568,1596501061434
Fix,GT,37.5796172,-122.3235579,,37.144283,0.1,139.53653,1596501062434
Fix,GT,37.5793624,-122.3232824,,37.473557,0.1,139.49841,1596501063434
Fix,GT,37.5791059,-122.323005,,37.643898,0.1,139.55792,1596501064434
Fix,GT,37.5788479,-122.3227273,,37.741783,0.1,139.65997,1596501065434
Fix,GT,37.5785893,-122.322449,,37.81942,0.1,139.5661,1596501066434
Fix,GT,37.5783306,-122.32217,,37.8266,0.1,139.54044,1596501067434
Fix,GT,37.5780727,-122.3218917,,37.5945,0.1,139.49011,1596501068434
Fix,GT,37.577817,-122.3216147,,37.330166,0.1,139.3819,1596501069434
Fix,GT,37.5775634,-122.3213393,,37.07448,0.1,139.42969,1596501070434
Fix,GT,37.5773116,-122.3210658,,36.823406,0.1,139.31042,1596501071434
Fix,GT,37.5770617,-122.3207937,,36.527374,0.1,139.31918,1596501072434
Fix,GT,37.5768147,-122.3205252,,35.961887,0.1,139.32544,1596501073434
Fix,GT,37.5765721,-122.3202616,,35.28024,0.1,139.35803,1596501074434
Fix,GT,37.5763332,-122.3200025,,34.76011,0.1,139.47089,1596501075434
Fix,GT,37.5760975,-122.3197476,,34.27341,0.1,139.41608,1596501076434
Fix,GT,37.5758661,-122.3194959,,33.660603,0.1,139.27576,1596501077434
Fix,GT,37.5756394,-122.3192493,,32.930504,0.1,139.35962,1596501078434
Fix,GT,37.5754172,-122.3190074,,32.362778,0.1,139.2374,1596501079434
Fix,GT,37.5751989,-122.3187685,,31.904612,0.1,139.13586,1596501080434
Fix,GT,37.5749833,-122.3185335,,31.479424,0.1,139.41333,1596501081434
Fix,GT,37.5747699,-122.3183022,,31.079721,0.1,139.41739,1596501082434
Fix,GT,37.5745595,-122.3180734,,30.69748,0.1,139.24518,1596501083434
Fix,GT,37.5743516,-122.3178471,,30.342884,0.1,139.32953,1596501084434
Fix,GT,37.5741458,-122.3176241,,29.9966,0.1,139.40405,1596501085434
Fix,GT,37.5739425,-122.317403,,29.724518,0.1,139.28253,1596501086434
Fix,GT,37.5737409,-122.3171836,,29.498566,0.1,139.27072,1596501087434
Fix,GT,37.5735407,-122.3169658,,29.312271,0.1,139.30951,1596501088434
Fix,GT,37.5733412,-122.316748,,29.44332,0.1,139.17224,1596501089434
Fix,GT,37.5731399,-122.3165281,,29.788532,0.1,139.20798,1596501090434
Fix,GT,37.5729361,-122.3163064,,30.029396,0.1,139.39453,1596501091434
Fix,GT,37.5727303,-122.3160835,,30.27161,0.1,139.51788,1596501092434
Fix,GT,37.5725226,-122.315859,,30.54174,0.1,139.45709,1596501093434
Fix,GT,37.5723136,-122.3156319,,30.808132,0.1,139.24158,1596501094434
Fix,GT,37.5721033,-122.3154016,,31.107199,0.1,139.00858,1596501095434
Fix,GT,37.5718911,-122.3151688,,31.445705,0.1,139.0896,1596501096434
Fix,GT,37.571676,-122.3149339,,31.839869,0.1,139.29184,1596501097434
Fix,GT,37.5714572,-122.3146964,,32.34337,0.1,139.42242,1596501098434
Fix,GT,37.5712343,-122.3144555,,32.914726,0.1,139.4013,1596501099434
Fix,GT,37.5710084,-122.3142098,,33.389927,0.1,139.09827,1596501100434
Fix,GT,37.5707805,-122.3139598,,33.72843,0.1,138.97833,1596501101434
Fix,GT,37.570551,-122.3137076,,33.973503,0.1,138.9107,1596501102434
Fix,GT,37.5703196,-122.3134538,,34.193947,0.1,139.09192,1596501103434
Fix,GT,37.5700862,-122.3131993,,34.390297,0.1,139.30713,1596501104434
Fix,GT,37.5698508,-122.3129448,,34.551537,0.1,139.56714,1596501105434
Fix,GT,37.5696135,-122.3126899,,34.79428,0.1,139.62476,1596501106434
Fix,GT,37.5693742,-122.3124325,,35.15642,0.1,139.58124,1596501107434
Fix,GT,37.5691325,-122.3121717,,35.553795,0.1,139.47195,1596501108434
Fix,GT,37.5688885,-122.3119076,,35.909332,0.1,139.50562,1596501109434
Fix,GT,37.5686421,-122.3116419,,36.172886,0.1,139.65598,1596501110434
Fix,GT,37.5683936,-122.311375,,36.37881,0.1,139.59671,1596501111434
Fix,GT,37.5681443,-122.3111065,,36.4766,0.1,139.47015,1596501112434
Fix,GT,37.5678951,-122.3108371,,36.46291,0.1,139.44574,1596501113434
Fix,GT,37.5676464,-122.3105677,,36.450592,0.1,139.38599,1596501114434
Fix,GT,37.5673978,-122.3102974,,36.556534,0.1,139.24359,1596501115434
Fix,GT,37.5671488,-122.3100251,,36.712894,0.1,139.07727,1596501116434
Fix,GT,37.5668992,-122.3097515,,36.828552,0.1,139.1672,1596501117434
Fix,GT,37.5666482,-122.3094783,,36.878315,0.1,139.48553,1596501118434
Fix,GT,37.5663964,-122.3092071,,36.72136,0.1,139.637,1596501119434
Fix,GT,37.5661461,-122.3089383,,36.364296,0.1,139.66608,1596501120434
Fix,GT,37.5658981,-122.3086717,,36.11004,0.1,139.55243,1596501121434
Fix,GT,37.5656519,-122.3084052,,36.055885,0.1,139.2876,1596501122434
Fix,GT,37.5654068,-122.3081374,,36.04625,0.1,139.07224,1596501123434
Fix,GT,37.5651621,-122.3078692,,36.03806,0.1,139.14914,1596501124434
Fix,GT,37.5649167,-122.3076015,,36.13391,0.1,139.31021,1596501125434
Fix,GT,37.5646701,-122.3073328,,36.371937,0.1,139.23175,1596501126434
Fix,GT,37.5644218,-122.3070613,,36.704857,0.1,139.14182,1596501127434
Fix,GT,37.564171,-122.3067878,,36.987442,0.1,139.36679,1596501128434
Fix,GT,37.5639176,-122.306514,,37.211792,0.1,139.61707,1596501129434
Fix,GT,37.5636625,-122.3062394,,37.309563,0.1,139.57874,1596501130434
Fix,GT,37.563408,-122.3059647,,37.091858,0.1,139.43747,1596501131434
Fix,GT,37.5631563,-122.3056918,,36.7274,0.1,139.32852,1596501132434
Fix,GT,37.5629069,-122.30542,,36.6172,0.1,139.24695,1596501133434
Fix,GT,37.5626572,-122.3051484,,36.66784,0.1,139.36774,1596501134434
Fix,GT,37.5624069,-122.3048775,,36.64591,0.1,139.49243,1596501135434
Fix,GT,37.5621576,-122.3046066,,36.503258,0.1,139.23257,1596501136434
Fix,GT,37.5619102,-122.3043369,,36.18163,0.1,139.27252,1596501137434
Fix,GT,37.5616639,-122.3040701,,36.087955,0.1,139.50665,1596501138434
Fix,GT,37.5614166,-122.3038028,,36.395916,0.1,139.3825,1596501139434
Fix,GT,37.561167,-122.3035322,,36.77408,0.1,139.40039,1596501140434
Fix,GT,37.5609143,-122.3032605,,37.03367,0.1,139.98456,1596501141434
Fix,GT,37.5606578,-122.3029907,,37.20562,0.1,140.62912,1596501142434
Fix,GT,37.560398,-122.3027235,,37.308983,0.1,141.29181,1596501143434
Fix,GT,37.5601354,-122.3024606,,37.201084,0.1,142.13391,1596501144434
Fix,GT,37.5598714,-122.3022037,,36.915752,0.1,142.83337,1596501145434
Fix,GT,37.559608,-122.3019526,,36.46905,0.1,143.28717,1596501146434
Fix,GT,37.5593461,-122.3017078,,36.031353,0.1,143.79633,1596501147434
Fix,GT,37.559085,-122.3014685,,35.751312,0.1,144.26474,1596501148434
Fix,GT,37.5588242,-122.3012324,,35.623024,0.1,144.52512,1596501149434
Fix,GT,37.5585636,-122.3009978,,35.57794,0.1,144.82013,1596501150434
Fix,GT,37.5583017,-122.3007657,,35.56889,0.1,145.08295,1596501151434
Fix,GT,37.5580392,-122.3005341,,35.627754,0.1,145.02948,1596501152434
Fix,GT,37.5577764,-122.300302,,35.65454,0.1,145.09814,1596501153434
Fix,GT,37.5575141,-122.3000707,,35.441467,0.1,145.13635,1596501154434
Fix,GT,37.5572546,-122.2998417,,34.8832,0.1,145.00015,1596501155434
Fix,GT,37.5570019,-122.2996165,,33.77372,0.1,144.58356,1596501156434
Fix,GT,37.5567611,-122.2993973,,32.155964,0.1,143.98691,1596501157434
Fix,GT,37.556535,-122.299188,,30.14259,0.1,143.62714,1596501158434
Fix,GT,37.5563243,-122.2989911,,28.16396,0.1,143.44244,1596501159434
Fix,GT,37.5561272,-122.2988061,,26.552832,0.1,143.44885,1596501160434
Fix,GT,37.5559409,-122.2986314,,25.214355,0.1,143.51013,1596501161434
Fix,GT,37.5557617,-122.2984644,,24.393929,0.1,143.70294,1596501162434
Fix,GT,37.555586,-122.2983024,,24.043823,0.1,144.09473,1596501163434
Fix,GT,37.555412,-122.2981424,,23.856028,0.1,143.82285,1596501164434
Fix,GT,37.5552394,-122.297981,,24.005062,0.1,143.45743,1596501165434
Fix,GT,37.5550643,-122.2978166,,24.561285,0.1,143.43518,1596501166434
Fix,GT,37.5548848,-122.2976486,,25.080957,0.1,143.59863,1596501167434
Fix,GT,37.5547025,-122.2974785,,25.267567,0.1,143.53424,1596501168434
Fix,GT,37.5545206,-122.2973072,,25.149317,0.1,143.05914,1596501169434
Fix,GT,37.5543418,-122.2971353,,24.81216,0.1,142.52393,1596501170434
Fix,GT,37.5541667,-122.2969642,,24.446234,0.1,142.18872,1596501171434
Fix,GT,37.5539942,-122.2967945,,24.181252,0.1,142.1568,1596501172434
Fix,GT,37.5538226,-122.2966262,,24.161,0.1,142.27478,1596501173434
Fix,GT,37.5536499,-122.2964579,,24.329477,0.1,142.50873,1596501174434
Fix,GT,37.5534757,-122.2962906,,24.365803,0.1,143.06384,1596501175434
Fix,GT,37.5532997,-122.296125,,24.467495,0.1,143.46988,1596501176434
Fix,GT,37.5531216,-122.2959583,,24.869265,0.1,143.50809,1596501177434
Fix,GT,37.5529394,-122.2957886,,25.476166,0.1,143.69522,1596501178434
Fix,GT,37.5527532,-122.2956164,,25.785944,0.1,143.97705,1596501179434
Fix,GT,37.5525663,-122.2954444,,25.57933,0.1,143.97412,1596501180434
Fix,GT,37.5523822,-122.2952746,,25.085606,0.1,143.78601,1596501181434
Fix,GT,37.5522024,-122.2951078,,24.501572,0.1,143.7315,1596501182434
Fix,GT,37.5520263,-122.2949449,,24.100914,0.1,143.94278,1596501183434
Fix,GT,37.5518523,-122.2947849,,23.788689,0.1,144.00089,1596501184434
Fix,GT,37.5516806,-122.2946268,,23.425844,0.1,143.84311,1596501185434
Fix,GT,37.5515127,-122.2944708,,22.891876,0.1,143.60803,1596501186434
Fix,GT,37.5513491,-122.2943181,,22.401714,0.1,143.54071,1596501187434
Fix,GT,37.5511881,-122.2941676,,22.179382,0.1,143.48077,1596501188434
Fix,GT,37.5510281,-122.2940175,,22.207218,0.1,143.3172,1596501189434
Fix,GT,37.5508674,-122.2938654,,22.521374,0.1,143.1098,1596501190434
Fix,GT,37.550704,-122.2937097,,22.998447,0.1,142.88641,1596501191434
Fix,GT,37.5505371,-122.2935501,,23.619934,0.1,143.02869,1596501192434
Fix,GT,37.550364,-122.2933872,,24.402617,0.1,143.54022,1596501193434
Fix,GT,37.5501852,-122.2932212,,24.88396,0.1,143.75134,1596501194434
Fix,GT,37.5500043,-122.2930533,,25.006573,0.1,143.75955,1596501195434
Fix,GT,37.5498225,-122.2928847,,25.196789,0.1,143.81287,1596501196434
Fix,GT,37.5496393,-122.2927155,,25.230988,0.1,143.83835,1596501197434
Fix,GT,37.5494571,-122.2925466,,25.100903,0.1,143.58685,1596501198434
Fix,GT,37.5492758,-122.2923754,,25.343693,0.1,143.06366,1596501199434
Fix,GT,37.549092,-122.2922002,,25.879662,0.1,143.01938,1596501200434
Fix,GT,37.548904,-122.2920227,,26.325018,0.1,143.35321,1596501201434
Fix,GT,37.5487121,-122.2918435,,26.79506,0.1,143.60144,1596501202434
Fix,GT,37.5485166,-122.2916613,,27.23051,0.1,143.62787,1596501203434
Fix,GT,37.548318,-122.2914772,,27.514656,0.1,143.91437,1596501204434
Fix,GT,37.5481173,-122.2912928,,27.68196,0.1,143.95312,1596501205434
Fix,GT,37.5479158,-122.2911065,,27.85039,0.1,143.76715,1596501206434
Fix,GT,37.5477132,-122.2909185,,28.073975,0.1,143.73633,1596501207434
Fix,GT,37.5475087,-122.2907293,,28.318314,0.1,143.85168,1596501208434
Fix,GT,37.547302,-122.2905383,,28.65646,0.1,143.84802,1596501209434
Fix,GT,37.5470926,-122.2903449,,29.03851,0.1,143.8612,1596501210434
Fix,GT,37.5468807,-122.2901495,,29.287128,0.1,143.9071,1596501211434
Fix,GT,37.5466674,-122.289953,,29.402786,0.1,143.8757,1596501212434
Fix,GT,37.5464542,-122.2897558,,29.348686,0.1,143.77429,1596501213434
Fix,GT,37.5462421,-122.2895586,,29.272354,0.1,143.55795,1596501214434
Fix,GT,37.5460302,-122.2893596,,29.479738,0.1,143.27185,1596501215434
Fix,GT,37.545817,-122.2891584,,29.685503,0.1,143.32611,1596501216434
Fix,GT,37.5456026,-122.2889578,,29.62461,0.1,143.6394,1596501217434
Fix,GT,37.5453889,-122.288759,,29.42232,0.1,143.69598,1596501218434
Fix,GT,37.5451757,-122.2885609,,29.473946,0.1,143.69354,1596501219434
Fix,GT,37.5449609,-122.2883616,,29.79806,0.1,143.75461,1596501220434
Fix,GT,37.5447435,-122.288161,,30.063026,0.1,143.9627,1596501221434
Fix,GT,37.5445239,-122.2879604,,30.208172,0.1,144.21954,1596501222434
Fix,GT,37.5443033,-122.287759,,30.33412,0.1,144.00708,1596501223434
Fix,GT,37.5440828,-122.2875549,,30.547058,0.1,143.58582,1596501224434
Fix,GT,37.5438605,-122.2873467,,30.998306,0.1,143.47195,1596501225434
Fix,GT,37.543635,-122.2871357,,31.432486,0.1,143.5571,1596501226434
Fix,GT,37.5434066,-122.2869224,,31.744492,0.1,143.58807,1596501227434
Fix,GT,37.5431757,-122.2867075,,32.015453,0.1,143.78473,1596501228434
Fix,GT,37.5429422,-122.2864917,,32.35292,0.1,143.96857,1596501229434
Fix,GT,37.5427055,-122.2862748,,32.717525,0.1,144.11362,1596501230434
Fix,GT,37.5424657,-122.2860556,,33.10564,0.1,144.147,1596501231434
Fix,GT,37.542223,-122.2858338,,33.499706,0.1,144.08691,1596501232434
Fix,GT,37.5419782,-122.2856089,,33.828793,0.1,143.89175,1596501233434
Fix,GT,37.5417319,-122.285381,,34.090633,0.1,143.74438,1596501234434
Fix,GT,37.5414837,-122.2851513,,34.370064,0.1,143.87619,1596501235434
Fix,GT,37.5412328,-122.2849207,,34.616287,0.1,144.05164,1596501236434
Fix,GT,37.5409799,-122.2846891,,34.85923,0.1,144.17764,1596501237434
Fix,GT,37.5407245,-122.2844562,,35.163765,0.1,144.29077,1596501238434
Fix,GT,37.5404671,-122.2842218,,35.37155,0.1,144.13757,1596501239434
Fix,GT,37.5402095,-122.2839858,,35.423767,0.1,144.0075,1596501240434
Fix,GT,37.5399519,-122.283749,,35.43889,0.1,143.95032,1596501241434
Fix,GT,37.5396942,-122.2835114,,35.530933,0.1,143.77295,1596501242434
Fix,GT,37.5394366,-122.2832718,,35.616875,0.1,143.52081,1596501243434
Fix,GT,37.5391793,-122.2830313,,35.589355,0.1,143.59976,1596501244434
Fix,GT,37.5389216,-122.282792,,35.528168,0.1,143.83972,1596501245434
Fix,GT,37.5386637,-122.2825544,,35.481373,0.1,143.91376,1596501246434
Fix,GT,37.538406,-122.2823172,,35.410744,0.1,143.96613,1596501247434
Fix,GT,37.5381494,-122.2820809,,35.175426,0.1,143.8722,1596501248434
Fix,GT,37.5378959,-122.2818461,,34.7267,0.1,143.7024,1596501249434
Fix,GT,37.5376462,-122.2816142,,34.229362,0.1,143.70544,1596501250434
Fix,GT,37.5373998,-122.2813853,,33.832462,0.1,143.73575,1596501251434
Fix,GT,37.5371554,-122.2811591,,33.566277,0.1,143.84964,1596501252434
Fix,GT,37.5369122,-122.2809355,,33.327614,0.1,144.14093,1596501253434
Fix,GT,37.5366694,-122.2807154,,33.189842,0.1,144.74377,1596501254434
Fix,GT,37.536424,-122.2804994,,33.41077,0.1,145.43597,1596501255434
Fix,GT,37.5361747,-122.2802825,,33.95491,0.1,145.29718,1596501256434
Fix,GT,37.5359225,-122.2800592,,34.634598,0.1,144.63751,1596501257434
Fix,GT,37.5356664,-122.2798282,,35.4019,0.1,144.30405,1596501258434
Fix,GT,37.5354056,-122.2795906,,36.030403,0.1,144.21191,1596501259434
Fix,GT,37.5351408,-122.2793507,,36.431984,0.1,144.67365,1596501260434
Fix,GT,37.5348717,-122.2791123,,36.695786,0.1,145.19897,1596501261434
Fix,GT,37.5346003,-122.2788734,,36.849525,0.1,144.96606,1596501262434
Fix,GT,37.5343294,-122.2786313,,36.93227,0.1,144.43655,1596501263434
Fix,GT,37.5340595,-122.2783862,,37.014122,0.1,144.13129,1596501264434
Fix,GT,37.5337896,-122.2781392,,37.088715,0.1,144.02231,1596501265434
Fix,GT,37.5335199,-122.2778908,,37.153107,0.1,143.85944,1596501266434
Fix,GT,37.5332499,-122.2776419,,37.182316,0.1,143.98566,1596501267434
Fix,GT,37.5329785,-122.2773947,,37.2299,0.1,144.5174,1596501268434
Fix,GT,37.5327053,-122.2771501,,37.241512,0.1,144.86847,1596501269434
Fix,GT,37.5324315,-122.2769065,,37.24153,0.1,144.91956,1596501270434
Fix,GT,37.5321582,-122.2766624,,37.220024,0.1,144.72504,1596501271434
Fix,GT,37.5318857,-122.2764173,,37.20614,0.1,144.35913,1596501272434
Fix,GT,37.5316144,-122.2761697,,37.248642,0.1,143.81323,1596501273434
Fix,GT,37.5313451,-122.2759175,,37.302563,0.1,142.93988,1596501274434
Fix,GT,37.5310788,-122.27566,,37.305786,0.1,142.08972,1596501275434
Fix,GT,37.5308157,-122.2753976,,37.2867,0.1,141.27716,1596501276434
Fix,GT,37.5305556,-122.2751303,,37.363167,0.1,140.41241,1596501277434
Fix,GT,37.5302969,-122.274858,,37.51777,0.1,139.81165,1596501278434
Fix,GT,37.5300401,-122.2745813,,37.60751,0.1,139.15024,1596501279434
Fix,GT,37.5297853,-122.2743008,,37.594746,0.1,138.57147,1596501280434
Fix,GT,37.5295329,-122.2740177,,37.516457,0.1,138.05667,1596501281434
Fix,GT,37.529283,-122.2737325,,37.42448,0.1,137.77069,1596501282434
Fix,GT,37.529034,-122.2734474,,37.38531,0.1,137.8341,1596501283434
Fix,GT,37.528785,-122.2731619,,37.465446,0.1,137.74329,1596501284434
Fix,GT,37.5285356,-122.2728749,,37.639282,0.1,137.67822,1596501285434
Fix,GT,37.5282848,-122.2725873,,37.746338,0.1,137.84833,1596501286434
Fix,GT,37.5280332,-122.2722995,,37.82396,0.1,137.89655,1596501287434
Fix,GT,37.5277806,-122.2720115,,37.930393,0.1,137.95297,1596501288434
Fix,GT,37.527527,-122.2717229,,38.032387,0.1,137.98956,1596501289434
Fix,GT,37.5272728,-122.2714336,,38.113045,0.1,137.95105,1596501290434
Fix,GT,37.5270183,-122.2711432,,38.22741,0.1,137.84967,1596501291434
Fix,GT,37.5267632,-122.2708514,,38.397133,0.1,137.81189,1596501292434
Fix,GT,37.5265068,-122.2705583,,38.560555,0.1,137.92389,1596501293434
Fix,GT,37.5262489,-122.2702646,,38.724087,0.1,138.10474,1596501294434
Fix,GT,37.525989,-122.2699714,,38.82865,0.1,138.48178,1596501295434
Fix,GT,37.525727,-122.2696796,,38.877518,0.1,138.66904,1596501296434
Fix,GT,37.5254647,-122.2693879,,38.920258,0.1,138.61801,1596501297434
Fix,GT,37.5252022,-122.2690955,,38.96514,0.1,138.60883,1596501298434
Fix,GT,37.5249396,-122.2688024,,39.04419,0.1,138.49072,1596501299434
Fix,GT,37.524677,-122.2685076,,39.14716,0.1,138.27368,1596501300434
Fix,GT,37.5244145,-122.2682111,,39.240074,0.1,138.13705,1596501301434
Fix,GT,37.5241518,-122.2679134,,39.295826,0.1,138.10681,1596501302434
Fix,GT,37.5238894,-122.2676159,,39.176003,0.1,138.19626,1596501303434
Fix,GT,37.5236276,-122.2673206,,38.957306,0.1,138.31473,1596501304434
Fix,GT,37.5233667,-122.2670259,,38.967255,0.1,138.15356,1596501305434
Fix,GT,37.5231059,-122.2667304,,38.986656,0.1,138.14844,1596501306434
Fix,GT,37.5228453,-122.2664362,,38.75817,0.1,138.3501,1596501307434
Fix,GT,37.5225862,-122.2661451,,38.409187,0.1,138.38116,1596501308434
