MessageType,Provider,LatitudeDegrees,LongitudeDegrees,AltitudeMeters,SpeedMps,AccuracyMeters,BearingDegrees,UnixTimeMillis
Fix,GT,37.4273359,-122.0699107,,0.0017774326,0.1,0.33135986,1595625722441
Fix,GT,37.4273359,-122.0699107,,0.001872849,0.1,0.33096313,1595625723441
Fix,GT,37.4273359,-122.0699107,,0.0017774326,0.1,0.33068848,1595625724441
Fix,GT,37.4273359,-122.0699107,,0.0022360682,0.1,0.3312683,1595625725441
Fix,GT,37.4273359,-122.0699107,,0.0025736883,0.1,0.3310547,1595625726441
Fix,GT,37.4273359,-122.0699107,,0.0025580495,0.1,0.3314209,1595625727441
Fix,GT,37.4273359,-122.0699107,,0.002,0.1,0.331604,1595625728441
Fix,GT,37.4273359,-122.0699107,,0.0017411115,0.1,0.3320923,1595625729441
Fix,GT,37.4273359,-122.0699107,,0.00078920106,0.1,0.33215332,1595625730441
Fix,GT,37.4273359,-122.0699107,,0.0006250125,0.1,0.33224487,1595625731441
Fix,GT,37.4273359,-122.0699107,,0.0014142136,0.1,0.33285522,1595625732441
Fix,GT,37.4273359,-122.0699107,,0.0012311516,0.1,0.33319092,1595625733441
Fix,GT,37.4273359,-122.0699107,,0.001,0.1,0.33294678,1595625734441
Fix,GT,37.4273359,-122.0699107,,0.001183062,0.1,0.33255005,1595625735441
Fix,GT,37.4273359,-122.0699107,,0.00078920106,0.1,0.33221436,1595625736441
Fix,GT,37.4273359,-122.0699107,,0.0004419506,0.1,0.33236694,1595625737441
Fix,GT,37.4273359,-122.0699107,,0.0014419507,0.1,0.33242798,1595625738441
Fix,GT,37.4273359,-122.0699107,,0.0021043306,0.1,0.33258057,1595625739441
Fix,GT,37.4273359,-122.0699107,,0.0022360682,0.1,0.33258057,1595625740441
Fix,GT,37.4273359,-122.0699107,,0.002841312,0.1,0.3323059,1595625741441
Fix,GT,37.4273359,-122.0699107,,0.0042218287,0.1,0.33224487,1595625742441
Fix,GT,37.4273359,-122.0699107,,0.0046652844,0.1,0.33255005,1595625743441
Fix,GT,37.4273359,-122.0699107,,0.0049445955,0.1,0.33285522,1595625744441
Fix,GT,37.4273359,-122.0699107,,0.0048474353,0.1,0.3329773,1595625745441
Fix,GT,37.4273359,-122.0699107,,0.0026370883,0.1,0.33312988,1595625746441
Fix,GT,37.4273359,-122.0699107,,0.0016731023,0.1,0.33306885,1595625747441
Fix,GT,37.4273359,-122.0699107,,0.0021043306,0.1,0.3330078,1595625748441
Fix,GT,37.4273359,-122.0699107,,0.0026454069,0.1,0.33328247,1595625749441
Fix,GT,37.4273359,-122.0699107,,0.0026486085,0.1,0.33343506,1595625750441
Fix,GT,37.4273359,-122.0699107,,0.001116099,0.1,0.3338623,1595625751441
Fix,GT,37.4273359,-122.0699107,,0.0004419506,0.1,0.3345642,1595625752441
Fix,GT,37.4273359,-122.0699107,,0.001,0.1,0.33493042,1595625753441
Fix,GT,37.4273359,-122.0699107,,0.0014419507,0.1,0.33493042,1595625754441
Fix,GT,37.4273359,-122.0699107,,0.0017411115,0.1,0.33499146,1595625755441
Fix,GT,37.4273359,-122.0699107,,0.0014142136,0.1,0.33462524,1595625756441
Fix,GT,37.4273359,-122.0699107,,0.0014142136,0.1,0.3345337,1595625757441
Fix,GT,37.4273359,-122.0699107,,0.0017774326,0.1,0.33468628,1595625758441
Fix,GT,37.4273358,-122.0699107,,0.0043414906,0.1,0.33450317,1595625759441
Fix,GT,37.4273358,-122.0699107,,0.005232198,0.1,0.33450317,1595625760441
Fix,GT,37.4273358,-122.0699107,,0.0025580495,0.1,0.3350525,1595625761441
Fix,GT,37.4273358,-122.0699107,,0.0021043306,0.1,0.3355713,1595625762441
Fix,GT,37.4273358,-122.0699107,,0.002841312,0.1,0.33520508,1595625763441
Fix,GT,37.4273358,-122.0699107,,0.003988539,0.1,0.33520508,1595625764441
Fix,GT,37.4273358,-122.0699107,,0.0038932436,0.1,0.3356018,1595625765441
Fix,GT,37.4273359,-122.0699107,,0.003358183,0.1,0.33563232,1595625766441
Fix,GT,37.427336,-122.0699107,,0.0036055516,0.1,0.33618164,1595625767441
Fix,GT,37.427336,-122.0699108,,0.0024540264,0.1,0.33642578,1595625768441
Fix,GT,37.4273358,-122.0699107,,0.0015462812,0.1,0.3361206,1595625769441
Fix,GT,37.4273358,-122.0699107,,0.0021317378,0.1,0.3363037,1595625770441
Fix,GT,37.4273358,-122.0699107,,0.002,0.1,0.33642578,1595625771441
Fix,GT,37.4273358,-122.0699107,,0.0017411115,0.1,0.33633423,1595625772441
Fix,GT,37.4273358,-122.0699107,,0.0012311516,0.1,0.33694458,1595625773441
Fix,GT,37.4273358,-122.0699107,,0.0014419507,0.1,0.3374939,1595625774441
Fix,GT,37.4273358,-122.0699107,,0.0021043306,0.1,0.33813477,1595625775441
Fix,GT,37.4273358,-122.0699107,,0.001872849,0.1,0.3388672,1595625776441
Fix,GT,37.4273358,-122.0699107,,0.0012311516,0.1,0.33883667,1595625777441
Fix,GT,37.4273358,-122.0699107,,0.001,0.1,0.33859253,1595625778441
Fix,GT,37.4273358,-122.0699107,,0.001,0.1,0.3383484,1595625779441
Fix,GT,37.4273358,-122.0699107,,0.001183062,0.1,0.33816528,1595625780441
Fix,GT,37.4273358,-122.0699107,,0.0012311516,0.1,0.338562,1595625781441
Fix,GT,37.4273358,-122.0699107,,0.0014419507,0.1,0.3383789,1595625782441
Fix,GT,37.4273358,-122.0699107,,0.002,0.1,0.33807373,1595625783441
Fix,GT,37.4273358,-122.0699107,,0.0024419506,0.1,0.33843994,1595625784441
Fix,GT,37.4273358,-122.0699107,,0.0034419508,0.1,0.3383484,1595625785441
Fix,GT,37.4273358,-122.0699107,,0.0032204296,0.1,0.33822632,1595625786441
Fix,GT,37.4273357,-122.0699107,,0.001872849,0.1,0.3383484,1595625787441
Fix,GT,37.4273356,-122.0699107,,0.0012311516,0.1,0.33847046,1595625788441
Fix,GT,37.4273356,-122.0699107,,0.001183062,0.1,0.33862305,1595625789441
Fix,GT,37.4273356,-122.0699107,,0.0017774326,0.1,0.33874512,1595625790441
Fix,GT,37.4273356,-122.0699107,,0.0022360682,0.1,0.3390503,1595625791441
Fix,GT,37.4273357,-122.0699107,,0.0016897871,0.1,0.33917236,1595625792441
Fix,GT,37.4273359,-122.0699107,,0.001,0.1,0.33935547,1595625793441
Fix,GT,37.4273361,-122.0699107,,0.0005580495,0.1,0.33972168,1595625794441
Fix,GT,37.4273362,-122.0699108,,0.00062501256,0.1,0.33963013,1595625795441
Fix,GT,37.427336,-122.0699108,,0.0016731023,0.1,0.33969116,1595625796441
Fix,GT,37.4273358,-122.0699107,,0.0021043303,0.1,0.3399048,1595625797441
Fix,GT,37.4273358,-122.0699107,,0.0005580495,0.1,0.36413574,1595625888441
Fix,GT,37.4273358,-122.0699107,,0.0004419506,0.1,0.36398315,1595625889441
Fix,GT,37.4273358,-122.0699107,,0.001546281,0.1,0.36367798,1595625890441
Fix,GT,37.4273358,-122.0699107,,0.002236068,0.1,0.3638916,1595625891441
Fix,GT,37.4273358,-122.0699107,,0.002236068,0.1,0.36419678,1595625892441
Fix,GT,37.4273358,-122.0699107,,0.001689787,0.1,0.36450195,1595625893441
Fix,GT,37.4273358,-122.0699107,,0.0014419507,0.1,0.36505127,1595625894441
Fix,GT,37.4273357,-122.0699107,,0.0021043306,0.1,0.36538696,1595625895441
Fix,GT,37.4273356,-122.0699107,,0.0026454069,0.1,0.36550903,1595625896441
Fix,GT,37.4273357,-122.0699107,,0.0026486085,0.1,0.3652954,1595625897441
Fix,GT,37.4273358,-122.0699107,,0.0017411115,0.1,0.3652649,1595625898441
Fix,GT,37.4273358,-122.0699107,,0.0017774326,0.1,0.36514282,1595625899441
Fix,GT,37.4273358,-122.0699107,,0.0032242998,0.1,0.3656311,1595625900441
Fix,GT,37.4273358,-122.0699107,,0.0038932436,0.1,0.3656006,1595625901441
Fix,GT,37.4273358,-122.0699107,,0.0022066578,0.1,0.3651123,1595625902441
Fix,GT,37.4273358,-122.0699107,,0.001,0.1,0.3652649,1595625903441
Fix,GT,37.4273358,-122.0699107,,0.0015462812,0.1,0.36538696,1595625904441
Fix,GT,37.4273358,-122.0699107,,0.001872849,0.1,0.36593628,1595625905441
Fix,GT,37.4273358,-122.0699107,,0.0021867715,0.1,0.366333,1595625906441
Fix,GT,37.4273358,-122.0699107,,0.0022066575,0.1,0.3668213,1595625907441
Fix,GT,37.4273358,-122.0699107,,0.0005580494,0.1,0.3677063,1595625908441
Fix,GT,37.4273358,-122.0699107,,0.00044195063,0.1,0.36816406,1595625909441
Fix,GT,37.4273358,-122.0699107,,0.001183062,0.1,0.36816406,1595625910441
Fix,GT,37.4273358,-122.0699107,,0.0014142136,0.1,0.3684082,1595625911441
Fix,GT,37.4273358,-122.0699107,,0.0014142136,0.1,0.36849976,1595625912441
Fix,GT,37.4273358,-122.0699107,,0.0023826766,0.1,0.36828613,1595625913441
Fix,GT,37.4273358,-122.0699107,,0.0024540264,0.1,0.3680725,1595625914441
Fix,GT,37.4273358,-122.0699107,,0.0014419507,0.1,0.36798096,1595625915441
Fix,GT,37.4273358,-122.0699107,,0.0021043303,0.1,0.36795044,1595625916441
Fix,GT,37.4273358,-122.0699107,,0.001872849,0.1,0.3683777,1595625917441
Fix,GT,37.4273358,-122.0699107,,0.0017774326,0.1,0.36889648,1595625918441
Fix,GT,37.4273358,-122.0699107,,0.0016897871,0.1,0.36901855,1595625919441
Fix,GT,37.4273358,-122.0699107,,0.001183062,0.1,0.3692627,1595625920441
Fix,GT,37.4273358,-122.0699107,,0.0017774326,0.1,0.36923218,1595625921441
Fix,GT,37.4273358,-122.0699107,,0.0016897871,0.1,0.368927,1595625922441
Fix,GT,37.4273358,-122.0699107,,0.001,0.1,0.36947632,1595625923441
Fix,GT,37.4273358,-122.0699107,,0.001,0.1,0.36993408,1595625924441
Fix,GT,37.4273358,-122.0699107,,0.001183062,0.1,0.3695984,1595625925441
Fix,GT,37.4273358,-122.0699107,,0.0012311516,0.1,0.36953735,1595625926441
Fix,GT,37.4273358,-122.0699107,,0.00195562,0.1,0.3695984,1595625927441
Fix,GT,37.4273359,-122.0699107,,0.003358183,0.1,0.36984253,1595625928441
Fix,GT,37.427336,-122.0699107,,0.0030003074,0.1,0.36965942,1595625929441
Fix,GT,37.427336,-122.0699108,,0.0022360682,0.1,0.36941528,1595625930441
Fix,GT,37.4273358,-122.0699107,,0.001872849,0.1,0.36984253,1595625931441
Fix,GT,37.4273358,-122.0699107,,0.0017774326,0.1,0.37036133,1595625932441
Fix,GT,37.4273358,-122.0699107,,0.002573688,0.1,0.3704834,1595625933441
Fix,GT,37.4273358,-122.0699107,,0.0025580495,0.1,0.37051392,1595625934441
Fix,GT,37.4273358,-122.0699107,,0.0034960755,0.1,0.37142944,1595625935441
Fix,GT,37.4273358,-122.0699107,,0.0034471387,0.1,0.37164307,1595625936441
Fix,GT,37.4273358,-122.0699107,,0.001,0.1,0.37039185,1595625937441
Fix,GT,37.4273358,-122.0699107,,0.0014419507,0.1,0.37054443,1595625938441
Fix,GT,37.4273358,-122.0699107,,0.0021043303,0.1,0.37112427,1595625939441
Fix,GT,37.4273359,-122.0699107,,0.002236068,0.1,0.3715515,1595625940441
Fix,GT,37.4273359,-122.0699107,,0.001872849,0.1,0.3738098,1595625941441
Fix,GT,37.4273359,-122.0699107,,0.0026114099,0.1,0.37646484,1595625942441
Fix,GT,37.4273361,-122.0699107,,0.14773555,0.1,0.37747192,1595625943441
Fix,GT,37.4273393,-122.0699107,,0.6844262,0.1,0.37469482,1595625944441
Fix,GT,37.4273488,-122.0699109,,1.3881574,0.1,0.3640442,1595625945441
Fix,GT,37.4273633,-122.0699112,,1.7835865,0.1,0.33432007,1595625946441
Fix,GT,37.4273801,-122.0699117,,1.9085872,0.1,0.22518921,1595625947441
Fix,GT,37.4273977,-122.0699123,,1.9863589,0.1,359.9382,1595625948441
Fix,GT,37.4274175,-122.0699132,,2.555564,0.1,359.5561,1595625949441
Fix,GT,37.4274459,-122.0699148,,3.9119854,0.1,359.04074,1595625950441
Fix,GT,37.4274884,-122.0699179,,5.46552,0.1,358.13974,1595625951441
Fix,GT,37.4275438,-122.0699228,,6.7943883,0.1,357.3733,1595625952441
Fix,GT,37.4276095,-122.069928,,7.7893634,0.1,357.97205,1595625953441
Fix,GT,37.4276834,-122.0699317,,8.572376,0.1,359.21536,1595625954441
Fix,GT,37.4277632,-122.0699347,,9.033125,0.1,359.52377,1595625955441
Fix,GT,37.427845,-122.0699379,,9.085129,0.1,359.51877,1595625956441
Fix,GT,37.4279261,-122.0699408,,8.936066,0.1,359.85355,1595625957441
Fix,GT,37.4280054,-122.0699417,,8.645592,0.1,1.051117,1595625958441
Fix,GT,37.4280805,-122.0699399,,8.039019,0.1,2.9406738,1595625959441
Fix,GT,37.4281498,-122.0699356,,7.3415265,0.1,4.2808533,1595625960441
Fix,GT,37.4282131,-122.0699338,,6.7042093,0.1,1.5847778,1595625961441
Fix,GT,37.4282702,-122.0699457,,6.1581955,0.1,349.16235,1595625962441
Fix,GT,37.4283146,-122.0699828,,5.717517,0.1,324.53873,1595625963441
Fix,GT,37.4283352,-122.07004,,5.4830894,0.1,294.56177,1595625964441
Fix,GT,37.4283359,-122.070105,,6.0013304,0.1,273.53824,1595625965441
Fix,GT,37.4283308,-122.0701783,,6.9548144,0.1,267.00244,1595625966441
Fix,GT,37.4283258,-122.0702606,,7.579409,0.1,267.21365,1595625967441
Fix,GT,37.4283226,-122.0703469,,7.6641836,0.1,269.06995,1595625968441
Fix,GT,37.428322,-122.070431,,7.1886606,0.1,271.05743,1595625969441
Fix,GT,37.4283227,-122.0705078,,6.3567095,0.1,272.07233,1595625970441
Fix,GT,37.4283238,-122.0705724,,5.033121,0.1,272.72614,1595625971441
Fix,GT,37.428325,-122.0706194,,3.3174515,0.1,273.01376,1595625972441
Fix,GT,37.4283256,-122.0706504,,2.4057107,0.1,272.82812,1595625973441
Fix,GT,37.4283258,-122.0706773,,2.5387146,0.1,272.32944,1595625974441
Fix,GT,37.4283259,-122.0707099,,3.3565803,0.1,271.91052,1595625975441
Fix,GT,37.428326,-122.070756,,4.8783045,0.1,271.6048,1595625976441
Fix,GT,37.4283261,-122.0708204,,6.5194383,0.1,271.34656,1595625977441
Fix,GT,37.4283261,-122.0709021,,7.8677344,0.1,271.3324,1595625978441
Fix,GT,37.4283266,-122.0709964,,8.67402,0.1,271.83533,1595625979441
Fix,GT,37.428328,-122.0710952,,8.63005,0.1,272.44208,1595625980441
Fix,GT,37.4283293,-122.0711867,,7.3763776,0.1,272.22342,1595625981441
Fix,GT,37.4283295,-122.0712588,,5.3768387,0.1,271.56573,1595625982441
Fix,GT,37.4283295,-122.0713113,,4.08005,0.1,271.25598,1595625983441
Fix,GT,37.4283295,-122.0713554,,3.8965268,0.1,271.4189,1595625984441
Fix,GT,37.4283297,-122.0714018,,4.4832563,0.1,271.81522,1595625985441
Fix,GT,37.4283303,-122.0714593,,5.699843,0.1,271.8462,1595625986441
Fix,GT,37.4283308,-122.0715305,,6.8991156,0.1,271.898,1595625987441
Fix,GT,37.4283316,-122.0716142,,7.868479,0.1,272.055,1595625988441
Fix,GT,37.428332,-122.0717065,,8.356891,0.1,271.5484,1595625989441
Fix,GT,37.4283321,-122.0718005,,8.140237,0.1,271.35117,1595625990441
Fix,GT,37.4283321,-122.0718882,,7.3064117,0.1,271.5114,1595625991441
Fix,GT,37.4283321,-122.0719664,,6.581238,0.1,271.29752,1595625992441
Fix,GT,37.4283319,-122.0720386,,6.2606964,0.1,271.25247,1595625993441
Fix,GT,37.4283318,-122.0721086,,6.241827,0.1,271.31616,1595625994441
Fix,GT,37.4283316,-122.0721807,,6.6150827,0.1,270.98285,1595625995441
Fix,GT,37.4283302,-122.0722586,,7.124363,0.1,269.70752,1595625996441
Fix,GT,37.4283248,-122.0723402,,7.1911836,0.1,265.79608,1595625997441
Fix,GT,37.4283137,-122.0724169,,6.3885202,0.1,260.15356,1595625998441
Fix,GT,37.4283007,-122.0724788,,4.8774433,0.1,256.24136,1595625999441
Fix,GT,37.42829,-122.0725232,,3.4629962,0.1,254.84323,1595626000441
Fix,GT,37.4282831,-122.0725572,,2.9704378,0.1,256.72583,1595626001441
Fix,GT,37.4282828,-122.072592,,3.2914867,0.1,267.22675,1595626002441
Fix,GT,37.4282945,-122.0726301,,4.0855894,0.1,286.32132,1595626003441
Fix,GT,37.428317,-122.0726751,,5.4678793,0.1,299.93988,1595626004441
Fix,GT,37.4283449,-122.072737,,7.0919333,0.1,299.739,1595626005441
Fix,GT,37.4283708,-122.072819,,8.464375,0.1,291.6714,1595626006441
Fix,GT,37.4283871,-122.0729187,,9.444365,0.1,280.78256,1595626007441
Fix,GT,37.4283908,-122.0730285,,9.954215,0.1,272.26492,1595626008441
Fix,GT,37.428388,-122.0731436,,10.435122,0.1,269.74066,1595626009441
Fix,GT,37.4283859,-122.0732661,,11.3258705,0.1,270.2936,1595626010441
Fix,GT,37.4283848,-122.0733994,,12.232558,0.1,270.79623,1595626011441
Fix,GT,37.4283835,-122.0735419,,12.937302,0.1,270.69467,1595626012441
Fix,GT,37.4283824,-122.0736894,,13.056666,0.1,271.043,1595626013441
Fix,GT,37.4283822,-122.0738339,,12.354258,0.1,271.3645,1595626014441
Fix,GT,37.4283822,-122.0739669,,11.089712,0.1,271.36578,1595626015441
Fix,GT,37.4283821,-122.0740838,,9.615023,0.1,271.39966,1595626016441
Fix,GT,37.4283824,-122.0741832,,8.008923,0.1,271.63626,1595626017441
Fix,GT,37.4283827,-122.0742634,,6.120998,0.1,271.75208,1595626018441
Fix,GT,37.428383,-122.0743203,,3.8835201,0.1,271.7652,1595626019441
Fix,GT,37.4283831,-122.0743516,,1.7442923,0.1,271.79257,1595626020441
Fix,GT,37.4283832,-122.0743626,,0.4222221,0.1,271.80603,1595626021441
Fix,GT,37.4283832,-122.0743642,,0.01073187,0.1,271.81024,1595626022441
Fix,GT,37.4283832,-122.0743642,,0.001,0.1,271.81,1595626023441
Fix,GT,37.4283832,-122.0743642,,0.0011830621,0.1,271.8095,1595626024441
Fix,GT,37.4283832,-122.0743642,,0.0014142136,0.1,271.8099,1595626025441
Fix,GT,37.4283832,-122.0743642,,0.0012311516,0.1,271.80975,1595626026441
Fix,GT,37.4283832,-122.0743642,,0.0015462812,0.1,271.80957,1595626027441
Fix,GT,37.4283832,-122.0743642,,0.001872849,0.1,271.8097,1595626028441
Fix,GT,37.4283832,-122.0743642,,0.0020392262,0.1,271.80896,1595626029441
Fix,GT,37.4283832,-122.0743642,,0.0025666337,0.1,271.80826,1595626030441
Fix,GT,37.4283832,-122.0743642,,0.001872849,0.1,271.80856,1595626031441
Fix,GT,37.4283832,-122.0743642,,0.0012311516,0.1,271.80927,1595626032441
Fix,GT,37.4283832,-122.0743642,,0.001,0.1,271.80972,1595626033441
Fix,GT,37.4283832,-122.0743642,,0.0015462812,0.1,271.80975,1595626034441
Fix,GT,37.4283832,-122.0743642,,0.0022360682,0.1,271.81012,1595626035441
Fix,GT,37.4283832,-122.0743642,,0.0022360682,0.1,271.8109,1595626036441
Fix,GT,37.4283832,-122.0743642,,0.0012478363,0.1,271.81183,1595626037441
Fix,GT,37.4283832,-122.0743642,,0.0006250127,0.1,271.81226,1595626038441
Fix,GT,37.4283832,-122.0743642,,0.0012311516,0.1,271.8127,1595626039441
Fix,GT,37.4283832,-122.0743643,,0.0019556202,0.1,271.8131,1595626040441
Fix,GT,37.4283832,-122.0743656,,0.30936748,0.1,271.80615,1595626041441
Fix,GT,37.4283832,-122.0743731,,1.1176323,0.1,271.67395,1595626042441
Fix,GT,37.4283832,-122.0743918,,2.2201252,0.1,271.5117,1595626043441
Fix,GT,37.4283834,-122.0744245,,3.6082428,0.1,271.62573,1595626044441
Fix,GT,37.4283837,-122.0744744,,5.2304926,0.1,271.86194,1595626045441
Fix,GT,37.4283845,-122.0745432,,6.982179,0.1,272.18933,1595626046441
Fix,GT,37.4283856,-122.074631,,8.503284,0.1,272.15356,1595626047441
Fix,GT,37.4283859,-122.074734,,9.702931,0.1,271.4679,1595626048441
Fix,GT,37.4283856,-122.0748499,,10.7859745,0.1,271.20743,1595626049441
Fix,GT,37.4283857,-122.074977,,11.673081,0.1,271.57217,1595626050441
Fix,GT,37.4283865,-122.0751128,,12.328062,0.1,271.86496,1595626051441
Fix,GT,37.4283873,-122.0752546,,12.752245,0.1,271.70508,1595626052441
Fix,GT,37.4283876,-122.0753999,,12.949068,0.1,271.52536,1595626053441
Fix,GT,37.4283881,-122.0755468,,13.036737,0.1,271.77148,1595626054441
Fix,GT,37.4283892,-122.0756944,,13.096722,0.1,271.99414,1595626055441
Fix,GT,37.4283902,-122.0758428,,13.169428,0.1,271.80164,1595626056441
Fix,GT,37.4283909,-122.0759921,,13.24604,0.1,271.6385,1595626057441
Fix,GT,37.4283901,-122.076142,,13.291365,0.1,270.43076,1595626058441
Fix,GT,37.4283842,-122.0762919,,13.24852,0.1,267.38742,1595626059441
Fix,GT,37.4283714,-122.0764405,,13.18305,0.1,264.09586,1595626060441
Fix,GT,37.428352,-122.0765873,,13.159638,0.1,260.94867,1595626061441
Fix,GT,37.4283257,-122.076732,,13.06369,0.1,257.45532,1595626062441
Fix,GT,37.4282936,-122.0768725,,12.760298,0.1,254.55095,1595626063441
Fix,GT,37.4282585,-122.0770069,,12.248308,0.1,252.92323,1595626064441
Fix,GT,37.4282238,-122.0771347,,11.667055,0.1,252.65787,1595626065441
Fix,GT,37.4281924,-122.0772575,,11.215233,0.1,254.49326,1595626066441
Fix,GT,37.4281678,-122.077378,,10.863766,0.1,258.2073,1595626067441
Fix,GT,37.4281502,-122.0774959,,10.35207,0.1,261.75943,1595626068441
Fix,GT,37.4281382,-122.0776068,,9.38653,0.1,264.17422,1595626069441
Fix,GT,37.4281307,-122.0777052,,8.145853,0.1,266.70493,1595626070441
Fix,GT,37.4281277,-122.0777899,,6.876048,0.1,269.2002,1595626071441
Fix,GT,37.4281266,-122.077859,,5.323799,0.1,270.26324,1595626072441
Fix,GT,37.4281258,-122.07791,,3.8406973,0.1,270.4369,1595626073441
Fix,GT,37.4281251,-122.0779494,,3.3949277,0.1,270.33603,1595626074441
Fix,GT,37.4281215,-122.0779915,,4.1468124,0.1,265.90634,1595626075441
Fix,GT,37.4281071,-122.0780424,,5.287445,0.1,253.15475,1595626076441
Fix,GT,37.4280786,-122.0780967,,6.041626,0.1,237.94905,1595626077441
Fix,GT,37.4280366,-122.0781453,,6.5521164,0.1,222.73642,1595626078441
Fix,GT,37.4279808,-122.0781776,,7.0960436,0.1,204.11397,1595626079441
Fix,GT,37.4279135,-122.0781893,,8.044845,0.1,188.04437,1595626080441
Fix,GT,37.4278346,-122.0781889,,9.484091,0.1,180.69218,1595626081441
Fix,GT,37.4277423,-122.0781842,,10.951546,0.1,178.95374,1595626082441
Fix,GT,37.4276385,-122.0781762,,12.053263,0.1,177.4956,1595626083441
Fix,GT,37.4275263,-122.0781641,,12.939946,0.1,176.15509,1595626084441
Fix,GT,37.4274067,-122.0781486,,13.77026,0.1,175.1966,1595626085441
Fix,GT,37.4272803,-122.0781298,,14.446663,0.1,174.2981,1595626086441
Fix,GT,37.4271489,-122.0781095,,14.907752,0.1,174.59436,1595626087441
Fix,GT,37.4270137,-122.0780924,,15.257477,0.1,176.08148,1595626088441
Fix,GT,37.4268753,-122.0780786,,15.5772705,0.1,177.11243,1595626089441
Fix,GT,37.426734,-122.0780671,,15.836541,0.1,177.99133,1595626090441
Fix,GT,37.4265908,-122.0780589,,15.993106,0.1,179.2309,1595626091441
Fix,GT,37.4264465,-122.0780547,,16.087696,0.1,180.44647,1595626092441
Fix,GT,37.4263014,-122.0780545,,16.101095,0.1,181.85062,1595626093441
Fix,GT,37.426157,-122.0780588,,15.990092,0.1,183.31613,1595626094441
Fix,GT,37.4260135,-122.0780671,,15.904146,0.1,184.39078,1595626095441
Fix,GT,37.4258708,-122.0780779,,15.837259,0.1,185.12123,1595626096441
Fix,GT,37.4257288,-122.0780903,,15.766235,0.1,185.63728,1595626097441
Fix,GT,37.4255874,-122.0781038,,15.715349,0.1,185.86998,1595626098441
Fix,GT,37.4254466,-122.0781181,,15.641996,0.1,186.06026,1595626099441
Fix,GT,37.4253065,-122.0781322,,15.553521,0.1,185.80482,1595626100441
Fix,GT,37.4251671,-122.0781433,,15.440265,0.1,184.42574,1595626101441
Fix,GT,37.4250282,-122.0781495,,15.384663,0.1,182.84148,1595626102441
Fix,GT,37.4248893,-122.0781524,,15.424188,0.1,182.0901,1595626103441
Fix,GT,37.4247504,-122.0781532,,15.418674,0.1,181.32,1595626104441
Fix,GT,37.424612,-122.0781507,,15.352767,0.1,179.99263,1595626105441
Fix,GT,37.4244744,-122.0781442,,15.192967,0.1,178.68774,1595626106441
Fix,GT,37.4243396,-122.078135,,14.787155,0.1,177.95642,1595626107441
Fix,GT,37.4242091,-122.0781239,,14.252777,0.1,177.26477,1595626108441
Fix,GT,37.4240836,-122.0781116,,13.641591,0.1,176.72925,1595626109441
Fix,GT,37.4239653,-122.0780994,,12.651186,0.1,176.64075,1595626110441
Fix,GT,37.4238569,-122.0780886,,11.466005,0.1,176.95319,1595626111441
Fix,GT,37.4237596,-122.0780801,,10.189963,0.1,177.58551,1595626112441
Fix,GT,37.4236748,-122.078074,,8.732056,0.1,178.30817,1595626113441
Fix,GT,37.4236031,-122.0780709,,7.195676,0.1,179.94452,1595626114441
Fix,GT,37.4235443,-122.0780756,,6.0045996,0.1,186.69165,1595626115441
Fix,GT,37.4234963,-122.0780954,,5.5576124,0.1,200.93265,1595626116441
Fix,GT,37.4234577,-122.078135,,5.8463387,0.1,221.11595,1595626117441
Fix,GT,37.4234326,-122.0781966,,6.7695885,0.1,244.94281,1595626118441
Fix,GT,37.423423,-122.0782772,,7.958784,0.1,263.4674,1595626119441
Fix,GT,37.4234206,-122.0783748,,9.291397,0.1,269.38864,1595626120441
Fix,GT,37.4234169,-122.0784866,,10.498667,0.1,268.85602,1595626121441
Fix,GT,37.4234113,-122.0786117,,11.734316,0.1,268.04712,1595626122441
Fix,GT,37.4234046,-122.0787514,,13.013805,0.1,267.93048,1595626123441
Fix,GT,37.4233978,-122.0789047,,14.117775,0.1,268.37762,1595626124441
Fix,GT,37.4233916,-122.0790691,,15.0128765,0.1,268.7091,1595626125441
Fix,GT,37.4233847,-122.0792425,,15.69125,0.1,268.24585,1595626126441
Fix,GT,37.4233755,-122.0794215,,16.027678,0.1,267.46808,1595626127441
Fix,GT,37.4233649,-122.0796025,,16.078575,0.1,267.04138,1595626128441
Fix,GT,37.4233531,-122.0797836,,16.137905,0.1,266.44507,1595626129441
Fix,GT,37.4233391,-122.0799666,,16.43039,0.1,265.64566,1595626130441
Fix,GT,37.4233232,-122.0801533,,16.794712,0.1,265.07068,1595626131441
Fix,GT,37.4233057,-122.0803435,,17.093237,0.1,264.6593,1595626132441
Fix,GT,37.4232871,-122.0805369,,17.387512,0.1,264.48138,1595626133441
Fix,GT,37.4232682,-122.0807338,,17.730104,0.1,264.51538,1595626134441
Fix,GT,37.4232493,-122.0809344,,18.002241,0.1,264.77484,1595626135441
Fix,GT,37.4232313,-122.0811373,,18.109629,0.1,265.2029,1595626136441
Fix,GT,37.4232144,-122.0813407,,18.057022,0.1,265.53455,1595626137441
Fix,GT,37.423198,-122.0815429,,17.922413,0.1,265.55475,1595626138441
Fix,GT,37.4231812,-122.0817435,,17.816874,0.1,265.40167,1595626139441
Fix,GT,37.4231648,-122.0819435,,17.829407,0.1,265.50824,1595626140441
Fix,GT,37.4231485,-122.0821449,,18.024933,0.1,265.56345,1595626141441
Fix,GT,37.423132,-122.0823488,,18.25015,0.1,265.7391,1595626142441
Fix,GT,37.4231173,-122.0825549,,18.393696,0.1,266.75836,1595626143441
Fix,GT,37.4231062,-122.0827628,,18.488472,0.1,268.14227,1595626144441
Fix,GT,37.4230988,-122.0829719,,18.53828,0.1,269.2246,1595626145441
Fix,GT,37.4230941,-122.0831812,,18.526096,0.1,270.18555,1595626146441
Fix,GT,37.4230926,-122.0833903,,18.513567,0.1,271.42142,1595626147441
Fix,GT,37.4230949,-122.0835998,,18.594334,0.1,272.6134,1595626148441
Fix,GT,37.4231003,-122.08381,,18.6614,0.1,273.7747,1595626149441
Fix,GT,37.4231098,-122.0840205,,18.659937,0.1,275.26935,1595626150441
Fix,GT,37.4231236,-122.0842303,,18.60878,0.1,276.7067,1595626151441
Fix,GT,37.4231413,-122.0844389,,18.530163,0.1,277.97864,1595626152441
Fix,GT,37.4231626,-122.084646,,18.44898,0.1,279.31723,1595626153441
Fix,GT,37.4231874,-122.0848517,,18.397396,0.1,280.50684,1595626154441
Fix,GT,37.423215,-122.0850568,,18.439106,0.1,281.39087,1595626155441
Fix,GT,37.4232452,-122.0852623,,18.573563,0.1,282.2162,1595626156441
Fix,GT,37.4232781,-122.0854687,,18.69367,0.1,283.0463,1595626157441
Fix,GT,37.4233135,-122.0856758,,18.821325,0.1,283.9051,1595626158441
Fix,GT,37.4233517,-122.0858837,,18.935335,0.1,284.67264,1595626159441
Fix,GT,37.4233918,-122.0860922,,19.044735,0.1,285.15878,1595626160441
Fix,GT,37.4234332,-122.086302,,19.202745,0.1,285.34308,1595626161441
Fix,GT,37.4234746,-122.0865129,,19.263653,0.1,285.21405,1595626162441
Fix,GT,37.423516,-122.0867238,,19.217146,0.1,285.3823,1595626163441
Fix,GT,37.4235589,-122.0869345,,19.27258,0.1,285.9095,1595626164441
Fix,GT,37.4236026,-122.0871458,,19.36105,0.1,285.8426,1595626165441
Fix,GT,37.4236455,-122.0873582,,19.448112,0.1,285.37573,1595626166441
Fix,GT,37.423687,-122.0875722,,19.545002,0.1,284.86633,1595626167441
Fix,GT,37.4237273,-122.0877877,,19.620235,0.1,284.42883,1595626168441
Fix,GT,37.4237667,-122.0880039,,19.616833,0.1,284.14172,1595626169441
Fix,GT,37.4238055,-122.0882194,,19.457073,0.1,284.15985,1595626170441
Fix,GT,37.4238443,-122.0884321,,19.18948,0.1,284.3713,1595626171441
Fix,GT,37.4238827,-122.0886416,,18.855267,0.1,284.2063,1595626172441
Fix,GT,37.4239179,-122.0888478,,18.447811,0.1,282.741,1595626173441
Fix,GT,37.4239451,-122.089051,,18.02214,0.1,279.2506,1595626174441
Fix,GT,37.4239589,-122.0892516,,17.648003,0.1,273.94635,1595626175441
Fix,GT,37.4239562,-122.0894489,,17.282906,0.1,268.04758,1595626176441
Fix,GT,37.4239374,-122.0896408,,16.987654,0.1,262.1624,1595626177441
Fix,GT,37.4239042,-122.089827,,16.780312,0.1,256.82236,1595626178441
Fix,GT,37.4238602,-122.0900067,,16.488365,0.1,253.15222,1595626179441
Fix,GT,37.4238103,-122.0901805,,16.255474,0.1,250.98442,1595626180441
Fix,GT,37.4237574,-122.0903513,,16.19113,0.1,249.83441,1595626181441
Fix,GT,37.4237021,-122.0905199,,16.043978,0.1,248.4972,1595626182441
Fix,GT,37.4236424,-122.0906835,,15.781135,0.1,245.54419,1595626183441
Fix,GT,37.4235749,-122.0908382,,15.428625,0.1,240.73291,1595626184441
Fix,GT,37.4234981,-122.0909809,,15.071518,0.1,235.41098,1595626185441
Fix,GT,37.423414,-122.0911129,,14.837847,0.1,231.42712,1595626186441
Fix,GT,37.4233244,-122.0912361,,14.680862,0.1,227.51904,1595626187441
Fix,GT,37.4232286,-122.0913492,,14.507935,0.1,223.11496,1595626188441
Fix,GT,37.423128,-122.0914515,,14.233362,0.1,219.21695,1595626189441
Fix,GT,37.4230261,-122.091546,,13.871429,0.1,217.92426,1595626190441
Fix,GT,37.4229302,-122.0916423,,13.482483,0.1,222.03055,1595626191441
Fix,GT,37.4228479,-122.0917503,,13.142796,0.1,231.2978,1595626192441
Fix,GT,37.4227832,-122.0918718,,13.005005,0.1,240.66833,1595626193441
Fix,GT,37.4227298,-122.0920039,,13.346939,0.1,245.6229,1595626194441
Fix,GT,37.4226786,-122.092144,,13.947005,0.1,247.04057,1595626195441
Fix,GT,37.4226267,-122.09229,,14.295982,0.1,247.47305,1595626196441
Fix,GT,37.4225748,-122.0924368,,14.006531,0.1,247.58328,1595626197441
Fix,GT,37.4225257,-122.0925765,,12.840826,0.1,247.72253,1595626198441
Fix,GT,37.4224829,-122.0927004,,10.892334,0.1,248.22466,1595626199441
Fix,GT,37.4224493,-122.0928012,,8.581857,0.1,249.0835,1595626200441
Fix,GT,37.4224232,-122.0928829,,7.205513,0.1,249.78268,1595626201441
Fix,GT,37.4224006,-122.0929575,,6.9646606,0.1,250.90787,1595626202441
Fix,GT,37.4223788,-122.0930338,,7.6115103,0.1,251.95801,1595626203441
Fix,GT,37.422355,-122.0931238,,9.266938,0.1,253.40971,1595626204441
Fix,GT,37.4223301,-122.0932338,,10.858009,0.1,256.4331,1595626205441
Fix,GT,37.4223105,-122.09336,,11.906443,0.1,262.1205,1595626206441
Fix,GT,37.4223046,-122.0934986,,12.83662,0.1,271.14743,1595626207441
Fix,GT,37.4223198,-122.0936467,,13.8480015,0.1,282.14807,1595626208441
Fix,GT,37.42236,-122.0937999,,14.9656925,0.1,293.01532,1595626209441
Fix,GT,37.4224234,-122.0939565,,16.323368,0.1,300.82108,1595626210441
Fix,GT,37.4225062,-122.0941186,,17.847435,0.1,305.57745,1595626211441
Fix,GT,37.4226062,-122.0942877,,19.493214,0.1,309.07208,1595626212441
Fix,GT,37.4227207,-122.0944654,,20.926455,0.1,310.9917,1595626213441
Fix,GT,37.4228454,-122.0946509,,21.985554,0.1,311.92914,1595626214441
Fix,GT,37.4229777,-122.0948433,,22.952648,0.1,312.3458,1595626215441
Fix,GT,37.4231165,-122.0950427,,23.889221,0.1,312.63263,1595626216441
Fix,GT,37.4232609,-122.0952493,,24.72025,0.1,312.6673,1595626217441
Fix,GT,37.4234104,-122.0954618,,25.406736,0.1,312.9523,1595626218441
Fix,GT,37.423565,-122.0956782,,26.005667,0.1,313.4618,1595626219441
Fix,GT,37.4237239,-122.0958985,,26.568462,0.1,313.64038,1595626220441
Fix,GT,37.4238866,-122.0961228,,27.12956,0.1,313.76453,1595626221441
Fix,GT,37.4240533,-122.0963515,,27.6937,0.1,313.8627,1595626222441
Fix,GT,37.4242231,-122.096584,,28.10127,0.1,313.89893,1595626223441
Fix,GT,37.4243946,-122.0968196,,28.360542,0.1,313.71387,1595626224441
Fix,GT,37.4245674,-122.0970578,,28.609005,0.1,313.90103,1595626225441
Fix,GT,37.4247436,-122.0972949,,28.793488,0.1,315.03122,1595626226441
Fix,GT,37.4249255,-122.0975289,,29.104725,0.1,316.28015,1595626227441
Fix,GT,37.4251136,-122.0977616,,29.553665,0.1,317.2881,1595626228441
Fix,GT,37.4253078,-122.0979934,,29.94693,0.1,318.39737,1595626229441
Fix,GT,37.4255077,-122.0982231,,30.238815,0.1,319.42017,1595626230441
Fix,GT,37.4257122,-122.0984504,,30.43162,0.1,320.28134,1595626231441
Fix,GT,37.4259202,-122.0986753,,30.556702,0.1,321.0546,1595626232441
Fix,GT,37.4261311,-122.0988983,,30.69055,0.1,321.5233,1595626233441
Fix,GT,37.426344,-122.0991202,,30.728792,0.1,321.85236,1595626234441
Fix,GT,37.4265572,-122.0993405,,30.543282,0.1,322.09717,1595626235441
Fix,GT,37.4267687,-122.0995582,,30.20517,0.1,322.00214,1595626236441
Fix,GT,37.4269777,-122.099775,,29.995966,0.1,321.66116,1595626237441
Fix,GT,37.427185,-122.0999924,,30.067787,0.1,321.50522,1595626238441
Fix,GT,37.4273931,-122.1002117,,30.285618,0.1,321.2124,1595626239441
Fix,GT,37.4276016,-122.1004343,,30.468513,0.1,320.9461,1595626240441
Fix,GT,37.4278109,-122.1006584,,30.623762,0.1,321.07373,1595626241441
Fix,GT,37.4280222,-122.1008824,,30.80135,0.1,321.33435,1595626242441
Fix,GT,37.4282353,-122.101107,,30.99768,0.1,321.50793,1595626243441
Fix,GT,37.4284502,-122.1013323,,31.186169,0.1,321.612,1595626244441
Fix,GT,37.4286663,-122.1015589,,31.336143,0.1,321.46683,1595626245441
Fix,GT,37.4288824,-122.1017877,,31.452045,0.1,321.15286,1595626246441
Fix,GT,37.429099,-122.1020182,,31.594074,0.1,321.1769,1595626247441
Fix,GT,37.4293172,-122.1022491,,31.77944,0.1,321.42416,1595626248441
Fix,GT,37.4295374,-122.1024807,,32.023132,0.1,321.475,1595626249441
Fix,GT,37.4297591,-122.1027142,,32.267418,0.1,321.4555,1595626250441
Fix,GT,37.4299827,-122.1029495,,32.52626,0.1,321.5559,1595626251441
Fix,GT,37.4302088,-122.1031856,,32.75847,0.1,321.72382,1595626252441
Fix,GT,37.4304364,-122.1034228,,32.934357,0.1,321.7701,1595626253441
Fix,GT,37.4306652,-122.1036613,,33.105927,0.1,321.64914,1595626254441
Fix,GT,37.4308944,-122.1039018,,33.223274,0.1,321.4761,1595626255441
Fix,GT,37.4311237,-122.1041437,,33.29521,0.1,321.3744,1595626256441
Fix,GT,37.4313535,-122.1043863,,33.387383,0.1,321.43423,1595626257441
Fix,GT,37.4315843,-122.1046292,,33.492096,0.1,321.5248,1595626258441
Fix,GT,37.4318159,-122.1048725,,33.560787,0.1,321.52505,1595626259441
Fix,GT,37.4320479,-122.1051159,,33.588867,0.1,321.5702,1595626260441
Fix,GT,37.4322802,-122.1053596,,33.622936,0.1,321.53104,1595626261441
Fix,GT,37.4325126,-122.1056042,,33.73242,0.1,321.34906,1595626262441
Fix,GT,37.4327457,-122.1058504,,33.89296,0.1,321.35504,1595626263441
Fix,GT,37.43298,-122.1060971,,34.00245,0.1,321.5513,1595626264441
Fix,GT,37.4332153,-122.1063436,,34.053024,0.1,321.61572,1595626265441
Fix,GT,37.4334508,-122.10659,,33.994858,0.1,321.63745,1595626266441
Fix,GT,37.4336853,-122.1068356,,33.820786,0.1,321.62042,1595626267441
Fix,GT,37.4339184,-122.1070795,,33.52174,0.1,321.6373,1595626268441
Fix,GT,37.4341493,-122.1073205,,33.142044,0.1,321.75848,1595626269441
Fix,GT,37.4343776,-122.1075582,,32.730602,0.1,321.7362,1595626270441
Fix,GT,37.4346026,-122.1077937,,32.32038,0.1,321.51984,1595626271441
Fix,GT,37.4348242,-122.108027,,31.905323,0.1,321.473,1595626272441
Fix,GT,37.4350432,-122.1082567,,31.475744,0.1,321.59338,1595626273441
Fix,GT,37.435259,-122.1084828,,30.923834,0.1,321.57565,1595626274441
Fix,GT,37.4354705,-122.1087045,,30.230972,0.1,321.61862,1595626275441
Fix,GT,37.4356776,-122.1089209,,29.621754,0.1,321.7029,1595626276441
Fix,GT,37.4358809,-122.1091331,,29.101482,0.1,321.73135,1595626277441
Fix,GT,37.4360807,-122.1093416,,28.597616,0.1,321.69363,1595626278441
Fix,GT,37.4362768,-122.1095468,,28.106113,0.1,321.55057,1595626279441
Fix,GT,37.4364692,-122.1097491,,27.649504,0.1,321.45526,1595626280441
Fix,GT,37.4366588,-122.1099487,,27.319614,0.1,321.55273,1595626281441
Fix,GT,37.4368474,-122.1101458,,27.22007,0.1,321.7156,1595626282441
Fix,GT,37.4370363,-122.1103431,,27.417156,0.1,321.58167,1595626283441
Fix,GT,37.4372264,-122.1105438,,27.719654,0.1,321.21124,1595626284441
Fix,GT,37.4374178,-122.1107472,,27.9525,0.1,321.20068,1595626285441
Fix,GT,37.437611,-122.1109515,,28.1433,0.1,321.47537,1595626286441
Fix,GT,37.4378061,-122.1111563,,28.326973,0.1,321.5548,1595626287441
Fix,GT,37.4380024,-122.1113625,,28.516487,0.1,321.47943,1595626288441
Fix,GT,37.4382002,-122.1115698,,28.688446,0.1,321.64774,1595626289441
Fix,GT,37.4383995,-122.1117776,,28.8443,0.1,321.76086,1595626290441
Fix,GT,37.4385998,-122.1119867,,29.034422,0.1,321.61584,1595626291441
Fix,GT,37.4388012,-122.1121978,,29.203749,0.1,321.5661,1595626292441
Fix,GT,37.4390034,-122.1124093,,29.223112,0.1,321.66113,1595626293441
Fix,GT,37.4392055,-122.1126203,,29.12879,0.1,321.74615,1595626294441
Fix,GT,37.4394068,-122.1128302,,28.986603,0.1,321.7174,1595626295441
Fix,GT,37.4396068,-122.1130394,,28.840984,0.1,321.53223,1595626296441
Fix,GT,37.4398057,-122.1132486,,28.814524,0.1,321.35852,1595626297441
Fix,GT,37.4400044,-122.1134589,,28.901575,0.1,321.2762,1595626298441
Fix,GT,37.4402036,-122.1136703,,29.001286,0.1,321.26788,1595626299441
Fix,GT,37.4404033,-122.1138818,,29.027258,0.1,321.4194,1595626300441
Fix,GT,37.4406039,-122.1140926,,29.060183,0.1,321.57953,1595626301441
Fix,GT,37.440805,-122.1143035,,29.137665,0.1,321.52237,1595626302441
Fix,GT,37.4410064,-122.1145153,,29.18708,0.1,321.47653,1595626303441
Fix,GT,37.441208,-122.1147268,,29.145267,0.1,321.70328,1595626304441
Fix,GT,37.4414099,-122.1149365,,29.035255,0.1,321.97034,1595626305441
Fix,GT,37.4416113,-122.115145,,28.937025,0.1,321.82297,1595626306441
Fix,GT,37.4418114,-122.1153541,,28.896587,0.1,321.57748,1595626307441
Fix,GT,37.442011,-122.115564,,28.892841,0.1,321.4585,1595626308441
Fix,GT,37.4422102,-122.1157738,,28.837387,0.1,321.40512,1595626309441
Fix,GT,37.4424086,-122.115983,,28.687193,0.1,321.42014,1595626310441
Fix,GT,37.4426061,-122.1161912,,28.601767,0.1,321.45764,1595626311441
Fix,GT,37.4428036,-122.1163991,,28.636332,0.1,321.4806,1595626312441
Fix,GT,37.4430012,-122.116607,,28.61303,0.1,321.4625,1595626313441
Fix,GT,37.4431981,-122.1168145,,28.425907,0.1,321.3893,1595626314441
Fix,GT,37.4433932,-122.1170204,,28.170263,0.1,321.41254,1595626315441
Fix,GT,37.443587,-122.1172246,,28.066284,0.1,321.52103,1595626316441
Fix,GT,37.4437814,-122.1174284,,28.23729,0.1,321.61237,1595626317441
Fix,GT,37.4439778,-122.1176337,,28.50298,0.1,321.6997,1595626318441
Fix,GT,37.4441759,-122.1178404,,28.68888,0.1,321.74637,1595626319441
Fix,GT,37.4443753,-122.1180482,,28.857853,0.1,321.7413,1595626320441
Fix,GT,37.4445756,-122.1182571,,28.950996,0.1,321.73215,1595626321441
Fix,GT,37.4447765,-122.1184661,,28.982174,0.1,321.8355,1595626322441
Fix,GT,37.4449776,-122.1186746,,28.908947,0.1,321.88504,1595626323441
Fix,GT,37.4451776,-122.1188823,,28.723185,0.1,321.7495,1595626324441
Fix,GT,37.445376,-122.1190894,,28.648876,0.1,321.58093,1595626325441
Fix,GT,37.4455744,-122.1192974,,28.726753,0.1,321.46857,1595626326441
Fix,GT,37.4457729,-122.1195062,,28.774673,0.1,321.4268,1595626327441
Fix,GT,37.4459714,-122.1197157,,28.80204,0.1,321.27545,1595626328441
Fix,GT,37.4461695,-122.1199265,,28.883076,0.1,321.0589,1595626329441
Fix,GT,37.4463682,-122.1201384,,29.018818,0.1,321.12692,1595626330441
Fix,GT,37.4465684,-122.1203505,,29.12953,0.1,321.38022,1595626331441
Fix,GT,37.4467695,-122.1205622,,29.136251,0.1,321.5318,1595626332441
Fix,GT,37.4469707,-122.1207732,,29.090881,0.1,321.60638,1595626333441
Fix,GT,37.447172,-122.1209833,,29.048779,0.1,321.78915,1595626334441
Fix,GT,37.4473731,-122.1211923,,28.932201,0.1,321.87268,1595626335441
Fix,GT,37.447573,-122.1214001,,28.671577,0.1,321.79877,1595626336441
Fix,GT,37.4477701,-122.1216059,,28.237503,0.1,321.60446,1595626337441
Fix,GT,37.4479633,-122.1218087,,27.672558,0.1,321.43707,1595626338441
Fix,GT,37.4481526,-122.1220079,,27.227161,0.1,321.50507,1595626339441
Fix,GT,37.4483398,-122.1222036,,26.856577,0.1,321.7504,1595626340441
Fix,GT,37.4485251,-122.1223957,,26.492535,0.1,321.91647,1595626341441
Fix,GT,37.448708,-122.122585,,26.17154,0.1,321.83185,1595626342441
Fix,GT,37.4488888,-122.1227736,,26.076992,0.1,321.5592,1595626343441
Fix,GT,37.4490692,-122.1229635,,26.190586,0.1,321.27216,1595626344441
Fix,GT,37.4492497,-122.1231545,,26.239948,0.1,321.34622,1595626345441
Fix,GT,37.4494309,-122.1233458,,26.332695,0.1,321.3279,1595626346441
Fix,GT,37.4496126,-122.1235393,,26.606726,0.1,320.9301,1595626347441
Fix,GT,37.4497961,-122.123736,,26.989965,0.1,321.0107,1595626348441
Fix,GT,37.4499831,-122.123935,,27.413391,0.1,321.3328,1595626349441
Fix,GT,37.4501731,-122.1241347,,27.562141,0.1,321.60452,1595626350441
Fix,GT,37.4503631,-122.1243339,,27.389015,0.1,321.56335,1595626351441
Fix,GT,37.4505511,-122.1245338,,27.35327,0.1,320.81125,1595626352441
Fix,GT,37.4507364,-122.1247375,,27.312832,0.1,319.72504,1595626353441
Fix,GT,37.4509177,-122.1249431,,26.856297,0.1,319.07855,1595626354441
Fix,GT,37.4510932,-122.1251458,,25.994265,0.1,318.54553,1595626355441
Fix,GT,37.4512594,-122.1253425,,24.726334,0.1,317.73224,1595626356441
Fix,GT,37.4514152,-122.1255331,,23.670357,0.1,316.70694,1595626357441
Fix,GT,37.4515636,-122.125721,,23.164768,0.1,315.6864,1595626358441
Fix,GT,37.4517068,-122.1259087,,22.861225,0.1,314.83093,1595626359441
Fix,GT,37.4518467,-122.1260973,,22.743122,0.1,313.98557,1595626360441
Fix,GT,37.4519842,-122.126289,,22.95373,0.1,312.9254,1595626361441
Fix,GT,37.4521207,-122.1264874,,23.402454,0.1,311.70233,1595626362441
Fix,GT,37.4522565,-122.1266922,,23.654171,0.1,310.7995,1595626363441
Fix,GT,37.4523905,-122.1269,,23.623106,0.1,310.03418,1595626364441
Fix,GT,37.452522,-122.1271099,,23.651606,0.1,309.20316,1595626365441
Fix,GT,37.4526516,-122.1273232,,23.808575,0.1,308.4405,1595626366441
Fix,GT,37.4527802,-122.1275396,,23.980495,0.1,307.9747,1595626367441
Fix,GT,37.4529087,-122.1277587,,24.153717,0.1,307.6119,1595626368441
Fix,GT,37.4530375,-122.1279801,,24.328735,0.1,307.46368,1595626369441
Fix,GT,37.4531671,-122.1282026,,24.420708,0.1,307.6754,1595626370441
Fix,GT,37.4532975,-122.128425,,24.468554,0.1,307.86853,1595626371441
Fix,GT,37.4534291,-122.1286474,,24.551292,0.1,308.01703,1595626372441
Fix,GT,37.4535614,-122.1288707,,24.678745,0.1,308.03607,1595626373441
Fix,GT,37.4536946,-122.1290965,,25.08987,0.1,307.84906,1595626374441
Fix,GT,37.45383,-122.1293275,,25.656916,0.1,307.69498,1595626375441
Fix,GT,37.4539681,-122.1295637,,26.161503,0.1,307.72906,1595626376441
Fix,GT,37.4541086,-122.1298033,,26.436783,0.1,307.78183,1595626377441
Fix,GT,37.4542496,-122.1300446,,26.497572,0.1,307.63043,1595626378441
Fix,GT,37.4543906,-122.1302868,,26.62358,0.1,307.51154,1595626379441
Fix,GT,37.4545326,-122.1305309,,26.856157,0.1,307.56396,1595626380441
Fix,GT,37.4546759,-122.1307772,,27.120853,0.1,307.5317,1595626381441
Fix,GT,37.4548209,-122.1310262,,27.44054,0.1,307.57965,1595626382441
Fix,GT,37.4549675,-122.131278,,27.683887,0.1,307.5502,1595626383441
Fix,GT,37.4551146,-122.1315307,,27.639917,0.1,307.59756,1595626384441
Fix,GT,37.4552613,-122.1317814,,27.396698,0.1,307.76865,1595626385441
Fix,GT,37.4554071,-122.1320291,,27.114498,0.1,307.97464,1595626386441
Fix,GT,37.4555521,-122.1322736,,26.812037,0.1,308.1677,1595626387441
Fix,GT,37.4556964,-122.1325157,,26.722275,0.1,308.16504,1595626388441
Fix,GT,37.4558407,-122.1327592,,27.0121,0.1,307.8813,1595626389441
Fix,GT,37.4559859,-122.133006,,27.243095,0.1,307.8481,1595626390441
Fix,GT,37.4561319,-122.1332532,,27.194756,0.1,308.03275,1595626391441
Fix,GT,37.4562781,-122.1335001,,27.277273,0.1,307.96725,1595626392441
Fix,GT,37.4564248,-122.1337496,,27.5853,0.1,307.7438,1595626393441
Fix,GT,37.4565726,-122.1340027,,27.921635,0.1,307.64978,1595626394441
Fix,GT,37.4567222,-122.1342582,,28.1562,0.1,307.7451,1595626395441
Fix,GT,37.456873,-122.1345148,,28.26432,0.1,307.9654,1595626396441
Fix,GT,37.4570252,-122.1347717,,28.360199,0.1,308.06604,1595626397441
Fix,GT,37.4571779,-122.1350294,,28.459824,0.1,308.05005,1595626398441
Fix,GT,37.4573312,-122.1352879,,28.541183,0.1,308.07367,1595626399441
Fix,GT,37.457485,-122.135547,,28.619125,0.1,308.0943,1595626400441
Fix,GT,37.4576392,-122.1358065,,28.647488,0.1,308.1755,1595626401441
Fix,GT,37.4577935,-122.1360653,,28.520397,0.1,308.3006,1595626402441
Fix,GT,37.4579468,-122.1363223,,28.276787,0.1,308.13785,1595626403441
Fix,GT,37.4580979,-122.1365782,,28.07414,0.1,307.79968,1595626404441
Fix,GT,37.4582473,-122.1368329,,27.86962,0.1,307.7354,1595626405441
Fix,GT,37.4583956,-122.1370862,,27.76403,0.1,307.65622,1595626406441
Fix,GT,37.4585436,-122.13734,,27.909483,0.1,307.59058,1595626407441
Fix,GT,37.4586928,-122.1375952,,28.111023,0.1,307.71335,1595626408441
Fix,GT,37.4588434,-122.1378514,,28.217525,0.1,307.91104,1595626409441
Fix,GT,37.4589949,-122.1381082,,28.334076,0.1,307.90234,1595626410441
Fix,GT,37.4591471,-122.1383667,,28.501194,0.1,307.80142,1595626411441
Fix,GT,37.4592996,-122.1386268,,28.631218,0.1,307.71,1595626412441
Fix,GT,37.4594523,-122.1388882,,28.718142,0.1,307.6457,1595626413441
Fix,GT,37.4596053,-122.1391502,,28.762016,0.1,307.65,1595626414441
Fix,GT,37.4597587,-122.1394125,,28.808424,0.1,307.7059,1595626415441
Fix,GT,37.4599128,-122.1396755,,28.966288,0.1,307.78503,1595626416441
Fix,GT,37.4600681,-122.13994,,29.168262,0.1,307.81485,1595626417441
Fix,GT,37.4602241,-122.1402059,,29.198084,0.1,307.77603,1595626418441
Fix,GT,37.4603795,-122.140471,,29.020197,0.1,307.82053,1595626419441
Fix,GT,37.4605342,-122.1407344,,28.90802,0.1,307.84915,1595626420441
Fix,GT,37.4606886,-122.1409981,,29.02655,0.1,307.6417,1595626421441
Fix,GT,37.4608438,-122.1412635,,29.177284,0.1,307.69147,1595626422441
Fix,GT,37.4610001,-122.141529,,29.211897,0.1,308.0421,1595626423441
Fix,GT,37.4611571,-122.1417939,,29.211971,0.1,307.95264,1595626424441
Fix,GT,37.4613134,-122.1420596,,29.197723,0.1,307.6972,1595626425441
Fix,GT,37.4614685,-122.1423259,,29.14315,0.1,307.61685,1595626426441
Fix,GT,37.4616239,-122.1425917,,29.165611,0.1,307.77664,1595626427441
Fix,GT,37.4617798,-122.1428569,,29.080032,0.1,307.86368,1595626428441
Fix,GT,37.4619334,-122.1431194,,28.509144,0.1,307.6127,1595626429441
Fix,GT,37.4620827,-122.1433764,,27.779648,0.1,307.43457,1595626430441
Fix,GT,37.4622278,-122.1436283,,27.221222,0.1,307.15268,1595626431441
Fix,GT,37.4623692,-122.1438759,,26.702053,0.1,307.00485,1595626432441
Fix,GT,37.4625087,-122.1441186,,26.27116,0.1,307.41803,1595626433441
Fix,GT,37.4626474,-122.1443571,,25.958908,0.1,307.4094,1595626434441
Fix,GT,37.462783,-122.1445944,,25.727848,0.1,306.66104,1595626435441
Fix,GT,37.4629152,-122.1448331,,25.807068,0.1,306.00928,1595626436441
Fix,GT,37.4630479,-122.145077,,26.533646,0.1,305.62366,1595626437441
Fix,GT,37.4631858,-122.1453296,,27.629715,0.1,306.06174,1595626438441
Fix,GT,37.4633322,-122.1455897,,28.711346,0.1,307.16904,1595626439441
Fix,GT,37.4634874,-122.1458561,,29.637049,0.1,307.83936,1595626440441
Fix,GT,37.4636486,-122.1461282,,30.284294,0.1,308.15436,1595626441441
Fix,GT,37.4638132,-122.1464046,,30.703003,0.1,308.10135,1595626442441
Fix,GT,37.4639787,-122.1466843,,30.886652,0.1,308.0162,1595626443441
Fix,GT,37.4641449,-122.1469645,,30.88689,0.1,308.07407,1595626444441
Fix,GT,37.4643105,-122.1472447,,30.843231,0.1,307.82278,1595626445441
Fix,GT,37.464475,-122.1475259,,30.877178,0.1,307.583,1595626446441
Fix,GT,37.4646393,-122.1478077,,30.87657,0.1,307.5674,1595626447441
Fix,GT,37.4648033,-122.1480893,,30.812342,0.1,307.5829,1595626448441
Fix,GT,37.4649671,-122.1483699,,30.743778,0.1,307.67673,1595626449441
Fix,GT,37.4651311,-122.1486503,,30.811584,0.1,307.70862,1595626450441
Fix,GT,37.4652958,-122.1489319,,30.97966,0.1,307.67145,1595626451441
Fix,GT,37.4654609,-122.149215,,31.07667,0.1,307.601,1595626452441
Fix,GT,37.4656263,-122.149499,,31.16327,0.1,307.5814,1595626453441
Fix,GT,37.4657923,-122.1497844,,31.359314,0.1,307.56805,1595626454441
Fix,GT,37.4659598,-122.1500716,,31.636543,0.1,307.6753,1595626455441
Fix,GT,37.4661295,-122.150361,,31.915257,0.1,307.841,1595626456441
Fix,GT,37.466301,-122.1506527,,32.206482,0.1,307.82214,1595626457441
Fix,GT,37.4664736,-122.1509469,,32.423237,0.1,307.763,1595626458441
Fix,GT,37.466647,-122.1512427,,32.500107,0.1,307.78943,1595626459441
Fix,GT,37.4668207,-122.1515384,,32.473587,0.1,307.87476,1595626460441
Fix,GT,37.4669943,-122.1518334,,32.416348,0.1,307.8866,1595626461441
Fix,GT,37.4671677,-122.1521281,,32.38938,0.1,307.78647,1595626462441
Fix,GT,37.4673405,-122.1524229,,32.37391,0.1,307.75168,1595626463441
Fix,GT,37.4675135,-122.1527176,,32.366783,0.1,307.91147,1595626464441
Fix,GT,37.4676873,-122.1530112,,32.34077,0.1,308.12103,1595626465441
Fix,GT,37.4678615,-122.1533038,,32.24903,0.1,308.2212,1595626466441
Fix,GT,37.4680349,-122.1535946,,31.993351,0.1,308.1958,1595626467441
Fix,GT,37.4682061,-122.1538824,,31.521824,0.1,308.10275,1595626468441
Fix,GT,37.4683738,-122.1541655,,30.895008,0.1,308.07034,1595626469441
Fix,GT,37.4685382,-122.1544431,,30.324791,0.1,308.09177,1595626470441
Fix,GT,37.4687003,-122.1547163,,29.958286,0.1,308.10577,1595626471441
Fix,GT,37.4688608,-122.1549867,,29.715572,0.1,307.9908,1595626472441
Fix,GT,37.4690198,-122.1552561,,29.609655,0.1,307.9047,1595626473441
Fix,GT,37.4691784,-122.1555253,,29.644104,0.1,307.8473,1595626474441
Fix,GT,37.4693371,-122.1557961,,29.844463,0.1,307.60248,1595626475441
Fix,GT,37.4694962,-122.1560699,,30.1023,0.1,307.36542,1595626476441
Fix,GT,37.4696558,-122.156347,,30.361458,0.1,307.2228,1595626477441
Fix,GT,37.4698162,-122.1566262,,30.48785,0.1,307.21185,1595626478441
Fix,GT,37.4699769,-122.1569051,,30.36539,0.1,307.34787,1595626479441
Fix,GT,37.4701371,-122.1571819,,30.179998,0.1,307.4707,1595626480441
Fix,GT,37.470297,-122.1574571,,30.093643,0.1,307.57175,1595626481441
Fix,GT,37.4704572,-122.1577321,,30.192429,0.1,307.61792,1595626482441
Fix,GT,37.4706189,-122.1580082,,30.399345,0.1,307.85178,1595626483441
Fix,GT,37.4707825,-122.1582848,,30.540257,0.1,308.1601,1595626484441
Fix,GT,37.4709474,-122.1585614,,30.545948,0.1,308.1914,1595626485441
Fix,GT,37.4711116,-122.1588378,,30.414074,0.1,308.02414,1595626486441
Fix,GT,37.4712738,-122.1591131,,30.142904,0.1,307.82532,1595626487441
Fix,GT,37.471434,-122.1593861,,29.817455,0.1,307.68228,1595626488441
Fix,GT,37.4715916,-122.1596569,,29.487148,0.1,307.42435,1595626489441
Fix,GT,37.4717467,-122.1599254,,29.147808,0.1,307.3349,1595626490441
Fix,GT,37.4719,-122.1601903,,28.803093,0.1,307.47095,1595626491441
Fix,GT,37.4720522,-122.1604522,,28.554955,0.1,307.5568,1595626492441
Fix,GT,37.4722039,-122.1607128,,28.56393,0.1,307.54822,1595626493441
Fix,GT,37.4723564,-122.1609747,,28.880562,0.1,307.6107,1595626494441
Fix,GT,37.4725118,-122.1612406,,29.421894,0.1,307.7011,1595626495441
Fix,GT,37.4726702,-122.1615109,,29.897614,0.1,307.79083,1595626496441
Fix,GT,37.4728307,-122.1617842,,30.156174,0.1,307.80508,1595626497441
Fix,GT,37.4729924,-122.1620599,,30.400492,0.1,307.67374,1595626498441
Fix,GT,37.4731553,-122.1623382,,30.68674,0.1,307.86133,1595626499441
Fix,GT,37.4733211,-122.1626181,,31.030872,0.1,308.07736,1595626500441
Fix,GT,37.4734887,-122.1629012,,31.338821,0.1,307.85483,1595626501441
Fix,GT,37.4736567,-122.1631877,,31.541014,0.1,307.66644,1595626502441
Fix,GT,37.4738251,-122.1634761,,31.71001,0.1,307.6262,1595626503441
Fix,GT,37.4739943,-122.1637664,,31.911806,0.1,307.5565,1595626504441
Fix,GT,37.4741646,-122.1640581,,32.058907,0.1,307.78488,1595626505441
Fix,GT,37.4743369,-122.1643497,,32.14055,0.1,308.0929,1595626506441
Fix,GT,37.4745097,-122.1646405,,32.01152,0.1,308.11304,1595626507441
Fix,GT,37.4746811,-122.1649292,,31.655376,0.1,308.1117,1595626508441
Fix,GT,37.4748508,-122.1652143,,31.293447,0.1,308.04376,1595626509441
Fix,GT,37.4750177,-122.165497,,30.93314,0.1,307.80673,1595626510441
Fix,GT,37.4751818,-122.165777,,30.564579,0.1,307.70526,1595626511441
Fix,GT,37.4753439,-122.1660538,,30.202213,0.1,307.6991,1595626512441
Fix,GT,37.4755038,-122.1663278,,29.879433,0.1,307.58676,1595626513441
Fix,GT,37.4756618,-122.1665995,,29.63432,0.1,307.40707,1595626514441
Fix,GT,37.4758181,-122.1668705,,29.613337,0.1,307.26495,1595626515441
Fix,GT,37.4759753,-122.1671425,,29.826984,0.1,307.43158,1595626516441
Fix,GT,37.4761343,-122.1674151,,29.889755,0.1,307.7568,1595626517441
Fix,GT,37.4762936,-122.1676863,,29.707668,0.1,307.9502,1595626518441
Fix,GT,37.4764533,-122.1679555,,29.691101,0.1,308.3466,1595626519441
Fix,GT,37.4766159,-122.1682228,,29.812088,0.1,309.25754,1595626520441
Fix,GT,37.4767816,-122.1684883,,29.834017,0.1,309.51624,1595626521441
Fix,GT,37.4769462,-122.1687548,,29.789366,0.1,308.672,1595626522441
Fix,GT,37.4771067,-122.1690241,,29.707699,0.1,307.8712,1595626523441
Fix,GT,37.4772649,-122.1692947,,29.678005,0.1,307.53384,1595626524441
Fix,GT,37.4774222,-122.1695659,,29.629337,0.1,307.3812,1595626525441
Fix,GT,37.4775788,-122.1698364,,29.522518,0.1,307.48132,1595626526441
Fix,GT,37.4777352,-122.1701053,,29.369267,0.1,307.61847,1595626527441
Fix,GT,37.4778913,-122.1703723,,29.220783,0.1,307.71487,1595626528441
Fix,GT,37.4780469,-122.1706378,,29.110668,0.1,307.8101,1595626529441
Fix,GT,37.4782024,-122.1709028,,29.124443,0.1,307.69806,1595626530441
Fix,GT,37.4783575,-122.1711687,,29.13353,0.1,307.60394,1595626531441
Fix,GT,37.4785119,-122.171434,,28.966446,0.1,307.40692,1595626532441
Fix,GT,37.4786643,-122.1716983,,28.759651,0.1,307.13467,1595626533441
Fix,GT,37.4788152,-122.1719612,,28.54863,0.1,307.3243,1595626534441
Fix,GT,37.4789662,-122.1722209,,28.331291,0.1,307.714,1595626535441
Fix,GT,37.4791171,-122.1724781,,28.19117,0.1,307.9142,1595626536441
Fix,GT,37.4792679,-122.1727337,,28.059093,0.1,307.93292,1595626537441
Fix,GT,37.4794176,-122.1729874,,27.728153,0.1,307.797,1595626538441
Fix,GT,37.4795647,-122.1732381,,27.38056,0.1,307.77863,1595626539441
Fix,GT,37.4797109,-122.173487,,27.383854,0.1,307.74765,1595626540441
Fix,GT,37.479857,-122.173737,,27.483969,0.1,307.62415,1595626541441
Fix,GT,37.480003,-122.1739876,,27.414383,0.1,307.51245,1595626542441
Fix,GT,37.480148,-122.1742381,,27.329388,0.1,307.25317,1595626543441
Fix,GT,37.4802916,-122.1744876,,27.079735,0.1,307.3015,1595626544441
Fix,GT,37.4804341,-122.1747338,,26.78165,0.1,307.42764,1595626545441
Fix,GT,37.4805756,-122.1749782,,26.689232,0.1,307.37354,1595626546441
Fix,GT,37.4807171,-122.1752234,,26.918884,0.1,307.26297,1595626547441
Fix,GT,37.4808601,-122.1754715,,27.233654,0.1,307.3849,1595626548441
Fix,GT,37.4810052,-122.175721,,27.342619,0.1,307.76602,1595626549441
Fix,GT,37.4811513,-122.1759697,,27.317503,0.1,307.7418,1595626550441
Fix,GT,37.4812962,-122.1762191,,27.308994,0.1,307.3043,1595626551441
Fix,GT,37.4814405,-122.1764699,,27.430351,0.1,307.195,1595626552441
Fix,GT,37.4815859,-122.1767216,,27.520494,0.1,307.49902,1595626553441
Fix,GT,37.4817316,-122.1769724,,27.330181,0.1,307.51416,1595626554441
Fix,GT,37.4818753,-122.1772212,,27.027615,0.1,307.15445,1595626555441
Fix,GT,37.4820157,-122.1774687,,26.725782,0.1,306.4337,1595626556441
Fix,GT,37.482152,-122.1777172,,26.714031,0.1,305.3704,1595626557441
Fix,GT,37.4822855,-122.1779703,,26.998215,0.1,304.4021,1595626558441
Fix,GT,37.4824168,-122.1782282,,27.066803,0.1,303.5502,1595626559441
Fix,GT,37.4825446,-122.1784877,,26.897089,0.1,302.64844,1595626560441
Fix,GT,37.4826682,-122.1787492,,26.940971,0.1,301.41135,1595626561441
Fix,GT,37.4827883,-122.1790164,,27.300156,0.1,300.2898,1595626562441
Fix,GT,37.482906,-122.1792887,,27.433006,0.1,299.4744,1595626563441
Fix,GT,37.4830206,-122.1795621,,27.159105,0.1,298.81546,1595626564441
Fix,GT,37.4831315,-122.1798338,,26.793842,0.1,298.22495,1595626565441
Fix,GT,37.4832387,-122.1801032,,26.516851,0.1,297.64496,1595626566441
Fix,GT,37.4833436,-122.1803724,,26.564392,0.1,297.23193,1595626567441
Fix,GT,37.483448,-122.1806456,,27.08807,0.1,296.65323,1595626568441
Fix,GT,37.4835521,-122.1809267,,27.710999,0.1,295.95282,1595626569441
Fix,GT,37.4836555,-122.1812145,,28.059109,0.1,295.33545,1595626570441
Fix,GT,37.483757,-122.1815058,,28.124321,0.1,294.64392,1595626571441
Fix,GT,37.4838553,-122.1817981,,27.976997,0.1,293.94647,1595626572441
Fix,GT,37.4839504,-122.1820895,,27.74628,0.1,293.41522,1595626573441
Fix,GT,37.484043,-122.18238,,27.617561,0.1,292.95676,1595626574441
Fix,GT,37.4841333,-122.1826707,,27.539566,0.1,292.41193,1595626575441
Fix,GT,37.484221,-122.1829617,,27.515965,0.1,291.7695,1595626576441
Fix,GT,37.4843064,-122.1832543,,27.61227,0.1,291.1946,1595626577441
Fix,GT,37.4843898,-122.1835491,,27.73602,0.1,290.72693,1595626578441
Fix,GT,37.4844718,-122.1838462,,27.889439,0.1,290.19855,1595626579441
Fix,GT,37.4845521,-122.1841453,,27.89947,0.1,289.72543,1595626580441
Fix,GT,37.48463,-122.1844444,,27.721867,0.1,289.26596,1595626581441
Fix,GT,37.4847054,-122.1847418,,27.469482,0.1,288.75586,1595626582441
Fix,GT,37.4847775,-122.1850383,,27.396513,0.1,287.94443,1595626583441
Fix,GT,37.484846,-122.1853391,,27.979918,0.1,286.5846,1595626584441
Fix,GT,37.4849101,-122.1856515,,29.100496,0.1,285.0699,1595626585441
Fix,GT,37.4849715,-122.1859767,,29.97175,0.1,284.56122,1595626586441
Fix,GT,37.4850346,-122.1863093,,30.471756,0.1,285.00992,1595626587441
Fix,GT,37.485101,-122.1866457,,30.787636,0.1,285.3155,1595626588441
Fix,GT,37.4851671,-122.1869845,,30.854713,0.1,284.89545,1595626589441
Fix,GT,37.4852304,-122.1873238,,30.764046,0.1,284.19867,1595626590441
Fix,GT,37.4852904,-122.1876625,,30.61045,0.1,283.68582,1595626591441
Fix,GT,37.4853484,-122.1880002,,30.522434,0.1,283.32254,1595626592441
Fix,GT,37.4854042,-122.1883379,,30.444685,0.1,282.8015,1595626593441
Fix,GT,37.4854569,-122.1886742,,30.172428,0.1,282.13248,1595626594441
Fix,GT,37.4855056,-122.1890081,,29.862803,0.1,281.2547,1595626595441
Fix,GT,37.4855498,-122.1893396,,29.585737,0.1,280.48996,1595626596441
Fix,GT,37.4855912,-122.1896686,,29.324768,0.1,280.22867,1595626597441
Fix,GT,37.4856321,-122.1899948,,29.089848,0.1,280.3908,1595626598441
Fix,GT,37.4856732,-122.1903186,,28.94557,0.1,280.3464,1595626599441
Fix,GT,37.4857135,-122.1906412,,28.801868,0.1,280.17328,1595626600441
Fix,GT,37.4857534,-122.1909621,,28.653496,0.1,280.2825,1595626601441
Fix,GT,37.485794,-122.1912814,,28.564573,0.1,280.47076,1595626602441
Fix,GT,37.4858345,-122.1916005,,28.621178,0.1,280.29138,1595626603441
Fix,GT,37.4858742,-122.1919214,,28.81565,0.1,280.1118,1595626604441
Fix,GT,37.4859143,-122.1922443,,28.966091,0.1,280.2245,1595626605441
Fix,GT,37.485955,-122.1925676,,28.879349,0.1,280.4002,1595626606441
Fix,GT,37.4859961,-122.1928886,,28.635468,0.1,280.42163,1595626607441
Fix,GT,37.4860362,-122.193208,,28.592937,0.1,280.08896,1595626608441
Fix,GT,37.4860755,-122.1935284,,28.751556,0.1,280.1124,1595626609441
Fix,GT,37.4861154,-122.1938504,,28.946125,0.1,280.16922,1595626610441
Fix,GT,37.4861554,-122.1941758,,29.314625,0.1,279.99634,1595626611441
Fix,GT,37.4861954,-122.1945063,,29.807083,0.1,279.9591,1595626612441
Fix,GT,37.4862363,-122.1948417,,30.169476,0.1,280.06274,1595626613441
Fix,GT,37.486278,-122.1951801,,30.407207,0.1,280.18945,1595626614441
Fix,GT,37.4863203,-122.1955209,,30.568516,0.1,280.19815,1595626615441
Fix,GT,37.4863627,-122.1958627,,30.590979,0.1,280.11902,1595626616441
Fix,GT,37.4864049,-122.1962048,,30.66925,0.1,280.13538,1595626617441
Fix,GT,37.4864474,-122.1965483,,30.84567,0.1,280.17352,1595626618441
Fix,GT,37.4864902,-122.1968931,,30.842194,0.1,280.20862,1595626619441
Fix,GT,37.4865331,-122.1972367,,30.649473,0.1,280.30576,1595626620441
Fix,GT,37.4865759,-122.1975778,,30.428493,0.1,280.2213,1595626621441
Fix,GT,37.4866176,-122.1979167,,30.237133,0.1,280.00754,1595626622441
Fix,GT,37.4866585,-122.1982544,,30.234997,0.1,280.0181,1595626623441
Fix,GT,37.4866998,-122.1985933,,30.449835,0.1,280.07962,1595626624441
Fix,GT,37.4867418,-122.1989348,,30.657125,0.1,280.16824,1595626625441
Fix,GT,37.4867847,-122.1992771,,30.572084,0.1,280.3439,1595626626441
Fix,GT,37.4868278,-122.1996171,,30.318787,0.1,280.37665,1595626627441
Fix,GT,37.4868704,-122.1999546,,30.133194,0.1,280.3244,1595626628441
Fix,GT,37.4869129,-122.2002901,,29.96495,0.1,280.4526,1595626629441
Fix,GT,37.4869558,-122.200624,,29.875343,0.1,280.43976,1595626630441
Fix,GT,37.4869977,-122.2009585,,30.03648,0.1,280.16992,1595626631441
Fix,GT,37.4870393,-122.2012957,,30.273945,0.1,280.14014,1595626632441
Fix,GT,37.4870814,-122.2016347,,30.42438,0.1,280.1692,1595626633441
Fix,GT,37.4871232,-122.2019757,,30.594316,0.1,279.98074,1595626634441
Fix,GT,37.4871648,-122.2023187,,30.772873,0.1,279.97873,1595626635441
Fix,GT,37.4872068,-122.2026639,,30.999958,0.1,280.09863,1595626636441
Fix,GT,37.4872496,-122.2030115,,31.206734,0.1,280.13672,1595626637441
Fix,GT,37.4872928,-122.203361,,31.369688,0.1,280.199,1595626638441
Fix,GT,37.4873364,-122.2037131,,31.73158,0.1,280.08026,1595626639441
Fix,GT,37.48738,-122.2040717,,32.509315,0.1,279.95267,1595626640441
Fix,GT,37.487425,-122.204441,,33.520195,0.1,280.00153,1595626641441
Fix,GT,37.4874714,-122.2048202,,34.29538,0.1,280.1371,1595626642441
Fix,GT,37.4875191,-122.2052056,,34.70557,0.1,280.17755,1595626643441
Fix,GT,37.4875675,-122.2055947,,34.934666,0.1,280.2022,1595626644441
Fix,GT,37.4876167,-122.2059855,,35.036377,0.1,280.3967,1595626645441
Fix,GT,37.4876668,-122.2063768,,35.037895,0.1,280.5238,1595626646441
Fix,GT,37.4877178,-122.2067681,,35.084167,0.1,280.73956,1595626647441
Fix,GT,37.4877712,-122.2071593,,35.10792,0.1,281.44043,1595626648441
Fix,GT,37.487829,-122.2075493,,35.08138,0.1,282.26834,1595626649441
Fix,GT,37.4878909,-122.2079384,,35.098988,0.1,283.0335,1595626650441
Fix,GT,37.4879567,-122.2083267,,35.11715,0.1,283.57922,1595626651441
Fix,GT,37.4880252,-122.2087145,,35.15806,0.1,283.93668,1595626652441
Fix,GT,37.4880957,-122.2091023,,35.205227,0.1,284.42523,1595626653441
Fix,GT,37.4881689,-122.2094896,,35.182655,0.1,285.03976,1595626654441
Fix,GT,37.4882461,-122.2098744,,34.984573,0.1,285.97156,1595626655441
Fix,GT,37.4883279,-122.2102546,,34.676373,0.1,286.97736,1595626656441
Fix,GT,37.4884139,-122.2106295,,34.335358,0.1,287.84625,1595626657441
Fix,GT,37.488503,-122.2109987,,33.891735,0.1,288.44894,1595626658441
Fix,GT,37.4885933,-122.2113623,,33.515053,0.1,288.8847,1595626659441
Fix,GT,37.4886855,-122.2117214,,33.209553,0.1,289.60794,1595626660441
Fix,GT,37.4887809,-122.2120754,,32.89807,0.1,290.45886,1595626661441
Fix,GT,37.488879,-122.212424,,32.47631,0.1,291.08517,1595626662441
Fix,GT,37.4889785,-122.2127659,,31.91557,0.1,291.7473,1595626663441
Fix,GT,37.4890798,-122.2131014,,31.587032,0.1,292.45654,1595626664441
Fix,GT,37.4891842,-122.2134331,,31.531738,0.1,293.3102,1595626665441
Fix,GT,37.4892923,-122.2137628,,31.540493,0.1,294.16052,1595626666441
Fix,GT,37.4894036,-122.2140911,,31.551924,0.1,294.66873,1595626667441
Fix,GT,37.489517,-122.214418,,31.497395,0.1,295.11295,1595626668441
