MessageType,Provider,LatitudeDegrees,LongitudeDegrees,AltitudeMeters,SpeedMps,AccuracyMeters,BearingDegrees,UnixTimeMillis
Fix,GT,37.6269394,-122.4257578,,0.00055205665,0.1,336.32272,1597170003447
Fix,GT,37.6269394,-122.4257578,,0.00044794343,0.1,336.3228,1597170004447
Fix,GT,37.6269394,-122.4257578,,0.001,0.1,336.32288,1597170005447
Fix,GT,37.6269394,-122.4257578,,0.001,0.1,336.32263,1597170006447
Fix,GT,37.6269394,-122.4257578,,0.001,0.1,336.32233,1597170007447
Fix,GT,37.6269394,-122.4257578,,0.0011855443,0.1,336.32227,1597170008447
Fix,GT,37.6269394,-122.4257578,,0.0014142136,0.1,336.32233,1597170009447
Fix,GT,37.6269394,-122.4257578,,0.0014142136,0.1,336.32227,1597170010447
Fix,GT,37.6269394,-122.4257578,,0.0012286694,0.1,336.3223,1597170011447
Fix,GT,37.6269394,-122.4257578,,0.00055205665,0.1,336.32245,1597170012447
Fix,GT,37.6269394,-122.4257578,,0.0004479434,0.1,336.32248,1597170013447
Fix,GT,37.6269394,-122.4257578,,0.00055205665,0.1,336.32245,1597170014447
Fix,GT,37.6269394,-122.4257578,,0.0006334876,0.1,336.3225,1597170015447
Fix,GT,37.6269394,-122.4257578,,0.0014142136,0.1,336.32257,1597170016447
Fix,GT,37.6269394,-122.4257578,,0.0014142136,0.1,336.3225,1597170017447
Fix,GT,37.6269394,-122.4257578,,0.00078072597,0.1,336.32236,1597170018447
Fix,GT,37.6269394,-122.4257578,,0.0,0.1,336.3224,1597170019447
Fix,GT,37.6269394,-122.4257578,,0.0006334876,0.1,336.32248,1597170020447
Fix,GT,37.6269394,-122.4257578,,0.0014142136,0.1,336.3224,1597170021447
Fix,GT,37.6269394,-122.4257578,,0.0016766128,0.1,336.32224,1597170022447
Fix,GT,37.6269394,-122.4257578,,0.0015520568,0.1,336.32224,1597170023447
Fix,GT,37.6269394,-122.4257578,,0.001,0.1,336.32224,1597170024447
Fix,GT,37.6269394,-122.4257578,,0.001,0.1,336.3222,1597170025447
Fix,GT,37.6269394,-122.4257578,,0.001,0.1,336.32214,1597170026447
Fix,GT,37.6269394,-122.4257578,,0.0015536885,0.1,336.3219,1597170027447
Fix,GT,37.6269394,-122.4257578,,0.0012344363,0.1,336.32288,1597170028447
Fix,GT,37.6269395,-122.4257578,,0.07646329,0.1,336.3083,1597170029447
Fix,GT,37.6269417,-122.4257598,,0.60122824,0.1,335.19888,1597170030447
Fix,GT,37.6269493,-122.4257662,,1.4009078,0.1,332.01862,1597170031447
Fix,GT,37.6269624,-122.4257769,,2.0729485,0.1,329.4376,1597170032447
Fix,GT,37.626981,-122.4257914,,2.8649426,0.1,328.95993,1597170033447
Fix,GT,37.627006,-122.4258109,,3.6406631,0.1,328.5727,1597170034447
Fix,GT,37.6270359,-122.4258354,,4.2892904,0.1,327.39514,1597170035447
Fix,GT,37.6270696,-122.4258637,,4.747656,0.1,326.45004,1597170036447
Fix,GT,37.6271066,-122.4258943,,5.0821276,0.1,326.94983,1597170037447
Fix,GT,37.6271464,-122.4259253,,5.2484426,0.1,328.56995,1597170038447
Fix,GT,37.6271864,-122.4259533,,4.72392,0.1,331.39542,1597170039447
Fix,GT,37.6272198,-122.4259742,,3.3783288,0.1,333.89554,1597170040447
Fix,GT,37.6272414,-122.4259865,,1.9870367,0.1,335.12048,1597170041447
Fix,GT,37.6272565,-122.4259933,,1.778826,0.1,338.22964,1597170042447
Fix,GT,37.6272761,-122.4259929,,2.4865117,0.1,353.65582,1597170043447
Fix,GT,37.6272984,-122.4259747,,3.317169,0.1,23.499207,1597170044447
Fix,GT,37.6273187,-122.4259366,,4.9357123,0.1,51.24298,1597170045447
Fix,GT,37.627342,-122.4258755,,7.0541067,0.1,64.07837,1597170046447
Fix,GT,37.6273717,-122.4257927,,8.856835,0.1,65.90701,1597170047447
Fix,GT,37.6274067,-122.4256947,,10.169674,0.1,65.86551,1597170048447
Fix,GT,37.6274471,-122.4255851,,11.169878,0.1,65.223206,1597170049447
Fix,GT,37.6274921,-122.425467,,11.896402,0.1,64.43854,1597170050447
Fix,GT,37.6275406,-122.4253437,,12.404129,0.1,63.678894,1597170051447
Fix,GT,37.6275921,-122.4252148,,13.124565,0.1,63.430786,1597170052447
Fix,GT,37.6276469,-122.4250772,,14.098539,0.1,63.61801,1597170053447
Fix,GT,37.6277047,-122.4249301,,14.8130455,0.1,63.966034,1597170054447
Fix,GT,37.6277639,-122.4247783,,14.964105,0.1,64.089905,1597170055447
Fix,GT,37.6278234,-122.4246264,,14.910277,0.1,63.79547,1597170056447
Fix,GT,37.6278824,-122.424475,,14.864483,0.1,64.28113,1597170057447
Fix,GT,37.6279384,-122.4243237,,14.549541,0.1,66.38461,1597170058447
Fix,GT,37.627985,-122.4241729,,14.047498,0.1,71.48889,1597170059447
Fix,GT,37.6280145,-122.4240203,,13.87849,0.1,80.12128,1597170060447
Fix,GT,37.6280226,-122.4238643,,13.906377,0.1,90.89026,1597170061447
Fix,GT,37.6280073,-122.4237086,,13.950004,0.1,101.11987,1597170062447
Fix,GT,37.6279747,-122.4235561,,13.953171,0.1,106.96152,1597170063447
Fix,GT,37.6279391,-122.4234063,,13.639273,0.1,105.815094,1597170064447
Fix,GT,37.6279141,-122.4232584,,13.138562,0.1,99.125885,1597170065447
Fix,GT,37.6279073,-122.423114,,12.351131,0.1,89.84338,1597170066447
Fix,GT,37.6279176,-122.4229843,,10.5904045,0.1,81.08795,1597170067447
Fix,GT,37.6279374,-122.4228786,,8.645412,0.1,74.84418,1597170068447
Fix,GT,37.6279605,-122.422793,,7.4123716,0.1,70.11182,1597170069447
Fix,GT,37.6279847,-122.4227218,,6.2880645,0.1,66.21924,1597170070447
Fix,GT,37.6280056,-122.4226668,,4.356077,0.1,64.48697,1597170071447
Fix,GT,37.6280182,-122.4226346,,2.0132618,0.1,64.015015,1597170072447
Fix,GT,37.6280229,-122.4226231,,0.6263074,0.1,63.89334,1597170073447
Fix,GT,37.6280254,-122.4226166,,1.0809731,0.1,63.828766,1597170074447
Fix,GT,37.6280333,-122.4225967,,3.0541658,0.1,63.877808,1597170075447
Fix,GT,37.6280503,-122.4225532,,5.527965,0.1,64.084625,1597170076447
Fix,GT,37.6280771,-122.4224839,,7.929539,0.1,64.253784,1597170077447
Fix,GT,37.6281119,-122.4223937,,9.758202,0.1,64.32904,1597170078447
Fix,GT,37.6281532,-122.4222874,,11.105141,0.1,63.89093,1597170079447
Fix,GT,37.6282027,-122.4221699,,12.267493,0.1,61.010803,1597170080447
Fix,GT,37.6282647,-122.4220505,,12.969557,0.1,54.36267,1597170081447
Fix,GT,37.6283432,-122.4219384,,13.531196,0.1,45.57019,1597170082447
Fix,GT,37.6284385,-122.4218406,,13.878526,0.1,35.544647,1597170083447
Fix,GT,37.6285477,-122.4217639,,14.056023,0.1,25.853485,1597170084447
Fix,GT,37.6286656,-122.421703,,14.269733,0.1,21.26535,1597170085447
Fix,GT,37.6287854,-122.4216424,,14.381781,0.1,23.50061,1597170086447
Fix,GT,37.6288997,-122.421567,,14.359205,0.1,31.609497,1597170087447
Fix,GT,37.6290008,-122.4214674,,14.389629,0.1,43.099365,1597170088447
Fix,GT,37.6290844,-122.4213422,,14.710963,0.1,54.342316,1597170089447
Fix,GT,37.6291534,-122.4211974,,15.123856,0.1,61.94742,1597170090447
Fix,GT,37.6292151,-122.4210436,,15.2097645,0.1,64.001495,1597170091447
Fix,GT,37.6292753,-122.42089,,14.939066,0.1,63.787537,1597170092447
Fix,GT,37.6293346,-122.4207419,,14.287018,0.1,63.410553,1597170093447
Fix,GT,37.6293904,-122.4206039,,12.959309,0.1,63.2706,1597170094447
Fix,GT,37.6294398,-122.4204817,,11.287283,0.1,63.219147,1597170095447
Fix,GT,37.6294824,-122.4203765,,9.606794,0.1,63.253967,1597170096447
Fix,GT,37.629517,-122.4202902,,7.4164953,0.1,63.56537,1597170097447
Fix,GT,37.6295415,-122.4202285,,4.77949,0.1,63.783813,1597170098447
Fix,GT,37.6295554,-122.4201933,,2.255084,0.1,63.905457,1597170099447
Fix,GT,37.6295608,-122.4201793,,0.85784054,0.1,63.921295,1597170100447
Fix,GT,37.6295647,-122.4201697,,1.4133823,0.1,63.89566,1597170101447
Fix,GT,37.6295738,-122.4201468,,3.3309126,0.1,63.851807,1597170102447
Fix,GT,37.6295919,-122.420101,,5.645535,0.1,63.81189,1597170103447
Fix,GT,37.6296194,-122.4200314,,7.852727,0.1,63.88565,1597170104447
Fix,GT,37.6296538,-122.4199435,,9.453545,0.1,64.05228,1597170105447
Fix,GT,37.6296936,-122.419842,,10.539705,0.1,63.97867,1597170106447
Fix,GT,37.6297383,-122.4197297,,11.613153,0.1,63.506897,1597170107447
Fix,GT,37.6297883,-122.419608,,12.5865135,0.1,62.345642,1597170108447
Fix,GT,37.6298454,-122.4194801,,13.201841,0.1,59.81186,1597170109447
Fix,GT,37.6299114,-122.4193522,,13.678253,0.1,55.399292,1597170110447
Fix,GT,37.629989,-122.4192285,,14.1612,0.1,49.901367,1597170111447
Fix,GT,37.6300761,-122.4191099,,14.298229,0.1,46.647827,1597170112447
Fix,GT,37.6301655,-122.4189923,,14.414383,0.1,46.475433,1597170113447
Fix,GT,37.6302556,-122.4188735,,14.568782,0.1,46.548157,1597170114447
Fix,GT,37.6303458,-122.4187547,,14.399293,0.1,46.575317,1597170115447
Fix,GT,37.6304332,-122.4186368,,14.0052185,0.1,48.00653,1597170116447
Fix,GT,37.6305133,-122.4185174,,13.588528,0.1,51.746857,1597170117447
Fix,GT,37.6305833,-122.4183939,,13.212835,0.1,56.820984,1597170118447
Fix,GT,37.6306425,-122.4182685,,12.453005,0.1,61.066986,1597170119447
Fix,GT,37.6306927,-122.418151,,11.021099,0.1,61.642,1597170120447
Fix,GT,37.6307421,-122.4180527,,9.6184025,0.1,54.5058,1597170121447
Fix,GT,37.6308009,-122.4179805,,8.903034,0.1,38.855103,1597170122447
Fix,GT,37.6308707,-122.4179386,,8.593636,0.1,19.848358,1597170123447
Fix,GT,37.6309468,-122.4179277,,8.72337,0.1,1.9501343,1597170124447
Fix,GT,37.6310254,-122.41794,,9.014721,0.1,350.6396,1597170125447
Fix,GT,37.6311048,-122.4179622,,9.054171,0.1,347.40967,1597170126447
Fix,GT,37.6311837,-122.417986,,8.907625,0.1,346.56192,1597170127447
Fix,GT,37.63126,-122.4180099,,8.450638,0.1,346.11377,1597170128447
Fix,GT,37.6313291,-122.4180335,,7.3421583,0.1,344.4119,1597170129447
Fix,GT,37.6313854,-122.4180565,,5.7063518,0.1,341.3138,1597170130447
Fix,GT,37.6314264,-122.418076,,3.958248,0.1,339.04907,1597170131447
Fix,GT,37.6314525,-122.4180895,,2.4496517,0.1,338.10504,1597170132447
Fix,GT,37.6314682,-122.4180978,,1.3095962,0.1,337.63483,1597170133447
Fix,GT,37.6314748,-122.4181014,,0.38798895,0.1,337.49213,1597170134447
Fix,GT,37.6314756,-122.4181018,,0.014574715,0.1,337.48718,1597170135447
Fix,GT,37.6314756,-122.4181018,,0.0010016317,0.1,337.48517,1597170136447
Fix,GT,37.6314759,-122.4181021,,0.19686313,0.1,337.4802,1597170137447
Fix,GT,37.6314809,-122.4181047,,1.1746831,0.1,337.39246,1597170138447
Fix,GT,37.6314975,-122.4181137,,2.9299345,0.1,337.20172,1597170139447
Fix,GT,37.6315297,-122.4181311,,4.8939643,0.1,337.0309,1597170140447
Fix,GT,37.6315776,-122.4181569,,6.7320266,0.1,336.96866,1597170141447
Fix,GT,37.6316387,-122.4181901,,7.9868054,0.1,336.81802,1597170142447
Fix,GT,37.6317085,-122.4182286,,8.819782,0.1,336.38644,1597170143447
Fix,GT,37.6317844,-122.4182714,,9.560125,0.1,336.04962,1597170144447
Fix,GT,37.6318651,-122.4183171,,10.076593,0.1,336.00085,1597170145447
Fix,GT,37.6319488,-122.4183644,,10.299761,0.1,336.01227,1597170146447
Fix,GT,37.6320335,-122.4184124,,10.277446,0.1,335.914,1597170147447
Fix,GT,37.6321167,-122.4184596,,9.95494,0.1,336.10324,1597170148447
Fix,GT,37.6321975,-122.4185033,,9.567444,0.1,337.6391,1597170149447
Fix,GT,37.6322782,-122.4185405,,9.572025,0.1,341.48944,1597170150447
Fix,GT,37.6323625,-122.4185683,,9.825703,0.1,347.31372,1597170151447
Fix,GT,37.6324492,-122.4185855,,9.57877,0.1,353.11624,1597170152447
Fix,GT,37.6325324,-122.4185902,,8.9338,0.1,0.3659973,1597170153447
Fix,GT,37.6326093,-122.4185758,,8.586449,0.1,13.042786,1597170154447
Fix,GT,37.6326799,-122.4185352,,8.977384,0.1,29.071014,1597170155447
Fix,GT,37.6327454,-122.4184674,,10.124402,0.1,42.73407,1597170156447
Fix,GT,37.6328093,-122.4183751,,11.536946,0.1,50.869965,1597170157447
Fix,GT,37.6328755,-122.4182641,,12.833576,0.1,54.193176,1597170158447
Fix,GT,37.6329446,-122.4181411,,13.715561,0.1,55.447113,1597170159447
Fix,GT,37.6330161,-122.4180086,,14.605003,0.1,56.18933,1597170160447
Fix,GT,37.6330919,-122.4178661,,15.666548,0.1,56.38742,1597170161447
Fix,GT,37.6331721,-122.4177149,,16.3765,0.1,56.641846,1597170162447
Fix,GT,37.6332538,-122.4175586,,16.630947,0.1,57.103516,1597170163447
Fix,GT,37.6333362,-122.4173981,,17.150593,0.1,57.536987,1597170164447
Fix,GT,37.6334204,-122.4172291,,18.08593,0.1,58.65985,1597170165447
Fix,GT,37.6335055,-122.4170482,,18.984116,0.1,60.485565,1597170166447
Fix,GT,37.6335887,-122.4168558,,19.661505,0.1,62.763184,1597170167447
Fix,GT,37.6336672,-122.4166535,,20.099766,0.1,65.35339,1597170168447
Fix,GT,37.633741,-122.4164435,,20.48347,0.1,67.3627,1597170169447
Fix,GT,37.6338109,-122.4162238,,21.49756,0.1,69.52017,1597170170447
Fix,GT,37.6338776,-122.4159854,,23.192028,0.1,72.23114,1597170171447
Fix,GT,37.6339394,-122.4157249,,24.698608,0.1,74.67328,1597170172447
Fix,GT,37.6339948,-122.4154494,,25.392855,0.1,77.394714,1597170173447
Fix,GT,37.6340393,-122.4151654,,25.67638,0.1,80.85712,1597170174447
Fix,GT,37.6340702,-122.4148769,,25.834688,0.1,84.040985,1597170175447
Fix,GT,37.6340903,-122.4145833,,26.201454,0.1,86.46619,1597170176447
Fix,GT,37.6341013,-122.4142845,,26.54596,0.1,88.830414,1597170177447
Fix,GT,37.6341024,-122.4139834,,26.596817,0.1,91.211,1597170178447
Fix,GT,37.6340943,-122.4136828,,26.50888,0.1,93.18866,1597170179447
Fix,GT,37.6340781,-122.4133842,,26.328762,0.1,95.19498,1597170180447
Fix,GT,37.6340538,-122.4130876,,26.347351,0.1,96.99689,1597170181447
Fix,GT,37.6340231,-122.4127884,,26.93951,0.1,97.98337,1597170182447
Fix,GT,37.6339883,-122.4124821,,27.62379,0.1,98.83429,1597170183447
Fix,GT,37.6339493,-122.4121716,,27.812538,0.1,99.64142,1597170184447
Fix,GT,37.6339068,-122.4118606,,27.884975,0.1,100.224976,1597170185447
Fix,GT,37.6338627,-122.4115495,,27.925222,0.1,100.31787,1597170186447
Fix,GT,37.6338192,-122.4112385,,27.77547,0.1,100.0611,1597170187447
Fix,GT,37.6337766,-122.4109295,,27.559452,0.1,100.12973,1597170188447
Fix,GT,37.6337334,-122.4106235,,27.298676,0.1,100.324036,1597170189447
Fix,GT,37.6336912,-122.4103207,,26.936165,0.1,99.8595,1597170190447
Fix,GT,37.6336526,-122.410022,,26.44894,0.1,98.95273,1597170191447
Fix,GT,37.6336182,-122.4097289,,25.8737,0.1,98.072845,1597170192447
Fix,GT,37.6335903,-122.4094405,,25.41743,0.1,95.99194,1597170193447
Fix,GT,37.6335738,-122.4091545,,25.286306,0.1,92.61264,1597170194447
Fix,GT,37.6335701,-122.408868,,25.364704,0.1,89.48642,1597170195447
Fix,GT,37.6335782,-122.4085794,,25.65053,0.1,86.7623,1597170196447
Fix,GT,37.6335967,-122.408288,,25.965065,0.1,84.39719,1597170197447
Fix,GT,37.6336241,-122.4079947,,26.129581,0.1,82.51355,1597170198447
Fix,GT,37.6336575,-122.4077015,,26.176136,0.1,81.59207,1597170199447
Fix,GT,37.6336931,-122.4074077,,26.307514,0.1,81.48718,1597170200447
Fix,GT,37.6337285,-122.4071116,,26.51051,0.1,81.77109,1597170201447
Fix,GT,37.6337623,-122.4068138,,26.544516,0.1,82.35773,1597170202447
Fix,GT,37.633793,-122.4065161,,26.436958,0.1,83.70679,1597170203447
Fix,GT,37.6338145,-122.4062189,,26.234325,0.1,87.06354,1597170204447
Fix,GT,37.6338166,-122.4059238,,25.96047,0.1,92.697784,1597170205447
Fix,GT,37.6337942,-122.4056331,,25.7315,0.1,98.88049,1597170206447
Fix,GT,37.6337489,-122.4053492,,25.462545,0.1,104.539246,1597170207447
Fix,GT,37.6336821,-122.4050756,,25.13984,0.1,110.22717,1597170208447
Fix,GT,37.6335941,-122.4048154,,24.857567,0.1,116.161255,1597170209447
Fix,GT,37.6334865,-122.4045705,,24.63793,0.1,122.07077,1597170210447
Fix,GT,37.6333611,-122.4043424,,24.405212,0.1,127.77472,1597170211447
Fix,GT,37.6332201,-122.4041326,,24.170986,0.1,133.10486,1597170212447
Fix,GT,37.6330655,-122.4039418,,23.984734,0.1,138.41922,1597170213447
Fix,GT,37.6328986,-122.4037711,,23.821815,0.1,143.79529,1597170214447
Fix,GT,37.6327212,-122.4036216,,23.670097,0.1,149.05176,1597170215447
Fix,GT,37.6325346,-122.4034937,,23.574318,0.1,154.24268,1597170216447
Fix,GT,37.6323402,-122.4033877,,23.553799,0.1,159.4494,1597170217447
Fix,GT,37.6321387,-122.4033049,,23.574617,0.1,164.85468,1597170218447
Fix,GT,37.6319316,-122.4032453,,23.663387,0.1,169.69873,1597170219447
Fix,GT,37.6317203,-122.4032044,,23.845917,0.1,173.03174,1597170220447
Fix,GT,37.6315059,-122.4031734,,24.119637,0.1,174.07654,1597170221447
Fix,GT,37.6312885,-122.4031426,,24.483147,0.1,173.70667,1597170222447
Fix,GT,37.6310673,-122.4031094,,24.970165,0.1,173.42175,1597170223447
Fix,GT,37.6308416,-122.4030752,,25.501575,0.1,173.4209,1597170224447
Fix,GT,37.6306115,-122.4030414,,25.922548,0.1,173.7503,1597170225447
Fix,GT,37.6303782,-122.4030094,,26.164284,0.1,174.24023,1597170226447
Fix,GT,37.6301429,-122.4029791,,26.36338,0.1,174.46008,1597170227447
Fix,GT,37.6299056,-122.4029488,,26.59491,0.1,174.4159,1597170228447
Fix,GT,37.6296656,-122.4029176,,26.971994,0.1,174.34497,1597170229447
Fix,GT,37.6294212,-122.4028856,,27.538868,0.1,174.27283,1597170230447
Fix,GT,37.6291716,-122.4028519,,28.218472,0.1,173.88318,1597170231447
Fix,GT,37.6289159,-122.402814,,28.954193,0.1,173.1336,1597170232447
Fix,GT,37.6286541,-122.4027714,,29.60755,0.1,172.61835,1597170233447
Fix,GT,37.628387,-122.4027254,,30.281176,0.1,172.20862,1597170234447
Fix,GT,37.6281139,-122.4026747,,31.114893,0.1,171.37384,1597170235447
Fix,GT,37.6278332,-122.4026165,,32.00896,0.1,170.16077,1597170236447
Fix,GT,37.6275479,-122.402549,,32.305313,0.1,168.71844,1597170237447
Fix,GT,37.6272647,-122.4024727,,31.981796,0.1,167.27087,1597170238447
Fix,GT,37.626986,-122.4023884,,31.663973,0.1,166.05994,1597170239447
Fix,GT,37.6267115,-122.4022981,,31.331394,0.1,164.8717,1597170240447
Fix,GT,37.6264417,-122.4022015,,30.943121,0.1,163.42383,1597170241447
Fix,GT,37.6261781,-122.4020967,,30.449167,0.1,161.74994,1597170242447
Fix,GT,37.6259216,-122.4019838,,29.93864,0.1,160.31726,1597170243447
Fix,GT,37.6256698,-122.4018689,,29.557611,0.1,160.59589,1597170244447
Fix,GT,37.6254195,-122.4017617,,29.12492,0.1,162.04956,1597170245447
Fix,GT,37.625172,-122.4016626,,28.512539,0.1,163.21185,1597170246447
Fix,GT,37.6249285,-122.4015704,,27.947647,0.1,163.73676,1597170247447
Fix,GT,37.6246885,-122.4014816,,27.628756,0.1,164.0368,1597170248447
Fix,GT,37.6244506,-122.4013949,,27.359295,0.1,164.08667,1597170249447
Fix,GT,37.6242145,-122.4013091,,27.2118,0.1,163.94891,1597170250447
Fix,GT,37.6239789,-122.4012226,,27.319736,0.1,164.07574,1597170251447
Fix,GT,37.6237415,-122.4011367,,27.474781,0.1,164.17743,1597170252447
Fix,GT,37.6235036,-122.4010498,,27.470356,0.1,163.80011,1597170253447
Fix,GT,37.623267,-122.4009604,,27.361557,0.1,163.24524,1597170254447
Fix,GT,37.6230319,-122.4008688,,27.26661,0.1,162.83588,1597170255447
Fix,GT,37.622796,-122.4007765,,27.661276,0.1,163.17151,1597170256447
Fix,GT,37.6225546,-122.4006853,,28.335308,0.1,163.80505,1597170257447
Fix,GT,37.6223074,-122.400595,,28.739796,0.1,164.31665,1597170258447
Fix,GT,37.6220574,-122.400507,,28.840683,0.1,164.8966,1597170259447
Fix,GT,37.621807,-122.4004218,,28.744207,0.1,165.26428,1597170260447
Fix,GT,37.6215577,-122.4003377,,28.518173,0.1,165.10901,1597170261447
Fix,GT,37.6213111,-122.4002534,,28.215908,0.1,164.92322,1597170262447
Fix,GT,37.621067,-122.4001699,,27.90994,0.1,165.12604,1597170263447
Fix,GT,37.6208255,-122.400087,,27.663368,0.1,164.76544,1597170264447
Fix,GT,37.6205862,-122.400002,,27.56041,0.1,164.22284,1597170265447
Fix,GT,37.6203466,-122.3999149,,27.852287,0.1,163.99689,1597170266447
Fix,GT,37.6201019,-122.3998254,,28.711311,0.1,163.95502,1597170267447
Fix,GT,37.6198502,-122.3997337,,29.316902,0.1,164.2547,1597170268447
Fix,GT,37.6195958,-122.399643,,29.335144,0.1,164.6753,1597170269447
Fix,GT,37.6193411,-122.3995544,,29.425522,0.1,164.8208,1597170270447
Fix,GT,37.6190845,-122.3994663,,29.692986,0.1,165.0653,1597170271447
Fix,GT,37.6188244,-122.3993784,,30.058708,0.1,165.25323,1597170272447
Fix,GT,37.6185612,-122.3992899,,30.387077,0.1,165.24512,1597170273447
Fix,GT,37.6182956,-122.3992008,,30.626465,0.1,165.34448,1597170274447
Fix,GT,37.6180286,-122.399112,,30.652967,0.1,165.51648,1597170275447
Fix,GT,37.6177623,-122.3990241,,30.462307,0.1,165.50592,1597170276447
Fix,GT,37.6174976,-122.3989361,,30.291904,0.1,165.35095,1597170277447
Fix,GT,37.6172344,-122.3988478,,30.16111,0.1,165.25928,1597170278447
Fix,GT,37.6169728,-122.3987593,,30.028004,0.1,165.0249,1597170279447
Fix,GT,37.6167124,-122.3986686,,29.944809,0.1,164.36542,1597170280447
Fix,GT,37.6164535,-122.3985729,,30.000525,0.1,163.1222,1597170281447
Fix,GT,37.6161958,-122.3984695,,30.060646,0.1,161.65308,1597170282447
Fix,GT,37.6159398,-122.3983575,,30.147993,0.1,160.18481,1597170283447
Fix,GT,37.6156846,-122.3982364,,30.443878,0.1,158.59723,1597170284447
Fix,GT,37.6154299,-122.3981038,,30.763073,0.1,156.65485,1597170285447
Fix,GT,37.6151768,-122.3979592,,30.973404,0.1,154.66443,1597170286447
Fix,GT,37.614926,-122.3978033,,31.10662,0.1,153.00201,1597170287447
Fix,GT,37.6146781,-122.3976388,,31.119741,0.1,151.59995,1597170288447
Fix,GT,37.6144334,-122.3974669,,31.109985,0.1,150.27527,1597170289447
Fix,GT,37.6141918,-122.3972883,,31.077518,0.1,149.02887,1597170290447
Fix,GT,37.6139544,-122.3971034,,30.922215,0.1,147.51874,1597170291447
Fix,GT,37.6137226,-122.3969114,,30.727657,0.1,145.80933,1597170292447
Fix,GT,37.613496,-122.3967124,,30.64724,0.1,144.43695,1597170293447
Fix,GT,37.6132738,-122.3965064,,30.677021,0.1,142.9508,1597170294447
Fix,GT,37.613056,-122.3962921,,30.693836,0.1,141.29822,1597170295447
Fix,GT,37.6128428,-122.39607,,30.79874,0.1,139.67929,1597170296447
Fix,GT,37.6126329,-122.3958402,,31.003666,0.1,138.43399,1597170297447
Fix,GT,37.6124253,-122.3956033,,31.239393,0.1,137.36191,1597170298447
Fix,GT,37.6122202,-122.3953587,,31.507294,0.1,135.94113,1597170299447
Fix,GT,37.6120185,-122.3951061,,31.748413,0.1,134.44122,1597170300447
Fix,GT,37.6118202,-122.3948451,,31.931564,0.1,133.14798,1597170301447
Fix,GT,37.6116259,-122.3945776,,32.04378,0.1,131.89362,1597170302447
Fix,GT,37.6114362,-122.3943042,,31.98613,0.1,130.53085,1597170303447
Fix,GT,37.6112522,-122.3940267,,31.783981,0.1,129.42743,1597170304447
Fix,GT,37.6110726,-122.393748,,31.593494,0.1,128.97177,1597170305447
Fix,GT,37.6108946,-122.3934701,,31.388481,0.1,129.14252,1597170306447
Fix,GT,37.6107172,-122.3931947,,31.16621,0.1,129.18115,1597170307447
Fix,GT,37.6105414,-122.3929208,,31.02081,0.1,128.87335,1597170308447
Fix,GT,37.6103677,-122.3926463,,30.891457,0.1,128.53217,1597170309447
Fix,GT,37.6101956,-122.3923724,,30.7244,0.1,128.65363,1597170310447
Fix,GT,37.6100239,-122.3921006,,30.575878,0.1,128.69598,1597170311447
Fix,GT,37.6098526,-122.3918299,,30.545872,0.1,128.77899,1597170312447
Fix,GT,37.6096802,-122.3915589,,30.81711,0.1,128.95709,1597170313447
Fix,GT,37.6095045,-122.3912847,,31.363686,0.1,129.137,1597170314447
Fix,GT,37.6093252,-122.3910067,,31.847618,0.1,129.30869,1597170315447
Fix,GT,37.6091436,-122.3907257,,32.07183,0.1,129.41492,1597170316447
Fix,GT,37.6089608,-122.3904434,,32.12773,0.1,129.41956,1597170317447
Fix,GT,37.6087781,-122.3901621,,31.99762,0.1,129.4679,1597170318447
Fix,GT,37.6085963,-122.3898818,,31.902866,0.1,129.41489,1597170319447
Fix,GT,37.6084142,-122.3896012,,32.08828,0.1,129.45935,1597170320447
Fix,GT,37.6082303,-122.3893181,,32.461365,0.1,129.51926,1597170321447
Fix,GT,37.6080438,-122.3890321,,32.861416,0.1,129.64328,1597170322447
Fix,GT,37.6078544,-122.3887427,,33.304287,0.1,129.6944,1597170323447
Fix,GT,37.6076627,-122.3884506,,33.486725,0.1,129.77838,1597170324447
Fix,GT,37.6074708,-122.3881586,,33.397354,0.1,129.86578,1597170325447
Fix,GT,37.6072794,-122.3878671,,33.336105,0.1,129.61224,1597170326447
Fix,GT,37.6070891,-122.3875746,,33.39041,0.1,129.41602,1597170327447
Fix,GT,37.6068986,-122.3872814,,33.455944,0.1,129.5174,1597170328447
Fix,GT,37.6067078,-122.3869881,,33.4351,0.1,129.55035,1597170329447
Fix,GT,37.6065171,-122.3866951,,33.40745,0.1,129.53296,1597170330447
Fix,GT,37.6063265,-122.3864028,,33.354805,0.1,129.59277,1597170331447
Fix,GT,37.6061361,-122.3861109,,33.31253,0.1,129.505,1597170332447
Fix,GT,37.6059461,-122.3858191,,33.28508,0.1,129.59033,1597170333447
Fix,GT,37.6057559,-122.3855282,,33.21216,0.1,129.61603,1597170334447
Fix,GT,37.6055662,-122.3852383,,33.087128,0.1,129.58691,1597170335447
Fix,GT,37.6053777,-122.3849489,,32.96207,0.1,129.60846,1597170336447
Fix,GT,37.60519,-122.3846599,,32.939686,0.1,129.35773,1597170337447
Fix,GT,37.6050025,-122.3843702,,33.0126,0.1,129.37665,1597170338447
Fix,GT,37.6048145,-122.3840805,,32.988724,0.1,129.54861,1597170339447
Fix,GT,37.6046263,-122.3837917,,32.94255,0.1,129.52875,1597170340447
Fix,GT,37.6044385,-122.3835032,,32.852615,0.1,129.64423,1597170341447
Fix,GT,37.6042515,-122.3832168,,32.545357,0.1,129.65228,1597170342447
Fix,GT,37.6040666,-122.3829337,,32.12948,0.1,129.52023,1597170343447
Fix,GT,37.6038844,-122.3826537,,31.786016,0.1,129.5086,1597170344447
Fix,GT,37.6037037,-122.3823757,,31.653275,0.1,129.43988,1597170345447
Fix,GT,37.6035234,-122.382098,,31.640495,0.1,129.49188,1597170346447
Fix,GT,37.6033427,-122.3818216,,31.534172,0.1,129.76166,1597170347447
Fix,GT,37.6031623,-122.3815468,,31.389643,0.1,129.76581,1597170348447
Fix,GT,37.6029827,-122.3812728,,31.330894,0.1,129.6258,1597170349447
Fix,GT,37.6028037,-122.3809985,,31.336834,0.1,129.50961,1597170350447
Fix,GT,37.6026252,-122.3807236,,31.329634,0.1,129.44604,1597170351447
Fix,GT,37.6024468,-122.3804491,,31.249203,0.1,129.48413,1597170352447
Fix,GT,37.6022692,-122.380176,,31.016594,0.1,129.50931,1597170353447
Fix,GT,37.6020931,-122.3799051,,30.779278,0.1,129.55725,1597170354447
Fix,GT,37.601918,-122.3796356,,30.699074,0.1,129.40195,1597170355447
Fix,GT,37.6017439,-122.379366,,30.60246,0.1,129.21802,1597170356447
Fix,GT,37.6015707,-122.3790976,,30.450333,0.1,129.40344,1597170357447
Fix,GT,37.6013973,-122.3788315,,30.290894,0.1,129.63196,1597170358447
Fix,GT,37.6012244,-122.3785675,,30.073513,0.1,129.70123,1597170359447
Fix,GT,37.601053,-122.3783059,,29.755978,0.1,129.68585,1597170360447
Fix,GT,37.6008837,-122.3780474,,29.39693,0.1,129.69012,1597170361447
Fix,GT,37.6007165,-122.377792,,29.021252,0.1,129.64636,1597170362447
Fix,GT,37.6005518,-122.3775396,,28.62891,0.1,129.51959,1597170363447
Fix,GT,37.6003896,-122.3772905,,28.205927,0.1,129.48843,1597170364447
Fix,GT,37.6002299,-122.3770453,,27.778305,0.1,129.61188,1597170365447
Fix,GT,37.6000717,-122.3768041,,27.436306,0.1,129.75873,1597170366447
Fix,GT,37.599915,-122.3765657,,27.179108,0.1,129.75885,1597170367447
Fix,GT,37.5997604,-122.3763291,,26.883595,0.1,129.53485,1597170368447
Fix,GT,37.599608,-122.376094,,26.700996,0.1,129.26126,1597170369447
Fix,GT,37.5994567,-122.3758595,,26.635235,0.1,129.22455,1597170370447
Fix,GT,37.599306,-122.3756256,,26.565039,0.1,129.21466,1597170371447
Fix,GT,37.599155,-122.3753912,,26.773941,0.1,129.22028,1597170372447
Fix,GT,37.5990019,-122.3751534,,27.280005,0.1,129.21725,1597170373447
Fix,GT,37.5988458,-122.3749107,,27.865429,0.1,129.18695,1597170374447
Fix,GT,37.5986861,-122.3746629,,28.484184,0.1,129.30917,1597170375447
Fix,GT,37.5985222,-122.3744099,,29.112764,0.1,129.42728,1597170376447
Fix,GT,37.5983547,-122.3741521,,29.630259,0.1,129.44562,1597170377447
Fix,GT,37.5981845,-122.3738897,,30.113602,0.1,129.47778,1597170378447
Fix,GT,37.5980125,-122.3736247,,30.228924,0.1,129.42316,1597170379447
Fix,GT,37.5978417,-122.3733606,,29.858377,0.1,129.31583,1597170380447
Fix,GT,37.5976737,-122.3731003,,29.318066,0.1,129.2622,1597170381447
Fix,GT,37.5975091,-122.372845,,28.697617,0.1,129.21875,1597170382447
Fix,GT,37.597348,-122.3725947,,28.184351,0.1,129.21323,1597170383447
Fix,GT,37.5971892,-122.3723481,,27.856148,0.1,129.26895,1597170384447
Fix,GT,37.5970313,-122.3721045,,27.653183,0.1,129.50513,1597170385447
Fix,GT,37.5968734,-122.3718624,,27.659779,0.1,129.6626,1597170386447
Fix,GT,37.5967146,-122.3716206,,27.7221,0.1,129.83597,1597170387447
Fix,GT,37.5965553,-122.3713787,,27.716846,0.1,129.86963,1597170388447
Fix,GT,37.5963965,-122.3711367,,27.701683,0.1,129.69202,1597170389447
Fix,GT,37.5962379,-122.3708941,,27.762747,0.1,129.54718,1597170390447
Fix,GT,37.5960796,-122.370651,,27.680458,0.1,129.51605,1597170391447
Fix,GT,37.5959227,-122.3704097,,27.356041,0.1,129.53629,1597170392447
Fix,GT,37.595767,-122.3701707,,27.241596,0.1,129.56738,1597170393447
Fix,GT,37.5956112,-122.3699321,,27.339405,0.1,129.69809,1597170394447
Fix,GT,37.5954543,-122.369693,,27.41477,0.1,129.7763,1597170395447
Fix,GT,37.5952971,-122.369453,,27.478361,0.1,129.68542,1597170396447
Fix,GT,37.59514,-122.3692125,,27.471344,0.1,129.52905,1597170397447
Fix,GT,37.5949833,-122.3689714,,27.488167,0.1,129.4234,1597170398447
Fix,GT,37.5948268,-122.3687301,,27.522789,0.1,129.4104,1597170399447
Fix,GT,37.5946697,-122.3684883,,27.641178,0.1,129.45505,1597170400447
Fix,GT,37.5945119,-122.3682457,,27.700516,0.1,129.6576,1597170401447
Fix,GT,37.5943528,-122.3680039,,27.677767,0.1,129.90851,1597170402447
Fix,GT,37.5941937,-122.3677629,,27.636806,0.1,129.89563,1597170403447
Fix,GT,37.5940347,-122.3675216,,27.729809,0.1,129.7811,1597170404447
Fix,GT,37.5938749,-122.3672778,,28.111755,0.1,129.63837,1597170405447
Fix,GT,37.5937133,-122.3670302,,28.441475,0.1,129.54233,1597170406447
Fix,GT,37.593551,-122.3667813,,28.358883,0.1,129.58536,1597170407447
Fix,GT,37.5933898,-122.3665341,,28.074274,0.1,129.56018,1597170408447
Fix,GT,37.5932305,-122.3662897,,27.717201,0.1,129.5838,1597170409447
Fix,GT,37.593073,-122.3660486,,27.436039,0.1,129.66022,1597170410447
Fix,GT,37.5929163,-122.3658087,,27.440441,0.1,129.45383,1597170411447
Fix,GT,37.5927603,-122.3655661,,27.689308,0.1,128.98157,1597170412447
Fix,GT,37.5926035,-122.3653204,,27.910019,0.1,129.07782,1597170413447
Fix,GT,37.5924443,-122.3650749,,28.013693,0.1,129.70578,1597170414447
Fix,GT,37.592283,-122.3648299,,28.216522,0.1,129.79959,1597170415447
Fix,GT,37.5921203,-122.3645808,,28.769829,0.1,129.49286,1597170416447
Fix,GT,37.5919548,-122.3643248,,29.45809,0.1,129.11661,1597170417447
Fix,GT,37.5917868,-122.3640614,,30.19584,0.1,128.83871,1597170418447
Fix,GT,37.5916149,-122.3637909,,30.92328,0.1,128.91776,1597170419447
Fix,GT,37.5914394,-122.3635164,,31.225597,0.1,129.12817,1597170420447
Fix,GT,37.5912625,-122.3632416,,31.252258,0.1,129.34265,1597170421447
Fix,GT,37.5910836,-122.3629662,,31.6151,0.1,129.45435,1597170422447
Fix,GT,37.590902,-122.3626868,,32.102684,0.1,129.55081,1597170423447
Fix,GT,37.5907178,-122.3624046,,32.298412,0.1,129.65372,1597170424447
Fix,GT,37.5905332,-122.3621225,,32.1921,0.1,129.70157,1597170425447
Fix,GT,37.5903494,-122.3618412,,32.102844,0.1,129.48404,1597170426447
Fix,GT,37.5901668,-122.3615591,,32.16088,0.1,129.2157,1597170427447
Fix,GT,37.5899843,-122.3612755,,32.30458,0.1,129.17392,1597170428447
Fix,GT,37.5898015,-122.3609912,,32.205887,0.1,129.1336,1597170429447
Fix,GT,37.5896206,-122.3607079,,31.935108,0.1,128.77127,1597170430447
Fix,GT,37.5894432,-122.3604255,,31.646137,0.1,128.14105,1597170431447
Fix,GT,37.5892702,-122.3601425,,31.387104,0.1,127.07141,1597170432447
Fix,GT,37.5891034,-122.3598564,,31.26814,0.1,125.410645,1597170433447
Fix,GT,37.5889443,-122.359564,,31.329525,0.1,123.52905,1597170434447
Fix,GT,37.5887927,-122.3592634,,31.56652,0.1,121.63684,1597170435447
Fix,GT,37.5886476,-122.3589542,,31.81947,0.1,119.903015,1597170436447
Fix,GT,37.5885076,-122.3586384,,32.027622,0.1,118.81088,1597170437447
Fix,GT,37.5883706,-122.3583188,,32.05168,0.1,118.00159,1597170438447
Fix,GT,37.5882384,-122.3579971,,31.93858,0.1,116.75519,1597170439447
Fix,GT,37.5881127,-122.3576714,,32.069202,0.1,115.17343,1597170440447
Fix,GT,37.5879938,-122.3573396,,32.185444,0.1,113.45172,1597170441447
Fix,GT,37.5878831,-122.3570039,,31.973747,0.1,111.80493,1597170442447
Fix,GT,37.5877812,-122.3566665,,31.790535,0.1,109.99582,1597170443447
Fix,GT,37.5876881,-122.3563268,,31.73584,0.1,108.267334,1597170444447
Fix,GT,37.5876026,-122.3559841,,31.683834,0.1,106.8497,1597170445447
Fix,GT,37.5875237,-122.3556397,,31.597332,0.1,105.522156,1597170446447
Fix,GT,37.5874517,-122.3552945,,31.478676,0.1,104.06613,1597170447447
Fix,GT,37.5873873,-122.354947,,31.530773,0.1,102.3952,1597170448447
Fix,GT,37.5873309,-122.3545963,,31.69205,0.1,100.82544,1597170449447
Fix,GT,37.5872812,-122.3542415,,31.933159,0.1,99.46234,1597170450447
Fix,GT,37.5872382,-122.3538831,,32.062763,0.1,97.86554,1597170451447
Fix,GT,37.5872034,-122.3535231,,31.984161,0.1,96.150696,1597170452447
Fix,GT,37.5871774,-122.3531634,,31.78064,0.1,94.57733,1597170453447
Fix,GT,37.5871589,-122.3528055,,31.573898,0.1,93.14624,1597170454447
Fix,GT,37.5871465,-122.3524488,,31.541706,0.1,92.18518,1597170455447
Fix,GT,37.5871379,-122.3520921,,31.515436,0.1,91.79733,1597170456447
Fix,GT,37.5871301,-122.3517349,,31.630886,0.1,91.89093,1597170457447
Fix,GT,37.5871213,-122.3513763,,31.762741,0.1,92.02869,1597170458447
Fix,GT,37.5871117,-122.3510176,,31.625534,0.1,92.1543,1597170459447
Fix,GT,37.5871022,-122.350661,,31.405048,0.1,92.08331,1597170460447
Fix,GT,37.5870936,-122.3503067,,31.216536,0.1,91.93765,1597170461447
Fix,GT,37.5870852,-122.3499547,,30.991858,0.1,91.935455,1597170462447
Fix,GT,37.587077,-122.3496046,,30.902178,0.1,91.94534,1597170463447
Fix,GT,37.5870687,-122.3492547,,30.962757,0.1,91.937836,1597170464447
Fix,GT,37.5870603,-122.3489045,,30.921633,0.1,91.97818,1597170465447
Fix,GT,37.5870516,-122.3485557,,30.72134,0.1,92.09207,1597170466447
Fix,GT,37.5870425,-122.3482095,,30.482773,0.1,92.18176,1597170467447
Fix,GT,37.587033,-122.3478654,,30.387703,0.1,92.24127,1597170468447
Fix,GT,37.5870237,-122.347521,,30.56612,0.1,92.19394,1597170469447
Fix,GT,37.5870146,-122.3471733,,30.880035,0.1,92.1579,1597170470447
Fix,GT,37.587005,-122.3468231,,30.980759,0.1,92.36478,1597170471447
Fix,GT,37.5869943,-122.3464729,,30.981522,0.1,92.585815,1597170472447
Fix,GT,37.5869829,-122.3461215,,31.179283,0.1,92.611786,1597170473447
Fix,GT,37.5869715,-122.3457676,,31.376278,0.1,92.50018,1597170474447
Fix,GT,37.5869605,-122.3454127,,31.32954,0.1,92.39581,1597170475447
Fix,GT,37.5869504,-122.345059,,31.187016,0.1,92.13983,1597170476447
Fix,GT,37.5869417,-122.3447059,,31.256666,0.1,91.82645,1597170477447
Fix,GT,37.5869338,-122.344351,,31.488888,0.1,91.88495,1597170478447
Fix,GT,37.5869253,-122.3439934,,31.71283,0.1,92.0618,1597170479447
Fix,GT,37.5869162,-122.3436331,,31.96732,0.1,92.031525,1597170480447
Fix,GT,37.5869072,-122.3432707,,32.07995,0.1,92.05737,1597170481447
Fix,GT,37.5868979,-122.3429073,,32.139416,0.1,92.10153,1597170482447
Fix,GT,37.5868888,-122.342543,,32.24355,0.1,92.00827,1597170483447
Fix,GT,37.5868796,-122.3421774,,32.364384,0.1,92.03174,1597170484447
Fix,GT,37.5868701,-122.3418111,,32.332764,0.1,92.08847,1597170485447
Fix,GT,37.5868608,-122.341446,,32.187984,0.1,92.03064,1597170486447
Fix,GT,37.5868518,-122.3410823,,32.10885,0.1,91.99466,1597170487447
Fix,GT,37.5868426,-122.3407196,,31.956223,0.1,92.07074,1597170488447
Fix,GT,37.5868334,-122.3403599,,31.612867,0.1,92.14334,1597170489447
Fix,GT,37.586824,-122.3400041,,31.270016,0.1,92.12607,1597170490447
Fix,GT,37.5868147,-122.3396519,,30.99712,0.1,92.11975,1597170491447
Fix,GT,37.5868054,-122.3393015,,30.995342,0.1,92.189575,1597170492447
Fix,GT,37.5867957,-122.3389488,,31.329336,0.1,92.251465,1597170493447
Fix,GT,37.5867857,-122.3385929,,31.553068,0.1,92.20801,1597170494447
Fix,GT,37.5867764,-122.3382352,,31.676136,0.1,91.99539,1597170495447
Fix,GT,37.586768,-122.3378759,,31.814823,0.1,91.91162,1597170496447
Fix,GT,37.5867592,-122.3375154,,31.865463,0.1,92.09512,1597170497447
Fix,GT,37.5867495,-122.3371545,,31.916283,0.1,92.28522,1597170498447
Fix,GT,37.5867392,-122.3367931,,31.981663,0.1,92.217926,1597170499447
Fix,GT,37.5867293,-122.3364309,,31.999325,0.1,92.08383,1597170500447
Fix,GT,37.58672,-122.3360698,,31.772978,0.1,92.22528,1597170501447
Fix,GT,37.58671,-122.3357118,,31.529205,0.1,92.18323,1597170502447
Fix,GT,37.5867007,-122.3353549,,31.587303,0.1,91.97934,1597170503447
Fix,GT,37.5866919,-122.3349958,,31.857906,0.1,92.06888,1597170504447
Fix,GT,37.5866819,-122.3346343,,32.017307,0.1,92.3302,1597170505447
Fix,GT,37.5866698,-122.3342725,,31.923717,0.1,93.14029,1597170506447
Fix,GT,37.5866515,-122.3339127,,31.760395,0.1,94.87634,1597170507447
Fix,GT,37.5866226,-122.3335556,,31.680965,0.1,97.41681,1597170508447
Fix,GT,37.5865809,-122.3332007,,31.714489,0.1,100.28549,1597170509447
Fix,GT,37.5865252,-122.3328485,,31.705938,0.1,102.966644,1597170510447
Fix,GT,37.5864561,-122.3325013,,31.516829,0.1,105.90915,1597170511447
Fix,GT,37.5863729,-122.3321618,,31.301113,0.1,109.11362,1597170512447
Fix,GT,37.5862754,-122.3318296,,31.32633,0.1,112.0134,1597170513447
Fix,GT,37.5861644,-122.3315028,,31.49847,0.1,114.938324,1597170514447
Fix,GT,37.5860387,-122.3311816,,31.74179,0.1,118.09454,1597170515447
Fix,GT,37.5858976,-122.3308678,,31.934269,0.1,121.68265,1597170516447
Fix,GT,37.5857405,-122.330565,,31.9524,0.1,125.221375,1597170517447
Fix,GT,37.5855703,-122.3302744,,31.814201,0.1,128.14648,1597170518447
Fix,GT,37.5853899,-122.3299951,,31.758343,0.1,130.71136,1597170519447
Fix,GT,37.5851992,-122.3297269,,31.808119,0.1,133.66891,1597170520447
Fix,GT,37.5849971,-122.3294714,,31.852152,0.1,136.62732,1597170521447
Fix,GT,37.5847858,-122.329228,,31.769598,0.1,138.78577,1597170522447
Fix,GT,37.5845706,-122.3289918,,31.67576,0.1,139.30273,1597170523447
Fix,GT,37.5843553,-122.3287562,,31.675436,0.1,139.0333,1597170524447
Fix,GT,37.5841405,-122.3285206,,31.60553,0.1,139.13007,1597170525447
Fix,GT,37.5839268,-122.3282854,,31.474064,0.1,138.86758,1597170526447
Fix,GT,37.5837146,-122.3280496,,31.41269,0.1,138.70752,1597170527447
Fix,GT,37.5835019,-122.3278141,,31.535522,0.1,138.96704,1597170528447
Fix,GT,37.5832871,-122.3275788,,31.715591,0.1,139.2352,1597170529447
Fix,GT,37.5830709,-122.327344,,31.700405,0.1,139.50275,1597170530447
Fix,GT,37.5828547,-122.3271106,,31.573475,0.1,139.5615,1597170531447
Fix,GT,37.5826391,-122.3268781,,31.474491,0.1,139.53528,1597170532447
Fix,GT,37.5824243,-122.3266458,,31.409327,0.1,139.53027,1597170533447
Fix,GT,37.5822105,-122.3264141,,31.242123,0.1,139.39471,1597170534447
Fix,GT,37.5819984,-122.3261831,,31.056095,0.1,139.29105,1597170535447
Fix,GT,37.5817872,-122.3259527,,31.062489,0.1,139.2027,1597170536447
Fix,GT,37.5815758,-122.3257217,,31.124788,0.1,139.24057,1597170537447
Fix,GT,37.581364,-122.3254918,,30.982681,0.1,139.55835,1597170538447
Fix,GT,37.5811526,-122.3252639,,30.86942,0.1,139.61719,1597170539447
Fix,GT,37.5809418,-122.3250359,,30.877754,0.1,139.40945,1597170540447
Fix,GT,37.5807313,-122.3248073,,30.865314,0.1,139.38907,1597170541447
Fix,GT,37.5805209,-122.3245789,,30.869236,0.1,139.36584,1597170542447
Fix,GT,37.5803102,-122.3243496,,31.005516,0.1,139.31247,1597170543447
Fix,GT,37.5800985,-122.3241193,,31.120281,0.1,139.36273,1597170544447
Fix,GT,37.5798868,-122.3238892,,30.974922,0.1,139.44965,1597170545447
Fix,GT,37.5796765,-122.3236611,,30.675606,0.1,139.3899,1597170546447
Fix,GT,37.5794687,-122.3234352,,30.321218,0.1,139.36176,1597170547447
Fix,GT,37.5792634,-122.3232119,,29.957294,0.1,139.42444,1597170548447
Fix,GT,37.5790603,-122.3229917,,29.601822,0.1,139.51007,1597170549447
Fix,GT,37.5788593,-122.3227745,,29.258333,0.1,139.59998,1597170550447
Fix,GT,37.5786602,-122.3225597,,29.062008,0.1,139.61908,1597170551447
Fix,GT,37.5784614,-122.3223449,,29.192822,0.1,139.43735,1597170552447
Fix,GT,37.5782616,-122.3221269,,29.582766,0.1,139.17053,1597170553447
Fix,GT,37.5780593,-122.3219049,,29.988407,0.1,139.09024,1597170554447
Fix,GT,37.5778549,-122.3216816,,30.054298,0.1,139.35138,1597170555447
Fix,GT,37.5776504,-122.3214607,,29.867918,0.1,139.62515,1597170556447
Fix,GT,37.577446,-122.3212402,,29.953175,0.1,139.42798,1597170557447
Fix,GT,37.5772414,-122.3210173,,30.186419,0.1,139.26517,1597170558447
Fix,GT,37.5770352,-122.3207923,,30.462149,0.1,139.28754,1597170559447
Fix,GT,37.5768267,-122.3205656,,30.763103,0.1,139.3778,1597170560447
Fix,GT,37.5766168,-122.3203379,,30.800539,0.1,139.54507,1597170561447
Fix,GT,37.5764068,-122.3201113,,30.6247,0.1,139.54837,1597170562447
Fix,GT,37.5761983,-122.3198861,,30.355106,0.1,139.49011,1597170563447
Fix,GT,37.5759917,-122.3196627,,30.174498,0.1,139.55566,1597170564447
Fix,GT,37.5757853,-122.3194398,,30.28941,0.1,139.53348,1597170565447
Fix,GT,37.5755771,-122.3192145,,30.673626,0.1,139.3963,1597170566447
Fix,GT,37.5753673,-122.318986,,30.91302,0.1,139.23615,1597170567447
Fix,GT,37.5751574,-122.3187566,,30.834255,0.1,139.18207,1597170568447
Fix,GT,37.574948,-122.3185277,,30.810093,0.1,139.2984,1597170569447
Fix,GT,37.5747378,-122.3182994,,30.855999,0.1,139.47784,1597170570447
Fix,GT,37.5745271,-122.3180713,,30.871433,0.1,139.49744,1597170571447
Fix,GT,37.5743164,-122.317843,,30.8992,0.1,139.48145,1597170572447
Fix,GT,37.574105,-122.3176139,,31.102161,0.1,139.43658,1597170573447
Fix,GT,37.573892,-122.3173821,,31.420547,0.1,139.20737,1597170574447
Fix,GT,37.5736777,-122.3171479,,31.545383,0.1,139.18347,1597170575447
Fix,GT,37.5734631,-122.3169139,,31.48508,0.1,139.37616,1597170576447
Fix,GT,37.5732492,-122.3166815,,31.253471,0.1,139.38074,1597170577447
Fix,GT,37.5730371,-122.3164507,,31.05897,0.1,139.30368,1597170578447
Fix,GT,37.5728257,-122.3162204,,31.113934,0.1,139.2987,1597170579447
Fix,GT,37.5726133,-122.3159888,,31.313898,0.1,139.34424,1597170580447
Fix,GT,37.572399,-122.3157559,,31.60868,0.1,139.36844,1597170581447
Fix,GT,37.5721826,-122.3155202,,31.954208,0.1,139.21732,1597170582447
Fix,GT,37.5719647,-122.3152822,,32.102776,0.1,139.15665,1597170583447
Fix,GT,37.5717466,-122.3150437,,32.09093,0.1,139.19879,1597170584447
Fix,GT,37.5715278,-122.314805,,32.21424,0.1,139.25943,1597170585447
Fix,GT,37.5713079,-122.3145656,,32.358707,0.1,139.25266,1597170586447
Fix,GT,37.5710868,-122.3143256,,32.49631,0.1,139.39468,1597170587447
Fix,GT,37.5708643,-122.3140845,,32.72854,0.1,139.36334,1597170588447
Fix,GT,37.5706406,-122.3138413,,32.87434,0.1,139.1947,1597170589447
Fix,GT,37.570417,-122.3135979,,32.7903,0.1,139.35876,1597170590447
Fix,GT,37.5701934,-122.3133557,,32.765648,0.1,139.49652,1597170591447
Fix,GT,37.5699691,-122.3131138,,32.82463,0.1,139.57574,1597170592447
Fix,GT,37.5697442,-122.312872,,32.81839,0.1,139.61649,1597170593447
Fix,GT,37.5695201,-122.3126304,,32.731342,0.1,139.4939,1597170594447
Fix,GT,37.5692969,-122.3123886,,32.67782,0.1,139.35059,1597170595447
Fix,GT,37.5690743,-122.3121469,,32.621906,0.1,139.43652,1597170596447
Fix,GT,37.5688515,-122.3119062,,32.60998,0.1,139.62567,1597170597447
Fix,GT,37.568628,-122.3116661,,32.620583,0.1,139.7362,1597170598447
Fix,GT,37.5684049,-122.3114265,,32.53155,0.1,139.63376,1597170599447
Fix,GT,37.5681832,-122.311187,,32.357975,0.1,139.45044,1597170600447
Fix,GT,37.5679637,-122.3109482,,32.131542,0.1,139.27274,1597170601447
Fix,GT,37.5677457,-122.3107103,,31.973524,0.1,139.26086,1597170602447
Fix,GT,37.567528,-122.3104736,,31.969059,0.1,139.38757,1597170603447
Fix,GT,37.5673097,-122.3102367,,32.062576,0.1,139.37463,1597170604447
Fix,GT,37.5670908,-122.3099987,,32.244007,0.1,139.27899,1597170605447
Fix,GT,37.5668702,-122.3097587,,32.53587,0.1,139.30023,1597170606447
Fix,GT,37.5666475,-122.3095168,,32.775093,0.1,139.37378,1597170607447
Fix,GT,37.5664241,-122.3092741,,32.73202,0.1,139.47424,1597170608447
Fix,GT,37.566201,-122.3090335,,32.54348,0.1,139.75421,1597170609447
Fix,GT,37.5659781,-122.3087949,,32.463104,0.1,139.79584,1597170610447
Fix,GT,37.565756,-122.3085566,,32.350086,0.1,139.58075,1597170611447
Fix,GT,37.5655361,-122.3083187,,32.043873,0.1,139.40741,1597170612447
Fix,GT,37.5653193,-122.3080825,,31.667458,0.1,139.28723,1597170613447
Fix,GT,37.565105,-122.307849,,31.283466,0.1,139.31659,1597170614447
Fix,GT,37.564893,-122.3076182,,30.989239,0.1,139.32083,1597170615447
Fix,GT,37.5646829,-122.3073891,,30.7874,0.1,139.2687,1597170616447
Fix,GT,37.5644742,-122.3071611,,30.61792,0.1,139.14789,1597170617447
Fix,GT,37.5642666,-122.3069337,,30.534178,0.1,139.16425,1597170618447
Fix,GT,37.564059,-122.3067073,,30.496006,0.1,139.4024,1597170619447
Fix,GT,37.5638509,-122.3064818,,30.51765,0.1,139.4732,1597170620447
Fix,GT,37.5636423,-122.3062556,,30.691555,0.1,139.44028,1597170621447
Fix,GT,37.5634322,-122.306028,,30.882572,0.1,139.487,1597170622447
Fix,GT,37.563221,-122.3057995,,30.924866,0.1,139.47253,1597170623447
Fix,GT,37.5630102,-122.3055708,,30.889208,0.1,139.41876,1597170624447
Fix,GT,37.5628003,-122.3053427,,30.703905,0.1,139.41418,1597170625447
Fix,GT,37.5625916,-122.3051165,,30.51346,0.1,139.47958,1597170626447
Fix,GT,37.5623836,-122.3048913,,30.489304,0.1,139.39563,1597170627447
Fix,GT,37.5621758,-122.3046651,,30.56908,0.1,139.18756,1597170628447
Fix,GT,37.5619678,-122.3044376,,30.61052,0.1,139.27441,1597170629447
Fix,GT,37.5617593,-122.3042116,,30.506756,0.1,139.65314,1597170630447
Fix,GT,37.5615507,-122.3039875,,30.439606,0.1,139.6977,1597170631447
Fix,GT,37.5613425,-122.3037629,,30.44891,0.1,139.53162,1597170632447
Fix,GT,37.5611349,-122.3035383,,30.366251,0.1,139.49603,1597170633447
Fix,GT,37.560928,-122.3033141,,30.327236,0.1,139.52008,1597170634447
Fix,GT,37.5607204,-122.3030902,,30.37358,0.1,139.75497,1597170635447
Fix,GT,37.5605111,-122.302869,,30.328903,0.1,140.46698,1597170636447
Fix,GT,37.5603,-122.302652,,30.258324,0.1,141.35736,1597170637447
Fix,GT,37.5600867,-122.302439,,30.22496,0.1,142.2518,1597170638447
Fix,GT,37.5598709,-122.3022303,,30.207676,0.1,143.03735,1597170639447
Fix,GT,37.5596537,-122.3020246,,30.168016,0.1,143.37555,1597170640447
Fix,GT,37.5594363,-122.3018213,,29.99338,0.1,143.86835,1597170641447
Fix,GT,37.559219,-122.3016215,,29.757648,0.1,144.30594,1597170642447
Fix,GT,37.5590024,-122.3014252,,29.470974,0.1,144.53217,1597170643447
Fix,GT,37.5587878,-122.301232,,29.134666,0.1,144.63718,1597170644447
Fix,GT,37.5585759,-122.3010408,,28.783585,0.1,144.4961,1597170645447
Fix,GT,37.5583667,-122.3008517,,28.442272,0.1,144.68439,1597170646447
Fix,GT,37.5581587,-122.3006667,,28.164059,0.1,145.16467,1597170647447
Fix,GT,37.5579512,-122.3004848,,28.050526,0.1,145.49619,1597170648447
Fix,GT,37.5577437,-122.3003041,,27.980488,0.1,145.49402,1597170649447
Fix,GT,37.5575369,-122.3001238,,27.888542,0.1,145.4267,1597170650447
Fix,GT,37.5573309,-122.2999427,,27.96136,0.1,145.05237,1597170651447
Fix,GT,37.5571249,-122.2997584,,28.182072,0.1,144.53366,1597170652447
Fix,GT,37.5569185,-122.2995706,,28.341345,0.1,144.16895,1597170653447
Fix,GT,37.5567126,-122.2993809,,28.362907,0.1,143.84265,1597170654447
Fix,GT,37.5565069,-122.2991898,,28.43938,0.1,143.76837,1597170655447
Fix,GT,37.5563003,-122.2989984,,28.562962,0.1,143.84833,1597170656447
Fix,GT,37.5560927,-122.2988065,,28.682476,0.1,143.9029,1597170657447
Fix,GT,37.5558839,-122.2986133,,28.879395,0.1,143.73993,1597170658447
Fix,GT,37.5556743,-122.2984181,,29.0085,0.1,143.67218,1597170659447
Fix,GT,37.5554643,-122.2982227,,28.982346,0.1,143.84192,1597170660447
Fix,GT,37.555254,-122.2980285,,28.969297,0.1,143.91687,1597170661447
Fix,GT,37.5550436,-122.2978343,,29.016247,0.1,143.78003,1597170662447
Fix,GT,37.5548333,-122.2976382,,29.096828,0.1,143.51837,1597170663447
Fix,GT,37.5546234,-122.2974407,,29.079966,0.1,143.20337,1597170664447
Fix,GT,37.5544154,-122.2972423,,28.871151,0.1,142.7818,1597170665447
Fix,GT,37.5542107,-122.2970436,,28.546352,0.1,142.30762,1597170666447
Fix,GT,37.5540094,-122.2968458,,28.212307,0.1,142.1062,1597170667447
Fix,GT,37.5538104,-122.2966501,,27.904987,0.1,142.36374,1597170668447
Fix,GT,37.5536122,-122.2964577,,27.687311,0.1,142.90604,1597170669447
Fix,GT,37.5534137,-122.2962684,,27.637705,0.1,143.3086,1597170670447
Fix,GT,37.5532144,-122.2960806,,27.688618,0.1,143.44855,1597170671447
Fix,GT,37.553014,-122.2958932,,27.761547,0.1,143.70807,1597170672447
Fix,GT,37.5528119,-122.295706,,27.992231,0.1,144.02097,1597170673447
Fix,GT,37.5526071,-122.2955173,,28.423306,0.1,143.97882,1597170674447
Fix,GT,37.552399,-122.2953249,,28.916008,0.1,143.80078,1597170675447
Fix,GT,37.5521885,-122.2951288,,29.25954,0.1,143.61545,1597170676447
Fix,GT,37.5519759,-122.2949305,,29.526073,0.1,143.68506,1597170677447
Fix,GT,37.5517603,-122.2947305,,29.998474,0.1,143.82349,1597170678447
Fix,GT,37.551541,-122.2945278,,30.435167,0.1,143.95358,1597170679447
Fix,GT,37.5513189,-122.294323,,30.672249,0.1,143.86801,1597170680447
Fix,GT,37.5510966,-122.2941168,,30.575567,0.1,143.6272,1597170681447
Fix,GT,37.5508772,-122.293911,,30.198887,0.1,143.38074,1597170682447
Fix,GT,37.5506613,-122.2937072,,29.74274,0.1,143.27832,1597170683447
Fix,GT,37.5504486,-122.2935068,,29.329216,0.1,143.49783,1597170684447
Fix,GT,37.5502374,-122.2933091,,29.163448,0.1,143.53119,1597170685447
Fix,GT,37.5500267,-122.2931114,,29.227047,0.1,143.37653,1597170686447
Fix,GT,37.5498155,-122.2929128,,29.342983,0.1,143.419,1597170687447
Fix,GT,37.5496034,-122.2927145,,29.355145,0.1,143.59204,1597170688447
Fix,GT,37.5493914,-122.2925158,,29.36089,0.1,143.37332,1597170689447
Fix,GT,37.5491795,-122.2923154,,29.561476,0.1,143.12564,1597170690447
Fix,GT,37.5489659,-122.2921133,,29.756233,0.1,143.35553,1597170691447
Fix,GT,37.5487506,-122.291912,,29.759674,0.1,143.70276,1597170692447
Fix,GT,37.5485355,-122.2917126,,29.603436,0.1,143.8812,1597170693447
Fix,GT,37.5483211,-122.2915155,,29.367329,0.1,144.16815,1597170694447
Fix,GT,37.5481076,-122.29132,,29.32256,0.1,144.07538,1597170695447
Fix,GT,37.5478942,-122.2911232,,29.478174,0.1,143.82993,1597170696447
Fix,GT,37.5476795,-122.290924,,29.81048,0.1,143.72687,1597170697447
Fix,GT,37.5474627,-122.2907219,,30.128452,0.1,143.5951,1597170698447
Fix,GT,37.5472441,-122.2905186,,30.200846,0.1,143.76154,1597170699447
Fix,GT,37.5470254,-122.290316,,30.113262,0.1,143.74805,1597170700447
Fix,GT,37.5468079,-122.2901134,,30.034088,0.1,143.59106,1597170701447
Fix,GT,37.5465903,-122.2899107,,30.117048,0.1,143.68906,1597170702447
Fix,GT,37.5463717,-122.2897076,,30.285843,0.1,143.72308,1597170703447
Fix,GT,37.5461517,-122.2895035,,30.430042,0.1,143.79138,1597170704447
Fix,GT,37.5459307,-122.2892985,,30.546242,0.1,143.75378,1597170705447
Fix,GT,37.5457095,-122.2890927,,30.535482,0.1,143.68857,1597170706447
Fix,GT,37.5454885,-122.2888871,,30.530859,0.1,143.66785,1597170707447
Fix,GT,37.5452676,-122.288681,,30.590527,0.1,143.60028,1597170708447
Fix,GT,37.5450461,-122.2884749,,30.588678,0.1,143.75662,1597170709447
Fix,GT,37.5448245,-122.2882694,,30.59076,0.1,143.76907,1597170710447
Fix,GT,37.5446022,-122.2880631,,30.780258,0.1,143.87341,1597170711447
Fix,GT,37.544378,-122.2878566,,30.863184,0.1,144.19409,1597170712447
Fix,GT,37.544153,-122.2876511,,30.891163,0.1,144.03717,1597170713447
Fix,GT,37.5439288,-122.2874436,,30.930742,0.1,143.73145,1597170714447
Fix,GT,37.5437049,-122.2872356,,30.86869,0.1,143.80688,1597170715447
Fix,GT,37.5434815,-122.2870288,,30.737957,0.1,143.89389,1597170716447
Fix,GT,37.5432586,-122.2868227,,30.717773,0.1,143.80167,1597170717447
Fix,GT,37.5430359,-122.2866158,,30.769608,0.1,143.63861,1597170718447
Fix,GT,37.5428132,-122.286408,,30.811607,0.1,143.65607,1597170719447
Fix,GT,37.5425899,-122.2862006,,30.87121,0.1,143.85529,1597170720447
Fix,GT,37.5423653,-122.2859936,,31.000595,0.1,143.9935,1597170721447
Fix,GT,37.5421392,-122.2857857,,31.205624,0.1,144.01715,1597170722447
Fix,GT,37.5419116,-122.2855761,,31.41843,0.1,143.92755,1597170723447
Fix,GT,37.5416832,-122.2853657,,31.412836,0.1,144.02014,1597170724447
Fix,GT,37.5414554,-122.2851571,,31.127892,0.1,144.20615,1597170725447
Fix,GT,37.5412298,-122.2849512,,30.796787,0.1,144.1612,1597170726447
Fix,GT,37.5410063,-122.2847464,,30.654396,0.1,144.14441,1597170727447
Fix,GT,37.5407832,-122.2845424,,30.63741,0.1,144.2182,1597170728447
Fix,GT,37.5405602,-122.2843386,,30.605843,0.1,144.13611,1597170729447
Fix,GT,37.5403376,-122.2841335,,30.70209,0.1,143.86829,1597170730447
Fix,GT,37.5401145,-122.2839272,,30.794937,0.1,143.78064,1597170731447
Fix,GT,37.5398913,-122.2837207,,30.711893,0.1,143.9043,1597170732447
Fix,GT,37.5396693,-122.2835161,,30.384995,0.1,144.03372,1597170733447
Fix,GT,37.5394496,-122.2833141,,30.092087,0.1,144.04224,1597170734447
Fix,GT,37.5392314,-122.283114,,29.896042,0.1,144.09064,1597170735447
Fix,GT,37.5390146,-122.2829152,,29.68333,0.1,144.09207,1597170736447
Fix,GT,37.5387993,-122.2827177,,29.515766,0.1,144.08405,1597170737447
Fix,GT,37.5385849,-122.2825207,,29.503168,0.1,143.98419,1597170738447
Fix,GT,37.5383699,-122.2823224,,29.752811,0.1,143.77533,1597170739447
Fix,GT,37.5381539,-122.2821211,,29.941628,0.1,143.56543,1597170740447
Fix,GT,37.5379379,-122.2819187,,29.854877,0.1,143.53131,1597170741447
Fix,GT,37.5377225,-122.2817173,,29.765339,0.1,143.66858,1597170742447
Fix,GT,37.5375076,-122.2815178,,29.538277,0.1,143.88367,1597170743447
Fix,GT,37.5372942,-122.2813207,,29.311123,0.1,143.87463,1597170744447
Fix,GT,37.5370814,-122.2811238,,29.40549,0.1,143.75793,1597170745447
Fix,GT,37.5368679,-122.2809253,,29.557077,0.1,143.72723,1597170746447
Fix,GT,37.536654,-122.280727,,29.453487,0.1,143.8706,1597170747447
Fix,GT,37.5364404,-122.2805297,,29.411356,0.1,143.8808,1597170748447
Fix,GT,37.5362272,-122.2803329,,29.314938,0.1,143.84204,1597170749447
Fix,GT,37.536015,-122.2801365,,29.222136,0.1,143.77106,1597170750447
Fix,GT,37.5358034,-122.27994,,29.17896,0.1,143.73566,1597170751447
Fix,GT,37.5355924,-122.2797449,,28.957115,0.1,143.9331,1597170752447
Fix,GT,37.5353826,-122.2795526,,28.711102,0.1,144.078,1597170753447
Fix,GT,37.5351745,-122.2793614,,28.55479,0.1,143.97742,1597170754447
Fix,GT,37.5349674,-122.2791703,,28.501078,0.1,143.77002,1597170755447
Fix,GT,37.5347614,-122.2789789,,28.367596,0.1,143.66895,1597170756447
Fix,GT,37.534557,-122.278789,,28.07328,0.1,143.8201,1597170757447
Fix,GT,37.5343544,-122.2786019,,27.76612,0.1,143.96194,1597170758447
Fix,GT,37.5341532,-122.2784169,,27.597702,0.1,143.94122,1597170759447
Fix,GT,37.5339529,-122.278232,,27.613796,0.1,143.84015,1597170760447
Fix,GT,37.5337526,-122.2780461,,27.6829,0.1,143.7262,1597170761447
Fix,GT,37.5335516,-122.277859,,27.911575,0.1,143.63104,1597170762447
Fix,GT,37.5333479,-122.2776693,,28.414104,0.1,143.66766,1597170763447
Fix,GT,37.5331402,-122.2774759,,29.006403,0.1,143.66125,1597170764447
Fix,GT,37.5329279,-122.2772784,,29.67792,0.1,143.7207,1597170765447
Fix,GT,37.5327101,-122.2770768,,30.313555,0.1,143.8601,1597170766447
Fix,GT,37.5324889,-122.2768723,,30.569443,0.1,143.84735,1597170767447
Fix,GT,37.5322673,-122.2766674,,30.482868,0.1,143.9111,1597170768447
Fix,GT,37.5320466,-122.2764641,,30.23332,0.1,143.92914,1597170769447
Fix,GT,37.5318284,-122.2762627,,29.888927,0.1,143.70331,1597170770447
Fix,GT,37.5316137,-122.2760615,,29.620909,0.1,143.18826,1597170771447
Fix,GT,37.5314018,-122.2758591,,29.481388,0.1,142.73181,1597170772447
Fix,GT,37.5311915,-122.2756553,,29.517021,0.1,142.1853,1597170773447
Fix,GT,37.5309822,-122.2754483,,29.634235,0.1,141.59491,1597170774447
Fix,GT,37.5307737,-122.2752382,,29.686222,0.1,141.17542,1597170775447
Fix,GT,37.5305664,-122.2750253,,29.75996,0.1,140.54498,1597170776447
Fix,GT,37.5303601,-122.2748092,,29.90617,0.1,140.09967,1597170777447
Fix,GT,37.5301535,-122.2745893,,30.235714,0.1,139.69104,1597170778447
Fix,GT,37.5299461,-122.2743645,,30.566372,0.1,139.00647,1597170779447
Fix,GT,37.529739,-122.2741349,,30.762966,0.1,138.34702,1597170780447
Fix,GT,37.5295326,-122.2739009,,30.910877,0.1,137.95657,1597170781447
Fix,GT,37.5293259,-122.2736657,,30.986477,0.1,138.07062,1597170782447
Fix,GT,37.529118,-122.2734301,,31.170895,0.1,138.0849,1597170783447
Fix,GT,37.5289097,-122.2731923,,31.285553,0.1,137.80737,1597170784447
Fix,GT,37.5287018,-122.2729541,,31.159538,0.1,137.83862,1597170785447
Fix,GT,37.528495,-122.2727172,,31.015162,0.1,137.82141,1597170786447
Fix,GT,37.5282888,-122.2724807,,30.995903,0.1,137.85071,1597170787447
Fix,GT,37.5280823,-122.2722445,,31.028801,0.1,137.95929,1597170788447
Fix,GT,37.527875,-122.2720083,,31.153248,0.1,138.0232,1597170789447
Fix,GT,37.5276667,-122.2717708,,31.27378,0.1,137.95575,1597170790447
Fix,GT,37.5274583,-122.2715333,,31.134167,0.1,138.05792,1597170791447
Fix,GT,37.5272512,-122.2712979,,30.88558,0.1,138.08377,1597170792447
Fix,GT,37.5270459,-122.271064,,30.661156,0.1,137.99487,1597170793447
Fix,GT,37.526842,-122.2708318,,30.446154,0.1,138.03455,1597170794447
Fix,GT,37.5266394,-122.2706016,,30.216858,0.1,137.9798,1597170795447
Fix,GT,37.5264388,-122.2703725,,29.971375,0.1,137.9502,1597170796447
Fix,GT,37.5262397,-122.2701452,,29.801998,0.1,137.95825,1597170797447
Fix,GT,37.5260411,-122.2699186,,29.82084,0.1,138.1113,1597170798447
Fix,GT,37.525841,-122.2696926,,29.923645,0.1,138.4885,1597170799447
Fix,GT,37.5256391,-122.2694679,,29.971252,0.1,138.69916,1597170800447
Fix,GT,37.5254367,-122.2692421,,30.146786,0.1,138.52106,1597170801447
Fix,GT,37.5252332,-122.2690136,,30.440609,0.1,138.3888,1597170802447
Fix,GT,37.5250282,-122.2687826,,30.616615,0.1,138.30374,1597170803447
Fix,GT,37.5248228,-122.2685506,,30.732693,0.1,138.17975,1597170804447
Fix,GT,37.5246168,-122.2683169,,30.888674,0.1,138.08835,1597170805447
Fix,GT,37.5244097,-122.2680815,,31.118319,0.1,138.07483,1597170806447
Fix,GT,37.5242009,-122.2678441,,31.430874,0.1,138.09848,1597170807447
Fix,GT,37.5239898,-122.2676044,,31.766243,0.1,138.11578,1597170808447
Fix,GT,37.5237763,-122.2673626,,32.015762,0.1,138.23233,1597170809447
Fix,GT,37.5235613,-122.2671203,,32.087936,0.1,138.44354,1597170810447
Fix,GT,37.5233456,-122.2668791,,32.00031,0.1,138.62622,1597170811447
Fix,GT,37.5231308,-122.2666395,,31.810022,0.1,138.55566,1597170812447
Fix,GT,37.5229175,-122.2664004,,31.624653,0.1,138.31598,1597170813447
Fix,GT,37.5227064,-122.2661616,,31.439554,0.1,138.17236,1597170814447
Fix,GT,37.5224967,-122.2659238,,31.319073,0.1,138.05283,1597170815447
Fix,GT,37.5222881,-122.2656861,,31.198835,0.1,137.96503,1597170816447
Fix,GT,37.5220807,-122.2654498,,30.95568,0.1,138.0534,1597170817447
Fix,GT,37.5218746,-122.2652157,,30.744781,0.1,138.11926,1597170818447
Fix,GT,37.5216695,-122.264983,,30.657986,0.1,138.10205,1597170819447
Fix,GT,37.5214645,-122.2647502,,30.697388,0.1,138.08759,1597170820447
Fix,GT,37.5212592,-122.2645171,,30.727139,0.1,138.18494,1597170821447
Fix,GT,37.5210537,-122.2642849,,30.640625,0.1,138.33823,1597170822447
Fix,GT,37.5208482,-122.2640538,,30.603523,0.1,138.42468,1597170823447
Fix,GT,37.5206425,-122.263823,,30.623852,0.1,138.4289,1597170824447
Fix,GT,37.520437,-122.2635922,,30.583467,0.1,138.29944,1597170825447
Fix,GT,37.5202326,-122.2633607,,30.51343,0.1,138.00421,1597170826447
Fix,GT,37.5200295,-122.2631283,,30.503717,0.1,137.78885,1597170827447
Fix,GT,37.519826,-122.2628956,,30.614208,0.1,137.89502,1597170828447
Fix,GT,37.5196211,-122.2626624,,30.798487,0.1,138.12769,1597170829447
Fix,GT,37.5194145,-122.2624287,,30.876076,0.1,138.26685,1597170830447
Fix,GT,37.5192074,-122.2621953,,30.930138,0.1,138.20874,1597170831447
Fix,GT,37.5190002,-122.2619602,,31.102089,0.1,138.02283,1597170832447
Fix,GT,37.518792,-122.2617231,,31.280579,0.1,138.02808,1597170833447
Fix,GT,37.5185824,-122.2614852,,31.440235,0.1,138.17679,1597170834447
Fix,GT,37.5183712,-122.2612468,,31.604404,0.1,138.30957,1597170835447
Fix,GT,37.5181589,-122.2610078,,31.673634,0.1,138.33539,1597170836447
Fix,GT,37.5179468,-122.2607685,,31.57922,0.1,138.2406,1597170837447
Fix,GT,37.517736,-122.2605299,,31.447361,0.1,138.17688,1597170838447
Fix,GT,37.517526,-122.2602919,,31.36065,0.1,138.15192,1597170839447
Fix,GT,37.5173167,-122.260054,,31.297943,0.1,137.9906,1597170840447
Fix,GT,37.5171081,-122.2598163,,31.232876,0.1,138.01361,1597170841447
Fix,GT,37.5168994,-122.2595796,,31.190239,0.1,138.24042,1597170842447
Fix,GT,37.5166904,-122.2593441,,31.143917,0.1,138.36438,1597170843447
Fix,GT,37.5164817,-122.2591093,,31.071049,0.1,138.3341,1597170844447
Fix,GT,37.5162737,-122.2588746,,30.996082,0.1,138.20297,1597170845447
Fix,GT,37.5160665,-122.2586401,,30.939758,0.1,138.17401,1597170846447
Fix,GT,37.5158596,-122.2584058,,30.954102,0.1,138.14197,1597170847447
Fix,GT,37.5156523,-122.2581708,,31.04821,0.1,138.19568,1597170848447
Fix,GT,37.515444,-122.2579356,,31.086172,0.1,138.24982,1597170849447
Fix,GT,37.5152359,-122.2577007,,30.989313,0.1,138.21518,1597170850447
Fix,GT,37.5150289,-122.2574666,,30.879223,0.1,138.30276,1597170851447
Fix,GT,37.514822,-122.2572334,,30.859695,0.1,138.29889,1597170852447
Fix,GT,37.5146149,-122.2569998,,30.917076,0.1,138.21344,1597170853447
Fix,GT,37.5144079,-122.2567655,,30.966152,0.1,138.16592,1597170854447
Fix,GT,37.5142004,-122.2565309,,31.008999,0.1,138.23865,1597170855447
Fix,GT,37.5139924,-122.2562968,,31.00622,0.1,138.41895,1597170856447
Fix,GT,37.5137842,-122.2560636,,30.927666,0.1,138.48639,1597170857447
Fix,GT,37.5135768,-122.2558308,,30.84024,0.1,138.39221,1597170858447
Fix,GT,37.51337,-122.2555983,,30.781803,0.1,138.32721,1597170859447
Fix,GT,37.513164,-122.2553657,,30.694557,0.1,138.2677,1597170860447
Fix,GT,37.5129587,-122.2551339,,30.595955,0.1,138.27203,1597170861447
Fix,GT,37.5127539,-122.2549031,,30.496277,0.1,138.32379,1597170862447
Fix,GT,37.5125497,-122.254673,,30.39667,0.1,138.24146,1597170863447
Fix,GT,37.5123467,-122.2544429,,30.314007,0.1,138.01837,1597170864447
Fix,GT,37.5121448,-122.2542129,,30.21664,0.1,138.02399,1597170865447
