MessageType,Provider,LatitudeDegrees,LongitudeDegrees,AltitudeMeters,SpeedMps,AccuracyMeters,BearingDegrees,UnixTimeMillis
Fix,GT,37.5232686,-122.354297,,0.002236068,0.1,257.6142,1590794869440
Fix,GT,37.5232686,-122.354297,,0.002236068,0.1,257.61386,1590794870440
Fix,GT,37.5232686,-122.354297,,0.002236068,0.1,257.61493,1590794871440
Fix,GT,37.5232686,-122.354297,,0.0012512676,0.1,257.61566,1590794872440
Fix,GT,37.5232686,-122.354297,,0.0,0.1,257.6155,1590794873440
Fix,GT,37.5232686,-122.354297,,0.0006228424,0.1,257.6153,1590794874440
Fix,GT,37.5232685,-122.354297,,0.0012317873,0.1,257.61475,1590794875440
Fix,GT,37.5232685,-122.354297,,0.0015443843,0.1,257.61493,1590794876440
Fix,GT,37.5232685,-122.354297,,0.002236068,0.1,257.61615,1590794877440
Fix,GT,37.5232685,-122.354297,,0.002236068,0.1,257.61685,1590794878440
Fix,GT,37.5232685,-122.354297,,0.0028392104,0.1,257.61697,1590794879440
Fix,GT,37.5232685,-122.354297,,0.0048376475,0.1,257.61792,1590794880440
Fix,GT,37.5232685,-122.354297,,0.0057851654,0.1,257.61877,1590794881440
Fix,GT,37.5232685,-122.354297,,0.0084035015,0.1,257.581,1590794882440
Fix,GT,37.5232686,-122.3542971,,0.030381147,0.1,257.5063,1590794883440
Fix,GT,37.5232676,-122.3542986,,0.33187783,0.1,255.64294,1590794884440
Fix,GT,37.5232634,-122.3543038,,0.9621784,0.1,248.87602,1590794885440
Fix,GT,37.5232541,-122.3543132,,1.7438349,0.1,237.49762,1590794886440
Fix,GT,37.5232401,-122.3543297,,2.5621004,0.1,231.42818,1590794887440
Fix,GT,37.5232246,-122.3543568,,3.304351,0.1,237.20947,1590794888440
Fix,GT,37.5232124,-122.3543923,,3.2784767,0.1,248.64197,1590794889440
Fix,GT,37.5232069,-122.354422,,1.8061206,0.1,258.58057,1590794890440
Fix,GT,37.5232057,-122.3544336,,0.4477547,0.1,261.6812,1590794891440
Fix,GT,37.5232056,-122.3544348,,0.0043886164,0.1,261.99066,1590794892440
Fix,GT,37.5232056,-122.3544348,,0.0021321,0.1,261.98895,1590794893440
Fix,GT,37.5232056,-122.3544348,,0.001559584,0.1,261.98904,1590794894440
Fix,GT,37.5232056,-122.3544348,,0.0011824265,0.1,261.98932,1590794895440
Fix,GT,37.5232056,-122.3544348,,0.002379314,0.1,261.98923,1590794896440
Fix,GT,37.5232056,-122.3544348,,0.0038334907,0.1,261.98962,1590794897440
Fix,GT,37.5232056,-122.3544348,,0.0036284719,0.1,261.99017,1590794898440
Fix,GT,37.5232056,-122.3544348,,0.002663552,0.1,261.99045,1590794899440
Fix,GT,37.5232056,-122.3544347,,0.0018741101,0.1,261.99042,1590794900440
Fix,GT,37.5232056,-122.3544347,,0.0016722034,0.1,261.99072,1590794901440
Fix,GT,37.5232056,-122.3544347,,0.001559584,0.1,261.9916,1590794902440
Fix,GT,37.5232056,-122.3544347,,0.002147527,0.1,261.99207,1590794903440
Fix,GT,37.5232056,-122.3544347,,0.003002409,0.1,261.9929,1590794904440
Fix,GT,37.5232056,-122.3544346,,0.0030129324,0.1,261.99387,1590794905440
Fix,GT,37.5232054,-122.3544355,,0.27448428,0.1,262.21802,1590794906440
Fix,GT,37.5232047,-122.3544425,,1.0848148,0.1,263.02386,1590794907440
Fix,GT,37.5232027,-122.3544596,,1.8966162,0.1,264.3946,1590794908440
Fix,GT,37.5232007,-122.3544829,,2.085549,0.1,266.5366,1590794909440
Fix,GT,37.5231995,-122.3545056,,1.8464608,0.1,269.13968,1590794910440
Fix,GT,37.5231992,-122.3545252,,1.6138024,0.1,271.12506,1590794911440
Fix,GT,37.5231991,-122.3545419,,1.3062317,0.1,272.45792,1590794912440
Fix,GT,37.5231992,-122.3545538,,0.7881453,0.1,273.335,1590794913440
Fix,GT,37.5231993,-122.3545594,,0.2687585,0.1,273.7541,1590794914440
Fix,GT,37.5231993,-122.3545604,,0.002930066,0.1,273.82663,1590794915440
Fix,GT,37.5231993,-122.3545604,,0.0021126196,0.1,273.8269,1590794916440
Fix,GT,37.5231994,-122.3545604,,0.0034946338,0.1,273.82745,1590794917440
Fix,GT,37.5231994,-122.3545604,,0.0040688883,0.1,273.82718,1590794918440
Fix,GT,37.5231994,-122.3545608,,0.15775575,0.1,273.86908,1590794919440
Fix,GT,37.5231991,-122.3545659,,1.0510083,0.1,272.87878,1590794920440
Fix,GT,37.523196,-122.3545877,,3.0569165,0.1,268.4118,1590794921440
Fix,GT,37.5231896,-122.3546344,,5.248997,0.1,264.82962,1590794922440
Fix,GT,37.5231821,-122.3547024,,6.807088,0.1,266.1729,1590794923440
Fix,GT,37.5231752,-122.3547854,,7.872966,0.1,268.22253,1590794924440
Fix,GT,37.5231698,-122.3548781,,8.532374,0.1,270.023,1590794925440
Fix,GT,37.5231655,-122.3549778,,9.088345,0.1,270.97202,1590794926440
Fix,GT,37.5231618,-122.3550837,,9.65056,0.1,271.456,1590794927440
Fix,GT,37.5231579,-122.3551958,,10.1704235,0.1,271.14978,1590794928440
Fix,GT,37.5231528,-122.3553131,,10.602483,0.1,270.67557,1590794929440
Fix,GT,37.5231477,-122.3554352,,10.996219,0.1,271.0912,1590794930440
Fix,GT,37.5231436,-122.3555623,,11.449043,0.1,271.77643,1590794931440
Fix,GT,37.5231404,-122.3556943,,11.832412,0.1,272.28113,1590794932440
Fix,GT,37.5231378,-122.3558289,,11.899233,0.1,272.5666,1590794933440
Fix,GT,37.523136,-122.3559623,,11.654861,0.1,273.01837,1590794934440
Fix,GT,37.5231349,-122.3560918,,11.17326,0.1,273.13544,1590794935440
Fix,GT,37.5231335,-122.3562146,,10.529409,0.1,272.97263,1590794936440
Fix,GT,37.523132,-122.356329,,9.679291,0.1,272.8183,1590794937440
Fix,GT,37.5231304,-122.3564318,,8.398313,0.1,272.63007,1590794938440
Fix,GT,37.5231291,-122.3565186,,6.935461,0.1,272.77393,1590794939440
Fix,GT,37.5231281,-122.3565884,,5.3974943,0.1,272.83575,1590794940440
Fix,GT,37.5231272,-122.3566393,,3.5565667,0.1,272.4533,1590794941440
Fix,GT,37.5231263,-122.3566744,,2.7194471,0.1,271.88007,1590794942440
Fix,GT,37.523125,-122.356708,,3.3131385,0.1,271.1433,1590794943440
Fix,GT,37.5231229,-122.3567471,,3.4170022,0.1,270.03802,1590794944440
Fix,GT,37.5231207,-122.3567799,,2.1580632,0.1,268.92273,1590794945440
Fix,GT,37.5231195,-122.3567943,,0.64472944,0.1,268.38232,1590794946440
Fix,GT,37.5231191,-122.3567986,,0.37855574,0.1,268.20374,1590794947440
Fix,GT,37.5231184,-122.3568041,,0.44130814,0.1,267.6771,1590794948440
Fix,GT,37.5231179,-122.3568078,,0.15513757,0.1,267.1087,1590794949440
Fix,GT,37.5231178,-122.3568081,,0.0025595839,0.1,267.04388,1590794950440
Fix,GT,37.5231178,-122.356808,,0.0021039683,0.1,267.0441,1590794951440
Fix,GT,37.5231178,-122.356808,,0.002572516,0.1,267.04565,1590794952440
Fix,GT,37.5231178,-122.356808,,0.0056424974,0.1,267.0474,1590794953440
Fix,GT,37.5231175,-122.3568093,,0.24838609,0.1,266.74942,1590794954440
Fix,GT,37.5231165,-122.3568145,,0.5480328,0.1,265.4829,1590794955440
Fix,GT,37.5231154,-122.3568205,,0.37890708,0.1,264.13525,1590794956440
Fix,GT,37.5231146,-122.3568244,,0.49877208,0.1,263.23624,1590794957440
Fix,GT,37.523112,-122.3568349,,1.3990494,0.1,260.8123,1590794958440
Fix,GT,37.5231047,-122.3568551,,2.536344,0.1,253.60287,1590794959440
Fix,GT,37.5230867,-122.3568816,,3.877345,0.1,237.71983,1590794960440
Fix,GT,37.5230526,-122.356908,,5.2534103,0.1,216.52496,1590794961440
Fix,GT,37.523003,-122.3569243,,6.425186,0.1,197.08226,1590794962440
Fix,GT,37.522941,-122.3569242,,7.627618,0.1,181.6195,1590794963440
Fix,GT,37.5228685,-122.3569085,,8.773312,0.1,172.40894,1590794964440
Fix,GT,37.522789,-122.356882,,9.438318,0.1,167.63806,1590794965440
Fix,GT,37.5227091,-122.356846,,9.405639,0.1,162.59167,1590794966440
Fix,GT,37.5226326,-122.3568046,,9.10121,0.1,160.13477,1590794967440
Fix,GT,37.522558,-122.3567656,,8.831024,0.1,162.4505,1590794968440
Fix,GT,37.5224838,-122.3567348,,8.426043,0.1,166.70667,1590794969440
Fix,GT,37.5224133,-122.3567104,,7.784687,0.1,168.59314,1590794970440
Fix,GT,37.52235,-122.3566859,,7.042001,0.1,164.9469,1590794971440
Fix,GT,37.5222971,-122.3566494,,6.797681,0.1,151.21216,1590794972440
Fix,GT,37.5222582,-122.3565909,,7.240802,0.1,129.00522,1590794973440
Fix,GT,37.5222371,-122.3565125,,7.8279505,0.1,109.0318,1590794974440
Fix,GT,37.5222251,-122.3564203,,8.822106,0.1,102.629456,1590794975440
Fix,GT,37.5222057,-122.3563161,,10.068715,0.1,109.06903,1590794976440
Fix,GT,37.5221703,-122.3562045,,11.128963,0.1,118.54846,1590794977440
Fix,GT,37.5221151,-122.3560933,,12.057547,0.1,129.33252,1590794978440
Fix,GT,37.5220388,-122.3559895,,12.920081,0.1,140.37195,1590794979440
Fix,GT,37.5219426,-122.3558991,,13.760319,0.1,150.42871,1590794980440
Fix,GT,37.5218309,-122.3558211,,14.596878,0.1,156.57227,1590794981440
Fix,GT,37.5217095,-122.3557468,,15.373091,0.1,158.15063,1590794982440
Fix,GT,37.5215814,-122.3556691,,16.188185,0.1,157.91211,1590794983440
Fix,GT,37.5214466,-122.355586,,17.143293,0.1,157.71466,1590794984440
Fix,GT,37.5213035,-122.3554985,,18.187702,0.1,157.95117,1590794985440
Fix,GT,37.5211515,-122.3554064,,19.287395,0.1,158.07092,1590794986440
Fix,GT,37.5209907,-122.3553085,,20.378084,0.1,157.79956,1590794987440
Fix,GT,37.5208218,-122.3552033,,21.502747,0.1,157.2215,1590794988440
Fix,GT,37.5206444,-122.35509,,22.70808,0.1,156.67096,1590794989440
Fix,GT,37.5204577,-122.3549686,,23.959095,0.1,156.09888,1590794990440
Fix,GT,37.5202626,-122.3548373,,25.153229,0.1,155.32129,1590794991440
Fix,GT,37.5200604,-122.3546975,,26.040768,0.1,155.03369,1590794992440
Fix,GT,37.5198524,-122.3545544,,26.553406,0.1,155.14325,1590794993440
Fix,GT,37.5196411,-122.3544088,,26.970922,0.1,154.94849,1590794994440
Fix,GT,37.5194273,-122.3542595,,27.319197,0.1,154.4295,1590794995440
Fix,GT,37.5192129,-122.354105,,27.564701,0.1,153.51038,1590794996440
Fix,GT,37.5189993,-122.3539445,,27.683205,0.1,152.42535,1590794997440
Fix,GT,37.5187874,-122.3537791,,27.720858,0.1,151.52713,1590794998440
Fix,GT,37.518577,-122.3536098,,27.791565,0.1,150.78653,1590794999440
Fix,GT,37.5183676,-122.3534364,,27.902487,0.1,150.09253,1590795000440
Fix,GT,37.5181592,-122.3532588,,28.036545,0.1,149.18878,1590795001440
Fix,GT,37.5179519,-122.3530759,,28.222097,0.1,148.1731,1590795002440
Fix,GT,37.5177461,-122.3528865,,28.435093,0.1,147.0653,1590795003440
Fix,GT,37.5175418,-122.3526906,,28.655758,0.1,145.8388,1590795004440
Fix,GT,37.5173388,-122.3524883,,28.897938,0.1,144.81836,1590795005440
Fix,GT,37.5171367,-122.3522797,,29.190098,0.1,143.91437,1590795006440
Fix,GT,37.5169352,-122.3520649,,29.514854,0.1,143.14905,1590795007440
Fix,GT,37.5167332,-122.3518459,,29.674347,0.1,142.88248,1590795008440
Fix,GT,37.5165314,-122.3516266,,29.53079,0.1,142.9347,1590795009440
Fix,GT,37.5163308,-122.3514097,,29.224722,0.1,143.15692,1590795010440
Fix,GT,37.5161319,-122.3511958,,28.92384,0.1,143.29767,1590795011440
Fix,GT,37.5159343,-122.3509841,,28.797018,0.1,143.43674,1590795012440
Fix,GT,37.5157367,-122.350773,,28.801502,0.1,143.41052,1590795013440
Fix,GT,37.5155389,-122.3505617,,28.864773,0.1,143.33557,1590795014440
Fix,GT,37.5153405,-122.3503498,,28.957064,0.1,143.43073,1590795015440
Fix,GT,37.5151414,-122.3501374,,29.023514,0.1,143.36932,1590795016440
Fix,GT,37.5149428,-122.3499241,,29.013622,0.1,143.07324,1590795017440
Fix,GT,37.5147451,-122.3497096,,28.965433,0.1,142.84698,1590795018440
Fix,GT,37.5145481,-122.349495,,28.937836,0.1,142.88568,1590795019440
Fix,GT,37.5143509,-122.3492812,,28.927633,0.1,143.09036,1590795020440
Fix,GT,37.5141526,-122.3490685,,28.963428,0.1,143.38818,1590795021440
Fix,GT,37.5139532,-122.3488567,,29.018742,0.1,143.64581,1590795022440
Fix,GT,37.5137533,-122.3486449,,29.032944,0.1,143.6224,1590795023440
Fix,GT,37.5135537,-122.3484324,,29.080755,0.1,143.34494,1590795024440
Fix,GT,37.5133545,-122.3482177,,29.216002,0.1,142.96655,1590795025440
Fix,GT,37.5131553,-122.3479999,,29.455982,0.1,142.58826,1590795026440
Fix,GT,37.5129555,-122.3477778,,29.782879,0.1,141.9975,1590795027440
Fix,GT,37.5127553,-122.3475506,,30.129303,0.1,141.40607,1590795028440
Fix,GT,37.5125547,-122.3473186,,30.431183,0.1,140.85037,1590795029440
Fix,GT,37.512354,-122.3470818,,30.698425,0.1,140.30402,1590795030440
Fix,GT,37.5121536,-122.3468405,,30.928625,0.1,139.72278,1590795031440
Fix,GT,37.5119542,-122.3465948,,31.060047,0.1,138.95502,1590795032440
Fix,GT,37.5117569,-122.3463454,,31.107742,0.1,138.35132,1590795033440
Fix,GT,37.5115614,-122.3460933,,31.105751,0.1,137.99115,1590795034440
Fix,GT,37.5113673,-122.3458399,,31.063847,0.1,137.49298,1590795035440
Fix,GT,37.5111751,-122.345585,,30.993862,0.1,137.00262,1590795036440
Fix,GT,37.5109853,-122.3453288,,30.867537,0.1,136.48016,1590795037440
Fix,GT,37.5107982,-122.3450716,,30.736366,0.1,135.98746,1590795038440
Fix,GT,37.5106135,-122.3448134,,30.675745,0.1,135.55865,1590795039440
Fix,GT,37.5104305,-122.3445536,,30.678474,0.1,135.05417,1590795040440
Fix,GT,37.5102494,-122.3442913,,30.705936,0.1,134.23398,1590795041440
Fix,GT,37.5100717,-122.3440251,,30.72108,0.1,133.27136,1590795042440
Fix,GT,37.5098969,-122.3437556,,30.749702,0.1,132.6496,1590795043440
Fix,GT,37.5097236,-122.3434839,,30.803898,0.1,132.26865,1590795044440
Fix,GT,37.5095515,-122.3432104,,30.828243,0.1,131.77917,1590795045440
Fix,GT,37.5093815,-122.3429346,,30.84964,0.1,131.23257,1590795046440
Fix,GT,37.5092128,-122.342657,,30.887737,0.1,131.03006,1590795047440
Fix,GT,37.5090442,-122.3423787,,30.948034,0.1,131.09811,1590795048440
Fix,GT,37.5088748,-122.3421002,,31.024055,0.1,131.16284,1590795049440
Fix,GT,37.5087048,-122.3418211,,31.12675,0.1,131.21484,1590795050440
Fix,GT,37.5085341,-122.3415408,,31.25473,0.1,131.15857,1590795051440
Fix,GT,37.508363,-122.3412592,,31.405132,0.1,131.12408,1590795052440
Fix,GT,37.5081912,-122.3409758,,31.590187,0.1,131.02505,1590795053440
Fix,GT,37.5080188,-122.3406901,,31.80175,0.1,130.86945,1590795054440
Fix,GT,37.5078455,-122.340402,,32.042152,0.1,130.92957,1590795055440
Fix,GT,37.5076698,-122.3401126,,32.28748,0.1,131.31744,1590795056440
Fix,GT,37.5074913,-122.3398225,,32.496986,0.1,131.63638,1590795057440
Fix,GT,37.507311,-122.3395313,,32.709267,0.1,131.57553,1590795058440
Fix,GT,37.50713,-122.3392373,,32.979076,0.1,131.36517,1590795059440
Fix,GT,37.5069481,-122.3389398,,33.276917,0.1,131.2113,1590795060440
Fix,GT,37.5067655,-122.3386395,,33.510868,0.1,131.02628,1590795061440
Fix,GT,37.5065825,-122.3383367,,33.670593,0.1,130.91388,1590795062440
Fix,GT,37.5063988,-122.3380325,,33.822876,0.1,131.02191,1590795063440
Fix,GT,37.5062141,-122.3377272,,33.94474,0.1,131.08142,1590795064440
Fix,GT,37.5060287,-122.3374211,,34.031265,0.1,131.15924,1590795065440
Fix,GT,37.5058418,-122.3371154,,34.108883,0.1,131.5882,1590795066440
Fix,GT,37.5056527,-122.3368107,,34.165886,0.1,131.87897,1590795067440
Fix,GT,37.5054624,-122.3365068,,34.19082,0.1,132.03769,1590795068440
Fix,GT,37.5052712,-122.3362037,,34.16677,0.1,132.35657,1590795069440
Fix,GT,37.5050787,-122.3359025,,34.11474,0.1,132.87967,1590795070440
Fix,GT,37.5048843,-122.3356043,,34.033134,0.1,133.44281,1590795071440
Fix,GT,37.5046885,-122.3353096,,33.777245,0.1,133.83698,1590795072440
Fix,GT,37.504493,-122.3350203,,33.240448,0.1,134.413,1590795073440
Fix,GT,37.5042986,-122.334739,,32.58799,0.1,134.97882,1590795074440
Fix,GT,37.5041068,-122.3344641,,32.043488,0.1,134.94781,1590795075440
Fix,GT,37.5039176,-122.3341921,,31.808044,0.1,134.96835,1590795076440
Fix,GT,37.5037288,-122.3339219,,31.73373,0.1,135.18289,1590795077440
Fix,GT,37.5035399,-122.3336528,,31.677904,0.1,135.14062,1590795078440
Fix,GT,37.5033515,-122.333384,,31.6429,0.1,135.1412,1590795079440
Fix,GT,37.5031629,-122.3331155,,31.637325,0.1,135.24286,1590795080440
Fix,GT,37.502974,-122.3328475,,31.602688,0.1,135.27109,1590795081440
Fix,GT,37.502786,-122.3325799,,31.500938,0.1,135.14642,1590795082440
Fix,GT,37.502599,-122.3323127,,31.39198,0.1,135.02203,1590795083440
Fix,GT,37.5024135,-122.3320454,,31.28496,0.1,134.63727,1590795084440
Fix,GT,37.5022311,-122.3317764,,31.186316,0.1,133.55292,1590795085440
Fix,GT,37.5020547,-122.3315026,,31.090803,0.1,131.86502,1590795086440
Fix,GT,37.5018858,-122.3312232,,30.984901,0.1,130.09393,1590795087440
Fix,GT,37.5017241,-122.3309386,,30.872128,0.1,128.36215,1590795088440
Fix,GT,37.5015704,-122.3306485,,30.782013,0.1,126.274536,1590795089440
Fix,GT,37.5014264,-122.3303519,,30.702393,0.1,123.975555,1590795090440
Fix,GT,37.5012917,-122.3300494,,30.637089,0.1,122.10303,1590795091440
Fix,GT,37.5011644,-122.3297425,,30.564701,0.1,120.405396,1590795092440
Fix,GT,37.5010453,-122.3294315,,30.465956,0.1,118.46637,1590795093440
Fix,GT,37.500935,-122.329117,,30.364748,0.1,116.504395,1590795094440
Fix,GT,37.5008337,-122.3287987,,30.29078,0.1,114.64639,1590795095440
Fix,GT,37.5007401,-122.3284775,,30.217587,0.1,113.082794,1590795096440
Fix,GT,37.5006541,-122.3281539,,30.14427,0.1,111.314026,1590795097440
Fix,GT,37.500577,-122.3278276,,30.068554,0.1,109.23663,1590795098440
Fix,GT,37.5005095,-122.3274989,,30.023714,0.1,107.151215,1590795099440
Fix,GT,37.5004515,-122.3271675,,30.030296,0.1,105.166626,1590795100440
Fix,GT,37.5004021,-122.3268336,,30.042,0.1,103.46335,1590795101440
Fix,GT,37.5003605,-122.3264981,,30.034489,0.1,101.858246,1590795102440
Fix,GT,37.500326,-122.3261615,,30.017982,0.1,100.282104,1590795103440
Fix,GT,37.5002993,-122.3258242,,29.960297,0.1,98.467896,1590795104440
Fix,GT,37.5002817,-122.3254866,,29.900074,0.1,96.45871,1590795105440
Fix,GT,37.5002729,-122.325149,,29.869133,0.1,94.88635,1590795106440
Fix,GT,37.5002695,-122.3248113,,29.850248,0.1,94.22882,1590795107440
Fix,GT,37.5002675,-122.3244738,,29.84404,0.1,94.17145,1590795108440
Fix,GT,37.5002652,-122.3241364,,29.850935,0.1,94.31769,1590795109440
Fix,GT,37.500262,-122.3237986,,29.893208,0.1,94.60803,1590795110440
Fix,GT,37.5002573,-122.3234601,,29.9553,0.1,94.853546,1590795111440
Fix,GT,37.5002515,-122.3231211,,29.978855,0.1,95.18353,1590795112440
Fix,GT,37.5002432,-122.3227823,,29.94926,0.1,95.9375,1590795113440
Fix,GT,37.5002298,-122.3224441,,29.919628,0.1,97.39227,1590795114440
Fix,GT,37.5002075,-122.3221068,,29.93139,0.1,99.6759,1590795115440
Fix,GT,37.500174,-122.3217708,,29.919395,0.1,101.99472,1590795116440
Fix,GT,37.5001311,-122.321437,,29.870422,0.1,103.72238,1590795117440
Fix,GT,37.5000817,-122.3211053,,29.814507,0.1,104.94867,1590795118440
Fix,GT,37.5000272,-122.3207755,,29.747324,0.1,105.99011,1590795119440
Fix,GT,37.4999673,-122.3204478,,29.680742,0.1,107.385376,1590795120440
Fix,GT,37.4999006,-122.3201231,,29.605396,0.1,109.18024,1590795121440
Fix,GT,37.4998254,-122.3198024,,29.5314,0.1,111.18945,1590795122440
Fix,GT,37.4997418,-122.3194856,,29.483147,0.1,113.00781,1590795123440
Fix,GT,37.4996506,-122.3191724,,29.480652,0.1,114.575745,1590795124440
Fix,GT,37.499553,-122.3188621,,29.517145,0.1,116.01965,1590795125440
Fix,GT,37.4994489,-122.318555,,29.528805,0.1,117.750854,1590795126440
Fix,GT,37.4993368,-122.3182521,,29.530254,0.1,119.59839,1590795127440
Fix,GT,37.4992175,-122.3179535,,29.53503,0.1,121.136536,1590795128440
Fix,GT,37.4990927,-122.3176591,,29.45494,0.1,122.63843,1590795129440
Fix,GT,37.498962,-122.3173698,,29.347828,0.1,124.05722,1590795130440
Fix,GT,37.4988264,-122.3170856,,29.254986,0.1,125.282135,1590795131440
Fix,GT,37.4986868,-122.3168056,,29.154617,0.1,126.46713,1590795132440
Fix,GT,37.4985427,-122.3165307,,29.030655,0.1,127.77911,1590795133440
Fix,GT,37.498395,-122.3162604,,28.926144,0.1,128.63599,1590795134440
Fix,GT,37.4982457,-122.3159927,,28.859756,0.1,128.92957,1590795135440
Fix,GT,37.4980963,-122.3157259,,28.84401,0.1,128.99432,1590795136440
Fix,GT,37.4979462,-122.3154593,,28.905197,0.1,129.06982,1590795137440
Fix,GT,37.4977958,-122.3151916,,29.022388,0.1,128.90823,1590795138440
Fix,GT,37.4976458,-122.3149221,,29.128984,0.1,128.70154,1590795139440
Fix,GT,37.4974958,-122.3146512,,29.205482,0.1,128.56244,1590795140440
Fix,GT,37.4973462,-122.3143794,,29.239218,0.1,128.45331,1590795141440
Fix,GT,37.4971968,-122.3141071,,29.234413,0.1,128.32028,1590795142440
Fix,GT,37.4970486,-122.3138339,,29.237417,0.1,127.76993,1590795143440
Fix,GT,37.4969038,-122.3135577,,29.265146,0.1,126.5972,1590795144440
Fix,GT,37.4967636,-122.3132774,,29.306026,0.1,125.33615,1590795145440
Fix,GT,37.4966279,-122.3129929,,29.359398,0.1,124.13013,1590795146440
Fix,GT,37.4964969,-122.3127042,,29.43559,0.1,122.95004,1590795147440
Fix,GT,37.4963697,-122.3124117,,29.538937,0.1,122.03528,1590795148440
Fix,GT,37.4962453,-122.3121157,,29.628344,0.1,121.15701,1590795149440
Fix,GT,37.4961251,-122.3118162,,29.758032,0.1,120.03107,1590795150440
Fix,GT,37.4960087,-122.3115117,,30.05996,0.1,118.920074,1590795151440
Fix,GT,37.4958956,-122.3112005,,30.458794,0.1,117.66409,1590795152440
Fix,GT,37.4957865,-122.3108822,,30.839794,0.1,116.40802,1590795153440
Fix,GT,37.4956815,-122.310557,,31.204102,0.1,115.26257,1590795154440
Fix,GT,37.4955811,-122.3102255,,31.563301,0.1,113.99176,1590795155440
Fix,GT,37.4954849,-122.3098875,,31.919998,0.1,112.88068,1590795156440
Fix,GT,37.4953932,-122.3095433,,32.267067,0.1,111.65982,1590795157440
Fix,GT,37.4953055,-122.3091932,,32.622925,0.1,110.95093,1590795158440
Fix,GT,37.4952188,-122.3088386,,32.984272,0.1,110.87195,1590795159440
Fix,GT,37.4951307,-122.3084801,,33.343895,0.1,110.95752,1590795160440
Fix,GT,37.4950414,-122.308118,,33.69008,0.1,110.99219,1590795161440
Fix,GT,37.4949515,-122.3077523,,33.982746,0.1,110.89392,1590795162440
Fix,GT,37.4948617,-122.3073835,,34.236244,0.1,110.62991,1590795163440
Fix,GT,37.4947729,-122.3070114,,34.488785,0.1,110.276855,1590795164440
Fix,GT,37.4946846,-122.3066364,,34.681705,0.1,110.2475,1590795165440
Fix,GT,37.4945951,-122.3062599,,34.80555,0.1,110.60095,1590795166440
Fix,GT,37.4945028,-122.3058832,,34.91208,0.1,111.32828,1590795167440
Fix,GT,37.4944048,-122.3055076,,34.987755,0.1,112.73108,1590795168440
Fix,GT,37.4942975,-122.3051351,,35.058716,0.1,114.770874,1590795169440
Fix,GT,37.4941792,-122.3047669,,35.136337,0.1,116.82196,1590795170440
Fix,GT,37.4940501,-122.3044033,,35.253166,0.1,118.96677,1590795171440
Fix,GT,37.493909,-122.3040455,,35.36934,0.1,121.49603,1590795172440
Fix,GT,37.493755,-122.303695,,35.36882,0.1,123.890076,1590795173440
Fix,GT,37.4935899,-122.3033535,,35.266903,0.1,126.283936,1590795174440
Fix,GT,37.4934139,-122.3030221,,35.159763,0.1,128.71185,1590795175440
Fix,GT,37.4932282,-122.3027006,,35.063267,0.1,130.72205,1590795176440
Fix,GT,37.4930347,-122.3023879,,34.946342,0.1,132.58572,1590795177440
Fix,GT,37.4928337,-122.3020847,,34.809868,0.1,134.6842,1590795178440
Fix,GT,37.4926243,-122.3017928,,34.62118,0.1,137.1112,1590795179440
Fix,GT,37.4924071,-122.3015142,,34.28646,0.1,139.37381,1590795180440
Fix,GT,37.4921845,-122.301249,,33.799553,0.1,141.41351,1590795181440
Fix,GT,37.4919576,-122.3009988,,33.27693,0.1,143.71747,1590795182440
Fix,GT,37.491726,-122.300764,,32.78785,0.1,146.07184,1590795183440
Fix,GT,37.4914907,-122.3005441,,32.32143,0.1,148.05566,1590795184440
Fix,GT,37.4912535,-122.3003361,,31.904741,0.1,149.61331,1590795185440
Fix,GT,37.4910148,-122.3001387,,31.581131,0.1,151.3966,1590795186440
Fix,GT,37.4907728,-122.2999531,,31.370016,0.1,153.56665,1590795187440
Fix,GT,37.4905265,-122.2997807,,31.232159,0.1,155.85333,1590795188440
Fix,GT,37.4902759,-122.2996216,,31.111893,0.1,158.14465,1590795189440
Fix,GT,37.4900215,-122.2994753,,31.005207,0.1,160.19733,1590795190440
Fix,GT,37.4897639,-122.2993401,,30.960419,0.1,161.97443,1590795191440
Fix,GT,37.4895032,-122.299215,,31.018803,0.1,163.9776,1590795192440
Fix,GT,37.4892382,-122.2991012,,31.131435,0.1,166.05225,1590795193440
Fix,GT,37.4889693,-122.2989992,,31.206745,0.1,168.00153,1590795194440
Fix,GT,37.4886973,-122.298909,,31.236446,0.1,170.16046,1590795195440
Fix,GT,37.4884223,-122.298832,,31.299593,0.1,172.32959,1590795196440
Fix,GT,37.4881448,-122.2987665,,31.399544,0.1,173.89746,1590795197440
Fix,GT,37.4878648,-122.2987098,,31.515469,0.1,175.51642,1590795198440
Fix,GT,37.4875824,-122.2986639,,31.686417,0.1,177.53851,1590795199440
Fix,GT,37.4872973,-122.2986303,,31.857065,0.1,179.46027,1590795200440
Fix,GT,37.4870101,-122.2986086,,31.97681,0.1,181.46472,1590795201440
Fix,GT,37.4867218,-122.2986,,32.05608,0.1,183.62335,1590795202440
Fix,GT,37.4864326,-122.2986054,,32.133644,0.1,185.87976,1590795203440
Fix,GT,37.4861431,-122.298625,,32.196503,0.1,187.93387,1590795204440
Fix,GT,37.4858543,-122.2986562,,32.134926,0.1,189.58203,1590795205440
Fix,GT,37.4855673,-122.2986954,,31.925081,0.1,190.51598,1590795206440
Fix,GT,37.4852831,-122.2987384,,31.607613,0.1,190.92929,1590795207440
Fix,GT,37.4850025,-122.2987827,,31.141485,0.1,191.18945,1590795208440
Fix,GT,37.4847262,-122.2988279,,30.72736,0.1,191.39919,1590795209440
Fix,GT,37.4844528,-122.2988739,,30.529387,0.1,191.56491,1590795210440
Fix,GT,37.4841806,-122.2989201,,30.461666,0.1,191.54512,1590795211440
Fix,GT,37.4839089,-122.2989655,,30.385773,0.1,191.38213,1590795212440
Fix,GT,37.4836379,-122.29901,,30.274185,0.1,191.29617,1590795213440
Fix,GT,37.483368,-122.2990543,,30.146873,0.1,191.34398,1590795214440
Fix,GT,37.4830994,-122.2990983,,30.009022,0.1,191.33214,1590795215440
Fix,GT,37.4828319,-122.299142,,29.891834,0.1,191.40915,1590795216440
Fix,GT,37.4825654,-122.2991866,,29.77063,0.1,191.46411,1590795217440
Fix,GT,37.4823001,-122.2992309,,29.626087,0.1,191.4188,1590795218440
Fix,GT,37.4820361,-122.2992747,,29.486553,0.1,191.38644,1590795219440
Fix,GT,37.4817733,-122.2993175,,29.360676,0.1,191.16566,1590795220440
Fix,GT,37.4815112,-122.2993594,,29.27781,0.1,191.11783,1590795221440
Fix,GT,37.4812499,-122.2994019,,29.216396,0.1,191.34389,1590795222440
Fix,GT,37.480989,-122.2994446,,29.188232,0.1,191.26947,1590795223440
Fix,GT,37.4807281,-122.2994869,,29.236015,0.1,191.23213,1590795224440
Fix,GT,37.4804667,-122.2995296,,29.276306,0.1,191.41034,1590795225440
Fix,GT,37.4802051,-122.299573,,29.279205,0.1,191.43082,1590795226440
Fix,GT,37.4799436,-122.2996153,,29.257633,0.1,190.9966,1590795227440
Fix,GT,37.4796821,-122.2996538,,29.236109,0.1,190.12868,1590795228440
Fix,GT,37.47942,-122.2996868,,29.234755,0.1,189.08786,1590795229440
Fix,GT,37.4791574,-122.2997129,,29.263819,0.1,187.68964,1590795230440
Fix,GT,37.4788938,-122.2997297,,29.33293,0.1,185.7951,1590795231440
Fix,GT,37.4786293,-122.2997346,,29.41967,0.1,183.69664,1590795232440
Fix,GT,37.4783641,-122.2997278,,29.482801,0.1,181.81055,1590795233440
Fix,GT,37.4780989,-122.2997109,,29.514385,0.1,180.21931,1590795234440
Fix,GT,37.4778338,-122.2996847,,29.522041,0.1,178.56024,1590795235440
Fix,GT,37.4775694,-122.2996485,,29.529137,0.1,176.72247,1590795236440
Fix,GT,37.4773061,-122.2996012,,29.569471,0.1,174.74731,1590795237440
Fix,GT,37.4770438,-122.2995425,,29.623672,0.1,172.76044,1590795238440
Fix,GT,37.4767827,-122.2994724,,29.652939,0.1,170.81934,1590795239440
Fix,GT,37.4765236,-122.2993915,,29.676804,0.1,169.01343,1590795240440
Fix,GT,37.4762661,-122.2993006,,29.727337,0.1,167.3794,1590795241440
Fix,GT,37.4760102,-122.2992006,,29.80857,0.1,165.76196,1590795242440
Fix,GT,37.475756,-122.299091,,29.888218,0.1,164.09882,1590795243440
Fix,GT,37.4755038,-122.2989718,,29.973671,0.1,162.27435,1590795244440
Fix,GT,37.4752541,-122.2988413,,30.109737,0.1,160.15247,1590795245440
Fix,GT,37.4750073,-122.2986985,,30.252716,0.1,157.98438,1590795246440
Fix,GT,37.4747639,-122.2985434,,30.390467,0.1,155.818,1590795247440
Fix,GT,37.4745241,-122.2983763,,30.536858,0.1,153.78381,1590795248440
Fix,GT,37.4742879,-122.2981981,,30.688608,0.1,151.93594,1590795249440
Fix,GT,37.4740548,-122.2980098,,30.879766,0.1,150.28778,1590795250440
Fix,GT,37.473824,-122.297813,,31.089956,0.1,148.94458,1590795251440
Fix,GT,37.4735959,-122.2976073,,31.283657,0.1,147.22797,1590795252440
Fix,GT,37.4733719,-122.2973912,,31.477272,0.1,145.22473,1590795253440
Fix,GT,37.473152,-122.2971648,,31.721169,0.1,143.77307,1590795254440
Fix,GT,37.4729334,-122.2969315,,32.003918,0.1,143.22058,1590795255440
Fix,GT,37.4727136,-122.2966949,,32.26012,0.1,143.11902,1590795256440
Fix,GT,37.4724926,-122.296456,,32.47719,0.1,143.0206,1590795257440
Fix,GT,37.4722705,-122.2962152,,32.695267,0.1,143.02911,1590795258440
Fix,GT,37.4720462,-122.2959734,,32.93228,0.1,143.15326,1590795259440
Fix,GT,37.4718202,-122.2957301,,33.149887,0.1,143.1684,1590795260440
Fix,GT,37.4715929,-122.2954853,,33.345573,0.1,143.25677,1590795261440
Fix,GT,37.4713639,-122.2952396,,33.510193,0.1,143.29419,1590795262440
Fix,GT,37.471134,-122.2949931,,33.62815,0.1,143.3324,1590795263440
Fix,GT,37.4709035,-122.294746,,33.705624,0.1,143.40323,1590795264440
Fix,GT,37.4706718,-122.2944988,,33.81002,0.1,143.67801,1590795265440
Fix,GT,37.4704379,-122.2942531,,33.911568,0.1,144.16656,1590795266440
Fix,GT,37.4702015,-122.2940098,,33.94441,0.1,144.82263,1590795267440
Fix,GT,37.4699622,-122.2937706,,33.944054,0.1,145.93463,1590795268440
Fix,GT,37.4697183,-122.2935391,,33.95558,0.1,147.82663,1590795269440
Fix,GT,37.4694678,-122.2933184,,33.977737,0.1,149.83984,1590795270440
Fix,GT,37.4692116,-122.293108,,33.980373,0.1,151.57053,1590795271440
Fix,GT,37.4689508,-122.2929075,,33.876663,0.1,153.39148,1590795272440
Fix,GT,37.4686867,-122.2927187,,33.535114,0.1,155.11841,1590795273440
Fix,GT,37.468422,-122.2925419,,33.01001,0.1,156.58893,1590795274440
Fix,GT,37.4681583,-122.2923767,,32.39939,0.1,158.18689,1590795275440
Fix,GT,37.467896,-122.2922246,,31.755571,0.1,159.97559,1590795276440
Fix,GT,37.4676354,-122.2920845,,31.163563,0.1,161.32593,1590795277440
Fix,GT,37.4673774,-122.2919535,,30.63937,0.1,162.26013,1590795278440
Fix,GT,37.4671213,-122.2918288,,30.378433,0.1,162.97333,1590795279440
Fix,GT,37.4668646,-122.2917081,,30.531424,0.1,163.63776,1590795280440
Fix,GT,37.4666046,-122.2915909,,30.806488,0.1,164.69824,1590795281440
Fix,GT,37.4663398,-122.291482,,31.063608,0.1,166.93115,1590795282440
Fix,GT,37.4660691,-122.291387,,31.310097,0.1,169.60376,1590795283440
Fix,GT,37.4657935,-122.2913058,,31.535099,0.1,171.71265,1590795284440
Fix,GT,37.4655139,-122.2912358,,31.745651,0.1,173.45074,1590795285440
Fix,GT,37.465231,-122.2911748,,31.952904,0.1,174.65735,1590795286440
Fix,GT,37.4649456,-122.2911201,,32.129112,0.1,175.83893,1590795287440
Fix,GT,37.4646577,-122.2910736,,32.30311,0.1,177.54565,1590795288440
Fix,GT,37.4643668,-122.2910399,,32.534046,0.1,179.71155,1590795289440
Fix,GT,37.4640733,-122.291019,,32.73258,0.1,181.40538,1590795290440
Fix,GT,37.463778,-122.2910057,,32.88489,0.1,182.21886,1590795291440
Fix,GT,37.4634809,-122.2909956,,33.088013,0.1,182.36382,1590795292440
Fix,GT,37.4631818,-122.2909851,,33.348637,0.1,182.14935,1590795293440
Fix,GT,37.46288,-122.2909733,,33.66936,0.1,182.07396,1590795294440
Fix,GT,37.4625756,-122.2909615,,33.910473,0.1,182.09943,1590795295440
Fix,GT,37.4622704,-122.2909491,,33.81106,0.1,181.96472,1590795296440
Fix,GT,37.4619675,-122.2909355,,33.44238,0.1,181.75378,1590795297440
Fix,GT,37.4616679,-122.2909186,,33.16892,0.1,180.78937,1590795298440
Fix,GT,37.4613702,-122.2908928,,33.12369,0.1,178.93347,1590795299440
Fix,GT,37.461073,-122.2908545,,33.242363,0.1,176.98596,1590795300440
Fix,GT,37.4607757,-122.2908025,,33.425438,0.1,174.78912,1590795301440
Fix,GT,37.4604793,-122.2907355,,33.406685,0.1,172.43726,1590795302440
Fix,GT,37.4601866,-122.2906544,,33.13291,0.1,170.3075,1590795303440
Fix,GT,37.459899,-122.2905614,,32.798218,0.1,168.44965,1590795304440
Fix,GT,37.4596168,-122.2904576,,32.53251,0.1,166.51697,1590795305440
Fix,GT,37.4593394,-122.2903423,,32.42176,0.1,164.46173,1590795306440
Fix,GT,37.4590658,-122.2902149,,32.425617,0.1,162.5448,1590795307440
Fix,GT,37.4587951,-122.2900765,,32.493015,0.1,160.64404,1590795308440
Fix,GT,37.458528,-122.2899256,,32.571213,0.1,158.41925,1590795309440
Fix,GT,37.4582658,-122.2897608,,32.583817,0.1,156.00159,1590795310440
Fix,GT,37.4580091,-122.2895828,,32.545013,0.1,153.81732,1590795311440
Fix,GT,37.4577583,-122.289394,,32.401306,0.1,151.9353,1590795312440
Fix,GT,37.4575136,-122.2891965,,32.22393,0.1,150.27985,1590795313440
Fix,GT,37.4572743,-122.2889915,,32.1958,0.1,148.68665,1590795314440
Fix,GT,37.4570397,-122.2887767,,32.32772,0.1,146.66714,1590795315440
Fix,GT,37.4568104,-122.2885502,,32.484325,0.1,144.58185,1590795316440
Fix,GT,37.4565865,-122.288313,,32.608665,0.1,142.75165,1590795317440
Fix,GT,37.4563682,-122.2880659,,32.700947,0.1,140.60712,1590795318440
Fix,GT,37.4561573,-122.2878075,,32.778145,0.1,138.36194,1590795319440
Fix,GT,37.4559538,-122.2875389,,32.837837,0.1,136.41608,1590795320440
Fix,GT,37.4557566,-122.2872622,,32.84449,0.1,134.74155,1590795321440
Fix,GT,37.4555656,-122.2869791,,32.814274,0.1,133.48105,1590795322440
Fix,GT,37.4553783,-122.2866924,,32.757294,0.1,132.99353,1590795323440
Fix,GT,37.4551921,-122.2864061,,32.57769,0.1,133.08124,1590795324440
Fix,GT,37.455007,-122.2861228,,32.185406,0.1,133.25446,1590795325440
Fix,GT,37.4548243,-122.2858438,,31.70207,0.1,133.14545,1590795326440
Fix,GT,37.4546445,-122.2855684,,31.288548,0.1,133.12408,1590795327440
Fix,GT,37.4544666,-122.2852965,,30.97137,0.1,133.30634,1590795328440
Fix,GT,37.4542898,-122.2850279,,30.684235,0.1,133.39319,1590795329440
Fix,GT,37.4541146,-122.2847619,,30.389227,0.1,133.43439,1590795330440
Fix,GT,37.453941,-122.2844985,,30.116653,0.1,133.45337,1590795331440
Fix,GT,37.4537686,-122.2842374,,29.897976,0.1,133.46185,1590795332440
Fix,GT,37.4535974,-122.2839779,,29.705925,0.1,133.43335,1590795333440
Fix,GT,37.4534275,-122.2837198,,29.489319,0.1,133.31787,1590795334440
Fix,GT,37.4532593,-122.2834634,,29.281399,0.1,133.21027,1590795335440
Fix,GT,37.4530925,-122.2832084,,29.08599,0.1,133.19818,1590795336440
Fix,GT,37.4529267,-122.2829554,,28.90321,0.1,133.39203,1590795337440
Fix,GT,37.4527607,-122.2827048,,28.74905,0.1,133.64032,1590795338440
Fix,GT,37.4525953,-122.2824557,,28.628876,0.1,133.54169,1590795339440
Fix,GT,37.4524316,-122.2822065,,28.529856,0.1,133.13013,1590795340440
Fix,GT,37.4522695,-122.2819567,,28.486004,0.1,132.92859,1590795341440
Fix,GT,37.4521075,-122.281707,,28.501667,0.1,133.08575,1590795342440
Fix,GT,37.4519445,-122.2814577,,28.560375,0.1,133.29416,1590795343440
Fix,GT,37.4517805,-122.2812084,,28.640968,0.1,133.40594,1590795344440
Fix,GT,37.451616,-122.2809583,,28.731844,0.1,133.35632,1590795345440
Fix,GT,37.4514512,-122.2807071,,28.820415,0.1,133.26581,1590795346440
Fix,GT,37.4512863,-122.2804551,,28.866724,0.1,133.1817,1590795347440
Fix,GT,37.4511213,-122.2802027,,28.890526,0.1,133.20667,1590795348440
Fix,GT,37.4509558,-122.2799501,,28.964664,0.1,133.33838,1590795349440
Fix,GT,37.4507895,-122.2796971,,29.080956,0.1,133.38837,1590795350440
Fix,GT,37.4506223,-122.2794431,,29.222916,0.1,133.4419,1590795351440
Fix,GT,37.4504537,-122.279188,,29.410526,0.1,133.52985,1590795352440
Fix,GT,37.4502838,-122.2789314,,29.614681,0.1,133.52618,1590795353440
Fix,GT,37.4501134,-122.2786729,,29.729258,0.1,133.32227,1590795354440
Fix,GT,37.4499433,-122.2784136,,29.72993,0.1,133.2312,1590795355440
Fix,GT,37.4497731,-122.2781538,,29.797337,0.1,133.28143,1590795356440
Fix,GT,37.4496022,-122.2778934,,29.86413,0.1,133.33063,1590795357440
Fix,GT,37.4494309,-122.2776332,,29.85535,0.1,133.43848,1590795358440
Fix,GT,37.4492594,-122.2773734,,29.841042,0.1,133.48688,1590795359440
Fix,GT,37.4490872,-122.2771139,,29.910973,0.1,133.85931,1590795360440
Fix,GT,37.4489126,-122.2768552,,30.07106,0.1,134.42572,1590795361440
Fix,GT,37.4487353,-122.2765971,,30.19763,0.1,134.68634,1590795362440
Fix,GT,37.4485572,-122.276339,,30.19431,0.1,134.73047,1590795363440
Fix,GT,37.4483794,-122.2760816,,30.0732,0.1,134.88446,1590795364440
Fix,GT,37.4482012,-122.275826,,30.072178,0.1,135.17953,1590795365440
Fix,GT,37.4480212,-122.2755702,,30.325851,0.1,135.30484,1590795366440
Fix,GT,37.4478395,-122.2753123,,30.593842,0.1,135.35468,1590795367440
Fix,GT,37.4476563,-122.2750524,,30.771355,0.1,135.31555,1590795368440
Fix,GT,37.4474729,-122.2747912,,30.797607,0.1,135.14227,1590795369440
Fix,GT,37.44729,-122.2745299,,30.754913,0.1,135.11493,1590795370440
Fix,GT,37.4471068,-122.2742689,,30.788374,0.1,135.27213,1590795371440
Fix,GT,37.4469229,-122.2740079,,30.834557,0.1,135.30829,1590795372440
Fix,GT,37.4467388,-122.2737464,,30.90489,0.1,135.25745,1590795373440
Fix,GT,37.4465544,-122.2734841,,30.997553,0.1,135.28363,1590795374440
Fix,GT,37.4463695,-122.2732213,,31.035454,0.1,135.2825,1590795375440
Fix,GT,37.4461849,-122.2729582,,30.998745,0.1,135.16107,1590795376440
Fix,GT,37.4460013,-122.2726951,,30.859163,0.1,134.9072,1590795377440
Fix,GT,37.4458204,-122.2724312,,30.77327,0.1,134.19159,1590795378440
Fix,GT,37.4456434,-122.2721634,,30.857792,0.1,132.73584,1590795379440
Fix,GT,37.4454724,-122.2718877,,30.993404,0.1,130.72144,1590795380440
Fix,GT,37.4453085,-122.2716034,,31.132069,0.1,128.90283,1590795381440
Fix,GT,37.4451501,-122.2713124,,31.247383,0.1,127.48773,1590795382440
Fix,GT,37.4449973,-122.2710154,,31.320515,0.1,125.839264,1590795383440
Fix,GT,37.4448515,-122.2707122,,31.374374,0.1,124.02112,1590795384440
Fix,GT,37.444713,-122.2704029,,31.426247,0.1,122.2529,1590795385440
Fix,GT,37.4445821,-122.2700879,,31.46656,0.1,120.510315,1590795386440
Fix,GT,37.4444584,-122.2697682,,31.454338,0.1,118.92795,1590795387440
Fix,GT,37.4443414,-122.2694449,,31.387377,0.1,117.50964,1590795388440
Fix,GT,37.4442316,-122.2691185,,31.349007,0.1,115.68094,1590795389440
Fix,GT,37.4441311,-122.2687874,,31.391111,0.1,113.545166,1590795390440
Fix,GT,37.4440395,-122.2684514,,31.481148,0.1,111.78302,1590795391440
Fix,GT,37.4439552,-122.2681113,,31.578236,0.1,110.4314,1590795392440
Fix,GT,37.4438769,-122.2677677,,31.680414,0.1,109.199585,1590795393440
Fix,GT,37.4438045,-122.2674214,,31.683588,0.1,107.69049,1590795394440
Fix,GT,37.4437407,-122.2670733,,31.523844,0.1,105.70007,1590795395440
Fix,GT,37.4436872,-122.2667245,,31.38839,0.1,103.692474,1590795396440
Fix,GT,37.4436428,-122.2663744,,31.415295,0.1,101.99695,1590795397440
Fix,GT,37.4436063,-122.2660221,,31.478329,0.1,100.4668,1590795398440
Fix,GT,37.4435773,-122.2656682,,31.481308,0.1,98.91876,1590795399440
Fix,GT,37.443556,-122.2653138,,31.410648,0.1,97.354034,1590795400440
Fix,GT,37.4435424,-122.2649599,,31.353607,0.1,95.77417,1590795401440
Fix,GT,37.4435366,-122.2646055,,31.437754,0.1,94.123566,1590795402440
Fix,GT,37.4435391,-122.26425,,31.493124,0.1,92.36044,1590795403440
Fix,GT,37.4435505,-122.2638948,,31.448101,0.1,90.5874,1590795404440
Fix,GT,37.4435707,-122.2635403,,31.505156,0.1,88.6698,1590795405440
Fix,GT,37.4436004,-122.2631857,,31.624386,0.1,86.95624,1590795406440
Fix,GT,37.4436369,-122.2628306,,31.77637,0.1,86.06595,1590795407440
Fix,GT,37.4436761,-122.2624738,,31.988297,0.1,85.804504,1590795408440
Fix,GT,37.4437161,-122.2621149,,32.140663,0.1,85.88046,1590795409440
Fix,GT,37.4437554,-122.2617547,,32.155502,0.1,86.14496,1590795410440
Fix,GT,37.4437931,-122.261395,,32.043194,0.1,86.38614,1590795411440
Fix,GT,37.4438307,-122.2610366,,31.926222,0.1,86.138855,1590795412440
Fix,GT,37.4438701,-122.2606794,,31.947567,0.1,85.69531,1590795413440
Fix,GT,37.4439111,-122.2603216,,32.01442,0.1,85.5513,1590795414440
Fix,GT,37.4439512,-122.2599636,,31.9131,0.1,86.172485,1590795415440
Fix,GT,37.4439854,-122.259607,,31.672043,0.1,87.81741,1590795416440
Fix,GT,37.4440105,-122.259251,,31.609531,0.1,89.656006,1590795417440
Fix,GT,37.4440266,-122.2588936,,31.771683,0.1,91.49646,1590795418440
Fix,GT,37.444033,-122.2585337,,31.878773,0.1,93.655334,1590795419440
Fix,GT,37.4440285,-122.2581737,,31.832684,0.1,95.80377,1590795420440
Fix,GT,37.4440137,-122.2578149,,31.739391,0.1,97.76651,1590795421440
Fix,GT,37.443989,-122.2574579,,31.666695,0.1,99.79602,1590795422440
Fix,GT,37.4439542,-122.2571031,,31.606098,0.1,101.87201,1590795423440
Fix,GT,37.4439091,-122.2567506,,31.562496,0.1,104.0058,1590795424440
Fix,GT,37.4438539,-122.256401,,31.520737,0.1,106.02133,1590795425440
Fix,GT,37.4437894,-122.2560535,,31.650513,0.1,107.77966,1590795426440
Fix,GT,37.4437159,-122.2557057,,32.03425,0.1,109.54181,1590795427440
Fix,GT,37.4436324,-122.255357,,32.343983,0.1,111.56644,1590795428440
Fix,GT,37.443538,-122.2550104,,32.42363,0.1,113.85962,1590795429440
Fix,GT,37.4434327,-122.2546687,,32.377937,0.1,116.095184,1590795430440
Fix,GT,37.4433179,-122.2543324,,32.334045,0.1,117.92035,1590795431440
Fix,GT,37.4431952,-122.2540014,,32.274582,0.1,119.65765,1590795432440
Fix,GT,37.4430637,-122.253677,,32.134056,0.1,122.09479,1590795433440
Fix,GT,37.4429218,-122.2533619,,31.932468,0.1,124.69992,1590795434440
Fix,GT,37.442771,-122.253056,,31.702396,0.1,126.39572,1590795435440
Fix,GT,37.4426144,-122.252758,,31.459267,0.1,128.055,1590795436440
Fix,GT,37.4424514,-122.2524685,,31.299572,0.1,130.04681,1590795437440
Fix,GT,37.4422814,-122.2521864,,31.320606,0.1,131.92871,1590795438440
Fix,GT,37.4421032,-122.2519115,,31.395306,0.1,134.11346,1590795439440
Fix,GT,37.4419166,-122.2516451,,31.353941,0.1,136.13528,1590795440440
Fix,GT,37.4417246,-122.2513861,,31.231865,0.1,137.19537,1590795441440
Fix,GT,37.4415304,-122.2511316,,31.134285,0.1,137.91388,1590795442440
Fix,GT,37.4413349,-122.2508799,,31.084816,0.1,138.16522,1590795443440
Fix,GT,37.4411395,-122.2506285,,31.004515,0.1,137.93512,1590795444440
Fix,GT,37.4409459,-122.2503771,,30.858978,0.1,137.70337,1590795445440
Fix,GT,37.4407536,-122.2501267,,30.667976,0.1,137.79184,1590795446440
Fix,GT,37.4405623,-122.2498781,,30.4808,0.1,137.80945,1590795447440
Fix,GT,37.4403728,-122.2496303,,30.311184,0.1,137.43658,1590795448440
Fix,GT,37.4401852,-122.2493825,,30.179928,0.1,137.22699,1590795449440
Fix,GT,37.4399985,-122.2491349,,30.135286,0.1,137.28241,1590795450440
Fix,GT,37.4398109,-122.2488886,,30.11548,0.1,137.78033,1590795451440
Fix,GT,37.4396215,-122.2486452,,30.083202,0.1,138.47192,1590795452440
Fix,GT,37.4394307,-122.2484039,,30.073849,0.1,138.71198,1590795453440
Fix,GT,37.4392397,-122.2481628,,30.07144,0.1,138.59229,1590795454440
Fix,GT,37.4390485,-122.2479215,,30.158035,0.1,138.80603,1590795455440
Fix,GT,37.4388553,-122.2476808,,30.303612,0.1,139.27463,1590795456440
Fix,GT,37.4386597,-122.2474404,,30.476639,0.1,139.52634,1590795457440
Fix,GT,37.4384625,-122.2471989,,30.7358,0.1,139.6128,1590795458440
Fix,GT,37.4382632,-122.2469553,,31.061321,0.1,139.56427,1590795459440
Fix,GT,37.4380616,-122.2467092,,31.392332,0.1,139.72205,1590795460440
Fix,GT,37.4378572,-122.246462,,31.63938,0.1,140.0379,1590795461440
Fix,GT,37.4376505,-122.2462143,,31.78521,0.1,140.1773,1590795462440
Fix,GT,37.4374431,-122.2459657,,31.905563,0.1,140.08105,1590795463440
Fix,GT,37.4372353,-122.2457159,,31.990213,0.1,140.06024,1590795464440
Fix,GT,37.437027,-122.2454659,,31.96373,0.1,140.16559,1590795465440
Fix,GT,37.4368193,-122.2452173,,31.771408,0.1,140.26257,1590795466440
Fix,GT,37.4366127,-122.2449709,,31.529612,0.1,140.36359,1590795467440
Fix,GT,37.4364069,-122.2447265,,31.418127,0.1,140.42017,1590795468440
Fix,GT,37.4362009,-122.2444823,,31.513336,0.1,140.47067,1590795469440
Fix,GT,37.4359938,-122.2442371,,31.702316,0.1,140.54642,1590795470440
Fix,GT,37.4357857,-122.2439909,,31.80953,0.1,140.60059,1590795471440
Fix,GT,37.4355769,-122.2437445,,31.83154,0.1,140.69907,1590795472440
Fix,GT,37.4353674,-122.2434985,,31.847952,0.1,140.8255,1590795473440
Fix,GT,37.4351576,-122.2432532,,31.831402,0.1,140.84482,1590795474440
Fix,GT,37.4349485,-122.2430078,,31.771767,0.1,140.55862,1590795475440
Fix,GT,37.4347409,-122.2427609,,31.712288,0.1,140.13837,1590795476440
Fix,GT,37.434535,-122.2425132,,31.604572,0.1,139.94562,1590795477440
Fix,GT,37.4343304,-122.2422665,,31.371391,0.1,140.09863,1590795478440
Fix,GT,37.4341267,-122.2420235,,31.005955,0.1,140.4519,1590795479440
Fix,GT,37.4339248,-122.2417848,,30.60417,0.1,140.56348,1590795480440
Fix,GT,37.4337256,-122.2415489,,30.205902,0.1,140.35107,1590795481440
Fix,GT,37.4335297,-122.2413151,,29.842968,0.1,140.12817,1590795482440
Fix,GT,37.4333362,-122.241083,,29.614614,0.1,140.05133,1590795483440
Fix,GT,37.4331443,-122.2408514,,29.509985,0.1,139.71442,1590795484440
Fix,GT,37.432955,-122.2406179,,29.4476,0.1,138.9107,1590795485440
Fix,GT,37.4327681,-122.2403818,,29.432867,0.1,138.44168,1590795486440
Fix,GT,37.4325816,-122.2401453,,29.443203,0.1,138.76596,1590795487440
Fix,GT,37.432393,-122.2399112,,29.458075,0.1,139.48254,1590795488440
Fix,GT,37.4322024,-122.2396794,,29.49437,0.1,139.91284,1590795489440
Fix,GT,37.432011,-122.2394477,,29.548288,0.1,139.84009,1590795490440
Fix,GT,37.4318196,-122.2392147,,29.634258,0.1,139.53006,1590795491440
Fix,GT,37.4316292,-122.2389794,,29.749378,0.1,139.0404,1590795492440
Fix,GT,37.4314394,-122.2387409,,29.888401,0.1,138.62766,1590795493440
Fix,GT,37.43125,-122.2384998,,30.03909,0.1,138.16873,1590795494440
Fix,GT,37.4310617,-122.238255,,30.177387,0.1,137.50064,1590795495440
Fix,GT,37.4308748,-122.2380064,,30.306751,0.1,136.86258,1590795496440
Fix,GT,37.4306891,-122.2377543,,30.491135,0.1,136.38263,1590795497440
Fix,GT,37.4305032,-122.2374988,,30.663902,0.1,136.12567,1590795498440
Fix,GT,37.4303178,-122.237242,,30.610668,0.1,135.92368,1590795499440
Fix,GT,37.4301341,-122.2369862,,30.304573,0.1,135.8775,1590795500440
Fix,GT,37.429952,-122.2367337,,29.945091,0.1,136.0534,1590795501440
Fix,GT,37.4297717,-122.2364847,,29.59388,0.1,136.0109,1590795502440
Fix,GT,37.4295937,-122.2362381,,29.30722,0.1,135.96127,1590795503440
Fix,GT,37.4294171,-122.2359932,,29.197945,0.1,136.0358,1590795504440
Fix,GT,37.42924,-122.2357486,,29.338688,0.1,136.1857,1590795505440
Fix,GT,37.4290611,-122.2355023,,29.637617,0.1,136.146,1590795506440
Fix,GT,37.4288806,-122.235253,,29.987335,0.1,135.98917,1590795507440
Fix,GT,37.4286981,-122.235,,30.403826,0.1,135.97217,1590795508440
Fix,GT,37.4285132,-122.2347437,,30.75888,0.1,135.9419,1590795509440
Fix,GT,37.4283266,-122.2344849,,30.989243,0.1,135.97168,1590795510440
Fix,GT,37.4281385,-122.2342244,,31.23207,0.1,136.06448,1590795511440
Fix,GT,37.4279482,-122.2339622,,31.550085,0.1,136.23657,1590795512440
Fix,GT,37.4277548,-122.2336982,,31.905083,0.1,136.5498,1590795513440
Fix,GT,37.4275585,-122.2334322,,32.245033,0.1,136.6969,1590795514440
Fix,GT,37.4273596,-122.2331641,,32.565784,0.1,136.88641,1590795515440
Fix,GT,37.427158,-122.2328943,,32.851288,0.1,137.08105,1590795516440
Fix,GT,37.4269544,-122.2326231,,33.11651,0.1,137.26285,1590795517440
Fix,GT,37.4267479,-122.2323506,,33.43221,0.1,137.58682,1590795518440
Fix,GT,37.4265378,-122.2320769,,33.81698,0.1,137.85953,1590795519440
Fix,GT,37.4263247,-122.2318003,,34.250465,0.1,137.86337,1590795520440
Fix,GT,37.4261091,-122.2315203,,34.616364,0.1,137.76428,1590795521440
Fix,GT,37.4258923,-122.2312376,,34.754333,0.1,137.67688,1590795522440
Fix,GT,37.4256757,-122.2309543,,34.713287,0.1,137.62994,1590795523440
Fix,GT,37.4254601,-122.2306712,,34.587486,0.1,137.38556,1590795524440
Fix,GT,37.4252469,-122.2303878,,34.35196,0.1,136.94806,1590795525440
Fix,GT,37.4250371,-122.2301049,,34.051342,0.1,136.5462,1590795526440
Fix,GT,37.4248308,-122.2298225,,33.75007,0.1,136.03937,1590795527440
Fix,GT,37.4246284,-122.2295402,,33.48296,0.1,135.55661,1590795528440
Fix,GT,37.4244289,-122.2292582,,33.195282,0.1,135.24634,1590795529440
Fix,GT,37.4242329,-122.2289781,,32.76918,0.1,134.94958,1590795530440
Fix,GT,37.4240403,-122.2287006,,32.357475,0.1,134.81525,1590795531440
Fix,GT,37.42385,-122.2284264,,31.991585,0.1,134.9607,1590795532440
Fix,GT,37.4236614,-122.2281566,,31.526688,0.1,135.1059,1590795533440
Fix,GT,37.4234753,-122.2278907,,31.130955,0.1,135.01593,1590795534440
Fix,GT,37.4232919,-122.2276272,,30.753298,0.1,134.77423,1590795535440
Fix,GT,37.4231118,-122.2273665,,30.32968,0.1,134.64255,1590795536440
Fix,GT,37.4229341,-122.2271085,,30.026068,0.1,134.578,1590795537440
Fix,GT,37.4227581,-122.2268524,,29.851227,0.1,134.54346,1590795538440
Fix,GT,37.4225828,-122.2265973,,29.788246,0.1,134.57898,1590795539440
Fix,GT,37.4224076,-122.2263426,,29.776913,0.1,134.56549,1590795540440
Fix,GT,37.4222326,-122.2260879,,29.740845,0.1,134.56848,1590795541440
Fix,GT,37.4220574,-122.2258336,,29.741377,0.1,134.65686,1590795542440
Fix,GT,37.4218823,-122.2255792,,29.77567,0.1,134.64615,1590795543440
Fix,GT,37.4217068,-122.2253244,,29.807606,0.1,134.60327,1590795544440
Fix,GT,37.4215311,-122.2250692,,29.869814,0.1,134.67331,1590795545440
Fix,GT,37.421355,-122.2248134,,29.951014,0.1,134.7602,1590795546440
Fix,GT,37.4211778,-122.2245577,,30.041456,0.1,134.94641,1590795547440
Fix,GT,37.4209991,-122.2243019,,30.155743,0.1,135.08679,1590795548440
Fix,GT,37.4208198,-122.2240448,,30.288197,0.1,134.87341,1590795549440
Fix,GT,37.4206412,-122.2237854,,30.406305,0.1,134.41348,1590795550440
Fix,GT,37.4204641,-122.2235224,,30.515987,0.1,133.50586,1590795551440
Fix,GT,37.420291,-122.2232538,,30.621948,0.1,131.86963,1590795552440
Fix,GT,37.4201249,-122.2229771,,30.723587,0.1,129.64044,1590795553440
Fix,GT,37.4199671,-122.2226915,,30.837435,0.1,127.43237,1590795554440
Fix,GT,37.4198172,-122.2223976,,30.954355,0.1,125.37137,1590795555440
Fix,GT,37.4196754,-122.222096,,31.048952,0.1,123.2074,1590795556440
Fix,GT,37.4195433,-122.2217867,,31.083784,0.1,120.67053,1590795557440
Fix,GT,37.4194228,-122.2214703,,31.039444,0.1,118.08118,1590795558440
Fix,GT,37.4193134,-122.2211488,,30.840569,0.1,115.81952,1590795559440
Fix,GT,37.4192147,-122.220825,,30.572273,0.1,113.60626,1590795560440
Fix,GT,37.4191268,-122.2204988,,30.482061,0.1,111.39139,1590795561440
Fix,GT,37.4190483,-122.2201686,,30.52961,0.1,109.38205,1590795562440
Fix,GT,37.4189791,-122.2198345,,30.61837,0.1,107.24512,1590795563440
Fix,GT,37.4189196,-122.2194963,,30.738493,0.1,105.285645,1590795564440
Fix,GT,37.4188671,-122.2191548,,30.84056,0.1,104.306366,1590795565440
Fix,GT,37.4188168,-122.2188118,,30.88866,0.1,104.08591,1590795566440
Fix,GT,37.4187671,-122.218469,,30.757498,0.1,104.08313,1590795567440
Fix,GT,37.4187176,-122.2181289,,30.415964,0.1,104.217834,1590795568440
Fix,GT,37.4186678,-122.217793,,30.083206,0.1,104.40933,1590795569440
Fix,GT,37.418618,-122.2174602,,29.89032,0.1,104.42557,1590795570440
Fix,GT,37.4185684,-122.217129,,29.78162,0.1,104.443115,1590795571440
Fix,GT,37.418519,-122.216799,,29.675186,0.1,104.363495,1590795572440
Fix,GT,37.4184698,-122.2164698,,29.65586,0.1,104.49484,1590795573440
Fix,GT,37.4184185,-122.2161406,,29.73236,0.1,105.37439,1590795574440
Fix,GT,37.4183608,-122.2158123,,29.785301,0.1,107.143585,1590795575440
Fix,GT,37.4182938,-122.2154863,,29.795856,0.1,109.317444,1590795576440
Fix,GT,37.4182176,-122.2151635,,29.810032,0.1,111.29654,1590795577440
Fix,GT,37.4181321,-122.2148441,,29.847036,0.1,113.45422,1590795578440
Fix,GT,37.4180363,-122.2145286,,29.910812,0.1,115.81378,1590795579440
Fix,GT,37.4179301,-122.2142175,,29.970236,0.1,118.14874,1590795580440
Fix,GT,37.4178139,-122.2139116,,30.020884,0.1,120.45026,1590795581440
Fix,GT,37.4176875,-122.2136115,,30.0705,0.1,122.95346,1590795582440
Fix,GT,37.4175498,-122.2133184,,30.124266,0.1,125.6637,1590795583440
Fix,GT,37.4174014,-122.2130329,,30.178213,0.1,128.09277,1590795584440
Fix,GT,37.4172441,-122.2127543,,30.225176,0.1,130.06421,1590795585440
Fix,GT,37.4170793,-122.2124822,,30.217415,0.1,132.07526,1590795586440
Fix,GT,37.416907,-122.212218,,30.17804,0.1,134.23068,1590795587440
Fix,GT,37.4167271,-122.2119629,,30.119848,0.1,136.50409,1590795588440
Fix,GT,37.4165389,-122.2117182,,30.07433,0.1,139.0899,1590795589440
Fix,GT,37.4163428,-122.211484,,30.04799,0.1,141.24585,1590795590440
Fix,GT,37.4161409,-122.2112579,,30.047405,0.1,142.83643,1590795591440
Fix,GT,37.4159342,-122.2110384,,30.093418,0.1,144.2406,1590795592440
Fix,GT,37.4157236,-122.2108234,,30.185776,0.1,144.98901,1590795593440
Fix,GT,37.4155115,-122.2106093,,30.23093,0.1,144.95288,1590795594440
Fix,GT,37.4153001,-122.2103948,,30.1291,0.1,144.76794,1590795595440
Fix,GT,37.4150898,-122.2101808,,30.014217,0.1,144.71747,1590795596440
Fix,GT,37.4148807,-122.2099659,,30.02388,0.1,144.1596,1590795597440
Fix,GT,37.4146743,-122.209746,,30.117393,0.1,142.77036,1590795598440
Fix,GT,37.4144724,-122.2095186,,30.151829,0.1,140.88373,1590795599440
Fix,GT,37.4142774,-122.2092822,,30.104446,0.1,138.72195,1590795600440
Fix,GT,37.4140895,-122.2090371,,30.141718,0.1,136.6088,1590795601440
Fix,GT,37.4139083,-122.2087824,,30.338615,0.1,134.40253,1590795602440
Fix,GT,37.4137341,-122.2085165,,30.613655,0.1,131.97083,1590795603440
Fix,GT,37.4135678,-122.2082392,,30.857372,0.1,129.5368,1590795604440
Fix,GT,37.4134097,-122.2079511,,31.095003,0.1,127.00275,1590795605440
Fix,GT,37.4132604,-122.2076532,,31.228556,0.1,124.59531,1590795606440
Fix,GT,37.4131204,-122.2073472,,31.259106,0.1,122.49527,1590795607440
Fix,GT,37.4129897,-122.2070348,,31.242027,0.1,120.56976,1590795608440
Fix,GT,37.4128657,-122.2067186,,31.148813,0.1,119.44696,1590795609440
Fix,GT,37.4127464,-122.2064006,,31.087746,0.1,118.4758,1590795610440
Fix,GT,37.412632,-122.20608,,31.13979,0.1,117.37753,1590795611440
Fix,GT,37.4125214,-122.2057559,,31.302193,0.1,116.56906,1590795612440
Fix,GT,37.412413,-122.2054282,,31.51199,0.1,116.00488,1590795613440
Fix,GT,37.4123067,-122.2050971,,31.672127,0.1,115.47217,1590795614440
Fix,GT,37.4122017,-122.2047636,,31.805885,0.1,115.27072,1590795615440
Fix,GT,37.4120963,-122.2044286,,31.95109,0.1,115.517944,1590795616440
Fix,GT,37.4119888,-122.204093,,32.092037,0.1,115.77673,1590795617440
Fix,GT,37.4118801,-122.2037563,,32.19155,0.1,115.76715,1590795618440
Fix,GT,37.4117714,-122.2034188,,32.247784,0.1,115.71661,1590795619440
Fix,GT,37.4116629,-122.2030807,,32.27849,0.1,115.58078,1590795620440
Fix,GT,37.4115552,-122.202742,,32.270027,0.1,115.39572,1590795621440
Fix,GT,37.4114483,-122.2024032,,32.23678,0.1,115.28879,1590795622440
Fix,GT,37.411342,-122.2020647,,32.17871,0.1,115.223145,1590795623440
Fix,GT,37.411236,-122.2017271,,32.07585,0.1,115.37381,1590795624440
Fix,GT,37.4111292,-122.2013914,,31.930992,0.1,115.694275,1590795625440
Fix,GT,37.4110217,-122.2010582,,31.703377,0.1,115.920715,1590795626440
Fix,GT,37.4109146,-122.2007283,,31.332043,0.1,115.910645,1590795627440
Fix,GT,37.4108093,-122.2004028,,30.86896,0.1,115.81537,1590795628440
Fix,GT,37.4107057,-122.2000817,,30.455027,0.1,115.75018,1590795629440
Fix,GT,37.4106039,-122.1997647,,30.05751,0.1,115.63275,1590795630440
Fix,GT,37.4105036,-122.1994522,,29.534042,0.1,115.714294,1590795631440
Fix,GT,37.410405,-122.1991465,,28.831154,0.1,115.78955,1590795632440
Fix,GT,37.4103091,-122.1988488,,28.018438,0.1,115.683105,1590795633440
Fix,GT,37.4102166,-122.1985589,,27.262527,0.1,115.34668,1590795634440
Fix,GT,37.4101278,-122.1982763,,26.528637,0.1,115.20328,1590795635440
Fix,GT,37.410041,-122.1980008,,25.934694,0.1,115.39819,1590795636440
Fix,GT,37.4099553,-122.1977308,,25.532797,0.1,115.54526,1590795637440
Fix,GT,37.40987,-122.1974644,,25.343597,0.1,115.67926,1590795638440
Fix,GT,37.4097845,-122.1971991,,25.347874,0.1,115.75189,1590795639440
Fix,GT,37.4096993,-122.1969336,,25.331963,0.1,115.63458,1590795640440
Fix,GT,37.4096147,-122.1966682,,25.264364,0.1,115.31369,1590795641440
Fix,GT,37.4095317,-122.1964031,,25.134628,0.1,115.17389,1590795642440
Fix,GT,37.409449,-122.1961401,,24.897907,0.1,115.41852,1590795643440
Fix,GT,37.4093662,-122.1958803,,24.654408,0.1,115.590515,1590795644440
Fix,GT,37.409284,-122.1956223,,24.579784,0.1,115.55737,1590795645440
Fix,GT,37.4092014,-122.1953642,,24.671587,0.1,115.72244,1590795646440
Fix,GT,37.4091174,-122.195105,,24.896599,0.1,115.97302,1590795647440
Fix,GT,37.409032,-122.1948434,,25.161219,0.1,116.086,1590795648440
Fix,GT,37.4089458,-122.1945794,,25.33543,0.1,115.985596,1590795649440
Fix,GT,37.4088597,-122.1943135,,25.428228,0.1,115.78479,1590795650440
Fix,GT,37.4087741,-122.1940472,,25.334936,0.1,115.64496,1590795651440
Fix,GT,37.4086899,-122.193783,,25.010897,0.1,115.33655,1590795652440
Fix,GT,37.4086079,-122.1935222,,24.607548,0.1,115.256226,1590795653440
Fix,GT,37.408527,-122.1932658,,24.264462,0.1,115.44794,1590795654440
Fix,GT,37.4084462,-122.1930123,,24.100807,0.1,115.63147,1590795655440
Fix,GT,37.4083647,-122.1927605,,24.011898,0.1,116.17395,1590795656440
Fix,GT,37.4082803,-122.1925115,,23.857426,0.1,117.4245,1590795657440
Fix,GT,37.4081916,-122.1922673,,23.66623,0.1,119.0282,1590795658440
Fix,GT,37.408098,-122.1920281,,23.497076,0.1,120.68155,1590795659440
Fix,GT,37.408,-122.1917938,,23.35948,0.1,122.14136,1590795660440
Fix,GT,37.4078984,-122.1915635,,23.22219,0.1,123.22052,1590795661440
Fix,GT,37.4077939,-122.1913369,,23.095947,0.1,124.41269,1590795662440
Fix,GT,37.4076861,-122.1911147,,22.98027,0.1,125.83893,1590795663440
Fix,GT,37.407574,-122.190897,,22.892767,0.1,127.3465,1590795664440
Fix,GT,37.4074578,-122.190684,,22.813803,0.1,128.85825,1590795665440
Fix,GT,37.4073377,-122.1904753,,22.731659,0.1,130.22156,1590795666440
Fix,GT,37.4072143,-122.1902708,,22.680298,0.1,131.52386,1590795667440
Fix,GT,37.4070866,-122.190071,,22.658134,0.1,133.41223,1590795668440
Fix,GT,37.4069535,-122.1898771,,22.62278,0.1,135.3602,1590795669440
Fix,GT,37.4068164,-122.1896883,,22.566175,0.1,136.63751,1590795670440
Fix,GT,37.4066768,-122.1895035,,22.484314,0.1,137.81836,1590795671440
Fix,GT,37.4065348,-122.1893234,,22.35133,0.1,139.02707,1590795672440
Fix,GT,37.4063907,-122.1891488,,22.096214,0.1,140.48126,1590795673440
Fix,GT,37.4062447,-122.188982,,21.761364,0.1,142.38348,1590795674440
Fix,GT,37.4060961,-122.1888239,,21.53867,0.1,144.4721,1590795675440
Fix,GT,37.4059438,-122.1886737,,21.483274,0.1,146.59796,1590795676440
Fix,GT,37.4057877,-122.1885302,,21.49042,0.1,148.23685,1590795677440
Fix,GT,37.4056298,-122.1883895,,21.56501,0.1,148.4378,1590795678440
Fix,GT,37.4054715,-122.1882461,,21.787773,0.1,147.62653,1590795679440
Fix,GT,37.4053124,-122.1880991,,22.062525,0.1,147.51117,1590795680440
Fix,GT,37.4051507,-122.1879513,,22.373493,0.1,147.94806,1590795681440
Fix,GT,37.404986,-122.1878023,,22.703075,0.1,148.04553,1590795682440
Fix,GT,37.404819,-122.1876511,,23.026848,0.1,147.92896,1590795683440
Fix,GT,37.40465,-122.1874971,,23.334759,0.1,147.64716,1590795684440
Fix,GT,37.4044798,-122.1873402,,23.57764,0.1,147.30145,1590795685440
Fix,GT,37.4043087,-122.1871807,,23.767475,0.1,147.17657,1590795686440
Fix,GT,37.4041363,-122.1870195,,23.96436,0.1,147.0669,1590795687440
Fix,GT,37.4039628,-122.1868568,,24.11761,0.1,147.03421,1590795688440
Fix,GT,37.4037883,-122.186693,,24.269665,0.1,146.94019,1590795689440
Fix,GT,37.403613,-122.1865271,,24.47974,0.1,146.56085,1590795690440
Fix,GT,37.4034373,-122.1863576,,24.765944,0.1,146.10355,1590795691440
Fix,GT,37.40326,-122.1861847,,25.098297,0.1,145.90955,1590795692440
Fix,GT,37.4030807,-122.1860087,,25.436562,0.1,145.78656,1590795693440
Fix,GT,37.4028994,-122.1858299,,25.74865,0.1,145.57526,1590795694440
Fix,GT,37.4027165,-122.1856483,,26.047508,0.1,145.45563,1590795695440
Fix,GT,37.4025315,-122.1854644,,26.361595,0.1,145.45361,1590795696440
Fix,GT,37.4023445,-122.1852781,,26.65784,0.1,145.23883,1590795697440
Fix,GT,37.402156,-122.1850892,,26.909565,0.1,145.20905,1590795698440
Fix,GT,37.4019654,-122.1848991,,27.14421,0.1,145.37604,1590795699440
Fix,GT,37.4017732,-122.1847078,,27.346207,0.1,145.3075,1590795700440
Fix,GT,37.4015801,-122.1845144,,27.531523,0.1,145.09827,1590795701440
Fix,GT,37.4013861,-122.1843185,,27.726631,0.1,144.8664,1590795702440
Fix,GT,37.4011913,-122.1841206,,27.92833,0.1,144.7503,1590795703440
Fix,GT,37.4009952,-122.1839211,,28.12564,0.1,144.76651,1590795704440
Fix,GT,37.4007978,-122.1837201,,28.3363,0.1,144.75348,1590795705440
Fix,GT,37.4005989,-122.1835173,,28.533836,0.1,144.72766,1590795706440
Fix,GT,37.4003989,-122.1833133,,28.695786,0.1,144.74365,1590795707440
Fix,GT,37.4001975,-122.1831086,,28.847992,0.1,144.8346,1590795708440
Fix,GT,37.3999952,-122.1829031,,28.9286,0.1,144.68857,1590795709440
Fix,GT,37.3997935,-122.1826961,,28.9278,0.1,144.36594,1590795710440
Fix,GT,37.3995925,-122.1824885,,28.896957,0.1,144.39117,1590795711440
Fix,GT,37.3993914,-122.1822816,,28.826496,0.1,144.5752,1590795712440
Fix,GT,37.3991905,-122.182076,,28.758663,0.1,144.7489,1590795713440
Fix,GT,37.3989895,-122.1818716,,28.702612,0.1,144.97229,1590795714440
Fix,GT,37.398788,-122.1816688,,28.66862,0.1,145.15814,1590795715440
Fix,GT,37.3985867,-122.1814661,,28.646128,0.1,145.0278,1590795716440
Fix,GT,37.398386,-122.1812626,,28.653126,0.1,144.8855,1590795717440
Fix,GT,37.3981853,-122.1810586,,28.694145,0.1,144.93799,1590795718440
Fix,GT,37.397984,-122.1808552,,28.715427,0.1,145.07233,1590795719440
Fix,GT,37.3977821,-122.1806522,,28.728294,0.1,145.04956,1590795720440
Fix,GT,37.3975809,-122.1804482,,28.716507,0.1,144.76111,1590795721440
Fix,GT,37.3973805,-122.1802435,,28.65615,0.1,144.65942,1590795722440
Fix,GT,37.3971807,-122.1800392,,28.585196,0.1,144.64035,1590795723440
Fix,GT,37.3969816,-122.1798349,,28.526495,0.1,144.5824,1590795724440
Fix,GT,37.3967826,-122.1796312,,28.515615,0.1,144.80264,1590795725440
Fix,GT,37.3965828,-122.1794284,,28.564304,0.1,145.06995,1590795726440
Fix,GT,37.3963822,-122.1792257,,28.651825,0.1,144.92957,1590795727440
Fix,GT,37.3961815,-122.1790209,,28.8016,0.1,144.41504,1590795728440
Fix,GT,37.3959815,-122.178812,,29.011705,0.1,143.72961,1590795729440
