MessageType,Provider,LatitudeDegrees,LongitudeDegrees,AltitudeMeters,SpeedMps,AccuracyMeters,BearingDegrees,UnixTimeMillis
Fix,GT,37.4280431,-122.0699222,,0.0005637124,0.1,358.5773,1594247334436
Fix,GT,37.4280431,-122.0699222,,0.0,0.1,358.57748,1594247335436
Fix,GT,37.4280431,-122.0699222,,0.0,0.1,358.57745,1594247336436
Fix,GT,37.4280431,-122.0699222,,0.00043628766,0.1,358.5775,1594247337436
Fix,GT,37.4280431,-122.0699222,,0.0005637124,0.1,358.5774,1594247338436
Fix,GT,37.4280431,-122.0699222,,0.00043628766,0.1,358.57724,1594247339436
Fix,GT,37.4280431,-122.0699222,,0.0011807163,0.1,358.5769,1594247340436
Fix,GT,37.4280431,-122.0699222,,0.0007972097,0.1,358.5765,1594247341436
Fix,GT,37.4280431,-122.0699222,,0.0,0.1,358.57657,1594247342436
Fix,GT,37.4280431,-122.0699222,,0.0004362877,0.1,358.57666,1594247343436
Fix,GT,37.4280431,-122.0699222,,0.001,0.1,358.57632,1594247344436
Fix,GT,37.4280431,-122.0699222,,0.001,0.1,358.57614,1594247345436
Fix,GT,37.4280431,-122.0699222,,0.001,0.1,358.57626,1594247346436
Fix,GT,37.4280431,-122.0699222,,0.0011807163,0.1,358.5763,1594247347436
Fix,GT,37.4280431,-122.0699222,,0.0012334973,0.1,358.57635,1594247348436
Fix,GT,37.4280431,-122.0699222,,0.001,0.1,358.5767,1594247349436
Fix,GT,37.4280431,-122.0699222,,0.0005637123,0.1,358.5768,1594247350436
Fix,GT,37.4280431,-122.0699222,,0.0013088632,0.1,358.57654,1594247351436
Fix,GT,37.4280431,-122.0699222,,0.004040618,0.1,358.57642,1594247352436
Fix,GT,37.4280431,-122.0699222,,0.0043445462,0.1,358.57605,1594247353436
Fix,GT,37.4280431,-122.0699222,,0.0021274246,0.1,358.57593,1594247354436
Fix,GT,37.4280431,-122.0699222,,0.0014362878,0.1,358.57623,1594247355436
Fix,GT,37.4280431,-122.0699222,,0.0015637123,0.1,358.57623,1594247356436
Fix,GT,37.4280431,-122.0699222,,0.0014362878,0.1,358.5767,1594247357436
Fix,GT,37.4280431,-122.0699222,,0.0015637124,0.1,358.57626,1594247358436
Fix,GT,37.4280431,-122.0699222,,0.0015392815,0.1,358.5763,1594247359436
Fix,GT,37.4280431,-122.0699222,,0.001877503,0.1,358.57617,1594247360436
Fix,GT,37.4280431,-122.0699222,,0.0012334973,0.1,358.57614,1594247361436
Fix,GT,37.4280431,-122.0699222,,0.0005637122,0.1,358.576,1594247362436
Fix,GT,37.4280431,-122.0699222,,0.0,0.1,358.57587,1594247363436
Fix,GT,37.4280431,-122.0699222,,0.0,0.1,358.5758,1594247364436
Fix,GT,37.4280431,-122.0699222,,0.0006170042,0.1,358.57587,1594247365436
Fix,GT,37.4280431,-122.0699222,,0.0023702674,0.1,358.5758,1594247366436
Fix,GT,37.4280431,-122.0699222,,0.0038835055,0.1,358.57593,1594247367436
Fix,GT,37.4280431,-122.0699222,,0.0043427665,0.1,358.57614,1594247368436
Fix,GT,37.4280431,-122.0699222,,0.0059285145,0.1,358.57602,1594247369436
Fix,GT,37.4280431,-122.0699222,,0.008155823,0.1,358.5746,1594247370436
Fix,GT,37.428043,-122.0699222,,0.006422293,0.1,358.5759,1594247371436
Fix,GT,37.428043,-122.0699224,,0.009134745,0.1,358.4804,1594247372436
Fix,GT,37.4280431,-122.0699225,,0.06156201,0.1,358.1752,1594247373436
Fix,GT,37.428045,-122.0699237,,0.4523582,0.1,355.8905,1594247374436
Fix,GT,37.428052,-122.0699275,,1.2111629,0.1,350.1799,1594247375436
Fix,GT,37.4280656,-122.0699334,,1.9505134,0.1,345.915,1594247376436
Fix,GT,37.428086,-122.0699392,,2.6486552,0.1,346.73416,1594247377436
Fix,GT,37.4281128,-122.0699438,,3.3999116,0.1,350.9421,1594247378436
Fix,GT,37.428147,-122.0699454,,4.2217026,0.1,356.60413,1594247379436
Fix,GT,37.4281876,-122.0699448,,4.7278786,0.1,359.96942,1594247380436
Fix,GT,37.4282306,-122.0699454,,4.7255764,0.1,357.7975,1594247381436
Fix,GT,37.428271,-122.0699568,,4.5141096,0.1,343.86734,1594247382436
Fix,GT,37.4283016,-122.0699879,,4.424239,0.1,318.46393,1594247383436
Fix,GT,37.4283177,-122.0700335,,4.491332,0.1,292.56873,1594247384436
Fix,GT,37.4283165,-122.070084,,4.4590507,0.1,266.8937,1594247385436
Fix,GT,37.4282962,-122.0701262,,4.416149,0.1,237.86249,1594247386436
Fix,GT,37.4282604,-122.07015,,4.6672153,0.1,208.93645,1594247387436
Fix,GT,37.4282169,-122.070156,,5.1061087,0.1,187.79182,1594247388436
Fix,GT,37.4281685,-122.0701541,,5.710802,0.1,179.43193,1594247389436
Fix,GT,37.4281133,-122.0701514,,6.5049696,0.1,178.6394,1594247390436
Fix,GT,37.4280525,-122.0701489,,6.929447,0.1,178.62842,1594247391436
Fix,GT,37.4279901,-122.0701464,,6.921031,0.1,178.65454,1594247392436
Fix,GT,37.4279283,-122.0701442,,6.88393,0.1,178.52802,1594247393436
Fix,GT,37.4278654,-122.0701417,,7.1333103,0.1,178.49127,1594247394436
Fix,GT,37.4277986,-122.0701396,,7.6986103,0.1,178.80328,1594247395436
Fix,GT,37.4277266,-122.0701383,,8.274915,0.1,179.35913,1594247396436
Fix,GT,37.4276504,-122.0701376,,8.570692,0.1,179.61469,1594247397436
Fix,GT,37.4275736,-122.0701366,,8.400773,0.1,179.16187,1594247398436
Fix,GT,37.4275003,-122.0701347,,7.806068,0.1,178.68188,1594247399436
Fix,GT,37.427434,-122.070134,,6.907795,0.1,180.20422,1594247400436
Fix,GT,37.4273782,-122.0701416,,5.627468,0.1,189.71481,1594247401436
Fix,GT,37.4273394,-122.070168,,4.567068,0.1,213.58058,1594247402436
Fix,GT,37.427322,-122.07021,,4.2751102,0.1,243.96841,1594247403436
Fix,GT,37.4273169,-122.0702574,,4.3032117,0.1,260.39972,1594247404436
Fix,GT,37.4273073,-122.0703032,,4.0800257,0.1,252.62204,1594247405436
Fix,GT,37.4272831,-122.0703373,,4.1497116,0.1,228.16718,1594247406436
Fix,GT,37.4272459,-122.0703556,,4.7861414,0.1,202.40222,1594247407436
Fix,GT,37.4271991,-122.0703627,,5.7293797,0.1,187.50479,1594247408436
Fix,GT,37.4271427,-122.0703661,,6.789565,0.1,183.23883,1594247409436
Fix,GT,37.4270783,-122.0703684,,7.4770412,0.1,181.65483,1594247410436
Fix,GT,37.4270113,-122.0703689,,7.3099356,0.1,179.98395,1594247411436
Fix,GT,37.4269484,-122.0703648,,6.5577326,0.1,175.23914,1594247412436
Fix,GT,37.4268953,-122.0703456,,5.828804,0.1,159.10474,1594247413436
Fix,GT,37.4268596,-122.0703032,,5.4149218,0.1,131.9914,1594247414436
Fix,GT,37.4268426,-122.0702479,,5.1707964,0.1,110.01492,1594247415436
Fix,GT,37.4268291,-122.0701936,,4.9016438,0.1,110.263855,1594247416436
Fix,GT,37.426803,-122.0701532,,4.7374268,0.1,132.36697,1594247417436
Fix,GT,37.4267631,-122.0701332,,5.243328,0.1,158.60602,1594247418436
Fix,GT,37.4267116,-122.070126,,6.3761797,0.1,173.87311,1594247419436
Fix,GT,37.4266492,-122.0701244,,7.4085283,0.1,178.93958,1594247420436
Fix,GT,37.4265804,-122.0701244,,7.728633,0.1,179.95068,1594247421436
Fix,GT,37.4265123,-122.0701248,,7.29063,0.1,180.21123,1594247422436
Fix,GT,37.4264511,-122.0701278,,6.3056564,0.1,183.09236,1594247423436
Fix,GT,37.426401,-122.0701428,,5.3671975,0.1,197.03328,1594247424436
Fix,GT,37.4263667,-122.0701794,,5.0121737,0.1,223.83377,1594247425436
Fix,GT,37.4263516,-122.0702308,,4.9823484,0.1,251.6828,1594247426436
Fix,GT,37.426354,-122.0702853,,4.8791633,0.1,275.66507,1594247427436
Fix,GT,37.426375,-122.070329,,4.588496,0.1,304.96576,1594247428436
Fix,GT,37.4264118,-122.07035,,4.900983,0.1,336.87045,1594247429436
Fix,GT,37.4264585,-122.0703554,,5.6965866,0.1,355.40314,1594247430436
Fix,GT,37.4265123,-122.0703559,,6.253627,0.1,0.51486206,1594247431436
Fix,GT,37.4265701,-122.0703553,,6.5358047,0.1,1.5637817,1594247432436
Fix,GT,37.4266297,-122.0703538,,6.6649876,0.1,1.5887451,1594247433436
Fix,GT,37.4266899,-122.0703536,,6.686061,0.1,0.30065918,1594247434436
Fix,GT,37.4267498,-122.070355,,6.5726595,0.1,359.13092,1594247435436
Fix,GT,37.4268088,-122.0703571,,6.554286,0.1,358.66547,1594247436436
Fix,GT,37.4268687,-122.0703595,,6.81789,0.1,358.4973,1594247437436
Fix,GT,37.426932,-122.0703613,,7.247362,0.1,358.95697,1594247438436
Fix,GT,37.4269999,-122.0703626,,7.8183975,0.1,359.43808,1594247439436
Fix,GT,37.4270731,-122.0703634,,8.350181,0.1,359.65826,1594247440436
Fix,GT,37.4271492,-122.0703641,,8.464641,0.1,359.79126,1594247441436
Fix,GT,37.4272245,-122.0703641,,8.1832,0.1,0.38796997,1594247442436
Fix,GT,37.4272976,-122.0703629,,8.131805,0.1,1.0020752,1594247443436
Fix,GT,37.4273726,-122.0703614,,8.612328,0.1,0.9466553,1594247444436
Fix,GT,37.427453,-122.0703605,,9.186595,0.1,0.4701538,1594247445436
Fix,GT,37.4275375,-122.0703604,,9.531533,0.1,0.14105225,1594247446436
Fix,GT,37.4276247,-122.0703604,,9.82966,0.1,0.2154541,1594247447436
Fix,GT,37.4277147,-122.07036,,10.096664,0.1,0.39196777,1594247448436
Fix,GT,37.427806,-122.0703591,,10.100784,0.1,0.60317993,1594247449436
Fix,GT,37.4278961,-122.0703577,,9.903998,0.1,0.8384094,1594247450436
Fix,GT,37.427984,-122.0703556,,9.554476,0.1,1.2318726,1594247451436
Fix,GT,37.4280668,-122.0703526,,8.730705,0.1,1.9584961,1594247452436
Fix,GT,37.4281396,-122.0703486,,7.3845186,0.1,2.5598755,1594247453436
Fix,GT,37.4281994,-122.0703463,,5.954021,0.1,0.3154297,1594247454436
Fix,GT,37.4282479,-122.0703533,,5.0027018,0.1,350.3855,1594247455436
Fix,GT,37.4282863,-122.0703768,,4.604203,0.1,330.77008,1594247456436
Fix,GT,37.4283111,-122.0704183,,4.7177587,0.1,305.53516,1594247457436
Fix,GT,37.4283216,-122.070474,,5.496043,0.1,283.5853,1594247458436
Fix,GT,37.4283241,-122.0705399,,6.070243,0.1,273.1608,1594247459436
Fix,GT,37.4283252,-122.0706083,,5.953706,0.1,271.90735,1594247460436
Fix,GT,37.428326,-122.070674,,5.7578506,0.1,271.46228,1594247461436
Fix,GT,37.4283262,-122.0707411,,6.2532187,0.1,270.67822,1594247462436
Fix,GT,37.4283259,-122.0708178,,7.32506,0.1,270.0124,1594247463436
Fix,GT,37.428325,-122.070906,,8.23605,0.1,269.3671,1594247464436
Fix,GT,37.4283235,-122.0710021,,8.749319,0.1,269.0956,1594247465436
Fix,GT,37.4283218,-122.0711016,,8.744865,0.1,268.93097,1594247466436
Fix,GT,37.4283201,-122.0711975,,8.185948,0.1,269.04663,1594247467436
Fix,GT,37.4283195,-122.0712862,,7.5013056,0.1,269.941,1594247468436
Fix,GT,37.4283203,-122.0713691,,7.221198,0.1,270.98743,1594247469436
Fix,GT,37.4283222,-122.0714512,,7.3857255,0.1,272.04382,1594247470436
Fix,GT,37.4283261,-122.0715364,,7.711874,0.1,273.40973,1594247471436
Fix,GT,37.428331,-122.0716228,,7.592261,0.1,273.92926,1594247472436
Fix,GT,37.4283351,-122.0717065,,7.230351,0.1,272.5676,1594247473436
Fix,GT,37.4283327,-122.0717855,,6.7411604,0.1,264.82742,1594247474436
Fix,GT,37.4283146,-122.0718534,,6.122123,0.1,245.90738,1594247475436
Fix,GT,37.4282776,-122.0719,,5.8607154,0.1,220.36435,1594247476436
Fix,GT,37.4282275,-122.0719212,,6.1499968,0.1,195.86368,1594247477436
Fix,GT,37.4281691,-122.0719232,,6.8816495,0.1,180.83492,1594247478436
Fix,GT,37.4281037,-122.0719186,,7.6572504,0.1,177.55493,1594247479436
Fix,GT,37.4280317,-122.0719142,,8.289705,0.1,177.51105,1594247480436
Fix,GT,37.4279559,-122.0719096,,8.451241,0.1,177.41113,1594247481436
Fix,GT,37.4278811,-122.0719055,,8.1043825,0.1,177.72986,1594247482436
Fix,GT,37.4278109,-122.0719031,,7.39157,0.1,178.58752,1594247483436
Fix,GT,37.4277496,-122.0719041,,6.1741877,0.1,181.5199,1594247484436
Fix,GT,37.4277009,-122.0719121,,4.8505526,0.1,188.95784,1594247485436
Fix,GT,37.4276656,-122.0719317,,3.9467168,0.1,205.11499,1594247486436
Fix,GT,37.4276454,-122.0719657,,3.708252,0.1,232.20645,1594247487436
Fix,GT,37.4276423,-122.0720077,,3.9513586,0.1,261.98056,1594247488436
Fix,GT,37.427652,-122.0720516,,4.297477,0.1,283.8314,1594247489436
Fix,GT,37.427669,-122.0720981,,4.833581,0.1,295.0553,1594247490436
Fix,GT,37.4276968,-122.0721429,,5.323779,0.1,310.82263,1594247491436
Fix,GT,37.4277402,-122.0721694,,5.8317204,0.1,337.4034,1594247492436
Fix,GT,37.4277947,-122.0721778,,6.596092,0.1,355.19873,1594247493436
Fix,GT,37.427857,-122.0721797,,7.185667,0.1,359.5833,1594247494436
Fix,GT,37.4279234,-122.0721794,,7.5086136,0.1,0.9299927,1594247495436
Fix,GT,37.4279918,-122.0721779,,7.620728,0.1,1.3855591,1594247496436
Fix,GT,37.4280596,-122.0721759,,7.348688,0.1,1.6091919,1594247497436
Fix,GT,37.4281234,-122.0721734,,6.7998805,0.1,1.9328613,1594247498436
Fix,GT,37.4281818,-122.072171,,6.146929,0.1,1.3460083,1594247499436
Fix,GT,37.4282331,-122.0721718,,5.2131205,0.1,357.2402,1594247500436
Fix,GT,37.4282748,-122.0721826,,4.284144,0.1,344.94284,1594247501436
Fix,GT,37.4283048,-122.0722084,,3.95477,0.1,323.70618,1594247502436
Fix,GT,37.4283218,-122.0722481,,4.143957,0.1,298.94843,1594247503436
Fix,GT,37.4283263,-122.0722974,,4.6991262,0.1,277.78564,1594247504436
Fix,GT,37.4283238,-122.0723531,,5.1008263,0.1,267.56525,1594247505436
Fix,GT,37.428318,-122.0724097,,4.8801236,0.1,262.5987,1594247506436
Fix,GT,37.4283071,-122.0724593,,4.144549,0.1,253.90265,1594247507436
Fix,GT,37.4282933,-122.0724958,,2.896865,0.1,244.85245,1594247508436
Fix,GT,37.4282823,-122.0725163,,1.4593573,0.1,239.0851,1594247509436
Fix,GT,37.4282775,-122.0725242,,0.4279084,0.1,237.47137,1594247510436
Fix,GT,37.4282767,-122.0725253,,0.031470694,0.1,237.43063,1594247511436
Fix,GT,37.4282765,-122.0725252,,0.03085773,0.1,237.42496,1594247512436
Fix,GT,37.4282766,-122.072525,,0.017234614,0.1,237.42578,1594247513436
Fix,GT,37.4282766,-122.0725249,,0.0050558187,0.1,237.42564,1594247514436
Fix,GT,37.4282766,-122.072525,,0.0041274223,0.1,237.42531,1594247515436
Fix,GT,37.4282766,-122.072525,,0.00354215,0.1,237.42505,1594247516436
Fix,GT,37.4282766,-122.072525,,0.004859646,0.1,237.42523,1594247517436
Fix,GT,37.4282766,-122.072525,,0.0063349553,0.1,237.42506,1594247518436
Fix,GT,37.4282766,-122.072525,,0.007582452,0.1,237.42487,1594247519436
Fix,GT,37.4282766,-122.072525,,0.006894272,0.1,237.42508,1594247520436
Fix,GT,37.4282766,-122.072525,,0.0052603227,0.1,237.42513,1594247521436
Fix,GT,37.4282766,-122.072525,,0.0046732393,0.1,237.42506,1594247522436
Fix,GT,37.4282766,-122.072525,,0.0037039071,0.1,237.42511,1594247523436
Fix,GT,37.4282766,-122.072525,,0.002655189,0.1,237.42479,1594247524436
Fix,GT,37.4282766,-122.072525,,0.0015637113,0.1,237.42465,1594247525436
Fix,GT,37.4282766,-122.072525,,0.001,0.1,-122.57536,1594247526436
Fix,GT,37.4282766,-122.072525,,0.00056371116,0.1,237.42482,1594247527436
Fix,GT,37.4282766,-122.072525,,0.00043628892,0.1,237.42474,1594247528436
Fix,GT,37.4282766,-122.072525,,0.0011807168,0.1,237.42438,1594247529436
Fix,GT,37.4282766,-122.072525,,0.0014142136,0.1,237.42426,1594247530436
Fix,GT,37.4282766,-122.072525,,0.0012334967,0.1,237.42427,1594247531436
Fix,GT,37.4282766,-122.072525,,0.001,0.1,237.42474,1594247532436
Fix,GT,37.4282766,-122.072525,,0.001,0.1,237.42474,1594247533436
Fix,GT,37.4282766,-122.072525,,0.001,0.1,237.42471,1594247534436
Fix,GT,37.4282766,-122.072525,,0.0011807168,0.1,237.4249,1594247535436
Fix,GT,37.4282766,-122.072525,,0.0012334968,0.1,237.42525,1594247536436
Fix,GT,37.4282766,-122.072525,,0.0011807168,0.1,237.4251,1594247537436
Fix,GT,37.4282766,-122.072525,,0.0007972078,0.1,237.42426,1594247538436
Fix,GT,37.4282766,-122.072525,,0.000436289,0.1,237.42404,1594247539436
Fix,GT,37.4282766,-122.072525,,0.0011807169,0.1,237.42424,1594247540436
Fix,GT,37.4282766,-122.072525,,0.0014142136,0.1,237.42432,1594247541436
Fix,GT,37.4282766,-122.072525,,0.0012334968,0.1,237.42438,1594247542436
Fix,GT,37.4282766,-122.072525,,0.0010000002,0.1,237.42462,1594247543436
Fix,GT,37.4282766,-122.072525,,0.0011807168,0.1,237.42453,1594247544436
Fix,GT,37.4282766,-122.072525,,0.0012334967,0.1,237.42459,1594247545436
Fix,GT,37.4282766,-122.072525,,0.0011807168,0.1,237.42465,1594247546436
Fix,GT,37.4282766,-122.072525,,0.0007972077,0.1,237.42442,1594247547436
Fix,GT,37.4282766,-122.072525,,0.00061700586,0.1,237.42448,1594247548436
Fix,GT,37.4282766,-122.072525,,0.00079720764,0.1,237.42459,1594247549436
Fix,GT,37.4282766,-122.072525,,0.0,0.1,237.42441,1594247550436
Fix,GT,37.4282766,-122.072525,,0.000617006,0.1,237.42427,1594247551436
Fix,GT,37.4282766,-122.072525,,0.0014142136,0.1,237.42465,1594247552436
Fix,GT,37.4282766,-122.072525,,0.0012334967,0.1,237.42493,1594247553436
Fix,GT,37.4282766,-122.072525,,0.001,0.1,237.42511,1594247554436
Fix,GT,37.4282766,-122.072525,,0.001,0.1,237.4252,1594247555436
Fix,GT,37.4282766,-122.072525,,0.0005637109,0.1,237.42523,1594247556436
Fix,GT,37.4282766,-122.072525,,0.0,0.1,237.42532,1594247557436
Fix,GT,37.4282766,-122.072525,,0.00043628912,0.1,237.42535,1594247558436
Fix,GT,37.4282766,-122.072525,,0.001,0.1,237.42465,1594247559436
Fix,GT,37.4282766,-122.072525,,0.00056371087,0.1,237.42432,1594247560436
Fix,GT,37.4282766,-122.072525,,0.0,0.1,237.42438,1594247561436
Fix,GT,37.4282766,-122.072525,,0.0,0.1,237.42435,1594247562436
Fix,GT,37.4282766,-122.072525,,0.000617006,0.1,237.4244,1594247563436
Fix,GT,37.4282766,-122.072525,,0.0007972076,0.1,237.42441,1594247564436
Fix,GT,37.4282766,-122.072525,,0.0,0.1,237.42445,1594247565436
Fix,GT,37.4282766,-122.072525,,0.0,0.1,237.42444,1594247566436
Fix,GT,37.4282766,-122.072525,,0.00061700604,0.1,237.42477,1594247567436
Fix,GT,37.4282766,-122.072525,,0.00079720747,0.1,237.42485,1594247568436
Fix,GT,37.4282766,-122.072525,,0.0,0.1,237.42496,1594247569436
Fix,GT,37.4282766,-122.072525,,0.00043628918,0.1,237.425,1594247570436
Fix,GT,37.4282766,-122.072525,,0.001,0.1,237.42493,1594247571436
Fix,GT,37.4282766,-122.072525,,0.001,0.1,237.42497,1594247572436
Fix,GT,37.4282766,-122.072525,,0.001,0.1,237.42493,1594247573436
Fix,GT,37.4282766,-122.072525,,0.001,0.1,237.4249,1594247574436
Fix,GT,37.4282766,-122.072525,,0.001,0.1,237.42487,1594247575436
Fix,GT,37.4282766,-122.072525,,0.0011807169,0.1,237.42476,1594247576436
Fix,GT,37.4282766,-122.072525,,0.00079720747,0.1,237.4249,1594247577436
Fix,GT,37.4282766,-122.072525,,0.0,0.1,237.42487,1594247578436
Fix,GT,37.4282766,-122.072525,,0.0,0.1,237.4252,1594247579436
Fix,GT,37.4282766,-122.072525,,0.0,0.1,237.42578,1594247580436
Fix,GT,37.4282766,-122.072525,,0.0004362892,0.1,237.42606,1594247581436
Fix,GT,37.4282766,-122.072525,,0.001,0.1,237.42587,1594247582436
Fix,GT,37.4282766,-122.072525,,0.001,0.1,237.42535,1594247583436
Fix,GT,37.4282766,-122.072525,,0.0005637108,0.1,237.42523,1594247584436
Fix,GT,37.4282766,-122.072525,,0.0004362892,0.1,237.4252,1594247585436
Fix,GT,37.4282766,-122.072525,,0.0005637108,0.1,237.42511,1594247586436
Fix,GT,37.4282766,-122.072525,,0.00043628924,0.1,237.42542,1594247587436
Fix,GT,37.4282766,-122.072525,,0.0005637108,0.1,237.42564,1594247588436
Fix,GT,37.4282766,-122.072525,,0.00043628924,0.1,237.4253,1594247589436
Fix,GT,37.4282766,-122.072525,,0.001,0.1,237.42502,1594247590436
Fix,GT,37.4282766,-122.072525,,0.0015392832,0.1,237.42517,1594247591436
Fix,GT,37.4282766,-122.072525,,0.0018775018,0.1,237.4256,1594247592436
Fix,GT,37.4282766,-122.072525,,0.0012334967,0.1,237.42554,1594247593436
Fix,GT,37.4282766,-122.072525,,0.0005637108,0.1,237.42514,1594247594436
Fix,GT,37.4282766,-122.072525,,0.00061700615,0.1,237.42532,1594247595436
Fix,GT,37.4282766,-122.072525,,0.0012334967,0.1,237.42525,1594247596436
Fix,GT,37.4282766,-122.072525,,0.0011807169,0.1,237.42526,1594247597436
Fix,GT,37.4282766,-122.072525,,0.0007972074,0.1,237.42545,1594247598436
Fix,GT,37.4282766,-122.072525,,0.0,0.1,237.42535,1594247599436
Fix,GT,37.4282766,-122.072525,,0.00043628927,0.1,237.42531,1594247600436
Fix,GT,37.4282766,-122.072525,,0.00056371075,0.1,237.42526,1594247601436
Fix,GT,37.4282766,-122.072525,,0.00043628927,0.1,237.42513,1594247602436
Fix,GT,37.4282766,-122.072525,,0.00056371075,0.1,237.4249,1594247603436
Fix,GT,37.4282766,-122.072525,,0.0,0.1,237.42479,1594247604436
Fix,GT,37.4282766,-122.072525,,0.0,0.1,237.42474,1594247605436
Fix,GT,37.4282766,-122.072525,,0.0004362893,0.1,237.42484,1594247606436
Fix,GT,37.4282766,-122.072525,,0.0009999999,0.1,237.42479,1594247607436
Fix,GT,37.4282766,-122.072525,,0.0009999999,0.1,237.42471,1594247608436
Fix,GT,37.4282766,-122.072525,,0.0011807169,0.1,237.42468,1594247609436
Fix,GT,37.4282766,-122.072525,,0.0014142136,0.1,237.42462,1594247610436
Fix,GT,37.4282766,-122.072525,,0.0014142136,0.1,237.42482,1594247611436
Fix,GT,37.4282766,-122.072525,,0.0014142136,0.1,237.4249,1594247612436
Fix,GT,37.4282766,-122.072525,,0.0014142136,0.1,237.42499,1594247613436
Fix,GT,37.4282766,-122.072525,,0.0012334966,0.1,237.4252,1594247614436
Fix,GT,37.4282766,-122.072525,,0.0009999999,0.1,237.42523,1594247615436
Fix,GT,37.4282766,-122.072525,,0.001,0.1,237.42517,1594247616436
Fix,GT,37.4282766,-122.072525,,0.001,0.1,237.42511,1594247617436
Fix,GT,37.4282766,-122.072525,,0.001,0.1,237.42545,1594247618436
Fix,GT,37.4282766,-122.072525,,0.001,0.1,237.4255,1594247619436
Fix,GT,37.4282766,-122.072525,,0.001,0.1,237.42535,1594247620436
Fix,GT,37.4282766,-122.072525,,0.0005637107,0.1,237.42538,1594247621436
Fix,GT,37.4282766,-122.072525,,0.0,0.1,237.42532,1594247622436
Fix,GT,37.4282766,-122.072525,,0.0,0.1,237.42532,1594247623436
Fix,GT,37.4282766,-122.072525,,0.00043628932,0.1,237.42538,1594247624436
Fix,GT,37.4282766,-122.072525,,0.001,0.1,237.42569,1594247625436
Fix,GT,37.4282766,-122.072525,,0.001,0.1,237.42624,1594247626436
Fix,GT,37.4282766,-122.072525,,0.0005637107,0.1,237.4263,1594247627436
Fix,GT,37.4282766,-122.072525,,0.00043628935,0.1,237.42618,1594247628436
Fix,GT,37.4282766,-122.072525,,0.001,0.1,237.42636,1594247629436
Fix,GT,37.4282766,-122.072525,,0.001,0.1,237.42609,1594247630436
Fix,GT,37.4282766,-122.072525,,0.001180717,0.1,237.42587,1594247631436
Fix,GT,37.4282766,-122.072525,,0.00177278,0.1,237.42612,1594247632436
Fix,GT,37.4282766,-122.072525,,0.0026401635,0.1,237.42606,1594247633436
Fix,GT,37.4282766,-122.072525,,0.0031622779,0.1,237.42587,1594247634436
Fix,GT,37.4282766,-122.072525,,0.0027581821,0.1,237.42566,1594247635436
Fix,GT,37.4282766,-122.072525,,0.002494508,0.1,237.42572,1594247636436
Fix,GT,37.4282766,-122.072525,,0.0025699872,0.1,237.42604,1594247637436
Fix,GT,37.4282766,-122.072525,,0.0018775016,0.1,237.42636,1594247638436
Fix,GT,37.4282766,-122.072525,,0.00203122,0.1,237.42642,1594247639436
Fix,GT,37.4282766,-122.072525,,0.0037758613,0.1,237.42618,1594247640436
Fix,GT,37.4282766,-122.072525,,0.007696416,0.1,237.42567,1594247641436
Fix,GT,37.4282767,-122.0725251,,0.013296727,0.1,237.4262,1594247642436
Fix,GT,37.4282767,-122.0725253,,0.018209428,0.1,237.42685,1594247643436
Fix,GT,37.4282767,-122.0725255,,0.025376309,0.1,237.42542,1594247644436
Fix,GT,37.4282767,-122.0725259,,0.05157545,0.1,237.41766,1594247645436
Fix,GT,37.4282759,-122.0725278,,0.3503895,0.1,237.13852,1594247646436
Fix,GT,37.4282725,-122.072534,,0.9706048,0.1,236.2567,1594247647436
Fix,GT,37.4282664,-122.0725464,,1.5871333,0.1,236.82419,1594247648436
Fix,GT,37.4282613,-122.0725669,,2.1892467,0.1,246.76993,1594247649436
Fix,GT,37.4282646,-122.0725959,,2.978572,0.1,269.43176,1594247650436
Fix,GT,37.4282803,-122.0726307,,4.221122,0.1,294.13928,1594247651436
Fix,GT,37.4283067,-122.0726767,,5.881994,0.1,304.7867,1594247652436
Fix,GT,37.4283371,-122.0727429,,7.5327854,0.1,298.25696,1594247653436
Fix,GT,37.4283616,-122.0728299,,8.758378,0.1,287.25644,1594247654436
Fix,GT,37.4283757,-122.0729324,,9.665161,0.1,277.4229,1594247655436
Fix,GT,37.42838,-122.0730455,,10.370972,0.1,271.35794,1594247656436
Fix,GT,37.4283785,-122.073167,,11.135468,0.1,268.84955,1594247657436
Fix,GT,37.4283754,-122.073297,,11.90645,0.1,268.5575,1594247658436
Fix,GT,37.4283732,-122.0734348,,12.477085,0.1,269.34283,1594247659436
Fix,GT,37.4283733,-122.073578,,12.910353,0.1,270.38007,1594247660436
Fix,GT,37.428375,-122.0737271,,13.492294,0.1,271.03082,1594247661436
Fix,GT,37.4283762,-122.0738821,,13.908297,0.1,270.57138,1594247662436
Fix,GT,37.4283766,-122.0740395,,13.901807,0.1,270.33374,1594247663436
Fix,GT,37.4283769,-122.0741957,,13.767284,0.1,270.14532,1594247664436
Fix,GT,37.4283764,-122.0743508,,13.661505,0.1,269.832,1594247665436
Fix,GT,37.4283755,-122.0745045,,13.536818,0.1,269.6564,1594247666436
Fix,GT,37.4283744,-122.0746568,,13.448799,0.1,269.79355,1594247667436
Fix,GT,37.4283744,-122.0748087,,13.474133,0.1,270.38992,1594247668436
Fix,GT,37.4283755,-122.0749614,,13.533526,0.1,270.74554,1594247669436
Fix,GT,37.4283765,-122.0751145,,13.531299,0.1,270.4698,1594247670436
Fix,GT,37.4283767,-122.0752672,,13.54534,0.1,270.12915,1594247671436
Fix,GT,37.4283764,-122.0754216,,13.833076,0.1,269.99054,1594247672436
Fix,GT,37.4283759,-122.0755803,,14.20933,0.1,269.84085,1594247673436
Fix,GT,37.4283753,-122.0757415,,14.307585,0.1,269.91193,1594247674436
Fix,GT,37.4283748,-122.0759025,,14.187132,0.1,270.0063,1594247675436
Fix,GT,37.4283746,-122.0760621,,14.061949,0.1,269.97992,1594247676436
Fix,GT,37.4283732,-122.0762203,,13.939238,0.1,268.85767,1594247677436
Fix,GT,37.4283668,-122.0763765,,13.77014,0.1,265.59143,1594247678436
Fix,GT,37.4283513,-122.0765294,,13.540491,0.1,260.95218,1594247679436
Fix,GT,37.4283259,-122.0766778,,13.346964,0.1,256.3274,1594247680436
Fix,GT,37.428293,-122.0768225,,13.314491,0.1,253.0755,1594247681436
Fix,GT,37.4282559,-122.0769663,,13.42606,0.1,251.72223,1594247682436
Fix,GT,37.4282177,-122.0771106,,13.491829,0.1,252.05768,1594247683436
Fix,GT,37.4281827,-122.0772564,,13.432015,0.1,254.65637,1594247684436
Fix,GT,37.4281554,-122.0774019,,12.97966,0.1,258.31024,1594247685436
Fix,GT,37.4281359,-122.0775413,,11.964172,0.1,261.17438,1594247686436
Fix,GT,37.4281231,-122.0776672,,10.456789,0.1,264.02405,1594247687436
Fix,GT,37.4281174,-122.0777741,,8.467393,0.1,267.5479,1594247688436
Fix,GT,37.4281163,-122.0778574,,6.2145624,0.1,269.47046,1594247689436
Fix,GT,37.4281159,-122.077916,,4.379348,0.1,269.44153,1594247690436
Fix,GT,37.4281151,-122.07796,,3.7940617,0.1,268.42432,1594247691436
Fix,GT,37.4281112,-122.0780047,,4.1950283,0.1,263.0912,1594247692436
Fix,GT,37.4280979,-122.0780525,,4.8269224,0.1,249.93001,1594247693436
Fix,GT,37.4280709,-122.0780999,,5.600952,0.1,233.29877,1594247694436
Fix,GT,37.428028,-122.078142,,6.5919633,0.1,215.53911,1594247695436
Fix,GT,37.4279689,-122.0781689,,7.485717,0.1,196.80655,1594247696436
Fix,GT,37.4278979,-122.0781772,,8.394515,0.1,183.478,1594247697436
Fix,GT,37.4278166,-122.0781758,,9.6174555,0.1,179.07916,1594247698436
Fix,GT,37.4277242,-122.0781714,,10.874011,0.1,177.9198,1594247699436
Fix,GT,37.427622,-122.0781643,,11.786741,0.1,176.646,1594247700436
Fix,GT,37.4275128,-122.0781535,,12.4895935,0.1,175.31873,1594247701436
Fix,GT,37.427398,-122.0781395,,13.109582,0.1,174.38452,1594247702436
Fix,GT,37.4272777,-122.0781248,,13.718333,0.1,175.01831,1594247703436
Fix,GT,37.4271518,-122.0781136,,14.291252,0.1,176.71094,1594247704436
Fix,GT,37.4270206,-122.0781053,,14.844032,0.1,177.3667,1594247705436
Fix,GT,37.426884,-122.0780968,,15.550809,0.1,177.2168,1594247706436
Fix,GT,37.4267404,-122.0780874,,16.382717,0.1,177.23108,1594247707436
Fix,GT,37.4265896,-122.0780792,,17.064398,0.1,177.94598,1594247708436
Fix,GT,37.4264337,-122.0780731,,17.49564,0.1,178.68048,1594247709436
Fix,GT,37.4262753,-122.0780713,,17.618763,0.1,180.26416,1594247710436
Fix,GT,37.4261171,-122.0780759,,17.460493,0.1,182.37576,1594247711436
Fix,GT,37.4259607,-122.078086,,17.378622,0.1,183.49728,1594247712436
Fix,GT,37.4258038,-122.078099,,17.554384,0.1,184.15607,1594247713436
Fix,GT,37.4256452,-122.0781132,,17.737709,0.1,184.16228,1594247714436
Fix,GT,37.4254853,-122.078126,,17.829746,0.1,183.34901,1594247715436
Fix,GT,37.4253247,-122.0781358,,17.850588,0.1,182.3184,1594247716436
Fix,GT,37.425164,-122.0781419,,17.8734,0.1,181.3593,1594247717436
Fix,GT,37.4250028,-122.0781442,,17.951065,0.1,180.19221,1594247718436
Fix,GT,37.4248405,-122.0781422,,18.050816,0.1,179.07727,1594247719436
Fix,GT,37.4246777,-122.0781368,,18.07101,0.1,178.25684,1594247720436
Fix,GT,37.4245151,-122.0781292,,17.986725,0.1,177.55493,1594247721436
Fix,GT,37.4243538,-122.078119,,17.839586,0.1,176.80347,1594247722436
Fix,GT,37.424194,-122.0781068,,17.674164,0.1,176.25378,1594247723436
Fix,GT,37.424036,-122.078093,,17.467564,0.1,175.90625,1594247724436
Fix,GT,37.4238828,-122.0780797,,16.45225,0.1,176.2002,1594247725436
Fix,GT,37.4237446,-122.0780702,,14.05807,0.1,177.27112,1594247726436
Fix,GT,37.4236311,-122.0780661,,11.138681,0.1,179.35394,1594247727436
Fix,GT,37.4235438,-122.0780727,,8.594122,0.1,187.36081,1594247728436
Fix,GT,37.4234795,-122.0781027,,7.311393,0.1,207.1922,1594247729436
Fix,GT,37.4234374,-122.078161,,7.23404,0.1,234.43527,1594247730436
Fix,GT,37.4234187,-122.0782389,,7.727674,0.1,257.2257,1594247731436
Fix,GT,37.4234131,-122.0783301,,8.599924,0.1,267.02145,1594247732436
Fix,GT,37.4234097,-122.078432,,9.465786,0.1,267.9563,1594247733436
Fix,GT,37.4234049,-122.0785438,,10.341752,0.1,266.8379,1594247734436
Fix,GT,37.4233975,-122.0786648,,11.139587,0.1,265.61765,1594247735436
Fix,GT,37.4233896,-122.0787943,,11.874783,0.1,266.27005,1594247736436
Fix,GT,37.4233838,-122.0789324,,12.632767,0.1,267.62817,1594247737436
Fix,GT,37.4233792,-122.0790791,,13.3603325,0.1,267.95355,1594247738436
Fix,GT,37.4233744,-122.0792334,,13.954672,0.1,267.78824,1594247739436
Fix,GT,37.4233685,-122.0793933,,14.348724,0.1,267.23303,1594247740436
Fix,GT,37.4233607,-122.0795561,,14.485851,0.1,266.37762,1594247741436
Fix,GT,37.4233508,-122.0797173,,14.027023,0.1,265.35202,1594247742436
Fix,GT,37.4233394,-122.0798686,,12.761704,0.1,264.45212,1594247743436
Fix,GT,37.4233281,-122.080002,,10.945352,0.1,263.89435,1594247744436
Fix,GT,37.4233176,-122.0801175,,9.680439,0.1,263.56104,1594247745436
Fix,GT,37.4233076,-122.0802248,,9.617619,0.1,263.4338,1594247746436
Fix,GT,37.4232971,-122.0803365,,10.440828,0.1,263.39734,1594247747436
Fix,GT,37.423285,-122.0804613,,11.810585,0.1,263.22037,1594247748436
Fix,GT,37.4232715,-122.0806006,,12.976864,0.1,263.12775,1594247749436
Fix,GT,37.423257,-122.0807517,,13.929369,0.1,263.27527,1594247750436
Fix,GT,37.4232417,-122.0809126,,14.731149,0.1,263.4271,1594247751436
Fix,GT,37.4232262,-122.0810815,,15.340361,0.1,263.706,1594247752436
Fix,GT,37.4232109,-122.0812564,,15.788137,0.1,263.93152,1594247753436
Fix,GT,37.4231955,-122.0814354,,16.069592,0.1,264.07648,1594247754436
Fix,GT,37.4231803,-122.0816172,,16.284008,0.1,264.2544,1594247755436
Fix,GT,37.4231651,-122.0818013,,16.482876,0.1,264.14258,1594247756436
Fix,GT,37.4231491,-122.0819879,,16.750988,0.1,264.03003,1594247757436
Fix,GT,37.4231331,-122.0821781,,17.12357,0.1,264.21793,1594247758436
Fix,GT,37.4231175,-122.0823729,,17.533201,0.1,264.66806,1594247759436
Fix,GT,37.4231036,-122.0825725,,17.92051,0.1,265.6177,1594247760436
Fix,GT,37.4230929,-122.0827765,,18.274471,0.1,267.00214,1594247761436
Fix,GT,37.4230859,-122.0829846,,18.584923,0.1,268.4029,1594247762436
Fix,GT,37.4230829,-122.0831961,,18.86967,0.1,269.6605,1594247763436
Fix,GT,37.4230832,-122.0834108,,19.141943,0.1,270.77057,1594247764436
Fix,GT,37.4230871,-122.0836283,,19.373055,0.1,271.96954,1594247765436
Fix,GT,37.4230946,-122.0838479,,19.53806,0.1,273.18738,1594247766436
Fix,GT,37.4231062,-122.0840684,,19.55067,0.1,274.55142,1594247767436
Fix,GT,37.4231222,-122.0842881,,19.500633,0.1,276.09186,1594247768436
Fix,GT,37.4231427,-122.0845073,,19.646088,0.1,277.39243,1594247769436
Fix,GT,37.4231669,-122.0847285,,19.856482,0.1,278.4235,1594247770436
Fix,GT,37.423194,-122.0849508,,19.937508,0.1,279.1758,1594247771436
Fix,GT,37.4232241,-122.0851728,,19.950964,0.1,280.23764,1594247772436
Fix,GT,37.423258,-122.0853943,,19.987339,0.1,281.61517,1594247773436
Fix,GT,37.4232953,-122.085615,,19.958921,0.1,282.5058,1594247774436
Fix,GT,37.4233346,-122.0858355,,20.086622,0.1,283.02875,1594247775436
Fix,GT,37.423376,-122.0860586,,20.432785,0.1,283.48816,1594247776436
Fix,GT,37.4234198,-122.0862844,,20.689644,0.1,284.0628,1594247777436
Fix,GT,37.4234658,-122.0865123,,20.97804,0.1,284.59045,1594247778436
Fix,GT,37.423514,-122.0867433,,21.331009,0.1,285.00043,1594247779436
Fix,GT,37.4235634,-122.0869781,,21.624321,0.1,284.8231,1594247780436
Fix,GT,37.4236119,-122.087216,,21.822311,0.1,284.25296,1594247781436
Fix,GT,37.4236594,-122.0874557,,21.899712,0.1,283.9613,1594247782436
Fix,GT,37.4237061,-122.087696,,21.868118,0.1,283.8285,1594247783436
Fix,GT,37.423753,-122.0879351,,21.72362,0.1,284.28848,1594247784436
Fix,GT,37.4238018,-122.0881714,,21.474154,0.1,284.8431,1594247785436
Fix,GT,37.4238502,-122.0884041,,21.05127,0.1,284.60046,1594247786436
Fix,GT,37.423896,-122.0886311,,20.309757,0.1,283.95947,1594247787436
Fix,GT,37.4239362,-122.0888481,,19.023998,0.1,282.22565,1594247788436
Fix,GT,37.4239662,-122.0890494,,17.190094,0.1,278.8467,1594247789436
Fix,GT,37.4239821,-122.0892316,,15.318455,0.1,273.96048,1594247790436
Fix,GT,37.4239841,-122.0893949,,13.645309,0.1,268.83145,1594247791436
Fix,GT,37.4239764,-122.0895394,,12.016512,0.1,264.58194,1594247792436
Fix,GT,37.4239621,-122.0896641,,10.242809,0.1,260.18127,1594247793436
Fix,GT,37.4239437,-122.0897653,,8.048203,0.1,255.95569,1594247794436
Fix,GT,37.4239269,-122.0898383,,5.422007,0.1,253.35443,1594247795436
Fix,GT,37.4239142,-122.0898872,,3.819522,0.1,252.20895,1594247796436
Fix,GT,37.4239027,-122.0899297,,4.3704615,0.1,251.67409,1594247797436
Fix,GT,37.4238873,-122.0899854,,6.2626457,0.1,251.01709,1594247798436
Fix,GT,37.4238648,-122.0900633,,8.332609,0.1,250.09967,1594247799436
Fix,GT,37.4238356,-122.09016,,9.971064,0.1,249.27594,1594247800436
Fix,GT,37.4238006,-122.0902723,,11.332356,0.1,248.64624,1594247801436
Fix,GT,37.4237605,-122.0903977,,12.487984,0.1,248.14107,1594247802436
Fix,GT,37.4237157,-122.0905328,,13.376144,0.1,247.10533,1594247803436
Fix,GT,37.4236641,-122.0906743,,14.140936,0.1,244.21283,1594247804436
Fix,GT,37.4236018,-122.0908167,,14.575413,0.1,239.30502,1594247805436
Fix,GT,37.4235282,-122.0909549,,14.824817,0.1,234.42276,1594247806436
Fix,GT,37.4234446,-122.0910872,,15.07679,0.1,229.7322,1594247807436
Fix,GT,37.4233504,-122.0912115,,15.283596,0.1,224.42809,1594247808436
Fix,GT,37.4232469,-122.091326,,15.330698,0.1,219.49611,1594247809436
Fix,GT,37.4231377,-122.0914302,,15.096777,0.1,216.11633,1594247810436
Fix,GT,37.4230285,-122.0915287,,14.744055,0.1,216.2823,1594247811436
Fix,GT,37.4229265,-122.0916311,,14.346002,0.1,221.43082,1594247812436
Fix,GT,37.4228389,-122.0917473,,14.197613,0.1,230.70732,1594247813436
Fix,GT,37.4227675,-122.0918814,,14.623454,0.1,239.707,1594247814436
Fix,GT,37.4227066,-122.0920326,,15.447922,0.1,245.06793,1594247815436
Fix,GT,37.4226483,-122.0921963,,16.300556,0.1,246.3682,1594247816436
Fix,GT,37.4225886,-122.0923687,,16.967422,0.1,246.73206,1594247817436
Fix,GT,37.4225276,-122.0925468,,17.238329,0.1,246.93555,1594247818436
Fix,GT,37.422467,-122.0927253,,17.048618,0.1,247.33951,1594247819436
Fix,GT,37.4224089,-122.0929024,,16.879261,0.1,248.26138,1594247820436
Fix,GT,37.4223562,-122.0930806,,16.803288,0.1,251.10199,1594247821436
Fix,GT,37.4223159,-122.0932614,,16.4886,0.1,257.35913,1594247822436
Fix,GT,37.422296,-122.0934431,,16.158276,0.1,266.12997,1594247823436
Fix,GT,37.4223027,-122.0936234,,16.10228,0.1,277.63412,1594247824436
Fix,GT,37.4223404,-122.0937996,,16.589954,0.1,290.23718,1594247825436
Fix,GT,37.4224085,-122.0939704,,17.523596,0.1,300.76935,1594247826436
Fix,GT,37.422501,-122.094139,,18.817444,0.1,306.91528,1594247827436
Fix,GT,37.4226099,-122.0943132,,20.415401,0.1,308.93777,1594247828436
Fix,GT,37.4227313,-122.0944983,,21.978134,0.1,310.08237,1594247829436
Fix,GT,37.4228632,-122.0946934,,23.281109,0.1,310.75473,1594247830436
Fix,GT,37.4230032,-122.0948971,,24.307793,0.1,311.08447,1594247831436
Fix,GT,37.4231499,-122.095108,,25.190788,0.1,311.39346,1594247832436
Fix,GT,37.4233017,-122.0953249,,25.872425,0.1,311.44574,1594247833436
Fix,GT,37.423457,-122.0955475,,26.520477,0.1,311.16278,1594247834436
Fix,GT,37.4236153,-122.0957771,,27.206978,0.1,310.7595,1594247835436
Fix,GT,37.4237763,-122.0960136,,27.84288,0.1,310.63412,1594247836436
Fix,GT,37.4239413,-122.0962543,,28.326809,0.1,311.10486,1594247837436
Fix,GT,37.4241111,-122.0964956,,28.593796,0.1,312.13373,1594247838436
Fix,GT,37.4242855,-122.096734,,28.685417,0.1,313.24307,1594247839436
Fix,GT,37.4244639,-122.0969688,,28.724524,0.1,314.19904,1594247840436
Fix,GT,37.424645,-122.0972003,,28.670052,0.1,314.9869,1594247841436
Fix,GT,37.424828,-122.097428,,28.576778,0.1,315.73154,1594247842436
Fix,GT,37.425013,-122.0976525,,28.579529,0.1,316.4129,1594247843436
Fix,GT,37.4252002,-122.0978745,,28.634796,0.1,317.08243,1594247844436
Fix,GT,37.4253898,-122.0980942,,28.67332,0.1,317.75296,1594247845436
Fix,GT,37.4255817,-122.0983114,,28.6796,0.1,318.41055,1594247846436
Fix,GT,37.4257753,-122.0985255,,28.629179,0.1,319.1103,1594247847436
Fix,GT,37.4259705,-122.098736,,28.47668,0.1,319.80017,1594247848436
Fix,GT,37.4261661,-122.0989421,,28.19429,0.1,320.3283,1594247849436
Fix,GT,37.4263607,-122.0991437,,27.844486,0.1,320.74356,1594247850436
Fix,GT,37.4265536,-122.0993417,,27.487354,0.1,320.86353,1594247851436
Fix,GT,37.4267438,-122.0995375,,27.15454,0.1,320.56143,1594247852436
Fix,GT,37.4269311,-122.0997328,,26.928898,0.1,320.22168,1594247853436
Fix,GT,37.4271166,-122.0999283,,26.859127,0.1,319.9658,1594247854436
Fix,GT,37.4273015,-122.1001244,,26.926605,0.1,319.88928,1594247855436
Fix,GT,37.4274868,-122.1003215,,27.013504,0.1,319.82043,1594247856436
Fix,GT,37.4276723,-122.1005195,,27.06868,0.1,319.67783,1594247857436
Fix,GT,37.4278585,-122.1007189,,27.283905,0.1,319.6269,1594247858436
Fix,GT,37.4280469,-122.1009192,,27.559486,0.1,320.0152,1594247859436
Fix,GT,37.4282376,-122.1011191,,27.602198,0.1,320.48166,1594247860436
Fix,GT,37.4284287,-122.1013173,,27.44135,0.1,320.69095,1594247861436
Fix,GT,37.4286191,-122.1015144,,27.380753,0.1,320.4112,1594247862436
Fix,GT,37.4288084,-122.1017132,,27.44789,0.1,320.0312,1594247863436
Fix,GT,37.4289977,-122.101914,,27.607891,0.1,319.9038,1594247864436
Fix,GT,37.4291884,-122.1021162,,27.81574,0.1,319.9508,1594247865436
Fix,GT,37.4293808,-122.1023193,,28.003862,0.1,320.13754,1594247866436
Fix,GT,37.4295745,-122.1025232,,28.142246,0.1,320.13397,1594247867436
Fix,GT,37.4297687,-122.1027283,,28.219501,0.1,320.0033,1594247868436
Fix,GT,37.4299633,-122.1029337,,28.240826,0.1,320.16956,1594247869436
Fix,GT,37.4301587,-122.1031385,,28.259298,0.1,320.3656,1594247870436
Fix,GT,37.4303543,-122.1033423,,28.2065,0.1,320.53955,1594247871436
Fix,GT,37.4305496,-122.1035451,,28.088394,0.1,320.55634,1594247872436
Fix,GT,37.430744,-122.1037476,,28.025322,0.1,320.24683,1594247873436
Fix,GT,37.4309372,-122.1039516,,28.064383,0.1,319.87918,1594247874436
Fix,GT,37.4311307,-122.1041568,,28.191105,0.1,319.95325,1594247875436
Fix,GT,37.4313255,-122.1043623,,28.32247,0.1,320.1787,1594247876436
Fix,GT,37.4315213,-122.1045685,,28.426655,0.1,320.10925,1594247877436
Fix,GT,37.4317175,-122.1047758,,28.513874,0.1,320.02652,1594247878436
Fix,GT,37.431914,-122.1049834,,28.502167,0.1,320.09628,1594247879436
Fix,GT,37.4321107,-122.1051903,,28.507914,0.1,320.2799,1594247880436
Fix,GT,37.4323087,-122.1053971,,28.694883,0.1,320.38458,1594247881436
Fix,GT,37.4325085,-122.105606,,29.115906,0.1,320.24673,1594247882436
Fix,GT,37.4327114,-122.1058194,,29.698635,0.1,320.08417,1594247883436
Fix,GT,37.432918,-122.1060374,,30.213917,0.1,320.0951,1594247884436
Fix,GT,37.4331277,-122.1062579,,30.51695,0.1,320.30188,1594247885436
Fix,GT,37.43334,-122.1064791,,30.69857,0.1,320.51147,1594247886436
Fix,GT,37.4335535,-122.1067004,,30.767746,0.1,320.52737,1594247887436
Fix,GT,37.4337667,-122.1069217,,30.642067,0.1,320.43958,1594247888436
Fix,GT,37.4339779,-122.1071416,,30.271067,0.1,320.43893,1594247889436
Fix,GT,37.4341861,-122.1073586,,29.787346,0.1,320.38385,1594247890436
Fix,GT,37.4343902,-122.1075724,,29.238523,0.1,320.1985,1594247891436
Fix,GT,37.4345899,-122.107783,,28.667221,0.1,320.08096,1594247892436
Fix,GT,37.4347857,-122.1079895,,28.138203,0.1,320.07907,1594247893436
Fix,GT,37.4349782,-122.1081924,,27.691326,0.1,320.11176,1594247894436
Fix,GT,37.4351678,-122.1083924,,27.312538,0.1,320.12344,1594247895436
Fix,GT,37.4353556,-122.10859,,27.182177,0.1,320.16562,1594247896436
Fix,GT,37.435544,-122.1087881,,27.423634,0.1,320.099,1594247897436
Fix,GT,37.4357346,-122.1089892,,27.86382,0.1,319.95703,1594247898436
Fix,GT,37.4359276,-122.1091939,,28.259674,0.1,319.93085,1594247899436
Fix,GT,37.4361233,-122.1094005,,28.479397,0.1,320.16455,1594247900436
Fix,GT,37.4363207,-122.1096071,,28.56698,0.1,320.44476,1594247901436
Fix,GT,37.4365191,-122.1098134,,28.645683,0.1,320.4629,1594247902436
Fix,GT,37.4367178,-122.110021,,28.82047,0.1,320.22665,1594247903436
Fix,GT,37.4369177,-122.1102318,,29.150055,0.1,319.97162,1594247904436
Fix,GT,37.4371197,-122.1104459,,29.586523,0.1,319.94067,1594247905436
Fix,GT,37.4373248,-122.1106632,,29.972242,0.1,319.9945,1594247906436
Fix,GT,37.4375325,-122.1108826,,30.274858,0.1,320.1254,1594247907436
Fix,GT,37.4377425,-122.111103,,30.52025,0.1,320.3261,1594247908436
Fix,GT,37.4379543,-122.1113241,,30.621422,0.1,320.39478,1594247909436
Fix,GT,37.4381664,-122.1115451,,30.55082,0.1,320.49213,1594247910436
Fix,GT,37.4383776,-122.1117645,,30.288086,0.1,320.5251,1594247911436
Fix,GT,37.4385863,-122.1119818,,29.930183,0.1,320.38168,1594247912436
Fix,GT,37.4387922,-122.1121978,,29.71531,0.1,320.12683,1594247913436
Fix,GT,37.4389971,-122.1124141,,29.77275,0.1,319.97977,1594247914436
Fix,GT,37.4392028,-122.1126318,,29.987106,0.1,320.0312,1594247915436
Fix,GT,37.4394103,-122.1128505,,30.176771,0.1,320.15414,1594247916436
Fix,GT,37.4396191,-122.1130698,,30.241802,0.1,320.20538,1594247917436
Fix,GT,37.4398277,-122.1132889,,30.142551,0.1,320.24652,1594247918436
Fix,GT,37.4400355,-122.1135069,,29.991852,0.1,320.22644,1594247919436
Fix,GT,37.4402425,-122.1137248,,29.99342,0.1,320.15628,1594247920436
Fix,GT,37.4404498,-122.1139431,,30.09808,0.1,320.2133,1594247921436
Fix,GT,37.4406584,-122.1141614,,30.218506,0.1,320.45697,1594247922436
Fix,GT,37.4408686,-122.1143797,,30.373528,0.1,320.5635,1594247923436
Fix,GT,37.4410799,-122.1145994,,30.545622,0.1,320.4016,1594247924436
Fix,GT,37.4412918,-122.1148211,,30.725224,0.1,320.29016,1594247925436
Fix,GT,37.4415048,-122.1150443,,30.882658,0.1,320.2625,1594247926436
Fix,GT,37.4417186,-122.1152681,,30.912106,0.1,320.2713,1594247927436
Fix,GT,37.441932,-122.1154919,,30.823345,0.1,320.22565,1594247928436
Fix,GT,37.4421446,-122.1157149,,30.70578,0.1,320.20703,1594247929436
Fix,GT,37.4423566,-122.1159372,,30.65105,0.1,320.20367,1594247930436
Fix,GT,37.442568,-122.1161597,,30.577587,0.1,320.04886,1594247931436
Fix,GT,37.442778,-122.1163822,,30.453417,0.1,319.9055,1594247932436
Fix,GT,37.442987,-122.1166041,,30.341162,0.1,319.88837,1594247933436
Fix,GT,37.4431953,-122.1168254,,30.282475,0.1,319.88928,1594247934436
Fix,GT,37.4434034,-122.1170465,,30.26815,0.1,319.92468,1594247935436
Fix,GT,37.4436119,-122.1172671,,30.250355,0.1,320.11658,1594247936436
Fix,GT,37.4438206,-122.1174865,,30.19277,0.1,320.2437,1594247937436
Fix,GT,37.4440292,-122.1177052,,30.162968,0.1,320.3345,1594247938436
Fix,GT,37.444238,-122.1179235,,30.181232,0.1,320.35498,1594247939436
Fix,GT,37.444447,-122.1181421,,30.224392,0.1,320.29965,1594247940436
Fix,GT,37.4446562,-122.1183613,,30.264896,0.1,320.30734,1594247941436
Fix,GT,37.4448661,-122.1185811,,30.448055,0.1,320.34357,1594247942436
Fix,GT,37.4450779,-122.118803,,30.817173,0.1,320.29095,1594247943436
Fix,GT,37.4452919,-122.1190277,,31.129272,0.1,320.22104,1594247944436
Fix,GT,37.4455076,-122.1192548,,31.365582,0.1,320.06357,1594247945436
Fix,GT,37.4457244,-122.1194842,,31.568478,0.1,320.0022,1594247946436
Fix,GT,37.4459428,-122.1197148,,31.80224,0.1,320.15454,1594247947436
Fix,GT,37.4461634,-122.119947,,32.142883,0.1,320.17477,1594247948436
Fix,GT,37.4463864,-122.1201816,,32.444027,0.1,320.33163,1594247949436
Fix,GT,37.4466122,-122.1204166,,32.70163,0.1,320.67682,1594247950436
Fix,GT,37.4468402,-122.1206521,,32.795788,0.1,320.68866,1594247951436
Fix,GT,37.4470675,-122.1208876,,32.550087,0.1,320.49365,1594247952436
Fix,GT,37.4472916,-122.1211216,,32.21634,0.1,320.28592,1594247953436
Fix,GT,37.4475137,-122.1213548,,32.12744,0.1,320.10022,1594247954436
Fix,GT,37.4477356,-122.1215889,,32.253242,0.1,320.12006,1594247955436
Fix,GT,37.4479589,-122.1218231,,32.373177,0.1,320.3885,1594247956436
Fix,GT,37.4481836,-122.1220572,,32.465076,0.1,320.385,1594247957436
Fix,GT,37.4484083,-122.1222922,,32.492043,0.1,320.28397,1594247958436
Fix,GT,37.448633,-122.1225278,,32.503098,0.1,320.28815,1594247959436
Fix,GT,37.448858,-122.1227635,,32.518562,0.1,320.3006,1594247960436
Fix,GT,37.4490828,-122.1229979,,32.350456,0.1,320.4864,1594247961436
Fix,GT,37.4493062,-122.1232295,,31.95551,0.1,320.55188,1594247962436
Fix,GT,37.4495266,-122.1234587,,31.627983,0.1,320.24234,1594247963436
Fix,GT,37.4497441,-122.1236873,,31.346249,0.1,319.9696,1594247964436
Fix,GT,37.4499583,-122.1239148,,30.940239,0.1,319.88687,1594247965436
Fix,GT,37.4501694,-122.1241396,,30.510948,0.1,319.91623,1594247966436
Fix,GT,37.4503777,-122.1243606,,30.070904,0.1,319.92505,1594247967436
Fix,GT,37.4505824,-122.1245796,,29.636015,0.1,319.42764,1594247968436
Fix,GT,37.4507821,-122.1247985,,29.235958,0.1,318.5412,1594247969436
Fix,GT,37.4509763,-122.1250185,,28.853003,0.1,317.5704,1594247970436
Fix,GT,37.4511647,-122.12524,,28.455336,0.1,316.44495,1594247971436
Fix,GT,37.451347,-122.1254627,,28.036469,0.1,315.41763,1594247972436
Fix,GT,37.4515234,-122.1256863,,27.629902,0.1,314.37463,1594247973436
Fix,GT,37.4516943,-122.1259103,,27.254625,0.1,313.41858,1594247974436
Fix,GT,37.4518604,-122.1261357,,27.061958,0.1,312.4328,1594247975436
Fix,GT,37.4520233,-122.1263658,,27.41567,0.1,311.27762,1594247976436
Fix,GT,37.4521859,-122.1266048,,28.14227,0.1,309.9514,1594247977436
Fix,GT,37.4523478,-122.1268532,,28.503176,0.1,308.82773,1594247978436
Fix,GT,37.4525068,-122.127106,,28.430527,0.1,308.0373,1594247979436
Fix,GT,37.4526624,-122.1273602,,28.27442,0.1,307.34146,1594247980436
Fix,GT,37.4528143,-122.127615,,28.058731,0.1,306.65445,1594247981436
Fix,GT,37.4529629,-122.1278696,,27.777689,0.1,306.20584,1594247982436
Fix,GT,37.4531091,-122.128122,,27.453644,0.1,306.25513,1594247983436
Fix,GT,37.4532545,-122.1283711,,27.162354,0.1,306.4253,1594247984436
Fix,GT,37.4533986,-122.1286169,,26.846409,0.1,306.55316,1594247985436
Fix,GT,37.4535413,-122.1288596,,26.53159,0.1,306.6031,1594247986436
Fix,GT,37.4536829,-122.1291003,,26.445835,0.1,306.5168,1594247987436
Fix,GT,37.4538238,-122.1293413,,26.461489,0.1,306.3619,1594247988436
Fix,GT,37.4539642,-122.1295817,,26.234371,0.1,306.42767,1594247989436
Fix,GT,37.4541035,-122.1298191,,25.931583,0.1,306.53644,1594247990436
Fix,GT,37.4542413,-122.1300537,,25.656666,0.1,306.5354,1594247991436
Fix,GT,37.454378,-122.1302868,,25.647362,0.1,306.45392,1594247992436
Fix,GT,37.4545158,-122.130522,,26.005243,0.1,306.411,1594247993436
Fix,GT,37.4546552,-122.1307602,,26.21714,0.1,306.3905,1594247994436
Fix,GT,37.4547947,-122.1309983,,26.031757,0.1,306.42767,1594247995436
Fix,GT,37.4549327,-122.1312342,,25.7282,0.1,306.44513,1594247996436
Fix,GT,37.4550692,-122.1314682,,25.618069,0.1,306.3281,1594247997436
Fix,GT,37.4552054,-122.1317022,,25.671944,0.1,306.22885,1594247998436
Fix,GT,37.4553413,-122.131936,,25.483097,0.1,306.2758,1594247999436
Fix,GT,37.4554763,-122.1321673,,25.219818,0.1,306.40198,1594248000436
Fix,GT,37.4556106,-122.1323965,,25.172913,0.1,306.4936,1594248001436
Fix,GT,37.4557455,-122.132626,,25.278296,0.1,306.5783,1594248002436
Fix,GT,37.4558808,-122.1328553,,25.143267,0.1,306.72925,1594248003436
Fix,GT,37.4560157,-122.1330827,,25.072216,0.1,306.8251,1594248004436
Fix,GT,37.4561508,-122.1333108,,25.262897,0.1,306.684,1594248005436
Fix,GT,37.4562865,-122.1335423,,25.57946,0.1,306.10626,1594248006436
Fix,GT,37.4564216,-122.1337803,,26.188705,0.1,305.02356,1594248007436
Fix,GT,37.4565573,-122.1340283,,27.06342,0.1,304.31207,1594248008436
Fix,GT,37.4566969,-122.1342848,,27.884512,0.1,304.7529,1594248009436
Fix,GT,37.4568434,-122.1345458,,28.629856,0.1,305.7841,1594248010436
Fix,GT,37.4569971,-122.1348111,,29.412937,0.1,306.35986,1594248011436
Fix,GT,37.4571561,-122.1350817,,30.03682,0.1,306.68976,1594248012436
Fix,GT,37.4573189,-122.1353557,,30.431383,0.1,306.95944,1594248013436
Fix,GT,37.4574836,-122.1356322,,30.616314,0.1,306.8369,1594248014436
Fix,GT,37.457648,-122.1359108,,30.700554,0.1,306.47717,1594248015436
Fix,GT,37.4578118,-122.1361911,,30.7708,0.1,306.358,1594248016436
Fix,GT,37.4579759,-122.1364719,,30.851353,0.1,306.41507,1594248017436
Fix,GT,37.4581408,-122.1367533,,30.967962,0.1,306.54352,1594248018436
Fix,GT,37.4583065,-122.1370351,,30.958149,0.1,306.63214,1594248019436
Fix,GT,37.4584723,-122.1373156,,30.818829,0.1,306.73352,1594248020436
Fix,GT,37.4586375,-122.1375941,,30.612415,0.1,306.80554,1594248021436
Fix,GT,37.4588014,-122.1378709,,30.391819,0.1,306.7061,1594248022436
Fix,GT,37.4589637,-122.1381459,,30.178968,0.1,306.64563,1594248023436
Fix,GT,37.4591251,-122.1384191,,29.969267,0.1,306.70187,1594248024436
Fix,GT,37.4592854,-122.1386903,,29.789291,0.1,306.6424,1594248025436
Fix,GT,37.4594447,-122.1389603,,29.645027,0.1,306.55066,1594248026436
Fix,GT,37.4596029,-122.1392292,,29.493973,0.1,306.64392,1594248027436
Fix,GT,37.4597608,-122.1394961,,29.330547,0.1,306.81808,1594248028436
Fix,GT,37.4599185,-122.139761,,29.193974,0.1,306.82373,1594248029436
Fix,GT,37.4600751,-122.1400261,,29.21651,0.1,306.4079,1594248030436
Fix,GT,37.4602304,-122.140294,,29.423561,0.1,305.97354,1594248031436
Fix,GT,37.4603865,-122.1405645,,29.659653,0.1,306.05814,1594248032436
Fix,GT,37.4605444,-122.1408367,,29.933308,0.1,306.2699,1594248033436
Fix,GT,37.4607043,-122.141111,,30.1832,0.1,306.32574,1594248034436
Fix,GT,37.4608651,-122.1413869,,30.272408,0.1,306.21848,1594248035436
Fix,GT,37.4610258,-122.1416637,,30.348553,0.1,306.20978,1594248036436
Fix,GT,37.4611875,-122.1419414,,30.494518,0.1,306.37097,1594248037436
Fix,GT,37.4613502,-122.1422198,,30.568024,0.1,306.4257,1594248038436
Fix,GT,37.461513,-122.1424978,,30.467846,0.1,306.4871,1594248039436
Fix,GT,37.4616755,-122.1427744,,30.324593,0.1,306.6354,1594248040436
Fix,GT,37.4618381,-122.1430496,,30.303715,0.1,306.6008,1594248041436
Fix,GT,37.462,-122.1433256,,30.34444,0.1,306.37222,1594248042436
Fix,GT,37.4621613,-122.1436029,,30.39201,0.1,306.11682,1594248043436
Fix,GT,37.4623222,-122.1438814,,30.467924,0.1,306.04297,1594248044436
Fix,GT,37.4624838,-122.1441605,,30.57806,0.1,306.25183,1594248045436
Fix,GT,37.462647,-122.1444397,,30.661715,0.1,306.47443,1594248046436
Fix,GT,37.462811,-122.1447188,,30.712029,0.1,306.53906,1594248047436
Fix,GT,37.4629751,-122.1449986,,30.749458,0.1,306.358,1594248048436
Fix,GT,37.4631388,-122.1452792,,30.783463,0.1,306.2557,1594248049436
Fix,GT,37.4633027,-122.1455606,,30.893799,0.1,306.26337,1594248050436
Fix,GT,37.4634676,-122.1458435,,31.136677,0.1,306.31598,1594248051436
Fix,GT,37.4636343,-122.1461282,,31.347706,0.1,306.5458,1594248052436
Fix,GT,37.4638026,-122.1464134,,31.40585,0.1,306.71884,1594248053436
Fix,GT,37.463971,-122.1466985,,31.416794,0.1,306.59256,1594248054436
Fix,GT,37.4641393,-122.146985,,31.551004,0.1,306.5674,1594248055436
Fix,GT,37.4643086,-122.1472726,,31.676983,0.1,306.6342,1594248056436
Fix,GT,37.4644783,-122.1475607,,31.695301,0.1,306.51773,1594248057436
Fix,GT,37.4646477,-122.1478498,,31.778008,0.1,306.4114,1594248058436
Fix,GT,37.4648174,-122.14814,,31.930305,0.1,306.4474,1594248059436
Fix,GT,37.464988,-122.1484316,,32.08267,0.1,306.46164,1594248060436
Fix,GT,37.4651594,-122.1487246,,32.209244,0.1,306.43378,1594248061436
Fix,GT,37.4653314,-122.1490186,,32.301136,0.1,306.40555,1594248062436
Fix,GT,37.4655041,-122.1493134,,32.454514,0.1,306.49893,1594248063436
Fix,GT,37.4656782,-122.1496097,,32.68439,0.1,306.5964,1594248064436
Fix,GT,37.4658537,-122.1499074,,32.80377,0.1,306.65997,1594248065436
Fix,GT,37.4660297,-122.1502057,,32.852566,0.1,306.66678,1594248066436
Fix,GT,37.4662059,-122.1505044,,32.890137,0.1,306.5711,1594248067436
Fix,GT,37.4663819,-122.1508038,,32.9314,0.1,306.50946,1594248068436
Fix,GT,37.4665578,-122.151104,,32.976585,0.1,306.4323,1594248069436
Fix,GT,37.4667335,-122.1514048,,33.031895,0.1,306.33276,1594248070436
Fix,GT,37.4669093,-122.1517065,,33.085358,0.1,306.33734,1594248071436
Fix,GT,37.4670859,-122.152008,,33.103767,0.1,306.54068,1594248072436
Fix,GT,37.4672633,-122.1523087,,33.065742,0.1,306.75366,1594248073436
Fix,GT,37.4674408,-122.1526081,,32.947468,0.1,306.82007,1594248074436
Fix,GT,37.4676177,-122.1529058,,32.718716,0.1,306.91177,1594248075436
Fix,GT,37.4677935,-122.1532007,,32.439774,0.1,306.91525,1594248076436
Fix,GT,37.4679679,-122.1534937,,32.28334,0.1,306.82758,1594248077436
Fix,GT,37.4681414,-122.1537864,,32.248337,0.1,306.72562,1594248078436
Fix,GT,37.4683147,-122.1540795,,32.35095,0.1,306.61182,1594248079436
Fix,GT,37.4684881,-122.1543746,,32.486366,0.1,306.41605,1594248080436
Fix,GT,37.468661,-122.1546706,,32.395905,0.1,306.33905,1594248081436
Fix,GT,37.4688331,-122.1549646,,32.1489,0.1,306.50204,1594248082436
Fix,GT,37.4690042,-122.1552554,,31.786964,0.1,306.6204,1594248083436
Fix,GT,37.4691734,-122.1555425,,31.373844,0.1,306.51648,1594248084436
Fix,GT,37.4693395,-122.1558264,,30.944725,0.1,306.3039,1594248085436
Fix,GT,37.4695027,-122.1561068,,30.481525,0.1,306.2113,1594248086436
Fix,GT,37.4696632,-122.1563831,,30.02174,0.1,306.24063,1594248087436
Fix,GT,37.4698216,-122.1566556,,29.68284,0.1,306.24637,1594248088436
Fix,GT,37.4699788,-122.1569255,,29.45877,0.1,306.32492,1594248089436
Fix,GT,37.4701352,-122.1571932,,29.226074,0.1,306.44473,1594248090436
Fix,GT,37.4702908,-122.1574582,,29.062424,0.1,306.56113,1594248091436
Fix,GT,37.4704466,-122.1577229,,29.230583,0.1,306.56302,1594248092436
Fix,GT,37.4706038,-122.1579906,,29.602453,0.1,306.44913,1594248093436
Fix,GT,37.4707627,-122.1582622,,30.01099,0.1,306.3579,1594248094436
Fix,GT,37.4709237,-122.158538,,30.473148,0.1,306.33646,1594248095436
Fix,GT,37.471087,-122.1588176,,30.828882,0.1,306.42065,1594248096436
Fix,GT,37.471252,-122.159099,,31.0046,0.1,306.52588,1594248097436
Fix,GT,37.4714183,-122.1593823,,31.232203,0.1,306.44766,1594248098436
Fix,GT,37.4715853,-122.1596683,,31.521389,0.1,306.2826,1594248099436
Fix,GT,37.4717535,-122.1599575,,31.8297,0.1,306.2276,1594248100436
Fix,GT,37.4719233,-122.1602493,,32.094177,0.1,306.29236,1594248101436
Fix,GT,37.4720947,-122.1605429,,32.254227,0.1,306.40405,1594248102436
Fix,GT,37.472267,-122.1608365,,32.212715,0.1,306.60706,1594248103436
Fix,GT,37.4724392,-122.1611277,,31.907879,0.1,306.78918,1594248104436
Fix,GT,37.4726101,-122.1614155,,31.61998,0.1,306.84143,1594248105436
Fix,GT,37.47278,-122.1617015,,31.522327,0.1,306.76532,1594248106436
Fix,GT,37.4729501,-122.1619873,,31.56931,0.1,307.28812,1594248107436
Fix,GT,37.473124,-122.1622709,,31.743633,0.1,308.35947,1594248108436
Fix,GT,37.4733025,-122.1625536,,32.091957,0.1,308.48212,1594248109436
Fix,GT,37.4734819,-122.1628412,,32.519997,0.1,307.7428,1594248110436
Fix,GT,37.4736601,-122.1631357,,32.888992,0.1,306.9256,1594248111436
Fix,GT,37.4738378,-122.1634351,,33.150734,0.1,306.64133,1594248112436
Fix,GT,37.474016,-122.1637373,,33.31926,0.1,306.42166,1594248113436
Fix,GT,37.4741937,-122.1640418,,33.446236,0.1,306.25653,1594248114436
Fix,GT,37.4743712,-122.1643477,,33.50533,0.1,306.22012,1594248115436
Fix,GT,37.4745495,-122.1646538,,33.53875,0.1,306.35135,1594248116436
Fix,GT,37.4747286,-122.1649594,,33.55863,0.1,306.46436,1594248117436
Fix,GT,37.4749077,-122.1652651,,33.55921,0.1,306.40265,1594248118436
Fix,GT,37.4750863,-122.1655711,,33.550358,0.1,306.2707,1594248119436
Fix,GT,37.4752647,-122.1658771,,33.4824,0.1,306.3903,1594248120436
Fix,GT,37.4754429,-122.1661811,,33.25679,0.1,306.51178,1594248121436
Fix,GT,37.4756196,-122.1664824,,32.89869,0.1,306.41586,1594248122436
Fix,GT,37.4757937,-122.1667805,,32.49845,0.1,306.3665,1594248123436
Fix,GT,37.475966,-122.1670751,,32.153923,0.1,306.4548,1594248124436
Fix,GT,37.476137,-122.1673666,,31.877298,0.1,306.54724,1594248125436
Fix,GT,37.4763067,-122.167655,,31.539347,0.1,306.67432,1594248126436
Fix,GT,37.4764754,-122.1679395,,31.181705,0.1,306.88043,1594248127436
Fix,GT,37.4766432,-122.1682197,,30.847988,0.1,307.41156,1594248128436
Fix,GT,37.4768113,-122.1684944,,30.311241,0.1,307.9585,1594248129436
Fix,GT,37.4769754,-122.16876,,29.030071,0.1,307.6122,1594248130436
Fix,GT,37.4771285,-122.1690143,,27.458569,0.1,306.80865,1594248131436
Fix,GT,37.4772723,-122.1692594,,26.501617,0.1,306.25702,1594248132436
Fix,GT,37.4774104,-122.1695006,,26.20279,0.1,305.2974,1594248133436
Fix,GT,37.4775451,-122.1697464,,26.652876,0.1,304.019,1594248134436
Fix,GT,37.4776801,-122.1700009,,27.478594,0.1,303.83356,1594248135436
Fix,GT,37.4778214,-122.1702622,,28.398926,0.1,304.82602,1594248136436
Fix,GT,37.4779708,-122.1705286,,29.220512,0.1,305.6979,1594248137436
Fix,GT,37.478126,-122.1707989,,29.646301,0.1,306.1308,1594248138436
Fix,GT,37.4782837,-122.1710706,,29.850231,0.1,306.27155,1594248139436
Fix,GT,37.478443,-122.1713445,,30.142923,0.1,306.32843,1594248140436
Fix,GT,37.4786054,-122.17162,,30.45617,0.1,307.04886,1594248141436
Fix,GT,37.4787726,-122.1718945,,30.680183,0.1,308.0887,1594248142436
Fix,GT,37.4789443,-122.1721687,,31.009567,0.1,308.482,1594248143436
Fix,GT,37.4791184,-122.172446,,31.418037,0.1,308.12003,1594248144436
Fix,GT,37.4792922,-122.172729,,31.756863,0.1,307.27747,1594248145436
Fix,GT,37.4794644,-122.1730177,,32.015007,0.1,306.56396,1594248146436
Fix,GT,37.4796354,-122.1733102,,32.138165,0.1,306.23438,1594248147436
Fix,GT,37.4798058,-122.1736043,,32.155025,0.1,306.1262,1594248148436
Fix,GT,37.479976,-122.1738986,,32.17293,0.1,306.15247,1594248149436
Fix,GT,37.4801467,-122.1741928,,32.221996,0.1,306.23846,1594248150436
Fix,GT,37.4803181,-122.1744878,,32.379177,0.1,306.20462,1594248151436
Fix,GT,37.4804902,-122.1747849,,32.588978,0.1,306.1509,1594248152436
Fix,GT,37.4806633,-122.1750835,,32.726875,0.1,306.31955,1594248153436
Fix,GT,37.4808375,-122.1753828,,32.805645,0.1,306.43732,1594248154436
Fix,GT,37.4810122,-122.1756821,,32.79999,0.1,306.4351,1594248155436
Fix,GT,37.4811869,-122.1759807,,32.71541,0.1,306.4181,1594248156436
Fix,GT,37.4813605,-122.1762782,,32.503265,0.1,306.321,1594248157436
Fix,GT,37.4815321,-122.1765737,,32.135654,0.1,306.13678,1594248158436
Fix,GT,37.4817004,-122.1768673,,31.913128,0.1,305.67783,1594248159436
Fix,GT,37.481867,-122.1771626,,32.139755,0.1,305.21692,1594248160436
Fix,GT,37.4820333,-122.177463,,32.532402,0.1,304.6122,1594248161436
Fix,GT,37.482198,-122.1777689,,32.75689,0.1,303.7016,1594248162436
Fix,GT,37.4823594,-122.1780798,,32.851646,0.1,302.69943,1594248163436
Fix,GT,37.4825167,-122.1783948,,32.923347,0.1,301.68958,1594248164436
Fix,GT,37.48267,-122.178714,,33.002438,0.1,300.6271,1594248165436
Fix,GT,37.4828186,-122.1790376,,33.047077,0.1,299.52344,1594248166436
Fix,GT,37.4829623,-122.1793645,,32.97946,0.1,298.44174,1594248167436
Fix,GT,37.4831007,-122.1796935,,32.82819,0.1,297.41052,1594248168436
Fix,GT,37.483234,-122.1800237,,32.644783,0.1,296.6005,1594248169436
Fix,GT,37.483363,-122.1803537,,32.373383,0.1,295.9724,1594248170436
Fix,GT,37.4834885,-122.1806819,,31.975075,0.1,295.4398,1594248171436
Fix,GT,37.4836091,-122.1810067,,31.376156,0.1,294.84528,1594248172436
Fix,GT,37.4837246,-122.1813264,,30.687065,0.1,294.1299,1594248173436
Fix,GT,37.4838344,-122.1816412,,30.098469,0.1,293.24866,1594248174436
Fix,GT,37.483938,-122.1819526,,29.635368,0.1,292.3333,1594248175436
Fix,GT,37.4840369,-122.1822615,,29.259548,0.1,291.72296,1594248176436
Fix,GT,37.4841321,-122.1825678,,28.89618,0.1,291.1853,1594248177436
Fix,GT,37.4842239,-122.1828725,,28.780537,0.1,290.53235,1594248178436
Fix,GT,37.4843132,-122.1831794,,29.039179,0.1,289.85397,1594248179436
Fix,GT,37.4844005,-122.1834905,,29.25956,0.1,289.2444,1594248180436
Fix,GT,37.4844858,-122.183804,,29.322926,0.1,288.79193,1594248181436
Fix,GT,37.4845693,-122.1841188,,29.343891,0.1,288.32864,1594248182436
Fix,GT,37.4846505,-122.1844338,,29.192436,0.1,287.88568,1594248183436
Fix,GT,37.4847296,-122.1847473,,28.983456,0.1,287.53583,1594248184436
Fix,GT,37.4848066,-122.1850602,,28.979979,0.1,287.0737,1594248185436
Fix,GT,37.4848817,-122.1853747,,29.049818,0.1,286.50635,1594248186436
Fix,GT,37.4849542,-122.1856901,,28.97741,0.1,285.9692,1594248187436
Fix,GT,37.4850236,-122.1860048,,28.759838,0.1,285.40997,1594248188436
Fix,GT,37.4850901,-122.1863177,,28.53695,0.1,284.84894,1594248189436
Fix,GT,37.485154,-122.1866294,,28.371607,0.1,284.2923,1594248190436
Fix,GT,37.485215,-122.1869399,,28.239992,0.1,283.69147,1594248191436
Fix,GT,37.4852721,-122.1872516,,28.359768,0.1,282.31152,1594248192436
Fix,GT,37.4853229,-122.1875692,,28.966599,0.1,280.64468,1594248193436
Fix,GT,37.4853693,-122.1878971,,29.974522,0.1,279.96808,1594248194436
Fix,GT,37.4854164,-122.1882368,,31.006353,0.1,280.1459,1594248195436
Fix,GT,37.485466,-122.1885867,,31.834042,0.1,280.262,1594248196436
Fix,GT,37.4855161,-122.1889445,,32.387108,0.1,279.98062,1594248197436
