MessageType,Provider,LatitudeDegrees,LongitudeDegrees,AltitudeMeters,SpeedMps,AccuracyMeters,BearingDegrees,UnixTimeMillis
Fix,GT,37.3711996,-122.047714,9.215,3.7610533e-08,0.1,279.6924,1629837164999
Fix,GT,37.3711996,-122.047714,9.215,0.001,0.1,279.69232,1629837165999
Fix,GT,37.3711996,-122.047714,9.215,0.0019999738,0.1,279.69226,1629837166999
Fix,GT,37.3711996,-122.047714,9.215,0.0014141934,0.1,279.69247,1629837167999
Fix,GT,37.3711996,-122.047714,9.215,5.209446e-08,0.1,279.6923,1629837168999
Fix,GT,37.3711996,-122.047714,9.215,0.0014142136,0.1,279.69257,1629837169999
Fix,GT,37.3711996,-122.047714,9.215,0.001414189,0.1,279.69263,1629837170999
Fix,GT,37.3711996,-122.047714,9.215,0.0,0.1,279.69214,1629837171999
Fix,GT,37.3711996,-122.047714,9.215,9.3987474e-08,0.1,279.6922,1629837172999
Fix,GT,37.3711996,-122.047714,9.215,0.0014141144,0.1,279.69296,1629837173999
Fix,GT,37.3711996,-122.047714,9.215,0.0010000737,0.1,279.6926,1629837174999
Fix,GT,37.3711996,-122.047714,9.215,0.001,0.1,279.69263,1629837175999
Fix,GT,37.3711996,-122.047714,9.215,1.14386545e-07,0.1,279.69266,1629837176999
Fix,GT,37.3711996,-122.047714,9.215,8.4459785e-08,0.1,279.6924,1629837177999
Fix,GT,37.3711996,-122.047714,9.215,0.001,0.1,279.6923,1629837178999
Fix,GT,37.3711996,-122.047714,9.215,0.0,0.1,279.69244,1629837179999
Fix,GT,37.3711996,-122.047714,9.215,0.001,0.1,279.6925,1629837180999
Fix,GT,37.3711996,-122.047714,9.215,0.0009999012,0.1,279.69263,1629837181999
Fix,GT,37.3711996,-122.047714,9.215,1.0246039e-07,0.1,279.69244,1629837182999
Fix,GT,37.3711996,-122.047714,9.215,0.001,0.1,279.69266,1629837183999
Fix,GT,37.3711996,-122.047714,9.215,0.0,0.1,279.69257,1629837184999
Fix,GT,37.3711996,-122.047714,9.215,2.2661688e-07,0.1,279.69238,1629837185999
Fix,GT,37.3711996,-122.047714,9.215,0.001,0.1,279.69217,1629837186999
Fix,GT,37.3711996,-122.047714,9.215,0.0014140432,0.1,279.69223,1629837187999
Fix,GT,37.3711996,-122.047714,9.215,0.0010000515,0.1,279.69238,1629837188999
Fix,GT,37.3711996,-122.047714,9.215,0.0014142136,0.1,279.6926,1629837189999
Fix,GT,37.3711996,-122.047714,9.215,0.001,0.1,279.69254,1629837190999
Fix,GT,37.3711996,-122.047714,9.215,0.0,0.1,279.6924,1629837191999
Fix,GT,37.3711996,-122.047714,9.215,1.3840199e-07,0.1,279.6922,1629837192999
Fix,GT,37.3711996,-122.047714,9.215,0.000999858,0.1,279.69183,1629837193999
Fix,GT,37.3711996,-122.047714,9.215,0.0022359483,0.1,279.6923,1629837194999
Fix,GT,37.3711996,-122.047714,9.215,0.001,0.1,279.69214,1629837195999
Fix,GT,37.3711996,-122.047714,9.215,1.5282632e-07,0.1,279.69208,1629837196999
Fix,GT,37.3711996,-122.047714,9.215,0.0,0.1,279.6922,1629837197999
Fix,GT,37.3711996,-122.047714,9.215,0.0014141473,0.1,279.69217,1629837198999
Fix,GT,37.3711996,-122.047714,9.215,1.6361476e-07,0.1,279.69202,1629837199999
Fix,GT,37.3711996,-122.047714,9.215,1.6719103e-07,0.1,279.69202,1629837200999
Fix,GT,37.3711996,-122.047714,9.215,0.0,0.1,279.69202,1629837201999
Fix,GT,37.3711996,-122.047714,9.215,0.0,0.1,279.69214,1629837202999
Fix,GT,37.3711996,-122.047714,9.215,0.0,0.1,279.69214,1629837203999
Fix,GT,37.3711996,-122.047714,9.215,0.0,0.1,279.6922,1629837204999
Fix,GT,37.3711996,-122.047714,9.215,0.0014139517,0.1,279.69214,1629837205999
Fix,GT,37.3711996,-122.047714,9.215,0.0,0.1,279.69193,1629837206999
Fix,GT,37.3711996,-122.047714,9.215,0.0,0.1,279.69193,1629837207999
Fix,GT,37.3711996,-122.047714,9.215,0.0,0.1,279.6919,1629837208999
Fix,GT,37.3711996,-122.047714,9.215,0.001,0.1,-80.308044,1629837209999
Fix,GT,37.3711996,-122.047714,9.215,0.001,0.1,279.69214,1629837210999
Fix,GT,37.3711996,-122.047714,9.215,2.0670892e-07,0.1,279.69214,1629837211999
Fix,GT,37.3711996,-122.047714,9.215,2.1034481e-07,0.1,279.69208,1629837212999
Fix,GT,37.3711996,-122.047714,9.215,0.001,0.1,279.69196,1629837213999
Fix,GT,37.3711996,-122.047714,9.215,2.1749736e-07,0.1,279.69208,1629837214999
Fix,GT,37.3711996,-122.047714,9.215,0.0,0.1,279.6922,1629837215999
Fix,GT,37.3711996,-122.047714,9.215,0.0,0.1,279.69232,1629837216999
Fix,GT,37.3711996,-122.047714,9.215,0.0014141189,0.1,279.69214,1629837217999
Fix,GT,37.3711996,-122.047714,9.215,0.001,0.1,279.69202,1629837218999
Fix,GT,37.3711996,-122.047714,9.215,2.3549796e-07,0.1,279.6922,1629837219999
Fix,GT,37.3711996,-122.047714,9.215,0.0,0.1,279.69214,1629837220999
Fix,GT,37.3711996,-122.047714,9.215,0.001,0.1,279.69202,1629837221999
Fix,GT,37.3711996,-122.047714,9.215,0.0014142136,0.1,279.69183,1629837222999
Fix,GT,37.3711996,-122.047714,9.215,0.001,0.1,279.69177,1629837223999
Fix,GT,37.3711996,-122.047714,9.215,0.001000105,0.1,279.6919,1629837224999
Fix,GT,37.3711996,-122.047714,9.215,0.001,0.1,279.69174,1629837225999
Fix,GT,37.3711996,-122.047714,9.215,0.001,0.1,279.69186,1629837226999
Fix,GT,37.3711996,-122.047714,9.215,0.0014141041,0.1,279.6918,1629837227999
Fix,GT,37.3711996,-122.047714,9.215,0.0009997322,0.1,279.692,1629837228999
Fix,GT,37.3711996,-122.047714,9.215,0.001,0.1,279.692,1629837229999
Fix,GT,37.3711996,-122.047714,9.215,0.0,0.1,279.6918,1629837230999
Fix,GT,37.3711996,-122.047714,9.215,0.0,0.1,279.69165,1629837231999
Fix,GT,37.3711996,-122.047714,9.215,0.0,0.1,279.69193,1629837232999
Fix,GT,37.3711996,-122.047714,9.215,0.0,0.1,279.69196,1629837233999
Fix,GT,37.3711996,-122.047714,9.215,0.0009997106,0.1,279.69186,1629837234999
Fix,GT,37.3711996,-122.047714,9.215,0.0,0.1,279.69165,1629837235999
Fix,GT,37.3711996,-122.047714,9.215,0.0,0.1,279.69183,1629837236999
Fix,GT,37.3711996,-122.047714,9.215,0.001,0.1,279.69196,1629837237999
Fix,GT,37.3711996,-122.047714,9.215,0.0014140877,0.1,279.6918,1629837238999
Fix,GT,37.3711996,-122.047714,9.215,3.0738116e-07,0.1,279.69174,1629837239999
Fix,GT,37.3711996,-122.047714,9.215,0.0,0.1,279.69183,1629837240999
Fix,GT,37.3711996,-122.047714,9.215,0.0014142136,0.1,279.692,1629837241999
Fix,GT,37.3711996,-122.047714,9.215,0.0022358065,0.1,279.692,1629837242999
Fix,GT,37.3711996,-122.047714,9.215,0.0014140803,0.1,279.6919,1629837243999
Fix,GT,37.3711996,-122.047714,9.215,0.0009996748,0.1,279.6927,1629837244999
Fix,GT,37.3711996,-122.047714,9.215,0.0031617028,0.1,279.69238,1629837245999
Fix,GT,37.3711996,-122.047714,9.216,0.001,0.1,279.69113,1629837246999
Fix,GT,37.3711996,-122.047714,9.216000335991382,0.04355378,0.1,279.69446,1629837247999
Fix,GT,37.3712003,-122.0477193,9.207000679254532,0.89073795,0.1,279.6735,1629837248999
Fix,GT,37.3712024,-122.0477329,9.191001029610634,1.4888588,0.1,280.0338,1629837249999
Fix,GT,37.3712081,-122.0477489,9.168000693559646,1.601229,0.1,288.78754,1629837250999
Fix,GT,37.3712201,-122.0477594,9.147001401662829,1.5879825,0.1,309.0158,1629837251999
Fix,GT,37.3712369,-122.0477642,9.108001415967944,2.1969023,0.1,332.89038,1629837252999
Fix,GT,37.3712604,-122.0477614,9.055002861022947,3.0156505,0.1,357.29767,1629837253999
Fix,GT,37.3712893,-122.0477496,8.998001083612442,3.8103333,0.1,15.241638,1629837254999
Fix,GT,37.3713248,-122.0477324,8.991999635219575,4.618109,0.1,19.970978,1629837255999
Fix,GT,37.3713656,-122.0477145,8.963999263167382,4.834602,0.1,19.233154,1629837256999
Fix,GT,37.3714063,-122.0476974,8.95300111579895,4.675121,0.1,18.10431,1629837257999
Fix,GT,37.371444,-122.0476838,8.96799812245369,3.7769456,0.1,16.031311,1629837258999
Fix,GT,37.3714712,-122.0476747,8.985999620854855,2.5586846,0.1,15.245728,1629837259999
Fix,GT,37.3714904,-122.047668,9.009998469114302,1.9473543,0.1,15.11853,1629837260999
Fix,GT,37.3715043,-122.0476634,9.047999227404594,1.1695113,0.1,15.035797,1629837261999
Fix,GT,37.3715095,-122.0476616,9.055999610066412,0.009891589,0.1,15.025421,1629837262999
Fix,GT,37.3715095,-122.0476616,9.052,0.0014140506,0.1,15.021179,1629837263999
Fix,GT,37.3715095,-122.0476616,9.052,0.0041227243,0.1,15.018494,1629837264999
Fix,GT,37.3715095,-122.0476616,9.053,0.0022359735,0.1,15.01889,1629837265999
Fix,GT,37.3715095,-122.0476616,9.054,0.0028287414,0.1,15.019226,1629837266999
Fix,GT,37.3715119,-122.0476607,9.047,0.7970218,0.1,15.076721,1629837267999
Fix,GT,37.3715269,-122.0476549,9.079998354196547,2.487445,0.1,16.412933,1629837268999
Fix,GT,37.3715495,-122.0476394,8.73200539535284,3.372015,0.1,27.69516,1629837269999
Fix,GT,37.3715713,-122.0476068,9.025995394706726,4.3279924,0.1,49.491364,1629837270999
Fix,GT,37.3715857,-122.0475519,9.102998311042786,6.2011437,0.1,74.02283,1629837271999
Fix,GT,37.3715853,-122.0474714,9.12,8.316219,0.1,93.34488,1629837272999
Fix,GT,37.3715708,-122.0473677,9.103999141097068,10.32629,0.1,101.40881,1629837273999
Fix,GT,37.3715474,-122.0472454,9.05500043296814,12.102487,0.1,103.89508,1629837274999
Fix,GT,37.3715181,-122.0471037,9.008003055810928,13.737596,0.1,104.628235,1629837275999
Fix,GT,37.3714857,-122.0469481,8.936003521442412,14.6137905,0.1,104.4404,1629837276999
Fix,GT,37.3714525,-122.0467875,8.864003105878831,14.677998,0.1,104.50958,1629837277999
Fix,GT,37.3714188,-122.0466257,8.783001341998578,15.067878,0.1,104.5155,1629837278999
Fix,GT,37.3713839,-122.0464576,8.69200586181879,15.736765,0.1,104.64209,1629837279999
Fix,GT,37.3713467,-122.0462816,8.569003635883332,16.50255,0.1,104.808716,1629837280999
Fix,GT,37.3713078,-122.0460975,8.482005954802036,17.213135,0.1,104.68088,1629837281999
Fix,GT,37.3712678,-122.045908,8.419002770185472,17.461086,0.1,104.7168,1629837282999
Fix,GT,37.3712275,-122.0457167,8.354003722190857,17.59579,0.1,104.79776,1629837283999
Fix,GT,37.3711865,-122.0455242,8.349998124361038,17.63315,0.1,104.9075,1629837284999
Fix,GT,37.3711449,-122.0453327,8.375000472426414,17.56734,0.1,105.28064,1629837285999
Fix,GT,37.3711025,-122.0451416,8.389,17.589071,0.1,105.448975,1629837286999
Fix,GT,37.3710595,-122.0449502,8.403000479578973,17.622856,0.1,105.67499,1629837287999
Fix,GT,37.3710161,-122.0447584,8.360004348933696,17.69247,0.1,105.78464,1629837288999
Fix,GT,37.3709723,-122.0445658,8.30500243395567,17.798367,0.1,105.77475,1629837289999
Fix,GT,37.3709282,-122.0443724,8.220008337259294,17.844099,0.1,106.23065,1629837290999
Fix,GT,37.3708821,-122.0441799,8.107004446029661,17.72612,0.1,106.9068,1629837291999
Fix,GT,37.3708353,-122.04399,7.961008458852768,17.508675,0.1,107.177216,1629837292999
Fix,GT,37.3707883,-122.0438017,7.823004008769989,17.458904,0.1,107.3703,1629837293999
Fix,GT,37.3707408,-122.0436138,7.703006561517716,17.472157,0.1,107.60391,1629837294999
Fix,GT,37.3706927,-122.0434257,7.574006099700928,17.51192,0.1,107.782745,1629837295999
Fix,GT,37.3706442,-122.0432375,7.470006655275822,17.515848,0.1,107.86691,1629837296999
Fix,GT,37.3705959,-122.0430494,7.349003093123436,17.512949,0.1,107.6821,1629837297999
Fix,GT,37.3705477,-122.0428612,7.272003633260727,17.507614,0.1,107.65454,1629837298999
Fix,GT,37.3704997,-122.0426729,7.1780047035217285,17.516727,0.1,107.53665,1629837299999
Fix,GT,37.3704521,-122.0424844,7.062006314992905,17.513353,0.1,107.43115,1629837300999
Fix,GT,37.3704046,-122.042296,6.967004768431186,17.47861,0.1,107.54266,1629837301999
Fix,GT,37.3703567,-122.0421082,6.874005334615707,17.45711,0.1,107.71954,1629837302999
Fix,GT,37.370308,-122.0419209,6.795004296302795,17.455261,0.1,108.15457,1629837303999
Fix,GT,37.3702582,-122.0417341,6.722006487369537,17.44094,0.1,108.46121,1629837304999
Fix,GT,37.3702076,-122.0415479,6.6680010882616045,17.411274,0.1,108.87201,1629837305999
Fix,GT,37.3701561,-122.0413626,6.624998904466629,17.347992,0.1,109.28418,1629837306999
Fix,GT,37.3701042,-122.0411779,6.581001654028893,17.305445,0.1,109.00049,1629837307999
Fix,GT,37.3700534,-122.0409931,6.509001664936543,17.284527,0.1,108.70041,1629837308999
Fix,GT,37.3700037,-122.0408084,6.471001675665379,17.245829,0.1,108.42578,1629837309999
Fix,GT,37.3699552,-122.0406237,6.459,17.215998,0.1,107.94934,1629837310999
Fix,GT,37.369908,-122.0404393,6.423002828538418,17.048807,0.1,107.55713,1629837311999
Fix,GT,37.3698618,-122.0402574,6.395003984987736,16.778414,0.1,107.63815,1629837312999
Fix,GT,37.369816,-122.0400784,6.352002291440964,16.513802,0.1,107.70755,1629837313999
Fix,GT,37.3697711,-122.0399023,6.310001729488373,16.252298,0.1,107.68356,1629837314999
Fix,GT,37.3697265,-122.0397291,6.238005220651627,16.002138,0.1,107.85748,1629837315999
Fix,GT,37.3696822,-122.0395587,6.172002334356308,15.740548,0.1,107.926605,1629837316999
Fix,GT,37.3696389,-122.0393916,6.180992366075516,15.333254,0.1,107.799866,1629837317999
Fix,GT,37.3695971,-122.0392285,6.188000590860844,15.020012,0.1,107.59308,1629837318999
Fix,GT,37.3695566,-122.0390685,6.182998811244964,14.725667,0.1,107.46503,1629837319999
Fix,GT,37.3695168,-122.038912,6.157001196026802,14.24181,0.1,107.5932,1629837320999
Fix,GT,37.3694792,-122.0387658,6.13499759364128,12.84043,0.1,107.76437,1629837321999
Fix,GT,37.369446,-122.0386375,6.098998789548873,11.085679,0.1,107.92709,1629837322999
Fix,GT,37.3694171,-122.038527,6.077,9.567371,0.1,108.08566,1629837323999
Fix,GT,37.3693924,-122.0384322,6.076999387681484,8.081112,0.1,107.94769,1629837324999
Fix,GT,37.3693717,-122.0383521,6.061001231789589,6.872247,0.1,107.81052,1629837325999
Fix,GT,37.3693549,-122.0382863,6.049000619530679,5.300503,0.1,107.722015,1629837326999
Fix,GT,37.3693427,-122.0382387,6.044999376893043,3.6153622,0.1,107.72043,1629837327999
Fix,GT,37.3693341,-122.0382051,6.03000125348568,2.9844036,0.1,107.72049,1629837328999
Fix,GT,37.3693254,-122.0381713,6.017000630259514,3.4332628,0.1,107.65466,1629837329999
Fix,GT,37.3693152,-122.0381312,6.017,3.8782392,0.1,107.56439,1629837330999
Fix,GT,37.3693048,-122.03809,6.007000637412071,3.7638514,0.1,107.494965,1629837331999
Fix,GT,37.3692949,-122.0380503,6.001999358952045,3.537873,0.1,107.39682,1629837332999
Fix,GT,37.3692863,-122.0380162,6.009000644624234,2.7914352,0.1,107.469086,1629837333999
Fix,GT,37.3692797,-122.0379905,6.011,1.906138,0.1,107.69342,1629837334999
Fix,GT,37.3692761,-122.0379768,6.011,0.632875,0.1,107.7962,1629837335999
Fix,GT,37.3692756,-122.0379749,6.002999344587326,0.009225586,0.1,107.81348,1629837336999
Fix,GT,37.3692756,-122.0379749,6.002,0.0022359125,0.1,107.81201,1629837337999
Fix,GT,37.3692756,-122.0379749,6.001,0.001413939,0.1,107.81146,1629837338999
Fix,GT,37.3692756,-122.0379749,6.001,0.001,0.1,107.81186,1629837339999
Fix,GT,37.3692756,-122.0379749,6.001,0.0014139361,0.1,107.81189,1629837340999
Fix,GT,37.3692756,-122.0379749,6.001,0.001000279,0.1,107.81192,1629837341999
Fix,GT,37.3692756,-122.0379749,6.001,0.0022355116,0.1,107.8118,1629837342999
Fix,GT,37.3692756,-122.0379749,6.001,0.0014142136,0.1,107.81201,1629837343999
Fix,GT,37.3692755,-122.0379747,5.996001368165017,0.17451125,0.1,107.81406,1629837344999
Fix,GT,37.3692737,-122.0379674,5.989,1.3521421,0.1,107.88455,1629837345999
Fix,GT,37.3692675,-122.0379437,5.97800069129467,3.1382082,0.1,107.99744,1629837346999
Fix,GT,37.369256,-122.0379001,5.973,4.9511256,0.1,108.05078,1629837347999
Fix,GT,37.3692395,-122.0378363,5.967,6.9938445,0.1,107.83011,1629837348999
Fix,GT,37.3692177,-122.0377505,5.954000702023506,8.918409,0.1,107.717316,1629837349999
Fix,GT,37.369191,-122.0376465,5.939,10.41179,0.1,107.674286,1629837350999
Fix,GT,37.3691604,-122.0375253,5.921002127528191,12.033084,0.1,107.33508,1629837351999
Fix,GT,37.369128,-122.0373922,5.919001425623893,12.425515,0.1,106.67059,1629837352999
Fix,GT,37.3690967,-122.0372569,5.89,12.601041,0.1,105.71179,1629837353999
Fix,GT,37.3690663,-122.0371169,5.872002880096435,13.101851,0.1,104.78308,1629837354999
Fix,GT,37.3690365,-122.0369706,5.832005788326264,13.630708,0.1,103.87421,1629837355999
Fix,GT,37.3690075,-122.036818,5.75900436270237,14.145825,0.1,103.03079,1629837356999
Fix,GT,37.3689784,-122.0366599,5.735004384160042,14.613489,0.1,102.80054,1629837357999
Fix,GT,37.3689484,-122.0364968,5.6530044059753415,14.982302,0.1,103.0072,1629837358999
Fix,GT,37.368918,-122.036331,5.623003689527512,15.152588,0.1,102.7887,1629837359999
Fix,GT,37.3688871,-122.0361646,5.588002966165543,15.106359,0.1,103.06076,1629837360999
Fix,GT,37.3688562,-122.0359981,5.574002235352993,15.185238,0.1,102.97836,1629837361999
Fix,GT,37.3688254,-122.0358315,5.557001497387887,15.108168,0.1,102.94583,1629837362999
Fix,GT,37.3687947,-122.0356657,5.550001504659653,15.042479,0.1,103.03131,1629837363999
Fix,GT,37.3687645,-122.0355013,5.49500302362442,14.8314085,0.1,102.73422,1629837364999
Fix,GT,37.3687354,-122.035339,5.474006835877896,14.696269,0.1,102.52042,1629837365999
Fix,GT,37.3687063,-122.0351761,5.43900305223465,14.853258,0.1,102.618774,1629837366999
Fix,GT,37.3686763,-122.0350136,5.428003066539764,14.687734,0.1,103.07349,1629837367999
Fix,GT,37.3686456,-122.0348513,5.414002310633659,14.975985,0.1,103.41556,1629837368999
Fix,GT,37.368612,-122.0346846,5.384001547694206,15.485247,0.1,104.66815,1629837369999
Fix,GT,37.368574,-122.0345147,5.339002332270145,15.672457,0.1,106.23309,1629837370999
Fix,GT,37.3685326,-122.0343466,5.30200312423706,15.536243,0.1,107.69986,1629837371999
Fix,GT,37.3684872,-122.0341814,5.302007846355438,15.385815,0.1,110.09659,1629837372999
Fix,GT,37.368437,-122.034021,5.273002364635468,15.137352,0.1,111.86493,1629837373999
Fix,GT,37.3683858,-122.0338645,5.2450071266293525,14.836051,0.1,112.35147,1629837374999
Fix,GT,37.368334,-122.0337118,5.20099840927124,14.634444,0.1,113.53522,1629837375999
Fix,GT,37.3682788,-122.0335614,5.179007190465928,14.733631,0.1,115.40616,1629837376999
Fix,GT,37.3682199,-122.0334131,5.130003210306168,14.593109,0.1,117.078766,1629837377999
Fix,GT,37.3681589,-122.033269,5.097002418458462,14.315355,0.1,118.19217,1629837378999
Fix,GT,37.3680972,-122.0331291,5.087004858732223,14.021683,0.1,119.260895,1629837379999
Fix,GT,37.3680347,-122.0329936,5.092,13.710611,0.1,120.536255,1629837380999
Fix,GT,37.3679708,-122.0328632,5.088004084706307,13.419915,0.1,122.07831,1629837381999
Fix,GT,37.3679056,-122.0327374,5.072000820577144,13.143771,0.1,123.48746,1629837382999
Fix,GT,37.3678394,-122.0326164,5.058996703386307,12.875886,0.1,124.81149,1629837383999
Fix,GT,37.3677726,-122.0324994,5.037001655340195,12.680093,0.1,125.92526,1629837384999
Fix,GT,37.3677044,-122.0323827,5.003000831305981,13.005412,0.1,126.08557,1629837385999
Fix,GT,37.3676329,-122.032262,4.997998330235482,13.640954,0.1,126.865875,1629837386999
Fix,GT,37.3675563,-122.0321371,4.988004192292691,14.254108,0.1,128.02301,1629837387999
Fix,GT,37.3674741,-122.0320094,4.967001684188843,14.805272,0.1,129.34113,1629837388999
Fix,GT,37.3673863,-122.0318798,4.947000845670701,15.332185,0.1,131.11993,1629837389999
Fix,GT,37.3672909,-122.0317504,4.89700254791975,15.874749,0.1,133.52069,1629837390999
Fix,GT,37.3671892,-122.0316205,4.89,16.37231,0.1,135.01324,1629837391999
Fix,GT,37.3670825,-122.0314902,4.865003425836563,16.600046,0.1,135.89368,1629837392999
Fix,GT,37.3669754,-122.0313613,4.87300171995163,16.352007,0.1,136.13147,1629837393999
Fix,GT,37.3668701,-122.0312346,4.845002590835095,16.054096,0.1,136.20197,1629837394999
Fix,GT,37.3667663,-122.0311108,4.817997398436069,15.76115,0.1,136.31018,1629837395999
Fix,GT,37.3666645,-122.030989,4.7770026124715805,15.480458,0.1,136.22952,1629837396999
Fix,GT,37.3665646,-122.0308695,4.783998251199722,15.1773615,0.1,136.14764,1629837397999
Fix,GT,37.3664668,-122.0307516,4.76500526857376,15.023527,0.1,136.05643,1629837398999
Fix,GT,37.3663691,-122.0306339,4.733997355163098,15.01824,0.1,135.96954,1629837399999
Fix,GT,37.3662722,-122.0305169,4.665007966697216,14.8306465,0.1,135.9292,1629837400999
Fix,GT,37.366177,-122.0304017,4.641002666473389,14.54595,0.1,135.92542,1629837401999
Fix,GT,37.3660837,-122.0302888,4.607997322797775,14.259505,0.1,135.86646,1629837402999
Fix,GT,37.3659923,-122.0301779,4.53400089597702,13.980013,0.1,135.81384,1629837403999
Fix,GT,37.3659037,-122.0300699,4.527001799225807,13.243385,0.1,135.69098,1629837404999
Fix,GT,37.3658242,-122.0299731,4.521002709567547,11.313441,0.1,135.69522,1629837405999
Fix,GT,37.3657581,-122.0298926,4.505,9.005604,0.1,135.8117,1629837406999
Fix,GT,37.3657082,-122.0298326,4.491000910401344,6.38468,0.1,136.19757,1629837407999
Fix,GT,37.3656749,-122.0297928,4.477,3.8331525,0.1,136.2485,1629837408999
Fix,GT,37.3656575,-122.029772,4.469000917613507,1.712452,0.1,136.2558,1629837409999
Fix,GT,37.3656504,-122.0297636,4.466,0.5426085,0.1,136.24182,1629837410999
Fix,GT,37.3656494,-122.0297624,4.459,0.007822645,0.1,136.2428,1629837411999
Fix,GT,37.3656494,-122.0297624,4.46,0.001,0.1,136.24118,1629837412999
Fix,GT,37.3656494,-122.0297624,4.46,0.0014142136,0.1,136.24005,1629837413999
Fix,GT,37.3656494,-122.0297624,4.46,0.001,0.1,136.24036,1629837414999
Fix,GT,37.3656494,-122.0297624,4.46,0.001,0.1,136.24048,1629837415999
Fix,GT,37.3656494,-122.0297624,4.46,0.001413823,0.1,136.24023,1629837416999
Fix,GT,37.3656494,-122.0297624,4.46,0.0,0.1,136.24042,1629837417999
Fix,GT,37.3656494,-122.0297624,4.46,0.0014149944,0.1,136.24036,1629837418999
Fix,GT,37.3656494,-122.0297624,4.46,0.0022352843,0.1,136.2406,1629837419999
Fix,GT,37.3656494,-122.0297624,4.46,0.0022348848,0.1,136.2406,1629837420999
Fix,GT,37.3656494,-122.0297624,4.46,0.0022339195,0.1,136.24057,1629837421999
Fix,GT,37.3656494,-122.0297624,4.46,0.0028266637,0.1,136.24072,1629837422999
Fix,GT,37.3656494,-122.0297624,4.46,0.0028256893,0.1,136.24066,1629837423999
Fix,GT,37.3656494,-122.0297624,4.46,0.0028266506,0.1,136.24042,1629837424999
Fix,GT,37.3656494,-122.0297624,4.46,0.003602035,0.1,136.24036,1629837425999
Fix,GT,37.3656494,-122.0297624,4.46,0.0014138081,0.1,136.2403,1629837426999
Fix,GT,37.3656494,-122.0297624,4.46,0.0031601533,0.1,136.24042,1629837427999
Fix,GT,37.3656494,-122.0297624,4.46,0.0022348494,0.1,136.24066,1629837428999
Fix,GT,37.3656494,-122.0297624,4.46,0.0022352547,0.1,136.24081,1629837429999
Fix,GT,37.3656494,-122.0297624,4.46,0.0010004115,0.1,136.24078,1629837430999
Fix,GT,37.3656494,-122.0297624,4.46,9.968281e-07,0.1,136.24033,1629837431999
Fix,GT,37.3656494,-122.0297624,4.46,0.0010004145,0.1,136.24048,1629837432999
Fix,GT,37.3656494,-122.0297624,4.462,0.0,0.1,136.24036,1629837433999
Fix,GT,37.3656494,-122.0297624,4.463,0.0,0.1,136.24084,1629837434999
Fix,GT,37.3656494,-122.0297624,4.463,1.0112525e-06,0.1,136.2406,1629837435999
Fix,GT,37.3656494,-122.0297624,4.463,0.0009989851,0.1,136.24097,1629837436999
Fix,GT,37.3656494,-122.0297624,4.463,0.0031604972,0.1,136.24002,1629837437999
Fix,GT,37.3656474,-122.02976,4.457001022100448,0.75168777,0.1,136.20917,1629837438999
Fix,GT,37.3656394,-122.0297502,4.455001025736332,1.7772355,0.1,136.05923,1629837439999
Fix,GT,37.3656235,-122.0297309,4.45,3.235198,0.1,135.7815,1629837440999
Fix,GT,37.3655969,-122.029698,4.446,5.061432,0.1,135.35007,1629837441999
Fix,GT,37.3655578,-122.0296493,4.436,7.2081356,0.1,135.13892,1629837442999
Fix,GT,37.3655073,-122.0295867,4.445,8.447111,0.1,135.23917,1629837443999
Fix,GT,37.3654494,-122.0295154,4.440998956263066,9.56764,0.1,135.51285,1629837444999
Fix,GT,37.365384,-122.0294358,4.4480041894912725,10.645958,0.1,135.78766,1629837445999
Fix,GT,37.3653118,-122.0293484,4.445995796203613,11.607391,0.1,135.92786,1629837446999
Fix,GT,37.3652354,-122.0292556,4.43600210916996,12.012745,0.1,135.84116,1629837447999
Fix,GT,37.3651554,-122.0291596,4.414002116322517,12.653639,0.1,136.23914,1629837448999
Fix,GT,37.3650697,-122.0290565,4.4129946913123135,13.735038,0.1,136.02411,1629837449999
Fix,GT,37.3649774,-122.0289459,4.44300106537342,14.583424,0.1,136.17892,1629837450999
Fix,GT,37.3648816,-122.0288306,4.441005344748497,14.762305,0.1,136.05774,1629837451999
Fix,GT,37.364785,-122.0287139,4.399009653806687,15.125636,0.1,135.85822,1629837452999
Fix,GT,37.3646855,-122.0285931,4.360993542671203,15.646965,0.1,135.64258,1629837453999
Fix,GT,37.3645829,-122.0284679,4.36000107985735,16.020016,0.1,135.83862,1629837454999
Fix,GT,37.3644796,-122.028343,4.346002166867256,15.849207,0.1,135.9754,1629837455999
Fix,GT,37.3643777,-122.0282199,4.325002174139024,15.561167,0.1,135.98163,1629837456999
Fix,GT,37.3642776,-122.0280992,4.31800109064579,15.2685795,0.1,136.03479,1629837457999
Fix,GT,37.3641795,-122.0279808,4.318994528889656,14.96848,0.1,135.98233,1629837458999
Fix,GT,37.3640834,-122.0278644,4.300001097857952,14.67907,0.1,135.85468,1629837459999
Fix,GT,37.3639892,-122.0277506,4.282004405736924,14.396844,0.1,136.03021,1629837460999
Fix,GT,37.3638966,-122.027639,4.24899889487028,14.126787,0.1,136.0788,1629837461999
Fix,GT,37.3638057,-122.0275295,4.231996673882008,13.866849,0.1,136.0177,1629837462999
Fix,GT,37.363716,-122.0274212,4.239992213606835,13.789523,0.1,135.93243,1629837463999
Fix,GT,37.3636266,-122.0273136,4.253994420409202,13.697443,0.1,136.11575,1629837464999
Fix,GT,37.3635378,-122.0272071,4.248998880505562,13.614766,0.1,136.17987,1629837465999
Fix,GT,37.3634491,-122.0271004,4.243005615651607,13.721149,0.1,136.04132,1629837466999
Fix,GT,37.3633601,-122.0269929,4.247989859640598,13.664224,0.1,135.90253,1629837467999
Fix,GT,37.363271,-122.0268849,4.200006782054902,13.951424,0.1,135.7699,1629837468999
Fix,GT,37.3631794,-122.0267735,4.164003401756286,14.314677,0.1,135.79309,1629837469999
Fix,GT,37.3630868,-122.026662,4.125003412485123,14.173164,0.1,136.18787,1629837470999
Fix,GT,37.3629955,-122.0265518,4.097996576428414,14.079201,0.1,135.7995,1629837471999
Fix,GT,37.3629026,-122.0264382,4.089994275867939,14.999307,0.1,135.63379,1629837472999
Fix,GT,37.3628021,-122.0263158,4.081997703194618,16.059978,0.1,135.71875,1629837473999
Fix,GT,37.3626951,-122.0261861,4.083995392084121,16.983818,0.1,135.78928,1629837474999
Fix,GT,37.3625841,-122.0260513,4.104991910696031,17.272177,0.1,135.87354,1629837475999
Fix,GT,37.3624722,-122.0259164,4.152989567279815,17.18115,0.1,136.1048,1629837476999
Fix,GT,37.3623607,-122.0257826,4.213990696907044,17.106768,0.1,136.11957,1629837477999
Fix,GT,37.3622498,-122.0256494,4.278994167685509,16.965033,0.1,136.1607,1629837478999
Fix,GT,37.3621398,-122.0255175,4.367990639209747,16.863672,0.1,136.1456,1629837479999
Fix,GT,37.3620304,-122.0253856,4.452985915899277,16.850473,0.1,135.94727,1629837480999
Fix,GT,37.3619208,-122.0252539,4.521987050235272,16.85706,0.1,136.12961,1629837481999
Fix,GT,37.3618106,-122.0251222,4.564978744029999,17.00662,0.1,136.30396,1629837482999
Fix,GT,37.361699,-122.0249885,4.6579988155365,17.270441,0.1,136.07501,1629837483999
Fix,GT,37.361586,-122.0248521,4.750990495204926,17.546919,0.1,135.89526,1629837484999
Fix,GT,37.3614716,-122.0247145,4.822990466594697,17.633692,0.1,136.16678,1629837485999
Fix,GT,37.3613568,-122.0245772,4.904986850917339,17.569601,0.1,136.31287,1629837486999
Fix,GT,37.3612426,-122.0244408,4.980994005262851,17.457544,0.1,136.20715,1629837487999
Fix,GT,37.3611294,-122.0243046,5.047990379333497,17.369396,0.1,135.9646,1629837488999
Fix,GT,37.3610174,-122.0241683,5.133997587680817,17.287996,0.1,135.56311,1629837489999
Fix,GT,37.3609065,-122.0240319,5.190989112377166,17.212318,0.1,135.41571,1629837490999
Fix,GT,37.3607961,-122.023896,5.265993933141232,17.138744,0.1,135.40399,1629837491999
Fix,GT,37.3606861,-122.0237605,5.339995132207871,17.1048,0.1,135.44128,1629837492999
Fix,GT,37.3605761,-122.0236254,5.416998779356479,17.129393,0.1,135.59045,1629837493999
Fix,GT,37.3604655,-122.0234908,5.480996327340603,17.061789,0.1,135.80273,1629837494999
Fix,GT,37.3603556,-122.0233573,5.562987721443176,16.907667,0.1,135.7392,1629837495999
Fix,GT,37.3602469,-122.0232248,5.626990148544312,16.757364,0.1,135.72247,1629837496999
Fix,GT,37.3601391,-122.0230936,5.6719913545250895,16.590641,0.1,135.84247,1629837497999
Fix,GT,37.3600319,-122.0229643,5.734993806779385,16.449816,0.1,136.06769,1629837498999
Fix,GT,37.3599256,-122.0228362,5.803998757779598,16.302284,0.1,136.044,1629837499999
Fix,GT,37.3598203,-122.0227092,5.895977574586868,16.137644,0.1,135.95264,1629837500999
Fix,GT,37.3597158,-122.0225835,5.96699000453949,16.01916,0.1,136.10327,1629837501999
Fix,GT,37.3596119,-122.0224588,6.006994987487793,15.923164,0.1,136.14853,1629837502999
Fix,GT,37.3595087,-122.0223344,6.110984919548034,15.897839,0.1,135.98993,1629837503999
Fix,GT,37.3594057,-122.0222097,6.158996218979358,15.878093,0.1,135.84784,1629837504999
Fix,GT,37.3593029,-122.0220848,6.230996208250522,15.928515,0.1,135.78479,1629837505999
Fix,GT,37.3591995,-122.0219595,6.2889923950433735,16.004694,0.1,135.83179,1629837506999
Fix,GT,37.3590957,-122.0218336,6.360996186614036,16.067032,0.1,135.91095,1629837507999
Fix,GT,37.3589913,-122.0217074,6.405991077065467,16.116447,0.1,136.00815,1629837508999
Fix,GT,37.3588866,-122.0215816,6.490987215995789,16.091162,0.1,136.15936,1629837509999
Fix,GT,37.3587816,-122.0214563,6.556991026163102,16.136591,0.1,136.36682,1629837510999
Fix,GT,37.358676,-122.0213304,6.601987143874169,16.204426,0.1,136.1106,1629837511999
Fix,GT,37.3585706,-122.0212033,6.661994843244552,16.267061,0.1,136.00098,1629837512999
Fix,GT,37.3584649,-122.0210755,6.691993535876274,16.338026,0.1,135.86179,1629837513999
Fix,GT,37.3583591,-122.0209468,6.760992221593857,16.405031,0.1,135.68262,1629837514999
Fix,GT,37.3582531,-122.0208173,6.825993500113487,16.437445,0.1,135.67676,1629837515999
Fix,GT,37.3581473,-122.0206888,6.862993481636048,16.245148,0.1,135.80157,1629837516999
Fix,GT,37.3580433,-122.0205622,6.920997385382653,15.941093,0.1,135.70941,1629837517999
Fix,GT,37.357941,-122.0204383,6.960998689115048,15.638766,0.1,135.93283,1629837518999
Fix,GT,37.3578409,-122.020317,6.967001314461231,15.253785,0.1,135.82489,1629837519999
Fix,GT,37.3577432,-122.0201983,6.962002636194229,14.955418,0.1,135.72815,1629837520999
Fix,GT,37.3576473,-122.0200821,6.932005286693573,14.687044,0.1,135.89343,1629837521999
Fix,GT,37.3575523,-122.0199671,6.904002650618553,14.68789,0.1,135.88763,1629837522999
Fix,GT,37.3574564,-122.0198515,6.84701063156128,14.853026,0.1,136.09708,1629837523999
Fix,GT,37.3573592,-122.0197347,6.769011992156505,15.062278,0.1,136.08331,1629837524999
Fix,GT,37.3572606,-122.019616,6.661016033887863,15.275439,0.1,136.09912,1629837525999
Fix,GT,37.3571606,-122.0194959,6.5680013397336,15.491128,0.1,136.04333,1629837526999
Fix,GT,37.3570594,-122.0193739,6.43901343369484,15.702152,0.1,135.91302,1629837527999
Fix,GT,37.3569572,-122.0192504,6.3580094286203375,15.77181,0.1,135.94342,1629837528999
Fix,GT,37.3568545,-122.0191265,6.252017557561397,15.891337,0.1,135.98724,1629837529999
Fix,GT,37.3567508,-122.0190014,6.142016249895096,16.046112,0.1,135.96729,1629837530999
Fix,GT,37.3566463,-122.0188753,6.037010861873627,16.164394,0.1,135.9672,1629837531999
Fix,GT,37.3565411,-122.0187481,5.927020420551299,16.284803,0.1,135.83746,1629837532999
Fix,GT,37.3564354,-122.0186197,5.798016379356384,16.400337,0.1,135.79135,1629837533999
Fix,GT,37.3563288,-122.018491,5.696015054404735,16.454819,0.1,136.01929,1629837534999
Fix,GT,37.3562218,-122.0183619,5.601016465902328,16.530003,0.1,135.97961,1629837535999
Fix,GT,37.3561143,-122.0182322,5.500008255124092,16.589697,0.1,135.98883,1629837536999
Fix,GT,37.3560064,-122.0181026,5.386012414872647,16.56513,0.1,136.16418,1629837537999
Fix,GT,37.3558986,-122.0179736,5.327994467735291,16.524696,0.1,136.23901,1629837538999
Fix,GT,37.355791,-122.017845,5.283002773284912,16.507374,0.1,136.24042,1629837539999
Fix,GT,37.3556835,-122.0177161,5.272993048906326,16.528008,0.1,136.08875,1629837540999
Fix,GT,37.3555762,-122.0175863,5.236008363127708,16.58984,0.1,135.73218,1629837541999
Fix,GT,37.3554689,-122.0174554,5.268993012845517,16.66385,0.1,135.67719,1629837542999
Fix,GT,37.355361,-122.0173242,5.336994395732879,16.707159,0.1,135.7659,1629837543999
Fix,GT,37.3552529,-122.0171929,5.3869943814277645,16.681675,0.1,135.702,1629837544999
Fix,GT,37.3551458,-122.0170629,5.444984509587289,16.423141,0.1,135.94302,1629837545999
Fix,GT,37.3550401,-122.0169357,5.4869957644343375,16.13408,0.1,136.08847,1629837546999
Fix,GT,37.3549358,-122.0168099,5.5229971691370014,16.033957,0.1,135.90521,1629837547999
Fix,GT,37.3548326,-122.0166844,5.5929971618652345,15.861802,0.1,135.669,1629837548999
Fix,GT,37.3547311,-122.0165605,5.619992886781692,15.604423,0.1,135.69086,1629837549999
Fix,GT,37.3546302,-122.0164382,5.662990016460419,15.584744,0.1,136.07004,1629837550999
Fix,GT,37.3545286,-122.0163167,5.720994280576706,15.590586,0.1,136.27454,1629837551999
Fix,GT,37.3544274,-122.0161961,5.766994266271591,15.399931,0.1,136.3541,1629837552999
Fix,GT,37.3543279,-122.0160773,5.822988503456116,15.08527,0.1,136.18982,1629837553999
Fix,GT,37.354231,-122.0159605,5.875994237422943,14.765949,0.1,136.0,1629837554999
Fix,GT,37.3541375,-122.0158467,5.931988446235657,13.941127,0.1,135.52356,1629837555999
Fix,GT,37.3540525,-122.0157413,5.982017374277115,12.623459,0.1,135.03961,1629837556999
Fix,GT,37.353977,-122.015645,6.021988388538361,11.28113,0.1,134.04407,1629837557999
Fix,GT,37.3539116,-122.0155582,6.047998544931412,9.872619,0.1,132.84698,1629837558999
Fix,GT,37.3538559,-122.0154817,6.084995624244213,8.441612,0.1,132.0979,1629837559999
Fix,GT,37.3538097,-122.0154163,6.102997075676917,7.102502,0.1,131.41287,1629837560999
Fix,GT,37.3537713,-122.0153608,6.1159985342621805,5.9206495,0.1,130.79877,1629837561999
Fix,GT,37.3537397,-122.0153145,6.134994122505188,4.9299536,0.1,130.33612,1629837562999
Fix,GT,37.3537137,-122.0152757,6.158997054100036,3.9720306,0.1,130.0325,1629837563999
Fix,GT,37.3536942,-122.0152466,6.170001476585865,2.7147512,0.1,130.00397,1629837564999
Fix,GT,37.3536825,-122.0152292,6.173,1.258599,0.1,129.89047,1629837565999
Fix,GT,37.3536791,-122.0152241,6.173,0.061356522,0.1,129.8725,1629837566999
Fix,GT,37.3536791,-122.0152241,6.168,0.001,0.1,129.87189,1629837567999
Fix,GT,37.3536791,-122.0152241,6.168,0.001,0.1,129.87024,1629837568999
Fix,GT,37.3536791,-122.0152241,6.168,0.0009985056,0.1,129.87085,1629837569999
Fix,GT,37.3536791,-122.0152241,6.166001498103142,0.001,0.1,129.87115,1629837570999
Fix,GT,37.3536792,-122.0152241,6.165,1.5016794e-06,0.1,129.87122,1629837571999
Fix,GT,37.3536792,-122.0152241,6.165,0.0010006236,0.1,129.87146,1629837572999
Fix,GT,37.3536792,-122.0152241,6.165,0.001,0.1,129.87152,1629837573999
Fix,GT,37.3536792,-122.0152241,6.165,0.0010006266,0.1,129.87158,1629837574999
Fix,GT,37.3536792,-122.0152241,6.165,0.0014142136,0.1,129.87149,1629837575999
Fix,GT,37.3536792,-122.0152241,6.165,0.001,0.1,129.87161,1629837576999
Fix,GT,37.3536792,-122.0152241,6.165,0.0009984769,0.1,129.87155,1629837577999
Fix,GT,37.3536792,-122.0152241,6.165,1.5267731e-06,0.1,129.87134,1629837578999
Fix,GT,37.3536792,-122.0152241,6.165,0.0010006339,0.1,129.8713,1629837579999
Fix,GT,37.3536792,-122.0152241,6.165,0.0014135782,0.1,129.87143,1629837580999
Fix,GT,37.3536792,-122.0152241,6.165,0.001,0.1,129.87152,1629837581999
Fix,GT,37.3536792,-122.0152241,6.165,0.0,0.1,129.87152,1629837582999
Fix,GT,37.3536792,-122.0152241,6.165,0.0,0.1,129.87146,1629837583999
Fix,GT,37.3536792,-122.0152241,6.165,0.001,0.1,129.8713,1629837584999
Fix,GT,37.3536792,-122.0152241,6.165,0.0014135707,0.1,129.87134,1629837585999
Fix,GT,37.3536792,-122.0152241,6.165,0.0014135693,0.1,129.87158,1629837586999
Fix,GT,37.3536792,-122.0152241,6.165,1.5591384e-06,0.1,129.87183,1629837587999
Fix,GT,37.3536792,-122.0152241,6.165,0.0014135663,0.1,129.87192,1629837588999
Fix,GT,37.3536792,-122.0152241,6.165,0.0010006488,0.1,129.87189,1629837589999
Fix,GT,37.3536792,-122.0152241,6.165,0.0014119934,0.1,129.87158,1629837590999
Fix,GT,37.3536792,-122.0152241,6.165,0.001,0.1,129.87173,1629837591999
Fix,GT,37.3536792,-122.0152241,6.165,0.0,0.1,129.87158,1629837592999
Fix,GT,37.3536792,-122.0152241,6.165,0.0010006547,0.1,129.87146,1629837593999
Fix,GT,37.3536792,-122.0152241,6.165,0.0010006563,0.1,129.87152,1629837594999
Fix,GT,37.3536792,-122.0152241,6.165,0.0009984123,0.1,129.87119,1629837595999
Fix,GT,37.3536792,-122.0152241,6.165,2.2505574e-06,0.1,129.87115,1629837596999
Fix,GT,37.3536792,-122.0152241,6.165,0.0022347572,0.1,129.87146,1629837597999
Fix,GT,37.3536792,-122.0152241,6.165,0.001,0.1,129.8707,1629837598999
Fix,GT,37.3536792,-122.0152241,6.165,0.0010006636,0.1,129.87094,1629837599999
Fix,GT,37.3536792,-122.0152241,6.165,0.0022340834,0.1,129.87097,1629837600999
Fix,GT,37.3536792,-122.0152241,6.165,0.001413547,0.1,129.87115,1629837601999
Fix,GT,37.3536792,-122.0152241,6.165,0.001,0.1,129.87122,1629837602999
Fix,GT,37.3536792,-122.0152241,6.165,0.0010006696,0.1,129.8714,1629837603999
Fix,GT,37.3536792,-122.0152241,6.165,0.0010006711,0.1,129.87158,1629837604999
Fix,GT,37.3536792,-122.0152241,6.165,0.0019983766,0.1,129.87134,1629837605999
Fix,GT,37.3536792,-122.0152241,6.165,0.001,0.1,129.871,1629837606999
Fix,GT,37.3536792,-122.0152241,6.165,0.0014135381,0.1,129.87091,1629837607999
Fix,GT,37.3536792,-122.0152241,6.165,0.0010016343,0.1,129.87103,1629837608999
Fix,GT,37.3536792,-122.0152241,6.165,0.0031587363,0.1,129.87112,1629837609999
Fix,GT,37.3536792,-122.0152241,6.165,1.6413331e-06,0.1,129.87103,1629837610999
Fix,GT,37.3536792,-122.0152241,6.165,0.001,0.1,129.87122,1629837611999
Fix,GT,37.3536792,-122.0152241,6.165,0.0010020378,0.1,129.87128,1629837612999
Fix,GT,37.3536792,-122.0152241,6.165,2.3363684e-06,0.1,129.8714,1629837613999
Fix,GT,37.3536792,-122.0152241,6.165,0.001,0.1,129.87146,1629837614999
Fix,GT,37.3536788,-122.0152236,6.161,0.3108731,0.1,129.86127,1629837615999
Fix,GT,37.3536749,-122.0152178,6.166,0.9978216,0.1,129.7807,1629837616999
Fix,GT,37.3536676,-122.0152065,6.169,1.6392361,0.1,129.51141,1629837617999
Fix,GT,37.3536544,-122.0151857,6.169996659994125,3.2370415,0.1,128.87311,1629837618999
Fix,GT,37.3536306,-122.0151475,6.181998326420785,5.275939,0.1,128.0246,1629837619999
Fix,GT,37.3535952,-122.0150895,6.19399832290411,7.6948423,0.1,127.21277,1629837620999
Fix,GT,37.3535474,-122.0150094,6.215986554145813,9.758699,0.1,126.63965,1629837621999
Fix,GT,37.353494,-122.0149195,6.241991578459739,10.015354,0.1,126.5459,1629837622999
Fix,GT,37.3534408,-122.0148292,6.290989873051644,9.842603,0.1,126.32214,1629837623999
Fix,GT,37.3533889,-122.0147404,6.311994925618172,9.655559,0.1,126.12399,1629837624999
Fix,GT,37.3533382,-122.0146531,6.321001695036888,9.499363,0.1,126.04288,1629837625999
Fix,GT,37.3532873,-122.014566,6.335993205785751,9.717963,0.1,126.18448,1629837626999
Fix,GT,37.3532338,-122.0144742,6.3809965956211085,10.510694,0.1,126.010956,1629837627999
Fix,GT,37.3531753,-122.0143734,6.443984648644924,11.572905,0.1,125.99359,1629837628999
Fix,GT,37.3531117,-122.0142624,6.5059897443056105,12.578702,0.1,125.389465,1629837629999
Fix,GT,37.3530466,-122.014145,6.533998287141323,12.676951,0.1,124.19031,1629837630999
Fix,GT,37.3529845,-122.0140264,6.57598283624649,12.392919,0.1,122.581635,1629837631999
Fix,GT,37.3529274,-122.0139076,6.615998279988766,12.133458,0.1,120.07687,1629837632999
Fix,GT,37.3528754,-122.0137893,6.615996552824974,11.793794,0.1,118.236206,1629837633999
Fix,GT,37.3528273,-122.0136727,6.642987910270691,11.470861,0.1,116.80182,1629837634999
Fix,GT,37.3527813,-122.0135553,6.678993077039719,11.7890415,0.1,115.70389,1629837635999
Fix,GT,37.3527349,-122.0134321,6.675,12.319284,0.1,114.89496,1629837636999
Fix,GT,37.3526885,-122.0133033,6.680998262166977,12.6519165,0.1,113.92151,1629837637999
Fix,GT,37.3526431,-122.0131712,6.711998258531094,12.847841,0.1,112.8313,1629837638999
Fix,GT,37.3525986,-122.0130352,6.750979059457779,13.21091,0.1,111.84784,1629837639999
Fix,GT,37.3525546,-122.012894,6.744005245685577,13.624484,0.1,110.93707,1629837640999
Fix,GT,37.3525115,-122.0127479,6.756,13.868688,0.1,109.64703,1629837641999
Fix,GT,37.3524712,-122.0125993,6.733003511548041,13.939047,0.1,108.022064,1629837642999
Fix,GT,37.3524345,-122.0124479,6.689008796751499,14.103196,0.1,106.005554,1629837643999
Fix,GT,37.3524023,-122.0122929,6.655003525733948,14.147682,0.1,103.57544,1629837644999
Fix,GT,37.3523748,-122.0121379,6.601017665028572,13.955084,0.1,101.95273,1629837645999
Fix,GT,37.3523497,-122.011985,6.5250177001953125,13.713569,0.1,101.54932,1629837646999
Fix,GT,37.3523247,-122.0118338,6.45601064157486,13.706074,0.1,101.54431,1629837647999
Fix,GT,37.3523,-122.0116813,6.319028434753418,13.8865595,0.1,101.3233,1629837648999
Fix,GT,37.3522757,-122.0115259,6.175024930477142,14.178568,0.1,100.82077,1629837649999
Fix,GT,37.3522523,-122.0113669,6.0120303335189815,14.47428,0.1,100.13925,1629837650999
Fix,GT,37.3522301,-122.0112041,5.861026817619801,14.772864,0.1,99.10095,1629837651999
Fix,GT,37.3522105,-122.0110373,5.671035828351974,15.089052,0.1,97.74692,1629837652999
Fix,GT,37.3521937,-122.0108667,5.476019745588302,15.318417,0.1,96.31622,1629837653999
Fix,GT,37.3521805,-122.0106949,5.3080431656837455,15.225532,0.1,94.807526,1629837654999
Fix,GT,37.3521711,-122.0105243,5.112028834342957,15.0553875,0.1,93.307465,1629837655999
Fix,GT,37.352165,-122.0103555,4.92503069627285,14.878012,0.1,91.906006,1629837656999
Fix,GT,37.3521622,-122.0101887,4.735045232474804,14.682831,0.1,90.73605,1629837657999
Fix,GT,37.3521612,-122.0100239,4.560041696131228,14.510091,0.1,90.11374,1629837658999
Fix,GT,37.3521615,-122.0098611,4.403038144230842,14.323071,0.1,89.85391,1629837659999
Fix,GT,37.3521614,-122.0097006,4.223027300417423,14.057093,0.1,90.00177,1629837660999
Fix,GT,37.3521613,-122.0095461,4.078027353167534,13.268188,0.1,89.93457,1629837661999
Fix,GT,37.3521613,-122.0094024,3.9640200983285903,12.1572275,0.1,89.89862,1629837662999
Fix,GT,37.3521612,-122.009273,3.9010146455764767,10.658348,0.1,89.96515,1629837663999
Fix,GT,37.3521612,-122.0091636,3.838012839496136,8.714371,0.1,89.928406,1629837664999
Fix,GT,37.3521612,-122.0090761,3.796005513191223,6.8882937,0.1,89.94736,1629837665999
Fix,GT,37.3521611,-122.0090072,3.765005524098873,5.303303,0.1,89.940186,1629837666999
Fix,GT,37.352161,-122.0089557,3.723007379770279,3.944196,0.1,90.108826,1629837667999
Fix,GT,37.3521607,-122.0089173,3.701001848459244,2.865204,0.1,90.35199,1629837668999
Fix,GT,37.3521606,-122.0088911,3.684003704190255,1.7652892,0.1,90.49823,1629837669999
Fix,GT,37.3521604,-122.0088782,3.675,0.51529026,0.1,90.53906,1629837670999
Fix,GT,37.3521604,-122.0088766,3.66600185918808,0.013007492,0.1,90.55328,1629837671999
Fix,GT,37.3521604,-122.0088766,3.666,0.001,0.1,90.550995,1629837672999
Fix,GT,37.3521604,-122.0088766,3.665,0.001,0.1,90.54971,1629837673999
Fix,GT,37.3521604,-122.0088766,3.665,1.8698574e-06,0.1,90.549866,1629837674999
Fix,GT,37.3521604,-122.0088766,3.665,0.0,0.1,90.54968,1629837675999
Fix,GT,37.3521604,-122.0088766,3.665,1.8769504e-06,0.1,90.54971,1629837676999
Fix,GT,37.3521604,-122.0088766,3.665,0.0,0.1,90.54993,1629837677999
Fix,GT,37.3521604,-122.0088766,3.665,0.000998116,0.1,90.5499,1629837678999
Fix,GT,37.3521604,-122.0088766,3.665,0.0,0.1,90.54996,1629837679999
Fix,GT,37.3521604,-122.0088766,3.665,1.8911959e-06,0.1,90.549866,1629837680999
Fix,GT,37.3521604,-122.0088766,3.665,0.0,0.1,90.54993,1629837681999
Fix,GT,37.3521604,-122.0088766,3.665,0.0,0.1,90.5499,1629837682999
Fix,GT,37.3521604,-122.0088766,3.665,0.0,0.1,90.54993,1629837683999
Fix,GT,37.3521604,-122.0088766,3.665,0.0,0.1,90.55011,1629837684999
Fix,GT,37.3521604,-122.0088766,3.665,0.0,0.1,90.55023,1629837685999
Fix,GT,37.3521604,-122.0088766,3.665,0.001,0.1,90.55023,1629837686999
Fix,GT,37.3521604,-122.0088766,3.665,0.002,0.1,90.55051,1629837687999
Fix,GT,37.3521604,-122.0088766,3.665,0.0029980803,0.1,90.55011,1629837688999
Fix,GT,37.3521604,-122.0088766,3.665,0.0014191867,0.1,90.55011,1629837689999
Fix,GT,37.3521604,-122.0088766,3.665,0.002,0.1,90.55014,1629837690999
Fix,GT,37.3521604,-122.0088766,3.665,0.0009980696,0.1,90.55014,1629837691999
Fix,GT,37.3521604,-122.0088766,3.665,0.0009980662,0.1,90.55005,1629837692999
Fix,GT,37.3521604,-122.0088766,3.665,0.001,0.1,90.55002,1629837693999
Fix,GT,37.3521604,-122.0088766,3.665,1.9411445e-06,0.1,90.55014,1629837694999
Fix,GT,37.3521604,-122.0088766,3.665,0.0009980553,0.1,90.55014,1629837695999
Fix,GT,37.3521604,-122.0088766,3.665,0.0019980518,0.1,90.55023,1629837696999
Fix,GT,37.3521604,-122.0088766,3.665,0.0022317038,0.1,90.5502,1629837697999
Fix,GT,37.3521604,-122.0088766,3.665,0.0019960895,0.1,90.549866,1629837698999
Fix,GT,37.3521604,-122.0088766,3.665,0.0029941234,0.1,90.54993,1629837699999
Fix,GT,37.3521604,-122.0088766,3.665,0.0019960753,0.1,90.55029,1629837700999
Fix,GT,37.3521604,-122.0088766,3.665,0.001996068,0.1,90.55008,1629837701999
Fix,GT,37.3521604,-122.0088766,3.665,0.001996061,0.1,90.55017,1629837702999
Fix,GT,37.3521604,-122.0088766,3.665,1.9730926e-06,0.1,90.54999,1629837703999
Fix,GT,37.3521604,-122.0088766,3.665,0.0014114181,0.1,90.55008,1629837704999
Fix,GT,37.3521604,-122.0088766,3.665,0.0019960396,0.1,90.55008,1629837705999
Fix,GT,37.3521604,-122.0088766,3.665,0.0022344375,0.1,90.54999,1629837706999
Fix,GT,37.3521604,-122.0088766,3.665,1.9873382e-06,0.1,90.549866,1629837707999
Fix,GT,37.3521604,-122.0088766,3.665,0.0009980092,0.1,90.54971,1629837708999
Fix,GT,37.3521604,-122.0088766,3.665,0.001996011,0.1,90.549835,1629837709999
Fix,GT,37.3521604,-122.0088766,3.665,0.002,0.1,90.55011,1629837710999
Fix,GT,37.3521604,-122.0088766,3.665,0.0019979987,0.1,90.54953,1629837711999
Fix,GT,37.3521604,-122.0088766,3.665,0.001,0.1,90.54962,1629837712999
Fix,GT,37.3521604,-122.0088766,3.665,0.0014113728,0.1,90.54968,1629837713999
Fix,GT,37.3521604,-122.0088766,3.665,0.0,0.1,90.55026,1629837714999
Fix,GT,37.3521604,-122.0088766,3.665,0.001,0.1,90.55008,1629837715999
Fix,GT,37.3521604,-122.0088766,3.665,2.0193459e-06,0.1,90.55014,1629837716999
Fix,GT,37.3521604,-122.0088766,3.665,0.0019979773,0.1,90.549805,1629837717999
Fix,GT,37.3521604,-122.0088766,3.665,2.0264984e-06,0.1,90.55026,1629837718999
Fix,GT,37.3521604,-122.0088766,3.665,0.0,0.1,90.54996,1629837719999
Fix,GT,37.3521604,-122.0088766,3.665,0.0019979666,0.1,90.55008,1629837720999
Fix,GT,37.3521604,-122.0088766,3.665,2.8809056e-06,0.1,90.549866,1629837721999
Fix,GT,37.3521604,-122.0088766,3.665,0.0,0.1,90.55002,1629837722999
Fix,GT,37.3521604,-122.0088753,3.66,0.41683912,0.1,90.551605,1629837723999
Fix,GT,37.3521603,-122.0088663,3.6560020478367807,1.1409832,0.1,90.49643,1629837724999
Fix,GT,37.3521603,-122.0088481,3.647,2.175845,0.1,90.23395,1629837725999
Fix,GT,37.3521604,-122.008816,3.628002054870129,3.6456618,0.1,89.81189,1629837726999
Fix,GT,37.3521607,-122.0087655,3.608006175518036,5.292711,0.1,89.523865,1629837727999
Fix,GT,37.352161,-122.0086946,3.5860061860680577,7.252733,0.1,89.53479,1629837728999
Fix,GT,37.3521617,-122.0086034,3.5400103276968005,8.659469,0.1,89.258484,1629837729999
Fix,GT,37.3521626,-122.0085028,3.4920103455781937,9.246259,0.1,89.324036,1629837730999
Fix,GT,37.3521633,-122.0083931,3.428012435793877,10.152312,0.1,89.45029,1629837731999
Fix,GT,37.3521636,-122.0082761,3.362018686413765,10.512946,0.1,89.88281,1629837732999
Fix,GT,37.3521632,-122.0081567,3.311012478709221,10.545297,0.1,90.284485,1629837733999
Fix,GT,37.3521629,-122.0080383,3.2510041667222973,10.490106,0.1,90.1236,1629837734999
Fix,GT,37.3521625,-122.0079179,3.197008347511292,10.941886,0.1,90.12088,1629837735999
Fix,GT,37.3521623,-122.0077904,3.137016723155976,11.6468725,0.1,89.976746,1629837736999
Fix,GT,37.3521622,-122.0076551,3.0330251276493074,12.326876,0.1,90.0065,1629837737999
Fix,GT,37.3521619,-122.0075122,2.936016780376434,12.986896,0.1,90.0307,1629837738999
Fix,GT,37.3521618,-122.0073622,2.8270231123566627,13.523933,0.1,89.91351,1629837739999
Fix,GT,37.3521613,-122.0072085,2.700016837120056,13.721196,0.1,90.1853,1629837740999
Fix,GT,37.3521609,-122.0070535,2.5780400561094283,13.686082,0.1,90.07129,1629837741999
Fix,GT,37.3521606,-122.0068999,2.4390295642614364,13.517054,0.1,89.961365,1629837742999
Fix,GT,37.3521605,-122.0067484,2.2990338459014894,13.313043,0.1,89.96396,1629837743999
Fix,GT,37.3521603,-122.0065989,2.1590275455117225,13.254003,0.1,89.89276,1629837744999
Fix,GT,37.3521607,-122.006449,2.04901910161972,13.255163,0.1,89.624695,1629837745999
Fix,GT,37.352161,-122.0063002,1.9460233857631684,13.092045,0.1,89.898895,1629837746999
Fix,GT,37.3521609,-122.0061538,1.867019165456295,12.8291025,0.1,89.97717,1629837747999
Fix,GT,37.3521606,-122.0060138,1.821010665655136,11.81033,0.1,90.10129,1629837748999
Fix,GT,37.3521603,-122.0058895,1.7800042732954025,10.159371,0.1,90.06207,1629837749999
Fix,GT,37.3521601,-122.0057844,1.742,8.435392,0.1,90.08377,1629837750999
Fix,GT,37.3521599,-122.0056994,1.730006431221962,6.6414175,0.1,90.10205,1629837751999
Fix,GT,37.3521598,-122.0056347,1.7030042945146562,4.7953844,0.1,89.984406,1629837752999
Fix,GT,37.3521598,-122.0055886,1.6990021507740023,3.4352713,0.1,90.05386,1629837753999
Fix,GT,37.3521598,-122.0055563,1.692,2.3542194,0.1,90.02887,1629837754999
Fix,GT,37.3521598,-122.0055353,1.6919978420734405,1.4991046,0.1,89.99884,1629837755999
Fix,GT,37.3521597,-122.0055217,1.692,0.88014054,0.1,89.96777,1629837756999
Fix,GT,37.3521597,-122.0055154,1.698,0.22614294,0.1,89.95355,1629837757999
Fix,GT,37.3521597,-122.005515,1.6950021685361865,0.002,0.1,89.9548,1629837758999
Fix,GT,37.3521597,-122.005515,1.695,3.0717465e-06,0.1,89.9534,1629837759999
Fix,GT,37.3521597,-122.005515,1.695,0.001,0.1,89.95242,1629837760999
Fix,GT,37.3521597,-122.005515,1.695,2.1792055e-06,0.1,89.95242,1629837761999
Fix,GT,37.3521597,-122.005515,1.695,0.0014154922,0.1,89.9527,1629837762999
Fix,GT,37.3521597,-122.005515,1.695,0.001,0.1,89.952484,1629837763999
Fix,GT,37.3521597,-122.005515,1.6930021898150445,0.0010009072,0.1,89.95245,1629837764999
Fix,GT,37.3521597,-122.005515,1.69,0.0019978066,0.1,89.95282,1629837765999
Fix,GT,37.3521597,-122.005515,1.69,0.0014111066,0.1,89.95276,1629837766999
Fix,GT,37.3521597,-122.005515,1.69,0.0009977996,0.1,89.95279,1629837767999
Fix,GT,37.3521597,-122.005515,1.69,0.001002204,0.1,89.95279,1629837768999
Fix,GT,37.3521597,-122.005515,1.69,2.2075178e-06,0.1,89.9527,1629837769999
Fix,GT,37.3521597,-122.005515,1.69,0.0010027331,0.1,89.95273,1629837770999
Fix,GT,37.3521597,-122.005515,1.69,0.0014132962,0.1,89.95267,1629837771999
Fix,GT,37.3521597,-122.005515,1.69,0.0031584,0.1,89.95276,1629837772999
Fix,GT,37.3521597,-122.005515,1.69,0.0010009203,0.1,89.9527,1629837773999
Fix,GT,37.3521597,-122.005515,1.69,0.002236068,0.1,89.95282,1629837774999
Fix,GT,37.3521597,-122.005515,1.69,0.002236068,0.1,89.95317,1629837775999
Fix,GT,37.3521597,-122.005515,1.69,0.0014160483,0.1,89.953156,1629837776999
Fix,GT,37.3521597,-122.005515,1.69,0.003157443,0.1,89.953186,1629837777999
Fix,GT,37.3521597,-122.005515,1.69,0.0010048423,0.1,89.95303,1629837778999
Fix,GT,37.3521597,-122.005515,1.69,0.0031583565,0.1,89.95291,1629837779999
Fix,GT,37.3521597,-122.005515,1.69,0.0010048577,0.1,89.95276,1629837780999
Fix,GT,37.3521597,-122.005515,1.69,0.0022342189,0.1,89.95294,1629837781999
Fix,GT,37.3521597,-122.005515,1.69,0.0014181529,0.1,89.953094,1629837782999
Fix,GT,37.3521597,-122.005515,1.6890022571086885,0.001000935,0.1,89.95297,1629837783999
Fix,GT,37.3521597,-122.005515,1.689,0.002236068,0.1,89.95294,1629837784999
Fix,GT,37.3521597,-122.005515,1.69,0.0014142136,0.1,89.95276,1629837785999
Fix,GT,37.3521597,-122.005515,1.69,0.0028270837,0.1,89.95261,1629837786999
Fix,GT,37.3521597,-122.005515,1.689,0.0022355318,0.1,89.95239,1629837787999
Fix,GT,37.3521597,-122.005515,1.688,0.004120161,0.1,89.95175,1629837788999
Fix,GT,37.3521597,-122.0055131,1.682,0.52381086,0.1,89.93805,1629837789999
Fix,GT,37.3521598,-122.0055009,1.67400228202343,1.6457217,0.1,89.83826,1629837790999
Fix,GT,37.3521599,-122.0054735,1.658004571199417,3.3405902,0.1,89.648254,1629837791999
Fix,GT,37.3521604,-122.0054245,1.6420022891163824,5.3717957,0.1,89.36154,1629837792999
Fix,GT,37.3521606,-122.0053488,1.628,8.004538,0.1,89.62421,1629837793999
Fix,GT,37.3521609,-122.0052454,1.61399081492424,10.071892,0.1,89.65903,1629837794999
Fix,GT,37.3521619,-122.0051298,1.578027597427368,10.360445,0.1,89.36563,1629837795999
Fix,GT,37.3521628,-122.0050106,1.577,10.757559,0.1,89.250275,1629837796999
Fix,GT,37.3521643,-122.0048862,1.5370138412714005,11.393255,0.1,89.00934,1629837797999
Fix,GT,37.3521658,-122.0047528,1.5290161727666851,12.282025,0.1,89.135345,1629837798999
Fix,GT,37.3521674,-122.0046083,1.4950046278238298,13.303102,0.1,89.04492,1629837799999
Fix,GT,37.3521693,-122.0044525,1.4840046348571776,14.327651,0.1,88.95004,1629837800999
Fix,GT,37.3521716,-122.0042861,1.4470139263868331,15.005323,0.1,88.9267,1629837801999
Fix,GT,37.3521739,-122.0041154,1.411009298324585,15.257045,0.1,88.92288,1629837802999
Fix,GT,37.3521764,-122.003943,1.3730116404891015,15.201705,0.1,88.88031,1629837803999
Fix,GT,37.3521788,-122.003772,1.3220116583704948,15.183215,0.1,88.86279,1629837804999
Fix,GT,37.3521819,-122.0035985,1.232018681526184,15.577707,0.1,88.46918,1629837805999
Fix,GT,37.3521857,-122.0034204,1.1460187096595762,15.987744,0.1,88.393036,1629837806999
Fix,GT,37.3521888,-122.0032379,1.0810327911376951,16.300783,0.1,88.83783,1629837807999
Fix,GT,37.3521915,-122.0030547,0.9900258044600488,16.143013,0.1,88.78418,1629837808999
Fix,GT,37.3521949,-122.002874,0.9230023493766784,15.863465,0.1,88.34622,1629837809999
Fix,GT,37.3521983,-122.0026967,0.8590235289335251,15.581131,0.1,88.79205,1629837810999
Fix,GT,37.3522007,-122.0025224,0.7980235641002655,15.314885,0.1,88.788025,1629837811999
Fix,GT,37.3522038,-122.0023509,0.7020235998630523,15.067341,0.1,88.55356,1629837812999
Fix,GT,37.3522068,-122.0021825,0.6490094540119171,14.804114,0.1,88.757324,1629837813999
Fix,GT,37.352209,-122.0020168,0.5410213031768799,14.560687,0.1,89.033264,1629837814999
Fix,GT,37.3522109,-122.0018537,0.4360142232179641,14.337381,0.1,89.144104,1629837815999
Fix,GT,37.3522117,-122.001693,0.3120308626890182,14.142041,0.1,89.92615,1629837816999
Fix,GT,37.3522115,-122.0015346,0.1980095107555389,13.922071,0.1,89.93848,1629837817999
Fix,GT,37.3522114,-122.0013788,0.1000357180833816,13.696051,0.1,89.90823,1629837818999
Fix,GT,37.3522115,-122.0012254,-0.0229785374999046,13.493057,0.1,89.85327,1629837819999
Fix,GT,37.3522118,-122.0010745,-0.1309808936119079,13.2573,0.1,89.54956,1629837820999
Fix,GT,37.3522132,-122.0009262,-0.2329689064025879,13.0266695,0.1,88.9798,1629837821999
Fix,GT,37.3522152,-122.0007805,-0.3359760466814041,12.80848,0.1,89.06549,1629837822999
Fix,GT,37.3522169,-122.0006373,-0.422973612010479,12.571871,0.1,88.97455,1629837823999
Fix,GT,37.3522188,-122.0004972,-0.5039663660526276,12.165737,0.1,88.93848,1629837824999
Fix,GT,37.3522204,-122.0003644,-0.5829927821755408,11.331333,0.1,89.076996,1629837825999
Fix,GT,37.3522221,-122.0002418,-0.6709759048223496,10.374242,0.1,88.84094,1629837826999
Fix,GT,37.3522239,-122.0001317,-0.7389831087589264,9.150192,0.1,88.72952,1629837827999
Fix,GT,37.3522256,-122.0000362,-0.8029855006933213,7.686432,0.1,88.60669,1629837828999
Fix,GT,37.3522268,-121.9999582,-0.8589878990650177,6.26742,0.1,88.87491,1629837829999
Fix,GT,37.3522276,-121.9998944,-0.8969903051853181,5.049859,0.1,89.069305,1629837830999
Fix,GT,37.3522281,-121.9998432,-0.936995145559311,4.044642,0.1,89.19757,1629837831999
Fix,GT,37.3522285,-121.9998035,-0.9729951385259628,2.9874318,0.1,89.24826,1629837832999
Fix,GT,37.3522287,-121.9997748,-0.9989951314926148,2.1493177,0.1,89.30237,1629837833999
Fix,GT,37.3522289,-121.999754,-1.0189926865100858,1.6180655,0.1,89.327515,1629837834999
Fix,GT,37.3522291,-121.9997363,-1.0299975586533547,1.509104,0.1,89.33737,1629837835999
Fix,GT,37.3522292,-121.9997211,-1.041,1.1671325,0.1,89.32126,1629837836999
Fix,GT,37.3522293,-121.9997105,-1.0509975516200063,0.77205855,0.1,89.30466,1629837837999
Fix,GT,37.3522293,-121.9997026,-1.057,0.541126,0.1,89.27887,1629837838999
Fix,GT,37.3522293,-121.999699,-1.0659975444674492,0.08812357,0.1,89.26511,1629837839999
Fix,GT,37.3522293,-121.9996989,-1.07,0.014002542,0.1,89.26813,1629837840999
Fix,GT,37.3522293,-121.9996988,-1.071,0.0014142136,0.1,89.26831,1629837841999
Fix,GT,37.3522293,-121.9996988,-1.071,0.0,0.1,89.26785,1629837842999
Fix,GT,37.3522293,-121.9996988,-1.071,0.0009975304,0.1,89.26761,1629837843999
Fix,GT,37.3522293,-121.9996988,-1.071,0.001,0.1,89.267944,1629837844999
Fix,GT,37.3522293,-121.9996988,-1.071,2.4766327e-06,0.1,89.26816,1629837845999
Fix,GT,37.3522293,-121.9996988,-1.071,0.00199752,0.1,89.26874,1629837846999
Fix,GT,37.3522293,-121.9996988,-1.071,0.001,0.1,89.26813,1629837847999
Fix,GT,37.3522293,-121.9996988,-1.071,0.0,0.1,89.26819,1629837848999
Fix,GT,37.3522293,-121.9996988,-1.071,0.0009975092,0.1,89.26877,1629837849999
Fix,GT,37.3522293,-121.9996988,-1.071,2.4943354e-06,0.1,89.26868,1629837850999
Fix,GT,37.3522293,-121.9996988,-1.071,0.0019975023,0.1,89.26892,1629837851999
Fix,GT,37.3522293,-121.9996988,-1.071,0.001,0.1,89.26892,1629837852999
Fix,GT,37.3522293,-121.9996988,-1.071,0.0022329718,0.1,89.26929,1629837853999
Fix,GT,37.3522293,-121.9996988,-1.071,2.5084616e-06,0.1,89.269135,1629837854999
Fix,GT,37.3522293,-121.9996988,-1.071,0.001,0.1,89.269104,1629837855999
Fix,GT,37.3522293,-121.9996988,-1.071,0.001,0.1,89.26886,1629837856999
Fix,GT,37.3522293,-121.9996988,-1.071,0.0010010435,0.1,89.26874,1629837857999
Fix,GT,37.3522293,-121.9996988,-1.071,0.0022339947,0.1,89.26868,1629837858999
Fix,GT,37.3522293,-121.9996988,-1.071,0.0010010464,0.1,89.26849,1629837859999
Fix,GT,37.3522293,-121.9996988,-1.071,0.0014142136,0.1,89.2681,1629837860999
Fix,GT,37.3522293,-121.9996988,-1.071,0.0014162955,0.1,89.267914,1629837861999
Fix,GT,37.3522293,-121.9996988,-1.071,0.0,0.1,89.267914,1629837862999
Fix,GT,37.3522293,-121.9996988,-1.071,3.5924288e-06,0.1,89.26807,1629837863999
Fix,GT,37.3522293,-121.9996988,-1.071,0.0031567772,0.1,89.268005,1629837864999
Fix,GT,37.3522293,-121.9996988,-1.071,0.001,0.1,89.26825,1629837865999
Fix,GT,37.3522293,-121.9996988,-1.071,0.0014186727,0.1,89.26819,1629837866999
Fix,GT,37.3522293,-121.9996988,-1.071,0.0029948913,0.1,89.26816,1629837867999
Fix,GT,37.3522293,-121.9996988,-1.071,0.001005531,0.1,89.2681,1629837868999
Fix,GT,37.3522293,-121.9996988,-1.071,0.0022303404,0.1,89.26816,1629837869999
Fix,GT,37.3522293,-121.9996988,-1.071,0.001002565,0.1,89.26874,1629837870999
Fix,GT,37.3522293,-121.9996988,-1.071,0.0014105812,0.1,89.268524,1629837871999
Fix,GT,37.3522293,-121.9996988,-1.071,0.001,0.1,89.26871,1629837872999
Fix,GT,37.3522293,-121.9996988,-1.071,5.7591637e-06,0.1,89.26871,1629837873999
Fix,GT,37.3522293,-121.9996988,-1.071,0.0014131452,0.1,89.26825,1629837874999
Fix,GT,37.3522293,-121.9996988,-1.071,0.0,0.1,89.2684,1629837875999
Fix,GT,37.3522293,-121.9996988,-1.071,0.001,0.1,89.268555,1629837876999
Fix,GT,37.3522293,-121.9996988,-1.071,0.0009974104,0.1,89.268555,1629837877999
Fix,GT,37.3522293,-121.9996988,-1.071,0.001,0.1,89.26822,1629837878999
Fix,GT,37.3522293,-121.9996988,-1.071,0.0,0.1,89.26821,1629837879999
Fix,GT,37.3522293,-121.9996988,-1.071,0.0019984767,0.1,89.26822,1629837880999
Fix,GT,37.3522293,-121.9996988,-1.071,0.0014105312,0.1,89.26837,1629837881999
Fix,GT,37.3522293,-121.9996988,-1.071,0.0019973926,0.1,89.26837,1629837882999
Fix,GT,37.3522293,-121.9996988,-1.071,2.6108623e-06,0.1,89.2684,1629837883999
Fix,GT,37.3522293,-121.9996988,-1.071,0.001,0.1,89.26819,1629837884999
Fix,GT,37.3522293,-121.9996988,-1.071,0.0010010843,0.1,89.26831,1629837885999
Fix,GT,37.3522293,-121.9996988,-1.071,0.0014105063,0.1,89.26837,1629837886999
Fix,GT,37.3522293,-121.9996988,-1.071,0.001416371,0.1,89.268555,1629837887999
Fix,GT,37.3522293,-121.9996988,-1.071,0.001003249,0.1,89.268555,1629837888999
Fix,GT,37.3522293,-121.9996988,-1.071,0.0022354466,0.1,89.2684,1629837889999
Fix,GT,37.3522293,-121.9996988,-1.071,0.002,0.1,89.268456,1629837890999
Fix,GT,37.3522293,-121.9996988,-1.071,0.002,0.1,89.26865,1629837891999
Fix,GT,37.3522293,-121.9996987,-1.073994714856148,0.13581347,0.1,89.26819,1629837892999
Fix,GT,37.3522294,-121.9996915,-1.0829973538517952,1.2836695,0.1,89.193054,1629837893999
Fix,GT,37.3522298,-121.999666,-1.1059920510053634,3.416654,0.1,89.0889,1629837894999
Fix,GT,37.3522304,-121.999612,-1.1359920400977137,6.0132065,0.1,88.97223,1629837895999
Fix,GT,37.3522314,-121.9995288,-1.1939787454605102,8.726448,0.1,89.00391,1629837896999
Fix,GT,37.3522331,-121.9994159,-1.251989358663559,11.110846,0.1,88.65613,1629837897999
Fix,GT,37.3522357,-121.9992841,-1.339973361492157,11.974131,0.1,88.612976,1629837898999
Fix,GT,37.3522378,-121.999149,-1.4199893305301663,12.020621,0.1,88.82541,1629837899999
Fix,GT,37.35224,-121.9990106,-1.4919706202745435,12.525655,0.1,88.67062,1629837900999
Fix,GT,37.3522425,-121.9988658,-1.5829786047935486,13.2140665,0.1,88.83917,1629837901999
Fix,GT,37.3522441,-121.9987124,-1.649983932495117,13.954741,0.1,89.2973,1629837902999
