MessageType,Provider,LatitudeDegrees,LongitudeDegrees,AltitudeMeters,SpeedMps,AccuracyMeters,BearingDegrees,UnixTimeMillis
Fix,GT,37.3174314,-121.9480252,12.42403036224842,0.05700434,0.1,1.8333435,1628109625449
Fix,GT,37.3174314,-121.9480259,12.359030361890794,0.05700443,0.1,1.8332214,1628109626449
Fix,GT,37.3174314,-121.9480265,12.29453578850627,0.056014553,0.1,1.8330383,1628109627449
Fix,GT,37.3174313,-121.9480271,12.230535056978464,0.05600442,0.1,1.833252,1628109628449
Fix,GT,37.3174313,-121.9480278,12.167029998660087,0.054022998,0.1,1.833313,1628109629449
Fix,GT,37.3174313,-121.9480284,12.104030000537634,0.053514402,0.1,1.8334961,1628109630449
Fix,GT,37.3174313,-121.948029,12.042030002385378,0.053009428,0.1,1.8336182,1628109631449
Fix,GT,37.3174313,-121.9480296,11.98103071886301,0.052009616,0.1,1.833435,1628109632449
Fix,GT,37.3174313,-121.9480301,11.921030005991458,0.0510194,0.1,1.833252,1628109633449
Fix,GT,37.3174313,-121.9480307,11.861030361175535,0.049525253,0.1,1.8334656,1628109634449
Fix,GT,37.3174313,-121.9480313,11.80203071281314,0.049535338,0.1,1.8326111,1628109635449
Fix,GT,37.3174313,-121.9480318,11.745524950414897,0.048561387,0.1,1.8319092,1628109636449
Fix,GT,37.3174312,-121.9480323,11.690030012160538,0.047069356,0.1,1.8319397,1628109637449
Fix,GT,37.3174246,-121.9480323,15.067363824158909,0.026925825,0.1,1.8318176,1628109638449
Fix,GT,37.3174245,-121.9480325,15.421080961227418,0.031081632,0.1,1.7922974,1628109639449
Fix,GT,37.3174278,-121.9480331,15.24359568744898,0.8350699,0.1,0.35897827,1628109640449
Fix,GT,37.3174399,-121.948038,15.060101201534271,1.6523409,0.1,351.76776,1628109641449
Fix,GT,37.3174536,-121.9480477,14.849616823971273,1.5381925,0.1,339.67273,1628109642449
Fix,GT,37.3174628,-121.9480592,14.618606696963312,1.1689821,0.1,327.37567,1628109643449
Fix,GT,37.3174683,-121.9480728,14.394605830430985,1.3938215,0.1,312.989,1628109644449
Fix,GT,37.3174786,-121.9480867,14.215565779447555,1.9353545,0.1,312.84433,1628109645449
Fix,GT,37.317497,-121.9480971,14.058576318114996,2.2306428,0.1,328.62042,1628109646449
Fix,GT,37.3175172,-121.9481009,13.868101194381715,1.9837513,0.1,344.43445,1628109647449
Fix,GT,37.3175348,-121.9481018,13.677596539735791,1.8148254,0.1,353.12964,1628109648449
Fix,GT,37.3175525,-121.9481018,13.45459572944045,2.0401049,0.1,357.78506,1628109649449
Fix,GT,37.3175748,-121.9481021,13.259050593614578,2.6254725,0.1,359.56458,1628109650449
Fix,GT,37.3176004,-121.9481019,13.061182132720948,3.311855,0.1,0.67855835,1628109651449
Fix,GT,37.3176368,-121.9481013,12.842111680477856,4.59513,0.1,1.4248657,1628109652449
Fix,GT,37.3176802,-121.9480996,12.663585621863604,4.8279676,0.1,2.053711,1628109653449
Fix,GT,37.3177217,-121.9480979,12.524060332119465,4.169135,0.1,1.8260193,1628109654449
Fix,GT,37.3177513,-121.9480976,12.427585997998715,2.3983479,0.1,0.7435913,1628109655449
Fix,GT,37.3177715,-121.9480976,12.268050585865977,2.2447233,0.1,359.78775,1628109656449
Fix,GT,37.3177923,-121.9481012,12.16189882826805,2.3340902,0.1,354.04468,1628109657449
Fix,GT,37.3178119,-121.9481135,12.015636222541332,2.5896723,0.1,338.43256,1628109658449
Fix,GT,37.3178307,-121.9481393,11.903040467739103,3.6184158,0.1,316.6507,1628109659449
Fix,GT,37.317846,-121.9481832,11.777050233244896,4.9102535,0.1,293.75775,1628109660449
Fix,GT,37.3178502,-121.9482455,11.6450708193779,6.215973,0.1,272.54767,1628109661449
Fix,GT,37.3178468,-121.9483191,11.521565760076047,6.767961,0.1,267.4775,1628109662449
Fix,GT,37.3178454,-121.9483969,11.435030351161958,6.9324465,0.1,269.1059,1628109663449
Fix,GT,37.3178451,-121.9484745,11.356535070508718,6.802657,0.1,269.7936,1628109664449
Fix,GT,37.3178451,-121.9485504,11.278525292038918,6.6581154,0.1,270.03885,1628109665449
Fix,GT,37.3178454,-121.9486245,11.204524957597258,6.475622,0.1,270.24103,1628109666449
Fix,GT,37.3178459,-121.9486961,11.160515174508095,6.218375,0.1,270.3552,1628109667449
Fix,GT,37.3178465,-121.9487646,11.116524959027767,5.9093523,0.1,270.61896,1628109668449
Fix,GT,37.3178471,-121.9488269,11.064040462970734,4.987451,0.1,270.48087,1628109669449
Fix,GT,37.317847,-121.9488746,11.041010115742685,3.5099108,0.1,269.55237,1628109670449
Fix,GT,37.3178457,-121.9489114,11.02451517379284,3.1205494,0.1,267.21173,1628109671449
Fix,GT,37.3178401,-121.9489439,11.043949092596767,2.766684,0.1,258.39597,1628109672449
Fix,GT,37.3178263,-121.9489683,11.148434249222277,2.6288571,0.1,239.14215,1628109673449
Fix,GT,37.3178026,-121.948985,11.238959203392266,3.5148726,0.1,214.7761,1628109674449
Fix,GT,37.3177654,-121.9489968,11.309969654560089,5.057644,0.1,195.1028,1628109675449
Fix,GT,37.3177142,-121.9490069,11.341474375247955,6.391185,0.1,189.28798,1628109676449
Fix,GT,37.3176543,-121.9490175,11.331545515477655,6.868704,0.1,187.59338,1628109677449
Fix,GT,37.3175934,-121.949026,11.244979436427354,6.6994267,0.1,185.76299,1628109678449
Fix,GT,37.3175344,-121.9490309,11.275484828889368,6.4293633,0.1,183.19415,1628109679449
Fix,GT,37.317478,-121.9490334,11.331969995945691,6.0972595,0.1,181.6476,1628109680449
Fix,GT,37.3174259,-121.9490342,11.393959204494951,5.4040194,0.1,180.57637,1628109681449
Fix,GT,37.3173819,-121.9490341,11.504938974648711,4.308861,0.1,179.69891,1628109682449
Fix,GT,37.3173496,-121.9490336,11.554989886403083,2.8368073,0.1,179.1947,1628109683449
Fix,GT,37.3173293,-121.9490332,11.593494943320753,1.447509,0.1,179.01837,1628109684449
Fix,GT,37.3173234,-121.9490331,11.599495289087296,0.17338285,0.1,179.09943,1628109685449
Fix,GT,37.317323,-121.9490331,11.599495289206503,0.019,0.1,179.11096,1628109686449
Fix,GT,37.317323,-121.9490331,11.602495289295913,0.0021141695,0.1,179.11108,1628109687449
Fix,GT,37.317323,-121.9490331,11.605,0.0021168403,0.1,179.11157,1628109688449
Fix,GT,37.317323,-121.9490331,11.606999654084444,0.002703856,0.1,179.11182,1628109689449
Fix,GT,37.3173223,-121.9490331,11.604,0.3649867,0.1,179.11487,1628109690449
Fix,GT,37.3173132,-121.9490333,11.623484484761953,1.699043,0.1,179.87085,1628109691449
Fix,GT,37.3172954,-121.9490388,11.61959641498327,2.0866408,0.1,189.72356,1628109692449
Fix,GT,37.3172792,-121.9490575,11.418464606583118,2.4306757,0.1,214.34378,1628109693449
Fix,GT,37.3172701,-121.9490899,11.50646426397562,3.3211575,0.1,243.59808,1628109694449
Fix,GT,37.3172689,-121.9491355,11.558989887833595,4.6229625,0.1,267.2972,1628109695449
Fix,GT,37.3172767,-121.9491964,11.53052562367916,6.0612793,0.1,278.2739,1628109696449
Fix,GT,37.3172832,-121.9492657,11.458535049945116,6.205576,0.1,276.04507,1628109697449
Fix,GT,37.3172881,-121.9493351,11.370040785968303,6.116685,0.1,274.93573,1628109698449
Fix,GT,37.3172922,-121.9493999,11.279050557851791,5.425848,0.1,274.28156,1628109699449
Fix,GT,37.3172952,-121.9494581,11.20555594742298,4.8851185,0.1,273.50388,1628109700449
Fix,GT,37.3172977,-121.9495099,11.132030333995818,4.354768,0.1,273.50897,1628109701449
Fix,GT,37.3172999,-121.9495544,11.068040775060654,3.5518153,0.1,273.5825,1628109702449
Fix,GT,37.3173018,-121.9495913,11.00804077231884,3.0479255,0.1,273.6394,1628109703449
Fix,GT,37.3173035,-121.9496236,10.964515493005514,2.698113,0.1,273.6816,1628109704449
Fix,GT,37.3173049,-121.9496513,10.924535387575627,2.2291317,0.1,273.6949,1628109705449
Fix,GT,37.3173062,-121.9496737,10.891010435163974,1.7316422,0.1,273.73807,1628109706449
Fix,GT,37.317307,-121.94969,10.861010110497476,1.1692519,0.1,273.8298,1628109707449
Fix,GT,37.3173076,-121.9497,10.846,0.60109866,0.1,273.8429,1628109708449
Fix,GT,37.3173078,-121.9497038,10.835505377978087,0.07203109,0.1,273.83868,1628109709449
Fix,GT,37.3173078,-121.9497039,10.830000322759153,0.0027038548,0.1,273.841,1628109710449
Fix,GT,37.3173078,-121.949704,10.829,0.001205013,0.1,273.838,1628109711449
Fix,GT,37.3173078,-121.949704,10.829,0.002236068,0.1,273.83704,1628109712449
Fix,GT,37.3173078,-121.949704,10.82900032272935,0.002236068,0.1,273.83688,1628109713449
Fix,GT,37.3173078,-121.949704,10.829,0.002236068,0.1,-86.16309,1628109714449
Fix,GT,37.3173078,-121.949704,10.82900032272935,0.001829295,0.1,273.83682,1628109715449
Fix,GT,37.3173078,-121.949704,10.829,0.002236068,0.1,-86.16294,1628109716449
Fix,GT,37.3173078,-121.949704,10.829,0.0014142136,0.1,273.83722,1628109717449
Fix,GT,37.3173078,-121.949704,10.829,0.0018292948,0.1,273.83716,1628109718449
Fix,GT,37.3173078,-121.949704,10.829,0.0018209869,0.1,273.8371,1628109719449
Fix,GT,37.3173078,-121.949704,10.830000322759153,0.0021192273,0.1,273.83722,1628109720449
Fix,GT,37.3173078,-121.949704,10.829999677240847,0.0022360678,0.1,273.83734,1628109721449
Fix,GT,37.3173078,-121.949704,10.829999677240847,0.0048822276,0.1,273.83563,1628109722449
Fix,GT,37.317308,-121.9497063,10.822010108470916,0.6073951,0.1,273.82877,1628109723449
Fix,GT,37.3173087,-121.9497195,10.805030647337436,1.5743327,0.1,273.92883,1628109724449
Fix,GT,37.3173099,-121.9497392,10.78251484104991,1.8105807,0.1,273.88455,1628109725449
Fix,GT,37.317311,-121.949758,10.763020216464996,1.4411947,0.1,273.9512,1628109726449
Fix,GT,37.3173118,-121.9497713,10.742009787887334,0.8837813,0.1,274.04977,1628109727449
Fix,GT,37.3173122,-121.9497775,10.726999680310488,0.21166077,0.1,274.09534,1628109728449
Fix,GT,37.3173122,-121.9497778,10.719,0.0021192273,0.1,274.09512,1628109729449
Fix,GT,37.3173122,-121.9497778,10.715999680638312,0.0036378354,0.1,274.09363,1628109730449
Fix,GT,37.3173122,-121.9497778,10.716000319361688,0.002529254,0.1,274.09412,1628109731449
Fix,GT,37.3173122,-121.9497778,10.715,0.0016242808,0.1,274.09372,1628109732449
Fix,GT,37.3173122,-121.9497778,10.714999680668114,0.0022970797,0.1,274.09372,1628109733449
Fix,GT,37.3173122,-121.9497778,10.714999680668114,0.0020702113,0.1,274.09412,1628109734449
Fix,GT,37.3173122,-121.9497778,10.715000319331883,0.0010000002,0.1,274.09442,1628109735449
Fix,GT,37.3173122,-121.9497778,10.715000319331883,0.0019234538,0.1,274.09457,1628109736449
Fix,GT,37.3173122,-121.9497778,10.714999680668114,0.0021192268,0.1,274.0946,1628109737449
Fix,GT,37.3173122,-121.9497778,10.715,0.001,0.1,274.09497,1628109738449
Fix,GT,37.3173122,-121.9497778,10.715000319331883,0.0014949467,0.1,274.0948,1628109739449
Fix,GT,37.3173122,-121.9497778,10.715000319331883,0.00049494667,0.1,274.09467,1628109740449
Fix,GT,37.3173122,-121.9497778,10.714999680668114,0.0018209878,0.1,274.09473,1628109741449
Fix,GT,37.3173122,-121.9497778,10.715,0.0021168413,0.1,274.09488,1628109742449
Fix,GT,37.3173122,-121.9497778,10.714000319302084,0.00292773,0.1,274.0948,1628109743449
Fix,GT,37.3173122,-121.9497778,10.713999680697915,0.0039208764,0.1,274.0944,1628109744449
Fix,GT,37.3173123,-121.9497795,10.704505372166633,0.58317864,0.1,274.1042,1628109745449
Fix,GT,37.3173134,-121.9497983,10.669020530551672,2.7786093,0.1,274.1029,1628109746449
Fix,GT,37.317316,-121.949841,10.6065255818367,4.793206,0.1,274.0443,1628109747449
Fix,GT,37.3173185,-121.9499094,10.524545163869856,7.4403667,0.1,272.11908,1628109748449
Fix,GT,37.317318,-121.9500049,10.434848408699036,9.377581,0.1,268.59644,1628109749449
Fix,GT,37.317314,-121.9501183,10.636888518333436,10.8813,0.1,266.9345,1628109750449
Fix,GT,37.3173067,-121.9502507,10.625586216121912,12.48208,0.1,265.6671,1628109751449
Fix,GT,37.3172971,-121.9503976,10.32348514893651,13.706087,0.1,264.9601,1628109752449
Fix,GT,37.3172846,-121.950559,10.416979789018631,14.957687,0.1,264.13147,1628109753449
Fix,GT,37.3172705,-121.9507324,10.47653505668044,16.018032,0.1,263.8723,1628109754449
Fix,GT,37.3172532,-121.9509179,10.492969684243205,16.998032,0.1,262.87137,1628109755449
Fix,GT,37.3172325,-121.9511128,10.520979476124047,17.850588,0.1,262.0184,1628109756449
Fix,GT,37.3172089,-121.9513168,10.554504737913607,18.676643,0.1,261.53125,1628109757449
Fix,GT,37.317185,-121.9515299,10.564020209550858,19.460182,0.1,262.25427,1628109758449
Fix,GT,37.3171621,-121.95175,10.558454215317964,19.864738,0.1,262.40848,1628109759449
Fix,GT,37.3171376,-121.9519745,10.50952526074648,20.31818,0.1,262.05618,1628109760449
Fix,GT,37.3171122,-121.952204,10.485505052030089,20.670477,0.1,262.00934,1628109761449
Fix,GT,37.3170868,-121.9524344,10.428555261045696,20.592346,0.1,262.1429,1628109762449
Fix,GT,37.3170613,-121.9526659,10.373030311465262,20.841286,0.1,261.9685,1628109763449
Fix,GT,37.3170351,-121.9529003,10.335525259256364,21.113045,0.1,261.9254,1628109764449
Fix,GT,37.3170083,-121.9531376,10.297070724248886,21.397831,0.1,261.8695,1628109765449
Fix,GT,37.3169815,-121.9533783,10.258989896655082,21.676802,0.1,262.1286,1628109766449
Fix,GT,37.3169552,-121.9536224,10.163010103225709,21.966476,0.1,262.22815,1628109767449
Fix,GT,37.3169289,-121.9538691,10.28235319980979,22.166428,0.1,262.35657,1628109768449
Fix,GT,37.3169025,-121.9541184,10.37645453709364,22.422932,0.1,262.21613,1628109769449
Fix,GT,37.3168742,-121.9543708,10.502343407392502,22.750217,0.1,261.6548,1628109770449
Fix,GT,37.3168438,-121.9546267,10.572383505702016,23.126316,0.1,261.1454,1628109771449
Fix,GT,37.3168116,-121.9548864,10.63246432507038,23.458355,0.1,261.07593,1628109772449
Fix,GT,37.3167801,-121.95515,10.711444119423629,23.783043,0.1,261.846,1628109773449
Fix,GT,37.316752,-121.9554182,10.75348484712839,24.185108,0.1,263.06757,1628109774449
Fix,GT,37.316728,-121.9556917,10.791464965432883,24.577068,0.1,263.926,1628109775449
Fix,GT,37.316706,-121.9559699,10.83850537377596,25.001844,0.1,264.54462,1628109776449
Fix,GT,37.3166854,-121.9562532,10.891939067304133,25.411137,0.1,264.84067,1628109777449
Fix,GT,37.3166657,-121.9565411,10.932990224540234,25.818493,0.1,265.2917,1628109778449
Fix,GT,37.3166482,-121.9568322,11.007474419176578,25.820005,0.1,265.85974,1628109779449
Fix,GT,37.3166328,-121.9571222,11.030989570379257,25.708134,0.1,266.3624,1628109780449
Fix,GT,37.3166198,-121.9574116,11.069909424751998,25.73439,0.1,266.9949,1628109781449
Fix,GT,37.3166096,-121.9577025,11.10197946834564,25.930668,0.1,267.91327,1628109782449
Fix,GT,37.3166029,-121.9579968,11.11452491915226,26.3106,0.1,268.58817,1628109783449
Fix,GT,37.3165989,-121.9582961,11.1815353500247,26.730835,0.1,269.23914,1628109784449
Fix,GT,37.3165977,-121.9585994,11.209970034509896,27.01989,0.1,270.02914,1628109785449
Fix,GT,37.3165996,-121.9589052,11.27547475117445,27.176636,0.1,270.53333,1628109786449
Fix,GT,37.3166033,-121.9592129,11.307525585442782,27.440083,0.1,270.92743,1628109787449
Fix,GT,37.3166083,-121.9595247,11.322444454550745,27.839579,0.1,271.01175,1628109788449
Fix,GT,37.316613,-121.9598408,11.327565980464218,28.18774,0.1,270.94675,1628109789449
Fix,GT,37.3166182,-121.9601596,11.431979802608488,28.30761,0.1,271.15704,1628109790449
Fix,GT,37.3166239,-121.9604788,11.54439396494627,28.291542,0.1,271.15717,1628109791449
Fix,GT,37.3166292,-121.9607978,11.849252590715883,28.294172,0.1,270.8715,1628109792449
Fix,GT,37.3166332,-121.9611172,12.34070715510845,28.32249,0.1,270.77405,1628109793449
Fix,GT,37.3166373,-121.9614349,13.020676868438722,28.008282,0.1,270.8486,1628109794449
Fix,GT,37.3166416,-121.9617491,13.805636489868164,27.726973,0.1,270.8271,1628109795449
Fix,GT,37.3166459,-121.9620607,14.518131449818611,27.527218,0.1,270.95908,1628109796449
Fix,GT,37.3166505,-121.9623702,15.222131467223168,27.364176,0.1,271.05212,1628109797449
Fix,GT,37.3166556,-121.962678,15.921586517184974,27.208559,0.1,271.13782,1628109798449
Fix,GT,37.3166606,-121.9629842,16.533837969601155,27.093597,0.1,270.98813,1628109799449
Fix,GT,37.3166643,-121.9632892,16.92229354032874,26.985989,0.1,270.60638,1628109800449
Fix,GT,37.3166662,-121.963593,17.353262241214512,26.918606,0.1,270.26093,1628109801449
Fix,GT,37.3166664,-121.9638971,17.567859192311765,26.988087,0.1,269.695,1628109802449
Fix,GT,37.3166641,-121.9642021,17.58652471256256,27.089064,0.1,269.1062,1628109803449
Fix,GT,37.3166591,-121.964508,17.533201888084413,27.163311,0.1,268.43048,1628109804449
Fix,GT,37.3166508,-121.9648151,17.433524715334176,27.340405,0.1,267.59418,1628109805449
Fix,GT,37.3166398,-121.9651245,17.230687246203424,27.553463,0.1,267.22937,1628109806449
Fix,GT,37.3166279,-121.9654364,16.78625233328342,27.832119,0.1,267.26877,1628109807449
Fix,GT,37.3166175,-121.9657519,16.23977707362175,28.137508,0.1,267.70044,1628109808449
Fix,GT,37.3166079,-121.9660707,15.707767460644243,28.433157,0.1,267.69708,1628109809449
Fix,GT,37.3165975,-121.9663926,15.11233305633068,28.616756,0.1,267.51068,1628109810449
Fix,GT,37.3165869,-121.9667149,14.420373422384262,28.564415,0.1,267.5558,1628109811449
Fix,GT,37.3165763,-121.9670363,13.636857869833708,28.453892,0.1,267.44513,1628109812449
Fix,GT,37.3165651,-121.9673563,13.0047977181077,28.305248,0.1,267.314,1628109813449
Fix,GT,37.3165534,-121.9676741,12.568656424462796,28.090109,0.1,267.23187,1628109814449
Fix,GT,37.3165414,-121.9679891,12.33206054997444,27.81265,0.1,267.27472,1628109815449
Fix,GT,37.3165324,-121.9683009,12.27396936020255,27.479454,0.1,268.6043,1628109816449
Fix,GT,37.3165309,-121.9686088,12.354454589664936,27.10661,0.1,270.54684,1628109817449
Fix,GT,37.3165368,-121.9689124,12.423464311748742,26.729252,0.1,272.0722,1628109818449
Fix,GT,37.3165484,-121.9692115,12.469494954645633,26.354347,0.1,273.1586,1628109819449
Fix,GT,37.3165624,-121.9695065,12.485949547052382,26.021288,0.1,273.06403,1628109820449
Fix,GT,37.3165757,-121.9697977,12.51460557603836,25.69235,0.1,273.14807,1628109821449
Fix,GT,37.3165869,-121.9700854,12.444020180463792,25.377995,0.1,272.40244,1628109822449
Fix,GT,37.3165958,-121.9703693,12.403970099419356,24.96526,0.1,272.00168,1628109823449
Fix,GT,37.3166043,-121.9706482,12.36451476636529,24.499878,0.1,272.27563,1628109824449
Fix,GT,37.316616,-121.9709215,12.2980702611506,24.0405,0.1,273.82697,1628109825449
Fix,GT,37.3166353,-121.9711899,12.165545765787362,23.701069,0.1,275.95758,1628109826449
Fix,GT,37.3166609,-121.9714531,12.016565580308438,23.339325,0.1,277.59827,1628109827449
Fix,GT,37.3166923,-121.9717117,11.790141599178314,23.00224,0.1,279.42957,1628109828449
Fix,GT,37.3167298,-121.9719629,11.480717253297566,22.24215,0.1,281.41495,1628109829449
Fix,GT,37.3167758,-121.9722035,11.053261977106333,21.724346,0.1,285.11282,1628109830449
Fix,GT,37.3168325,-121.9724373,10.492848055422304,21.599491,0.1,288.30145,1628109831449
Fix,GT,37.3169007,-121.9726648,9.976201766490936,21.468575,0.1,292.25885,1628109832449
Fix,GT,37.3169794,-121.9728848,9.769666453421117,21.274609,0.1,295.22562,1628109833449
Fix,GT,37.3170647,-121.9730991,9.839293199121952,21.106575,0.1,296.86435,1628109834449
Fix,GT,37.3171499,-121.9733093,10.2837074662447,20.652485,0.1,296.9662,1628109835449
Fix,GT,37.3172336,-121.9735126,10.89269738960266,19.762825,0.1,297.32953,1628109836449
Fix,GT,37.3173121,-121.9737037,11.47770782646537,18.2748,0.1,296.6057,1628109837449
Fix,GT,37.3173815,-121.9738786,12.017232709944247,16.201815,0.1,296.22565,1628109838449
Fix,GT,37.3174414,-121.9740257,12.478384008944037,13.097011,0.1,298.3799,1628109839449
Fix,GT,37.3175016,-121.974139,12.684969742536545,11.202396,0.1,307.61307,1628109840449
Fix,GT,37.3175738,-121.9742212,12.723515507519243,10.53149,0.1,323.88437,1628109841449
Fix,GT,37.3176589,-121.9742689,12.690070595741272,10.185711,0.1,342.84497,1628109842449
Fix,GT,37.3177493,-121.9742689,12.60001008474827,9.994305,0.1,8.567688,1628109843449
Fix,GT,37.3178352,-121.9742307,12.556009710222485,10.080603,0.1,22.418457,1628109844449
Fix,GT,37.3179144,-121.9741949,12.580010459035636,8.6395855,0.1,16.147034,1628109845449
Fix,GT,37.3179871,-121.9741831,12.594999624639753,7.7310977,0.1,4.867737,1628109846449
Fix,GT,37.3180526,-121.9741769,12.607030625939368,6.920209,0.1,5.3334045,1628109847449
Fix,GT,37.3181093,-121.9741626,12.597505417019129,5.8613157,0.1,13.663544,1628109848449
Fix,GT,37.3181542,-121.9741402,12.540535289525987,4.8287587,0.1,23.014404,1628109849449
Fix,GT,37.3181861,-121.9741165,12.487525206208227,3.2378747,0.1,30.408691,1628109850449
Fix,GT,37.318204,-121.9741016,12.459010082244871,1.575074,0.1,32.618774,1628109851449
Fix,GT,37.3182106,-121.9740963,12.444999629110098,0.35369357,0.1,32.63733,1628109852449
Fix,GT,37.3182114,-121.9740957,12.438494588524105,0.004566728,0.1,32.63214,1628109853449
Fix,GT,37.3182114,-121.9740957,12.437,0.001,0.1,32.63202,1628109854449
Fix,GT,37.3182114,-121.9740957,12.437,0.00049495953,0.1,32.63098,1628109855449
Fix,GT,37.3182114,-121.9740957,12.436999629348517,0.0006999787,0.1,32.63144,1628109856449
Fix,GT,37.3182114,-121.9740957,12.436999629348517,0.001205019,0.1,32.631348,1628109857449
Fix,GT,37.3182114,-121.9740957,12.436999629348517,0.0012050191,0.1,32.63138,1628109858449
Fix,GT,37.3182114,-121.9740957,12.437,0.001,0.1,32.63138,1628109859449
Fix,GT,37.3182114,-121.9740957,12.437,0.001,0.1,32.63138,1628109860449
Fix,GT,37.3182114,-121.9740957,12.437,0.001,0.1,32.631165,1628109861449
Fix,GT,37.3182114,-121.9740957,12.436999629348517,0.0012050194,0.1,32.63147,1628109862449
Fix,GT,37.3182114,-121.9740957,12.436999629348517,0.0012050194,0.1,32.631836,1628109863449
Fix,GT,37.3182114,-121.9740957,12.437000370651482,0.001,0.1,32.63141,1628109864449
Fix,GT,37.3182114,-121.9740957,12.436999629348517,0.0009999999,0.1,32.6315,1628109865449
Fix,GT,37.3182114,-121.9740957,12.436999629348517,0.0012050195,0.1,32.631226,1628109866449
Fix,GT,37.3182114,-121.9740957,12.436999629348517,0.001209194,0.1,32.63092,1628109867449
Fix,GT,37.3182114,-121.9740957,12.436999629348517,0.0025352323,0.1,32.63257,1628109868449
Fix,GT,37.3182114,-121.9740957,12.436999629348517,0.0012091938,0.1,32.63138,1628109869449
Fix,GT,37.3182114,-121.9740957,12.437000370651482,0.0006999813,0.1,32.631805,1628109870449
Fix,GT,37.3182114,-121.9740957,12.437000370651482,0.0004949617,0.1,32.631348,1628109871449
Fix,GT,37.3182114,-121.9740957,12.437000370651482,0.0,0.1,32.63092,1628109872449
Fix,GT,37.3182114,-121.9740957,12.437,0.0,0.1,32.630676,1628109873449
Fix,GT,37.3182114,-121.9740957,12.437,0.00049496203,0.1,32.63138,1628109874449
Fix,GT,37.3182114,-121.9740957,12.436999629348517,0.0005050378,0.1,32.631317,1628109875449
Fix,GT,37.3182114,-121.9740957,12.437,0.001,0.1,32.631256,1628109876449
Fix,GT,37.3182114,-121.9740957,12.437,0.0018210006,0.1,32.630676,1628109877449
Fix,GT,37.3182114,-121.9740957,12.437,0.0014142136,0.1,32.63092,1628109878449
Fix,GT,37.3182114,-121.9740957,12.437000370651482,0.0012050202,0.1,32.6315,1628109879449
Fix,GT,37.3182114,-121.9740957,12.437,0.0014142136,0.1,32.631165,1628109880449
Fix,GT,37.3182114,-121.9740957,12.437,0.002236068,0.1,32.63144,1628109881449
Fix,GT,37.3182114,-121.9740957,12.437,0.002529264,0.1,32.63147,1628109882449
Fix,GT,37.3182114,-121.9740957,12.437,0.002236068,0.1,32.631134,1628109883449
Fix,GT,37.3182114,-121.9740957,12.437,0.0026945076,0.1,32.631653,1628109884449
Fix,GT,37.3182114,-121.9740957,12.437,0.0025352312,0.1,32.631897,1628109885449
Fix,GT,37.3182114,-121.9740957,12.437000370651482,0.0021192231,0.1,32.631256,1628109886449
Fix,GT,37.3182114,-121.9740957,12.437000370651482,0.0011292959,0.1,32.63205,1628109887449
Fix,GT,37.3182114,-121.9740957,12.437,0.0012050207,0.1,32.631256,1628109888449
Fix,GT,37.3182114,-121.9740957,12.437,0.001,0.1,32.63147,1628109889449
Fix,GT,37.3182114,-121.9740957,12.437,0.001,0.1,32.63138,1628109890449
Fix,GT,37.3182114,-121.9740957,12.437,0.0017041569,0.1,32.6315,1628109891449
Fix,GT,37.3182114,-121.9740957,12.436999629348517,0.0012050208,0.1,32.631653,1628109892449
Fix,GT,37.3182114,-121.9740957,12.437000370651482,0.0014142136,0.1,32.63202,1628109893449
Fix,GT,37.3182114,-121.9740957,12.437,0.0012050209,0.1,32.63205,1628109894449
Fix,GT,37.3182114,-121.9740957,12.437,0.001,0.1,32.631958,1628109895449
Fix,GT,37.3182114,-121.9740957,12.436999629348517,0.001,0.1,32.631226,1628109896449
Fix,GT,37.3182114,-121.9740957,12.436999629348517,0.001,0.1,32.631104,1628109897449
Fix,GT,37.3182114,-121.9740957,12.437000370651482,0.0014142136,0.1,32.631287,1628109898449
Fix,GT,37.3182114,-121.9740957,12.436999629348517,0.0009999999,0.1,32.631348,1628109899449
Fix,GT,37.3182114,-121.9740957,12.436999629348517,0.0009999999,0.1,32.631287,1628109900449
Fix,GT,37.3182114,-121.9740957,12.437000370651482,0.0,0.1,32.6308,1628109901449
Fix,GT,37.3182114,-121.9740957,12.437000370651482,0.000699986,0.1,32.63086,1628109902449
Fix,GT,37.3182114,-121.9740957,12.437,0.001,0.1,32.631104,1628109903449
Fix,GT,37.3182114,-121.9740957,12.436999629348517,0.0005050349,0.1,32.631195,1628109904449
Fix,GT,37.3182114,-121.9740957,12.437000370651482,0.0,0.1,32.63147,1628109905449
Fix,GT,37.3182114,-121.9740957,12.436999629348517,0.0004949652,0.1,32.631195,1628109906449
Fix,GT,37.3182114,-121.9740957,12.437,0.0012091923,0.1,32.631134,1628109907449
Fix,GT,37.3182114,-121.9740957,12.437,0.001,0.1,32.63208,1628109908449
Fix,GT,37.3182114,-121.9740957,12.436999629348517,0.0004949654,0.1,32.631714,1628109909449
Fix,GT,37.3182114,-121.9740957,12.437,0.0012091922,0.1,32.63138,1628109910449
Fix,GT,37.3182114,-121.9740957,12.437,0.002,0.1,32.631714,1628109911449
Fix,GT,37.3182114,-121.9740957,12.436999629348517,0.0009999999,0.1,32.631744,1628109912449
Fix,GT,37.3182114,-121.9740957,12.437,0.0012050215,0.1,32.631744,1628109913449
Fix,GT,37.3182114,-121.9740957,12.436999629348517,0.001209192,0.1,32.63144,1628109914449
Fix,GT,37.3182114,-121.9740957,12.437,0.001,0.1,32.631775,1628109915449
Fix,GT,37.3182114,-121.9740957,12.437,0.001,0.1,32.631866,1628109916449
Fix,GT,37.3182114,-121.9740957,12.437,0.001,0.1,32.631866,1628109917449
Fix,GT,37.3182114,-121.9740957,12.437,0.001,0.1,32.631714,1628109918449
Fix,GT,37.3182114,-121.9740957,12.437,0.001209192,0.1,32.631622,1628109919449
Fix,GT,37.3182114,-121.9740957,12.437,0.0018210036,0.1,32.631897,1628109920449
Fix,GT,37.3182114,-121.9740957,12.437,0.0012050217,0.1,32.63205,1628109921449
Fix,GT,37.3182114,-121.9740957,12.437,0.0012091919,0.1,32.632202,1628109922449
Fix,GT,37.3182114,-121.9740957,12.437,0.0012050217,0.1,32.632233,1628109923449
Fix,GT,37.3182114,-121.9740957,12.436999629348517,0.0022360678,0.1,32.63211,1628109924449
Fix,GT,37.3182114,-121.9740957,12.437,0.002236068,0.1,32.632324,1628109925449
Fix,GT,37.3182114,-121.9740957,12.436999629348517,0.0022360678,0.1,32.632233,1628109926449
Fix,GT,37.3182114,-121.9740957,12.437,0.0018210039,0.1,32.6326,1628109927449
Fix,GT,37.3182114,-121.9740957,12.437,0.0014142136,0.1,32.63217,1628109928449
Fix,GT,37.3182114,-121.9740957,12.436999629348517,0.002236068,0.1,32.63214,1628109929449
Fix,GT,37.3182114,-121.9740957,12.437,0.002236068,0.1,32.632324,1628109930449
Fix,GT,37.3182114,-121.9740957,12.436999629348517,0.0022360678,0.1,32.632324,1628109931449
Fix,GT,37.3182114,-121.9740957,12.436999629348517,0.002,0.1,32.632385,1628109932449
Fix,GT,37.3182114,-121.9740957,12.437,0.0016118125,0.1,32.632324,1628109933449
Fix,GT,37.3182114,-121.9740957,12.436999629348517,0.0022360678,0.1,32.632507,1628109934449
Fix,GT,37.3182114,-121.9740957,12.436999629348517,0.002236068,0.1,32.632355,1628109935449
Fix,GT,37.3182114,-121.9740957,12.437000370651482,0.002116846,0.1,32.63269,1628109936449
Fix,GT,37.3182114,-121.9740957,12.437000370651482,0.002236068,0.1,32.63324,1628109937449
Fix,GT,37.3182114,-121.9740957,12.436999629348517,0.0018210044,0.1,32.63336,1628109938449
Fix,GT,37.3182114,-121.9740957,12.437,0.0012091915,0.1,32.633423,1628109939449
Fix,GT,37.3182114,-121.9740957,12.437,0.0014949675,0.1,32.63333,1628109940449
Fix,GT,37.3182114,-121.9740957,12.436999629348517,0.0009999999,0.1,32.633514,1628109941449
Fix,GT,37.3182114,-121.9740957,12.437,0.001704159,0.1,32.633545,1628109942449
Fix,GT,37.3182114,-121.9740957,12.436999629348517,0.0016118137,0.1,32.63376,1628109943449
Fix,GT,37.3182114,-121.9740957,12.437,0.001,0.1,32.633514,1628109944449
Fix,GT,37.3182114,-121.9740957,12.437000370651482,0.0014142136,0.1,32.63376,1628109945449
Fix,GT,37.3182114,-121.9740957,12.437000370651482,0.0014142136,0.1,32.634033,1628109946449
Fix,GT,37.3182114,-121.9740957,12.437000370651482,0.0014142136,0.1,32.63379,1628109947449
Fix,GT,37.3182114,-121.9740957,12.437,0.001,0.1,32.63394,1628109948449
Fix,GT,37.3182114,-121.9740957,12.437,0.001,0.1,32.63385,1628109949449
Fix,GT,37.3182114,-121.9740957,12.436999629348517,0.001209191,0.1,32.63382,1628109950449
Fix,GT,37.3182114,-121.9740957,12.437000370651482,0.0014142136,0.1,32.633453,1628109951449
Fix,GT,37.3182114,-121.9740957,12.437,0.0018292763,0.1,32.634064,1628109952449
Fix,GT,37.3182114,-121.9740957,12.437,0.0014142136,0.1,32.633972,1628109953449
Fix,GT,37.3182114,-121.9740957,12.436999629348517,0.0018292763,0.1,32.633972,1628109954449
Fix,GT,37.3182114,-121.9740957,12.437000370651482,0.0018292763,0.1,32.634216,1628109955449
Fix,GT,37.3182114,-121.9740957,12.437,0.001,0.1,32.634247,1628109956449
Fix,GT,37.3182114,-121.9740957,12.436999629348517,0.0009999999,0.1,32.634216,1628109957449
Fix,GT,37.3182114,-121.9740957,12.437000370651482,0.0014142136,0.1,32.634308,1628109958449
Fix,GT,37.3182114,-121.9740957,12.437,0.0014142136,0.1,32.634247,1628109959449
Fix,GT,37.3182114,-121.9740957,12.437000370651482,0.0014142136,0.1,32.634155,1628109960449
Fix,GT,37.3182114,-121.9740957,12.437000370651482,0.001,0.1,32.634125,1628109961449
Fix,GT,37.3182114,-121.9740957,12.437,0.001,0.1,32.634094,1628109962449
Fix,GT,37.3182114,-121.9740957,12.437,0.0021168464,0.1,32.634613,1628109963449
Fix,GT,37.3182114,-121.9740957,12.437,0.0012050227,0.1,32.63449,1628109964449
Fix,GT,37.3182114,-121.9740957,12.437,0.0012050227,0.1,32.63449,1628109965449
Fix,GT,37.3182114,-121.9740957,12.437,0.001,0.1,32.63452,1628109966449
Fix,GT,37.3182114,-121.9740957,12.437000370651482,0.0014142136,0.1,32.63446,1628109967449
Fix,GT,37.3182114,-121.9740957,12.437,0.0014142136,0.1,32.63452,1628109968449
Fix,GT,37.3182117,-121.9740955,12.429515094578266,0.2589388,0.1,32.638947,1628109969449
Fix,GT,37.3182189,-121.9740891,12.412505031347276,1.9016414,0.1,33.533173,1628109970449
Fix,GT,37.3182386,-121.9740728,12.39702012515068,2.9418864,0.1,33.12799,1628109971449
Fix,GT,37.3182633,-121.9740634,12.38001006257534,2.7448096,0.1,18.02295,1628109972449
Fix,GT,37.3182861,-121.9740755,12.341505031228063,2.5943036,0.1,345.4283,1628109973449
Fix,GT,37.3183,-121.9741025,12.284545647025109,2.8853483,0.1,310.98914,1628109974449
Fix,GT,37.3182983,-121.9741385,12.228515093505385,3.2663326,0.1,272.2075,1628109975449
Fix,GT,37.3182763,-121.9741705,12.200020487964151,4.28221,0.1,232.0969,1628109976449
Fix,GT,37.3182335,-121.9741961,12.235464783072471,6.3255153,0.1,204.80359,1628109977449
Fix,GT,37.3181722,-121.9742257,12.339444660425189,8.15873,0.1,201.78706,1628109978449
Fix,GT,37.3181003,-121.9742667,12.473979876756667,9.329296,0.1,205.90399,1628109979449
Fix,GT,37.3180208,-121.974319,12.59893963098526,10.5102825,0.1,208.23201,1628109980449
Fix,GT,37.3179363,-121.9743804,12.721959753990172,11.068329,0.1,210.98924,1628109981449
Fix,GT,37.3178519,-121.9744474,12.812979877471925,11.168593,0.1,212.96388,1628109982449
Fix,GT,37.3177655,-121.9745193,12.9004551089108,11.847837,0.1,213.63779,1628109983449
Fix,GT,37.3176767,-121.9745938,13.010969816565511,11.758834,0.1,213.75885,1628109984449
Fix,GT,37.3175896,-121.9746663,13.106424541413784,11.49994,0.1,212.91429,1628109985449
Fix,GT,37.3174998,-121.974732,13.054404809594152,11.717941,0.1,208.13745,1628109986449
Fix,GT,37.3174036,-121.9747924,13.183414483308791,12.166132,0.1,206.98341,1628109987449
Fix,GT,37.3173067,-121.9748613,13.306949696063995,12.486801,0.1,210.98094,1628109988449
Fix,GT,37.3172127,-121.9749368,13.400424544990065,12.242575,0.1,213.37173,1628109989449
Fix,GT,37.3171228,-121.9750133,13.483989939451217,11.870443,0.1,214.49542,1628109990449
Fix,GT,37.3170369,-121.9750882,13.561939636707304,11.262159,0.1,214.68091,1628109991449
Fix,GT,37.3169589,-121.9751542,13.666475255995987,9.447654,0.1,212.8945,1628109992449
Fix,GT,37.3168897,-121.9751956,13.77083903503418,7.8541536,0.1,200.26294,1628109993449
Fix,GT,37.3168215,-121.9752032,13.87,7.513784,0.1,179.07869,1628109994449
Fix,GT,37.3167591,-121.975175,13.867495383143426,7.530423,0.1,153.73181,1628109995449
Fix,GT,37.3167091,-121.9751114,13.643484503239392,8.586498,0.1,127.83508,1628109996449
Fix,GT,37.3166754,-121.9750167,13.801919519424438,10.008589,0.1,110.51947,1628109997449
Fix,GT,37.3166475,-121.9748991,13.99489898428321,11.808675,0.1,105.28772,1628109998449
Fix,GT,37.3166181,-121.9747595,14.163414491415024,13.820356,0.1,104.387695,1628109999449
Fix,GT,37.3165859,-121.9745967,14.234525149583815,15.837562,0.1,103.61627,1628110000449
Fix,GT,37.3165509,-121.9744149,14.175555751383303,17.192734,0.1,103.41257,1628110001449
Fix,GT,37.316514,-121.9742218,14.06702975964546,17.957088,0.1,103.34396,1628110002449
Fix,GT,37.3164748,-121.9740209,13.94956497183442,18.719913,0.1,103.86496,1628110003449
Fix,GT,37.3164331,-121.9738106,13.837525148987767,19.792671,0.1,103.96173,1628110004449
Fix,GT,37.3163892,-121.9735876,13.76452514898777,20.706404,0.1,103.60477,1628110005449
Fix,GT,37.3163468,-121.9733602,13.690555327773094,20.663445,0.1,102.713684,1628110006449
Fix,GT,37.316309,-121.9731327,13.550030178785324,20.509912,0.1,100.81616,1628110007449
Fix,GT,37.3162783,-121.9729061,13.435080476760865,20.232311,0.1,98.81073,1628110008449
Fix,GT,37.316254,-121.9726819,13.330060357570648,19.866907,0.1,97.05914,1628110009449
Fix,GT,37.3162341,-121.972461,13.199515482723712,19.579445,0.1,95.95273,1628110010449
Fix,GT,37.3162176,-121.9722428,13.163979880809784,19.314255,0.1,94.98602,1628110011449
Fix,GT,37.3162041,-121.9720264,13.256344471812248,19.16014,0.1,93.99893,1628110012449
Fix,GT,37.3161913,-121.9718118,13.460435013979671,18.998253,0.1,94.45456,1628110013449
Fix,GT,37.3161777,-121.9715986,13.614435018569232,19.008085,0.1,94.71625,1628110014449
Fix,GT,37.3161634,-121.9713831,13.74294005218148,19.379078,0.1,94.78027,1628110015449
Fix,GT,37.3161492,-121.9711621,13.843940055191515,19.916943,0.1,94.39673,1628110016449
Fix,GT,37.3161363,-121.9709349,13.929970236450432,20.473755,0.1,93.713165,1628110017449
Fix,GT,37.3161258,-121.9707007,13.958030594676732,21.147041,0.1,92.809265,1628110018449
Fix,GT,37.3161183,-121.9704584,13.927544852167369,21.872972,0.1,91.623535,1628110019449
Fix,GT,37.3161159,-121.9702061,13.85002976539731,22.886023,0.1,89.9787,1628110020449
Fix,GT,37.3161182,-121.9699419,13.699545267105105,23.9378,0.1,88.80182,1628110021449
Fix,GT,37.3161247,-121.9696669,13.378221703886986,24.87989,0.1,87.76773,1628110022449
Fix,GT,37.3161348,-121.9693811,12.909756123542786,25.831562,0.1,87.23334,1628110023449
Fix,GT,37.3161453,-121.9690849,12.529615306794645,26.719536,0.1,87.46356,1628110024449
Fix,GT,37.3161546,-121.9687792,12.355080472946169,27.49855,0.1,87.854126,1628110025449
Fix,GT,37.3161636,-121.9684649,12.237575443387032,28.226154,0.1,87.84894,1628110026449
Fix,GT,37.3161729,-121.9681429,12.170000362694264,28.89977,0.1,87.70004,1628110027449
Fix,GT,37.3161836,-121.9678136,12.291879657268524,29.408955,0.1,87.52637,1628110028449
Fix,GT,37.3161944,-121.9674826,12.60476826941967,29.346256,0.1,87.60443,1628110029449
Fix,GT,37.3162051,-121.9671518,13.135223380804064,29.343393,0.1,87.58078,1628110030449
Fix,GT,37.3162157,-121.966821,13.838113146692514,29.320219,0.1,87.64865,1628110031449
Fix,GT,37.3162257,-121.9664917,14.612142481684684,29.106041,0.1,87.763794,1628110032449
Fix,GT,37.3162351,-121.9661655,15.297222937196493,28.729813,0.1,87.89874,1628110033449
Fix,GT,37.3162441,-121.9658433,15.836768184065818,28.440775,0.1,87.81824,1628110034449
Fix,GT,37.3162535,-121.9655237,16.248798831939695,28.281225,0.1,87.68646,1628110035449
Fix,GT,37.3162637,-121.9652056,16.612838573783637,28.169186,0.1,87.60327,1628110036449
Fix,GT,37.3162739,-121.9648884,16.867394389271738,28.101173,0.1,87.58948,1628110037449
Fix,GT,37.3162834,-121.9645732,17.04140495559573,27.801428,0.1,88.06354,1628110038449
Fix,GT,37.3162904,-121.9642611,17.215899934113025,27.640602,0.1,88.40277,1628110039449
Fix,GT,37.3162962,-121.9639483,17.177565888255835,27.866337,0.1,89.22067,1628110040449
Fix,GT,37.3162976,-121.9636323,16.996040738105776,28.151022,0.1,90.05954,1628110041449
Fix,GT,37.3162947,-121.9633131,16.61117098069191,28.427742,0.1,90.83774,1628110042449
Fix,GT,37.3162903,-121.9629911,16.274231811136005,28.676796,0.1,91.00806,1628110043449
Fix,GT,37.3162852,-121.962666,15.709836457371711,28.968042,0.1,91.09155,1628110044449
Fix,GT,37.3162801,-121.9623377,15.138766072034835,29.232391,0.1,90.872955,1628110045449
Fix,GT,37.3162763,-121.9620067,14.460372555464506,29.454702,0.1,90.74814,1628110046449
Fix,GT,37.3162723,-121.9616729,13.632917789191008,29.750967,0.1,90.73041,1628110047449
Fix,GT,37.3162681,-121.9613354,12.80392705115676,30.07457,0.1,90.80142,1628110048449
Fix,GT,37.3162638,-121.9609944,12.144736341655252,30.37004,0.1,90.697205,1628110049449
Fix,GT,37.3162609,-121.9606506,11.69165553510189,30.58458,0.1,90.45944,1628110050449
Fix,GT,37.3162573,-121.9603046,11.43506000122428,30.775234,0.1,90.84668,1628110051449
Fix,GT,37.3162522,-121.9599562,11.401979886054992,30.986044,0.1,91.06604,1628110052449
Fix,GT,37.316247,-121.9596061,11.560969485163689,31.050043,0.1,90.92029,1628110053449
Fix,GT,37.3162426,-121.9592568,11.735414167761803,30.82595,0.1,90.81824,1628110054449
Fix,GT,37.3162391,-121.9589112,11.829949716925622,30.447563,0.1,90.572815,1628110055449
Fix,GT,37.3162382,-121.9585697,11.834009703844783,30.088467,0.1,89.645325,1628110056449
Fix,GT,37.3162414,-121.9582323,11.777020112752917,29.754177,0.1,89.02832,1628110057449
Fix,GT,37.3162467,-121.9578985,11.734515084385873,29.41883,0.1,88.5184,1628110058449
Fix,GT,37.3162554,-121.9575688,11.715474859952929,29.073292,0.1,87.59094,1628110059449
Fix,GT,37.3162679,-121.9572432,11.651080448150635,28.725832,0.1,86.89557,1628110060449
Fix,GT,37.3162831,-121.9569217,11.60907038962841,28.38332,0.1,86.32416,1628110061449
Fix,GT,37.3163004,-121.9566041,11.581010055541991,28.048435,0.1,85.78464,1628110062449
Fix,GT,37.3163205,-121.9562905,11.472635746598243,27.726562,0.1,84.91467,1628110063449
Fix,GT,37.316343,-121.9559806,11.227625354081392,27.458408,0.1,84.60379,1628110064449
Fix,GT,37.3163663,-121.9556737,11.009090494513512,27.183037,0.1,84.488434,1628110065449
Fix,GT,37.3163883,-121.9553699,10.813545246183873,26.893719,0.1,85.009094,1628110066449
Fix,GT,37.3164075,-121.9550693,10.730010054588318,26.562206,0.1,85.83099,1628110067449
Fix,GT,37.3164213,-121.9547721,10.687009735882285,26.223124,0.1,87.18176,1628110068449
Fix,GT,37.3164302,-121.9544784,10.63257572248578,25.88145,0.1,88.215576,1628110069449
Fix,GT,37.3164355,-121.9541883,10.544030161976814,25.55261,0.1,88.880554,1628110070449
Fix,GT,37.3164401,-121.9539017,10.350575712293386,25.267239,0.1,88.798096,1628110071449
Fix,GT,37.3164443,-121.9536188,10.397394126653673,24.85881,0.1,88.737274,1628110072449
Fix,GT,37.3164491,-121.9533415,10.50644470566511,24.285076,0.1,88.605774,1628110073449
Fix,GT,37.3164543,-121.9530721,10.662959468513728,23.47549,0.1,88.40109,1628110074449
Fix,GT,37.3164596,-121.9528141,10.790899467229844,22.181011,0.1,88.50873,1628110075449
Fix,GT,37.3164637,-121.9525722,10.92542460221052,20.665005,0.1,88.72534,1628110076449
Fix,GT,37.3164672,-121.9523503,11.083454762399196,18.6716,0.1,88.70856,1628110077449
Fix,GT,37.3164713,-121.9521493,11.18996984231472,16.787382,0.1,88.54654,1628110078449
Fix,GT,37.3164733,-121.9519731,11.278969506442548,14.503481,0.1,89.72461,1628110079449
Fix,GT,37.3164692,-121.9518245,11.326515078485013,11.872601,0.1,94.32196,1628110080449
Fix,GT,37.316454,-121.9517068,11.327535520195962,9.198734,0.1,101.91644,1628110081449
Fix,GT,37.3164319,-121.9516187,11.279029819846151,7.061449,0.1,109.936035,1628110082449
Fix,GT,37.3164065,-121.951561,11.248,4.6722,0.1,121.087555,1628110083449
Fix,GT,37.3163848,-121.951526,11.185030488431456,3.3966858,0.1,127.21585,1628110084449
Fix,GT,37.3163653,-121.9514999,11.124029823035002,3.1308033,0.1,132.62228,1628110085449
Fix,GT,37.3163433,-121.9514769,11.056515406697988,3.1072712,0.1,139.04913,1628110086449
Fix,GT,37.3163209,-121.9514593,10.994535507768392,2.715147,0.1,146.34113,1628110087449
Fix,GT,37.3163012,-121.9514473,10.955010051369667,2.0863745,0.1,152.02655,1628110088449
Fix,GT,37.3162867,-121.9514404,10.936010051250458,1.3986669,0.1,156.42566,1628110089449
Fix,GT,37.316277,-121.9514369,10.920505351066588,0.7276933,0.1,159.37085,1628110090449
Fix,GT,37.316274,-121.9514357,10.914,0.029487843,0.1,160.03442,1628110091449
Fix,GT,37.3162739,-121.9514357,10.91,0.0012091885,0.1,160.05621,1628110092449
Fix,GT,37.3162739,-121.9514357,10.910000325143336,0.0010000002,0.1,160.05548,1628110093449
Fix,GT,37.3162739,-121.9514357,10.91,0.0005050255,0.1,160.05603,1628110094449
Fix,GT,37.3162739,-121.9514357,10.91,0.001,0.1,160.05627,1628110095449
Fix,GT,37.3162739,-121.9514357,10.91,0.0016242458,0.1,160.05615,1628110096449
Fix,GT,37.3162739,-121.9514357,10.91,0.0014949746,0.1,160.05627,1628110097449
Fix,GT,37.3162739,-121.9514357,10.91,0.001,0.1,160.05603,1628110098449
Fix,GT,37.3162739,-121.9514357,10.91,0.001,0.1,160.05579,1628110099449
Fix,GT,37.3162739,-121.9514357,10.910000325143336,0.0,0.1,160.05524,1628110100449
Fix,GT,37.3162739,-121.9514357,10.910000325143336,0.0,0.1,160.05518,1628110101449
Fix,GT,37.3162739,-121.9514357,10.910000325143336,0.00069999986,0.1,160.05505,1628110102449
Fix,GT,37.3162739,-121.9514357,10.910000325143336,0.0014142136,0.1,160.0553,1628110103449
Fix,GT,37.3162739,-121.9514357,10.910000325143336,0.0,0.1,160.05554,1628110104449
Fix,GT,37.3162739,-121.9514357,10.91,0.0,0.1,160.05554,1628110105449
Fix,GT,37.3162739,-121.9514357,10.91,0.0005050254,0.1,160.05554,1628110106449
Fix,GT,37.3162739,-121.9514357,10.909000325113537,0.008980634,0.1,160.05914,1628110107449
Fix,GT,37.3162703,-121.9514343,10.88702042594552,1.1563268,0.1,160.40479,1628110108449
Fix,GT,37.3162524,-121.9514255,10.850040202617643,3.041669,0.1,159.25891,1628110109449
Fix,GT,37.3162217,-121.9514058,10.811505025327206,4.495479,0.1,152.83911,1628110110449
Fix,GT,37.3161858,-121.9513697,10.955334489226342,5.7076693,0.1,139.13437,1628110111449
Fix,GT,37.316155,-121.9513166,11.15296012941003,5.8328743,0.1,123.82269,1628110112449
Fix,GT,37.3161371,-121.9512569,11.207970181792971,5.56474,0.1,108.06021,1628110113449
Fix,GT,37.3161324,-121.9511954,11.231020436197518,5.655638,0.1,94.33508,1628110114449
Fix,GT,37.316132,-121.9511243,11.238485258817672,7.089752,0.1,89.97717,1628110115449
Fix,GT,37.3161323,-121.9510344,11.26048492383957,8.779281,0.1,90.12271,1628110116449
Fix,GT,37.3161306,-121.9509278,11.2820003362298,10.101563,0.1,91.380646,1628110117449
Fix,GT,37.316128,-121.9508096,11.31996984732151,10.738671,0.1,91.812225,1628110118449
Fix,GT,37.3161243,-121.9506886,11.350990287303926,10.682676,0.1,92.12729,1628110119449
Fix,GT,37.3161208,-121.9505696,11.369495313346384,10.381699,0.1,92.158936,1628110120449
Fix,GT,37.3161171,-121.9504547,11.36351507651806,9.989762,0.1,92.374695,1628110121449
Fix,GT,37.316116,-121.9503458,11.37951541596651,9.207106,0.1,88.6499,1628110122449
Fix,GT,37.3161296,-121.9502502,11.420979897499084,8.101181,0.1,74.14087,1628110123449
Fix,GT,37.3161668,-121.9501755,11.399474871575832,7.761813,0.1,52.618317,1628110124449
Fix,GT,37.3162225,-121.9501241,11.354059970736504,7.9272118,0.1,28.972046,1628110125449
Fix,GT,37.3162957,-121.95011,11.309029817521573,8.822351,0.1,2.6884155,1628110126449
Fix,GT,37.316382,-121.950112,11.257940025329589,10.2800255,0.1,358.72906,1628110127449
Fix,GT,37.3164764,-121.9501144,11.248019768297674,10.544903,0.1,358.7959,1628110128449
Fix,GT,37.3165724,-121.9501167,11.215535516023635,10.730044,0.1,358.72488,1628110129449
Fix,GT,37.3166687,-121.9501188,11.117059980660676,10.629345,0.1,359.11594,1628110130449
Fix,GT,37.316763,-121.9501197,11.07649530401826,10.163516,0.1,359.66452,1628110131449
Fix,GT,37.3168497,-121.9501202,11.041554958224296,9.014727,0.1,359.635,1628110132449
Fix,GT,37.3169251,-121.9501207,10.965535183131694,7.6619406,0.1,359.6357,1628110133449
Fix,GT,37.3169851,-121.9501212,10.93249497371912,5.494373,0.1,359.54117,1628110134449
Fix,GT,37.3170231,-121.9501216,10.93300032582879,2.9518232,0.1,359.49243,1628110135449
Fix,GT,37.3170417,-121.9501217,10.921,1.3068594,0.1,359.54257,1628110136449
Fix,GT,37.3170477,-121.9501217,10.916999674648046,0.1709373,0.1,359.57993,1628110137449
Fix,GT,37.3170479,-121.9501217,10.91199967479706,0.0022150776,0.1,359.5843,1628110138449
Fix,GT,37.3170479,-121.9501217,10.913,0.0012050248,0.1,359.58374,1628110139449
Fix,GT,37.3170479,-121.9501217,10.913000325232744,0.0,0.1,359.58545,1628110140449
Fix,GT,37.3170479,-121.9501217,10.913,0.0012050248,0.1,359.58508,1628110141449
Fix,GT,37.3170479,-121.9501217,10.913000325232744,0.001209189,0.1,359.585,1628110142449
Fix,GT,37.3170479,-121.9501217,10.912999674767256,0.0005050267,0.1,359.58517,1628110143449
Fix,GT,37.3170479,-121.9501217,10.912999674767256,0.0009999999,0.1,359.58527,1628110144449
Fix,GT,37.3170479,-121.9501217,10.913,0.0,0.1,359.58505,1628110145449
Fix,GT,37.3170479,-121.9501217,10.913000325232744,0.0004949732,0.1,359.58484,1628110146449
Fix,GT,37.3170479,-121.9501217,10.912999674767256,0.0009999999,0.1,359.58487,1628110147449
Fix,GT,37.3170479,-121.9501217,10.912999674767256,0.0009999999,0.1,359.58478,1628110148449
Fix,GT,37.3170479,-121.9501217,10.913000325232744,0.001,0.1,359.5848,1628110149449
Fix,GT,37.3170479,-121.9501217,10.912999674767256,0.0012050245,0.1,359.58487,1628110150449
Fix,GT,37.3170479,-121.9501217,10.913,0.0014142136,0.1,359.58508,1628110151449
Fix,GT,37.3170479,-121.9501217,10.912999674767256,0.0009999999,0.1,359.58527,1628110152449
Fix,GT,37.3170479,-121.9501217,10.913,0.00049497274,0.1,359.58502,1628110153449
Fix,GT,37.3170479,-121.9501217,10.913999674737454,0.0005050273,0.1,359.58502,1628110154449
Fix,GT,37.3170479,-121.9501217,10.914,0.001,0.1,359.58508,1628110155449
Fix,GT,37.3170479,-121.9501217,10.915,0.0034083237,0.1,359.58426,1628110156449
Fix,GT,37.3170492,-121.9501217,10.914,0.116212994,0.1,359.5923,1628110157449
Fix,GT,37.3170494,-121.9501217,10.912494972348211,0.00334286,0.1,359.595,1628110158449
Fix,GT,37.3170494,-121.9501217,10.912,0.0018292728,0.1,359.59464,1628110159449
Fix,GT,37.3170494,-121.9501217,10.91199967479706,0.0012050242,0.1,359.59528,1628110160449
Fix,GT,37.3170494,-121.9501217,10.912,0.0025352258,0.1,359.5929,1628110161449
Fix,GT,37.3170494,-121.9501217,10.912,0.001,0.1,359.5927,1628110162449
Fix,GT,37.3170494,-121.9501217,10.912,0.0012050242,0.1,359.59244,1628110163449
Fix,GT,37.3170494,-121.9501217,10.912,0.0012091894,0.1,359.59274,1628110164449
Fix,GT,37.3170494,-121.9501217,10.912,0.001,0.1,359.59277,1628110165449
Fix,GT,37.3170494,-121.9501217,10.912,0.0014142136,0.1,359.59302,1628110166449
Fix,GT,37.3170494,-121.9501217,10.912,0.001,0.1,359.59293,1628110167449
Fix,GT,37.3170494,-121.9501217,10.912,0.001,0.1,359.593,1628110168449
Fix,GT,37.3170494,-121.9501217,10.91199967479706,0.001,0.1,359.59302,1628110169449
Fix,GT,37.3170494,-121.9501217,10.912,0.001,0.1,359.59286,1628110170449
Fix,GT,37.3170494,-121.9501217,10.912,0.001494972,0.1,359.5928,1628110171449
Fix,GT,37.3170494,-121.9501217,10.912,0.0,0.1,359.5928,1628110172449
Fix,GT,37.3170494,-121.9501217,10.91199967479706,0.002,0.1,359.59326,1628110173449
Fix,GT,37.3170494,-121.9501217,10.912,0.0012091894,0.1,359.59265,1628110174449
Fix,GT,37.3170494,-121.9501217,10.912,0.0012050241,0.1,359.5929,1628110175449
Fix,GT,37.3170494,-121.9501217,10.912,0.0012050241,0.1,359.59283,1628110176449
Fix,GT,37.3170494,-121.9501217,10.912,0.0014142136,0.1,359.5929,1628110177449
Fix,GT,37.3170494,-121.9501217,10.912,0.0012091895,0.1,359.59332,1628110178449
Fix,GT,37.3170494,-121.9501217,10.912,0.0014142136,0.1,359.5934,1628110179449
Fix,GT,37.3170494,-121.9501217,10.91199967479706,0.0012050241,0.1,359.59335,1628110180449
Fix,GT,37.3170494,-121.9501217,10.91199967479706,0.001,0.1,359.5932,1628110181449
Fix,GT,37.3170494,-121.9501217,10.91199967479706,0.001,0.1,359.59338,1628110182449
Fix,GT,37.3170494,-121.9501217,10.912,0.001,0.1,359.59332,1628110183449
Fix,GT,37.3170494,-121.9501217,10.912,0.0004949717,0.1,359.59338,1628110184449
Fix,GT,37.3170494,-121.9501217,10.91199967479706,0.0012091895,0.1,359.59363,1628110185449
Fix,GT,37.3170494,-121.9501217,10.91199967479706,0.0012050241,0.1,359.59357,1628110186449
Fix,GT,37.3170494,-121.9501217,10.912,0.00069999567,0.1,359.5935,1628110187449
Fix,GT,37.3170494,-121.9501217,10.912,0.00050502835,0.1,359.59344,1628110188449
Fix,GT,37.3170494,-121.9501217,10.912,0.0006999956,0.1,359.59354,1628110189449
Fix,GT,37.3170494,-121.9501217,10.91199967479706,0.001205024,0.1,359.59357,1628110190449
Fix,GT,37.3170494,-121.9501217,10.912,0.001,0.1,359.59354,1628110191449
Fix,GT,37.3170494,-121.9501217,10.912,0.001,0.1,359.5935,1628110192449
Fix,GT,37.3170494,-121.9501217,10.912,0.001,0.1,359.59357,1628110193449
Fix,GT,37.3170494,-121.9501217,10.912,0.001205024,0.1,359.5935,1628110194449
Fix,GT,37.3170494,-121.9501217,10.91199967479706,0.0014142136,0.1,359.59357,1628110195449
Fix,GT,37.3170494,-121.9501217,10.912,0.0014142136,0.1,359.59338,1628110196449
Fix,GT,37.3170494,-121.9501217,10.91199967479706,0.0014142136,0.1,359.5934,1628110197449
Fix,GT,37.3170494,-121.9501217,10.912,0.0014142136,0.1,359.59357,1628110198449
Fix,GT,37.3170494,-121.9501217,10.91199967479706,0.0012091896,0.1,359.5939,1628110199449
Fix,GT,37.3170494,-121.9501217,10.912,0.0014949716,0.1,359.5938,1628110200449
Fix,GT,37.3170494,-121.9501217,10.912,0.001205024,0.1,359.59363,1628110201449
Fix,GT,37.3170494,-121.9501217,10.912,0.0004949715,0.1,359.5936,1628110202449
Fix,GT,37.3170494,-121.9501217,10.912,0.0007142181,0.1,359.5935,1628110203449
Fix,GT,37.3170494,-121.9501217,10.91199967479706,0.0017100524,0.1,359.5941,1628110204449
Fix,GT,37.3170494,-121.9501217,10.911,0.0016118183,0.1,359.59387,1628110205449
Fix,GT,37.3170494,-121.9501217,10.911,0.001,0.1,359.5937,1628110206449
Fix,GT,37.3170494,-121.9501217,10.909505028545858,0.01936423,0.1,359.59274,1628110207449
Fix,GT,37.3170538,-121.9501217,10.892,1.2047108,0.1,359.6023,1628110208449
Fix,GT,37.3170712,-121.9501218,10.876515085816385,2.6566427,0.1,359.57968,1628110209449
Fix,GT,37.3171039,-121.9501221,10.858505028545856,4.5722103,0.1,359.53818,1628110210449
Fix,GT,37.3171534,-121.9501284,10.832515085637567,6.4083714,0.1,351.41312,1628110211449
Fix,GT,37.3172079,-121.9501618,10.798514764040709,7.2463074,0.1,328.6418,1628110212449
Fix,GT,37.317251,-121.9502291,10.724565371870996,8.229375,0.1,302.09735,1628110213449
Fix,GT,37.3172718,-121.9503266,10.565181027650834,9.929562,0.1,278.5652,1628110214449
Fix,GT,37.317269,-121.9504486,10.420060342550276,11.7793045,0.1,264.84998,1628110215449
Fix,GT,37.3172563,-121.9505916,10.510464800179005,13.765331,0.1,263.56232,1628110216449
Fix,GT,37.3172418,-121.9507578,10.538010057210922,15.876064,0.1,263.84293,1628110217449
Fix,GT,37.3172265,-121.9509464,10.549969513863326,17.672009,0.1,264.29068,1628110218449
Fix,GT,37.3172103,-121.9511539,10.574464484512806,19.15253,0.1,264.1919,1628110219449
Fix,GT,37.3171918,-121.9513766,10.596454426616432,20.499043,0.1,263.89716,1628110220449
Fix,GT,37.3171719,-121.9516133,10.59350534442067,21.683142,0.1,263.86868,1628110221449
Fix,GT,37.3171496,-121.9518625,10.566030172348023,22.716764,0.1,263.0617,1628110222449
Fix,GT,37.3171232,-121.9521211,10.50549497127533,23.347782,0.1,262.30957,1628110223449
Fix,GT,37.3170951,-121.9523819,10.47052483165264,23.381275,0.1,262.14398,1628110224449
Fix,GT,37.3170662,-121.9526446,10.399515396416188,23.649178,0.1,262.0077,1628110225449
Fix,GT,37.3170362,-121.9529112,10.359504720121622,24.092224,0.1,261.64752,1628110226449
Fix,GT,37.3170044,-121.9531825,10.314999692589044,24.508583,0.1,261.62354,1628110227449
Fix,GT,37.3169723,-121.9534587,10.284050595968962,24.981386,0.1,261.62244,1628110228449
Fix,GT,37.3169397,-121.9537402,10.239859189033508,25.46181,0.1,261.63397,1628110229449
Fix,GT,37.3169067,-121.9540267,10.385909168869258,25.7875,0.1,261.80484,1628110230449
Fix,GT,37.3168739,-121.9543154,10.505960080564025,25.880077,0.1,261.80402,1628110231449
Fix,GT,37.3168411,-121.9546047,10.619434305250644,25.917973,0.1,261.62085,1628110232449
Fix,GT,37.3168072,-121.9548942,10.687444361418486,25.912071,0.1,261.7255,1628110233449
Fix,GT,37.3167757,-121.9551823,10.762494650155308,25.615986,0.1,262.56406,1628110234449
Fix,GT,37.3167478,-121.9554673,10.802464474380017,25.31161,0.1,263.0763,1628110235449
Fix,GT,37.3167187,-121.9557505,10.84895976638794,25.308521,0.1,262.24252,1628110236449
Fix,GT,37.3166878,-121.9560322,10.905990266412497,25.09234,0.1,261.74802,1628110237449
Fix,GT,37.3166543,-121.9563131,10.98401038596034,25.381474,0.1,261.22092,1628110238449
Fix,GT,37.3166202,-121.9565977,11.0619698240757,25.61903,0.1,261.5979,1628110239449
Fix,GT,37.3165926,-121.9568857,11.137989941358564,25.673986,0.1,265.45892,1628110240449
Fix,GT,37.3165801,-121.9571749,11.14952547940612,25.80303,0.1,267.89703,1628110241449
Fix,GT,37.316574,-121.9574691,11.168040568232536,26.31099,0.1,268.83063,1628110242449
Fix,GT,37.3165704,-121.9577694,11.20245440211892,27.006985,0.1,268.94348,1628110243449
Fix,GT,37.3165665,-121.9580783,11.231464793920516,27.684418,0.1,269.13702,1628110244449
Fix,GT,37.316564,-121.9583927,11.260474517136812,28.052433,0.1,269.5586,1628110245449
Fix,GT,37.3165634,-121.9587114,11.304010395973922,28.435862,0.1,270.01917,1628110246449
Fix,GT,37.3165652,-121.9590336,11.367474852204325,28.65907,0.1,270.69318,1628110247449
Fix,GT,37.3165697,-121.959359,11.373989940881728,29.040306,0.1,271.05325,1628110248449
Fix,GT,37.3165757,-121.9596883,11.429414497494696,29.33432,0.1,271.30783,1628110249449
Fix,GT,37.3165821,-121.9600214,11.47896948045492,29.7557,0.1,271.20566,1628110250449
Fix,GT,37.3165879,-121.960359,11.553929241627454,30.08284,0.1,271.18982,1628110251449
Fix,GT,37.3165934,-121.9607,11.813304195195435,30.391397,0.1,270.95703,1628110252449
Fix,GT,37.3165987,-121.9610445,12.302203616499902,30.690926,0.1,270.9007,1628110253449
Fix,GT,37.3166038,-121.9613891,12.99561813288927,30.33105,0.1,271.0292,1628110254449
Fix,GT,37.3166089,-121.961728,13.839577507019044,29.738077,0.1,271.02606,1628110255449
Fix,GT,37.3166138,-121.9620599,14.615122774124146,29.13027,0.1,270.9656,1628110256449
Fix,GT,37.3166187,-121.9623851,15.35262734514475,28.535055,0.1,271.0098,1628110257449
Fix,GT,37.3166235,-121.9627037,16.042122774124145,27.966084,0.1,271.0124,1628110258449
Fix,GT,37.3166278,-121.9630161,16.61578875350952,27.436584,0.1,270.81882,1628110259449
Fix,GT,37.3166321,-121.9633229,16.96976863479614,26.970451,0.1,270.85944,1628110260449
Fix,GT,37.3166344,-121.9636244,17.356899406433108,26.495155,0.1,270.1593,1628110261449
Fix,GT,37.316634,-121.9639212,17.563494970321656,26.171059,0.1,269.60767,1628110262449
Fix,GT,37.3166313,-121.9642166,17.56647537520528,26.242441,0.1,268.70673,1628110263449
Fix,GT,37.3166247,-121.9645116,17.50769563162327,26.09026,0.1,268.08353,1628110264449
Fix,GT,37.3166164,-121.9648055,17.451534686923026,26.065502,0.1,267.76334,1628110265449
Fix,GT,37.316607,-121.9651,17.283655401706696,26.214226,0.1,267.52744,1628110266449
Fix,GT,37.3165968,-121.9653969,16.906695649534463,26.476067,0.1,267.4041,1628110267449
Fix,GT,37.3165867,-121.9656967,16.440716765493153,26.721163,0.1,267.5774,1628110268449
Fix,GT,37.3165773,-121.9659985,15.95276657295227,26.776371,0.1,267.7317,1628110269449
Fix,GT,37.3165684,-121.9663002,15.41977663230896,26.765064,0.1,267.72507,1628110270449
Fix,GT,37.3165588,-121.9666027,14.78983654868603,26.917946,0.1,267.65112,1628110271449
Fix,GT,37.3165492,-121.9669071,14.068897354006769,27.059881,0.1,267.60052,1628110272449
Fix,GT,37.3165389,-121.9672126,13.39779716348648,27.111202,0.1,267.41525,1628110273449
Fix,GT,37.316528,-121.9675176,12.897696166753768,27.002756,0.1,267.21692,1628110274449
Fix,GT,37.3165165,-121.9678209,12.566636185079814,26.81279,0.1,267.21887,1628110275449
Fix,GT,37.3165055,-121.9681217,12.4255553303957,26.546558,0.1,267.37628,1628110276449
Fix,GT,37.3164977,-121.9684191,12.455464788913726,26.141521,0.1,269.0176,1628110277449
Fix,GT,37.3164982,-121.9687098,12.54945472806692,25.394764,0.1,271.1481,1628110278449
Fix,GT,37.3165054,-121.9689926,12.615474848628043,24.834068,0.1,272.42014,1628110279449
Fix,GT,37.3165184,-121.9692707,12.667979878425598,24.62658,0.1,274.18484,1628110280449
Fix,GT,37.3165377,-121.9695489,12.674940011769532,24.92006,0.1,275.604,1628110281449
Fix,GT,37.3165616,-121.9698305,12.666070428013802,25.199226,0.1,275.66458,1628110282449
Fix,GT,37.3165797,-121.9701127,12.590989938735962,24.974144,0.1,273.62924,1628110283449
Fix,GT,37.3165927,-121.9703923,12.538525527358054,24.670368,0.1,272.97012,1628110284449
Fix,GT,37.3166046,-121.9706682,12.484535215258598,24.30011,0.1,273.1054,1628110285449
Fix,GT,37.3166186,-121.9709393,12.400545277833938,23.816597,0.1,274.02432,1628110286449
Fix,GT,37.3166373,-121.9712033,12.266060371160506,23.125393,0.1,275.75348,1628110287449
Fix,GT,37.3166612,-121.9714588,12.122575465738771,22.478424,0.1,277.22504,1628110288449
Fix,GT,37.3166905,-121.9717055,11.902656318634747,21.708462,0.1,279.15134,1628110289449
Fix,GT,37.3167251,-121.9719445,11.607160995483396,21.370897,0.1,281.0893,1628110290449
Fix,GT,37.3167679,-121.9721779,11.206766651928426,21.118044,0.1,284.47238,1628110291449
Fix,GT,37.3168227,-121.9724056,10.670827346861362,21.029062,0.1,288.40247,1628110292449
Fix,GT,37.3168884,-121.9726278,10.103696217894557,20.94049,0.1,291.4865,1628110293449
Fix,GT,37.3169628,-121.9728435,9.87953521901369,20.703896,0.1,294.5813,1628110294449
Fix,GT,37.3170439,-121.973052,9.827909436821937,20.362392,0.1,296.7454,1628110295449
Fix,GT,37.3171271,-121.9732536,10.170253466904164,19.843712,0.1,297.36987,1628110296449
Fix,GT,37.3172068,-121.9734474,10.737728313684464,18.729692,0.1,296.97025,1628110297449
Fix,GT,37.3172814,-121.9736293,11.27969812631607,17.533136,0.1,297.12766,1628110298449
Fix,GT,37.3173506,-121.9737984,11.794748438596724,16.127483,0.1,296.86108,1628110299449
Fix,GT,37.3174127,-121.9739519,12.268263529479505,14.1268215,0.1,297.05542,1628110300449
Fix,GT,37.3174686,-121.9740786,12.616919500350953,11.566734,0.1,300.99234,1628110301449
Fix,GT,37.3175268,-121.9741718,12.72649496883154,9.64445,0.1,312.8264,1628110302449
Fix,GT,37.3175952,-121.9742332,12.71150503116846,9.026004,0.1,329.82077,1628110303449
Fix,GT,37.3176682,-121.974266,12.670555342197416,8.166422,0.1,343.58896,1628110304449
Fix,GT,37.3177396,-121.9742831,12.61652515554428,8.030224,0.1,350.41553,1628110305449
Fix,GT,37.3178138,-121.9742919,12.697444658458233,8.514059,0.1,356.18164,1628110306449
Fix,GT,37.3178899,-121.9742883,12.729,8.355242,0.1,4.6793213,1628110307449
Fix,GT,37.3179627,-121.9742698,12.750545658767225,8.022593,0.1,14.248322,1628110308449
Fix,GT,37.3180285,-121.9742385,12.696494969129562,7.566142,0.1,22.779144,1628110309449
Fix,GT,37.3180857,-121.9741998,12.647535216093065,6.768582,0.1,29.76593,1628110310449
Fix,GT,37.3181327,-121.974163,12.596525529682635,5.463229,0.1,32.40103,1628110311449
Fix,GT,37.318168,-121.9741332,12.539525527983905,4.0138264,0.1,33.97641,1628110312449
Fix,GT,37.3181929,-121.9741122,12.503010061621666,2.6605856,0.1,33.830536,1628110313449
Fix,GT,37.3182067,-121.9741005,12.486010061621666,1.0773067,0.1,33.83383,1628110314449
Fix,GT,37.3182105,-121.9740974,12.476505030810834,0.09091653,0.1,33.828857,1628110315449
Fix,GT,37.3182105,-121.9740973,12.473,0.0016242524,0.1,33.828552,1628110316449
Fix,GT,37.3182105,-121.9740973,12.473,0.0005050308,0.1,33.827606,1628110317449
Fix,GT,37.3182105,-121.9740973,12.474,0.0012091906,0.1,33.82788,1628110318449
Fix,GT,37.3182105,-121.9740973,12.474000371754167,0.0010000002,0.1,33.827637,1628110319449
Fix,GT,37.3182105,-121.9740973,12.474000371754167,0.0004949693,0.1,33.827454,1628110320449
Fix,GT,37.3182105,-121.9740973,12.474,0.0005050308,0.1,33.827698,1628110321449
Fix,GT,37.3182105,-121.9740973,12.474,0.00050503085,0.1,33.827698,1628110322449
Fix,GT,37.3182105,-121.9740973,12.474000371754167,0.0007142215,0.1,33.82791,1628110323449
Fix,GT,37.3182105,-121.9740973,12.474,0.00049496914,0.1,33.827637,1628110324449
Fix,GT,37.3182105,-121.9740973,12.474,0.0,0.1,33.82776,1628110325449
Fix,GT,37.3182105,-121.9740973,12.474,0.0005050309,0.1,33.827454,1628110326449
Fix,GT,37.3182105,-121.9740973,12.474,0.0004949691,0.1,33.827545,1628110327449
