MessageType,Provider,LatitudeDegrees,LongitudeDegrees,AltitudeMeters,SpeedMps,AccuracyMeters,BearingDegrees,UnixTimeMillis
Fix,GT,37.4443945,-122.232699,11.690000348389148,0.0010000002,0.1,300.73123,1609797013437
Fix,GT,37.4443945,-122.232699,11.690000348389148,0.001155064,0.1,300.73083,1609797014437
Fix,GT,37.4443945,-122.232699,11.69,0.001,0.1,300.7305,1609797015437
Fix,GT,37.4443945,-122.232699,11.690000348389148,0.0017733369,0.1,300.73102,1609797016437
Fix,GT,37.4443945,-122.232699,11.68999965161085,0.0014142136,0.1,300.73184,1609797017437
Fix,GT,37.4443945,-122.232699,11.68999965161085,0.0,0.1,300.73166,1609797018437
Fix,GT,37.4443945,-122.232699,11.68999965161085,0.0011550637,0.1,300.73123,1609797019437
Fix,GT,37.4443945,-122.232699,11.68999965161085,0.0012591498,0.1,300.7303,1609797020437
Fix,GT,37.4443945,-122.232699,11.69,0.0012591499,0.1,300.73184,1609797021437
Fix,GT,37.4443945,-122.232699,11.68999965161085,0.0012591498,0.1,300.73206,1609797022437
Fix,GT,37.4443945,-122.232699,11.69,0.0014142136,0.1,300.73184,1609797023437
Fix,GT,37.4443945,-122.232699,11.69,0.0014142136,0.1,300.73138,1609797024437
Fix,GT,37.4443945,-122.232699,11.690000348389148,0.0021439428,0.1,300.73132,1609797025437
Fix,GT,37.4443945,-122.232699,11.68999965161085,0.0011550637,0.1,300.73132,1609797026437
Fix,GT,37.4443945,-122.232699,11.68999965161085,0.0019284011,0.1,300.73126,1609797027437
Fix,GT,37.4443945,-122.232699,11.690000348389148,0.0022360682,0.1,300.73126,1609797028437
Fix,GT,37.4443945,-122.232699,11.69,0.0019284012,0.1,300.7314,1609797029437
Fix,GT,37.4443945,-122.232699,11.69,0.0016844843,0.1,300.7315,1609797030437
Fix,GT,37.4443945,-122.232699,11.69,0.0014142136,0.1,300.73123,1609797031437
Fix,GT,37.4443945,-122.232699,11.69,0.0014142136,0.1,300.7313,1609797032437
Fix,GT,37.4443945,-122.232699,11.69,0.0014142136,0.1,300.73117,1609797033437
Fix,GT,37.4443945,-122.232699,11.68999965161085,0.0019284012,0.1,300.73117,1609797034437
Fix,GT,37.4443945,-122.232699,11.69,0.001,0.1,300.7313,1609797035437
Fix,GT,37.4443945,-122.232699,11.68999965161085,0.0012591499,0.1,300.73138,1609797036437
Fix,GT,37.4443945,-122.232699,11.69,0.001,0.1,300.73126,1609797037437
Fix,GT,37.4443945,-122.232699,11.689,0.0011550637,0.1,300.73105,1609797038437
Fix,GT,37.4443945,-122.232699,11.688999651640652,0.0011550637,0.1,300.73105,1609797039437
Fix,GT,37.4443945,-122.232699,11.689,0.0014142136,0.1,300.73077,1609797040437
Fix,GT,37.4443945,-122.232699,11.689,0.0026066734,0.1,300.73068,1609797041437
Fix,GT,37.4443945,-122.232699,11.688999651640652,0.001374357,0.1,300.73105,1609797042437
Fix,GT,37.4443945,-122.232699,11.688000348329544,0.0028155446,0.1,300.7308,1609797043437
Fix,GT,37.4443945,-122.232699,11.686625991165638,0.011154154,0.1,300.73254,1609797044437
Fix,GT,37.4443959,-122.2327022,11.679000348061322,0.66775787,0.1,300.77078,1609797045437
Fix,GT,37.4444004,-122.2327119,11.68212341916561,1.339171,0.1,300.66162,1609797046437
Fix,GT,37.4444069,-122.2327298,11.694625294506553,2.0929933,0.1,296.73834,1609797047437
Fix,GT,37.4444104,-122.2327569,11.681497776150705,2.772016,0.1,283.33563,1609797048437
Fix,GT,37.4444062,-122.232793,11.675010285377502,3.597558,0.1,264.0314,1609797049437
Fix,GT,37.4443893,-122.2328346,11.522764484077694,4.612882,0.1,243.45236,1609797050437
Fix,GT,37.4443616,-122.2328815,11.369015428066254,5.634692,0.1,232.18796,1609797051437
Fix,GT,37.44432,-122.2329269,11.113512524694205,6.591046,0.1,218.85316,1609797052437
Fix,GT,37.4442675,-122.2329692,10.81914846098423,7.122925,0.1,211.45798,1609797053437
Fix,GT,37.4442116,-122.2330109,10.47889780882001,7.3343153,0.1,210.61806,1609797054437
Fix,GT,37.4441557,-122.2330569,10.197764444589614,7.4441247,0.1,214.28117,1609797055437
Fix,GT,37.4441056,-122.2331108,10.007256427168844,7.169897,0.1,223.1865,1609797056437
Fix,GT,37.4440667,-122.2331725,9.84488691970706,6.767027,0.1,234.17868,1609797057437
Fix,GT,37.4440394,-122.2332381,9.647138787925243,6.3819914,0.1,244.7147,1609797058437
Fix,GT,37.4440225,-122.2333055,9.39989750343561,6.1862354,0.1,254.06393,1609797059437
Fix,GT,37.4440142,-122.2333756,9.035779575943948,6.3077784,0.1,263.42877,1609797060437
Fix,GT,37.4440173,-122.2334467,8.758389787971973,6.3590894,0.1,275.72397,1609797061437
Fix,GT,37.444034,-122.233519,8.620015688806772,7.0399866,0.1,288.52557,1609797062437
Fix,GT,37.4440634,-122.2335952,8.404507464498282,7.9545736,0.1,296.85925,1609797063437
Fix,GT,37.4440999,-122.2336793,8.260123317182064,8.98108,0.1,299.2422,1609797064437
Fix,GT,37.4441438,-122.2337712,8.078635690808298,9.9746,0.1,301.44534,1609797065437
Fix,GT,37.4441918,-122.2338676,7.88251286149025,10.062179,0.1,302.11133,1609797066437
Fix,GT,37.44424,-122.2339635,7.681266721487045,9.934145,0.1,302.17502,1609797067437
Fix,GT,37.4442864,-122.234055,7.515764150261879,9.058418,0.1,302.433,1609797068437
Fix,GT,37.4443262,-122.234133,7.350887220680714,7.262457,0.1,302.67072,1609797069437
Fix,GT,37.4443567,-122.234193,7.221256216317415,5.2920327,0.1,302.35217,1609797070437
Fix,GT,37.4443772,-122.2342335,7.124004933863878,3.244248,0.1,302.36765,1609797071437
Fix,GT,37.444389,-122.2342565,7.071251286625863,1.7313397,0.1,302.3999,1609797072437
Fix,GT,37.4443946,-122.2342673,7.049625643372536,0.54786146,0.1,302.41064,1609797073437
Fix,GT,37.4443952,-122.2342686,7.042999999999999,0.0038381997,0.1,302.4133,1609797074437
Fix,GT,37.4443951,-122.2342686,7.053374146521092,0.0019284012,0.1,302.41272,1609797075437
Fix,GT,37.444395,-122.2342686,7.058,0.0016256433,0.1,302.41168,1609797076437
Fix,GT,37.444395,-122.2342686,7.0579997896552085,0.0006256434,0.1,302.4118,1609797077437
Fix,GT,37.444395,-122.2342686,7.059,0.00062564336,0.1,302.4119,1609797078437
Fix,GT,37.444395,-122.2342686,7.059,0.001,0.1,302.41187,1609797079437
Fix,GT,37.444395,-122.2342686,7.058999789625407,0.0017733376,0.1,302.4118,1609797080437
Fix,GT,37.444395,-122.2342686,7.059,0.0017733376,0.1,302.41153,1609797081437
Fix,GT,37.444395,-122.2342686,7.059,0.001,0.1,302.4112,1609797082437
Fix,GT,37.444395,-122.2342686,7.059,0.0011550637,0.1,302.41104,1609797083437
Fix,GT,37.444395,-122.2342686,7.059,0.00052942056,0.1,302.4115,1609797084437
Fix,GT,37.444395,-122.2342686,7.059,0.0,0.1,302.4119,1609797085437
Fix,GT,37.444395,-122.2342686,7.059,0.0003743569,0.1,302.41187,1609797086437
Fix,GT,37.444395,-122.2342686,7.057999789655208,0.0005294205,0.1,302.41156,1609797087437
Fix,GT,37.4443958,-122.2342702,7.047625433117151,0.55678034,0.1,302.43127,1609797088437
Fix,GT,37.444402,-122.2342823,7.023502363294363,2.026139,0.1,302.50125,1609797089437
Fix,GT,37.4444152,-122.2343083,6.932881868064404,3.5165877,0.1,302.47397,1609797090437
Fix,GT,37.4444339,-122.2343504,6.948748506605625,4.913848,0.1,298.31564,1609797091437
Fix,GT,37.444449,-122.2344101,7.005117925524711,6.0853505,0.1,284.59158,1609797092437
Fix,GT,37.4444465,-122.2344823,7.125989499092102,6.700336,0.1,262.88824,1609797093437
Fix,GT,37.4444202,-122.2345539,7.15950257229805,7.2845526,0.1,239.69159,1609797094437
Fix,GT,37.4443717,-122.234614,7.216620283693075,7.955948,0.1,220.37561,1609797095437
Fix,GT,37.4443073,-122.2346671,7.341866859853267,9.278578,0.1,211.40178,1609797096437
Fix,GT,37.4442278,-122.2347209,7.566733055621386,10.725641,0.1,207.87817,1609797097437
Fix,GT,37.4441371,-122.2347812,7.860979658395053,12.059362,0.1,207.82852,1609797098437
Fix,GT,37.4440361,-122.2348488,8.214102249026299,13.335688,0.1,208.05226,1609797099437
Fix,GT,37.4439255,-122.2349227,8.70484092336893,14.508371,0.1,207.7943,1609797100437
Fix,GT,37.4438049,-122.2350019,9.076358929097651,15.626181,0.1,207.63715,1609797101437
Fix,GT,37.4436761,-122.2350882,9.377487421929835,16.794542,0.1,208.23886,1609797102437
Fix,GT,37.4435397,-122.2351808,9.506620500147342,17.5594,0.1,208.36699,1609797103437
Fix,GT,37.4433983,-122.2352773,9.615364073812962,18.021679,0.1,208.51424,1609797104437
Fix,GT,37.4432566,-122.235374,9.78686179625988,17.826786,0.1,208.25081,1609797105437
Fix,GT,37.4431147,-122.2354696,9.96336407583952,17.936888,0.1,208.0329,1609797106437
Fix,GT,37.4429716,-122.2355652,10.20648715043068,18.0906,0.1,207.7866,1609797107437
Fix,GT,37.4428267,-122.2356611,10.53334320664406,18.268188,0.1,207.642,1609797108437
Fix,GT,37.4426806,-122.2357573,11.145590000152588,18.34805,0.1,207.5173,1609797109437
Fix,GT,37.4425339,-122.2358531,11.842066905349492,18.383038,0.1,207.19237,1609797110437
Fix,GT,37.4423865,-122.2359477,12.882548194378614,18.359327,0.1,207.0539,1609797111437
Fix,GT,37.4422396,-122.2360424,14.012179366707802,18.24905,0.1,207.21722,1609797112437
Fix,GT,37.4420956,-122.2361375,15.01182087376714,17.861137,0.1,208.06372,1609797113437
Fix,GT,37.4419556,-122.2362322,15.87268662649393,17.446466,0.1,208.31729,1609797114437
Fix,GT,37.4418187,-122.2363257,16.704697375416757,17.24592,0.1,208.48814,1609797115437
Fix,GT,37.4416821,-122.2364206,17.44958405897021,17.42166,0.1,209.16165,1609797116437
Fix,GT,37.4415457,-122.23652,18.2468256071806,17.61715,0.1,210.76646,1609797117437
Fix,GT,37.441411,-122.2366274,19.064317920207976,17.801495,0.1,213.50056,1609797118437
Fix,GT,37.4412804,-122.2367455,20.006559551805257,17.924984,0.1,217.58778,1609797119437
Fix,GT,37.4411566,-122.2368768,20.90707241269946,18.076817,0.1,221.95795,1609797120437
Fix,GT,37.4410394,-122.2370192,21.854548736572266,18.137506,0.1,225.26875,1609797121437
Fix,GT,37.4409288,-122.2371705,22.88931353121996,18.201069,0.1,229.08704,1609797122437
Fix,GT,37.4408265,-122.2373317,23.92181542688608,18.271732,0.1,233.03613,1609797123437
Fix,GT,37.4407308,-122.2375,24.96880521023273,18.341936,0.1,235.28181,1609797124437
Fix,GT,37.4406393,-122.237672,26.090811123907564,18.195875,0.1,236.74075,1609797125437
Fix,GT,37.4405497,-122.237842,27.103178799510005,17.830505,0.1,236.08801,1609797126437
Fix,GT,37.4404592,-122.2380049,28.222169385671613,17.20179,0.1,234.33408,1609797127437
Fix,GT,37.4403679,-122.2381564,29.22768645045161,16.459919,0.1,231.94292,1609797128437
Fix,GT,37.4402761,-122.2382985,30.082569368839263,15.937859,0.1,230.51791,1609797129437
Fix,GT,37.4401842,-122.2384361,30.915076137244704,15.880684,0.1,229.77873,1609797130437
Fix,GT,37.4400915,-122.2385727,31.709195985645056,15.872726,0.1,229.3494,1609797131437
Fix,GT,37.4399972,-122.2387074,32.50519408920407,15.847132,0.1,228.21025,1609797132437
Fix,GT,37.4399009,-122.2388393,33.33244634723663,15.812626,0.1,227.02585,1609797133437
Fix,GT,37.4398023,-122.2389684,34.06694892120361,15.843276,0.1,225.45721,1609797134437
Fix,GT,37.4397007,-122.2390944,34.79544534873963,15.831776,0.1,223.86903,1609797135437
Fix,GT,37.4395965,-122.2392156,35.54631310743093,15.680267,0.1,221.91174,1609797136437
Fix,GT,37.43949,-122.2393304,36.45393365335464,15.482561,0.1,219.95638,1609797137437
Fix,GT,37.4393829,-122.2394394,37.37706584733725,15.114148,0.1,218.52676,1609797138437
Fix,GT,37.4392776,-122.2395422,38.16407718068361,14.445054,0.1,217.40129,1609797139437
Fix,GT,37.4391763,-122.2396371,38.864954110622406,13.635213,0.1,216.16316,1609797140437
Fix,GT,37.4390786,-122.2397241,39.49021951773763,13.05688,0.1,215.00775,1609797141437
Fix,GT,37.4389815,-122.2398073,40.05371186989546,13.1328535,0.1,213.79266,1609797142437
Fix,GT,37.4388793,-122.2398896,40.67646180176735,13.933247,0.1,212.08539,1609797143437
Fix,GT,37.4387689,-122.2399741,41.26234767472744,14.787954,0.1,210.90475,1609797144437
Fix,GT,37.4386498,-122.2400604,41.72023091518879,15.82247,0.1,209.37776,1609797145437
Fix,GT,37.4385198,-122.2401481,42.11559385845065,16.88648,0.1,207.44429,1609797146437
Fix,GT,37.43838,-122.2402369,42.49547838038206,17.858412,0.1,206.33023,1609797147437
Fix,GT,37.4382327,-122.2403256,42.80173347842694,18.345882,0.1,205.04967,1609797148437
Fix,GT,37.4380809,-122.2404105,43.01924110710621,18.525648,0.1,203.11368,1609797149437
Fix,GT,37.4379279,-122.24049,43.18,18.183548,0.1,202.01846,1609797150437
Fix,GT,37.4377772,-122.2405636,43.314118019282816,17.70248,0.1,200.54155,1609797151437
Fix,GT,37.4376296,-122.2406323,43.388,17.285227,0.1,200.119,1609797152437
Fix,GT,37.4374857,-122.2407001,43.50661041629314,16.822474,0.1,200.74036,1609797153437
Fix,GT,37.437346,-122.2407679,43.722860388517375,16.507208,0.1,201.30934,1609797154437
Fix,GT,37.4372073,-122.2408383,44.01148226261139,16.786537,0.1,202.4245,1609797155437
Fix,GT,37.437065,-122.2409167,44.41210416084528,17.66881,0.1,204.54337,1609797156437
Fix,GT,37.4369209,-122.2410065,44.878225950479504,18.024647,0.1,207.43758,1609797157437
Fix,GT,37.4367808,-122.241106,45.50107755172253,17.605211,0.1,211.12282,1609797158437
Fix,GT,37.4366528,-122.2412168,46.17945056858659,16.90189,0.1,217.13019,1609797159437
Fix,GT,37.4365398,-122.2413385,46.86945702075958,16.2126,0.1,223.07245,1609797160437
Fix,GT,37.4364404,-122.2414675,47.40271700185537,15.509794,0.1,227.56815,1609797161437
Fix,GT,37.4363527,-122.2415984,47.88459532177448,14.774771,0.1,230.63496,1609797162437
Fix,GT,37.4362711,-122.2417249,48.45433397889137,14.019251,0.1,231.23071,1609797163437
Fix,GT,37.4361959,-122.2418469,49.05821235755086,13.261332,0.1,232.70059,1609797164437
Fix,GT,37.4361281,-122.2419649,49.594591801673175,12.36771,0.1,235.13477,1609797165437
Fix,GT,37.436072,-122.2420742,50.09596619948745,10.580669,0.1,238.362,1609797166437
Fix,GT,37.4360313,-122.2421698,50.477606974273925,8.539719,0.1,243.55602,1609797167437
Fix,GT,37.4360063,-122.2422471,50.73923463484645,6.2463455,0.1,249.3542,1609797168437
Fix,GT,37.4359927,-122.242307,50.93036278161407,5.0518413,0.1,254.63226,1609797169437
Fix,GT,37.4359837,-122.2423604,51.10698993396759,4.8480377,0.1,258.536,1609797170437
Fix,GT,37.435978,-122.2424197,51.27436583831906,5.827401,0.1,263.8929,1609797171437
Fix,GT,37.4359774,-122.242494,51.43874021869898,7.4787855,0.1,270.82568,1609797172437
Fix,GT,37.4359858,-122.2425881,51.70685831931233,9.250914,0.1,278.06998,1609797173437
Fix,GT,37.4360068,-122.2426998,52.23434422534704,11.05764,0.1,285.84552,1609797174437
Fix,GT,37.4360439,-122.2428249,52.69708136859536,12.555275,0.1,291.95636,1609797175437
Fix,GT,37.436093,-122.2429631,53.35108136507869,14.190134,0.1,294.71646,1609797176437
Fix,GT,37.4361505,-122.2431161,54.12207132130861,15.737955,0.1,295.1772,1609797177437
Fix,GT,37.4362141,-122.2432839,55.06543392267824,17.092287,0.1,295.28384,1609797178437
Fix,GT,37.4362832,-122.2434632,56.11581003072858,17.931313,0.1,295.84885,1609797179437
Fix,GT,37.4363535,-122.2436435,57.14204624202847,17.587328,0.1,296.19165,1609797180437
Fix,GT,37.4364261,-122.2438201,58.20393487453461,17.685886,0.1,298.39282,1609797181437
Fix,GT,37.4365087,-122.2439939,59.28943239545822,18.166748,0.1,302.3606,1609797182437
Fix,GT,37.4366037,-122.2441641,60.3539281308651,18.621996,0.1,306.9497,1609797183437
Fix,GT,37.4367109,-122.2443293,61.49055558371544,19.104752,0.1,310.37238,1609797184437
Fix,GT,37.436826,-122.2444934,62.70429935884477,19.572657,0.1,311.6372,1609797185437
Fix,GT,37.4369458,-122.2446589,63.91755255877972,20.021172,0.1,312.50195,1609797186437
Fix,GT,37.4370695,-122.2448271,65.02217936101556,20.453474,0.1,312.43396,1609797187437
Fix,GT,37.437195,-122.2449995,65.9856888245344,20.86002,0.1,312.24585,1609797188437
Fix,GT,37.4373237,-122.2451762,66.91406622543931,21.58841,0.1,312.46457,1609797189437
Fix,GT,37.4374586,-122.2453588,67.81532151314616,22.47394,0.1,313.03265,1609797190437
Fix,GT,37.4376007,-122.2455466,68.75894219836593,23.343601,0.1,313.75232,1609797191437
Fix,GT,37.43775,-122.2457384,69.72956081998349,24.014967,0.1,314.55844,1609797192437
Fix,GT,37.4379037,-122.2459329,70.78880923202634,24.449505,0.1,314.6535,1609797193437
Fix,GT,37.4380596,-122.2461302,71.7848071528077,24.671822,0.1,314.85437,1609797194437
Fix,GT,37.4382176,-122.2463282,72.83330967390538,24.909512,0.1,314.85986,1609797195437
Fix,GT,37.438377,-122.2465281,73.87080722427368,25.13316,0.1,314.7665,1609797196437
Fix,GT,37.4385374,-122.2467308,74.91293537044524,25.419598,0.1,314.6148,1609797197437
Fix,GT,37.4386996,-122.2469361,75.9175587642789,25.70182,0.1,314.49274,1609797198437
Fix,GT,37.4388632,-122.2471445,76.97093543243409,26.084084,0.1,314.3968,1609797199437
Fix,GT,37.4390291,-122.2473564,78.02992819154262,26.466957,0.1,314.27966,1609797200437
Fix,GT,37.4391966,-122.2475723,79.11768190670014,26.855253,0.1,314.12457,1609797201437
Fix,GT,37.4393663,-122.2477914,80.1944330585003,27.211403,0.1,314.11026,1609797202437
Fix,GT,37.4395384,-122.2480134,81.28893061256409,27.560158,0.1,313.85013,1609797203437
Fix,GT,37.4397111,-122.2482397,82.39993064594269,27.881845,0.1,313.5987,1609797204437
Fix,GT,37.4398859,-122.2484681,83.51393068599701,28.175915,0.1,313.93915,1609797205437
Fix,GT,37.4400633,-122.2486985,84.67542573320866,28.494167,0.1,313.78134,1609797206437
Fix,GT,37.440242,-122.2489318,85.85116954344511,28.756556,0.1,313.63544,1609797207437
Fix,GT,37.4404223,-122.2491672,87.01305393904447,29.003822,0.1,313.87616,1609797208437
Fix,GT,37.4406038,-122.2494038,88.19230783900619,29.048298,0.1,313.7959,1609797209437
Fix,GT,37.4407855,-122.2496398,89.32743599948287,29.037243,0.1,314.00854,1609797210437
Fix,GT,37.4409677,-122.2498752,90.46880552011729,29.027369,0.1,314.102,1609797211437
Fix,GT,37.44115,-122.2501104,91.61205410355328,29.035107,0.1,314.04556,1609797212437
Fix,GT,37.4413316,-122.2503463,92.75917731034755,28.992693,0.1,313.77762,1609797213437
Fix,GT,37.4415123,-122.2505823,94.02253907373546,28.902714,0.1,313.8389,1609797214437
Fix,GT,37.4416932,-122.2508166,95.3342984469831,28.818827,0.1,314.05325,1609797215437
Fix,GT,37.4418728,-122.2510513,96.64292126464844,28.747177,0.1,313.592,1609797216437
Fix,GT,37.4420502,-122.2512872,97.94929769238828,28.653069,0.1,312.95477,1609797217437
Fix,GT,37.4422233,-122.2515259,99.1752976846993,28.47049,0.1,311.53778,1609797218437
Fix,GT,37.4423908,-122.251769,100.30005733478067,28.398087,0.1,309.9442,1609797219437
Fix,GT,37.4425511,-122.2520184,101.45055684739351,28.310883,0.1,307.92346,1609797220437
Fix,GT,37.4427043,-122.2522733,102.56468003261088,28.192291,0.1,306.0691,1609797221437
Fix,GT,37.4428504,-122.2525332,103.66755690032244,28.086926,0.1,304.3271,1609797222437
Fix,GT,37.4429902,-122.2527971,104.7658050225377,27.99997,0.1,302.8142,1609797223437
Fix,GT,37.4431237,-122.2530652,105.87543377947809,27.94077,0.1,301.0861,1609797224437
Fix,GT,37.4432504,-122.2533377,106.96568501842025,27.8909,0.1,299.38232,1609797225437
Fix,GT,37.4433707,-122.253614,108.05605620220304,27.811752,0.1,297.76025,1609797226437
Fix,GT,37.4434837,-122.2538936,109.16192813158034,27.698801,0.1,295.97943,1609797227437
Fix,GT,37.4435892,-122.2541767,110.26618591353296,27.598877,0.1,294.14105,1609797228437
Fix,GT,37.4436875,-122.2544625,111.3588049300015,27.498835,0.1,292.34952,1609797229437
Fix,GT,37.4437779,-122.2547515,112.4314338696003,27.437328,0.1,290.51938,1609797230437
Fix,GT,37.4438613,-122.2550429,113.49868509423732,27.369606,0.1,289.0885,1609797231437
Fix,GT,37.4439394,-122.2553359,114.59156045642494,27.304081,0.1,287.79504,1609797232437
Fix,GT,37.4440111,-122.2556307,115.66042899870874,27.243496,0.1,286.06,1609797233437
Fix,GT,37.4440747,-122.2559273,116.73793634366989,27.113533,0.1,283.99036,1609797234437
Fix,GT,37.4441297,-122.2562252,117.7798166858852,26.997528,0.1,282.19135,1609797235437
Fix,GT,37.4441783,-122.2565235,118.78369491279123,26.896412,0.1,280.95087,1609797236437
Fix,GT,37.4442212,-122.2568221,119.69931696119905,26.823427,0.1,279.54834,1609797237437
Fix,GT,37.4442578,-122.2571216,120.56470340895656,26.809341,0.1,277.83603,1609797238437
Fix,GT,37.4442872,-122.2574222,121.3838314933777,26.786236,0.1,276.0577,1609797239437
Fix,GT,37.4443086,-122.2577237,122.16445713770388,26.796894,0.1,274.19363,1609797240437
Fix,GT,37.4443229,-122.258026,122.85370595195889,26.801193,0.1,272.5514,1609797241437
Fix,GT,37.4443301,-122.2583284,123.50520838022231,26.759125,0.1,270.88654,1609797242437
Fix,GT,37.4443301,-122.2586308,124.0933401182294,26.771042,0.1,269.02835,1609797243437
Fix,GT,37.4443218,-122.2589336,124.59334872508047,26.869675,0.1,267.06085,1609797244437
Fix,GT,37.4443066,-122.2592375,124.99210730499028,27.017525,0.1,265.72412,1609797245437
Fix,GT,37.4442864,-122.2595425,125.30123164117336,27.142025,0.1,264.74744,1609797246437
Fix,GT,37.4442627,-122.2598486,125.55786214882136,27.288624,0.1,264.11816,1609797247437
Fix,GT,37.4442374,-122.2601567,125.74224517938497,27.582409,0.1,263.98224,1609797248437
Fix,GT,37.444212,-122.2604685,125.87924257698654,27.899208,0.1,264.1917,1609797249437
Fix,GT,37.4441873,-122.2607842,125.98386329042911,28.247063,0.1,264.42303,1609797250437
Fix,GT,37.4441625,-122.2611034,126.14548400217296,28.466106,0.1,264.16028,1609797251437
Fix,GT,37.4441365,-122.2614239,126.3616109276414,28.56592,0.1,264.1836,1609797252437
Fix,GT,37.4441111,-122.2617459,126.57336459869146,28.694506,0.1,264.32532,1609797253437
Fix,GT,37.4440862,-122.2620696,126.72011715078352,28.864037,0.1,264.41162,1609797254437
Fix,GT,37.4440612,-122.262395,126.89011337500811,29.007034,0.1,264.29718,1609797255437
Fix,GT,37.4440351,-122.2627223,127.02999889168144,29.20486,0.1,264.22656,1609797256437
Fix,GT,37.4440094,-122.2630519,127.11024254101514,29.4067,0.1,264.336,1609797257437
Fix,GT,37.4439829,-122.2633836,127.2668670476079,29.600786,0.1,264.00775,1609797258437
Fix,GT,37.4439558,-122.2637173,127.36585346543788,29.74427,0.1,264.2467,1609797259437
Fix,GT,37.4439317,-122.2640522,127.46074497824908,29.760044,0.1,265.34326,1609797260437
Fix,GT,37.4439159,-122.2643885,127.45587683445214,29.891151,0.1,267.6784,1609797261437
Fix,GT,37.4439094,-122.2647272,127.41000109443068,30.095814,0.1,269.36444,1609797262437
Fix,GT,37.4439101,-122.2650684,127.3285073378086,30.26518,0.1,270.81424,1609797263437
Fix,GT,37.4439189,-122.2654107,127.18826479581,30.347836,0.1,272.77762,1609797264437
Fix,GT,37.443937,-122.265754,126.99551222610476,30.558685,0.1,274.62506,1609797265437
Fix,GT,37.4439644,-122.2660982,126.72301955986023,30.635214,0.1,276.46085,1609797266437
Fix,GT,37.4439999,-122.2664416,126.38065005862713,30.665295,0.1,278.00537,1609797267437
Fix,GT,37.4440417,-122.2667844,125.99827566981315,30.710823,0.1,279.28577,1609797268437
Fix,GT,37.4440908,-122.2671262,125.5748963894248,30.731691,0.1,281.14163,1609797269437
Fix,GT,37.4441493,-122.2674658,125.1335268843174,30.766102,0.1,283.04376,1609797270437
Fix,GT,37.4442167,-122.2678032,124.69840370333196,30.796364,0.1,284.9945,1609797271437
Fix,GT,37.4442933,-122.2681379,124.26127935728432,30.850464,0.1,286.91965,1609797272437
Fix,GT,37.4443785,-122.2684702,123.81152687120436,30.904152,0.1,288.5362,1609797273437
Fix,GT,37.4444717,-122.2687993,123.3609012553692,30.92704,0.1,290.3925,1609797274437
Fix,GT,37.4445735,-122.2691244,122.91002930545808,30.874985,0.1,292.33472,1609797275437
Fix,GT,37.4446832,-122.2694447,122.37303783231974,30.836182,0.1,293.97958,1609797276437
Fix,GT,37.4447994,-122.2697612,121.95777319562434,30.85241,0.1,295.3947,1609797277437
Fix,GT,37.4449228,-122.270074,121.54528413897754,30.939133,0.1,297.08167,1609797278437
Fix,GT,37.445054,-122.2703834,121.14777680313588,31.073502,0.1,298.79315,1609797279437
Fix,GT,37.4451936,-122.2706886,120.78889147788286,31.188065,0.1,300.78125,1609797280437
Fix,GT,37.4453415,-122.2709889,120.54263537395,31.262316,0.1,302.4223,1609797281437
Fix,GT,37.4454963,-122.2712835,120.398507322073,31.180061,0.1,304.32828,1609797282437
Fix,GT,37.445658,-122.2715707,120.3006243145764,31.044464,0.1,305.93875,1609797283437
Fix,GT,37.4458259,-122.2718504,120.33874748542904,30.914528,0.1,307.78882,1609797284437
Fix,GT,37.4459993,-122.2721231,120.5286109660268,30.802483,0.1,309.1987,1609797285437
Fix,GT,37.4461777,-122.2723887,120.79885730499028,30.667568,0.1,310.76935,1609797286437
Fix,GT,37.4463596,-122.2726483,121.1426012032628,30.461308,0.1,311.3145,1609797287437
Fix,GT,37.44654,-122.2729058,121.5540987600088,30.234741,0.1,311.09235,1609797288437
Fix,GT,37.4467184,-122.2731619,121.9740987600088,29.923635,0.1,311.03058,1609797289437
Fix,GT,37.4468951,-122.2734143,122.48496582365036,29.443157,0.1,311.19412,1609797290437
Fix,GT,37.4470675,-122.273662,123.05421704745294,28.74723,0.1,311.0428,1609797291437
Fix,GT,37.4472365,-122.2739033,123.66433901384472,28.09233,0.1,311.31604,1609797292437
Fix,GT,37.4474019,-122.2741387,124.34770854121447,27.447735,0.1,311.22192,1609797293437
Fix,GT,37.4475635,-122.2743687,125.0740792236328,26.781235,0.1,311.32126,1609797294437
Fix,GT,37.4477206,-122.274593,125.8233304399848,26.060104,0.1,311.2556,1609797295437
Fix,GT,37.4478741,-122.2748113,126.53433043563363,25.478846,0.1,311.3107,1609797296437
Fix,GT,37.4480244,-122.2750257,127.26508300888538,25.068222,0.1,311.2348,1609797297437
Fix,GT,37.4481729,-122.2752373,127.97621107399463,24.85755,0.1,311.44675,1609797298437
Fix,GT,37.4483215,-122.275447,128.720207254529,24.81629,0.1,311.6063,1609797299437
Fix,GT,37.4484702,-122.2756566,129.42183286517857,24.834288,0.1,311.33655,1609797300437
Fix,GT,37.4486177,-122.2758675,130.11958163964746,24.841152,0.1,311.04156,1609797301437
Fix,GT,37.4487649,-122.2760803,130.8323343099952,25.062767,0.1,310.82227,1609797302437
Fix,GT,37.4489135,-122.2762954,131.55870479428768,25.307709,0.1,310.78473,1609797303437
Fix,GT,37.4490629,-122.2765134,132.28795995560287,25.574163,0.1,310.42575,1609797304437
Fix,GT,37.449213,-122.2767344,132.99021119004487,25.785706,0.1,310.23517,1609797305437
Fix,GT,37.4493642,-122.2769576,133.66421211016177,26.0718,0.1,310.3045,1609797306437
Fix,GT,37.4495169,-122.2771832,134.30996088790891,26.229647,0.1,310.2207,1609797307437
Fix,GT,37.4496691,-122.2774098,134.88397066307067,26.246763,0.1,309.82617,1609797308437
Fix,GT,37.449821,-122.2776389,135.33446735608578,26.49061,0.1,309.56912,1609797309437
Fix,GT,37.4499739,-122.2778705,135.8263539851904,26.719093,0.1,309.50156,1609797310437
Fix,GT,37.4501275,-122.2781037,136.2532308272421,26.765764,0.1,309.40717,1609797311437
Fix,GT,37.4502806,-122.278337,136.6543303616643,26.698187,0.1,309.47717,1609797312437
Fix,GT,37.4504337,-122.2785694,137.12385807058217,26.65503,0.1,309.55383,1609797313437
Fix,GT,37.4505874,-122.2788012,137.42099430915712,26.70292,0.1,309.63083,1609797314437
Fix,GT,37.4507411,-122.2790333,137.64948855754733,26.710926,0.1,309.53412,1609797315437
Fix,GT,37.4508948,-122.279266,137.80974798941614,26.783812,0.1,309.51462,1609797316437
Fix,GT,37.451049,-122.2794998,137.8937528860271,26.90102,0.1,309.45013,1609797317437
Fix,GT,37.4512033,-122.2797349,137.91549344307182,26.987904,0.1,309.38843,1609797318437
Fix,GT,37.4513581,-122.2799708,137.94325122368335,27.088032,0.1,309.26718,1609797319437
Fix,GT,37.4515134,-122.2802078,137.942880946666,27.214462,0.1,309.29333,1609797320437
Fix,GT,37.4516697,-122.2804461,137.90112394982577,27.383196,0.1,309.3563,1609797321437
Fix,GT,37.4518275,-122.2806861,137.76426022571326,27.681904,0.1,309.4827,1609797322437
Fix,GT,37.4519873,-122.2809286,137.62463950556517,28.014555,0.1,309.40735,1609797323437
Fix,GT,37.4521485,-122.2811745,137.3956443977356,28.248281,0.1,309.2539,1609797324437
Fix,GT,37.4523101,-122.2814216,137.11164030200243,28.291933,0.1,309.24844,1609797325437
Fix,GT,37.4524718,-122.2816682,136.7602667376101,28.1954,0.1,309.421,1609797326437
Fix,GT,37.4526332,-122.2819139,136.3721435856521,28.156193,0.1,309.29028,1609797327437
Fix,GT,37.4527941,-122.2821598,135.9440285410583,28.130219,0.1,309.27112,1609797328437
Fix,GT,37.4529545,-122.2824046,135.46652779501676,27.956886,0.1,309.33737,1609797329437
Fix,GT,37.4531143,-122.2826483,134.92254075542093,27.91492,0.1,309.33145,1609797330437
Fix,GT,37.4532743,-122.2828918,134.33353673911094,27.929325,0.1,309.54065,1609797331437
Fix,GT,37.4534356,-122.2831346,133.7069071466327,28.01766,0.1,309.7548,1609797332437
Fix,GT,37.4535976,-122.2833786,133.09578797113895,28.165466,0.1,309.64136,1609797333437
Fix,GT,37.4537601,-122.2836245,132.47603430318833,28.35664,0.1,309.35742,1609797334437
Fix,GT,37.453923,-122.2838727,131.84965991574526,28.54801,0.1,309.31842,1609797335437
Fix,GT,37.4540867,-122.2841232,131.23154165387157,28.779472,0.1,309.20618,1609797336437
Fix,GT,37.4542515,-122.2843759,130.57003921127318,28.97863,0.1,309.2085,1609797337437
Fix,GT,37.4544168,-122.2846299,129.95841747424006,29.000538,0.1,309.12207,1609797338437
Fix,GT,37.4545824,-122.2848833,129.31166482394934,29.002167,0.1,309.3808,1609797339437
Fix,GT,37.4547485,-122.2851366,128.68228169780969,29.029734,0.1,309.34702,1609797340437
Fix,GT,37.454915,-122.2853894,128.04854165387155,28.99646,0.1,309.6274,1609797341437
Fix,GT,37.4550819,-122.2856415,127.3954097918272,29.004879,0.1,309.51553,1609797342437
Fix,GT,37.4552487,-122.2858942,126.70691491943596,29.038834,0.1,309.56448,1609797343437
Fix,GT,37.4554151,-122.2861475,126.0601586138606,29.06484,0.1,309.2223,1609797344437
Fix,GT,37.4555811,-122.2864014,125.37091604930164,28.989733,0.1,309.23334,1609797345437
Fix,GT,37.455747,-122.2866533,124.61580150577426,28.824234,0.1,309.6976,1609797346437
Fix,GT,37.4559136,-122.2869027,123.88466603901983,28.778267,0.1,309.8396,1609797347437
Fix,GT,37.4560813,-122.2871508,123.24928430896998,28.787666,0.1,310.8171,1609797348437
Fix,GT,37.4562552,-122.2873922,122.79902326664327,28.782726,0.1,313.22202,1609797349437
Fix,GT,37.4564362,-122.2876252,122.43401595932244,28.797647,0.1,315.04276,1609797350437
Fix,GT,37.4566234,-122.2878506,122.20850735354423,28.783989,0.1,317.07074,1609797351437
Fix,GT,37.4568164,-122.2880676,122.0842597655654,28.754814,0.1,318.9747,1609797352437
Fix,GT,37.4570147,-122.2882762,122.06312679961324,28.683186,0.1,320.87738,1609797353437
Fix,GT,37.4572173,-122.2884766,122.18561945065856,28.590942,0.1,322.35245,1609797354437
Fix,GT,37.4574231,-122.2886698,122.42747794365884,28.462234,0.1,323.9681,1609797355437
Fix,GT,37.457633,-122.2888535,122.80597915121912,28.350082,0.1,326.11444,1609797356437
Fix,GT,37.4578478,-122.2890266,123.27109865492582,28.335445,0.1,328.1394,1609797357437
Fix,GT,37.4580666,-122.2891917,123.81171077728273,28.356674,0.1,329.63586,1609797358437
Fix,GT,37.4582894,-122.2893486,124.3838388234079,28.360632,0.1,331.5741,1609797359437
Fix,GT,37.4585163,-122.2894964,124.95645834612849,28.3932,0.1,333.19205,1609797360437
Fix,GT,37.4587469,-122.2896351,125.56484138092398,28.338099,0.1,335.30682,1609797361437
Fix,GT,37.4589799,-122.2897641,126.16334499639272,28.237007,0.1,336.90454,1609797362437
Fix,GT,37.4592158,-122.289884,126.74958754730226,28.261288,0.1,338.79376,1609797363437
Fix,GT,37.459455,-122.2899947,127.2599706144333,28.336063,0.1,340.4743,1609797364437
Fix,GT,37.4596973,-122.2900972,127.84584147071836,28.436653,0.1,342.028,1609797365437
Fix,GT,37.4599427,-122.2901916,128.3899597621858,28.52856,0.1,343.8608,1609797366437
Fix,GT,37.4601911,-122.290276,128.9797243026495,28.617002,0.1,345.917,1609797367437
Fix,GT,37.4604428,-122.2903463,129.66783279937505,28.636208,0.1,348.3578,1609797368437
Fix,GT,37.4606964,-122.2904062,130.26896576356887,28.592258,0.1,350.1337,1609797369437
Fix,GT,37.4609496,-122.2904549,130.81446821522712,28.276985,0.1,352.2894,1609797370437
Fix,GT,37.4612012,-122.2904925,131.36308895409107,27.977745,0.1,354.15225,1609797371437
Fix,GT,37.4614521,-122.2905172,131.92309778031705,27.959202,0.1,356.77136,1609797372437
Fix,GT,37.4617039,-122.2905284,132.56207920128105,27.957634,0.1,358.68732,1609797373437
Fix,GT,37.4619552,-122.2905338,133.2884575779438,27.82259,0.1,359.04102,1609797374437
Fix,GT,37.4622055,-122.2905401,133.93634022015334,27.743576,0.1,358.61957,1609797375437
Fix,GT,37.4624549,-122.2905466,134.5169658370018,27.642403,0.1,358.82346,1609797376437
Fix,GT,37.4627036,-122.2905528,135.04121706354618,27.591204,0.1,358.7107,1609797377437
Fix,GT,37.462952,-122.2905592,135.59246425697208,27.552753,0.1,358.6821,1609797378437
Fix,GT,37.4631997,-122.2905663,136.20259147655963,27.440975,0.1,358.47272,1609797379437
Fix,GT,37.4634458,-122.2905753,136.8559520519674,27.126623,0.1,358.08508,1609797380437
Fix,GT,37.4636872,-122.2905862,137.6439471731782,26.49529,0.1,357.74777,1609797381437
Fix,GT,37.4639236,-122.2905984,138.3998371103704,26.064415,0.1,357.61526,1609797382437
Fix,GT,37.464157,-122.2906115,138.93197565269472,25.816616,0.1,357.16992,1609797383437
Fix,GT,37.4643883,-122.2906292,139.28684833580257,25.679684,0.1,355.8189,1609797384437
Fix,GT,37.4646188,-122.2906538,139.63560614562036,25.684128,0.1,354.4293,1609797385437
Fix,GT,37.4648489,-122.2906851,139.96260129159688,25.653378,0.1,353.06012,1609797386437
Fix,GT,37.4650774,-122.2907234,140.246104411155,25.492062,0.1,351.7008,1609797387437
Fix,GT,37.4653034,-122.2907672,140.50873001727462,25.281898,0.1,350.71695,1609797388437
Fix,GT,37.4655265,-122.2908148,140.76047880476713,24.923502,0.1,350.19247,1609797389437
Fix,GT,37.4657456,-122.2908623,140.98161589747667,24.437973,0.1,350.29834,1609797390437
Fix,GT,37.4659607,-122.2909071,141.22234592247008,23.941746,0.1,350.81088,1609797391437
Fix,GT,37.4661715,-122.2909493,141.51509956142309,23.461208,0.1,350.9265,1609797392437
Fix,GT,37.4663781,-122.2909911,141.82024089366195,22.970903,0.1,350.35944,1609797393437
Fix,GT,37.4665796,-122.2910368,142.14635500591993,22.473,0.1,349.0295,1609797394437
Fix,GT,37.466776,-122.2910876,142.36098606768252,22.051304,0.1,347.62253,1609797395437
Fix,GT,37.4669677,-122.2911441,142.3643749947548,21.708023,0.1,346.09283,1609797396437
Fix,GT,37.4671561,-122.2912046,142.12839375829697,21.46437,0.1,345.21323,1609797397437
Fix,GT,37.4673419,-122.2912681,141.77702903366088,21.312977,0.1,344.41904,1609797398437
Fix,GT,37.4675257,-122.2913332,141.14941792869567,20.9445,0.1,344.08215,1609797399437
Fix,GT,37.4677032,-122.2913993,140.64142757683993,20.111319,0.1,342.7629,1609797400437
Fix,GT,37.4678705,-122.2914696,139.8800573220551,18.96399,0.1,340.40298,1609797401437
Fix,GT,37.4680251,-122.2915406,139.00792924630642,17.492058,0.1,339.5311,1609797402437
Fix,GT,37.468166,-122.2916048,138.14080259674787,15.821087,0.1,340.28357,1609797403437
Fix,GT,37.4682937,-122.2916605,137.2930523365438,14.09989,0.1,341.12463,1609797404437
Fix,GT,37.4684049,-122.2917066,136.57878254699705,11.848917,0.1,341.90363,1609797405437
Fix,GT,37.4684964,-122.291743,136.13151762875916,9.453709,0.1,342.4983,1609797406437
Fix,GT,37.4685665,-122.2917719,135.85288643813135,6.89417,0.1,341.21292,1609797407437
Fix,GT,37.4686145,-122.2917938,135.72225197184088,4.4933634,0.1,339.72647,1609797408437
Fix,GT,37.4686447,-122.2918099,135.67025120270253,2.8584032,0.1,337.0597,1609797409437
Fix,GT,37.468662,-122.2918202,135.63712396246194,1.537565,0.1,335.52872,1609797410437
Fix,GT,37.468672,-122.2918264,135.60862155926228,0.92994225,0.1,334.54315,1609797411437
Fix,GT,37.4686765,-122.2918294,135.59762964144352,0.16288672,0.1,334.07794,1609797412437
Fix,GT,37.4686766,-122.2918295,135.5899959591031,0.002236068,0.1,334.06894,1609797413437
Fix,GT,37.4686766,-122.2918295,135.5879959591627,0.0016255997,0.1,334.06607,1609797414437
Fix,GT,37.4686766,-122.2918295,135.58700404080747,0.001,0.1,334.06546,1609797415437
Fix,GT,37.4686766,-122.2918294,135.587,0.0008847306,0.1,334.0644,1609797416437
Fix,GT,37.4686766,-122.2918294,135.588,0.00062559877,0.1,334.06433,1609797417437
Fix,GT,37.4686766,-122.2918294,135.589,0.0,0.1,334.06473,1609797418437
Fix,GT,37.4686766,-122.2918294,135.58700404080747,0.00062559824,0.1,334.06506,1609797419437
Fix,GT,37.4686766,-122.2918294,135.587,0.0,0.1,334.06482,1609797420437
Fix,GT,37.4686767,-122.2918294,135.586,0.0003744024,0.1,334.06467,1609797421437
Fix,GT,37.4686767,-122.2918294,135.584,0.00037440265,0.1,334.06488,1609797422437
Fix,GT,37.4686767,-122.2918294,135.584,0.001,0.1,334.06476,1609797423437
Fix,GT,37.4686767,-122.2918294,135.583,0.00037440314,0.1,334.06506,1609797424437
Fix,GT,37.4686767,-122.2918294,135.58200404065846,0.001,0.1,334.06503,1609797425437
Fix,GT,37.4686767,-122.2918294,135.5820040406585,0.001,0.1,334.06497,1609797426437
Fix,GT,37.4686767,-122.2918294,135.5809959593713,0.0014627888,0.1,334.06467,1609797427437
Fix,GT,37.4686767,-122.2918294,135.57999595940117,0.0055104294,0.1,334.06116,1609797428437
Fix,GT,37.4686794,-122.2918311,135.56562559562923,0.84195024,0.1,333.78583,1609797429437
Fix,GT,37.4686904,-122.2918387,135.5498767863512,1.970155,0.1,332.50354,1609797430437
Fix,GT,37.4687116,-122.2918548,135.53499596074224,3.5890236,0.1,329.36697,1609797431437
Fix,GT,37.4687428,-122.2918844,135.57474881005288,4.956001,0.1,322.13782,1609797432437
Fix,GT,37.468775,-122.2919316,135.758492862463,5.888601,0.1,307.3801,1609797433437
Fix,GT,37.4687922,-122.2919976,135.91761203160883,6.371114,0.1,283.12576,1609797434437
Fix,GT,37.4687857,-122.2920729,135.98549357020858,7.1982427,0.1,258.73767,1609797435437
Fix,GT,37.4687559,-122.2921522,136.01049357041717,8.268561,0.1,239.89423,1609797436437
Fix,GT,37.4687055,-122.2922293,136.04125118768215,9.412927,0.1,228.47195,1609797437437
Fix,GT,37.4686419,-122.2923105,136.03812796801327,10.764211,0.1,224.41638,1609797438437
Fix,GT,37.4685697,-122.2923986,136.00037915354966,11.3313465,0.1,224.1375,1609797439437
Fix,GT,37.4684969,-122.2924876,135.8658855726421,11.231298,0.1,224.22368,1609797440437
Fix,GT,37.4684254,-122.2925764,135.63788626372815,11.101664,0.1,225.38498,1609797441437
Fix,GT,37.4683584,-122.2926692,135.36864455741645,11.043976,0.1,228.9694,1609797442437
Fix,GT,37.4682948,-122.2927654,135.01777724814417,11.067838,0.1,230.4484,1609797443437
Fix,GT,37.4682298,-122.2928611,134.59602842140197,11.160777,0.1,228.32327,1609797444437
Fix,GT,37.4681595,-122.2929524,134.08916509935258,11.296135,0.1,224.78932,1609797445437
Fix,GT,37.468086,-122.2930404,133.49879140615465,10.989698,0.1,223.58548,1609797446437
Fix,GT,37.4680217,-122.2931256,132.9056626626849,9.786194,0.1,229.07596,1609797447437
Fix,GT,37.4679765,-122.2932135,132.27265946125982,8.886864,0.1,241.42989,1609797448437
Fix,GT,37.4679542,-122.2933104,131.45605670547485,9.171462,0.1,260.29538,1609797449437
Fix,GT,37.4679678,-122.2934134,130.81652125597003,9.347048,0.1,288.3347,1609797450437
Fix,GT,37.4680163,-122.2935009,130.65812322938442,9.805085,0.1,309.9483,1609797451437
Fix,GT,37.4680836,-122.2935861,130.6957449249923,11.419352,0.1,315.9455,1609797452437
Fix,GT,37.4681643,-122.2936789,130.80474410271643,12.904703,0.1,317.63385,1609797453437
Fix,GT,37.4682559,-122.2937814,130.9131090837717,14.294989,0.1,318.26028,1609797454437
Fix,GT,37.4683558,-122.2938909,131.3187205374241,14.94136,0.1,318.89124,1609797455437
Fix,GT,37.4684581,-122.2940008,131.8432134848833,14.892855,0.1,319.62238,1609797456437
Fix,GT,37.4685603,-122.294106,132.4710855560899,14.374716,0.1,321.14822,1609797457437
Fix,GT,37.4686612,-122.2942005,133.17182968729736,13.565199,0.1,325.6716,1609797458437
Fix,GT,37.4687664,-122.2942668,133.9934505879879,12.60115,0.1,339.09003,1609797459437
Fix,GT,37.4688732,-122.2942921,134.83695227086545,11.630262,0.1,355.14838,1609797460437
Fix,GT,37.4689745,-122.2942817,135.6337105448246,11.170713,0.1,9.472778,1609797461437
Fix,GT,37.4690695,-122.2942408,136.36595362868906,11.177475,0.1,23.945404,1609797462437
Fix,GT,37.4691538,-122.2941719,137.08808564394712,11.21892,0.1,37.85797,1609797463437
Fix,GT,37.4692226,-122.2940784,137.77371125102042,11.38233,0.1,52.167114,1609797464437
Fix,GT,37.4692716,-122.2939642,138.45158745145798,11.587133,0.1,66.94647,1609797465437
Fix,GT,37.4692976,-122.293836,139.1009619010091,11.856741,0.1,80.611755,1609797466437
Fix,GT,37.4692978,-122.2937011,139.8224595937133,12.077366,0.1,94.853485,1609797467437
Fix,GT,37.4692705,-122.2935674,140.53908572381735,12.449524,0.1,110.02185,1609797468437
Fix,GT,37.4692135,-122.2934433,141.2000904275775,13.015515,0.1,125.76529,1609797469437
Fix,GT,37.46913,-122.2933324,141.72859747046232,14.06117,0.1,136.17365,1609797470437
Fix,GT,37.4690313,-122.2932222,142.2013463077545,15.268364,0.1,139.06674,1609797471437
Fix,GT,37.4689218,-122.2931061,142.6285979258716,16.591011,0.1,140.112,1609797472437
Fix,GT,37.4688016,-122.2929825,143.02497701439262,17.896923,0.1,141.22562,1609797473437
Fix,GT,37.4686688,-122.2928543,143.11625543507932,19.330528,0.1,143.33914,1609797474437
Fix,GT,37.4685214,-122.292723,142.99300935554504,20.777096,0.1,145.51276,1609797475437
Fix,GT,37.46836,-122.2925902,142.8332601025999,21.940195,0.1,147.84753,1609797476437
Fix,GT,37.4681856,-122.2924612,142.63413302120568,23.028315,0.1,150.81836,1609797477437
Fix,GT,37.4679979,-122.2923368,142.42538376277685,24.148739,0.1,152.99164,1609797478437
Fix,GT,37.4677974,-122.2922145,142.20125627452134,25.316309,0.1,154.6737,1609797479437
Fix,GT,37.4675859,-122.2920935,142.00963536542656,26.240437,0.1,156.00293,1609797480437
Fix,GT,37.4673657,-122.2919768,141.7310186805725,26.809784,0.1,158.01562,1609797481437
Fix,GT,37.4671381,-122.2918677,141.42038375383615,27.23723,0.1,159.83447,1609797482437
Fix,GT,37.4669058,-122.2917637,141.21838841980696,27.491611,0.1,160.63977,1609797483437
Fix,GT,37.4666708,-122.2916624,140.91664425057172,27.657839,0.1,161.28333,1609797484437
Fix,GT,37.4664336,-122.2915647,140.6806400526762,27.746855,0.1,162.34613,1609797485437
Fix,GT,37.4661938,-122.2914742,140.37926097312572,27.842926,0.1,164.03217,1609797486437
Fix,GT,37.4659512,-122.2913929,140.1107674844265,27.893715,0.1,165.73285,1609797487437
Fix,GT,37.4657064,-122.2913209,139.84689073115587,27.92165,0.1,167.90625,1609797488437
Fix,GT,37.4654595,-122.29126,139.5793832376897,27.959259,0.1,169.76135,1609797489437
Fix,GT,37.4652102,-122.2912079,139.28764421910049,28.151709,0.1,171.01184,1609797490437
Fix,GT,37.4649584,-122.2911608,138.96513774338365,28.334785,0.1,171.87561,1609797491437
Fix,GT,37.4647046,-122.2911206,138.66127392315866,28.46149,0.1,173.77234,1609797492437
Fix,GT,37.4644489,-122.2910899,138.29340181329846,28.554855,0.1,175.25745,1609797493437
Fix,GT,37.4641918,-122.2910675,137.89389590612055,28.647419,0.1,176.63019,1609797494437
Fix,GT,37.4639338,-122.291051,137.52926977312563,28.682394,0.1,177.51343,1609797495437
Fix,GT,37.4636754,-122.2910393,137.18727441561222,28.72115,0.1,178.1358,1609797496437
Fix,GT,37.4634164,-122.2910295,136.7419087126851,28.802694,0.1,178.29932,1609797497437
Fix,GT,37.4631568,-122.2910199,136.21040694659948,28.844227,0.1,178.21082,1609797498437
Fix,GT,37.4628971,-122.2910101,135.68403252077104,28.810867,0.1,178.29498,1609797499437
Fix,GT,37.4626381,-122.2910016,135.13177670526505,28.680742,0.1,178.71765,1609797500437
Fix,GT,37.4623806,-122.2909947,134.77251625037192,28.495483,0.1,178.70636,1609797501437
Fix,GT,37.4621248,-122.2909867,134.4913883471489,28.3138,0.1,178.39905,1609797502437
Fix,GT,37.4618706,-122.290976,134.26077140647172,28.134214,0.1,177.78522,1609797503437
Fix,GT,37.4616181,-122.2909612,133.92427436304092,27.991995,0.1,176.67902,1609797504437
Fix,GT,37.461367,-122.2909379,133.43803645309805,27.916666,0.1,174.86401,1609797505437
Fix,GT,37.461117,-122.2909047,132.8700324707031,27.881786,0.1,173.11938,1609797506437
Fix,GT,37.4608681,-122.2908619,132.29241547098755,27.918064,0.1,171.3471,1609797507437
Fix,GT,37.4606195,-122.2908097,131.7187852291167,28.041044,0.1,169.71954,1609797508437
Fix,GT,37.4603708,-122.2907487,131.1404154216349,28.203976,0.1,168.03125,1609797509437
Fix,GT,37.4601224,-122.2906772,130.62541076311467,28.37637,0.1,166.14502,1609797510437
Fix,GT,37.4598743,-122.2905952,130.0046533885002,28.577776,0.1,164.39978,1609797511437
Fix,GT,37.4596266,-122.2905033,129.4301518432796,28.781029,0.1,162.60956,1609797512437
Fix,GT,37.4593794,-122.2904013,128.84690453505516,28.980047,0.1,160.93872,1609797513437
Fix,GT,37.4591333,-122.290289,128.32703626072407,29.13301,0.1,159.02246,1609797514437
Fix,GT,37.4588893,-122.2901657,127.7572835958004,29.245209,0.1,157.28296,1609797515437
Fix,GT,37.4586472,-122.2900338,127.17153475427628,29.357964,0.1,155.78479,1609797516437
Fix,GT,37.4584076,-122.2898922,126.53015656375884,29.428005,0.1,153.76855,1609797517437
Fix,GT,37.4581713,-122.2897407,125.9434077397585,29.474022,0.1,152.17175,1609797518437
Fix,GT,37.4579384,-122.2895803,125.37527986040712,29.510979,0.1,150.26086,1609797519437
Fix,GT,37.4577094,-122.2894104,124.83915107107164,29.55201,0.1,148.55481,1609797520437
Fix,GT,37.4574845,-122.2892313,124.37003151476384,29.572132,0.1,146.60562,1609797521437
Fix,GT,37.4572649,-122.2890421,123.99813810646536,29.557241,0.1,144.49573,1609797522437
Fix,GT,37.457051,-122.2888435,123.75801759526134,29.510239,0.1,142.57614,1609797523437
Fix,GT,37.4568421,-122.2886377,123.58062653246522,29.446613,0.1,141.00043,1609797524437
Fix,GT,37.4566392,-122.2884243,123.50863389703632,29.33888,0.1,138.91302,1609797525437
Fix,GT,37.4564427,-122.2882038,123.5651186244488,29.176125,0.1,137.40955,1609797526437
Fix,GT,37.4562529,-122.2879773,123.76211303660271,28.974102,0.1,135.58344,1609797527437
Fix,GT,37.4560697,-122.2877456,124.06661072689296,28.781391,0.1,134.14978,1609797528437
Fix,GT,37.4558924,-122.2875099,124.45334752681852,28.56791,0.1,132.35925,1609797529437
Fix,GT,37.455723,-122.2872682,124.86685355055332,28.387161,0.1,130.26544,1609797530437
Fix,GT,37.4555597,-122.2870219,125.1538665537536,28.325062,0.1,129.32175,1609797531437
Fix,GT,37.4553978,-122.286774,125.41085818308594,28.402107,0.1,129.33441,1609797532437
Fix,GT,37.4552349,-122.2865262,125.78884425932168,28.448513,0.1,129.50256,1609797533437
Fix,GT,37.4550714,-122.2862783,126.32446519565582,28.453014,0.1,129.44708,1609797534437
Fix,GT,37.4549086,-122.2860302,126.96583411055803,28.415474,0.1,129.33142,1609797535437
Fix,GT,37.454746,-122.2857825,127.59646898514032,28.353504,0.1,129.40112,1609797536437
Fix,GT,37.4545838,-122.2855353,128.21146900346875,28.308632,0.1,129.34787,1609797537437
Fix,GT,37.4544221,-122.2852883,128.8462140096426,28.251984,0.1,129.32166,1609797538437
Fix,GT,37.4542605,-122.2850418,129.44596284484862,28.205374,0.1,129.54648,1609797539437
Fix,GT,37.4540986,-122.2847968,130.06221399486066,28.109158,0.1,129.53497,1609797540437
Fix,GT,37.4539374,-122.2845522,130.65559229788184,28.04889,0.1,129.47394,1609797541437
Fix,GT,37.4537766,-122.2843082,131.2680907264948,27.991955,0.1,129.4638,1609797542437
Fix,GT,37.4536163,-122.2840644,131.89496281433105,27.931873,0.1,129.40714,1609797543437
Fix,GT,37.4534566,-122.2838207,132.52996675759553,27.88149,0.1,129.24374,1609797544437
Fix,GT,37.4532975,-122.2835772,133.15559699326752,27.835196,0.1,129.29541,1609797545437
Fix,GT,37.4531386,-122.2833342,133.7348355488479,27.776514,0.1,129.31702,1609797546437
Fix,GT,37.4529797,-122.283092,134.2822192480862,27.745098,0.1,129.48315,1609797547437
Fix,GT,37.4528203,-122.2828503,134.77509131971,27.781267,0.1,129.5285,1609797548437
Fix,GT,37.4526605,-122.2826083,135.2357215357423,27.814678,0.1,129.46387,1609797549437
Fix,GT,37.4525008,-122.2823658,135.66384881359338,27.859388,0.1,129.47504,1609797550437
Fix,GT,37.4523408,-122.2821227,136.05697732123733,27.947489,0.1,129.46588,1609797551437
Fix,GT,37.4521805,-122.2818783,136.37347497951984,28.038204,0.1,129.24268,1609797552437
Fix,GT,37.4520203,-122.2816329,136.67773486077783,28.11557,0.1,129.27036,1609797553437
Fix,GT,37.451859,-122.281387,136.89361160486936,28.223305,0.1,129.42871,1609797554437
Fix,GT,37.4516968,-122.2811404,137.09423718464376,28.35238,0.1,129.39484,1609797555437
Fix,GT,37.451534,-122.2808925,137.2534970983565,28.492085,0.1,129.43042,1609797556437
Fix,GT,37.4513706,-122.2806436,137.36649766898157,28.53051,0.1,129.37769,1609797557437
Fix,GT,37.4512075,-122.2803947,137.42574883437155,28.477915,0.1,129.37201,1609797558437
Fix,GT,37.4510447,-122.2801462,137.4278767489791,28.449333,0.1,129.33472,1609797559437
Fix,GT,37.4508818,-122.2798979,137.37275816357135,28.471138,0.1,129.41913,1609797560437
Fix,GT,37.4507185,-122.2796495,137.2783837493658,28.516499,0.1,129.52008,1609797561437
Fix,GT,37.4505542,-122.2794012,137.11975407984852,28.57433,0.1,129.61414,1609797562437
Fix,GT,37.45039,-122.2791519,136.89814192062616,28.65519,0.1,129.45456,1609797563437
Fix,GT,37.4502256,-122.2789017,136.69114192408324,28.730438,0.1,129.33441,1609797564437
Fix,GT,37.450061,-122.2786503,136.383397759974,28.844498,0.1,129.29388,1609797565437
Fix,GT,37.4498962,-122.2783977,135.98077217638493,28.875978,0.1,129.276,1609797566437
Fix,GT,37.4497311,-122.2781461,135.61114255416393,28.797798,0.1,129.54095,1609797567437
Fix,GT,37.4495657,-122.2778957,135.1391512695551,28.757088,0.1,129.6437,1609797568437
Fix,GT,37.4493999,-122.2776462,134.6655303528309,28.73011,0.1,129.86877,1609797569437
Fix,GT,37.4492335,-122.2773975,134.11978619730473,28.738424,0.1,129.92322,1609797570437
Fix,GT,37.449067,-122.2771486,133.4889141204357,28.768194,0.1,129.92108,1609797571437
Fix,GT,37.4488997,-122.2769001,132.81166762810943,28.780071,0.1,130.28784,1609797572437
Fix,GT,37.4487315,-122.2766527,132.06329321646692,28.799515,0.1,130.51617,1609797573437
Fix,GT,37.448562,-122.2764058,131.23517464560268,28.854515,0.1,130.80035,1609797574437
Fix,GT,37.4483913,-122.2761596,130.419672314167,28.874525,0.1,131.14642,1609797575437
Fix,GT,37.4482193,-122.2759148,129.60267231416702,28.853346,0.1,131.33463,1609797576437
Fix,GT,37.4480473,-122.2756705,128.77954523018002,28.837885,0.1,131.43369,1609797577437
Fix,GT,37.4478755,-122.275426,127.9298002347946,28.83149,0.1,131.15869,1609797578437
Fix,GT,37.4477044,-122.2751809,127.1096769977808,28.815067,0.1,131.0943,1609797579437
Fix,GT,37.4475336,-122.2749358,126.27405051088334,28.810635,0.1,131.08414,1609797580437
Fix,GT,37.4473626,-122.2746907,125.446046749115,28.80244,0.1,131.25244,1609797581437
Fix,GT,37.4471909,-122.2744467,124.61966862103344,28.821285,0.1,131.38455,1609797582437
Fix,GT,37.4470192,-122.2742019,123.8161700052023,28.8591,0.1,131.20413,1609797583437
Fix,GT,37.4468473,-122.273957,123.08628857588768,28.884937,0.1,131.3377,1609797584437
Fix,GT,37.4466751,-122.2737122,122.4355314140916,28.891731,0.1,131.40573,1609797585437
Fix,GT,37.4465028,-122.2734676,121.8964024707079,28.853804,0.1,131.31165,1609797586437
Fix,GT,37.4463314,-122.2732233,121.50777115872503,28.739208,0.1,131.27203,1609797587437
Fix,GT,37.4461613,-122.2729795,121.26801764407752,28.602552,0.1,131.04645,1609797588437
Fix,GT,37.4459922,-122.2727368,121.05576286125182,28.450047,0.1,131.24924,1609797589437
Fix,GT,37.4458247,-122.2724951,120.92863493824004,28.22427,0.1,130.44257,1609797590437
Fix,GT,37.4456623,-122.2722507,120.81837549084425,28.099361,0.1,129.07233,1609797591437
Fix,GT,37.445506,-122.2720013,120.75300107729434,28.059097,0.1,127.2045,1609797592437
Fix,GT,37.4453559,-122.2717461,120.71213151982428,28.083973,0.1,125.73111,1609797593437
Fix,GT,37.4452102,-122.2714859,120.75987567660212,28.170795,0.1,124.44983,1609797594437
Fix,GT,37.4450694,-122.2712213,120.872990650177,28.123627,0.1,122.881836,1609797595437
Fix,GT,37.4449352,-122.2709525,121.07286166223884,28.020061,0.1,121.493774,1609797596437
Fix,GT,37.4448061,-122.270681,121.36510560792684,27.936554,0.1,120.01013,1609797597437
Fix,GT,37.4446825,-122.2704064,121.6471055995226,27.852062,0.1,118.76944,1609797598437
Fix,GT,37.4445651,-122.2701291,121.9837264996469,27.72361,0.1,117.168335,1609797599437
Fix,GT,37.4444542,-122.2698491,122.31885338294506,27.59203,0.1,115.58154,1609797600437
Fix,GT,37.4443503,-122.2695666,122.5966209115386,27.495329,0.1,114.0376,1609797601437
Fix,GT,37.4442522,-122.2692818,122.85785440182686,27.38911,0.1,112.71991,1609797602437
Fix,GT,37.4441604,-122.2689955,123.2154883198738,27.225327,0.1,111.105225,1609797603437
Fix,GT,37.4440753,-122.2687078,123.58685339397192,27.092924,0.1,109.58008,1609797604437
Fix,GT,37.4439963,-122.2684186,123.87097762337326,27.00955,0.1,108.28793,1609797605437
Fix,GT,37.4439232,-122.2681279,124.19423248517514,26.936043,0.1,106.66806,1609797606437
Fix,GT,37.4438566,-122.2678355,124.50385340058804,26.874718,0.1,105.22818,1609797607437
Fix,GT,37.4437957,-122.2675421,124.81360690689088,26.817852,0.1,103.94571,1609797608437
Fix,GT,37.4437403,-122.2672475,125.12785434800386,26.763254,0.1,102.608826,1609797609437
Fix,GT,37.4436908,-122.2669516,125.42922875905036,26.72128,0.1,101.12726,1609797610437
Fix,GT,37.4436469,-122.266655,125.73060691428184,26.669178,0.1,99.87268,1609797611437
Fix,GT,37.4436087,-122.2663579,126.02473483288288,26.60819,0.1,98.40924,1609797612437
Fix,GT,37.4435768,-122.2660601,126.2867348344326,26.572605,0.1,96.97745,1609797613437
Fix,GT,37.4435506,-122.2657617,126.54273950076104,26.551083,0.1,95.538574,1609797614437
Fix,GT,37.4435309,-122.2654627,126.71523717153072,26.554354,0.1,93.95972,1609797615437
Fix,GT,37.4435169,-122.2651625,126.86661247301102,26.690342,0.1,92.720215,1609797616437
Fix,GT,37.4435083,-122.2648598,126.97962091779708,26.914793,0.1,91.370605,1609797617437
Fix,GT,37.4435052,-122.2645544,127.04524650096894,27.15434,0.1,90.09149,1609797618437
Fix,GT,37.4435078,-122.264246,127.02701021087172,27.436115,0.1,88.59622,1609797619437
Fix,GT,37.4435169,-122.2639346,127.01311013409494,27.685564,0.1,87.11713,1609797620437
Fix,GT,37.4435332,-122.263621,126.9784985485077,27.920292,0.1,85.54181,1609797621437
Fix,GT,37.4435569,-122.2633056,126.94600088223817,28.16869,0.1,83.52826,1609797622437
Fix,GT,37.4435888,-122.2629883,126.72201865959168,28.473679,0.1,82.36505,1609797623437
Fix,GT,37.4436238,-122.262668,126.42039308017492,28.72421,0.1,82.052734,1609797624437
Fix,GT,37.4436596,-122.2623458,126.08852099847796,28.85157,0.1,82.10486,1609797625437
Fix,GT,37.4436942,-122.2620218,125.75189541518688,29.007236,0.1,82.29266,1609797626437
Fix,GT,37.443729,-122.2616961,125.4807628337145,29.153809,0.1,82.29944,1609797627437
Fix,GT,37.4437638,-122.261369,125.27763118472694,29.25343,0.1,82.33139,1609797628437
Fix,GT,37.443799,-122.261041,125.08700933647155,29.304733,0.1,82.20282,1609797629437
Fix,GT,37.4438353,-122.2607129,124.92763492000104,29.314528,0.1,81.78888,1609797630437
Fix,GT,37.4438726,-122.2603849,124.72376283895969,29.29676,0.1,81.894806,1609797631437
Fix,GT,37.4439085,-122.2600573,124.4417638013661,29.191982,0.1,82.33038,1609797632437
Fix,GT,37.4439413,-122.2597315,124.06790010201932,28.90597,0.1,83.34024,1609797633437
Fix,GT,37.4439681,-122.2594082,123.6471512722373,28.640213,0.1,84.72687,1609797634437
Fix,GT,37.4439875,-122.2590868,123.188525693655,28.407778,0.1,86.46567,1609797635437
Fix,GT,37.4439989,-122.2587674,122.69440711706878,28.212408,0.1,88.25726,1609797636437
Fix,GT,37.4440026,-122.2584484,122.1340373802185,28.28036,0.1,89.91876,1609797637437
Fix,GT,37.443998,-122.2581281,121.49866296815873,28.422203,0.1,91.91278,1609797638437
Fix,GT,37.4439839,-122.2578063,120.79554079496862,28.58645,0.1,94.11447,1609797639437
Fix,GT,37.4439616,-122.257484,120.03804673480988,28.686665,0.1,95.50894,1609797640437
Fix,GT,37.4439328,-122.2571612,119.2078002450466,28.801945,0.1,97.27014,1609797641437
Fix,GT,37.4438946,-122.2568385,118.31617581039669,28.945774,0.1,99.48541,1609797642437
Fix,GT,37.4438472,-122.2565161,117.34292934498193,29.082249,0.1,101.15811,1609797643437
Fix,GT,37.4437916,-122.2561943,116.28668634569644,29.211468,0.1,103.31769,1609797644437
Fix,GT,37.4437264,-122.2558736,115.17906887927651,29.365736,0.1,105.09396,1609797645437
Fix,GT,37.4436527,-122.255554,113.97232129240037,29.532022,0.1,107.07181,1609797646437
Fix,GT,37.4435701,-122.2552357,112.75857114452124,29.711153,0.1,108.68588,1609797647437
Fix,GT,37.4434799,-122.2549184,111.550569124192,29.898436,0.1,110.513794,1609797648437
Fix,GT,37.4433806,-122.2546035,110.33907010936738,30.017029,0.1,112.503235,1609797649437
Fix,GT,37.4432729,-122.2542921,109.12131659710408,30.057709,0.1,114.29468,1609797650437
Fix,GT,37.443157,-122.253985,107.89794683277609,30.0769,0.1,116.31778,1609797651437
Fix,GT,37.4430326,-122.2536832,106.66932124876976,30.054497,0.1,118.25629,1609797652437
Fix,GT,37.4429003,-122.253387,105.45431809371708,30.028091,0.1,120.13757,1609797653437
Fix,GT,37.4427601,-122.2530971,104.26857239460946,29.99955,0.1,122.1264,1609797654437
Fix,GT,37.4426121,-122.2528136,103.05981580132246,29.97895,0.1,124.19043,1609797655437
Fix,GT,37.4424559,-122.2525374,101.8429467741251,29.961275,0.1,126.33243,1609797656437
Fix,GT,37.4422933,-122.2522675,100.71118092489242,29.905836,0.1,127.63751,1609797657437
Fix,GT,37.4421245,-122.252004,99.50681882834436,29.988068,0.1,129.67303,1609797658437
Fix,GT,37.4419465,-122.2517468,98.2100746307373,30.33099,0.1,132.10541,1609797659437
Fix,GT,37.4417592,-122.251494,97.07080656817556,30.745739,0.1,133.38065,1609797660437
Fix,GT,37.4415667,-122.2512413,95.97731644082069,31.11773,0.1,133.81204,1609797661437
Fix,GT,37.4413711,-122.2509864,94.73856941828132,31.499613,0.1,133.76758,1609797662437
Fix,GT,37.4411734,-122.2507284,93.4695750079155,31.79684,0.1,133.82538,1609797663437
Fix,GT,37.4409741,-122.2504685,92.21706987333296,31.99403,0.1,133.83246,1609797664437
Fix,GT,37.4407738,-122.250208,90.95220241123435,32.079372,0.1,133.92685,1609797665437
Fix,GT,37.4405729,-122.2499468,89.69131831625103,32.114136,0.1,133.84894,1609797666437
Fix,GT,37.4403724,-122.2496857,88.38345149767399,32.051346,0.1,133.81055,1609797667437
Fix,GT,37.4401726,-122.2494245,87.12295377090572,32.01911,0.1,133.63248,1609797668437
Fix,GT,37.4399732,-122.2491634,85.88481858217716,31.952755,0.1,133.70563,1609797669437
Fix,GT,37.4397738,-122.2489035,84.67107437133788,31.896824,0.1,133.93332,1609797670437
Fix,GT,37.439574,-122.2486447,83.33970456790925,31.866405,0.1,134.18625,1609797671437
Fix,GT,37.4393731,-122.2483877,81.96007431793213,31.827576,0.1,134.53906,1609797672437
Fix,GT,37.4391711,-122.2481332,80.69469986009598,31.73402,0.1,135.0379,1609797673437
Fix,GT,37.4389686,-122.2478806,79.3804533097744,31.66498,0.1,135.0795,1609797674437
Fix,GT,37.4387673,-122.2476302,78.15157422620058,31.13649,0.1,135.13324,1609797675437
Fix,GT,37.4385706,-122.2473865,76.83918817591666,30.133366,0.1,135.54053,1609797676437
Fix,GT,37.4383801,-122.2471577,75.79832295280694,28.405277,0.1,137.29242,1609797677437
Fix,GT,37.4381937,-122.2469514,74.6511812801361,26.95448,0.1,139.43341,1609797678437
Fix,GT,37.4380101,-122.2467599,73.49919275689126,26.059124,0.1,140.60059,1609797679437
Fix,GT,37.4378309,-122.2465768,72.42055079269409,25.290445,0.1,140.6352,1609797680437
Fix,GT,37.4376564,-122.246397,71.34430922442675,24.952644,0.1,140.29272,1609797681437
Fix,GT,37.4374838,-122.246218,70.3198115438521,24.780075,0.1,140.46906,1609797682437
Fix,GT,37.4373121,-122.2460407,69.35992763471604,24.621063,0.1,140.59961,1609797683437
Fix,GT,37.4371413,-122.2458641,68.33155986300112,24.48707,0.1,140.57831,1609797684437
Fix,GT,37.4369735,-122.2456899,67.32005348789693,23.771057,0.1,140.24854,1609797685437
Fix,GT,37.4368126,-122.2455207,66.20294146841763,22.818754,0.1,140.12997,1609797686437
Fix,GT,37.4366591,-122.2453571,65.04719260346889,21.834194,0.1,139.15039,1609797687437
Fix,GT,37.4365152,-122.2451987,63.89369490027427,20.559734,0.1,138.36282,1609797688437
Fix,GT,37.4363829,-122.2450507,62.8236791421473,18.71874,0.1,138.24884,1609797689437
Fix,GT,37.4362637,-122.2449183,61.88279964530467,16.648699,0.1,138.4198,1609797690437
Fix,GT,37.4361588,-122.2448011,61.07841598200798,14.54669,0.1,138.1861,1609797691437
Fix,GT,37.4360665,-122.2446981,60.35678859063983,12.900606,0.1,138.314,1609797692437
Fix,GT,37.4359853,-122.2446069,59.732909034371374,11.360371,0.1,138.13135,1609797693437
Fix,GT,37.4359126,-122.2445253,59.20765325707197,10.351831,0.1,138.14429,1609797694437
Fix,GT,37.4358438,-122.2444484,58.73014919286966,10.062662,0.1,138.37589,1609797695437
Fix,GT,37.4357772,-122.2443748,58.29452248620987,9.766966,0.1,138.64594,1609797696437
Fix,GT,37.4357109,-122.244302,57.950020166695126,9.782499,0.1,138.83502,1609797697437
Fix,GT,37.435645,-122.2442302,57.678637681990864,9.497128,0.1,138.97968,1609797698437
Fix,GT,37.435581,-122.2441608,57.448884230345485,9.336933,0.1,139.30627,1609797699437
Fix,GT,37.4355173,-122.2440926,57.29350520211458,9.258066,0.1,139.49951,1609797700437
Fix,GT,37.4354542,-122.2440249,57.15963188427686,9.1705675,0.1,139.3852,1609797701437
Fix,GT,37.4353922,-122.2439573,57.0718813303113,9.0606,0.1,138.87045,1609797702437
Fix,GT,37.4353317,-122.2438906,56.93813417559862,8.742771,0.1,138.73816,1609797703437
Fix,GT,37.4352755,-122.2438271,56.80800460100174,8.033556,0.1,137.44604,1609797704437
Fix,GT,37.435229,-122.2437632,56.6345160984993,7.370679,0.1,129.84015,1609797705437
Fix,GT,37.4351963,-122.2436928,56.47988132178783,7.0966387,0.1,116.697296,1609797706437
