MessageType,Provider,LatitudeDegrees,LongitudeDegrees,AltitudeMeters,SpeedMps,AccuracyMeters,BearingDegrees,UnixTimeMillis
Fix,GT,37.3711959,-122.0477152,9.215000274628402,0.001,0.1,279.69266,1629837163437
Fix,GT,37.3711959,-122.0477152,9.215,0.001,0.1,279.6926,1629837164437
Fix,GT,37.3711959,-122.0477152,9.215,0.001,0.1,279.6926,1629837165437
Fix,GT,37.3711959,-122.0477152,9.215000274628402,0.0003725204,0.1,279.69247,1629837166437
Fix,GT,37.3711959,-122.0477152,9.215,0.001,0.1,279.6924,1629837167437
Fix,GT,37.3711959,-122.0477152,9.215,0.00088739,0.1,279.69257,1629837168437
Fix,GT,37.3711959,-122.0477152,9.2150002746284,0.0003725205,0.1,279.6925,1629837169437
Fix,GT,37.3711959,-122.0477152,9.2150002746284,0.0013725206,0.1,279.6923,1629837170437
Fix,GT,37.3711959,-122.0477152,9.215,0.0014142136,0.1,279.6922,1629837171437
Fix,GT,37.3711959,-122.0477152,9.215,0.0003725206,0.1,279.69257,1629837172437
Fix,GT,37.3711959,-122.0477152,9.215000274628402,0.0016274796,0.1,279.6927,1629837173437
Fix,GT,37.3711959,-122.0477152,9.2150002746284,0.0011543032,0.1,279.69263,1629837174437
Fix,GT,37.3711959,-122.0477152,9.215000274628402,0.001,0.1,279.6925,1629837175437
Fix,GT,37.3711959,-122.0477152,9.215,0.002301603,0.1,279.6926,1629837176437
Fix,GT,37.3711959,-122.0477152,9.214999725371598,0.0013725209,0.1,279.6925,1629837177437
Fix,GT,37.3711959,-122.0477152,9.2150002746284,0.0,0.1,279.69263,1629837178437
Fix,GT,37.3711959,-122.0477152,9.214999725371598,0.0,0.1,279.69254,1629837179437
Fix,GT,37.3711959,-122.0477152,9.215,0.00037252106,0.1,279.6925,1629837180437
Fix,GT,37.3711959,-122.0477152,9.215,0.0,0.1,279.69247,1629837181437
Fix,GT,37.3711959,-122.0477152,9.215,0.001,0.1,279.69244,1629837182437
Fix,GT,37.3711959,-122.0477152,9.214999725371598,0.0,0.1,279.69244,1629837183437
Fix,GT,37.3711959,-122.0477152,9.215000274628402,0.001,0.1,279.6924,1629837184437
Fix,GT,37.3711959,-122.0477152,9.214999725371598,0.0011175635,0.1,279.69247,1629837185437
Fix,GT,37.3711959,-122.0477152,9.215000274628402,0.000627479,0.1,279.69254,1629837186437
Fix,GT,37.3711959,-122.0477152,9.214999725371598,0.0012599102,0.1,279.69254,1629837187437
Fix,GT,37.3711959,-122.0477152,9.215000274628402,0.0014142136,0.1,279.69257,1629837188437
Fix,GT,37.3711959,-122.0477152,9.214999725371598,0.0016274789,0.1,279.69238,1629837189437
Fix,GT,37.3711959,-122.0477152,9.2150002746284,0.0012599103,0.1,279.69226,1629837190437
Fix,GT,37.3711959,-122.0477152,9.2149997253716,0.00062747876,0.1,279.6922,1629837191437
Fix,GT,37.3711959,-122.0477152,9.215,0.0012599102,0.1,279.6923,1629837192437
Fix,GT,37.3711959,-122.0477152,9.215,0.0,0.1,279.69238,1629837193437
Fix,GT,37.3711959,-122.0477152,9.214999725371598,0.0014142136,0.1,279.69275,1629837194437
Fix,GT,37.3711959,-122.0477152,9.214999725371598,0.0008873888,0.1,279.69244,1629837195437
Fix,GT,37.3711959,-122.0477152,9.2150002746284,0.0016324316,0.1,279.6922,1629837196437
Fix,GT,37.3711959,-122.0477152,9.215,0.0011543036,0.1,279.69202,1629837197437
Fix,GT,37.3711959,-122.0477152,9.215,0.00037252155,0.1,279.69196,1629837198437
Fix,GT,37.3711959,-122.0477152,9.215,0.00037252155,0.1,279.69208,1629837199437
Fix,GT,37.3711959,-122.0477152,9.215,0.0006274785,0.1,279.6922,1629837200437
Fix,GT,37.3711959,-122.0477152,9.215000274628402,0.0,0.1,279.6922,1629837201437
Fix,GT,37.3711959,-122.0477152,9.215000274628402,0.0,0.1,279.69214,1629837202437
Fix,GT,37.3711959,-122.0477152,9.215000274628402,0.0,0.1,279.69196,1629837203437
Fix,GT,37.3711959,-122.0477152,9.214999725371598,0.0,0.1,279.69196,1629837204437
Fix,GT,37.3711959,-122.0477152,9.215,0.0,0.1,279.69196,1629837205437
Fix,GT,37.3711959,-122.0477152,9.214999725371598,0.001,0.1,279.69186,1629837206437
Fix,GT,37.3711959,-122.0477152,9.2150002746284,0.0010000002,0.1,279.6919,1629837207437
Fix,GT,37.3711959,-122.0477152,9.215,0.0006274784,0.1,279.69208,1629837208437
Fix,GT,37.3711959,-122.0477152,9.2150002746284,0.0,0.1,279.69208,1629837209437
Fix,GT,37.3711959,-122.0477152,9.214999725371598,0.00037252187,0.1,279.692,1629837210437
Fix,GT,37.3711959,-122.0477152,9.2150002746284,0.0010000002,0.1,279.6919,1629837211437
Fix,GT,37.3711959,-122.0477152,9.2150002746284,0.0010000002,0.1,279.69202,1629837212437
Fix,GT,37.3711959,-122.0477152,9.215,0.0014142136,0.1,279.69226,1629837213437
Fix,GT,37.3711959,-122.0477152,9.2150002746284,0.0006274782,0.1,279.6922,1629837214437
Fix,GT,37.3711959,-122.0477152,9.2149997253716,0.0,0.1,279.69208,1629837215437
Fix,GT,37.3711959,-122.0477152,9.215,0.0,0.1,279.69208,1629837216437
Fix,GT,37.3711959,-122.0477152,9.215000274628402,0.0010000002,0.1,279.69214,1629837217437
Fix,GT,37.3711959,-122.0477152,9.215,0.001,0.1,279.69232,1629837218437
Fix,GT,37.3711959,-122.0477152,9.215,0.0006274779,0.1,279.69214,1629837219437
Fix,GT,37.3711959,-122.0477152,9.215,0.001,0.1,279.69193,1629837220437
Fix,GT,37.3711959,-122.0477152,9.2150002746284,0.0,0.1,279.69186,1629837221437
Fix,GT,37.3711959,-122.0477152,9.2150002746284,0.0,0.1,279.69202,1629837222437
Fix,GT,37.3711959,-122.0477152,9.2149997253716,0.0009999999,0.1,279.69214,1629837223437
Fix,GT,37.3711959,-122.0477152,9.214999725371598,0.0014142136,0.1,279.69196,1629837224437
Fix,GT,37.3711959,-122.0477152,9.214999725371598,0.0009999999,0.1,279.6919,1629837225437
Fix,GT,37.3711959,-122.0477152,9.215,0.001,0.1,279.69196,1629837226437
Fix,GT,37.3711959,-122.0477152,9.215,0.001,0.1,279.69202,1629837227437
Fix,GT,37.3711959,-122.0477152,9.215,0.001,0.1,279.69177,1629837228437
Fix,GT,37.3711959,-122.0477152,9.215,0.001,0.1,279.69174,1629837229437
Fix,GT,37.3711959,-122.0477152,9.215,0.00062747754,0.1,279.69177,1629837230437
Fix,GT,37.3711959,-122.0477152,9.214999725371598,0.0006274774,0.1,279.69202,1629837231437
Fix,GT,37.3711959,-122.0477152,9.215,0.0,0.1,279.69183,1629837232437
Fix,GT,37.3711959,-122.0477152,9.2149997253716,0.0,0.1,279.6917,1629837233437
Fix,GT,37.3711959,-122.0477152,9.215,0.0,0.1,279.69174,1629837234437
Fix,GT,37.3711959,-122.0477152,9.215,0.0,0.1,279.6919,1629837235437
Fix,GT,37.3711959,-122.0477152,9.215,0.0,0.1,279.69183,1629837236437
Fix,GT,37.3711959,-122.0477152,9.2149997253716,0.0,0.1,279.69168,1629837237437
Fix,GT,37.3711959,-122.0477152,9.215,0.0,0.1,279.69186,1629837238437
Fix,GT,37.3711959,-122.0477152,9.215,0.001,0.1,279.69202,1629837239437
Fix,GT,37.3711959,-122.0477152,9.215,0.0,0.1,279.6919,1629837240437
Fix,GT,37.3711959,-122.0477152,9.215,0.0,0.1,279.69186,1629837241437
Fix,GT,37.3711959,-122.0477152,9.215,0.001,0.1,279.6918,1629837242437
Fix,GT,37.3711959,-122.0477152,9.214999725371598,0.0014142136,0.1,279.69168,1629837243437
Fix,GT,37.3711959,-122.0477152,9.215,0.0037524928,0.1,279.69247,1629837244437
Fix,GT,37.3711959,-122.0477152,9.215,0.002952794,0.1,279.69156,1629837245437
Fix,GT,37.3711959,-122.0477152,9.216,0.0029596752,0.1,279.69125,1629837246437
Fix,GT,37.3711959,-122.0477152,9.217,0.0048222933,0.1,279.69217,1629837247437
Fix,GT,37.371196,-122.0477164,9.212372249096632,0.42008448,0.1,279.69125,1629837248437
Fix,GT,37.3711973,-122.0477256,9.200627476274969,1.1980622,0.1,279.68204,1629837249437
Fix,GT,37.3712004,-122.0477414,9.182255226045848,1.5969946,0.1,282.1343,1629837250437
Fix,GT,37.3712098,-122.0477567,9.158254952311516,1.5771174,0.1,297.4496,1629837251437
Fix,GT,37.3712243,-122.0477661,9.123882428467274,1.8105075,0.1,318.59857,1629837252437
Fix,GT,37.3712456,-122.0477687,9.093510175317526,2.5635304,0.1,343.99835,1629837253437
Fix,GT,37.3712731,-122.0477619,9.03101980829239,3.3582807,0.1,6.4779053,1629837254437
Fix,GT,37.3713053,-122.0477467,8.993490096330643,4.2034454,0.1,18.91861,1629837255437
Fix,GT,37.3713439,-122.047729,8.977000267535448,4.8337245,0.1,19.625244,1629837256437
Fix,GT,37.371385,-122.0477111,8.968490364402534,4.776479,0.1,19.054382,1629837257437
Fix,GT,37.3714251,-122.0476955,8.949117572963239,4.4315405,0.1,16.955292,1629837258437
Fix,GT,37.3714583,-122.0476839,8.970745316147804,3.1771345,0.1,15.499481,1629837259437
Fix,GT,37.3714815,-122.047676,8.999372256278992,2.2265406,0.1,15.192749,1629837260437
Fix,GT,37.3714986,-122.0476702,9.039470563620329,1.6497025,0.1,15.08316,1629837261437
Fix,GT,37.3715091,-122.0476666,9.053,0.6878186,0.1,15.027679,1629837262437
Fix,GT,37.3715108,-122.0476661,9.051745049118995,0.0040702354,0.1,15.019806,1629837263437
Fix,GT,37.3715108,-122.0476661,9.05200026977062,0.002939036,0.1,15.019531,1629837264437
Fix,GT,37.3715108,-122.0476661,9.053000269800425,0.002817242,0.1,15.01889,1629837265437
Fix,GT,37.3715108,-122.0476661,9.053372524678707,0.002236068,0.1,15.018982,1629837266437
Fix,GT,37.371511,-122.0476661,9.051254950404168,0.15150888,0.1,15.021698,1629837267437
Fix,GT,37.3715178,-122.0476636,9.051862623989582,1.6637377,0.1,15.247986,1629837268437
Fix,GT,37.3715379,-122.0476546,8.994177245646716,2.831739,0.1,18.937073,1629837269437
Fix,GT,37.3715621,-122.0476308,8.922823288321496,3.795833,0.1,36.735077,1629837270437
Fix,GT,37.3715823,-122.0475881,9.074352454185489,5.0608435,0.1,60.032806,1629837271437
Fix,GT,37.3715914,-122.0475197,9.11160740315914,7.080304,0.1,83.81937,1629837272437
Fix,GT,37.3715841,-122.0474277,9.116882153064012,9.227275,0.1,98.08261,1629837273437
Fix,GT,37.3715652,-122.0473152,9.084137645155192,11.016659,0.1,102.8786,1629837274437
Fix,GT,37.3715389,-122.047184,9.040137374818324,12.89714,0.1,104.29968,1629837275437
Fix,GT,37.3715078,-122.0470353,8.977764849781991,14.208444,0.1,104.61545,1629837276437
Fix,GT,37.3714748,-122.0468763,8.911392589777709,14.72065,0.1,104.44705,1629837277437
Fix,GT,37.3714415,-122.0467157,8.827274748444557,14.770863,0.1,104.49872,1629837278437
Fix,GT,37.3714074,-122.0465515,8.750019797801972,15.329996,0.1,104.46747,1629837279437
Fix,GT,37.3713715,-122.0463802,8.633647529125215,16.081745,0.1,104.74884,1629837280437
Fix,GT,37.3713333,-122.0462006,8.544,16.8238,0.1,104.70758,1629837281437
Fix,GT,37.371294,-122.0460134,8.458529694557189,17.368847,0.1,104.697266,1629837282437
Fix,GT,37.3712539,-122.045823,8.377509897947311,17.51417,0.1,104.75421,1629837283437
Fix,GT,37.3712133,-122.0456311,8.35225519773364,17.660269,0.1,104.81302,1629837284437
Fix,GT,37.3711721,-122.0454387,8.36,17.586754,0.1,105.092926,1629837285437
Fix,GT,37.3711299,-122.0452475,8.380000249743462,17.576021,0.1,105.3876,1629837286437
Fix,GT,37.3710874,-122.0450563,8.403117827564477,17.602894,0.1,105.55029,1629837287437
Fix,GT,37.3710441,-122.0448648,8.393137371242046,17.650692,0.1,105.71445,1629837288437
Fix,GT,37.3710006,-122.0446727,8.35115716445446,17.732182,0.1,105.79242,1629837289437
Fix,GT,37.3709568,-122.0444796,8.2603923189044,17.824621,0.1,105.850525,1629837290437
Fix,GT,37.3709118,-122.0442863,8.186784636974334,17.818398,0.1,106.55499,1629837291437
Fix,GT,37.3708651,-122.0440949,8.039902214765549,17.630339,0.1,107.075195,1629837292437
Fix,GT,37.3708183,-122.0439059,7.89690244859457,17.474195,0.1,107.2641,1629837293437
Fix,GT,37.3707711,-122.0437178,7.772902212142945,17.45907,0.1,107.48004,1629837294437
Fix,GT,37.3707234,-122.0435298,7.644176949203015,17.491365,0.1,107.65317,1629837295437
Fix,GT,37.3706751,-122.0433417,7.53739231556654,17.524015,0.1,107.870056,1629837296437
Fix,GT,37.3706266,-122.0431535,7.417784851104021,17.510395,0.1,107.77713,1629837297437
Fix,GT,37.3705783,-122.0429653,7.308274952352047,17.505047,0.1,107.69739,1629837298437
Fix,GT,37.3705302,-122.0427771,7.21150989317894,17.50852,0.1,107.623474,1629837299437
Fix,GT,37.3704824,-122.0425887,7.120157364010811,17.525873,0.1,107.509674,1629837300437
Fix,GT,37.3704349,-122.0424002,7.019392311811448,17.498878,0.1,107.40018,1629837301437
Fix,GT,37.3703872,-122.0422121,6.9303921045660974,17.463604,0.1,107.61502,1629837302437
Fix,GT,37.370339,-122.0420245,6.834274728775025,17.45551,0.1,107.89145,1629837303437
Fix,GT,37.3702898,-122.0418372,6.768647053271533,17.449223,0.1,108.33789,1629837304437
Fix,GT,37.3702397,-122.0416507,6.697510090559721,17.429811,0.1,108.64612,1629837305437
Fix,GT,37.3701887,-122.0414648,6.648745054721832,17.385551,0.1,109.0744,1629837306437
Fix,GT,37.3701369,-122.04128,6.6101375595033165,17.325066,0.1,109.26123,1629837307437
Fix,GT,37.3700853,-122.0410952,6.5530197792053215,17.296507,0.1,108.85138,1629837308437
Fix,GT,37.370035,-122.0409105,6.487627665609121,17.268463,0.1,108.613556,1629837309437
Fix,GT,37.3699858,-122.0407258,6.474255137234926,17.23092,0.1,108.19153,1629837310437
Fix,GT,37.3699378,-122.040541,6.446627664148808,17.164532,0.1,107.76453,1629837311437
Fix,GT,37.3698913,-122.0403576,6.412765022546052,16.934322,0.1,107.53302,1629837312437
Fix,GT,37.3698452,-122.0401769,6.379019583523274,16.666603,0.1,107.696014,1629837313437
Fix,GT,37.3697997,-122.0399992,6.334764640003443,16.402817,0.1,107.72571,1629837314437
Fix,GT,37.3697552,-122.0398244,6.284392299294472,16.139486,0.1,107.76123,1629837315437
Fix,GT,37.3697106,-122.0396524,6.195882228672504,15.8903055,0.1,107.89346,1629837316437
Fix,GT,37.3696666,-122.0394833,6.169235174179077,15.592569,0.1,107.88486,1629837317437
Fix,GT,37.369624,-122.0393181,6.1931175879836085,15.191475,0.1,107.71231,1629837318437
Fix,GT,37.3695828,-122.0391563,6.19388241147995,14.89072,0.1,107.52219,1629837319437
Fix,GT,37.3695426,-122.0389978,6.171745059490204,14.596863,0.1,107.500916,1629837320437
Fix,GT,37.3695035,-122.0388444,6.144745059847832,13.706757,0.1,107.67865,1629837321437
Fix,GT,37.3694677,-122.0387056,6.114627652227878,12.0769825,0.1,107.85434,1629837322437
Fix,GT,37.3694364,-122.0385854,6.091,10.368202,0.1,107.98947,1629837323437
Fix,GT,37.3694094,-122.0384818,6.066882228225469,8.939288,0.1,108.07666,1629837324437
Fix,GT,37.3693864,-122.0383939,6.071255119979382,7.505884,0.1,107.87695,1629837325437
Fix,GT,37.3693674,-122.0383194,6.055627649873495,6.243469,0.1,107.752075,1629837326437
Fix,GT,37.3693525,-122.0382614,6.045862833768129,4.51781,0.1,107.70694,1629837327437
Fix,GT,37.3693422,-122.0382214,6.04088240736723,3.0336664,0.1,107.729095,1629837328437
Fix,GT,37.369334,-122.0381892,6.022882407009601,3.0738552,0.1,107.69537,1629837329437
Fix,GT,37.3693246,-122.0381527,6.015372351765633,3.738566,0.1,107.60916,1629837330437
Fix,GT,37.3693142,-122.0381112,6.013000179201365,3.8341491,0.1,107.53851,1629837331437
Fix,GT,37.3693039,-122.0380706,6.002,3.7037797,0.1,107.44379,1629837332437
Fix,GT,37.3692944,-122.0380326,6.007372531533241,3.2329714,0.1,107.36438,1629837333437
Fix,GT,37.3692866,-122.0380019,6.00737253177166,2.4718275,0.1,107.58771,1629837334437
Fix,GT,37.3692813,-122.037981,6.012000179171562,1.3446522,0.1,107.761475,1629837335437
Fix,GT,37.3692792,-122.0379732,6.009000179082156,0.16677931,0.1,107.80701,1629837336437
Fix,GT,37.3692792,-122.0379731,6.002627646863461,0.00037253206,0.1,107.81186,1629837337437
Fix,GT,37.3692792,-122.0379731,6.001,0.0019299008,0.1,107.81094,1629837338437
Fix,GT,37.3692792,-122.0379731,6.001,0.001,0.1,107.81146,1629837339437
Fix,GT,37.3692792,-122.0379731,6.001,0.001,0.1,107.811584,1629837340437
Fix,GT,37.3692792,-122.0379731,6.000999821156263,0.0007450657,0.1,107.8118,1629837341437
Fix,GT,37.3692792,-122.0379731,6.001,0.001372533,0.1,107.81189,1629837342437
Fix,GT,37.3692792,-122.0379731,6.0010001788437375,0.001,0.1,107.811676,1629837343437
Fix,GT,37.3692792,-122.0379731,6.000999821156263,0.0031139534,0.1,107.81116,1629837344437
Fix,GT,37.3692787,-122.0379713,5.993999821364879,0.54660416,0.1,107.83417,1629837345437
Fix,GT,37.3692751,-122.0379576,5.987,2.0873113,0.1,107.92813,1629837346437
Fix,GT,37.3692667,-122.0379252,5.974627288520336,3.9529111,0.1,108.02908,1629837347437
Fix,GT,37.369253,-122.0378732,5.969999822080135,5.764149,0.1,108.004425,1629837348437
Fix,GT,37.3692342,-122.0377995,5.964372355788946,7.8653717,0.1,107.69745,1629837349437
Fix,GT,37.36921,-122.0377051,5.952254932880402,9.5990505,0.1,107.71634,1629837350437
Fix,GT,37.3691817,-122.0375939,5.924745243728161,11.175554,0.1,107.56769,1629837351437
Fix,GT,37.3691498,-122.0374659,5.919999823570251,12.363783,0.1,107.08426,1629837352437
Fix,GT,37.3691177,-122.0373317,5.903764797925949,12.447092,0.1,106.31082,1629837353437
Fix,GT,37.3690869,-122.0371948,5.890745242953301,12.81337,0.1,105.302,1629837354437
Fix,GT,37.3690568,-122.0370522,5.857,13.334852,0.1,104.38812,1629837355437
Fix,GT,37.3690274,-122.0369031,5.798647194743156,13.862328,0.1,103.49292,1629837356437
Fix,GT,37.3689985,-122.0367481,5.738882397890091,14.333838,0.1,102.93121,1629837357437
Fix,GT,37.3689691,-122.0365877,5.6831371599435805,14.8148155,0.1,102.92032,1629837358437
Fix,GT,37.3689387,-122.0364232,5.630117770314216,15.067541,0.1,102.90912,1629837359437
Fix,GT,37.3689081,-122.0362567,5.597882564306259,15.128855,0.1,102.92102,1629837360437
Fix,GT,37.3688772,-122.0360905,5.575882397174835,15.138493,0.1,103.06879,1629837361437
Fix,GT,37.3688463,-122.0359238,5.562627299845218,15.152521,0.1,102.91766,1629837362437
Fix,GT,37.3688156,-122.0357575,5.547627465605736,15.077307,0.1,103.00998,1629837363437
Fix,GT,37.3687849,-122.0355922,5.521372534453869,14.967047,0.1,102.93024,1629837364437
Fix,GT,37.3687553,-122.0354288,5.488764792561531,14.706732,0.1,102.62503,1629837365437
Fix,GT,37.3687263,-122.0352667,5.456254930853843,14.780168,0.1,102.456726,1629837366437
Fix,GT,37.368697,-122.0351034,5.4232547691464426,14.783342,0.1,102.864624,1629837367437
Fix,GT,37.3686668,-122.0349416,5.399019562184811,14.73513,0.1,103.14551,1629837368437
Fix,GT,37.3686352,-122.0347775,5.395745069146156,15.196112,0.1,103.88284,1629837369437
Fix,GT,37.3685995,-122.0346088,5.373509861707688,15.66729,0.1,105.33234,1629837370437
Fix,GT,37.3685598,-122.0344391,5.329509861946106,15.594784,0.1,106.87924,1629837371437
Fix,GT,37.3685169,-122.034272,5.318490138053894,15.511716,0.1,108.44098,1629837372437
Fix,GT,37.368469,-122.0341087,5.291647189378738,15.293474,0.1,111.13013,1629837373437
Fix,GT,37.3684181,-122.03395,5.254372378021479,15.001678,0.1,112.09912,1629837374437
Fix,GT,37.3683669,-122.033795,5.222882240504027,14.715295,0.1,112.74783,1629837375437
Fix,GT,37.3683138,-122.0336436,5.204372379511595,14.669388,0.1,114.33386,1629837376437
Fix,GT,37.3682566,-122.0334937,5.164627465367317,14.68465,0.1,116.125305,1629837377437
Fix,GT,37.3681965,-122.0333471,5.104627465307713,14.471802,0.1,117.59418,1629837378437
Fix,GT,37.3681352,-122.0332046,5.083117603898049,14.186994,0.1,118.67563,1629837379437
Fix,GT,37.3680731,-122.0330666,5.076489987164735,13.887966,0.1,119.74075,1629837380437
Fix,GT,37.3680101,-122.0329332,5.097745069026948,13.580179,0.1,121.17807,1629837381437
Fix,GT,37.3679455,-122.0328048,5.074999848753214,13.300877,0.1,122.72034,1629837382437
Fix,GT,37.3678798,-122.0326811,5.063254931092263,13.02805,0.1,124.07446,1629837383437
Fix,GT,37.3678132,-122.0325616,5.046882246106863,12.758373,0.1,125.379425,1629837384437
Fix,GT,37.367746,-122.0324456,5.020254781395197,12.770176,0.1,126.091034,1629837385437
Fix,GT,37.3676768,-122.0323274,4.999490137815475,13.289852,0.1,126.36914,1629837386437
Fix,GT,37.3676029,-122.0322047,4.993764644205571,13.936466,0.1,127.224,1629837387437
Fix,GT,37.3675238,-122.0320783,4.986019575446845,14.501801,0.1,128.58902,1629837388437
Fix,GT,37.3674392,-122.0319496,4.960999852150679,15.038168,0.1,129.9703,1629837389437
Fix,GT,37.3673482,-122.0318198,4.936274655461312,15.578247,0.1,132.31976,1629837390437
Fix,GT,37.3672497,-122.0316901,4.892744923174382,16.097963,0.1,134.17029,1629837391437
Fix,GT,37.3671455,-122.0315599,4.876137182205916,16.552841,0.1,135.55005,1629837392437
Fix,GT,37.367038,-122.0314299,4.855489993274212,16.495096,0.1,136.06033,1629837393437
Fix,GT,37.3669316,-122.031302,4.862882396101952,16.217764,0.1,136.10376,1629837394437
Fix,GT,37.3668269,-122.0311766,4.831254930853843,15.927576,0.1,136.39832,1629837395437
Fix,GT,37.3667239,-122.0310537,4.805019580841065,15.639186,0.1,136.2445,1629837396437
Fix,GT,37.3666231,-122.0309328,4.775117603540421,15.346844,0.1,136.22797,1629837397437
Fix,GT,37.3665242,-122.0308141,4.772764792919159,15.049983,0.1,136.0816,1629837398437
Fix,GT,37.3664265,-122.0306964,4.73976465177536,15.053414,0.1,136.0491,1629837399437
Fix,GT,37.366329,-122.0305788,4.700882256418467,14.951973,0.1,135.96222,1629837400437
Fix,GT,37.3662328,-122.0304626,4.663117464512586,14.702017,0.1,135.90121,1629837401437
Fix,GT,37.3661385,-122.0303484,4.628097741514444,14.419473,0.1,135.8692,1629837402437
Fix,GT,37.3660461,-122.0302364,4.56988226032257,14.141995,0.1,135.87189,1629837403437
Fix,GT,37.3659554,-122.0301263,4.534254930853844,13.829641,0.1,135.74591,1629837404437
Fix,GT,37.3658698,-122.030022,4.527627330452203,12.415754,0.1,135.67502,1629837405437
Fix,GT,37.365796,-122.0299319,4.511627465367317,10.419646,0.1,135.74567,1629837406437
Fix,GT,37.3657366,-122.0298601,4.5016273312270645,7.8413835,0.1,136.0037,1629837407437
Fix,GT,37.3656939,-122.029809,4.483745069146156,5.277554,0.1,136.23956,1629837408437
Fix,GT,37.3656679,-122.0297779,4.474627332031727,2.7526736,0.1,136.25055,1629837409437
Fix,GT,37.3656559,-122.0297635,4.467,1.1349211,0.1,136.2474,1629837410437
Fix,GT,37.3656519,-122.0297588,4.465,0.1378511,0.1,136.23822,1629837411437
Fix,GT,37.3656518,-122.0297587,4.459999867081642,0.0017747397,0.1,136.24054,1629837412437
Fix,GT,37.3656518,-122.0297587,4.459,0.0016274652,0.1,136.23941,1629837413437
Fix,GT,37.3656518,-122.0297587,4.46,0.001,0.1,136.24042,1629837414437
Fix,GT,37.3656518,-122.0297587,4.46,0.0005268439,0.1,136.24045,1629837415437
Fix,GT,37.3656518,-122.0297587,4.459999867081642,0.00037253497,0.1,136.24051,1629837416437
Fix,GT,37.3656518,-122.0297587,4.459999867081642,0.0009999999,0.1,136.24078,1629837417437
Fix,GT,37.3656518,-122.0297587,4.46,0.0005268441,0.1,136.24097,1629837418437
Fix,GT,37.3656518,-122.0297587,4.459999867081642,0.0011543091,0.1,136.24069,1629837419437
Fix,GT,37.3656518,-122.0297587,4.459999867081642,0.0017755893,0.1,136.2406,1629837420437
Fix,GT,37.3656518,-122.0297587,4.46,0.0017747387,0.1,136.24088,1629837421437
Fix,GT,37.3656518,-122.0297587,4.46,0.0023015828,0.1,136.24066,1629837422437
Fix,GT,37.3656518,-122.0297587,4.46,0.0017755892,0.1,136.24054,1629837423437
Fix,GT,37.3656518,-122.0297587,4.46,0.0017755891,0.1,136.24066,1629837424437
Fix,GT,37.3656518,-122.0297587,4.46,0.0014030539,0.1,136.2406,1629837425437
Fix,GT,37.3656518,-122.0297587,4.46,0.0017755891,0.1,136.2406,1629837426437
Fix,GT,37.3656518,-122.0297587,4.46,0.0008873692,0.1,136.24072,1629837427437
Fix,GT,37.3656518,-122.0297587,4.459999867081642,0.001984218,0.1,136.24066,1629837428437
Fix,GT,37.3656518,-122.0297587,4.46,0.0019298983,0.1,136.24063,1629837429437
Fix,GT,37.3656518,-122.0297587,4.46,0.0011543091,0.1,136.24042,1629837430437
Fix,GT,37.3656518,-122.0297587,4.46,0.001,0.1,136.24042,1629837431437
Fix,GT,37.3656518,-122.0297587,4.459999867081642,0.0006274649,0.1,136.24054,1629837432437
Fix,GT,37.3656518,-122.0297587,4.46,0.000627465,0.1,136.24069,1629837433437
Fix,GT,37.3656518,-122.0297587,4.462999866992235,0.000627465,0.1,136.24072,1629837434437
Fix,GT,37.3656518,-122.0297587,4.463,0.00037253488,0.1,136.24084,1629837435437
Fix,GT,37.3656518,-122.0297587,4.463,0.0,0.1,136.241,1629837436437
Fix,GT,37.3656518,-122.0297587,4.463,0.0014142136,0.1,136.24084,1629837437437
Fix,GT,37.3656516,-122.0297584,4.458627465248108,0.2327462,0.1,136.24054,1629837438437
Fix,GT,37.3656472,-122.029753,4.455999867200852,1.1821711,0.1,136.1594,1629837439437
Fix,GT,37.365636,-122.0297394,4.4512547981143,2.3224788,0.1,135.95444,1629837440437
Fix,GT,37.3656158,-122.0297147,4.449627465486527,4.0012894,0.1,135.60736,1629837441437
Fix,GT,37.3655841,-122.0296752,4.440254798680543,5.970788,0.1,135.12958,1629837442437
Fix,GT,37.3655392,-122.0296194,4.4472549309730525,7.8374996,0.1,135.20657,1629837443437
Fix,GT,37.3654854,-122.0295529,4.440254930734635,8.9475765,0.1,135.2851,1629837444437
Fix,GT,37.3654242,-122.0294779,4.443372534692287,10.053387,0.1,135.61621,1629837445437
Fix,GT,37.3653557,-122.0293948,4.450764791846275,11.090895,0.1,135.8873,1629837446437
Fix,GT,37.3652812,-122.0293046,4.446235208511353,11.771282,0.1,135.86307,1629837447437
Fix,GT,37.3652035,-122.0292105,4.411254930377006,12.235027,0.1,136.08209,1629837448437
Fix,GT,37.3651212,-122.029112,4.408254930138588,13.115114,0.1,136.15204,1629837449437
Fix,GT,37.3650325,-122.0290052,4.435235077649355,14.129742,0.1,136.20648,1629837450437
Fix,GT,37.364938,-122.028892,4.445999867498875,14.767975,0.1,136.10529,1629837451437
Fix,GT,37.3648421,-122.0287764,4.430392252981663,14.830588,0.1,136.00864,1629837452437
Fix,GT,37.3647444,-122.028658,4.375490141630173,15.358108,0.1,135.80182,1629837453437
Fix,GT,37.3646435,-122.028535,4.3728822629749775,15.872925,0.1,135.5975,1629837454437
Fix,GT,37.36454,-122.0284094,4.354372406035662,15.962035,0.1,135.95407,1629837455437
Fix,GT,37.3644372,-122.0282852,4.335254798710347,15.72705,0.1,135.93686,1629837456437
Fix,GT,37.3643361,-122.0281631,4.323882519900799,15.433641,0.1,136.0047,1629837457437
Fix,GT,37.3642368,-122.0280434,4.310882518440485,15.137653,0.1,135.99445,1629837458437
Fix,GT,37.3641396,-122.027926,4.307882517278195,14.837588,0.1,135.93988,1629837459437
Fix,GT,37.3640445,-122.0278107,4.285372537314892,14.553773,0.1,135.94073,1629837460437
Fix,GT,37.3639509,-122.0276979,4.273509849309922,14.279792,0.1,136.08148,1629837461437
Fix,GT,37.363859,-122.0275872,4.246509848117828,14.00831,0.1,136.06702,1629837462437
Fix,GT,37.3637688,-122.0274784,4.222372538268566,13.830467,0.1,135.98242,1629837463437
Fix,GT,37.3636793,-122.0273703,4.2411176156997685,13.767654,0.1,135.953,1629837464437
Fix,GT,37.3635902,-122.0272632,4.253627587944269,13.637976,0.1,136.17407,1629837465437
Fix,GT,37.3635015,-122.0271569,4.245254921674729,13.638252,0.1,136.1294,1629837466437
Fix,GT,37.3634124,-122.0270497,4.249882381796837,13.736412,0.1,135.96149,1629837467437
Fix,GT,37.3633238,-122.0269423,4.236117492616176,13.708946,0.1,135.87408,1629837468437
Fix,GT,37.3632338,-122.0268329,4.178627335608006,14.152942,0.1,135.75201,1629837469437
Fix,GT,37.3631413,-122.0267208,4.149882503271103,14.270155,0.1,135.96362,1629837470437
Fix,GT,37.3630492,-122.0266101,4.112509837865829,14.053087,0.1,136.05267,1629837471437
Fix,GT,37.362958,-122.0264993,4.085745081663132,14.288567,0.1,135.6123,1629837472437
Fix,GT,37.362862,-122.026382,4.069862583965064,15.492601,0.1,135.68799,1629837473437
Fix,GT,37.3627585,-122.0262563,4.080882254511118,16.464796,0.1,135.85474,1629837474437
Fix,GT,37.3626493,-122.0261237,4.082352873921394,17.1549,0.1,135.76013,1629837475437
Fix,GT,37.3625376,-122.0259885,4.128490044027567,17.23528,0.1,135.97278,1629837476437
Fix,GT,37.3624259,-122.0258541,4.180745208442211,17.148756,0.1,136.12418,1629837477437
Fix,GT,37.3623146,-122.0257204,4.240607794582845,17.0561,0.1,136.11102,1629837478437
Fix,GT,37.3622041,-122.0255879,4.318725550323725,16.903135,0.1,136.17133,1629837479437
Fix,GT,37.3620943,-122.0254562,4.415352748602629,16.852196,0.1,136.08191,1629837480437
Fix,GT,37.3619849,-122.0253242,4.470215592503548,16.845566,0.1,136.02277,1629837481437
Fix,GT,37.3618752,-122.0251927,4.532862576723098,16.897448,0.1,136.24081,1629837482437
Fix,GT,37.3617643,-122.0250603,4.613117489606142,17.114147,0.1,136.24084,1629837483437
Fix,GT,37.3616522,-122.0249254,4.693745224684477,17.396355,0.1,135.9888,1629837484437
Fix,GT,37.3615386,-122.0247882,4.786470367133617,17.601006,0.1,136.0018,1629837485437
Fix,GT,37.3614238,-122.0246506,4.873862712204456,17.62635,0.1,136.24564,1629837486437
Fix,GT,37.3613092,-122.0245138,4.9299803395271296,17.515583,0.1,136.27213,1629837487437
Fix,GT,37.3611955,-122.0243776,5.016999850481749,17.424812,0.1,136.10297,1629837488437
Fix,GT,37.3610827,-122.0242414,5.092627457559109,17.330748,0.1,135.78271,1629837489437
Fix,GT,37.3609714,-122.0241049,5.162353036522865,17.259634,0.1,135.44305,1629837490437
Fix,GT,37.3608606,-122.0239687,5.237353038758039,17.179361,0.1,135.3977,1629837491437
Fix,GT,37.3607505,-122.023833,5.305117627680302,17.11125,0.1,135.39761,1629837492437
Fix,GT,37.3606406,-122.0236979,5.392333223521709,17.098911,0.1,135.48914,1629837493437
Fix,GT,37.3605302,-122.0235628,5.437490170240402,17.121937,0.1,135.68658,1629837494437
Fix,GT,37.3604198,-122.0234287,5.524725425601005,16.9976,0.1,135.7973,1629837495437
Fix,GT,37.3603104,-122.0232955,5.591862712800502,16.84065,0.1,135.72137,1629837496437
Fix,GT,37.3602022,-122.0231637,5.636980340480805,16.690725,0.1,135.7829,1629837497437
Fix,GT,37.3600946,-122.0230332,5.714117627680301,16.527317,0.1,136.00092,1629837498437
Fix,GT,37.3599877,-122.0229046,5.769980513066054,16.383842,0.1,136.07642,1629837499437
Fix,GT,37.3598818,-122.0227768,5.841117801994086,16.235653,0.1,135.93585,1629837500437
Fix,GT,37.359777,-122.0226504,5.942235432922841,16.079977,0.1,136.07431,1629837501437
Fix,GT,37.3596728,-122.0225252,5.98374526360631,15.975159,0.1,136.13245,1629837502437
Fix,GT,37.3595692,-122.0224008,6.058725606948137,15.899818,0.1,136.08353,1629837503437
Fix,GT,37.359466,-122.0222762,6.1318628959357735,15.89073,0.1,135.91882,1629837504437
Fix,GT,37.3593633,-122.0221516,6.201235256075859,15.885375,0.1,135.78616,1629837505437
Fix,GT,37.3592602,-122.0220264,6.244607985407114,15.964486,0.1,135.84686,1629837506437
Fix,GT,37.3591566,-122.0219009,6.319725617110729,16.029583,0.1,135.81708,1629837507437
Fix,GT,37.3590525,-122.0217748,6.381862904578448,16.104095,0.1,135.974,1629837508437
Fix,GT,37.3589479,-122.0216486,6.436725237756967,16.094507,0.1,136.01721,1629837509437
Fix,GT,37.3588432,-122.021523,6.516235452890395,16.102337,0.1,136.30133,1629837510437
Fix,GT,37.3587378,-122.0213977,6.577744890600442,16.16866,0.1,136.3761,1629837511437
Fix,GT,37.3586324,-122.0212713,6.631235260725021,16.229134,0.1,136.05145,1629837512437
Fix,GT,37.3585268,-122.0211438,6.670627655208111,16.302177,0.1,135.9498,1629837513437
Fix,GT,37.3584211,-122.0210157,6.729352893233299,16.365522,0.1,135.78174,1629837514437
Fix,GT,37.3583152,-122.0208866,6.787097981274128,16.429506,0.1,135.61261,1629837515437
Fix,GT,37.3582092,-122.0207572,6.8467452917099,16.367836,0.1,135.73193,1629837516437
Fix,GT,37.358104,-122.0206295,6.887490381062031,16.116135,0.1,135.71643,1629837517437
Fix,GT,37.3580009,-122.020504,6.93811763215065,15.81079,0.1,135.85907,1629837518437
Fix,GT,37.3578994,-122.0203813,6.975,15.481835,0.1,135.8805,1629837519437
Fix,GT,37.3578004,-122.0202613,6.963627455592157,15.121597,0.1,135.78009,1629837520437
Fix,GT,37.3577036,-122.0201435,6.955372751712799,14.829276,0.1,135.86432,1629837521437
Fix,GT,37.3576083,-122.0200281,6.913,14.644606,0.1,135.88318,1629837522437
Fix,GT,37.357513,-122.0199129,6.880627455353737,14.753822,0.1,136.03662,1629837523437
Fix,GT,37.3574165,-122.019797,6.8201372764706605,14.940783,0.1,136.10876,1629837524437
Fix,GT,37.3573187,-122.0196793,6.727274551153183,15.156637,0.1,136.03384,1629837525437
Fix,GT,37.3572195,-122.0195601,6.629372742593288,15.372923,0.1,136.1261,1629837526437
Fix,GT,37.3571189,-122.0194391,6.508274742543698,15.58401,0.1,135.99405,1629837527437
Fix,GT,37.3570172,-122.0193162,6.402510009765625,15.767544,0.1,135.91095,1629837528437
Fix,GT,37.3569148,-122.0191926,6.317529455661774,15.816605,0.1,136.02325,1629837529437
Fix,GT,37.3568117,-122.0190682,6.203274545192718,15.961337,0.1,135.97574,1629837530437
Fix,GT,37.3567076,-122.0189427,6.091784361600876,16.09752,0.1,135.97156,1629837531437
Fix,GT,37.3566028,-122.0188162,5.991392179965972,16.21048,0.1,135.91699,1629837532437
Fix,GT,37.3564975,-122.0186885,5.867901821106672,16.339813,0.1,135.81787,1629837533437
Fix,GT,37.3563913,-122.0185597,5.751784185439348,16.42657,0.1,135.90555,1629837534437
Fix,GT,37.3562845,-122.018431,5.661784186452627,16.486311,0.1,135.98236,1629837535437
Fix,GT,37.3561772,-122.0183016,5.560646918684244,16.565453,0.1,135.96048,1629837536437
Fix,GT,37.3560696,-122.0181719,5.448529282063246,16.581661,0.1,136.0542,1629837537437
Fix,GT,37.3559618,-122.0180425,5.3455294427871705,16.548796,0.1,136.20868,1629837538437
Fix,GT,37.355854,-122.0179137,5.30376472067833,16.514032,0.1,136.2351,1629837539437
Fix,GT,37.3557465,-122.017785,5.277254906773567,16.510384,0.1,136.18823,1629837540437
Fix,GT,37.355639,-122.0176559,5.263372389793396,16.544275,0.1,135.9443,1629837541437
Fix,GT,37.3555318,-122.0175255,5.244117640376091,16.625826,0.1,135.60724,1629837542437
Fix,GT,37.3554242,-122.0173943,5.300470404744148,16.68359,0.1,135.73984,1629837543437
Fix,GT,37.3553162,-122.017263,5.373235121935606,16.706276,0.1,135.76251,1629837544437
Fix,GT,37.3552084,-122.0171321,5.4089802158474924,16.583008,0.1,135.83795,1629837545437
Fix,GT,37.3551018,-122.0170033,5.457235283613205,16.26908,0.1,136.03693,1629837546437
Fix,GT,37.3549968,-122.016877,5.4964900256693365,16.082127,0.1,136.0679,1629837547437
Fix,GT,37.3548929,-122.0167512,5.564607832551003,15.989798,0.1,135.74939,1629837548437
Fix,GT,37.3547904,-122.0166263,5.59260766658187,15.747038,0.1,135.65936,1629837549437
Fix,GT,37.3546895,-122.0165033,5.640490190982819,15.588846,0.1,135.81598,1629837550437
Fix,GT,37.3545882,-122.0163814,5.692980213105679,15.58383,0.1,136.2008,1629837551437
Fix,GT,37.3544865,-122.01626,5.7402351167202,15.53012,0.1,136.28531,1629837552437
Fix,GT,37.354386,-122.0161403,5.797980556815862,15.265745,0.1,136.3458,1629837553437
Fix,GT,37.3542877,-122.0160223,5.85186291500926,14.945706,0.1,136.07208,1629837554437
Fix,GT,37.3541919,-122.0159066,5.898235288977624,14.576806,0.1,135.80823,1629837555437
Fix,GT,37.3541016,-122.0157959,5.972352934539318,13.355721,0.1,135.29968,1629837556437
Fix,GT,37.3540207,-122.0156945,5.987725662052631,12.038542,0.1,134.65479,1629837557437
Fix,GT,37.3539497,-122.0156024,6.03360783880949,10.651117,0.1,133.57611,1629837558437
Fix,GT,37.3538887,-122.0155199,6.054862742602825,9.250212,0.1,132.5033,1629837559437
Fix,GT,37.3538372,-122.0154484,6.094744915485382,7.8019724,0.1,131.78479,1629837560437
Fix,GT,37.3537946,-122.0153875,6.107372730612755,6.573317,0.1,131.13101,1629837561437
Fix,GT,37.3537593,-122.0153361,6.124372548639775,5.4438186,0.1,130.64764,1629837562437
Fix,GT,37.3537304,-122.0152932,6.151882354080676,4.5693474,0.1,130.1401,1629837563437
Fix,GT,37.353707,-122.0152584,6.167000183790922,3.4328666,0.1,130.0055,1629837564437
Fix,GT,37.3536909,-122.0152342,6.172,2.1190133,0.1,129.95868,1629837565437
Fix,GT,37.353683,-122.0152225,6.172999816030265,0.61437446,0.1,129.8812,1629837566437
Fix,GT,37.3536819,-122.0152209,6.167372548878193,0.010815416,0.1,129.87122,1629837567437
Fix,GT,37.3536819,-122.0152208,6.167999816179275,0.00037254894,0.1,129.87146,1629837568437
Fix,GT,37.3536819,-122.0152208,6.168000183820725,0.0006274511,0.1,129.87045,1629837569437
Fix,GT,37.3536819,-122.0152208,6.167627267152071,0.00037254905,0.1,129.87119,1629837570437
Fix,GT,37.353682,-122.0152208,6.165627450883388,0.0,0.1,129.87134,1629837571437
Fix,GT,37.353682,-122.0152208,6.165,0.00062745094,0.1,129.87146,1629837572437
Fix,GT,37.353682,-122.0152208,6.165000183731317,0.0006274509,0.1,129.87164,1629837573437
Fix,GT,37.353682,-122.0152208,6.165000183731317,0.0012598988,0.1,129.87161,1629837574437
Fix,GT,37.353682,-122.0152208,6.165000183731317,0.001154315,0.1,129.87152,1629837575437
Fix,GT,37.353682,-122.0152208,6.165000183731317,0.0010000002,0.1,129.87134,1629837576437
Fix,GT,37.353682,-122.0152208,6.164999816268683,0.001,0.1,129.87134,1629837577437
Fix,GT,37.353682,-122.0152208,6.164999816268683,0.001,0.1,129.87137,1629837578437
Fix,GT,37.353682,-122.0152208,6.164999816268683,0.0012598985,0.1,129.8714,1629837579437
Fix,GT,37.353682,-122.0152208,6.165000183731317,0.00037254946,0.1,129.87149,1629837580437
Fix,GT,37.353682,-122.0152208,6.165,0.0,0.1,129.87134,1629837581437
Fix,GT,37.353682,-122.0152208,6.165000183731317,0.0,0.1,129.87125,1629837582437
Fix,GT,37.353682,-122.0152208,6.165000183731317,0.0006274506,0.1,129.87143,1629837583437
Fix,GT,37.353682,-122.0152208,6.165,0.001,0.1,129.87146,1629837584437
Fix,GT,37.353682,-122.0152208,6.165000183731317,0.0011543152,0.1,129.87164,1629837585437
Fix,GT,37.353682,-122.0152208,6.165000183731317,0.00052686466,0.1,129.87152,1629837586437
Fix,GT,37.353682,-122.0152208,6.165,0.0006274504,0.1,129.87158,1629837587437
Fix,GT,37.353682,-122.0152208,6.165,0.001,0.1,129.87149,1629837588437
Fix,GT,37.353682,-122.0152208,6.165,0.0014142136,0.1,129.87155,1629837589437
Fix,GT,37.353682,-122.0152208,6.165,0.0012598985,0.1,129.87183,1629837590437
Fix,GT,37.353682,-122.0152208,6.165,0.0012598985,0.1,129.87177,1629837591437
Fix,GT,37.353682,-122.0152208,6.165,0.0003725495,0.1,129.87167,1629837592437
Fix,GT,37.353682,-122.0152208,6.165,0.00037254955,0.1,129.87134,1629837593437
Fix,GT,37.353682,-122.0152208,6.165000183731317,0.001,0.1,129.87143,1629837594437
Fix,GT,37.353682,-122.0152208,6.165,0.0012598985,0.1,129.87146,1629837595437
Fix,GT,37.353682,-122.0152208,6.165,0.0011543151,0.1,129.8713,1629837596437
Fix,GT,37.353682,-122.0152208,6.165000183731317,0.001,0.1,129.87134,1629837597437
Fix,GT,37.353682,-122.0152208,6.165,0.0014604963,0.1,129.87091,1629837598437
Fix,GT,37.353682,-122.0152208,6.165000183731317,0.0011543151,0.1,129.8711,1629837599437
Fix,GT,37.353682,-122.0152208,6.165000183731317,0.0011543151,0.1,129.87122,1629837600437
Fix,GT,37.353682,-122.0152208,6.165,0.0019298866,0.1,129.8717,1629837601437
Fix,GT,37.353682,-122.0152208,6.165,0.0012598985,0.1,129.87158,1629837602437
Fix,GT,37.353682,-122.0152208,6.165,0.0012598985,0.1,129.87152,1629837603437
Fix,GT,37.353682,-122.0152208,6.165,0.001,0.1,129.87128,1629837604437
Fix,GT,37.353682,-122.0152208,6.165000183731317,0.001,0.1,129.87112,1629837605437
Fix,GT,37.353682,-122.0152208,6.165000183731317,0.002,0.1,129.87091,1629837606437
Fix,GT,37.353682,-122.0152208,6.165000183731317,0.0013725495,0.1,129.87115,1629837607437
Fix,GT,37.353682,-122.0152208,6.165,0.002236068,0.1,129.87134,1629837608437
Fix,GT,37.353682,-122.0152208,6.165000183731317,0.0010000002,0.1,129.8711,1629837609437
Fix,GT,37.353682,-122.0152208,6.165,0.0019298866,0.1,129.8711,1629837610437
Fix,GT,37.353682,-122.0152208,6.165000183731317,0.0010000002,0.1,129.87152,1629837611437
Fix,GT,37.353682,-122.0152208,6.164999816268683,0.0013725493,0.1,129.87146,1629837612437
Fix,GT,37.353682,-122.0152208,6.165000183731317,0.00052686414,0.1,129.87128,1629837613437
Fix,GT,37.353682,-122.0152208,6.164999816268683,0.0014604963,0.1,129.87134,1629837614437
Fix,GT,37.353682,-122.0152208,6.165372732937335,0.0022935416,0.1,129.86987,1629837615437
Fix,GT,37.3536804,-122.0152185,6.163372732877731,0.64226353,0.1,129.83572,1629837616437
Fix,GT,37.3536748,-122.0152101,6.168,1.2437755,0.1,129.67996,1629837617437
Fix,GT,37.3536657,-122.0151959,6.167627450883389,2.1867623,0.1,129.29459,1629837618437
Fix,GT,37.3536481,-122.015168,6.171745098233223,4.1754427,0.1,128.46436,1629837619437
Fix,GT,37.3536195,-122.0151218,6.184,6.2902474,0.1,127.619354,1629837620437
Fix,GT,37.3535786,-122.015054,6.200372549116612,8.752711,0.1,126.92914,1629837621437
Fix,GT,37.3535271,-122.0149673,6.226745098233223,9.915302,0.1,126.606415,1629837622437
Fix,GT,37.3534734,-122.0148767,6.264862558484078,9.961204,0.1,126.48343,1629837623437
Fix,GT,37.3534209,-122.0147872,6.2984900084435935,9.758111,0.1,126.22705,1629837624437
Fix,GT,37.3533695,-122.014699,6.318627450883389,9.58124,0.1,126.02609,1629837625437
Fix,GT,37.3533189,-122.0146121,6.322627450883388,9.529931,0.1,126.12808,1629837626437
Fix,GT,37.3532672,-122.0145237,6.359235294699669,10.001746,0.1,126.158936,1629837627437
Fix,GT,37.3532118,-122.0144282,6.400607652515173,10.961149,0.1,125.894226,1629837628437
Fix,GT,37.353151,-122.0143232,6.469470397084951,12.046745,0.1,125.79489,1629837629437
Fix,GT,37.353086,-122.0142083,6.522235294699669,12.660313,0.1,124.8974,1629837630437
Fix,GT,37.353022,-122.0140902,6.547745293289423,12.56749,0.1,123.56549,1629837631437
Fix,GT,37.352962,-122.0139718,6.588490392178297,12.299117,0.1,121.608765,1629837632437
Fix,GT,37.3529073,-122.013853,6.614372351795435,11.983732,0.1,119.09421,1629837633437
Fix,GT,37.3528571,-122.0137355,6.626607842147351,11.641712,0.1,117.59161,1629837634437
Fix,GT,37.3528105,-122.0136194,6.655372548878193,11.531548,0.1,116.23105,1629837635437
Fix,GT,37.3527644,-122.0134998,6.676372548878193,12.017767,0.1,115.35773,1629837636437
Fix,GT,37.3527178,-122.0133741,6.671372350096702,12.52823,0.1,114.51099,1629837637437
Fix,GT,37.3526718,-122.0132436,6.701117446690798,12.72389,0.1,113.42639,1629837638437
Fix,GT,37.3526269,-122.0131102,6.726000000000001,12.990223,0.1,112.38571,1629837639437
Fix,GT,37.3525827,-122.012972,6.7476078413128855,13.39093,0.1,111.48187,1629837640437
Fix,GT,37.352539,-122.0128286,6.753862944871187,13.803698,0.1,110.46045,1629837641437
Fix,GT,37.3524971,-122.0126813,6.753254701375962,13.907436,0.1,108.934326,1629837642437
Fix,GT,37.3524583,-122.0125318,6.721647261857987,13.9938135,0.1,107.21396,1629837643437
Fix,GT,37.3524234,-122.0123789,6.685156866133213,14.191431,0.1,104.821045,1629837644437
Fix,GT,37.3523935,-122.0122236,6.632882155925035,14.081774,0.1,102.77899,1629837645437
Fix,GT,37.3523673,-122.0120695,6.566019413918257,13.849162,0.1,101.61899,1629837646437
Fix,GT,37.3523425,-122.0119176,6.487137449145317,13.658466,0.1,101.590576,1629837647437
Fix,GT,37.3523176,-122.0117661,6.399039217948914,13.760954,0.1,101.510864,1629837648437
Fix,GT,37.352293,-122.0116126,6.250039216041565,14.012802,0.1,101.128204,1629837649437
Fix,GT,37.352269,-122.0114556,6.104784494876862,14.310135,0.1,100.53729,1629837650437
Fix,GT,37.352246,-122.0112951,5.94666648709774,14.602499,0.1,99.81201,1629837651437
Fix,GT,37.3522249,-122.0111307,5.785921737730503,14.906536,0.1,98.54675,1629837652437
Fix,GT,37.3522066,-122.0109622,5.576058651179075,15.222858,0.1,97.16403,1629837653437
Fix,GT,37.3521912,-122.0107907,5.409784309029579,15.285879,0.1,95.67081,1629837654437
Fix,GT,37.3521797,-122.0106194,5.222431362092495,15.152361,0.1,94.094055,1629837655437
Fix,GT,37.3521718,-122.0104497,5.02941175699234,14.977422,0.1,92.71945,1629837656437
Fix,GT,37.3521673,-122.0102819,4.834411755204201,14.791556,0.1,91.25043,1629837657437
Fix,GT,37.3521653,-122.0101161,4.678411892563105,14.600144,0.1,90.43817,1629837658437
Fix,GT,37.3521651,-122.0099521,4.486647050976753,14.431193,0.1,89.82254,1629837659437
Fix,GT,37.3521652,-122.0097903,4.324666649818421,14.247555,0.1,89.956116,1629837660437
Fix,GT,37.3521651,-122.0096317,4.154784299015999,13.747321,0.1,89.96713,1629837661437
Fix,GT,37.3521651,-122.0094814,4.025902068346738,12.823158,0.1,89.895325,1629837662437
Fix,GT,37.3521651,-122.0093435,3.9303921486735343,11.586135,0.1,89.964386,1629837663437
Fix,GT,37.3521651,-122.0092222,3.869764813005924,9.812335,0.1,89.95752,1629837664437
Fix,GT,37.352165,-122.0091225,3.8198824619650846,7.838241,0.1,89.923584,1629837665437
Fix,GT,37.3521649,-122.0090436,3.7755097968578335,6.2120266,0.1,89.95349,1629837666437
Fix,GT,37.3521649,-122.0089825,3.750392255723477,4.6148467,0.1,89.970825,1629837667437
Fix,GT,37.3521647,-122.0089371,3.7122550086677073,3.4797072,0.1,90.22522,1629837668437
Fix,GT,37.3521645,-122.008904,3.69225478759408,2.375691,0.1,90.42709,1629837669437
Fix,GT,37.3521643,-122.0088834,3.6796273390352727,1.2228143,0.1,90.5213,1629837670437
Fix,GT,37.3521642,-122.0088764,3.671999890565872,0.1394467,0.1,90.54523,1629837671437
Fix,GT,37.3521642,-122.0088763,3.6659998907446862,0.0011543159,0.1,90.55029,1629837672437
Fix,GT,37.3521642,-122.0088763,3.665,0.0022548966,0.1,90.5499,1629837673437
Fix,GT,37.3521642,-122.0088763,3.665,0.00037255182,0.1,90.54974,1629837674437
Fix,GT,37.3521642,-122.0088763,3.6649998907744887,0.0,0.1,90.549805,1629837675437
Fix,GT,37.3521642,-122.0088763,3.665,0.001,0.1,90.54999,1629837676437
Fix,GT,37.3521642,-122.0088763,3.665000109225512,0.001,0.1,90.55011,1629837677437
Fix,GT,37.3521642,-122.0088763,3.665,0.00037255228,0.1,90.55011,1629837678437
Fix,GT,37.3521642,-122.0088763,3.6649998907744887,0.0006274476,0.1,90.549805,1629837679437
Fix,GT,37.3521642,-122.0088763,3.665,0.0003725524,0.1,90.54965,1629837680437
Fix,GT,37.3521642,-122.0088763,3.665,0.0,0.1,90.54993,1629837681437
Fix,GT,37.3521642,-122.0088763,3.665,0.0,0.1,90.55005,1629837682437
Fix,GT,37.3521642,-122.0088763,3.665,0.0,0.1,90.55011,1629837683437
Fix,GT,37.3521642,-122.0088763,3.665,0.0,0.1,90.55017,1629837684437
Fix,GT,37.3521642,-122.0088763,3.665,0.0,0.1,90.55005,1629837685437
Fix,GT,37.3521642,-122.0088763,3.6649998907744887,0.0,0.1,90.54999,1629837686437
Fix,GT,37.3521642,-122.0088763,3.6649998907744887,0.000745105,0.1,90.54993,1629837687437
Fix,GT,37.3521642,-122.0088763,3.6649998907744887,0.0019841632,0.1,90.55029,1629837688437
Fix,GT,37.3521642,-122.0088763,3.665,0.0023725526,0.1,90.5499,1629837689437
Fix,GT,37.3521642,-122.0088763,3.665,0.001745105,0.1,90.54999,1629837690437
Fix,GT,37.3521642,-122.0088763,3.665,0.001,0.1,90.55011,1629837691437
Fix,GT,37.3521642,-122.0088763,3.665,0.0,0.1,90.55017,1629837692437
Fix,GT,37.3521642,-122.0088763,3.665,0.001,0.1,90.55029,1629837693437
Fix,GT,37.3521642,-122.0088763,3.664999890774488,0.001,0.1,90.55017,1629837694437
Fix,GT,37.3521642,-122.0088763,3.665,0.00037255278,0.1,90.55011,1629837695437
Fix,GT,37.3521642,-122.0088763,3.665,0.001,0.1,90.55005,1629837696437
Fix,GT,37.3521642,-122.0088763,3.665,0.0012548945,0.1,90.55002,1629837697437
Fix,GT,37.3521642,-122.0088763,3.665,0.0012548944,0.1,90.550415,1629837698437
Fix,GT,37.3521642,-122.0088763,3.665,0.0012548942,0.1,90.55011,1629837699437
Fix,GT,37.3521642,-122.0088763,3.664999890774488,0.001403014,0.1,90.54999,1629837700437
Fix,GT,37.3521642,-122.0088763,3.665,0.0012548938,0.1,90.55005,1629837701437
Fix,GT,37.3521642,-122.0088763,3.665,0.001627447,0.1,90.55026,1629837702437
Fix,GT,37.3521642,-122.0088763,3.665,0.001,0.1,90.55023,1629837703437
Fix,GT,37.3521642,-122.0088763,3.665,0.00062744686,0.1,90.55002,1629837704437
Fix,GT,37.3521642,-122.0088763,3.665,0.001403014,0.1,90.55005,1629837705437
Fix,GT,37.3521642,-122.0088763,3.664999890774488,0.0022548935,0.1,90.55005,1629837706437
Fix,GT,37.3521642,-122.0088763,3.665,0.001,0.1,90.55005,1629837707437
Fix,GT,37.3521642,-122.0088763,3.665,0.0,0.1,90.55023,1629837708437
Fix,GT,37.3521642,-122.0088763,3.664999890774488,0.001627447,0.1,90.549805,1629837709437
Fix,GT,37.3521642,-122.0088763,3.665,0.0016274471,0.1,90.549805,1629837710437
Fix,GT,37.3521642,-122.0088763,3.665,0.002,0.1,90.54974,1629837711437
Fix,GT,37.3521642,-122.0088763,3.6649998907744887,0.0016274471,0.1,90.54962,1629837712437
Fix,GT,37.3521642,-122.0088763,3.6649998907744887,0.00062744704,0.1,90.54968,1629837713437
Fix,GT,37.3521642,-122.0088763,3.665,0.00088734424,0.1,90.55026,1629837714437
Fix,GT,37.3521642,-122.0088763,3.665,0.0003725529,0.1,90.550354,1629837715437
Fix,GT,37.3521642,-122.0088763,3.665,0.0003725529,0.1,90.55029,1629837716437
Fix,GT,37.3521642,-122.0088763,3.665,0.0003725529,0.1,90.55029,1629837717437
Fix,GT,37.3521642,-122.0088763,3.665,0.0017817636,0.1,90.55011,1629837718437
Fix,GT,37.3521642,-122.0088763,3.6649998907744887,0.00088734424,0.1,90.55008,1629837719437
Fix,GT,37.3521642,-122.0088763,3.665,0.0003725529,0.1,90.54996,1629837720437
Fix,GT,37.3521642,-122.0088763,3.665,0.001,0.1,90.55011,1629837721437
Fix,GT,37.3521642,-122.0088763,3.664999890774488,0.00062744727,0.1,90.55005,1629837722437
Fix,GT,37.3521642,-122.0088763,3.6656273380219937,0.017233685,0.1,90.550476,1629837723437
Fix,GT,37.3521642,-122.0088721,3.659,0.76676,0.1,90.542816,1629837724437
Fix,GT,37.3521641,-122.0088595,3.6516273384392255,1.528965,0.1,90.39151,1629837725437
Fix,GT,37.3521641,-122.0088357,3.640882233291864,2.6958072,0.1,90.08502,1629837726437
Fix,GT,37.3521643,-122.0087958,3.6209998920857904,4.3988075,0.1,89.549805,1629837727437
Fix,GT,37.3521646,-122.008737,3.602509788751602,6.17564,0.1,89.568634,1629837728437
Fix,GT,37.3521651,-122.0086565,3.5637645773887634,8.041195,0.1,89.37097,1629837729437
Fix,GT,37.3521659,-122.0085599,3.5227645786106585,8.85091,0.1,89.25369,1629837730437
Fix,GT,37.3521667,-122.0084558,3.4637646838426592,9.673124,0.1,89.369446,1629837731437
Fix,GT,37.3521673,-122.0083421,3.4030195784568784,10.356379,0.1,89.634735,1629837732437
Fix,GT,37.3521674,-122.0082236,3.3351372368335728,10.607542,0.1,90.07291,1629837733437
Fix,GT,37.3521668,-122.0081046,3.2833725526332858,10.490208,0.1,90.137634,1629837734437
Fix,GT,37.3521665,-122.0079859,3.23239203453064,10.620317,0.1,90.14813,1629837735437
Fix,GT,37.3521663,-122.0078628,3.1740195784568783,11.250745,0.1,90.05762,1629837736437
Fix,GT,37.3521661,-122.0077319,3.082156814992428,11.946461,0.1,89.97125,1629837737437
Fix,GT,37.3521659,-122.0075932,2.9931568157672883,12.618622,0.1,90.04373,1629837738437
Fix,GT,37.3521657,-122.0074471,2.885274387866258,13.269367,0.1,89.96359,1629837739437
Fix,GT,37.3521655,-122.007295,2.766901922345161,13.6115055,0.1,90.09177,1629837740437
Fix,GT,37.3521649,-122.0071403,2.6437842648029326,13.744917,0.1,90.13245,1629837741437
Fix,GT,37.3521645,-122.0069858,2.526156817317009,13.631498,0.1,90.037384,1629837742437
Fix,GT,37.3521643,-122.0068331,2.378784266471863,13.427924,0.1,89.89972,1629837743437
Fix,GT,37.3521643,-122.0066826,2.2449215733110903,13.2357025,0.1,90.04407,1629837744437
Fix,GT,37.3521642,-122.006533,2.1132744144499305,13.292156,0.1,89.77228,1629837745437
Fix,GT,37.3521647,-122.0063834,2.006901865363121,13.200218,0.1,89.701294,1629837746437
Fix,GT,37.3521647,-122.0062355,1.900509848415852,12.985207,0.1,89.93976,1629837747437
Fix,GT,37.3521646,-122.0060908,1.850254951030016,12.51474,0.1,90.07901,1629837748437
Fix,GT,37.3521642,-122.0059568,1.8008823975026609,11.149093,0.1,90.053314,1629837749437
Fix,GT,37.352164,-122.0058409,1.7603921349048617,9.417429,0.1,90.04001,1629837750437
Fix,GT,37.3521638,-122.0057445,1.7352549476027488,7.640092,0.1,90.12146,1629837751437
Fix,GT,37.3521637,-122.0056682,1.7136274480819704,5.8554516,0.1,90.05319,1629837752437
Fix,GT,37.3521636,-122.0056124,1.7006273974180222,4.164836,0.1,90.015045,1629837753437
Fix,GT,37.3521636,-122.0055726,1.6949999999999998,2.9200225,0.1,90.04407,1629837754437
Fix,GT,37.3521636,-122.0055455,1.6933725516796112,1.881889,0.1,90.013916,1629837755437
Fix,GT,37.3521635,-122.0055282,1.692999949544668,1.2470489,0.1,89.98291,1629837756437
Fix,GT,37.3521635,-122.0055177,1.6943725010454656,0.5974161,0.1,89.95828,1629837757437
Fix,GT,37.3521635,-122.0055147,1.6982548971176148,0.018145401,0.1,89.95187,1629837758437
Fix,GT,37.3521635,-122.0055147,1.695,0.0014604989,0.1,89.95438,1629837759437
Fix,GT,37.3521635,-122.0055147,1.695,0.0017203966,0.1,89.95239,1629837760437
Fix,GT,37.3521635,-122.0055147,1.6949999494850636,0.0014142136,0.1,89.952576,1629837761437
Fix,GT,37.3521635,-122.0055147,1.6950000000000005,0.0007451024,0.1,89.9527,1629837762437
Fix,GT,37.3521635,-122.0055147,1.6950000505149363,0.001,0.1,89.9527,1629837763437
Fix,GT,37.3521635,-122.0055147,1.6950000505149363,0.001,0.1,89.95264,1629837764437
Fix,GT,37.3521635,-122.0055147,1.690627448797226,0.001,0.1,89.95264,1629837765437
Fix,GT,37.3521635,-122.0055147,1.6900000503659247,0.0012548979,0.1,89.95261,1629837766437
Fix,GT,37.3521635,-122.0055147,1.6899999496340752,0.00088734675,0.1,89.952515,1629837767437
Fix,GT,37.3521635,-122.0055147,1.69,0.002,0.1,89.9527,1629837768437
Fix,GT,37.3521635,-122.0055147,1.69,0.00037255097,0.1,89.95276,1629837769437
Fix,GT,37.3521635,-122.0055147,1.6900000503659247,0.001372551,0.1,89.95282,1629837770437
Fix,GT,37.3521635,-122.0055147,1.69,0.0017755699,0.1,89.95285,1629837771437
Fix,GT,37.3521635,-122.0055147,1.6900000503659247,0.0014142136,0.1,89.95294,1629837772437
Fix,GT,37.3521635,-122.0055147,1.69,0.0023567202,0.1,89.95294,1629837773437
Fix,GT,37.3521635,-122.0055147,1.6900000503659247,0.0014604978,0.1,89.95282,1629837774437
Fix,GT,37.3521635,-122.0055147,1.69,0.0014142136,0.1,89.95285,1629837775437
Fix,GT,37.3521635,-122.0055147,1.69,0.002236068,0.1,89.953064,1629837776437
Fix,GT,37.3521635,-122.0055147,1.69,0.0012598982,0.1,89.95291,1629837777437
Fix,GT,37.3521635,-122.0055147,1.69,0.0031622776,0.1,89.953064,1629837778437
Fix,GT,37.3521635,-122.0055147,1.69,0.001,0.1,89.953064,1629837779437
Fix,GT,37.3521635,-122.0055147,1.69,0.0031622776,0.1,89.953156,1629837780437
Fix,GT,37.3521635,-122.0055147,1.69,0.001,0.1,89.95285,1629837781437
Fix,GT,37.3521635,-122.0055147,1.69,0.0017203956,0.1,89.95279,1629837782437
Fix,GT,37.3521635,-122.0055147,1.69,0.0014142136,0.1,89.95288,1629837783437
Fix,GT,37.3521635,-122.0055147,1.689,0.0014604976,0.1,89.95294,1629837784437
Fix,GT,37.3521635,-122.0055147,1.689,0.0019298857,0.1,89.953064,1629837785437
Fix,GT,37.3521635,-122.0055147,1.69,0.0019410793,0.1,89.95291,1629837786437
Fix,GT,37.3521635,-122.0055147,1.689,0.0026077435,0.1,89.95288,1629837787437
Fix,GT,37.3521635,-122.0055147,1.6886274496912956,0.0026077435,0.1,89.95264,1629837788437
Fix,GT,37.3521635,-122.0055147,1.685254899382591,0.082333416,0.1,89.95181,1629837789437
Fix,GT,37.3521635,-122.005509,1.677,1.0129825,0.1,89.906525,1629837790437
Fix,GT,37.3521636,-122.005491,1.6672549491524695,2.272435,0.1,89.76956,1629837791437
Fix,GT,37.3521639,-122.0054546,1.6508823492527007,4.204417,0.1,89.521515,1629837792437
Fix,GT,37.3521643,-122.0053948,1.6356274498105048,6.5653973,0.1,89.49786,1629837793437
Fix,GT,37.3521646,-122.0053064,1.6171372487545017,9.048205,0.1,89.69214,1629837794437
Fix,GT,37.3521651,-122.0051949,1.6123921486735344,10.224451,0.1,89.46826,1629837795437
Fix,GT,37.352166,-122.005078,1.5773529983460903,10.54791,0.1,89.31256,1629837796437
Fix,GT,37.3521673,-122.0049568,1.5561372490525245,10.949733,0.1,89.08414,1629837797437
Fix,GT,37.3521688,-122.0048288,1.5215098447501658,11.754033,0.1,89.071625,1629837798437
Fix,GT,37.3521703,-122.0046907,1.5143725501894951,12.743861,0.1,89.10138,1629837799437
Fix,GT,37.352172,-122.0045413,1.4922548997402192,13.738176,0.1,89.02228,1629837800437
Fix,GT,37.3521742,-122.0043805,1.4708823496103287,14.734335,0.1,88.8819,1629837801437
Fix,GT,37.3521764,-122.0042115,1.4312548998594283,15.119663,0.1,88.98572,1629837802437
Fix,GT,37.3521788,-122.0040396,1.396392149925232,15.290669,0.1,88.878296,1629837803437
Fix,GT,37.3521812,-122.0038679,1.3603725904524326,15.138178,0.1,88.901,1629837804437
Fix,GT,37.3521838,-122.0036965,1.2947647006511689,15.345863,0.1,88.68054,1629837805437
Fix,GT,37.3521873,-122.003521,1.193392150759697,15.757385,0.1,88.30832,1629837806437
Fix,GT,37.352191,-122.0033408,1.121549037605524,16.16463,0.1,88.6124,1629837807437
Fix,GT,37.3521938,-122.0031573,1.0446470525860787,16.248512,0.1,88.82556,1629837808437
Fix,GT,37.3521967,-122.0029751,0.9510196027755736,16.021305,0.1,88.6192,1629837809437
Fix,GT,37.3522003,-122.0027959,0.8930196027755737,15.740286,0.1,88.46704,1629837810437
Fix,GT,37.3522031,-122.0026198,0.8370196027755736,15.459633,0.1,88.90448,1629837811437
Fix,GT,37.3522058,-122.0024468,0.7592745271027088,15.207907,0.1,88.686066,1629837812437
Fix,GT,37.352209,-122.0022766,0.6685098217129708,14.951542,0.1,88.60846,1629837813437
Fix,GT,37.3522117,-122.0021094,0.5979019727408886,14.695419,0.1,88.90015,1629837814437
Fix,GT,37.3522137,-122.0019449,0.5015294063091278,14.463533,0.1,88.98874,1629837815437
Fix,GT,37.3522152,-122.0017829,0.4035294070243835,14.248838,0.1,89.47446,1629837816437
Fix,GT,37.3522154,-122.0016232,0.2526470489799976,14.049798,0.1,89.96942,1629837817437
Fix,GT,37.3522153,-122.0014659,0.1660196017920971,13.819548,0.1,89.91165,1629837818437
Fix,GT,37.3522152,-122.0013111,0.0480392139554023,13.606062,0.1,89.903015,1629837819437
Fix,GT,37.3522153,-122.0011589,-0.0916078454256057,13.390194,0.1,89.780304,1629837820437
Fix,GT,37.3522161,-122.0010091,-0.1787254875898361,13.152014,0.1,89.30728,1629837821437
Fix,GT,37.352218,-122.0008619,-0.2744901860654354,12.930817,0.1,88.942444,1629837822437
Fix,GT,37.3522198,-122.0007172,-0.3939607855081558,12.701707,0.1,89.08188,1629837823437
Fix,GT,37.3522216,-122.0005752,-0.4498627408146858,12.4602995,0.1,88.8837,1629837824437
Fix,GT,37.3522234,-122.0004376,-0.5482352882623673,11.834715,0.1,89.01453,1629837825437
Fix,GT,37.3522249,-122.0003092,-0.6179804014861584,10.911175,0.1,88.97543,1629837826437
Fix,GT,37.3522267,-122.0001917,-0.7022352654337882,9.846183,0.1,88.78308,1629837827437
Fix,GT,37.3522284,-122.0000876,-0.770235261976719,8.5669565,0.1,88.67938,1629837828437
Fix,GT,37.3522299,-121.9999999,-0.8322352839708327,6.9775157,0.1,88.69208,1629837829437
Fix,GT,37.3522309,-121.9999283,-0.877745068103075,5.741294,0.1,88.97815,1629837830437
Fix,GT,37.3522316,-121.9998703,-0.9158627071678638,4.598509,0.1,89.13522,1629837831437
Fix,GT,37.352232,-121.999824,-0.9524901869297028,3.5912356,0.1,89.234436,1629837832437
Fix,GT,37.3522324,-121.9997894,-0.9871176394820214,2.583458,0.1,89.288025,1629837833437
Fix,GT,37.3522326,-121.9997645,-1.0083725463151931,1.8647524,0.1,89.32251,1629837834437
Fix,GT,37.3522328,-121.9997458,-1.0239999694824218,1.5714548,0.1,89.31708,1629837835437
Fix,GT,37.3522329,-121.9997289,-1.0343725153505805,1.379401,0.1,89.32257,1629837836437
Fix,GT,37.352233,-121.9997155,-1.045372514784336,0.9640332,0.1,89.31653,1629837837437
Fix,GT,37.3522331,-121.9997065,-1.053372514426708,0.7365769,0.1,89.293304,1629837838437
Fix,GT,37.3522331,-121.9997002,-1.060745059788227,0.3536299,0.1,89.2688,1629837839437
Fix,GT,37.3522331,-121.9996987,-1.068372545599937,0.007607819,0.1,89.26755,1629837840437
Fix,GT,37.3522331,-121.9996985,-1.07,0.007285742,0.1,89.268585,1629837841437
Fix,GT,37.3522331,-121.9996985,-1.0709999680817126,0.0014604914,0.1,89.26715,1629837842437
Fix,GT,37.3522331,-121.9996985,-1.071,0.0,0.1,89.267944,1629837843437
Fix,GT,37.3522331,-121.9996985,-1.0710000319182873,0.001,0.1,89.267914,1629837844437
Fix,GT,37.3522331,-121.9996985,-1.071,0.0006274548,0.1,89.2681,1629837845437
Fix,GT,37.3522331,-121.9996985,-1.0710000319182873,0.0006274549,0.1,89.26828,1629837846437
Fix,GT,37.3522331,-121.9996985,-1.0710000319182873,0.001,0.1,89.26816,1629837847437
Fix,GT,37.3522331,-121.9996985,-1.0710000319182873,0.000627455,0.1,89.268005,1629837848437
Fix,GT,37.3522331,-121.9996985,-1.0710000319182873,0.00037254492,0.1,89.26865,1629837849437
Fix,GT,37.3522331,-121.9996985,-1.0709999680817126,0.00037254486,0.1,89.26843,1629837850437
Fix,GT,37.3522331,-121.9996985,-1.071,0.00037254478,0.1,89.26868,1629837851437
Fix,GT,37.3522331,-121.9996985,-1.071,0.0016274553,0.1,89.26886,1629837852437
Fix,GT,37.3522331,-121.9996985,-1.071,0.001,0.1,89.26904,1629837853437
Fix,GT,37.3522331,-121.9996985,-1.071,0.00062745536,0.1,89.269104,1629837854437
Fix,GT,37.3522331,-121.9996985,-1.071,0.001,0.1,89.26907,1629837855437
Fix,GT,37.3522331,-121.9996985,-1.0710000319182873,0.0014142136,0.1,89.26886,1629837856437
Fix,GT,37.3522331,-121.9996985,-1.071,0.002,0.1,89.26874,1629837857437
Fix,GT,37.3522331,-121.9996985,-1.0710000319182873,0.0012599006,0.1,89.268616,1629837858437
Fix,GT,37.3522331,-121.9996985,-1.071,0.0019298908,0.1,89.26865,1629837859437
Fix,GT,37.3522331,-121.9996985,-1.0710000319182873,0.00052685704,0.1,89.26819,1629837860437
Fix,GT,37.3522331,-121.9996985,-1.071,0.0016324449,0.1,89.2681,1629837861437
Fix,GT,37.3522331,-121.9996985,-1.0710000319182873,0.0017755784,0.1,89.26807,1629837862437
Fix,GT,37.3522331,-121.9996985,-1.0710000319182873,0.0017203904,0.1,89.26813,1629837863437
Fix,GT,37.3522331,-121.9996985,-1.071,0.00037254376,0.1,89.2681,1629837864437
Fix,GT,37.3522331,-121.9996985,-1.071,0.0023567348,0.1,89.26807,1629837865437
Fix,GT,37.3522331,-121.9996985,-1.071,0.0020879456,0.1,89.268005,1629837866437
Fix,GT,37.3522331,-121.9996985,-1.071,0.00062745647,0.1,89.2681,1629837867437
Fix,GT,37.3522331,-121.9996985,-1.0710000319182873,0.0024329992,0.1,89.2681,1629837868437
Fix,GT,37.3522331,-121.9996985,-1.0710000319182873,0.00062745647,0.1,89.26825,1629837869437
Fix,GT,37.3522331,-121.9996985,-1.071,0.0013725436,0.1,89.26843,1629837870437
Fix,GT,37.3522331,-121.9996985,-1.0710000319182873,0.0008873576,0.1,89.2681,1629837871437
Fix,GT,37.3522331,-121.9996985,-1.071,0.0008873576,0.1,89.26813,1629837872437
Fix,GT,37.3522331,-121.9996985,-1.0710000319182873,0.0019298918,0.1,89.2681,1629837873437
Fix,GT,37.3522331,-121.9996985,-1.071,0.0006274566,0.1,89.26828,1629837874437
Fix,GT,37.3522331,-121.9996985,-1.0710000319182873,0.0008873576,0.1,89.26828,1629837875437
Fix,GT,37.3522331,-121.9996985,-1.0710000319182873,0.0003725435,0.1,89.26816,1629837876437
