MessageType,Provider,LatitudeDegrees,LongitudeDegrees,AltitudeMeters,SpeedMps,AccuracyMeters,BearingDegrees,UnixTimeMillis
Fix,GT,34.157036,-118.6345247,250.1250074543059,0.0017643285,0.1,55.883606,1638995321440
Fix,GT,34.157036,-118.6345247,250.1250074543059,0.0017643285,0.1,55.883636,1638995322440
Fix,GT,34.157036,-118.6345247,250.125,0.0005689619,0.1,55.883698,1638995323440
Fix,GT,34.157036,-118.6345247,250.125,0.0016498853,0.1,55.883484,1638995324440
Fix,GT,34.157036,-118.6345247,250.125,0.0026086979,0.1,55.883423,1638995325440
Fix,GT,34.157036,-118.6345247,250.125,0.004706393,0.1,55.883636,1638995326440
Fix,GT,34.157036,-118.6345246,250.125,0.0066309804,0.1,55.883728,1638995327440
Fix,GT,34.157036,-118.6345246,250.12459768307207,0.0074023176,0.1,55.88379,1638995328440
Fix,GT,34.157036,-118.6345244,250.124,0.0076634847,0.1,55.884155,1638995329440
Fix,GT,34.157036,-118.6345242,250.124,0.006334388,0.1,55.884308,1638995330440
Fix,GT,34.157036,-118.6345241,250.12400745427607,0.002236068,0.1,55.884766,1638995331440
Fix,GT,34.1570359,-118.6345241,250.12400745427607,0.0077475864,0.1,55.885162,1638995332440
Fix,GT,34.1570359,-118.6345241,250.123,0.022554787,0.1,55.88623,1638995333440
Fix,GT,34.1570358,-118.6345244,250.123,0.04339192,0.1,55.887726,1638995334440
Fix,GT,34.1570357,-118.634525,250.1244097712338,0.10230604,0.1,55.889557,1638995335440
Fix,GT,34.1570342,-118.6345282,250.12700745436547,0.54988307,0.1,56.59482,1638995336440
Fix,GT,34.1570298,-118.6345341,250.126,0.8774531,0.1,61.629395,1638995337440
Fix,GT,34.1570239,-118.6345423,250.13159768301247,1.0914471,0.1,71.28052,1638995338440
Fix,GT,34.1570177,-118.6345539,250.1224097711742,1.3731561,0.1,84.76105,1638995339440
Fix,GT,34.1570127,-118.6345706,250.1103981860876,1.6980951,0.1,102.26529,1638995340440
Fix,GT,34.157012,-118.6345914,250.07580050200224,1.8123114,0.1,122.973694,1638995341440
Fix,GT,34.157016,-118.6346083,250.05619536602487,1.1299154,0.1,139.37671,1638995342440
Fix,GT,34.157019,-118.6346139,250.0464097689092,0.094357364,0.1,142.75354,1638995343440
Fix,GT,34.1570192,-118.6346149,250.04360513493413,0.05138402,0.1,142.98282,1638995344440
Fix,GT,34.1570159,-118.6346137,250.0414023169875,0.76538074,0.1,145.50452,1638995345440
Fix,GT,34.157005,-118.6346078,250.05280463397503,1.7930051,0.1,149.3216,1638995346440
Fix,GT,34.1569883,-118.6345957,250.0880115849376,2.4640775,0.1,148.24582,1638995347440
Fix,GT,34.1569677,-118.6345798,250.1214213558733,2.9189286,0.1,147.5138,1638995348440
Fix,GT,34.156946,-118.6345633,250.16941390156745,2.7585707,0.1,147.9339,1638995349440
Fix,GT,34.1569263,-118.6345515,250.1902144070864,2.0263913,0.1,152.86719,1638995350440
Fix,GT,34.1569117,-118.634547,250.19980463385585,1.520562,0.1,161.13715,1638995351440
Fix,GT,34.1568973,-118.6345465,250.20880463373663,1.7368469,0.1,171.54443,1638995352440
Fix,GT,34.1568782,-118.6345521,250.26561672580243,2.5352163,0.1,187.23875,1638995353440
Fix,GT,34.1568561,-118.634567,250.2892069504261,2.9939694,0.1,204.84631,1638995354440
Fix,GT,34.1568371,-118.6345887,250.3234139008522,2.594851,0.1,220.03136,1638995355440
Fix,GT,34.1568263,-118.6346085,250.3586051445604,1.7951148,0.1,231.29608,1638995356440
Fix,GT,34.1568194,-118.6346266,250.21495366501807,2.2271519,0.1,240.28378,1638995357440
Fix,GT,34.1568185,-118.6346523,249.9687425818443,2.701116,0.1,261.23877,1638995358440
Fix,GT,34.1568315,-118.6346843,249.9890074502528,3.9616175,0.1,290.2801,1638995359440
Fix,GT,34.1568619,-118.6347254,250.039214401871,6.311227,0.1,311.64127,1638995360440
Fix,GT,34.1569137,-118.6347763,249.96697269898647,8.535332,0.1,321.83817,1638995361440
Fix,GT,34.1569831,-118.6348318,249.85958196261527,9.900171,0.1,327.0874,1638995362440
Fix,GT,34.157064,-118.6348906,249.7089652487636,10.970402,0.1,328.64975,1638995363440
Fix,GT,34.1571511,-118.6349535,249.5523907327652,11.490274,0.1,328.59656,1638995364440
Fix,GT,34.1572403,-118.635022,249.4135703638792,12.001991,0.1,326.86847,1638995365440
Fix,GT,34.1573335,-118.6350948,249.22273512768743,12.684793,0.1,326.74765,1638995366440
Fix,GT,34.1574324,-118.6351726,249.0697773025632,13.38183,0.1,326.3603,1638995367440
Fix,GT,34.1575334,-118.6352524,248.89038656499983,13.371601,0.1,326.43243,1638995368440
Fix,GT,34.1576336,-118.6353311,248.75656292724608,13.209341,0.1,326.96524,1638995369440
Fix,GT,34.157737,-118.6354089,248.6767888746261,13.991648,0.1,327.9546,1638995370440
Fix,GT,34.1578503,-118.6354936,248.714413902998,15.453175,0.1,327.50943,1638995371440
Fix,GT,34.1579682,-118.6355864,248.8638278067112,15.569653,0.1,325.96252,1638995372440
Fix,GT,34.1580823,-118.6356822,249.0684602509737,15.278576,0.1,323.78983,1638995373440
Fix,GT,34.1581905,-118.6357799,249.3728783158362,14.479984,0.1,322.20523,1638995374440
Fix,GT,34.1582848,-118.6358703,249.78148757857085,12.199068,0.1,320.58,1638995375440
Fix,GT,34.1583621,-118.6359487,250.17708857399225,10.344801,0.1,319.00766,1638995376440
Fix,GT,34.1584257,-118.6360177,250.5370736544728,8.356343,0.1,317.27475,1638995377440
Fix,GT,34.1584707,-118.6360693,250.80726078358293,5.4329967,0.1,315.76266,1638995378440
Fix,GT,34.1584959,-118.6360994,250.9650306583345,2.5615823,0.1,314.98804,1638995379440
Fix,GT,34.1585047,-118.6361099,251.0154023180008,0.4146297,0.1,314.8656,1638995380440
Fix,GT,34.1585051,-118.6361103,251.01040231812,0.008165102,0.1,314.8639,1638995381440
Fix,GT,34.1585051,-118.6361103,251.0110074807108,0.004049528,0.1,314.86502,1638995382440
Fix,GT,34.1585051,-118.6361103,251.01200748074052,0.0014972929,0.1,314.86685,1638995383440
Fix,GT,34.1585051,-118.6361103,251.0120074807405,0.00089961156,0.1,314.8677,1638995384440
Fix,GT,34.1585051,-118.6361103,251.0120074807405,0.001,0.1,314.86807,1638995385440
Fix,GT,34.1585051,-118.6361103,251.012,0.0005689646,0.1,314.86777,1638995386440
Fix,GT,34.1585051,-118.6361103,251.01199251925945,0.001,0.1,314.86728,1638995387440
Fix,GT,34.1585051,-118.6361103,251.01199251925945,0.0011666459,0.1,314.86697,1638995388440
Fix,GT,34.1585051,-118.6361103,251.012,0.0,0.1,314.86642,1638995389440
Fix,GT,34.1585051,-118.6361103,251.012,0.000597681,0.1,314.8655,1638995390440
Fix,GT,34.1585051,-118.6361103,251.01199251925945,0.001,0.1,314.8651,1638995391440
Fix,GT,34.1585054,-118.6361107,251.01080463862417,0.22425237,0.1,314.8541,1638995392440
Fix,GT,34.1585082,-118.636114,251.0271994770468,0.640591,0.1,314.8151,1638995393440
Fix,GT,34.1585134,-118.6361203,251.0586017960012,0.9873336,0.1,314.7359,1638995394440
Fix,GT,34.1585206,-118.6361291,251.10100411486627,1.2485126,0.1,314.6424,1638995395440
Fix,GT,34.158529,-118.6361393,251.15701159834865,1.396554,0.1,314.53317,1638995396440
Fix,GT,34.1585371,-118.6361493,251.2116092791557,1.0676272,0.1,314.4194,1638995397440
Fix,GT,34.158542,-118.6361553,251.2417971521914,0.4746341,0.1,314.36865,1638995398440
Fix,GT,34.1585435,-118.6361572,251.2499925121665,0.06555717,0.1,314.3519,1638995399440
Fix,GT,34.1585435,-118.6361573,251.24899251219628,0.0019054194,0.1,314.35153,1638995400440
Fix,GT,34.1585435,-118.6361573,251.249,0.0017448622,0.1,314.35205,1638995401440
Fix,GT,34.1585435,-118.6361573,251.2489925121963,0.001,0.1,314.35287,1638995402440
Fix,GT,34.1585435,-118.6361573,251.249,0.0014142136,0.1,314.35333,1638995403440
Fix,GT,34.1585435,-118.6361573,251.249,0.0011666466,0.1,314.35397,1638995404440
Fix,GT,34.1585435,-118.6361573,251.24900748780368,0.001,0.1,314.35434,1638995405440
Fix,GT,34.1585435,-118.6361573,251.24900748780368,0.001247567,0.1,314.3549,1638995406440
Fix,GT,34.1585435,-118.6361573,251.249,0.001247567,0.1,314.35556,1638995407440
Fix,GT,34.1585435,-118.6361573,251.24899251219628,0.0014142136,0.1,314.3563,1638995408440
Fix,GT,34.1585435,-118.6361573,251.249,0.0005689672,0.1,314.35715,1638995409440
Fix,GT,34.1585435,-118.6361573,251.249,0.0012475669,0.1,314.35797,1638995410440
Fix,GT,34.1585435,-118.6361573,251.24900748780368,0.0011666467,0.1,314.35843,1638995411440
Fix,GT,34.1585435,-118.6361573,251.249,0.0014142136,0.1,314.35913,1638995412440
Fix,GT,34.1585435,-118.6361573,251.24900748780368,0.0014972959,0.1,314.35992,1638995413440
Fix,GT,34.1585435,-118.6361573,251.249,0.001,0.1,314.361,1638995414440
Fix,GT,34.1585435,-118.6361573,251.2489925121963,0.00040232085,0.1,314.36194,1638995415440
Fix,GT,34.1585435,-118.6361573,251.24900748780368,0.0020949752,0.1,314.3631,1638995416440
Fix,GT,34.1585435,-118.6361573,251.24900748780368,0.001,0.1,314.36383,1638995417440
Fix,GT,34.1585435,-118.6361573,251.249,0.0011666468,0.1,314.36462,1638995418440
Fix,GT,34.1585435,-118.6361573,251.2489925121963,0.0008452458,0.1,314.36566,1638995419440
Fix,GT,34.1585435,-118.6361573,251.2490074878037,0.0011666468,0.1,314.36676,1638995420440
Fix,GT,34.1585435,-118.6361572,251.2490074878037,0.0011666468,0.1,314.36798,1638995421440
Fix,GT,34.1585435,-118.6361572,251.249,0.001,0.1,314.36908,1638995422440
Fix,GT,34.1585435,-118.6361572,251.249,0.0005689679,0.1,314.37003,1638995423440
Fix,GT,34.1585435,-118.6361572,251.2489925121963,0.00059767894,0.1,314.37076,1638995424440
Fix,GT,34.1585435,-118.6361572,251.24900748780368,0.0014142136,0.1,314.37158,1638995425440
Fix,GT,34.1585435,-118.6361572,251.249,0.0014142136,0.1,314.37262,1638995426440
Fix,GT,34.1585435,-118.6361572,251.2489925121963,0.0014142136,0.1,314.37405,1638995427440
Fix,GT,34.1585435,-118.6361572,251.2489925121963,0.0014142136,0.1,314.3754,1638995428440
Fix,GT,34.1585435,-118.6361572,251.249,0.001,0.1,314.37646,1638995429440
Fix,GT,34.1585435,-118.6361572,251.249,0.0014972965,0.1,314.37753,1638995430440
Fix,GT,34.1585435,-118.6361572,251.2490074878037,0.0014142136,0.1,314.37897,1638995431440
Fix,GT,34.1585435,-118.6361572,251.2490074878037,0.0024743867,0.1,314.3807,1638995432440
Fix,GT,34.1585435,-118.6361572,251.2489925121963,0.002236068,0.1,314.3825,1638995433440
Fix,GT,34.1585435,-118.6361572,251.249,0.002236068,0.1,314.38455,1638995434440
Fix,GT,34.1585435,-118.6361572,251.24900748780368,0.003,0.1,314.38672,1638995435440
Fix,GT,34.1585441,-118.6361579,251.2504098094404,0.29544485,0.1,314.38052,1638995436440
Fix,GT,34.1585491,-118.636164,251.2720116081834,1.5374886,0.1,314.27362,1638995437440
Fix,GT,34.1585648,-118.6361834,251.36362501227856,3.3845778,0.1,314.00873,1638995438440
Fix,GT,34.1585906,-118.6362161,251.52023429432512,4.8931046,0.1,313.48044,1638995439440
Fix,GT,34.158626,-118.6362617,251.71625340038537,6.509203,0.1,312.67346,1638995440440
Fix,GT,34.1586674,-118.6363176,251.9946714310944,7.2462444,0.1,311.29648,1638995441440
Fix,GT,34.1587118,-118.6363795,252.2518702071905,7.844235,0.1,310.6123,1638995442440
Fix,GT,34.1587601,-118.636447,252.58589752125732,8.565641,0.1,310.62592,1638995443440
Fix,GT,34.1588124,-118.6365205,252.9939091337323,9.254286,0.1,310.16544,1638995444440
Fix,GT,34.1588665,-118.6365965,253.3244795338809,9.107059,0.1,310.41324,1638995445440
Fix,GT,34.1589214,-118.6366725,253.7017021729946,9.707408,0.1,311.00995,1638995446440
Fix,GT,34.1589823,-118.6367566,253.99206966519355,10.823553,0.1,310.6538,1638995447440
Fix,GT,34.1590485,-118.6368471,254.2748586661816,11.185414,0.1,311.62772,1638995448440
Fix,GT,34.1591175,-118.6369379,254.51706966698168,11.5558815,0.1,312.50336,1638995449440
Fix,GT,34.1591879,-118.6370301,254.7048278682232,11.475697,0.1,312.4069,1638995450440
Fix,GT,34.1592587,-118.6371186,254.82901920664312,11.188361,0.1,314.67703,1638995451440
Fix,GT,34.1593308,-118.6372006,254.90920696759224,10.856251,0.1,317.23184,1638995452440
Fix,GT,34.1594025,-118.637277,254.92820696794985,10.377766,0.1,318.73438,1638995453440
Fix,GT,34.159471,-118.6373473,254.93940232270955,9.430719,0.1,319.75714,1638995454440
Fix,GT,34.1595316,-118.6374069,254.8931913369,7.9350204,0.1,320.88562,1638995455440
Fix,GT,34.159583,-118.6374542,254.81818373978132,6.4998937,0.1,323.0719,1638995456440
Fix,GT,34.1596258,-118.6374897,254.75837909293173,4.9073744,0.1,325.60315,1638995457440
Fix,GT,34.1596569,-118.637514,254.693593652308,3.4142926,0.1,326.81622,1638995458440
Fix,GT,34.1596784,-118.6375304,254.6383907074928,2.369106,0.1,327.4183,1638995459440
Fix,GT,34.1596919,-118.6375404,254.6057930306196,1.0867828,0.1,327.87222,1638995460440
Fix,GT,34.1596959,-118.6375433,254.593,0.06712936,0.1,327.99466,1638995461440
Fix,GT,34.1596959,-118.6375432,254.588,0.0031410821,0.1,328.0028,1638995462440
Fix,GT,34.1596959,-118.6375432,254.588,0.0016498892,0.1,328.0013,1638995463440
Fix,GT,34.1596959,-118.6375432,254.589,0.0,0.1,328.00012,1638995464440
Fix,GT,34.1596959,-118.6375432,254.58900758734347,0.001,0.1,327.99988,1638995465440
Fix,GT,34.1596959,-118.6375432,254.58899241265647,0.001,0.1,327.99966,1638995466440
Fix,GT,34.1596959,-118.6375432,254.58900758734347,0.0012475657,0.1,327.99933,1638995467440
Fix,GT,34.1596959,-118.6375432,254.589,0.0014142136,0.1,327.99893,1638995468440
Fix,GT,34.1596959,-118.6375432,254.58900758734347,0.0014142136,0.1,327.99847,1638995469440
Fix,GT,34.1596959,-118.6375432,254.589,0.0014142136,0.1,327.99786,1638995470440
Fix,GT,34.1596959,-118.6375432,254.58900758734347,0.0014142136,0.1,327.99728,1638995471440
Fix,GT,34.1596959,-118.6375432,254.589,0.0014142136,0.1,327.99704,1638995472440
Fix,GT,34.1596959,-118.6375432,254.58900758734347,0.0014142136,0.1,327.99686,1638995473440
Fix,GT,34.1596959,-118.6375432,254.58900758734345,0.0012475655,0.1,327.99622,1638995474440
Fix,GT,34.1596959,-118.6375432,254.58899241265647,0.0011666481,0.1,327.99567,1638995475440
Fix,GT,34.1596959,-118.6375432,254.589,0.0011666481,0.1,327.99506,1638995476440
Fix,GT,34.1596959,-118.6375433,254.58900758734345,0.0012475655,0.1,327.9946,1638995477440
Fix,GT,34.1596959,-118.6375433,254.58899241265647,0.0004023242,0.1,327.9942,1638995478440
Fix,GT,34.1596959,-118.6375433,254.589,0.0005689723,0.1,327.99387,1638995479440
Fix,GT,34.1596959,-118.6375433,254.58899241265647,0.0,0.1,327.9934,1638995480440
Fix,GT,34.1596959,-118.6375433,254.589,0.0,0.1,327.99313,1638995481440
Fix,GT,34.1596959,-118.6375433,254.58900758734345,0.0,0.1,327.99265,1638995482440
Fix,GT,34.1596959,-118.6375433,254.589,0.0,0.1,327.9921,1638995483440
Fix,GT,34.1596959,-118.6375433,254.58900758734345,0.001,0.1,327.9916,1638995484440
Fix,GT,34.1596959,-118.6375433,254.58899241265647,0.0,0.1,327.9912,1638995485440
Fix,GT,34.1596959,-118.6375433,254.589,0.0,0.1,327.9909,1638995486440
Fix,GT,34.1596959,-118.6375433,254.58899241265647,0.0,0.1,327.9905,1638995487440
Fix,GT,34.1596959,-118.6375433,254.58900758734345,0.001,0.1,327.99005,1638995488440
Fix,GT,34.1596959,-118.6375433,254.58899241265647,0.0009999999,0.1,327.98972,1638995489440
Fix,GT,34.1596959,-118.6375433,254.58900758734345,0.001,0.1,327.9892,1638995490440
Fix,GT,34.1596959,-118.6375433,254.58899241265647,0.0008046498,0.1,327.9887,1638995491440
Fix,GT,34.1596959,-118.6375433,254.589,0.0,0.1,327.98837,1638995492440
Fix,GT,34.1596959,-118.6375433,254.589,0.00059767504,0.1,327.9881,1638995493440
Fix,GT,34.1596959,-118.6375433,254.58899241265647,0.002,0.1,327.98773,1638995494440
Fix,GT,34.1596959,-118.6375433,254.589,0.001,0.1,327.9873,1638995495440
Fix,GT,34.1596959,-118.6375433,254.58899241265647,0.001,0.1,327.98697,1638995496440
Fix,GT,34.1596959,-118.6375433,254.589,0.0008046505,0.1,327.9867,1638995497440
Fix,GT,34.1596959,-118.6375433,254.589,0.001,0.1,327.98618,1638995498440
Fix,GT,34.1596959,-118.6375433,254.58899241265647,0.001,0.1,327.98618,1638995499440
Fix,GT,34.1596959,-118.6375433,254.589,0.001,0.1,327.98575,1638995500440
Fix,GT,34.1596959,-118.6375433,254.589,0.0011666487,0.1,327.9857,1638995501440
Fix,GT,34.1596959,-118.6375433,254.589,0.0014142136,0.1,327.98517,1638995502440
Fix,GT,34.1596959,-118.6375433,254.589,0.0014142136,0.1,327.98538,1638995503440
Fix,GT,34.1596959,-118.6375433,254.589,0.002141092,0.1,327.9849,1638995504440
Fix,GT,34.1596959,-118.6375433,254.58899241265647,0.0014023257,0.1,327.98462,1638995505440
Fix,GT,34.1596959,-118.6375433,254.589,0.002,0.1,327.9841,1638995506440
Fix,GT,34.1596959,-118.6375433,254.589,0.0020949764,0.1,327.98376,1638995507440
Fix,GT,34.1596959,-118.6375433,254.589,0.002236068,0.1,327.98346,1638995508440
Fix,GT,34.1596959,-118.6375433,254.58899241265647,0.0014142136,0.1,327.9832,1638995509440
Fix,GT,34.1596959,-118.6375433,254.589,0.001497302,0.1,327.98285,1638995510440
Fix,GT,34.1596958,-118.6375433,254.59,0.0019054146,0.1,327.98242,1638995511440
Fix,GT,34.1596958,-118.6375432,254.591,0.0031622776,0.1,327.98224,1638995512440
Fix,GT,34.1596958,-118.6375432,254.5929924125373,0.003,0.1,327.98193,1638995513440
Fix,GT,34.1596958,-118.6375431,254.5949924124777,0.0031622774,0.1,327.9818,1638995514440
Fix,GT,34.1596958,-118.637543,254.597,0.017275007,0.1,327.9828,1638995515440
Fix,GT,34.1596989,-118.637545,254.58279302203653,1.0004003,0.1,328.0819,1638995516440
Fix,GT,34.1597123,-118.6375549,254.5513906958103,2.3858023,0.1,328.20822,1638995517440
Fix,GT,34.1597359,-118.6375723,254.49057845905423,3.7598338,0.1,328.21918,1638995518440
Fix,GT,34.1597705,-118.6375974,254.38353951966764,5.286166,0.1,328.99863,1638995519440
Fix,GT,34.1598168,-118.6376318,254.2007389214337,6.5227222,0.1,327.58636,1638995520440
Fix,GT,34.1598623,-118.6376814,254.04116045314072,7.0313187,0.1,314.4802,1638995521440
Fix,GT,34.1598968,-118.6377507,253.81290694618227,7.4836264,0.1,296.5497,1638995522440
Fix,GT,34.1599132,-118.6378351,253.495551145494,8.351516,0.1,278.0697,1638995523440
Fix,GT,34.1599059,-118.6379332,253.23212555122376,9.727499,0.1,259.70905,1638995524440
Fix,GT,34.1598759,-118.6380443,253.00995756122472,11.709864,0.1,248.7031,1638995525440
Fix,GT,34.1598304,-118.6381665,252.7166999543309,12.874622,0.1,244.08853,1638995526440
Fix,GT,34.1597696,-118.6382936,252.25727435481548,14.018162,0.1,236.11996,1638995527440
Fix,GT,34.1596861,-118.6384118,251.60159937691688,14.4748535,0.1,225.04886,1638995528440
Fix,GT,34.1595852,-118.6385179,250.76338409668207,15.296972,0.1,219.12589,1638995529440
Fix,GT,34.1594754,-118.6386236,249.7421621916592,15.804243,0.1,218.21396,1638995530440
Fix,GT,34.1593656,-118.6387334,248.8690134008229,15.898482,0.1,221.38826,1638995531440
Fix,GT,34.1592662,-118.6388529,248.2459026744068,15.167076,0.1,227.49846,1638995532440
Fix,GT,34.1591859,-118.6389758,247.91913291823863,13.6302395,0.1,234.80804,1638995533440
Fix,GT,34.1591262,-118.6390941,247.90941821181767,12.03505,0.1,240.81638,1638995534440
Fix,GT,34.1590815,-118.6392054,247.913812043041,10.586024,0.1,245.51297,1638995535440
Fix,GT,34.1590478,-118.6392999,247.95821122947336,8.383917,0.1,247.00897,1638995536440
Fix,GT,34.1590221,-118.639376,247.9988205378652,6.9026337,0.1,247.77391,1638995537440
Fix,GT,34.1590007,-118.6394384,248.00140971845389,5.6446495,0.1,247.21071,1638995538440
Fix,GT,34.1589831,-118.6394887,247.99721861982343,4.7176914,0.1,246.97809,1638995539440
Fix,GT,34.1589669,-118.6395351,248.02181204649804,4.5526924,0.1,246.96552,1638995540440
Fix,GT,34.1589517,-118.6395785,248.04700739237663,4.1347604,0.1,247.09842,1638995541440
Fix,GT,34.1589396,-118.6396133,248.074,2.605206,0.1,247.31558,1638995542440
Fix,GT,34.1589334,-118.6396317,248.08500000000004,1.1502233,0.1,247.53516,1638995543440
Fix,GT,34.1589294,-118.6396441,248.0743949343264,1.3972967,0.1,247.67824,1638995544440
Fix,GT,34.158923,-118.6396628,248.08,2.6305027,0.1,247.47437,1638995545440
Fix,GT,34.1589087,-118.639701,248.09403067052364,5.110633,0.1,245.64566,1638995546440
Fix,GT,34.1588837,-118.6397619,248.12585860618947,7.4313364,0.1,243.0593,1638995547440
Fix,GT,34.1588465,-118.6398431,248.14620698350663,9.586991,0.1,240.43607,1638995548440
Fix,GT,34.1587987,-118.6399401,248.243616709888,11.251186,0.1,238.79398,1638995549440
Fix,GT,34.1587407,-118.6400535,248.2816209515929,13.29924,0.1,238.07767,1638995550440
Fix,GT,34.1586744,-118.6401869,248.36321438589687,15.355825,0.1,239.91139,1638995551440
Fix,GT,34.1586055,-118.6403434,248.45542560881373,17.315573,0.1,243.10605,1638995552440
Fix,GT,34.1585335,-118.6405205,248.5526093125344,19.058502,0.1,244.11514,1638995553440
Fix,GT,34.1584568,-118.6407141,248.63222603502868,20.515003,0.1,244.52649,1638995554440
Fix,GT,34.1583752,-118.6409229,248.7318279390335,22.009045,0.1,244.72583,1638995555440
Fix,GT,34.1582885,-118.6411461,248.91525354981425,23.412884,0.1,244.89218,1638995556440
Fix,GT,34.1581981,-118.6413807,249.12704656505588,24.197525,0.1,245.03662,1638995557440
Fix,GT,34.1581051,-118.6416218,249.3108395792842,24.82788,0.1,244.71281,1638995558440
Fix,GT,34.1580067,-118.6418689,249.424,25.725246,0.1,243.89795,1638995559440
Fix,GT,34.1579018,-118.6421236,249.49862838900088,26.71762,0.1,243.15863,1638995560440
Fix,GT,34.1577916,-118.6423869,249.6566325938701,27.588936,0.1,243.11118,1638995561440
Fix,GT,34.1576776,-118.6426575,249.74841396844383,28.352272,0.1,242.93436,1638995562440
Fix,GT,34.1575602,-118.6429348,249.84004236629605,29.005327,0.1,242.80063,1638995563440
Fix,GT,34.1574384,-118.6432168,249.919218624115,29.569267,0.1,242.08992,1638995564440
Fix,GT,34.1573122,-118.6435026,250.0064139677286,30.094358,0.1,241.61935,1638995565440
Fix,GT,34.1571831,-118.6437922,250.06281210827825,30.492966,0.1,241.83597,1638995566440
Fix,GT,34.1570546,-118.6440855,250.20665168482063,30.62632,0.1,242.16208,1638995567440
Fix,GT,34.1569249,-118.6443809,250.417839571178,30.967264,0.1,241.86285,1638995568440
Fix,GT,34.1567927,-118.6446795,250.6822693411708,31.471,0.1,241.78836,1638995569440
Fix,GT,34.1566578,-118.644982,251.00628428989648,31.736755,0.1,241.15222,1638995570440
Fix,GT,34.1565189,-118.6452831,251.3458669899404,31.79833,0.1,240.6716,1638995571440
Fix,GT,34.1563807,-118.6455857,251.67207732349635,31.905453,0.1,241.65309,1638995572440
Fix,GT,34.1562431,-118.6458908,251.9974762763083,32.103573,0.1,240.93365,1638995573440
Fix,GT,34.1561023,-118.6461962,252.34706229791044,32.304234,0.1,240.75534,1638995574440
Fix,GT,34.1559608,-118.6465037,252.6884913098216,32.55513,0.1,241.06358,1638995575440
Fix,GT,34.15582,-118.6468149,253.01785529285667,32.76909,0.1,241.59062,1638995576440
Fix,GT,34.1556814,-118.6471298,253.3478820168674,32.933846,0.1,242.243,1638995577440
Fix,GT,34.1555442,-118.6474466,253.7130855204761,32.919266,0.1,242.302,1638995578440
Fix,GT,34.1554076,-118.6477613,254.23992857882376,32.504604,0.1,242.26212,1638995579440
Fix,GT,34.1552727,-118.648071,254.93816692152612,31.983856,0.1,242.20175,1638995580440
Fix,GT,34.1551393,-118.6483772,255.7766157619357,31.86743,0.1,242.15855,1638995581440
Fix,GT,34.1550056,-118.6486834,256.74381873810296,31.869307,0.1,242.1264,1638995582440
Fix,GT,34.1548725,-118.648989,257.7124357224405,31.74358,0.1,242.18924,1638995583440
Fix,GT,34.1547394,-118.6492937,258.6780450590551,31.742832,0.1,242.05527,1638995584440
Fix,GT,34.1546057,-118.6495986,259.6376311258972,31.832855,0.1,242.03922,1638995585440
Fix,GT,34.1544729,-118.6499029,260.59378769528865,31.451384,0.1,242.25941,1638995586440
Fix,GT,34.154343,-118.6502023,261.5336311824024,30.869244,0.1,242.3063,1638995587440
Fix,GT,34.154215,-118.6504976,262.4422094300985,30.631542,0.1,242.19125,1638995588440
Fix,GT,34.1540863,-118.6507917,263.34377598813177,30.659096,0.1,242.11214,1638995589440
Fix,GT,34.1539582,-118.6510864,264.2818187493086,30.70967,0.1,242.34802,1638995590440
Fix,GT,34.1538287,-118.651382,265.22042805778983,30.905048,0.1,241.84367,1638995591440
Fix,GT,34.1536978,-118.651679,266.18382245615123,31.088749,0.1,242.00879,1638995592440
Fix,GT,34.1535674,-118.6519775,267.11500246983763,31.163582,0.1,242.26268,1638995593440
Fix,GT,34.153437,-118.6522777,268.04622908350825,31.31166,0.1,242.33026,1638995594440
Fix,GT,34.1533088,-118.6525797,268.9731978254914,31.21548,0.1,243.36755,1638995595440
Fix,GT,34.1531865,-118.6528834,269.8972291499972,31.10009,0.1,244.75076,1638995596440
Fix,GT,34.1530703,-118.6531909,270.819608230561,31.253826,0.1,245.99556,1638995597440
Fix,GT,34.152958,-118.6535039,271.7950105974376,31.603743,0.1,247.25504,1638995598440
Fix,GT,34.1528497,-118.6538238,272.7514397425055,32.044895,0.1,248.27927,1638995599440
Fix,GT,34.1527468,-118.6541482,273.74183391630646,31.933237,0.1,249.71986,1638995600440
Fix,GT,34.1526504,-118.6544748,274.7402758841813,32.046074,0.1,250.8081,1638995601440
Fix,GT,34.1525565,-118.6548049,275.73163169708846,32.341415,0.1,251.03859,1638995602440
Fix,GT,34.1524621,-118.6551377,276.7124397854805,32.455677,0.1,251.02591,1638995603440
Fix,GT,34.1523675,-118.6554704,277.7064281570911,32.35055,0.1,250.8882,1638995604440
Fix,GT,34.1522726,-118.6558009,278.67824113231893,32.170727,0.1,250.70105,1638995605440
Fix,GT,34.1521772,-118.6561307,279.6610258578658,32.282684,0.1,250.64172,1638995606440
Fix,GT,34.1520811,-118.6564626,280.64643985301257,32.62314,0.1,250.745,1638995607440
Fix,GT,34.1519844,-118.6567991,281.6430375425816,32.930317,0.1,250.79878,1638995608440
Fix,GT,34.1518876,-118.6571359,282.61942823302746,32.799923,0.1,250.87082,1638995609440
Fix,GT,34.1517916,-118.6574729,283.6056468769312,32.93147,0.1,250.9592,1638995610440
Fix,GT,34.1516958,-118.6578102,284.5996437333822,32.674473,0.1,251.06432,1638995611440
Fix,GT,34.1516012,-118.6581426,285.5464515800476,32.204834,0.1,250.77199,1638995612440
Fix,GT,34.1515057,-118.6584723,286.4865770559311,32.261482,0.1,250.61237,1638995613440
Fix,GT,34.1514097,-118.6588038,287.4980493016243,32.567657,0.1,250.69685,1638995614440
Fix,GT,34.1513127,-118.6591398,288.4872244166434,33.03719,0.1,250.77068,1638995615440
Fix,GT,34.1512148,-118.6594808,289.4890057675838,33.50632,0.1,250.88257,1638995616440
Fix,GT,34.1511159,-118.6598265,290.479460354805,33.8094,0.1,250.86642,1638995617440
Fix,GT,34.1510178,-118.6601706,291.49602608335016,33.27612,0.1,251.09369,1638995618440
Fix,GT,34.1509216,-118.6605087,292.497822049588,32.626923,0.1,250.94789,1638995619440
Fix,GT,34.1508267,-118.6608414,293.46583370041844,32.21733,0.1,250.80301,1638995620440
Fix,GT,34.1507313,-118.6611704,294.4232098270654,32.090214,0.1,250.59451,1638995621440
Fix,GT,34.1506364,-118.6614975,295.3716005167961,31.746134,0.1,250.71597,1638995622440
Fix,GT,34.1505424,-118.6618225,296.2586005321741,31.799994,0.1,250.67278,1638995623440
Fix,GT,34.1504474,-118.6621495,297.1674080132544,32.17813,0.1,250.5898,1638995624440
Fix,GT,34.1503521,-118.6624806,298.0664168878198,32.339172,0.1,251.02066,1638995625440
Fix,GT,34.1502584,-118.6628125,298.94098233848814,32.211494,0.1,251.41522,1638995626440
Fix,GT,34.1501697,-118.6631432,299.81421264353395,31.93015,0.1,252.64305,1638995627440
Fix,GT,34.1500889,-118.6634723,300.7234258905351,31.348026,0.1,254.21866,1638995628440
Fix,GT,34.1500183,-118.6637997,301.6184169432521,31.151255,0.1,256.63635,1638995629440
Fix,GT,34.1499582,-118.6641328,302.51300030523544,31.824224,0.1,258.32187,1638995630440
Fix,GT,34.1499019,-118.6644754,303.4102073405087,32.601334,0.1,259.0564,1638995631440
Fix,GT,34.1498473,-118.6648267,304.3910237111449,33.228134,0.1,259.48517,1638995632440
Fix,GT,34.149795,-118.6651818,305.371763559103,33.2128,0.1,260.3038,1638995633440
Fix,GT,34.1497472,-118.665536,306.1395656656623,32.999947,0.1,261.0123,1638995634440
Fix,GT,34.1497041,-118.6658887,306.72208167034387,32.738445,0.1,262.0615,1638995635440
Fix,GT,34.1496671,-118.6662394,307.0494814897776,32.616962,0.1,263.27954,1638995636440
Fix,GT,34.1496366,-118.6665931,307.2156184902788,32.95689,0.1,264.69434,1638995637440
Fix,GT,34.1496124,-118.6669493,307.2239791754186,32.87136,0.1,265.837,1638995638440
Fix,GT,34.1495935,-118.6673033,307.02571383327245,32.576435,0.1,266.58054,1638995639440
Fix,GT,34.1495768,-118.6676549,306.57926229548457,32.443275,0.1,266.3865,1638995640440
Fix,GT,34.149558,-118.6680053,305.901627065152,32.296852,0.1,266.09476,1638995641440
Fix,GT,34.1495389,-118.668354,305.0085712587833,32.182755,0.1,266.15524,1638995642440
Fix,GT,34.1495201,-118.6687015,303.9091196273268,31.9881,0.1,266.19415,1638995643440
Fix,GT,34.1495013,-118.6690465,302.56827989065647,31.855497,0.1,266.16144,1638995644440
Fix,GT,34.1494831,-118.6693916,301.0682008291483,31.941036,0.1,266.3069,1638995645440
Fix,GT,34.1494649,-118.669738,299.29714245915414,32.092884,0.1,266.24442,1638995646440
Fix,GT,34.1494464,-118.6700876,297.39037280625104,32.567055,0.1,266.26,1638995647440
Fix,GT,34.1494274,-118.6704413,295.4949354441165,32.75874,0.1,266.06528,1638995648440
Fix,GT,34.1494072,-118.6707957,293.60793543225526,32.73607,0.1,265.84906,1638995649440
Fix,GT,34.1493867,-118.6711494,291.6813377431631,32.717846,0.1,265.91376,1638995650440
Fix,GT,34.1493671,-118.671504,289.602107355237,32.73758,0.1,266.28223,1638995651440
Fix,GT,34.1493507,-118.671856,287.41949490380284,32.215904,0.1,267.4089,1638995652440
Fix,GT,34.1493435,-118.6722014,285.32550967752934,31.573555,0.1,269.6084,1638995653440
Fix,GT,34.1493497,-118.6725418,283.413142342329,31.338127,0.1,272.83823,1638995654440
Fix,GT,34.1493716,-118.6728791,281.56675165939333,31.11177,0.1,275.6919,1638995655440
Fix,GT,34.1494079,-118.6732123,279.68176330149174,30.910435,0.1,279.08948,1638995656440
Fix,GT,34.1494577,-118.6735412,277.7230252673924,30.725391,0.1,281.44177,1638995657440
Fix,GT,34.1495207,-118.673863,275.8441539148092,30.34159,0.1,284.868,1638995658440
Fix,GT,34.1495974,-118.6741769,274.0529935979843,30.073025,0.1,287.8428,1638995659440
Fix,GT,34.1496869,-118.6744836,272.3208413982093,29.872663,0.1,290.51984,1638995660440
Fix,GT,34.1497853,-118.6747815,270.88469272649286,29.245657,0.1,292.49338,1638995661440
Fix,GT,34.149886,-118.6750706,269.4984228640795,28.57948,0.1,292.6969,1638995662440
Fix,GT,34.1499854,-118.6753558,267.84722386538976,28.614002,0.1,292.73483,1638995663440
Fix,GT,34.1500859,-118.6756432,266.19178271254896,28.888044,0.1,292.7621,1638995664440
Fix,GT,34.1501877,-118.6759332,264.4680167980194,29.16923,0.1,292.88287,1638995665440
Fix,GT,34.1502914,-118.6762254,262.7157668695748,29.439917,0.1,293.21252,1638995666440
Fix,GT,34.1503961,-118.6765191,260.89202063283324,29.395653,0.1,292.84064,1638995667440
Fix,GT,34.150499,-118.6768116,259.2540089572668,29.201532,0.1,292.9969,1638995668440
Fix,GT,34.1506013,-118.6771022,257.6532820930481,28.929525,0.1,292.8033,1638995669440
Fix,GT,34.1507016,-118.6773903,256.23827442654965,28.784515,0.1,292.69626,1638995670440
Fix,GT,34.1508017,-118.6776787,254.9322703464628,28.85745,0.1,292.6468,1638995671440
Fix,GT,34.150899,-118.6779696,253.6045240986347,29.032242,0.1,290.99316,1638995672440
Fix,GT,34.1509881,-118.6782688,252.3846375409961,29.485119,0.1,288.34134,1638995673440
Fix,GT,34.1510665,-118.6785766,251.0836959711313,29.823036,0.1,285.78174,1638995674440
Fix,GT,34.1511341,-118.6788908,249.6882510699928,30.085953,0.1,283.21402,1638995675440
Fix,GT,34.1511906,-118.6792116,248.29986043336987,30.278988,0.1,280.45956,1638995676440
Fix,GT,34.1512337,-118.679536,246.9380397142172,30.284628,0.1,277.7082,1638995677440
Fix,GT,34.1512637,-118.6798619,245.567469789356,30.08971,0.1,274.93057,1638995678440
Fix,GT,34.1512809,-118.6801853,244.2827308868766,29.683956,0.1,272.36768,1638995679440
Fix,GT,34.151288,-118.6805071,243.1159217129648,29.688675,0.1,270.96158,1638995680440
Fix,GT,34.151291,-118.680829,241.8490746412873,29.687328,0.1,270.4779,1638995681440
Fix,GT,34.151293,-118.6811509,240.63732390740515,29.687702,0.1,270.32233,1638995682440
Fix,GT,34.1512942,-118.6814728,239.5207495860756,29.665426,0.1,270.0909,1638995683440
Fix,GT,34.1512952,-118.681792,238.5221518587172,29.165176,0.1,270.271,1638995684440
Fix,GT,34.1512976,-118.6821075,237.6236056072712,29.047688,0.1,270.45755,1638995685440
Fix,GT,34.1513001,-118.6824219,236.87620788928865,28.96954,0.1,270.4708,1638995686440
Fix,GT,34.1513028,-118.6827359,236.18106646060943,28.953735,0.1,270.57474,1638995687440
Fix,GT,34.1513054,-118.6830493,235.6860711329281,28.829622,0.1,270.4104,1638995688440
Fix,GT,34.1513048,-118.6833611,235.22190625953675,28.662788,0.1,269.0309,1638995689440
Fix,GT,34.1512948,-118.6836709,234.7568758111298,28.504349,0.1,266.34445,1638995690440
Fix,GT,34.151272,-118.6839785,234.09381720778345,28.49522,0.1,263.64355,1638995691440
Fix,GT,34.151239,-118.684285,233.34962407538296,28.473133,0.1,261.36246,1638995692440
Fix,GT,34.151195,-118.6845887,232.67563575220103,28.369287,0.1,258.94202,1638995693440
Fix,GT,34.1511418,-118.6848904,231.92722644340992,28.529316,0.1,257.34045,1638995694440
Fix,GT,34.1510847,-118.6851918,231.188249874115,28.47144,0.1,257.00067,1638995695440
Fix,GT,34.1510274,-118.685492,230.5594872174561,28.336044,0.1,256.96115,1638995696440
Fix,GT,34.1509697,-118.6857902,230.05926841223243,28.118036,0.1,256.58215,1638995697440
Fix,GT,34.1509115,-118.6860851,229.57808480486275,27.768265,0.1,256.529,1638995698440
Fix,GT,34.150856,-118.6863765,229.0314450803995,27.447102,0.1,257.39252,1638995699440
Fix,GT,34.1508061,-118.6866671,228.65253214630485,27.276285,0.1,259.12,1638995700440
Fix,GT,34.1507662,-118.6869575,228.35292275026444,27.043839,0.1,261.92715,1638995701440
Fix,GT,34.1507389,-118.6872474,228.08653893852235,26.822533,0.1,264.7342,1638995702440
Fix,GT,34.1507234,-118.6875361,227.8223368349076,26.603077,0.1,267.46246,1638995703440
Fix,GT,34.1507188,-118.6878233,227.5149109928012,26.398071,0.1,270.0116,1638995704440
Fix,GT,34.1507243,-118.6881083,227.18489426034688,26.21357,0.1,272.46783,1638995705440
Fix,GT,34.1507406,-118.6883908,226.7734733829796,26.06248,0.1,275.13336,1638995706440
Fix,GT,34.1507677,-118.6886712,226.32469892400505,26.118816,0.1,277.8577,1638995707440
Fix,GT,34.1508058,-118.688953,225.8156703695357,26.538834,0.1,280.20853,1638995708440
Fix,GT,34.1508535,-118.6892349,225.21229653668405,26.503384,0.1,282.36005,1638995709440
Fix,GT,34.1509086,-118.6895135,224.85910628065463,26.35323,0.1,284.14423,1638995710440
Fix,GT,34.1509694,-118.6897889,224.4907223749757,26.200512,0.1,285.2405,1638995711440
Fix,GT,34.1510322,-118.6900621,224.02946824932096,26.118626,0.1,285.41602,1638995712440
Fix,GT,34.1510941,-118.690336,223.584279591322,26.196735,0.1,285.0485,1638995713440
Fix,GT,34.1511559,-118.6906109,223.01447996413708,26.269108,0.1,285.11832,1638995714440
Fix,GT,34.1512158,-118.6908872,222.38944463586807,26.516747,0.1,283.95715,1638995715440
Fix,GT,34.151269,-118.6911701,221.6523975148201,26.869717,0.1,281.59058,1638995716440
Fix,GT,34.151312,-118.6914574,220.54556921434403,26.95362,0.1,278.80066,1638995717440
Fix,GT,34.1513435,-118.6917473,219.54235556024312,26.948635,0.1,276.09048,1638995718440
Fix,GT,34.1513639,-118.6920387,218.50406601914764,26.949984,0.1,273.56757,1638995719440
Fix,GT,34.1513734,-118.692331,217.48454551672936,26.970879,0.1,270.92975,1638995720440
Fix,GT,34.1513707,-118.6926236,216.50058081728216,26.972088,0.1,267.8795,1638995721440
Fix,GT,34.1513558,-118.6929164,215.5874037024975,27.204983,0.1,265.11264,1638995722440
Fix,GT,34.1513288,-118.693212,214.78222552597524,27.572319,0.1,262.2559,1638995723440
Fix,GT,34.1512894,-118.6935081,214.21029623770715,27.67855,0.1,259.5406,1638995724440
Fix,GT,34.1512381,-118.6938024,213.7250955120623,27.825546,0.1,256.69986,1638995725440
Fix,GT,34.1511738,-118.694096,213.0964742386043,28.115276,0.1,253.69348,1638995726440
Fix,GT,34.1510974,-118.6943874,212.6006803981066,28.152044,0.1,251.27493,1638995727440
Fix,GT,34.1510104,-118.6946733,212.1798638664782,27.99161,0.1,248.42947,1638995728440
Fix,GT,34.1509118,-118.6949517,211.74709454172853,27.795069,0.1,245.35474,1638995729440
Fix,GT,34.1508016,-118.6952213,211.3343079126477,27.608965,0.1,242.37735,1638995730440
Fix,GT,34.1506816,-118.6954826,210.9242661868334,27.42942,0.1,239.68015,1638995731440
Fix,GT,34.1505513,-118.6957346,210.4865031584501,27.290188,0.1,236.65088,1638995732440
Fix,GT,34.1504122,-118.6959786,210.06366298043727,27.339216,0.1,234.39732,1638995733440
Fix,GT,34.1502636,-118.6962176,209.6117164589465,27.698135,0.1,231.79431,1638995734440
Fix,GT,34.1501035,-118.6964498,209.21390547037123,27.820057,0.1,228.5332,1638995735440
Fix,GT,34.1499323,-118.69667,208.7368700020909,27.849075,0.1,225.35004,1638995736440
Fix,GT,34.1497518,-118.6968802,208.302302190423,27.809904,0.1,222.60559,1638995737440
Fix,GT,34.1495636,-118.6970805,207.60198246669768,28.041656,0.1,220.26787,1638995738440
Fix,GT,34.1493663,-118.6972768,206.47670440119504,28.855936,0.1,218.85457,1638995739440
Fix,GT,34.1491605,-118.6974746,205.2281303663254,29.482365,0.1,218.1547,1638995740440
Fix,GT,34.1489511,-118.6976735,203.99995871841907,29.667059,0.1,218.10287,1638995741440
Fix,GT,34.1487417,-118.6978729,203.28469220772385,29.529736,0.1,218.18628,1638995742440
Fix,GT,34.1485329,-118.6980721,202.8492900967598,29.548817,0.1,218.27258,1638995743440
Fix,GT,34.1483239,-118.6982714,202.5115087663532,29.707253,0.1,218.03378,1638995744440
Fix,GT,34.1481131,-118.6984716,202.29594685652853,29.918705,0.1,218.25249,1638995745440
Fix,GT,34.1479003,-118.6986761,201.96190530824663,30.520853,0.1,218.51039,1638995746440
Fix,GT,34.1476837,-118.6988854,201.6141242351532,31.078602,0.1,218.66492,1638995747440
Fix,GT,34.1474647,-118.6990969,201.2369111208916,31.1557,0.1,218.22295,1638995748440
Fix,GT,34.1472454,-118.6993061,200.8877218458653,30.933628,0.1,218.22467,1638995749440
Fix,GT,34.1470274,-118.6995126,200.54971585780385,30.641008,0.1,217.81073,1638995750440
Fix,GT,34.1468107,-118.6997173,200.140656722635,30.4667,0.1,218.22285,1638995751440
Fix,GT,34.1465985,-118.6999265,199.48287563472985,30.514084,0.1,220.49219,1638995752440
Fix,GT,34.1463928,-118.7001502,198.99131351459027,31.16211,0.1,223.00252,1638995753440
Fix,GT,34.1461879,-118.7003879,198.57170402368905,32.01277,0.1,224.44514,1638995754440
Fix,GT,34.145982,-118.7006355,198.2471360026002,32.524086,0.1,225.3022,1638995755440
Fix,GT,34.1457787,-118.7008909,198.04397629368304,32.633354,0.1,227.1992,1638995756440
Fix,GT,34.1455859,-118.7011555,197.89657391780617,32.259834,0.1,229.63301,1638995757440
Fix,GT,34.1454025,-118.701425,197.9102426874637,32.129677,0.1,231.32358,1638995758440
Fix,GT,34.1452249,-118.701702,198.07178692778945,32.411568,0.1,232.94965,1638995759440
Fix,GT,34.1450523,-118.7019887,198.4252960639,32.883907,0.1,234.53235,1638995760440
Fix,GT,34.1448817,-118.7022825,198.9467340632379,33.183914,0.1,235.15056,1638995761440
Fix,GT,34.1447122,-118.7025794,199.50852696543933,33.201668,0.1,235.38394,1638995762440
Fix,GT,34.1445425,-118.7028756,200.10397091722487,33.20597,0.1,235.12259,1638995763440
Fix,GT,34.1443732,-118.7031709,200.8297282168865,32.84361,0.1,235.36101,1638995764440
Fix,GT,34.1442079,-118.7034622,201.52256274801493,32.2094,0.1,235.51643,1638995765440
Fix,GT,34.1440461,-118.7037473,202.26821963891385,31.333078,0.1,235.4526,1638995766440
Fix,GT,34.1438896,-118.7040232,203.1943673864007,30.261646,0.1,235.54974,1638995767440
Fix,GT,34.1437397,-118.7042901,204.0383853602409,29.141586,0.1,236.07556,1638995768440
Fix,GT,34.143597,-118.7045493,204.7777521247864,28.32273,0.1,236.1452,1638995769440
Fix,GT,34.1434578,-118.7048046,205.49015453273057,27.96096,0.1,237.51521,1638995770440
Fix,GT,34.1433284,-118.705061,206.2067997488976,27.388103,0.1,239.56598,1638995771440
Fix,GT,34.1432076,-118.705316,206.9744154725969,26.733337,0.1,240.3179,1638995772440
Fix,GT,34.1430901,-118.7055648,207.946847407341,26.019867,0.1,240.01389,1638995773440
Fix,GT,34.1429757,-118.705806,209.1113387774825,25.18303,0.1,240.25333,1638995774440
Fix,GT,34.1428666,-118.7060396,210.42773555332425,24.171131,0.1,240.58379,1638995775440
Fix,GT,34.1427654,-118.7062589,211.86413167580963,21.929188,0.1,240.87476,1638995776440
Fix,GT,34.1426759,-118.706457,213.2901261484027,19.902546,0.1,241.65846,1638995777440
Fix,GT,34.1425989,-118.7066456,214.65692456793784,18.873144,0.1,245.4389,1638995778440
Fix,GT,34.1425365,-118.70683,216.0121143553257,17.893967,0.1,249.56393,1638995779440
Fix,GT,34.1424928,-118.7070116,217.3643334739208,17.165318,0.1,257.03366,1638995780440
Fix,GT,34.142471,-118.7071924,218.68690193393823,16.56047,0.1,264.992,1638995781440
Fix,GT,34.1424706,-118.7073671,219.8178662837446,15.870642,0.1,272.88455,1638995782440
Fix,GT,34.1424902,-118.707537,220.7329596789479,16.005419,0.1,281.14212,1638995783440
Fix,GT,34.1425299,-118.7077077,221.35935017216207,16.773085,0.1,287.59375,1638995784440
Fix,GT,34.1425836,-118.7078791,221.91472874474528,17.087132,0.1,292.2392,1638995785440
Fix,GT,34.1426492,-118.7080476,222.31972346797585,17.289099,0.1,296.8879,1638995786440
Fix,GT,34.1427277,-118.7082086,222.705674452126,17.116795,0.1,302.66736,1638995787440
Fix,GT,34.1428164,-118.7083579,222.90779812774065,16.75115,0.1,306.8349,1638995788440
Fix,GT,34.1429071,-118.7084982,222.8449761416912,16.049604,0.1,307.9618,1638995789440
Fix,GT,34.1429939,-118.7086313,222.66135466128588,15.034684,0.1,307.91,1638995790440
Fix,GT,34.1430753,-118.7087562,222.37335995969173,14.304374,0.1,308.13913,1638995791440
Fix,GT,34.143152,-118.7088721,222.1671594195962,13.014624,0.1,308.47363,1638995792440
Fix,GT,34.1432218,-118.7089777,222.11822571977973,11.793463,0.1,308.29395,1638995793440
Fix,GT,34.1432819,-118.7090704,222.14340770736337,10.084042,0.1,308.4074,1638995794440
Fix,GT,34.1433361,-118.7091515,222.30826687335968,8.969768,0.1,308.7852,1638995795440
Fix,GT,34.1433777,-118.7092268,222.4658406077624,7.899275,0.1,300.53934,1638995796440
Fix,GT,34.1433989,-118.7093085,222.63762813672423,7.874036,0.1,281.75208,1638995797440
Fix,GT,34.1433919,-118.709397,222.64118327373268,8.414289,0.1,258.2708,1638995798440
Fix,GT,34.1433555,-118.7094868,222.5039455715418,9.916361,0.1,238.11362,1638995799440
Fix,GT,34.1432894,-118.7095725,222.24250200009345,11.497141,0.1,221.81194,1638995800440
Fix,GT,34.1431971,-118.709649,221.7402655619681,13.342705,0.1,211.12175,1638995801440
Fix,GT,34.1430824,-118.7097187,221.1144116898477,15.017172,0.1,204.28537,1638995802440
Fix,GT,34.1429517,-118.7097846,220.2599973396361,16.313568,0.1,201.23895,1638995803440
Fix,GT,34.1428095,-118.7098461,219.2837542874813,17.137007,0.1,198.20334,1638995804440
Fix,GT,34.1426589,-118.7099003,218.266139262259,17.707512,0.1,195.60422,1638995805440
Fix,GT,34.1425025,-118.7099489,217.26676076126097,18.095516,0.1,192.97008,1638995806440
Fix,GT,34.1423406,-118.7099854,216.3998269920051,18.463041,0.1,188.37044,1638995807440
Fix,GT,34.1421747,-118.7100061,215.6728444444537,18.504564,0.1,183.78008,1638995808440
Fix,GT,34.142007,-118.7100158,215.167282717526,18.69032,0.1,181.94049,1638995809440
Fix,GT,34.141839,-118.7100179,214.94978725531692,18.520765,0.1,178.99048,1638995810440
Fix,GT,34.1416736,-118.7100096,214.9558103529215,18.18775,0.1,176.1037,1638995811440
Fix,GT,34.1415135,-118.7099891,215.21466943973303,17.326262,0.1,171.75616,1638995812440
Fix,GT,34.1413661,-118.7099578,215.59151658543945,15.802275,0.1,168.47412,1638995813440
Fix,GT,34.1412333,-118.7099195,216.0258886175752,14.680532,0.1,164.68982,1638995814440
Fix,GT,34.1411076,-118.7098719,216.3048526980877,14.727127,0.1,161.04974,1638995815440
Fix,GT,34.1409803,-118.7098174,216.4674263516665,15.053019,0.1,159.75098,1638995816440
Fix,GT,34.1408548,-118.7097595,216.5318112448752,14.563426,0.1,158.56714,1638995817440
Fix,GT,34.1407397,-118.7097028,216.5003784352541,12.956297,0.1,157.4195,1638995818440
Fix,GT,34.140642,-118.7096507,216.3927623990476,10.736268,0.1,154.43494,1638995819440
Fix,GT,34.1405691,-118.7095879,216.23194653275607,9.271275,0.1,137.6831,1638995820440
Fix,GT,34.1405259,-118.7095018,215.90892255020145,9.234129,0.1,113.29999,1638995821440
Fix,GT,34.1405175,-118.7093962,215.4348865737021,10.350925,0.1,86.88541,1638995822440
Fix,GT,34.1405433,-118.7092761,214.96285059010984,12.4593115,0.1,70.303894,1638995823440
Fix,GT,34.1405953,-118.7091423,214.408453758955,14.682596,0.1,61.671967,1638995824440
Fix,GT,34.1406689,-118.7089955,213.82566655391457,16.84587,0.1,57.13379,1638995825440
Fix,GT,34.140755,-118.7088343,213.31288573938608,18.42326,0.1,56.989563,1638995826440
Fix,GT,34.1408481,-118.7086597,213.02575048568843,19.806711,0.1,56.882965,1638995827440
Fix,GT,34.1409489,-118.7084723,212.99083442398907,21.3889,0.1,56.751984,1638995828440
Fix,GT,34.1410584,-118.7082715,213.2580959410668,22.769932,0.1,56.220337,1638995829440
Fix,GT,34.1411751,-118.7080632,213.5867055430412,23.539576,0.1,55.566895,1638995830440
Fix,GT,34.1412963,-118.7078503,213.73304798007013,24.071918,0.1,55.324707,1638995831440
Fix,GT,34.1414192,-118.7076317,213.8223960268796,24.642696,0.1,56.229736,1638995832440
Fix,GT,34.1415428,-118.707405,213.78779917305707,25.368683,0.1,56.772217,1638995833440
Fix,GT,34.1416682,-118.707171,213.59837277024985,25.94852,0.1,57.306915,1638995834440
Fix,GT,34.1417937,-118.7069326,213.3453120418489,26.005558,0.1,57.37738,1638995835440
Fix,GT,34.1419212,-118.7066958,212.89386164221168,26.163185,0.1,56.21878,1638995836440
Fix,GT,34.1420558,-118.7064576,212.26802716445923,27.175587,0.1,54.79355,1638995837440
Fix,GT,34.1422036,-118.7062119,211.3759671289921,28.671171,0.1,53.18921,1638995838440
Fix,GT,34.1423604,-118.7059588,210.3339430897832,29.378891,0.1,53.34619,1638995839440
Fix,GT,34.1425161,-118.7057007,209.35712625539304,29.484768,0.1,54.064697,1638995840440
Fix,GT,34.142671,-118.705438,208.4107838590145,29.954865,0.1,54.56909,1638995841440
Fix,GT,34.1428315,-118.7051716,207.560033254534,30.559845,0.1,53.03253,1638995842440
Fix,GT,34.1429956,-118.7049057,206.73839926499127,30.463623,0.1,53.48291,1638995843440
Fix,GT,34.1431552,-118.7046415,205.9646246247292,29.700422,0.1,54.03308,1638995844440
Fix,GT,34.1433075,-118.7043834,205.2390331252813,28.787754,0.1,54.80313,1638995845440
Fix,GT,34.1434532,-118.7041293,204.47342347371577,28.21809,0.1,55.46344,1638995846440
Fix,GT,34.1435959,-118.7038765,203.6879968657792,28.196796,0.1,55.646515,1638995847440
Fix,GT,34.1437385,-118.7036221,202.8835463976264,28.405628,0.1,55.843445,1638995848440
Fix,GT,34.1438819,-118.7033651,201.9050269327164,28.74929,0.1,55.58954,1638995849440
Fix,GT,34.1440302,-118.7031062,201.34728220349552,29.314533,0.1,54.990173,1638995850440
Fix,GT,34.1441817,-118.7028422,200.9038797816038,29.72454,0.1,55.21118,1638995851440
Fix,GT,34.1443333,-118.7025772,200.4152941920757,29.524996,0.1,55.183624,1638995852440
Fix,GT,34.1444843,-118.7023161,200.0355314052403,29.160923,0.1,54.70569,1638995853440
Fix,GT,34.144634,-118.7020579,199.74056746825576,28.976114,0.1,55.473602,1638995854440
Fix,GT,34.1447817,-118.7017989,199.5343483469784,28.898844,0.1,55.018555,1638995855440
Fix,GT,34.1449326,-118.7015438,199.39495782253147,28.976461,0.1,53.65912,1638995856440
Fix,GT,34.1450922,-118.7012908,199.2483903744221,29.501534,0.1,51.514893,1638995857440
Fix,GT,34.1452608,-118.7010444,199.18358555948737,29.289652,0.1,49.062866,1638995858440
Fix,GT,34.1454344,-118.7008063,199.185,29.23863,0.1,48.184998,1638995859440
Fix,GT,34.1456124,-118.7005718,199.3220420516431,29.1948,0.1,46.578674,1638995860440
Fix,GT,34.1457942,-118.7003462,199.5236457475424,28.738493,0.1,44.936615,1638995861440
Fix,GT,34.1459792,-118.7001307,199.7918529787064,28.390753,0.1,42.957306,1638995862440
Fix,GT,34.1461677,-118.6999251,200.05826147475835,28.056957,0.1,41.088074,1638995863440
Fix,GT,34.1463592,-118.6997289,200.31326137074828,27.730991,0.1,39.49115,1638995864440
Fix,GT,34.146552,-118.6995402,200.49023729330304,27.429796,0.1,38.58966,1638995865440
Fix,GT,34.146745,-118.6993549,200.6254325734675,27.36047,0.1,38.196594,1638995866440
Fix,GT,34.1469373,-118.6991711,200.78145060688257,27.10662,0.1,38.34845,1638995867440
Fix,GT,34.1471271,-118.6989885,201.01266390663383,26.787876,0.1,38.464294,1638995868440
Fix,GT,34.1473151,-118.6988084,201.28447472941875,26.62359,0.1,38.020416,1638995869440
Fix,GT,34.1475031,-118.6986307,201.6036940307021,26.42537,0.1,37.82138,1638995870440
Fix,GT,34.1476905,-118.6984544,201.91407835829256,26.41219,0.1,37.85147,1638995871440
Fix,GT,34.1478769,-118.6982779,202.21485305869572,26.176151,0.1,38.083588,1638995872440
Fix,GT,34.1480607,-118.6981027,202.3852494510412,25.851692,0.1,38.24295,1638995873440
Fix,GT,34.1482424,-118.6979286,202.65224342775343,25.794395,0.1,38.273773,1638995874440
Fix,GT,34.1484253,-118.6977536,202.9434567217827,26.036556,0.1,38.229065,1638995875440
Fix,GT,34.1486094,-118.6975786,203.361162930727,25.98106,0.1,38.072937,1638995876440
Fix,GT,34.1487926,-118.6974049,203.90633400529623,25.767332,0.1,37.940247,1638995877440
Fix,GT,34.1489757,-118.6972323,204.64337025773528,25.85963,0.1,37.76068,1638995878440
Fix,GT,34.1491593,-118.697058,205.22930382609368,26.008705,0.1,38.328125,1638995879440
Fix,GT,34.1493412,-118.6968796,205.651309971124,26.052872,0.1,39.65097,1638995880440
Fix,GT,34.1495184,-118.6966943,206.08510869276523,26.118113,0.1,41.990265,1638995881440
Fix,GT,34.1496886,-118.6964976,206.56630980482697,26.306908,0.1,45.017548,1638995882440
Fix,GT,34.1498512,-118.6962894,207.0569014816284,26.38407,0.1,47.91394,1638995883440
Fix,GT,34.1500056,-118.6960733,207.4138711526096,26.21837,0.1,50.338867,1638995884440
Fix,GT,34.1501503,-118.6958508,207.80749291062355,25.87593,0.1,52.966003,1638995885440
Fix,GT,34.1502835,-118.6956237,208.24449324256184,25.387573,0.1,56.111572,1638995886440
Fix,GT,34.1504038,-118.6953943,208.6662977603674,24.760708,0.1,58.538147,1638995887440
Fix,GT,34.1505144,-118.6951639,209.09130399781463,24.336464,0.1,61.042877,1638995888440
Fix,GT,34.1506135,-118.6949313,209.493877407074,23.919785,0.1,63.981964,1638995889440
Fix,GT,34.1507022,-118.6946968,209.8656943584681,23.7043,0.1,66.50244,1638995890440
Fix,GT,34.1507819,-118.6944581,210.2536943770647,23.84657,0.1,69.00931,1638995891440
Fix,GT,34.150854,-118.6942122,210.69231617355348,24.290337,0.1,71.46396,1638995892440
Fix,GT,34.1509178,-118.6939588,211.171700219214,24.567823,0.1,74.28174,1638995893440
Fix,GT,34.1509718,-118.6937003,211.5915050701201,24.612038,0.1,76.77832,1638995894440
Fix,GT,34.1510166,-118.6934396,212.0499196085632,24.48497,0.1,79.428314,1638995895440
Fix,GT,34.1510506,-118.6931791,212.6153099278212,24.236807,0.1,82.139404,1638995896440
Fix,GT,34.1510752,-118.6929186,213.3158034989834,24.139164,0.1,84.08203,1638995897440
Fix,GT,34.1510914,-118.6926592,214.16501718726755,23.814053,0.1,87.038025,1638995898440
Fix,GT,34.1510958,-118.692404,215.05923022693395,23.376125,0.1,89.67807,1638995899440
Fix,GT,34.1510922,-118.6921513,215.97679716601965,23.249725,0.1,91.82663,1638995900440
Fix,GT,34.1510793,-118.691901,216.9486391920447,23.0587,0.1,94.63159,1638995901440
Fix,GT,34.1510567,-118.6916526,217.894029556185,23.09744,0.1,97.486725,1638995902440
Fix,GT,34.1510236,-118.6914047,218.7730352241397,23.319412,0.1,100.06665,1638995903440
Fix,GT,34.1509818,-118.6911548,219.7218401095271,23.819748,0.1,102.21271,1638995904440
Fix,GT,34.1509307,-118.6909003,220.8392910919189,24.510359,0.1,104.18164,1638995905440
Fix,GT,34.1508731,-118.6906396,221.96485783046484,25.24515,0.1,105.223816,1638995906440
Fix,GT,34.1508121,-118.6903716,223.0118335736096,26.02342,0.1,105.06854,1638995907440
Fix,GT,34.1507504,-118.6900949,224.056089394778,26.783176,0.1,104.74591,1638995908440
Fix,GT,34.1506882,-118.689812,225.18784028065204,27.110252,0.1,104.80936,1638995909440
Fix,GT,34.1506267,-118.6895248,226.1260421904325,27.553356,0.1,103.81836,1638995910440
Fix,GT,34.1505703,-118.6892293,226.9745723648071,28.39453,0.1,101.760864,1638995911440
Fix,GT,34.1505228,-118.6889229,227.5939383909702,29.014015,0.1,99.21448,1638995912440
Fix,GT,34.1504855,-118.6886089,228.1493286951184,29.390524,0.1,96.75122,1638995913440
Fix,GT,34.1504609,-118.6882925,228.6263044232726,29.117065,0.1,93.86325,1638995914440
Fix,GT,34.1504483,-118.6879781,229.04008500403165,29.01342,0.1,91.6001,1638995915440
Fix,GT,34.1504465,-118.6876629,229.3648655793667,29.098251,0.1,88.96045,1638995916440
Fix,GT,34.1504572,-118.6873487,229.67027486011384,28.791012,0.1,86.07156,1638995917440
Fix,GT,34.1504814,-118.6870389,229.9292368775606,28.698742,0.1,83.13559,1638995918440
Fix,GT,34.1505181,-118.6867282,230.13685874280333,29.141329,0.1,80.552795,1638995919440
Fix,GT,34.1505667,-118.6864179,230.28840771639344,29.08316,0.1,78.02411,1638995920440
Fix,GT,34.1506242,-118.6861095,230.354993134886,29.13195,0.1,76.651794,1638995921440
Fix,GT,34.1506852,-118.6858035,230.3262004269361,28.896652,0.1,76.39493,1638995922440
Fix,GT,34.1507455,-118.6854999,230.3928291671276,28.681246,0.1,76.553955,1638995923440
Fix,GT,34.1508036,-118.6851986,230.5814336105585,28.381401,0.1,76.91568,1638995924440
Fix,GT,34.1508601,-118.6848999,230.7464632062912,28.152927,0.1,77.09088,1638995925440
Fix,GT,34.1509142,-118.6846027,231.0929089953304,27.930088,0.1,78.00107,1638995926440
Fix,GT,34.1509602,-118.6843059,231.6523653290272,27.787193,0.1,80.54474,1638995927440
Fix,GT,34.1509936,-118.6840099,232.3591771302521,27.358932,0.1,83.63922,1638995928440
Fix,GT,34.1510152,-118.6837152,233.1266091233492,27.281477,0.1,86.0766,1638995929440
Fix,GT,34.1510254,-118.6834196,233.95720670181512,27.307735,0.1,88.68872,1638995930440
Fix,GT,34.1510272,-118.683124,234.8294383267164,27.26224,0.1,89.782715,1638995931440
Fix,GT,34.1510273,-118.6828271,235.6575899742245,27.524878,0.1,89.84277,1638995932440
Fix,GT,34.1510277,-118.6825269,236.41037050396204,27.830475,0.1,89.84677,1638995933440
Fix,GT,34.1510267,-118.682224,237.1409821872711,28.035938,0.1,90.18683,1638995934440
Fix,GT,34.1510252,-118.6819192,237.8967799918652,28.113993,0.1,90.25412,1638995935440
Fix,GT,34.1510234,-118.6816146,238.64237045484785,28.090801,0.1,90.32153,1638995936440
Fix,GT,34.1510212,-118.6813109,239.44121389496328,27.879902,0.1,90.40018,1638995937440
Fix,GT,34.1510187,-118.681011,240.29040691307188,27.500465,0.1,90.3371,1638995938440
Fix,GT,34.1510171,-118.6807129,241.1550188317001,27.539347,0.1,90.14172,1638995939440
Fix,GT,34.1510144,-118.6804141,242.0338214682937,27.527443,0.1,90.84082,1638995940440
Fix,GT,34.1510071,-118.6801164,243.0116506451666,27.417816,0.1,92.53708,1638995941440
Fix,GT,34.1509886,-118.67982,244.18168710380792,27.549168,0.1,95.736725,1638995942440
Fix,GT,34.1509568,-118.6795227,245.4529333445132,27.695728,0.1,98.53119,1638995943440
Fix,GT,34.1509137,-118.6792271,246.7343089548349,27.745358,0.1,101.003204,1638995944440
Fix,GT,34.1508599,-118.6789318,248.0633480373323,28.053648,0.1,103.326965,1638995945440
Fix,GT,34.1507959,-118.6786376,249.47454052102563,27.969559,0.1,105.742035,1638995946440
Fix,GT,34.1507206,-118.6783506,250.91338932418824,27.546967,0.1,108.887634,1638995947440
Fix,GT,34.1506358,-118.6780741,252.3921652160883,26.832436,0.1,111.26413,1638995948440
Fix,GT,34.1505461,-118.6778086,253.8537477076948,26.150837,0.1,112.525696,1638995949440
Fix,GT,34.1504548,-118.6775475,255.35698235586284,26.153744,0.1,112.70868,1638995950440
Fix,GT,34.1503629,-118.6772854,256.91396710187195,26.430323,0.1,112.73154,1638995951440
Fix,GT,34.1502706,-118.6770212,258.490584495306,26.265053,0.1,112.629456,1638995952440
Fix,GT,34.1501804,-118.676762,259.99196259367466,25.528625,0.1,112.616455,1638995953440
Fix,GT,34.1500927,-118.6765109,261.49195042610165,24.73032,0.1,112.71619,1638995954440
Fix,GT,34.1500073,-118.6762677,262.9093406920433,23.97153,0.1,112.84943,1638995955440
Fix,GT,34.1499241,-118.6760323,264.3011333914995,23.2225,0.1,112.88928,1638995956440
Fix,GT,34.1498428,-118.675802,265.64614555907247,23.012302,0.1,112.91318,1638995957440
Fix,GT,34.1497611,-118.675569,267.16518206179137,23.42788,0.1,112.6543,1638995958440
Fix,GT,34.1496806,-118.6753404,268.6845479925871,22.317142,0.1,113.12921,1638995959440
Fix,GT,34.1496031,-118.675123,270.058893705219,21.411552,0.1,113.010284,1638995960440
Fix,GT,34.1495303,-118.6749125,271.3409139080047,20.676188,0.1,112.21481,1638995961440
Fix,GT,34.1494618,-118.6747057,272.6161009143591,20.578989,0.1,111.29315,1638995962440
Fix,GT,34.1493955,-118.6744935,273.9215236257315,21.182354,0.1,109.63672,1638995963440
Fix,GT,34.1493343,-118.6742735,275.2055032553077,21.589844,0.1,107.53226,1638995964440
Fix,GT,34.1492789,-118.6740472,276.4676983361542,21.856123,0.1,105.38147,1638995965440
Fix,GT,34.1492296,-118.6738152,277.72451970794793,22.350163,0.1,103.45407,1638995966440
Fix,GT,34.1491854,-118.6735763,279.1033610937,22.86185,0.1,101.68082,1638995967440
Fix,GT,34.1491469,-118.6733275,280.51413711193203,23.789328,0.1,99.309204,1638995968440
Fix,GT,34.1491164,-118.6730671,281.94374302470686,24.596786,0.1,96.70654,1638995969440
Fix,GT,34.1490945,-118.6728012,283.36875145545605,24.564547,0.1,94.781555,1638995970440
Fix,GT,34.1490797,-118.6725368,284.7851417505443,24.334578,0.1,92.83322,1638995971440
Fix,GT,34.1490729,-118.6722722,286.17832837963107,24.462355,0.1,90.67627,1638995972440
Fix,GT,34.1490746,-118.6720065,287.46851133728023,24.64151,0.1,88.39584,1638995973440
Fix,GT,34.1490844,-118.6717375,288.70750775268675,24.90522,0.1,86.70587,1638995974440
Fix,GT,34.149098,-118.671466,289.9701175035834,25.251038,0.1,86.3501,1638995975440
Fix,GT,34.1491118,-118.6711909,291.24573073911665,25.640408,0.1,86.386444,1638995976440
Fix,GT,34.149126,-118.6709126,292.70037692683934,25.792727,0.1,86.24063,1638995977440
Fix,GT,34.1491414,-118.6706322,294.20336475896835,26.12923,0.1,85.92969,1638995978440
Fix,GT,34.1491581,-118.670347,295.738974467516,26.627937,0.1,85.83862,1638995979440
Fix,GT,34.1491752,-118.6700568,297.2995841751099,26.988335,0.1,85.77463,1638995980440
Fix,GT,34.1491926,-118.6697637,298.89000765502453,27.173851,0.1,86.05316,1638995981440
Fix,GT,34.1492076,-118.6694682,300.4545809381604,27.405758,0.1,86.58081,1638995982440
Fix,GT,34.1492215,-118.6691714,301.8317306418419,27.40304,0.1,86.59454,1638995983440
Fix,GT,34.1492361,-118.6688743,303.0981087611317,27.62331,0.1,86.494354,1638995984440
Fix,GT,34.1492508,-118.668572,304.16707228660584,28.14151,0.1,86.41528,1638995985440
Fix,GT,34.1492665,-118.6682675,305.16501150834563,28.080132,0.1,86.275696,1638995986440
Fix,GT,34.1492822,-118.6679652,305.99420360165834,27.932062,0.1,86.17737,1638995987440
Fix,GT,34.1492994,-118.667661,306.71056044673924,28.302643,0.1,86.024506,1638995988440
Fix,GT,34.1493169,-118.6673503,307.25892341539264,29.078575,0.1,85.861176,1638995989440
Fix,GT,34.1493349,-118.6670338,307.6012529257536,29.443943,0.1,86.098816,1638995990440
Fix,GT,34.149354,-118.6667156,307.7310577916801,29.295544,0.1,85.2294,1638995991440
Fix,GT,34.1493778,-118.6664008,307.7475854139328,29.002583,0.1,84.23694,1638995992440
Fix,GT,34.1494056,-118.6660891,307.6247562417984,28.882618,0.1,83.39859,1638995993440
Fix,GT,34.1494364,-118.6657784,307.369914914608,28.784012,0.1,82.78479,1638995994440
Fix,GT,34.1494722,-118.6654689,306.9762930381298,28.917458,0.1,81.09979,1638995995440
Fix,GT,34.149515,-118.665159,306.282781208992,29.022602,0.1,79.93411,1638995996440
Fix,GT,34.1495624,-118.6648493,305.408195800066,29.059475,0.1,78.94632,1638995997440
Fix,GT,34.1496153,-118.6645405,304.5460006619692,29.057034,0.1,77.55621,1638995998440
Fix,GT,34.1496731,-118.6642339,303.72080242425204,28.844952,0.1,76.51395,1638995999440
Fix,GT,34.1497346,-118.6639344,302.8616103857756,28.03358,0.1,75.53186,1638996000440
Fix,GT,34.1497985,-118.6636436,302.0918145207167,27.473597,0.1,74.62979,1638996001440
Fix,GT,34.1498657,-118.6633593,301.3300339462459,27.132051,0.1,73.397766,1638996002440
Fix,GT,34.1499369,-118.6630776,300.56761037647726,27.222992,0.1,72.789246,1638996003440
Fix,GT,34.1500082,-118.6627928,299.76300064730646,27.78879,0.1,73.39548,1638996004440
Fix,GT,34.1500814,-118.662497,298.85915931218864,29.128277,0.1,73.059784,1638996005440
Fix,GT,34.1501604,-118.6621876,297.86435116270184,30.574677,0.1,72.39429,1638996006440
Fix,GT,34.1502462,-118.6618645,296.8487568631172,31.932755,0.1,71.8999,1638996007440
Fix,GT,34.1503375,-118.6615302,295.89877783674,32.880436,0.1,71.343445,1638996008440
Fix,GT,34.1504334,-118.66119,294.93675685119626,33.346348,0.1,70.859314,1638996009440
Fix,GT,34.1505325,-118.6608463,293.96335440766813,33.71582,0.1,70.64282,1638996010440
Fix,GT,34.1506327,-118.6605004,292.9427933083176,33.782738,0.1,70.774994,1638996011440
Fix,GT,34.1507316,-118.6601545,291.93195195782187,33.70726,0.1,70.925446,1638996012440
Fix,GT,34.15083,-118.6598091,290.9155495076179,33.62903,0.1,70.956116,1638996013440
Fix,GT,34.1509286,-118.6594646,289.90875679159166,33.555313,0.1,70.72171,1638996014440
Fix,GT,34.1510281,-118.6591215,288.8969848454595,33.47466,0.1,70.47589,1638996015440
Fix,GT,34.1511271,-118.658779,287.88573601582647,33.402737,0.1,70.75882,1638996016440
Fix,GT,34.1512253,-118.658437,286.8791591764688,33.34256,0.1,70.78528,1638996017440
