MessageType,Provider,LatitudeDegrees,LongitudeDegrees,AltitudeMeters,SpeedMps,AccuracyMeters,BearingDegrees,UnixTimeMillis
Fix,GT,37.5240107,-122.3499204,147.27499561086296,0.0,0.1,83.47638,1626295844440
Fix,GT,37.5240107,-122.3499204,147.274995610863,0.0009999999,0.1,83.47629,1626295845440
Fix,GT,37.5240107,-122.3499204,147.275,0.0014142136,0.1,83.47638,1626295846440
Fix,GT,37.5240107,-122.3499204,147.27499561086296,0.0011694261,0.1,83.47644,1626295847440
Fix,GT,37.5240107,-122.3499204,147.275,0.0017503774,0.1,83.47623,1626295848440
Fix,GT,37.5240107,-122.3499204,147.274995610863,0.0012447874,0.1,83.47647,1626295849440
Fix,GT,37.5240107,-122.3499204,147.275,0.0011694263,0.1,83.47638,1626295850440
Fix,GT,37.5240107,-122.3499204,147.275,0.001,0.1,83.476166,1626295851440
Fix,GT,37.5240107,-122.3499204,147.275,0.0038661407,0.1,83.47601,1626295852440
Fix,GT,37.5240107,-122.3499204,147.27499561086296,0.0005784574,0.1,83.47705,1626295853440
Fix,GT,37.5240107,-122.3499204,147.275,0.00040903117,0.1,83.47638,1626295854440
Fix,GT,37.5240107,-122.3499204,147.275,0.0012447874,0.1,83.47589,1626295855440
Fix,GT,37.5240107,-122.3499204,147.275,0.0014142136,0.1,83.475525,1626295856440
Fix,GT,37.5240107,-122.3499204,147.275,0.0014142136,0.1,83.47565,1626295857440
Fix,GT,37.5240107,-122.3499204,147.27499561086296,0.0012447872,0.1,83.475555,1626295858440
Fix,GT,37.5240107,-122.3499204,147.275,0.0014142136,0.1,83.475494,1626295859440
Fix,GT,37.5240107,-122.3499204,147.275,0.0005909687,0.1,83.47543,1626295860440
Fix,GT,37.5240107,-122.3499204,147.27499561086296,0.0015909687,0.1,83.47528,1626295861440
Fix,GT,37.5240107,-122.3499204,147.275,0.001,0.1,83.47504,1626295862440
Fix,GT,37.5240107,-122.3499204,147.275,0.0,0.1,83.47513,1626295863440
Fix,GT,37.5240107,-122.3499204,147.275,0.001,0.1,83.47507,1626295864440
Fix,GT,37.5240107,-122.3499204,147.274995610863,0.0005909685,0.1,83.47504,1626295865440
Fix,GT,37.5240107,-122.3499204,147.275,0.0,0.1,83.474945,1626295866440
Fix,GT,37.5240107,-122.3499204,147.274,0.0,0.1,83.474884,1626295867440
Fix,GT,37.5240107,-122.3499204,147.27359096837043,0.00188444,0.1,83.47562,1626295868440
Fix,GT,37.5240108,-122.3499195,147.26558657941223,0.35138512,0.1,83.48309,1626295869440
Fix,GT,37.5240114,-122.3499101,147.2373638727665,1.3413815,0.1,84.31882,1626295870440
Fix,GT,37.5240099,-122.3498892,147.1981775494516,2.286901,0.1,91.20563,1626295871440
Fix,GT,37.5240028,-122.3498596,147.15558658257126,3.1555028,0.1,103.64969,1626295872440
Fix,GT,37.5239873,-122.349823,147.10731432813407,4.1411705,0.1,116.66727,1626295873440
Fix,GT,37.5239619,-122.3497807,146.9995909680128,5.13288,0.1,127.47415,1626295874440
Fix,GT,37.5239266,-122.3497376,147.06649497005344,5.791267,0.1,136.54065,1626295875440
Fix,GT,37.5238835,-122.3496978,147.160454192996,5.906436,0.1,145.45123,1626295876440
Fix,GT,37.5238367,-122.3496687,147.2015006455183,5.7423716,0.1,155.0733,1626295877440
Fix,GT,37.5237883,-122.3496482,147.13204077735543,5.542101,0.1,161.4538,1626295878440
Fix,GT,37.5237427,-122.3496283,147.2435852931738,5.1134586,0.1,159.7815,1626295879440
Fix,GT,37.5237047,-122.3496038,147.4377308487296,4.254536,0.1,151.90607,1626295880440
Fix,GT,37.5236771,-122.3495801,147.61777161794902,3.2786906,0.1,145.86145,1626295881440
Fix,GT,37.5236564,-122.34956,147.815821187675,2.632491,0.1,142.78497,1626295882440
Fix,GT,37.5236381,-122.3495434,148.00327097928525,2.4428322,0.1,144.55652,1626295883440
Fix,GT,37.5236165,-122.3495362,147.89068385332823,2.369768,0.1,161.06543,1626295884440
Fix,GT,37.5235945,-122.3495444,147.82086195355654,2.5183702,0.1,186.90544,1626295885440
Fix,GT,37.5235735,-122.3495639,147.9180451655984,3.1206222,0.1,210.89392,1626295886440
Fix,GT,37.5235523,-122.3495954,147.89772332701088,4.1335554,0.1,227.26001,1626295887440
Fix,GT,37.5235258,-122.3496361,147.77990966761112,5.152733,0.1,230.23048,1626295888440
Fix,GT,37.5234939,-122.3496858,147.60095609933137,6.017626,0.1,230.8735,1626295889440
Fix,GT,37.5234588,-122.3497397,147.35036951896546,6.2489963,0.1,230.4905,1626295890440
Fix,GT,37.523423,-122.3497936,147.0967785419822,6.0657444,0.1,229.83727,1626295891440
Fix,GT,37.5233896,-122.349843,146.86340591421725,5.270049,0.1,229.54979,1626295892440
Fix,GT,37.5233631,-122.3498818,146.68468693068624,3.6627207,0.1,229.34862,1626295893440
Fix,GT,37.523347,-122.3499054,146.59354579591752,1.8964887,0.1,229.29901,1626295894440
Fix,GT,37.5233396,-122.3499163,146.5471819318533,1.1090891,0.1,229.29547,1626295895440
Fix,GT,37.5233304,-122.3499297,146.49595482903715,2.2104208,0.1,229.30269,1626295896440
Fix,GT,37.5233132,-122.3499552,146.44213676023483,3.658369,0.1,229.69566,1626295897440
Fix,GT,37.5232894,-122.3499915,146.41195482844114,4.3393927,0.1,230.12347,1626295898440
Fix,GT,37.5232652,-122.3500286,146.42023146682976,4.107836,0.1,230.48988,1626295899440
Fix,GT,37.5232427,-122.3500631,146.4930451721549,3.7736373,0.1,230.82993,1626295900440
Fix,GT,37.5232225,-122.3500948,146.57668131041527,3.384317,0.1,231.18643,1626295901440
Fix,GT,37.5232047,-122.3501231,146.68209034550188,2.99299,0.1,231.41673,1626295902440
Fix,GT,37.5231888,-122.3501482,146.77827227687837,2.704207,0.1,231.46672,1626295903440
Fix,GT,37.5231743,-122.3501712,146.87949938201905,2.495605,0.1,231.40074,1626295904440
Fix,GT,37.5231607,-122.3501926,146.9914993826747,2.331836,0.1,231.34163,1626295905440
Fix,GT,37.5231479,-122.3502128,147.09509034967422,2.2319613,0.1,231.31534,1626295906440
Fix,GT,37.5231341,-122.3502341,147.18731745302676,2.7729738,0.1,230.93918,1626295907440
Fix,GT,37.523116,-122.3502618,147.34636262619497,3.6469975,0.1,230.42279,1626295908440
Fix,GT,37.5230915,-122.3502988,147.55263490760325,4.8799515,0.1,230.06294,1626295909440
Fix,GT,37.5230594,-122.350346,147.802771664381,6.0589557,0.1,229.34341,1626295910440
Fix,GT,37.5230207,-122.3504023,148.12190718889238,7.079258,0.1,229.1448,1626295911440
Fix,GT,37.5229788,-122.3504636,148.49831622803214,6.9871655,0.1,229.18956,1626295912440
Fix,GT,37.5229397,-122.3505212,148.82886202096938,6.2097874,0.1,229.50374,1626295913440
Fix,GT,37.5229094,-122.3505663,149.08758973807096,4.16545,0.1,229.84973,1626295914440
Fix,GT,37.5228912,-122.3505936,149.2198632464409,2.3009315,0.1,230.06291,1626295915440
Fix,GT,37.5228784,-122.3506143,149.2950903520584,2.4966116,0.1,231.81563,1626295916440
Fix,GT,37.5228652,-122.3506415,149.39049938726424,3.1305861,0.1,238.09387,1626295917440
Fix,GT,37.5228589,-122.350678,149.44859096473456,3.2886076,0.1,256.41235,1626295918440
Fix,GT,37.5228651,-122.3507159,149.3976857704818,3.5590568,0.1,279.16064,1626295919440
Fix,GT,37.5228852,-122.3507545,149.42081807088852,4.603359,0.1,302.08725,1626295920440
Fix,GT,37.5229184,-122.3507988,149.40418638166784,6.180184,0.1,313.24893,1626295921440
Fix,GT,37.5229644,-122.3508533,149.3577728933096,7.9348774,0.1,317.17508,1626295922440
Fix,GT,37.5230237,-122.3509193,149.21836952194573,9.590935,0.1,318.69373,1626295923440
Fix,GT,37.5230956,-122.3509964,148.85595725154877,11.404842,0.1,319.6408,1626295924440
Fix,GT,37.5231767,-122.3510839,148.23078095430134,12.161388,0.1,319.39713,1626295925440
Fix,GT,37.5232619,-122.3511745,147.48091767299175,12.6393585,0.1,319.62546,1626295926440
Fix,GT,37.5233508,-122.3512687,146.66127712631226,13.192364,0.1,319.57465,1626295927440
Fix,GT,37.5234436,-122.3513671,145.79491882303358,13.768593,0.1,319.9758,1626295928440
Fix,GT,37.5235402,-122.3514694,144.94369047108293,14.215485,0.1,319.497,1626295929440
Fix,GT,37.5236384,-122.3515743,144.21477220004795,14.389224,0.1,319.62552,1626295930440
Fix,GT,37.5237378,-122.3516792,143.67413486278056,14.427618,0.1,320.05167,1626295931440
Fix,GT,37.5238376,-122.3517838,143.19018432569504,14.420033,0.1,319.9642,1626295932440
Fix,GT,37.5239373,-122.3518884,142.70637049931287,14.4202175,0.1,320.0,1626295933440
Fix,GT,37.5240369,-122.3519933,142.19832105827334,14.437656,0.1,319.84735,1626295934440
Fix,GT,37.5241364,-122.3520986,141.6916806764007,14.455643,0.1,319.68756,1626295935440
Fix,GT,37.5242357,-122.3522044,141.1924114118219,14.418665,0.1,319.59705,1626295936440
Fix,GT,37.5243322,-122.3523062,140.72413911026717,13.274435,0.1,319.90045,1626295937440
Fix,GT,37.5244172,-122.3523954,140.30308855333925,11.284662,0.1,319.82022,1626295938440
Fix,GT,37.5244873,-122.3524701,139.94059331917762,9.083886,0.1,319.41064,1626295939440
Fix,GT,37.5245415,-122.3525281,139.6412241244912,6.7049465,0.1,319.51303,1626295940440
Fix,GT,37.5245801,-122.3525692,139.42686027938126,4.6135235,0.1,319.65958,1626295941440
Fix,GT,37.5246052,-122.352596,139.28590962231158,2.7234921,0.1,319.55853,1626295942440
Fix,GT,37.5246186,-122.3526105,139.24695481055974,1.4016724,0.1,319.44992,1626295943440
Fix,GT,37.5246301,-122.3526229,139.19613673394915,2.0812201,0.1,319.1282,1626295944440
Fix,GT,37.5246466,-122.3526444,139.1203186568618,3.181963,0.1,314.5633,1626295945440
Fix,GT,37.5246629,-122.3526804,139.0425457701683,3.9510565,0.1,299.9986,1626295946440
Fix,GT,37.5246684,-122.3527257,138.9582241289914,4.019471,0.1,278.08276,1626295947440
Fix,GT,37.5246567,-122.3527723,138.80068663528562,4.5369034,0.1,251.99577,1626295948440
Fix,GT,37.5246311,-122.3528174,138.63004634171725,5.2204733,0.1,234.7555,1626295949440
Fix,GT,37.5245983,-122.3528667,138.4309970189929,6.194392,0.1,229.83778,1626295950440
Fix,GT,37.5245581,-122.3529247,138.1550885565579,7.3971987,0.1,228.94724,1626295951440
Fix,GT,37.5245119,-122.3529911,137.7658162461221,8.275599,0.1,228.74419,1626295952440
Fix,GT,37.5244585,-122.3530655,137.313684758842,9.410813,0.1,227.36191,1626295953440
Fix,GT,37.5243957,-122.3531443,136.78841130417587,10.208357,0.1,224.04758,1626295954440
Fix,GT,37.5243271,-122.3532262,136.28273400056364,10.830418,0.1,223.54445,1626295955440
Fix,GT,37.5242543,-122.3533131,135.69782549989225,11.393034,0.1,223.5161,1626295956440
Fix,GT,37.5241787,-122.3534029,134.9987350638807,11.722004,0.1,223.17763,1626295957440
Fix,GT,37.5241,-122.3534928,134.20764062714576,11.800037,0.1,221.69133,1626295958440
Fix,GT,37.5240181,-122.3535768,133.30691404163838,11.672976,0.1,217.70183,1626295959440
Fix,GT,37.5239319,-122.3536528,132.32664171218872,11.759771,0.1,213.52728,1626295960440
Fix,GT,37.5238397,-122.3537203,131.27569081294536,11.939531,0.1,208.21553,1626295961440
Fix,GT,37.5237417,-122.353777,130.1711422253847,12.018604,0.1,202.62836,1626295962440
Fix,GT,37.5236396,-122.3538268,129.05919126036764,12.364157,0.1,200.56662,1626295963440
Fix,GT,37.5235341,-122.3538775,127.9590054848194,12.611995,0.1,201.20822,1626295964440
Fix,GT,37.5234326,-122.353937,126.82455500233172,12.269989,0.1,208.01086,1626295965440
Fix,GT,37.523343,-122.3540167,125.67432783031464,12.129589,0.1,219.72562,1626295966440
Fix,GT,37.5232695,-122.3541168,124.53400543236732,11.96301,0.1,231.36919,1626295967440
Fix,GT,37.5232153,-122.3542311,123.42432663723828,11.616638,0.1,243.6258,1626295968440
Fix,GT,37.5231818,-122.354355,122.42587234523891,11.5524845,0.1,255.04993,1626295969440
Fix,GT,37.5231687,-122.3544868,121.33000900700688,11.998022,0.1,267.00317,1626295970440
Fix,GT,37.5231773,-122.3546241,120.3002812871933,12.362501,0.1,278.8087,1626295971440
Fix,GT,37.5232067,-122.3547616,119.27704806798695,12.950978,0.1,287.61295,1626295972440
Fix,GT,37.5232516,-122.3549042,118.20700532746316,14.129002,0.1,293.90182,1626295973440
Fix,GT,37.5233119,-122.3550493,116.90004917180538,14.930901,0.1,299.70938,1626295974440
Fix,GT,37.5233887,-122.3551969,115.36987415644526,16.269552,0.1,305.24374,1626295975440
Fix,GT,37.5234822,-122.3553486,113.8960526086688,17.651787,0.1,309.31732,1626295976440
Fix,GT,37.5235915,-122.3555039,112.39914300447704,18.968859,0.1,312.6081,1626295977440
Fix,GT,37.5237122,-122.355666,110.96663915124536,20.242317,0.1,313.1166,1626295978440
Fix,GT,37.5238407,-122.3558379,109.72663917294145,21.402573,0.1,313.0382,1626295979440
Fix,GT,37.5239772,-122.3560183,108.3758211108744,22.606747,0.1,313.98502,1626295980440
Fix,GT,37.5241244,-122.3562041,106.9886886678934,23.721657,0.1,315.47458,1626295981440
Fix,GT,37.5242822,-122.3563943,105.62605143123864,24.787235,0.1,316.81818,1626295982440
Fix,GT,37.5244499,-122.3565863,104.44231961843371,25.559967,0.1,318.2682,1626295983440
Fix,GT,37.524625,-122.356779,103.60023123234512,26.053131,0.1,319.69492,1626295984440
Fix,GT,37.5248082,-122.3569667,102.89309147289396,26.443502,0.1,321.92105,1626295985440
Fix,GT,37.524999,-122.3571504,102.04364330130817,27.001934,0.1,322.7044,1626295986440
Fix,GT,37.525197,-122.3573372,101.13996186259388,28.082546,0.1,323.05328,1626295987440
Fix,GT,37.525403,-122.3575329,100.1008231613636,29.085495,0.1,322.51163,1626295988440
Fix,GT,37.525611,-122.3577335,98.97669041490556,29.13924,0.1,322.34854,1626295989440
Fix,GT,37.5258191,-122.3579347,97.790456384629,29.101662,0.1,322.4242,1626295990440
Fix,GT,37.5260283,-122.3581317,96.60732358342408,28.991344,0.1,323.7174,1626295991440
Fix,GT,37.5262414,-122.358321,95.34650264576078,28.982841,0.1,325.48605,1626295992440
Fix,GT,37.5264603,-122.3585026,94.11227553108336,29.283813,0.1,327.43658,1626295993440
Fix,GT,37.5266871,-122.3586755,92.9778710501492,29.63211,0.1,329.91757,1626295994440
Fix,GT,37.5269223,-122.3588378,92.04541300368308,29.936691,0.1,332.3147,1626295995440
Fix,GT,37.5271654,-122.358988,91.32623281922938,30.20089,0.1,335.01944,1626295996440
Fix,GT,37.5274153,-122.3591264,90.825638150692,30.399807,0.1,337.21423,1626295997440
Fix,GT,37.5276702,-122.3592535,90.57236651402712,30.47018,0.1,339.35815,1626295998440
Fix,GT,37.527929,-122.3593682,90.81331662231683,30.429407,0.1,341.29575,1626295999440
Fix,GT,37.5281888,-122.3594772,91.07536555212737,30.381737,0.1,341.64377,1626296000440
Fix,GT,37.5284486,-122.3595834,91.49286235284804,30.28481,0.1,341.9329,1626296001440
Fix,GT,37.5287075,-122.3596899,92.0061337593794,30.149406,0.1,341.65573,1626296002440
Fix,GT,37.5289641,-122.3597982,92.74699613142012,29.946758,0.1,340.90848,1626296003440
Fix,GT,37.5292183,-122.3599081,93.63308939895036,29.736923,0.1,341.03735,1626296004440
Fix,GT,37.5294713,-122.3600158,94.56781425213812,29.546394,0.1,341.34503,1626296005440
Fix,GT,37.5297227,-122.3601214,95.44399616289138,29.299026,0.1,341.34277,1626296006440
Fix,GT,37.529972,-122.3602262,96.26795380178092,29.092064,0.1,341.31354,1626296007440
Fix,GT,37.5302197,-122.3603321,97.12986145243048,28.968283,0.1,340.92145,1626296008440
Fix,GT,37.5304663,-122.3604384,98.07103851383926,28.89591,0.1,340.82687,1626296009440
Fix,GT,37.5307121,-122.3605451,98.9187238368988,28.8484,0.1,340.76227,1626296010440
Fix,GT,37.5309577,-122.3606515,99.73990183380246,28.814116,0.1,340.8908,1626296011440
Fix,GT,37.5312029,-122.3607576,100.64685657778384,28.767595,0.1,341.04193,1626296012440
Fix,GT,37.5314483,-122.3608615,101.5085449887812,28.708752,0.1,341.45163,1626296013440
Fix,GT,37.5316935,-122.3609646,102.35517512398958,28.674452,0.1,341.32483,1626296014440
Fix,GT,37.5319384,-122.3610679,103.2211320259571,28.684784,0.1,341.2195,1626296015440
Fix,GT,37.532183,-122.3611724,104.08158416256308,28.650837,0.1,341.027,1626296016440
Fix,GT,37.532427,-122.3612775,104.9468596752286,28.62035,0.1,340.9229,1626296017440
Fix,GT,37.5326709,-122.3613829,105.7615407242775,28.638157,0.1,341.00092,1626296018440
Fix,GT,37.5329148,-122.3614879,106.6974506596327,28.610104,0.1,340.98087,1626296019440
Fix,GT,37.5331585,-122.3615926,107.65526877593994,28.56643,0.1,341.1138,1626296020440
Fix,GT,37.5334019,-122.3616965,108.715449798584,28.481777,0.1,341.20895,1626296021440
Fix,GT,37.5336442,-122.3618008,109.83749181625248,28.386965,0.1,340.68768,1626296022440
Fix,GT,37.5338852,-122.3619069,110.93417415505648,28.294062,0.1,340.82785,1626296023440
Fix,GT,37.5341255,-122.3620117,112.05781704699992,28.195206,0.1,340.8593,1626296024440
Fix,GT,37.5343652,-122.3621149,113.17799900469184,28.033936,0.1,340.9179,1626296025440
Fix,GT,37.5346025,-122.36222,114.31022281700372,27.80297,0.1,340.11176,1626296026440
Fix,GT,37.5348355,-122.3623275,115.41276509857178,27.25865,0.1,339.426,1626296027440
Fix,GT,37.5350626,-122.3624358,116.48795047402382,26.687763,0.1,339.05286,1626296028440
Fix,GT,37.5352849,-122.3625433,117.56554495224356,26.204643,0.1,338.73965,1626296029440
Fix,GT,37.5355023,-122.362653,118.6045450080037,25.817478,0.1,337.21002,1626296030440
Fix,GT,37.5357153,-122.3627676,119.61472339665887,25.662683,0.1,336.4624,1626296031440
Fix,GT,37.5359269,-122.362885,120.63290890562534,25.68899,0.1,335.73703,1626296032440
Fix,GT,37.5361377,-122.3630052,121.64590533852578,25.700108,0.1,335.56543,1626296033440
Fix,GT,37.5363484,-122.3631258,122.67249631464482,25.70896,0.1,335.1668,1626296034440
Fix,GT,37.5365583,-122.3632493,123.63422023153304,25.68188,0.1,334.77753,1626296035440
Fix,GT,37.5367657,-122.363371,124.52117495548724,25.096743,0.1,334.95416,1626296036440
Fix,GT,37.536968,-122.3634906,125.37736057949068,24.577335,0.1,334.48688,1626296037440
Fix,GT,37.5371666,-122.3636092,126.2278149280548,24.26809,0.1,334.48718,1626296038440
Fix,GT,37.5373637,-122.3637267,127.14667833447456,24.225506,0.1,334.52478,1626296039440
Fix,GT,37.537562,-122.3638445,128.11545120310785,24.50902,0.1,334.5293,1626296040440
Fix,GT,37.5377629,-122.3639643,129.0994964975715,24.878704,0.1,334.47974,1626296041440
Fix,GT,37.5379668,-122.3640861,130.106719815284,25.235104,0.1,334.38953,1626296042440
Fix,GT,37.5381734,-122.3642102,131.12731468087435,25.594543,0.1,334.4771,1626296043440
Fix,GT,37.538383,-122.3643358,132.15854187440874,25.935488,0.1,334.30704,1626296044440
Fix,GT,37.5385952,-122.3644631,133.2013639779091,26.258503,0.1,334.53342,1626296045440
Fix,GT,37.5388101,-122.3645913,134.25194699686767,26.556643,0.1,334.49847,1626296046440
Fix,GT,37.5390274,-122.3647209,135.32158321946858,26.843977,0.1,334.5111,1626296047440
Fix,GT,37.5392471,-122.3648515,136.43322351747753,27.112118,0.1,334.53305,1626296048440
Fix,GT,37.5394688,-122.3649838,137.4999963772297,27.38108,0.1,334.42847,1626296049440
Fix,GT,37.5396925,-122.3651182,138.59799641001226,27.659092,0.1,334.2333,1626296050440
Fix,GT,37.5399181,-122.3652543,139.70345078730583,27.888145,0.1,334.3862,1626296051440
Fix,GT,37.5401457,-122.3653904,140.88313655200602,28.068287,0.1,334.35498,1626296052440
Fix,GT,37.5403746,-122.3655283,142.19581816849112,28.26641,0.1,334.2493,1626296053440
Fix,GT,37.5406048,-122.3656676,143.54345021438598,28.458256,0.1,334.29456,1626296054440
Fix,GT,37.5408364,-122.3658084,144.82626906609534,28.673925,0.1,333.79254,1626296055440
Fix,GT,37.5410681,-122.3659546,145.97345532637834,28.864925,0.1,332.74524,1626296056440
Fix,GT,37.5412986,-122.3661063,147.1204510154724,28.900856,0.1,331.77,1626296057440
Fix,GT,37.5415272,-122.3662635,148.26445105695723,28.982002,0.1,330.65637,1626296058440
Fix,GT,37.5417541,-122.3664268,149.41186015963552,29.062557,0.1,329.5746,1626296059440
Fix,GT,37.5419793,-122.3665963,150.50354240131378,29.218468,0.1,328.32315,1626296060440
Fix,GT,37.5422027,-122.3667716,151.48862917926908,29.22134,0.1,327.4738,1626296061440
Fix,GT,37.5424233,-122.366951,152.3673566879928,29.160074,0.1,326.46024,1626296062440
Fix,GT,37.5426418,-122.3671359,153.13704344207048,29.333115,0.1,325.44467,1626296063440
Fix,GT,37.5428593,-122.3673264,153.81677096408606,29.531948,0.1,324.57404,1626296064440
Fix,GT,37.5430757,-122.3675227,154.39708481797575,29.69758,0.1,323.5288,1626296065440
Fix,GT,37.5432894,-122.3677237,154.8451399677694,29.520382,0.1,322.6114,1626296066440
Fix,GT,37.5434989,-122.3679279,155.06649970459938,29.394741,0.1,321.59888,1626296067440
Fix,GT,37.5437055,-122.3681352,155.10254561424256,29.220535,0.1,321.01276,1626296068440
Fix,GT,37.5439082,-122.3683429,155.08823181563616,28.874271,0.1,320.38434,1626296069440
Fix,GT,37.5441075,-122.3685492,155.20454966205358,28.46922,0.1,320.45367,1626296070440
Fix,GT,37.5443046,-122.3687532,155.36672691094873,28.272709,0.1,320.3202,1626296071440
Fix,GT,37.5445007,-122.3689567,155.51549971836806,28.151836,0.1,320.40988,1626296072440
Fix,GT,37.5446954,-122.3691577,155.70463570570945,27.817776,0.1,320.5825,1626296073440
Fix,GT,37.5448884,-122.3693555,155.87773156756165,27.448803,0.1,320.5388,1626296074440
Fix,GT,37.5450784,-122.369551,156.02199945902825,27.09169,0.1,320.7579,1626296075440
Fix,GT,37.5452684,-122.3697403,156.191140653491,26.732376,0.1,322.25177,1626296076440
Fix,GT,37.5454601,-122.3699202,156.30949507749082,26.38238,0.1,323.92468,1626296077440
Fix,GT,37.5456524,-122.370092,156.48499533638358,26.010574,0.1,325.12323,1626296078440
Fix,GT,37.5458443,-122.3702574,156.63945389199256,25.645859,0.1,325.68954,1626296079440
Fix,GT,37.5460335,-122.3704197,156.96372644329074,25.19254,0.1,325.46225,1626296080440
Fix,GT,37.5462192,-122.3705791,157.36836272907257,24.73391,0.1,325.70706,1626296081440
Fix,GT,37.5464018,-122.3707349,157.81673166373372,24.29073,0.1,325.8546,1626296082440
Fix,GT,37.5465818,-122.3708878,158.00068162208797,23.960732,0.1,325.57318,1626296083440
Fix,GT,37.5467584,-122.3710413,157.9793689028025,23.713272,0.1,325.09753,1626296084440
Fix,GT,37.5469326,-122.3711931,157.78863674294948,23.220963,0.1,325.20947,1626296085440
Fix,GT,37.5470987,-122.3713374,157.6117325926423,21.47454,0.1,325.37704,1626296086440
Fix,GT,37.5472496,-122.3714681,157.41604580062628,19.218029,0.1,325.39966,1626296087440
Fix,GT,37.5473821,-122.371582,157.25968207740783,16.355455,0.1,325.71606,1626296088440
Fix,GT,37.5474931,-122.3716761,157.14114118376375,13.330629,0.1,325.90933,1626296089440
Fix,GT,37.5475805,-122.3717503,157.00172742557527,9.929251,0.1,325.55646,1626296090440
Fix,GT,37.547639,-122.3718013,157.060904186368,5.947012,0.1,325.1308,1626296091440
Fix,GT,37.54767,-122.3718285,157.14304068046806,2.5782714,0.1,325.14435,1626296092440
Fix,GT,37.54768,-122.3718372,157.150768096894,0.50657225,0.1,325.14548,1626296093440
Fix,GT,37.5476851,-122.3718419,157.14599531668424,1.1857823,0.1,324.6167,1626296094440
Fix,GT,37.5477005,-122.3718596,157.19049981606008,3.5783055,0.1,319.44363,1626296095440
Fix,GT,37.5477221,-122.3719039,157.30495895764233,5.238689,0.1,299.0799,1626296096440
Fix,GT,37.5477228,-122.3719674,157.41345445120334,6.1231146,0.1,265.20328,1626296097440
Fix,GT,37.5476933,-122.3720343,157.43958623209596,7.430359,0.1,236.19911,1626296098440
Fix,GT,37.5476447,-122.3721059,157.4278228444159,9.313636,0.1,229.2522,1626296099440
Fix,GT,37.5475842,-122.3721944,157.4680907692909,11.22686,0.1,229.32979,1626296100440
Fix,GT,37.5475151,-122.3722966,157.54704538702964,12.259081,0.1,229.73083,1626296101440
Fix,GT,37.5474445,-122.3724021,157.60327262306214,12.070232,0.1,229.9023,1626296102440
Fix,GT,37.5473749,-122.372505,157.67831801867487,11.785196,0.1,229.41838,1626296103440
Fix,GT,37.5473072,-122.372604,157.77072240152955,11.138106,0.1,229.25717,1626296104440
Fix,GT,37.5472467,-122.3726932,157.890722404629,9.477672,0.1,229.4977,1626296105440
Fix,GT,37.5471964,-122.3727666,158.07159067308902,7.6478243,0.1,229.03825,1626296106440
Fix,GT,37.5471493,-122.3728209,158.2477725239396,6.798425,0.1,218.15489,1626296107440
Fix,GT,37.5470927,-122.372849,158.4429136896729,6.944872,0.1,197.0611,1626296108440
Fix,GT,37.5470251,-122.372849,158.51804562228918,8.27636,0.1,174.14355,1626296109440
Fix,GT,37.5469506,-122.3728102,158.4230406858325,9.586487,0.1,152.13489,1626296110440
Fix,GT,37.5468743,-122.3727411,158.53517711144684,11.377853,0.1,140.44125,1626296111440
Fix,GT,37.5467916,-122.3726485,158.60249990719558,13.25507,0.1,137.98679,1626296112440
Fix,GT,37.5466961,-122.3725405,158.7120908294916,15.286319,0.1,137.90942,1626296113440
Fix,GT,37.5465874,-122.3724165,158.777636333704,17.269882,0.1,137.61731,1626296114440
Fix,GT,37.5464657,-122.3722784,158.85531809151172,19.127134,0.1,137.88538,1626296115440
Fix,GT,37.5463318,-122.3721266,158.95127267551425,20.807816,0.1,137.76013,1626296116440
Fix,GT,37.5461872,-122.3719627,158.98268663391468,22.415321,0.1,137.83264,1626296117440
Fix,GT,37.5460314,-122.371786,158.82299538582564,24.168344,0.1,137.74936,1626296118440
Fix,GT,37.5458643,-122.3715964,158.43163194075225,25.754223,0.1,138.02606,1626296119440
Fix,GT,37.5456857,-122.3713993,157.80159128862618,27.062695,0.1,139.42603,1626296120440
Fix,GT,37.5454932,-122.3712,156.99545484626293,28.32074,0.1,141.28754,1626296121440
Fix,GT,37.5452889,-122.3709974,156.15709114873408,29.483871,0.1,141.9519,1626296122440
Fix,GT,37.5450759,-122.3707881,155.2737729471922,30.379734,0.1,141.80536,1626296123440
Fix,GT,37.5448598,-122.3705735,154.43100476107003,30.684067,0.1,141.39615,1626296124440
Fix,GT,37.5446435,-122.3703584,153.5501773183942,30.561077,0.1,141.66583,1626296125440
Fix,GT,37.5444278,-122.3701447,152.66850003921985,30.47499,0.1,141.8518,1626296126440
Fix,GT,37.5442102,-122.3699327,151.85244999468324,30.691479,0.1,142.27106,1626296127440
Fix,GT,37.5439903,-122.3697193,151.05309083724023,31.00478,0.1,142.35541,1626296128440
Fix,GT,37.5437672,-122.369506,150.34259080344438,31.21938,0.1,142.93176,1626296129440
Fix,GT,37.5435416,-122.3692937,149.7104544079304,31.338818,0.1,143.02148,1626296130440
Fix,GT,37.5433152,-122.3690814,149.1068634659648,31.38168,0.1,143.3678,1626296131440
Fix,GT,37.5430876,-122.3688696,148.5114587577581,31.488617,0.1,143.38782,1626296132440
Fix,GT,37.5428591,-122.3686578,147.90063609588145,31.56448,0.1,143.55298,1626296133440
Fix,GT,37.5426293,-122.3684467,147.312408767581,31.63972,0.1,144.0946,1626296134440
Fix,GT,37.542397,-122.368238,146.69885892271995,31.760479,0.1,144.76373,1626296135440
Fix,GT,37.5421615,-122.3680328,146.0886359665394,31.879242,0.1,145.5564,1626296136440
Fix,GT,37.5419229,-122.3678306,145.46744978404044,32.01609,0.1,146.3377,1626296137440
Fix,GT,37.5416814,-122.3676315,144.85144975948333,32.111755,0.1,146.986,1626296138440
Fix,GT,37.5414376,-122.3674354,144.24185883417726,32.141,0.1,147.656,1626296139440
Fix,GT,37.5411916,-122.367243,143.62663150984048,32.207302,0.1,148.59796,1626296140440
Fix,GT,37.5409419,-122.3670557,143.01045820757747,32.38585,0.1,149.52325,1626296141440
Fix,GT,37.5406886,-122.366871,142.40804055178165,32.650772,0.1,150.08206,1626296142440
Fix,GT,37.5404317,-122.3666881,141.77722653877737,32.878788,0.1,150.79791,1626296143440
Fix,GT,37.5401716,-122.366509,141.10631725442408,32.961945,0.1,151.46866,1626296144440
Fix,GT,37.5399099,-122.3663314,140.34208988416194,33.032158,0.1,151.56335,1626296145440
Fix,GT,37.5396485,-122.3661547,139.4759532569051,32.850067,0.1,151.64099,1626296146440
Fix,GT,37.5393889,-122.3659787,138.49985800364612,32.641655,0.1,151.53632,1626296147440
Fix,GT,37.5391313,-122.3658032,137.42054776787757,32.412926,0.1,151.50238,1626296148440
Fix,GT,37.5388747,-122.36563,136.22258840119838,32.25676,0.1,151.7857,1626296149440
Fix,GT,37.538619,-122.3654579,135.0216757182777,32.14103,0.1,151.62756,1626296150440
Fix,GT,37.5383646,-122.3652854,133.73477431699632,32.022427,0.1,151.604,1626296151440
Fix,GT,37.5381112,-122.3651134,132.41722487795352,31.917843,0.1,151.5592,1626296152440
Fix,GT,37.5378588,-122.3649418,131.13390676307677,31.80677,0.1,151.45172,1626296153440
Fix,GT,37.5376068,-122.364771,129.85176612830162,31.798637,0.1,151.65894,1626296154440
Fix,GT,37.5373536,-122.3646001,128.57781545078757,32.014168,0.1,151.57565,1626296155440
Fix,GT,37.537099,-122.3644269,127.30354244852066,32.27366,0.1,151.41571,1626296156440
Fix,GT,37.5368425,-122.3642521,125.99636056041716,32.505165,0.1,151.48383,1626296157440
Fix,GT,37.5365842,-122.364078,124.699364177078,32.519833,0.1,151.86374,1626296158440
Fix,GT,37.5363261,-122.3639045,123.39386429071426,32.440773,0.1,151.54904,1626296159440
Fix,GT,37.5360693,-122.3637304,122.09940217918158,32.35071,0.1,151.55963,1626296160440
Fix,GT,37.5358132,-122.3635566,120.80040572202203,32.293247,0.1,151.4295,1626296161440
Fix,GT,37.5355573,-122.3633828,119.52167499253152,32.268852,0.1,151.62018,1626296162440
Fix,GT,37.5353014,-122.3632101,118.2368602206111,32.2447,0.1,151.70456,1626296163440
Fix,GT,37.5350456,-122.3630372,116.93899977341296,32.232853,0.1,151.63373,1626296164440
Fix,GT,37.5347889,-122.3628669,115.5800452220738,32.227165,0.1,152.4997,1626296165440
Fix,GT,37.53453,-122.3627024,114.2764085944593,32.178158,0.1,153.77954,1626296166440
Fix,GT,37.5342685,-122.3625458,112.97921996000407,32.119175,0.1,155.19818,1626296167440
Fix,GT,37.5340044,-122.3623981,111.68540498805046,32.04583,0.1,156.53711,1626296168440
Fix,GT,37.5337387,-122.3622569,110.42026874756812,31.99331,0.1,157.40015,1626296169440
Fix,GT,37.5334714,-122.3621227,109.25176900631187,31.912973,0.1,158.78046,1626296170440
Fix,GT,37.5332025,-122.3619965,108.15863602519036,31.823772,0.1,160.2063,1626296171440
Fix,GT,37.5329321,-122.3618787,107.2071819139123,31.690323,0.1,161.29572,1626296172440
Fix,GT,37.5326619,-122.3617652,106.27013301455976,31.575962,0.1,161.38837,1626296173440
Fix,GT,37.5323925,-122.361652,105.31008728837966,31.459942,0.1,161.31073,1626296174440
Fix,GT,37.5321244,-122.3615383,104.3399967403412,31.356644,0.1,161.19684,1626296175440
Fix,GT,37.5318579,-122.3614239,103.41758753812312,31.185093,0.1,160.96777,1626296176440
Fix,GT,37.5315929,-122.3613097,102.4586779024005,30.982542,0.1,161.0857,1626296177440
Fix,GT,37.5313297,-122.361197,101.57445129299164,30.746878,0.1,161.08423,1626296178440
Fix,GT,37.5310685,-122.3610849,100.66563296675682,30.54483,0.1,161.04529,1626296179440
Fix,GT,37.5308085,-122.3609741,99.69431120309233,30.387676,0.1,161.28479,1626296180440
Fix,GT,37.5305501,-122.3608639,98.82535976791382,30.187159,0.1,161.05518,1626296181440
Fix,GT,37.530294,-122.3607532,97.92540244323015,29.940659,0.1,161.00049,1626296182440
Fix,GT,37.5300406,-122.3606449,96.9538552993536,29.371315,0.1,161.3819,1626296183440
Fix,GT,37.5297926,-122.3605414,96.12631485384702,28.62408,0.1,161.4035,1626296184440
Fix,GT,37.5295518,-122.3604385,95.32131195625664,27.853544,0.1,160.99585,1626296185440
Fix,GT,37.5293169,-122.3603379,94.49904446274044,27.296345,0.1,161.16388,1626296186440
Fix,GT,37.529086,-122.3602385,93.66826899147034,26.915411,0.1,161.01135,1626296187440
Fix,GT,37.5288577,-122.3601398,92.88771995452046,26.67001,0.1,161.00427,1626296188440
Fix,GT,37.5286307,-122.3600432,92.18708546751736,26.554924,0.1,161.41705,1626296189440
Fix,GT,37.5284043,-122.3599492,91.6637704344392,26.400982,0.1,161.84766,1626296190440
Fix,GT,37.5281779,-122.3598596,91.271315561533,26.27771,0.1,163.0249,1626296191440
Fix,GT,37.5279511,-122.3597761,91.04604188883305,26.169909,0.1,164.06891,1626296192440
Fix,GT,37.5277246,-122.3596977,91.19495924323796,25.985382,0.1,164.82385,1626296193440
Fix,GT,37.5274994,-122.3596216,91.63372752583028,25.755512,0.1,164.94965,1626296194440
Fix,GT,37.5272765,-122.3595443,92.10922971963882,25.599642,0.1,164.05518,1626296195440
Fix,GT,37.5270558,-122.3594624,92.47822975325585,25.405142,0.1,163.10046,1626296196440
Fix,GT,37.5268392,-122.3593775,92.91663616129756,24.943869,0.1,162.33533,1626296197440
Fix,GT,37.5266278,-122.3592912,93.37236301648616,24.369417,0.1,161.4226,1626296198440
Fix,GT,37.5264247,-122.3591994,93.80072924137116,23.501389,0.1,158.81488,1626296199440
Fix,GT,37.5262343,-122.3591018,94.04558926934004,22.097202,0.1,156.60156,1626296200440
Fix,GT,37.5260577,-122.3590044,94.19713720178603,20.712555,0.1,156.05542,1626296201440
Fix,GT,37.5258931,-122.3589127,94.34718451696634,19.201277,0.1,155.92639,1626296202440
Fix,GT,37.5257445,-122.3588313,94.337,16.740248,0.1,156.56537,1626296203440
Fix,GT,37.5256165,-122.3587601,94.32018451401592,14.372009,0.1,155.88733,1626296204440
Fix,GT,37.5255074,-122.3586999,94.23568387210368,12.075684,0.1,156.33008,1626296205440
Fix,GT,37.525417,-122.3586503,94.1254536075592,9.8279295,0.1,156.04224,1626296206440
Fix,GT,37.5253451,-122.3586105,94.05081419733168,7.574082,0.1,156.09265,1626296207440
Fix,GT,37.5252921,-122.3585817,93.93954789662362,5.2217007,0.1,156.47046,1626296208440
Fix,GT,37.525255,-122.3585611,93.91195704331994,4.001936,0.1,155.90381,1626296209440
Fix,GT,37.5252234,-122.3585422,93.873,3.7889924,0.1,154.43646,1626296210440
Fix,GT,37.525193,-122.3585241,93.82190847730637,3.6927152,0.1,154.50824,1626296211440
Fix,GT,37.5251624,-122.3585062,93.78413592994212,3.8688226,0.1,154.51367,1626296212440
Fix,GT,37.5251307,-122.3584877,93.77936338591576,3.6607075,0.1,154.99524,1626296213440
Fix,GT,37.5251077,-122.3584748,93.71663382318616,1.9828004,0.1,155.6211,1626296214440
Fix,GT,37.5250939,-122.358467,93.68004856464268,1.8014565,0.1,155.64258,1626296215440
Fix,GT,37.5250746,-122.3584552,93.65259084486962,3.1399045,0.1,153.80444,1626296216440
Fix,GT,37.5250444,-122.3584299,93.5968626641035,4.9351406,0.1,145.7067,1626296217440
Fix,GT,37.5250062,-122.3583852,93.50454784932734,6.586174,0.1,135.05273,1626296218440
Fix,GT,37.5249655,-122.3583206,93.46631625264882,7.969793,0.1,126.5697,1626296219440
Fix,GT,37.5249233,-122.3582405,93.5801373591423,9.083454,0.1,122.51169,1626296220440
Fix,GT,37.5248774,-122.3581478,93.9910487357378,10.187357,0.1,121.78296,1626296221440
Fix,GT,37.5248254,-122.358046,94.63423193019628,11.271454,0.1,123.29358,1626296222440
Fix,GT,37.5247634,-122.3579375,95.29768691641092,12.286272,0.1,126.59549,1626296223440
Fix,GT,37.5246908,-122.3578261,95.99064115536214,13.105484,0.1,130.2088,1626296224440
Fix,GT,37.5246105,-122.3577139,96.6803192319274,13.376089,0.1,132.86682,1626296225440
Fix,GT,37.5245263,-122.3576092,97.2121433533132,12.848464,0.1,136.65985,1626296226440
Fix,GT,37.5244396,-122.3575188,97.9341892067194,12.326866,0.1,142.30002,1626296227440
Fix,GT,37.5243463,-122.3574408,98.68882451426984,12.682848,0.1,148.43567,1626296228440
Fix,GT,37.5242428,-122.3573725,99.58400919783116,13.248609,0.1,154.33167,1626296229440
Fix,GT,37.5241321,-122.3573175,100.4236901564598,13.145641,0.1,160.59515,1626296230440
Fix,GT,37.5240211,-122.3572759,101.30873301124572,12.513094,0.1,164.28162,1626296231440
Fix,GT,37.523916,-122.3572402,102.08455137562753,11.643935,0.1,164.61969,1626296232440
Fix,GT,37.5238188,-122.357201,102.84564145576954,11.228857,0.1,161.18481,1626296233440
Fix,GT,37.5237215,-122.3571603,103.5486384060979,11.587458,0.1,162.02612,1626296234440
Fix,GT,37.5236196,-122.3571223,104.19354677376153,11.893629,0.1,164.13623,1626296235440
Fix,GT,37.5235177,-122.3570889,104.68959410375356,11.419201,0.1,165.69635,1626296236440
Fix,GT,37.5234206,-122.3570586,105.12473309594392,10.782291,0.1,166.05066,1626296237440
Fix,GT,37.5233321,-122.3570314,105.37982312732936,9.246337,0.1,166.06653,1626296238440
Fix,GT,37.5232616,-122.3570092,105.49563666629793,6.719724,0.1,165.76044,1626296239440
Fix,GT,37.5232154,-122.3569943,105.53541231215,3.8790865,0.1,165.47595,1626296240440
Fix,GT,37.5231921,-122.3569866,105.52918166518212,1.730402,0.1,165.28351,1626296241440
Fix,GT,37.5231836,-122.3569838,105.5205908321142,0.34644365,0.1,165.21204,1626296242440
Fix,GT,37.5231831,-122.3569835,105.51341231292486,0.00380059,0.1,165.21088,1626296243440
Fix,GT,37.5231832,-122.3569835,105.51300314453243,0.0040000007,0.1,165.20947,1626296244440
Fix,GT,37.5231832,-122.3569835,105.51259397518636,0.011389395,0.1,165.20862,1626296245440
Fix,GT,37.5231802,-122.3569826,105.50499685570595,0.72009885,0.1,165.185,1626296246440
Fix,GT,37.5231709,-122.3569795,105.50059082967044,1.3734789,0.1,165.09082,1626296247440
Fix,GT,37.523156,-122.3569739,105.4865876854062,2.1955397,0.1,163.70697,1626296248440
Fix,GT,37.5231334,-122.3569591,105.47418480065464,3.4864743,0.1,153.98297,1626296249440
Fix,GT,37.5231078,-122.3569235,105.44777562707662,4.9221487,0.1,131.55206,1626296250440
Fix,GT,37.5230898,-122.3568622,105.35309307342769,6.518982,0.1,106.730286,1626296251440
Fix,GT,37.5230853,-122.3567812,105.4190476616621,7.726016,0.1,92.20917,1626296252440
Fix,GT,37.5230858,-122.3566901,105.86877790725232,8.383522,0.1,89.24457,1626296253440
Fix,GT,37.5230877,-122.3565912,106.65118892514704,9.05483,0.1,88.69101,1626296254440
Fix,GT,37.5230898,-122.356485,107.60164400482178,9.808535,0.1,88.72217,1626296255440
Fix,GT,37.5230912,-122.3563696,108.51641512709855,10.50616,0.1,89.153046,1626296256440
Fix,GT,37.5230935,-122.3562468,109.54659678652882,11.201014,0.1,88.60971,1626296257440
Fix,GT,37.523096,-122.3561167,110.6612859545648,11.770598,0.1,88.63513,1626296258440
Fix,GT,37.5230982,-122.3559863,111.79519427642224,11.128456,0.1,88.82736,1626296259440
Fix,GT,37.5231003,-122.3558659,112.81546252644064,10.13575,0.1,88.67297,1626296260440
Fix,GT,37.523102,-122.3557574,113.69791574132444,9.032824,0.1,88.82425,1626296261440
Fix,GT,37.5231038,-122.3556625,114.3779138855934,7.7077875,0.1,88.52615,1626296262440
Fix,GT,37.5231061,-122.3555823,114.8705946061015,6.5500813,0.1,87.749695,1626296263440
Fix,GT,37.5231118,-122.3555136,115.2512753173113,5.670336,0.1,82.20093,1626296264440
Fix,GT,37.5231288,-122.3554557,115.52536519682408,5.569052,0.1,66.43466,1626296265440
Fix,GT,37.5231643,-122.3554053,115.69499846804143,6.346627,0.1,44.8862,1626296266440
Fix,GT,37.5232196,-122.3553713,115.76854340547322,7.32974,0.1,20.812714,1626296267440
Fix,GT,37.5232873,-122.3553691,115.5595869489312,7.745743,0.1,354.58167,1626296268440
Fix,GT,37.5233581,-122.3554043,114.98340676918625,9.354405,0.1,333.75964,1626296269440
Fix,GT,37.5234359,-122.355471,114.121036126554,11.6527195,0.1,322.59583,1626296270440
Fix,GT,37.5235239,-122.3555651,112.9720374685824,14.026405,0.1,318.7141,1626296271440
Fix,GT,37.5236267,-122.3556793,111.65580650115012,16.454212,0.1,318.1356,1626296272440
Fix,GT,37.5237443,-122.3558118,110.39571990197896,18.52715,0.1,318.07025,1626296273440
Fix,GT,37.5238756,-122.3559589,109.18503392231464,20.489563,0.1,318.55087,1626296274440
Fix,GT,37.5240214,-122.3561185,107.8912581951022,22.375221,0.1,318.83624,1626296275440
Fix,GT,37.5241785,-122.3562911,106.45821543586254,23.954689,0.1,318.71082,1626296276440
Fix,GT,37.5243449,-122.3564747,105.17408278864622,25.148582,0.1,318.77942,1626296277440
Fix,GT,37.5245182,-122.3566647,104.11226841166616,25.888649,0.1,319.3184,1626296278440
Fix,GT,37.5246997,-122.3568545,103.37380913043025,26.586468,0.1,320.63364,1626296279440
Fix,GT,37.52489,-122.3570454,102.57140093678235,27.535591,0.1,322.15552,1626296280440
Fix,GT,37.5250901,-122.3572375,101.7092651910782,28.171822,0.1,322.78195,1626296281440
Fix,GT,37.5252912,-122.3574321,100.71953654909134,28.195278,0.1,321.19778,1626296282440
Fix,GT,37.5254889,-122.3576325,99.70390272945168,28.19109,0.1,320.63205,1626296283440
Fix,GT,37.5256845,-122.3578356,98.56312515366078,28.15435,0.1,319.97824,1626296284440
Fix,GT,37.5258791,-122.3580394,97.48057730463148,28.127325,0.1,320.58914,1626296285440
Fix,GT,37.5260801,-122.3582363,96.35776177930832,28.574863,0.1,323.31033,1626296286440
Fix,GT,37.5262934,-122.3584247,95.15971292203665,29.331902,0.1,326.21887,1626296287440
Fix,GT,37.5265199,-122.3586045,93.94571569263934,30.171934,0.1,328.79202,1626296288440
Fix,GT,37.5267586,-122.358777,92.85567461776732,30.94022,0.1,331.2273,1626296289440
Fix,GT,37.5270087,-122.3589395,91.96049509558082,31.57255,0.1,333.71783,1626296290440
Fix,GT,37.5272686,-122.359092,91.306315615505,32.09441,0.1,336.20682,1626296291440
Fix,GT,37.527538,-122.3592313,90.88713345545531,32.575584,0.1,338.78296,1626296292440
Fix,GT,37.5278153,-122.3593594,90.8536389849186,32.968594,0.1,340.59268,1626296293440
Fix,GT,37.5280975,-122.3594806,91.13531901466848,33.2827,0.1,341.17932,1626296294440
Fix,GT,37.5283831,-122.3596013,91.5018710744381,33.58861,0.1,341.4445,1626296295440
Fix,GT,37.5286708,-122.3597223,92.07704999426008,33.737328,0.1,341.41104,1626296296440
Fix,GT,37.5289593,-122.3598442,92.88550744712352,33.81391,0.1,341.23087,1626296297440
Fix,GT,37.5292477,-122.3599665,93.90482980060575,33.7081,0.1,341.29654,1626296298440
Fix,GT,37.5295347,-122.3600879,94.94651315465568,33.52508,0.1,341.23154,1626296299440
Fix,GT,37.5298201,-122.3602088,95.91855920922757,33.296787,0.1,341.36987,1626296300440
Fix,GT,37.5301018,-122.3603276,96.80792018526792,32.64679,0.1,341.05515,1626296301440
Fix,GT,37.5303767,-122.3604457,97.90996856439114,31.879564,0.1,341.0364,1626296302440
Fix,GT,37.5306457,-122.3605601,98.85282773828509,31.174213,0.1,341.2208,1626296303440
Fix,GT,37.5309096,-122.3606719,99.69224229833485,30.667322,0.1,341.21136,1626296304440
Fix,GT,37.5311699,-122.3607833,100.6730094332695,30.399101,0.1,340.95972,1626296305440
Fix,GT,37.5314279,-122.3608949,101.58996650645136,30.173874,0.1,340.89264,1626296306440
Fix,GT,37.5316841,-122.3610049,102.47260336840154,29.910078,0.1,341.21463,1626296307440
Fix,GT,37.531937,-122.3611115,103.36969543156027,29.279255,0.1,341.48682,1626296308440
Fix,GT,37.5321847,-122.3612146,104.232006498456,28.675804,0.1,341.41183,1626296309440
Fix,GT,37.5324275,-122.3613184,105.09305565661192,28.301846,0.1,341.02994,1626296310440
Fix,GT,37.5326676,-122.3614225,105.88596126621962,28.067148,0.1,340.74417,1626296311440
Fix,GT,37.5329054,-122.3615258,106.78583131930232,27.790434,0.1,340.88956,1626296312440
Fix,GT,37.5331408,-122.3616282,107.69768939223886,27.514942,0.1,340.59772,1626296313440
Fix,GT,37.5333743,-122.3617303,108.6757354221344,27.397285,0.1,341.15793,1626296314440
Fix,GT,37.5336075,-122.3618302,109.7097387174368,27.295273,0.1,341.01987,1626296315440
Fix,GT,37.5338394,-122.3619315,110.75537888938187,27.232193,0.1,340.81793,1626296316440
Fix,GT,37.5340717,-122.3620319,111.8350158017874,27.315392,0.1,341.19357,1626296317440
Fix,GT,37.5343056,-122.3621318,112.93937234538794,27.536726,0.1,340.9274,1626296318440
Fix,GT,37.5345406,-122.3622354,114.04683439639211,27.743528,0.1,340.2578,1626296319440
Fix,GT,37.5347763,-122.3623435,115.16523683404922,27.932732,0.1,339.36896,1626296320440
Fix,GT,37.535012,-122.362457,116.28901270294187,28.08359,0.1,338.59094,1626296321440
Fix,GT,37.5352475,-122.3625744,117.42546799659728,28.147356,0.1,338.00986,1626296322440
Fix,GT,37.5354823,-122.3626949,118.5472439648509,28.234024,0.1,337.48953,1626296323440
Fix,GT,37.5357183,-122.3628194,119.67046455255152,28.589252,0.1,336.7039,1626296324440
Fix,GT,37.535956,-122.3629492,120.81241853183508,28.95478,0.1,336.25192,1626296325440
Fix,GT,37.5361954,-122.363084,121.97387744057178,29.23909,0.1,335.3816,1626296326440
Fix,GT,37.5364342,-122.363223,123.13042589843272,29.169945,0.1,334.9114,1626296327440
Fix,GT,37.5366719,-122.3633629,124.19755780553815,29.105362,0.1,334.6811,1626296328440
Fix,GT,37.5369087,-122.3635039,125.24433023071288,29.06578,0.1,334.39688,1626296329440
Fix,GT,37.537145,-122.3636447,126.28041862028836,29.002604,0.1,334.63193,1626296330440
Fix,GT,37.5373811,-122.3637847,127.40305926954748,28.945484,0.1,334.64847,1626296331440
Fix,GT,37.5376168,-122.3639244,128.55087392818928,28.909426,0.1,334.47583,1626296332440
Fix,GT,37.5378518,-122.364065,129.71624095523356,28.884075,0.1,334.47342,1626296333440
Fix,GT,37.5380866,-122.3642049,130.86587785899638,28.826408,0.1,334.55582,1626296334440
Fix,GT,37.5383217,-122.364345,132.0258779078126,28.922226,0.1,334.46048,1626296335440
Fix,GT,37.5385574,-122.3644858,133.17746477228405,28.998156,0.1,334.4958,1626296336440
Fix,GT,37.5387937,-122.3646266,134.3370635767281,29.035114,0.1,334.5466,1626296337440
Fix,GT,37.5390299,-122.3647669,135.49828322815895,28.945671,0.1,334.5967,1626296338440
Fix,GT,37.5392648,-122.3649065,136.67701766985653,28.735186,0.1,334.4857,1626296339440
Fix,GT,37.5394973,-122.365047,137.8062412919998,28.538961,0.1,334.0266,1626296340440
Fix,GT,37.5397283,-122.3651867,138.94201368641853,28.378601,0.1,334.3275,1626296341440
Fix,GT,37.5399582,-122.3653254,140.08151509833337,28.23318,0.1,334.2792,1626296342440
Fix,GT,37.5401875,-122.365463,141.2695654492378,28.20435,0.1,334.48383,1626296343440
Fix,GT,37.5404169,-122.3655998,142.5603797302246,28.176418,0.1,334.49655,1626296344440
Fix,GT,37.5406456,-122.3657376,143.850835078001,28.135578,0.1,333.9674,1626296345440
Fix,GT,37.5408723,-122.365879,145.04342745128272,28.024748,0.1,333.157,1626296346440
Fix,GT,37.5410966,-122.3660237,146.14619553256037,27.948246,0.1,332.3781,1626296347440
Fix,GT,37.5413188,-122.3661714,147.25383243751526,27.865635,0.1,331.6297,1626296348440
Fix,GT,37.5415389,-122.3663229,148.35965092146395,27.893234,0.1,330.6314,1626296349440
Fix,GT,37.541758,-122.3664807,149.46882806113362,28.158823,0.1,329.59747,1626296350440
Fix,GT,37.5419767,-122.3666449,150.5217358651757,28.430096,0.1,328.54163,1626296351440
Fix,GT,37.5421952,-122.3668162,151.48341601967812,28.744957,0.1,327.3304,1626296352440
Fix,GT,37.5424134,-122.3669948,152.34614226704835,29.070953,0.1,326.42697,1626296353440
Fix,GT,37.5426335,-122.3671802,153.1158730716109,29.740744,0.1,325.60535,1626296354440
Fix,GT,37.5428531,-122.367371,153.8059578703046,29.403698,0.1,325.05814,1626296355440
Fix,GT,37.5430676,-122.367561,154.37887486329674,28.87119,0.1,324.34204,1626296356440
Fix,GT,37.5432773,-122.36775,154.81555501455068,28.46409,0.1,324.34357,1626296357440
Fix,GT,37.5434848,-122.3679387,155.05831987756488,28.498829,0.1,323.5007,1626296358440
Fix,GT,37.5436909,-122.3681334,155.11836311388018,28.769615,0.1,322.40967,1626296359440
Fix,GT,37.5438949,-122.3683333,155.1064092217684,28.555618,0.1,321.4275,1626296360440
Fix,GT,37.5440942,-122.3685347,155.20572910809517,28.226181,0.1,320.76398,1626296361440
Fix,GT,37.5442897,-122.3687363,155.36572911059858,27.947279,0.1,320.3645,1626296362440
Fix,GT,37.5444826,-122.3689365,155.5121429721415,27.567421,0.1,320.3007,1626296363440
Fix,GT,37.5446727,-122.3691333,155.6861383408308,27.123825,0.1,320.43573,1626296364440
Fix,GT,37.5448599,-122.3693269,155.85477987915277,26.700089,0.1,320.32584,1626296365440
Fix,GT,37.5450438,-122.3695179,155.9970968800485,26.291702,0.1,320.42404,1626296366440
Fix,GT,37.5452269,-122.3697028,156.15296145042777,25.876738,0.1,322.07495,1626296367440
Fix,GT,37.5454125,-122.3698765,156.27650611671805,25.49113,0.1,324.09366,1626296368440
Fix,GT,37.5455981,-122.3700422,156.39568593949082,25.05064,0.1,325.01688,1626296369440
Fix,GT,37.5457822,-122.3702029,156.5553660336733,24.708372,0.1,325.24048,1626296370440
Fix,GT,37.5459643,-122.3703602,156.79895975124836,24.333942,0.1,325.36325,1626296371440
Fix,GT,37.5461436,-122.3705146,157.1920981299877,23.924534,0.1,325.58002,1626296372440
Fix,GT,37.5463201,-122.3706657,157.64868421876432,23.479132,0.1,325.5553,1626296373440
Fix,GT,37.5464934,-122.3708142,157.9249568257928,23.10867,0.1,325.51984,1626296374440
Fix,GT,37.5466638,-122.3709611,158.0131768404245,22.800308,0.1,325.40155,1626296375440
Fix,GT,37.5468322,-122.3711068,157.87504316812755,22.59951,0.1,325.2402,1626296376440
Fix,GT,37.5469987,-122.3712512,157.68958781296016,22.15461,0.1,325.30875,1626296377440
Fix,GT,37.5471566,-122.3713878,157.5076847597361,20.10672,0.1,325.5042,1626296378440
Fix,GT,37.5472951,-122.3715068,157.32440156698226,17.140352,0.1,325.69952,1626296379440
Fix,GT,37.5474117,-122.371605,157.1940892865658,14.018316,0.1,326.3399,1626296380440
Fix,GT,37.5475048,-122.3716822,157.08904783424737,10.780167,0.1,326.16617,1626296381440
Fix,GT,37.5475743,-122.3717419,156.9599124122262,8.035913,0.1,324.89615,1626296382440
Fix,GT,37.5476244,-122.3717879,156.98204145535829,5.7251396,0.1,323.70312,1626296383440
Fix,GT,37.5476581,-122.3718193,157.06145536172392,3.6223333,0.1,323.24066,1626296384440
Fix,GT,37.5476754,-122.3718355,157.10659545499087,1.2319882,0.1,323.23877,1626296385440
Fix,GT,37.5476782,-122.3718381,157.09540922749045,0.02883051,0.1,323.21277,1626296386440
Fix,GT,37.5476782,-122.3718381,157.097,0.001,0.1,323.21216,1626296387440
Fix,GT,37.5476782,-122.3718381,157.096,0.0022496912,0.1,323.21045,1626296388440
Fix,GT,37.5476782,-122.3718381,157.095,0.0005907718,0.1,323.21027,1626296389440
Fix,GT,37.5476782,-122.371838,157.09217686119678,0.027096385,0.1,323.2099,1626296390440
Fix,GT,37.5476816,-122.3718415,157.08540454727412,1.2724621,0.1,322.9065,1626296391440
Fix,GT,37.5476968,-122.3718589,157.13308760729433,3.2492537,0.1,318.76068,1626296392440
Fix,GT,37.5477169,-122.3718975,157.2229615816176,4.7174845,0.1,301.63467,1626296393440
Fix,GT,37.5477222,-122.3719569,157.34568775507807,5.7606053,0.1,272.21542,1626296394440
Fix,GT,37.5476992,-122.3720217,157.38545068940522,6.911525,0.1,240.49411,1626296395440
Fix,GT,37.547654,-122.3720885,157.37840453997254,8.656719,0.1,229.40463,1626296396440
Fix,GT,37.5475984,-122.3721715,157.40427384376528,10.392436,0.1,229.87729,1626296397440
Fix,GT,37.5475339,-122.3722677,157.48126915222406,11.712898,0.1,229.65741,1626296398440
Fix,GT,37.5474654,-122.3723697,157.53009230947495,11.742174,0.1,229.79324,1626296399440
Fix,GT,37.5473974,-122.3724699,157.6110414586663,11.503365,0.1,229.44986,1626296400440
Fix,GT,37.5473311,-122.3725678,157.67391077637674,11.19857,0.1,229.67627,1626296401440
Fix,GT,37.5472689,-122.3726607,157.7933661688566,10.030951,0.1,229.90732,1626296402440
Fix,GT,37.5472154,-122.3727409,157.9249569413066,8.449005,0.1,229.927,1626296403440
Fix,GT,37.5471646,-122.3728059,158.13217992734909,7.777794,0.1,221.36662,1626296404440
Fix,GT,37.5471021,-122.372841,158.36549683499334,7.6917925,0.1,197.60661,1626296405440
Fix,GT,37.5470295,-122.372841,158.4314570032954,8.571039,0.1,174.06555,1626296406440
Fix,GT,37.5469524,-122.3728071,158.34126914185288,9.608125,0.1,156.13751,1626296407440
Fix,GT,37.5468746,-122.3727445,158.46836306881903,11.017797,0.1,142.83234,1626296408440
Fix,GT,37.5467956,-122.372656,158.52468309676647,12.576435,0.1,137.00653,1626296409440
Fix,GT,37.5467058,-122.3725529,158.63627386617662,14.430045,0.1,137.83783,1626296410440
Fix,GT,37.546603,-122.3724365,158.70064166352154,16.27971,0.1,137.51483,1626296411440
Fix,GT,37.5464891,-122.3723058,158.76963693499565,17.95815,0.1,137.59247,1626296412440
Fix,GT,37.5463641,-122.3721644,158.8570461702347,19.373816,0.1,137.93881,1626296413440
Fix,GT,37.5462295,-122.3720113,158.90786937594413,20.935371,0.1,137.69742,1626296414440
Fix,GT,37.5460839,-122.3718465,158.8358105738163,22.578262,0.1,137.78229,1626296415440
Fix,GT,37.5459279,-122.3716686,158.55490920853617,24.15428,0.1,137.66159,1626296416440
Fix,GT,37.5457602,-122.3714813,158.03508753544094,25.635605,0.1,138.91766,1626296417440
Fix,GT,37.5455786,-122.3712885,157.3040334355831,27.172348,0.1,140.45184,1626296418440
Fix,GT,37.5453826,-122.37109,156.4720334059,28.679321,0.1,141.57501,1626296419440
Fix,GT,37.545174,-122.3708851,155.62321025678514,30.053526,0.1,141.82367,1626296420440
Fix,GT,37.5449591,-122.3706712,154.7719871520996,30.557777,0.1,141.16904,1626296421440
Fix,GT,37.5447448,-122.370455,153.9221732210219,30.452309,0.1,141.1435,1626296422440
Fix,GT,37.5445321,-122.3702391,153.0498979179859,30.268734,0.1,140.99054,1626296423440
Fix,GT,37.5443204,-122.3700248,152.227940828979,30.077446,0.1,141.2752,1626296424440
Fix,GT,37.5441096,-122.3698125,151.42821920198202,29.9141,0.1,141.10272,1626296425440
Fix,GT,37.5438992,-122.3695991,150.72099468952416,30.205482,0.1,140.98932,1626296426440
Fix,GT,37.5436835,-122.3693852,150.0463532078266,30.8184,0.1,142.36157,1626296427440
Fix,GT,37.5434608,-122.3691712,149.48349623391033,31.397448,0.1,142.74054,1626296428440
Fix,GT,37.5432332,-122.3689569,148.87544998526573,31.718147,0.1,143.28613,1626296429440
Fix,GT,37.5430028,-122.368742,148.2696226131618,31.991444,0.1,143.26776,1626296430440
Fix,GT,37.5427695,-122.3685265,147.6674498920441,32.289955,0.1,143.90247,1626296431440
Fix,GT,37.5425326,-122.3683116,147.04503182563184,32.556652,0.1,144.26355,1626296432440
Fix,GT,37.5422924,-122.3680977,146.41762257227302,32.810226,0.1,145.12451,1626296433440
Fix,GT,37.5420474,-122.3678875,145.78903180488942,33.038303,0.1,146.01678,1626296434440
Fix,GT,37.5417989,-122.3676803,145.15598557505012,33.17937,0.1,146.6185,1626296435440
Fix,GT,37.5415473,-122.3674756,144.52021329572796,33.366096,0.1,147.33621,1626296436440
Fix,GT,37.5412915,-122.3672744,143.8773990779519,33.686512,0.1,148.50732,1626296437440
Fix,GT,37.5410304,-122.3670757,143.2428125564158,34.063595,0.1,149.14789,1626296438440
Fix,GT,37.5407643,-122.3668804,142.59526797559857,34.318398,0.1,150.142,1626296439440
Fix,GT,37.540495,-122.3666887,141.94116699656846,34.40792,0.1,150.62363,1626296440440
Fix,GT,37.5402233,-122.3664998,141.25312495732305,34.5176,0.1,151.25745,1626296441440
Fix,GT,37.5399498,-122.3663133,140.46580888792872,34.520718,0.1,151.62787,1626296442440
Fix,GT,37.5396769,-122.3661284,139.5657121696472,34.31371,0.1,151.49811,1626296443440
Fix,GT,37.5394061,-122.3659436,138.55425661337375,34.140812,0.1,151.38962,1626296444440
Fix,GT,37.5391361,-122.3657602,137.4248900618553,33.992447,0.1,151.53033,1626296445440
Fix,GT,37.5388667,-122.3655782,136.18443448984624,33.931007,0.1,151.7243,1626296446440
Fix,GT,37.5385975,-122.3653965,134.88775114256146,33.86529,0.1,151.55371,1626296447440
Fix,GT,37.5383294,-122.3652145,133.51829554533958,33.8085,0.1,151.47845,1626296448440
Fix,GT,37.5380622,-122.3650318,132.14034172153472,33.725586,0.1,151.44556,1626296449440
Fix,GT,37.5377949,-122.3648511,130.78289001974463,33.657043,0.1,151.65955,1626296450440
Fix,GT,37.5375283,-122.3646704,129.4222525835037,33.58605,0.1,151.60602,1626296451440
Fix,GT,37.537262,-122.3644905,128.10152295422554,33.543232,0.1,151.57867,1626296452440
Fix,GT,37.5369965,-122.36431,126.75529131639004,33.475933,0.1,151.41568,1626296453440
Fix,GT,37.5367315,-122.3641302,125.4135690575242,33.395573,0.1,151.69577,1626296454440
Fix,GT,37.5364661,-122.3639516,124.07493564218282,33.462784,0.1,151.72418,1626296455440
Fix,GT,37.5362,-122.363772,122.73579300490022,33.587994,0.1,151.50766,1626296456440
Fix,GT,37.5359341,-122.3635901,121.38756881970168,33.60573,0.1,151.35663,1626296457440
Fix,GT,37.5356681,-122.3634091,120.05275021719932,33.54495,0.1,151.53363,1626296458440
Fix,GT,37.5354025,-122.3632287,118.72015939497948,33.50192,0.1,151.6148,1626296459440
Fix,GT,37.5351366,-122.3630499,117.38516281110049,33.460934,0.1,151.8367,1626296460440
Fix,GT,37.5348706,-122.3628723,115.99233724570274,33.371082,0.1,152.21948,1626296461440
Fix,GT,37.5346033,-122.362701,114.64997766757013,33.271988,0.1,153.68835,1626296462440
Fix,GT,37.5343332,-122.3625387,113.31652200829984,33.201805,0.1,155.05981,1626296463440
Fix,GT,37.5340608,-122.3623846,111.97897749447822,33.11695,0.1,156.31561,1626296464440
Fix,GT,37.5337866,-122.362238,110.66902372580768,33.007477,0.1,157.44904,1626296465440
Fix,GT,37.5335114,-122.3620991,109.45415932238105,32.824955,0.1,158.85083,1626296466440
Fix,GT,37.5332353,-122.3619695,108.32939029240607,32.65381,0.1,160.14764,1626296467440
Fix,GT,37.5329577,-122.3618466,107.33435091209412,32.685917,0.1,160.83667,1626296468440
Fix,GT,37.5326785,-122.3617279,106.36493521612884,32.757824,0.1,161.44043,1626296469440
Fix,GT,37.5323987,-122.3616097,105.37048273730278,32.75457,0.1,161.14929,1626296470440
Fix,GT,37.5321198,-122.3614906,104.36966412848236,32.612938,0.1,161.07538,1626296471440
Fix,GT,37.5318428,-122.3613714,103.40489186239242,32.469208,0.1,161.1034,1626296472440
Fix,GT,37.5315649,-122.3612533,102.4038030014038,32.617607,0.1,161.20642,1626296473440
Fix,GT,37.5312864,-122.3611338,101.46907319188118,32.729774,0.1,160.97607,1626296474440
Fix,GT,37.5310069,-122.3610137,100.47002977502346,32.822205,0.1,161.29468,1626296475440
Fix,GT,37.5307261,-122.3608954,99.39775255191329,32.891716,0.1,161.54932,1626296476440
Fix,GT,37.5304458,-122.3607791,98.51389445781707,32.633045,0.1,161.89929,1626296477440
Fix,GT,37.5301666,-122.3606689,97.49143582820892,32.305237,0.1,162.82904,1626296478440
Fix,GT,37.5298899,-122.3605621,96.48093487876652,31.976791,0.1,162.69836,1626296479440
Fix,GT,37.5296164,-122.3604537,95.56566352045536,31.690382,0.1,162.17792,1626296480440
Fix,GT,37.5293457,-122.3603443,94.62679854512214,31.432518,0.1,162.0451,1626296481440
Fix,GT,37.5290774,-122.3602342,93.64357467395068,31.233246,0.1,161.53253,1626296482440
Fix,GT,37.5288114,-122.3601222,92.72280244266986,31.051437,0.1,161.2558,1626296483440
Fix,GT,37.5285476,-122.3600108,91.97439441251755,30.578014,0.1,161.53748,1626296484440
Fix,GT,37.5282906,-122.3599062,91.4599918923378,29.375332,0.1,162.55115,1626296485440
Fix,GT,37.5280425,-122.3598116,91.1015866559148,28.27987,0.1,163.58716,1626296486440
Fix,GT,37.527801,-122.359726,91.10382263422012,27.409737,0.1,164.73438,1626296487440
Fix,GT,37.5275667,-122.359647,91.4719658946991,26.431873,0.1,165.08337,1626296488440
Fix,GT,37.527341,-122.3595693,91.97587315547466,25.528255,0.1,164.18799,1626296489440
Fix,GT,37.5271231,-122.3594894,92.35932473540306,24.935318,0.1,163.28491,1626296490440
Fix,GT,37.5269105,-122.3594068,92.74046393454074,24.43151,0.1,162.38708,1626296491440
Fix,GT,37.5267045,-122.3593224,93.211961889863,23.51838,0.1,161.5459,1626296492440
Fix,GT,37.5265109,-122.3592395,93.59827839291096,21.80572,0.1,160.50427,1626296493440
Fix,GT,37.5263348,-122.3591558,93.92205056971312,19.929665,0.1,157.9815,1626296494440
Fix,GT,37.5261784,-122.3590725,94.10914201837778,17.881145,0.1,156.24884,1626296495440
Fix,GT,37.5260398,-122.3589959,94.21109281432628,15.688273,0.1,156.12659,1626296496440
Fix,GT,37.5259192,-122.3589288,94.3292306571901,13.65305,0.1,155.82104,1626296497440
Fix,GT,37.5258141,-122.3588698,94.32363713026048,11.895269,0.1,155.9303,1626296498440
Fix,GT,37.5257226,-122.3588191,94.32749788653852,10.357231,0.1,155.92395,1626296499440
Fix,GT,37.5256421,-122.358774,94.296225040257,9.38169,0.1,155.87378,1626296500440
Fix,GT,37.5255668,-122.3587313,94.27290716004372,8.808954,0.1,155.59338,1626296501440
Fix,GT,37.5254984,-122.358693,94.2065442928076,7.782456,0.1,155.74402,1626296502440
Fix,GT,37.5254393,-122.3586598,94.15931643545628,6.577745,0.1,155.80798,1626296503440
Fix,GT,37.5253909,-122.3586325,94.11113500201702,5.1404977,0.1,155.75928,1626296504440
Fix,GT,37.5253514,-122.3586103,94.04672291010618,4.6607814,0.1,155.83624,1626296505440
Fix,GT,37.5253153,-122.3585904,93.9849535678029,3.8426929,0.1,155.99982,1626296506440
Fix,GT,37.5252897,-122.3585761,93.94295356541872,2.495132,0.1,155.93262,1626296507440
Fix,GT,37.5252709,-122.3585655,93.91659351158142,2.1591773,0.1,155.7315,1626296508440
Fix,GT,37.5252544,-122.3585561,93.8993628487587,1.8256295,0.1,155.56085,1626296509440
Fix,GT,37.5252413,-122.3585486,93.86022786468268,1.4739022,0.1,155.42834,1626296510440
Fix,GT,37.5252279,-122.3585409,93.86599720257522,1.8211521,0.1,155.39447,1626296511440
Fix,GT,37.5252107,-122.3585311,93.8438213750422,2.5020049,0.1,155.3468,1626296512440
Fix,GT,37.5251874,-122.3585179,93.8030420768261,3.1393194,0.1,155.4223,1626296513440
Fix,GT,37.5251597,-122.3585022,93.7725442595482,3.6527004,0.1,155.51025,1626296514440
Fix,GT,37.5251288,-122.3584848,93.76549780458213,3.5057502,0.1,155.53961,1626296515440
Fix,GT,37.5251075,-122.3584727,93.711043661654,1.8767974,0.1,155.40948,1626296516440
Fix,GT,37.5250922,-122.3584642,93.68199720805885,2.0646281,0.1,155.5047,1626296517440
Fix,GT,37.5250713,-122.3584515,93.6398678330183,3.200095,0.1,153.95819,1626296518440
Fix,GT,37.5250415,-122.3584271,93.56826712059974,4.7383075,0.1,145.91074,1626296519440
Fix,GT,37.5250056,-122.3583841,93.4817256588936,6.226451,0.1,134.7185,1626296520440
Fix,GT,37.5249669,-122.3583236,93.43414217886328,7.478187,0.1,127.475525,1626296521440
Fix,GT,37.5249264,-122.3582495,93.52791152238844,8.367405,0.1,123.14407,1626296522440
Fix,GT,37.5248847,-122.3581637,93.87382751619816,9.503879,0.1,121.308075,1626296523440
Fix,GT,37.5248365,-122.3580661,94.47360694277288,10.774332,0.1,122.11029,1626296524440
Fix,GT,37.5247785,-122.3579601,95.13555768346788,11.971802,0.1,125.482605,1626296525440
Fix,GT,37.5247094,-122.3578484,95.81106729966402,12.954811,0.1,128.79141,1626296526440
Fix,GT,37.5246321,-122.3577364,96.54037920287251,13.016087,0.1,132.2674,1626296527440
Fix,GT,37.524551,-122.3576333,97.06628338766096,12.536915,0.1,135.78546,1626296528440
Fix,GT,37.5244662,-122.3575412,97.72960426169634,12.615206,0.1,141.01828,1626296529440
Fix,GT,37.52437,-122.3574573,98.46242740553618,13.361122,0.1,147.37448,1626296530440
Fix,GT,37.5242621,-122.3573831,99.39174828076362,13.880911,0.1,153.58301,1626296531440
Fix,GT,37.5241453,-122.3573229,100.28047548779844,14.059423,0.1,160.24225,1626296532440
Fix,GT,37.5240247,-122.3572773,101.23670186579228,13.930716,0.1,164.0216,1626296533440
Fix,GT,37.5239041,-122.3572342,102.14993284037708,13.813288,0.1,163.47095,1626296534440
Fix,GT,37.5237888,-122.3571868,103.04292833974958,13.069994,0.1,161.44098,1626296535440
