MessageType,Provider,LatitudeDegrees,LongitudeDegrees,AltitudeMeters,SpeedMps,AccuracyMeters,BearingDegrees,UnixTimeMillis
Fix,GT,37.3711972,-122.0477148,9.2150002746284,0.001,0.1,279.69266,1629837162437
Fix,GT,37.3711972,-122.0477148,9.215,0.001,0.1,279.69266,1629837163437
Fix,GT,37.3711972,-122.0477148,9.215,0.001,0.1,279.6926,1629837164437
Fix,GT,37.3711972,-122.0477148,9.215000274628402,0.001,0.1,279.6926,1629837165437
Fix,GT,37.3711972,-122.0477148,9.214999725371598,0.0003729949,0.1,279.69247,1629837166437
Fix,GT,37.3711972,-122.0477148,9.215000274628402,0.001,0.1,279.6924,1629837167437
Fix,GT,37.3711972,-122.0477148,9.215000274628402,0.0008867191,0.1,279.69257,1629837168437
Fix,GT,37.3711972,-122.0477148,9.215,0.00037299498,0.1,279.6925,1629837169437
Fix,GT,37.3711972,-122.0477148,9.214999725371598,0.0013729951,0.1,279.6923,1629837170437
Fix,GT,37.3711972,-122.0477148,9.214999725371598,0.0014142136,0.1,279.6922,1629837171437
Fix,GT,37.3711972,-122.0477148,9.214999725371598,0.000372995,0.1,279.69257,1629837172437
Fix,GT,37.3711972,-122.0477148,9.2150002746284,0.001627005,0.1,279.6927,1629837173437
Fix,GT,37.3711972,-122.0477148,9.215,0.0011544996,0.1,279.69263,1629837174437
Fix,GT,37.3711972,-122.0477148,9.215,0.001,0.1,279.6925,1629837175437
Fix,GT,37.3711972,-122.0477148,9.2149997253716,0.0023009323,0.1,279.6926,1629837176437
Fix,GT,37.3711972,-122.0477148,9.215000274628402,0.0013729953,0.1,279.6925,1629837177437
Fix,GT,37.3711972,-122.0477148,9.215,0.0,0.1,279.69263,1629837178437
Fix,GT,37.3711972,-122.0477148,9.215,0.0,0.1,279.69254,1629837179437
Fix,GT,37.3711972,-122.0477148,9.215000274628402,0.00037299542,0.1,279.6925,1629837180437
Fix,GT,37.3711972,-122.0477148,9.215,0.0,0.1,279.69247,1629837181437
Fix,GT,37.3711972,-122.0477148,9.215000274628402,0.001,0.1,279.69244,1629837182437
Fix,GT,37.3711972,-122.0477148,9.215,0.0,0.1,279.69244,1629837183437
Fix,GT,37.3711972,-122.0477148,9.2150002746284,0.001,0.1,279.6924,1629837184437
Fix,GT,37.3711972,-122.0477148,9.214999725371598,0.0011189864,0.1,279.69247,1629837185437
Fix,GT,37.3711972,-122.0477148,9.2150002746284,0.00062700454,0.1,279.69254,1629837186437
Fix,GT,37.3711972,-122.0477148,9.2150002746284,0.0012597138,0.1,279.69254,1629837187437
Fix,GT,37.3711972,-122.0477148,9.215,0.0014142136,0.1,279.69257,1629837188437
Fix,GT,37.3711972,-122.0477148,9.215,0.0016270045,0.1,279.69238,1629837189437
Fix,GT,37.3711972,-122.0477148,9.215,0.0012597137,0.1,279.69226,1629837190437
Fix,GT,37.3711972,-122.0477148,9.215000274628402,0.0006270044,0.1,279.6922,1629837191437
Fix,GT,37.3711972,-122.0477148,9.215000274628402,0.0012597138,0.1,279.6923,1629837192437
Fix,GT,37.3711972,-122.0477148,9.215000274628402,0.0,0.1,279.69238,1629837193437
Fix,GT,37.3711972,-122.0477148,9.215,0.0014142136,0.1,279.69275,1629837194437
Fix,GT,37.3711972,-122.0477148,9.2150002746284,0.0008867179,0.1,279.69244,1629837195437
Fix,GT,37.3711972,-122.0477148,9.2150002746284,0.0016327095,0.1,279.6922,1629837196437
Fix,GT,37.3711972,-122.0477148,9.215,0.0011545001,0.1,279.69202,1629837197437
Fix,GT,37.3711972,-122.0477148,9.215,0.00037299588,0.1,279.69196,1629837198437
Fix,GT,37.3711972,-122.0477148,9.215,0.00037299594,0.1,279.69208,1629837199437
Fix,GT,37.3711972,-122.0477148,9.215,0.00062700413,0.1,279.6922,1629837200437
Fix,GT,37.3711972,-122.0477148,9.215,0.0,0.1,279.6922,1629837201437
Fix,GT,37.3711972,-122.0477148,9.215,0.0,0.1,279.69214,1629837202437
Fix,GT,37.3711972,-122.0477148,9.2150002746284,0.0,0.1,279.69196,1629837203437
Fix,GT,37.3711972,-122.0477148,9.215,0.0,0.1,279.69196,1629837204437
Fix,GT,37.3711972,-122.0477148,9.215,0.0,0.1,279.69196,1629837205437
Fix,GT,37.3711972,-122.0477148,9.215,0.001,0.1,279.69186,1629837206437
Fix,GT,37.3711972,-122.0477148,9.215000274628402,0.0010000002,0.1,279.6919,1629837207437
Fix,GT,37.3711972,-122.0477148,9.215,0.0006270039,0.1,279.69208,1629837208437
Fix,GT,37.3711972,-122.0477148,9.215,0.0,0.1,279.69208,1629837209437
Fix,GT,37.3711972,-122.0477148,9.2150002746284,0.00037299626,0.1,279.692,1629837210437
Fix,GT,37.3711972,-122.0477148,9.215,0.001,0.1,279.6919,1629837211437
Fix,GT,37.3711972,-122.0477148,9.215000274628402,0.0010000002,0.1,279.69202,1629837212437
Fix,GT,37.3711972,-122.0477148,9.215,0.0014142136,0.1,279.69226,1629837213437
Fix,GT,37.3711972,-122.0477148,9.215,0.00062700355,0.1,279.6922,1629837214437
Fix,GT,37.3711972,-122.0477148,9.2150002746284,0.0,0.1,279.69208,1629837215437
Fix,GT,37.3711972,-122.0477148,9.215,0.0,0.1,279.69208,1629837216437
Fix,GT,37.3711972,-122.0477148,9.215,0.001,0.1,279.69214,1629837217437
Fix,GT,37.3711972,-122.0477148,9.215,0.001,0.1,279.69232,1629837218437
Fix,GT,37.3711972,-122.0477148,9.215000274628402,0.0006270033,0.1,279.69214,1629837219437
Fix,GT,37.3711972,-122.0477148,9.215,0.001,0.1,279.69193,1629837220437
Fix,GT,37.3711972,-122.0477148,9.215,0.0,0.1,279.69186,1629837221437
Fix,GT,37.3711972,-122.0477148,9.215,0.0,0.1,279.69202,1629837222437
Fix,GT,37.3711972,-122.0477148,9.215,0.001,0.1,279.69214,1629837223437
Fix,GT,37.3711972,-122.0477148,9.215,0.0014142136,0.1,279.69196,1629837224437
Fix,GT,37.3711972,-122.0477148,9.215,0.001,0.1,279.6919,1629837225437
Fix,GT,37.3711972,-122.0477148,9.215,0.001,0.1,279.69196,1629837226437
Fix,GT,37.3711972,-122.0477148,9.215000274628402,0.001,0.1,279.69202,1629837227437
Fix,GT,37.3711972,-122.0477148,9.215000274628402,0.001,0.1,279.69177,1629837228437
Fix,GT,37.3711972,-122.0477148,9.215,0.001,0.1,279.69174,1629837229437
Fix,GT,37.3711972,-122.0477148,9.215,0.00062700274,0.1,279.69177,1629837230437
Fix,GT,37.3711972,-122.0477148,9.214999725371598,0.0006270026,0.1,279.69202,1629837231437
Fix,GT,37.3711972,-122.0477148,9.215000274628402,0.0,0.1,279.69183,1629837232437
Fix,GT,37.3711972,-122.0477148,9.214999725371598,0.0,0.1,279.6917,1629837233437
Fix,GT,37.3711972,-122.0477148,9.2150002746284,0.0,0.1,279.69174,1629837234437
Fix,GT,37.3711972,-122.0477148,9.214999725371598,0.0,0.1,279.6919,1629837235437
Fix,GT,37.3711972,-122.0477148,9.215000274628402,0.0,0.1,279.69183,1629837236437
Fix,GT,37.3711972,-122.0477148,9.215000274628402,0.0,0.1,279.69168,1629837237437
Fix,GT,37.3711972,-122.0477148,9.215,0.0,0.1,279.69186,1629837238437
Fix,GT,37.3711972,-122.0477148,9.214999725371598,0.001,0.1,279.69202,1629837239437
Fix,GT,37.3711972,-122.0477148,9.215,0.0,0.1,279.6919,1629837240437
Fix,GT,37.3711972,-122.0477148,9.215000274628402,0.0,0.1,279.69186,1629837241437
Fix,GT,37.3711972,-122.0477148,9.214999725371598,0.001,0.1,279.6918,1629837242437
Fix,GT,37.3711972,-122.0477148,9.2150002746284,0.0014142136,0.1,279.69168,1629837243437
Fix,GT,37.3711972,-122.0477148,9.215,0.00375268,0.1,279.69247,1629837244437
Fix,GT,37.3711972,-122.0477148,9.215000274628402,0.0029529529,0.1,279.69156,1629837245437
Fix,GT,37.3711972,-122.0477148,9.216000274658205,0.0029581932,0.1,279.69125,1629837246437
Fix,GT,37.3711972,-122.0477148,9.217000274688006,0.0048231836,0.1,279.69217,1629837247437
Fix,GT,37.3711973,-122.047716,9.212372723668814,0.42011946,0.1,279.69125,1629837248437
Fix,GT,37.3711986,-122.0477252,9.200627275943756,1.1980898,0.1,279.68204,1629837249437
Fix,GT,37.3712016,-122.0477409,9.182253729671238,1.5970032,0.1,282.13464,1629837250437
Fix,GT,37.3712109,-122.0477558,9.158253730386496,1.5771186,0.1,297.45056,1629837251437
Fix,GT,37.371225,-122.0477649,9.123881004929542,1.8105426,0.1,318.5997,1629837252437
Fix,GT,37.3712459,-122.0477671,9.093507735162971,2.563574,0.1,343.9995,1629837253437
Fix,GT,37.3712728,-122.0477603,9.03101628214121,3.3583183,0.1,6.4787903,1629837254437
Fix,GT,37.3713048,-122.0477453,8.993491725802423,4.203483,0.1,18.918854,1629837255437
Fix,GT,37.3713434,-122.0477275,8.977,4.8337307,0.1,19.625214,1629837256437
Fix,GT,37.3713845,-122.0477097,8.96849172654748,4.7764716,0.1,19.054352,1629837257437
Fix,GT,37.3714246,-122.047694,8.949119262188674,4.4315014,0.1,16.9552,1629837258437
Fix,GT,37.3714579,-122.0476823,8.970746264338494,3.1770835,0.1,15.499451,1629837259437
Fix,GT,37.371481,-122.0476745,8.999372730374336,2.226516,0.1,15.192749,1629837260437
Fix,GT,37.3714982,-122.0476687,9.039476251333951,1.6496608,0.1,15.08316,1629837261437
Fix,GT,37.3715087,-122.0476651,9.052999730199575,0.68775946,0.1,15.027679,1629837262437
Fix,GT,37.3715104,-122.0476646,9.051745727390053,0.004073615,0.1,15.019806,1629837263437
Fix,GT,37.3715104,-122.0476646,9.051999730229376,0.0029399302,0.1,15.019531,1629837264437
Fix,GT,37.3715104,-122.0476646,9.052999730199575,0.0028168026,0.1,15.01889,1629837265437
Fix,GT,37.3715104,-122.0476646,9.053372998654842,0.002236068,0.1,15.018982,1629837266437
Fix,GT,37.3715106,-122.0476646,9.051254002690314,0.15154888,0.1,15.021698,1629837267437
Fix,GT,37.3715173,-122.0476621,9.051864993274211,1.663832,0.1,15.248016,1629837268437
Fix,GT,37.3715374,-122.0476531,8.994166759341955,2.831791,0.1,18.9375,1629837269437
Fix,GT,37.3715612,-122.0476296,8.922832706689835,3.795853,0.1,36.736115,1629837270437
Fix,GT,37.3715812,-122.0475874,9.074356988430022,5.060936,0.1,60.033997,1629837271437
Fix,GT,37.3715902,-122.0475196,9.11161099141836,7.0803967,0.1,83.82037,1629837272437
Fix,GT,37.3715829,-122.047428,9.116880731850864,9.227375,0.1,98.08301,1629837273437
Fix,GT,37.371564,-122.0473156,9.084135005533694,11.016741,0.1,102.87875,1629837274437
Fix,GT,37.3715377,-122.0471845,9.040135005533696,12.897223,0.1,104.29968,1629837275437
Fix,GT,37.3715066,-122.0470358,8.977762006282806,14.208487,0.1,104.61545,1629837276437
Fix,GT,37.3714736,-122.0468768,8.911389006912708,14.720648,0.1,104.44708,1629837277437
Fix,GT,37.3714403,-122.0467163,8.82727000927925,14.770876,0.1,104.49872,1629837278437
Fix,GT,37.3714062,-122.0465521,8.750016006946563,15.3300295,0.1,104.46747,1629837279437
Fix,GT,37.3713703,-122.0463807,8.633643007814884,16.081776,0.1,104.74884,1629837280437
Fix,GT,37.3713321,-122.0462011,8.544,16.823837,0.1,104.70758,1629837281437
Fix,GT,37.3712928,-122.0460139,8.458523756414651,17.368856,0.1,104.697296,1629837282437
Fix,GT,37.3712527,-122.0458235,8.377508002758026,17.514177,0.1,104.75421,1629837283437
Fix,GT,37.3712121,-122.0456316,8.352254001140594,17.66027,0.1,104.81305,1629837284437
Fix,GT,37.3711709,-122.0454392,8.36,17.586748,0.1,105.092926,1629837285437
Fix,GT,37.3711287,-122.0452481,8.38,17.57602,0.1,105.387634,1629837286437
Fix,GT,37.3710862,-122.0450568,8.403118999004363,17.602894,0.1,105.55029,1629837287437
Fix,GT,37.3710429,-122.0448653,8.393134751021861,17.650694,0.1,105.71445,1629837288437
Fix,GT,37.3709994,-122.0446732,8.351151001989841,17.732185,0.1,105.79242,1629837289437
Fix,GT,37.3709556,-122.0444801,8.26038900065422,17.824623,0.1,105.850525,1629837290437
Fix,GT,37.3709106,-122.0442868,8.186778000473977,17.81839,0.1,106.55502,1629837291437
Fix,GT,37.3708639,-122.0440954,8.039896999716758,17.630325,0.1,107.075195,1629837292437
Fix,GT,37.3708171,-122.0439065,7.89689723354578,17.474194,0.1,107.2641,1629837293437
Fix,GT,37.3707699,-122.0437184,7.772896765649319,17.459068,0.1,107.48004,1629837294437
Fix,GT,37.3707222,-122.0435304,7.644166993200779,17.491367,0.1,107.6532,1629837295437
Fix,GT,37.370674,-122.0433422,7.537388771981001,17.524017,0.1,107.870056,1629837296437
Fix,GT,37.3706254,-122.0431541,7.417777992129325,17.510395,0.1,107.77713,1629837297437
Fix,GT,37.3705771,-122.0429659,7.308269993185997,17.505043,0.1,107.69739,1629837298437
Fix,GT,37.3705291,-122.0427777,7.211507996797562,17.50852,0.1,107.623474,1629837299437
Fix,GT,37.3704812,-122.0425893,7.120150988042354,17.525873,0.1,107.509674,1629837300437
Fix,GT,37.3704337,-122.0424008,7.01938878324628,17.498875,0.1,107.40018,1629837301437
Fix,GT,37.3703861,-122.0422127,6.9303887850642205,17.463604,0.1,107.61502,1629837302437
Fix,GT,37.3703379,-122.0420251,6.834269987225532,17.45551,0.1,107.89148,1629837303437
Fix,GT,37.3702886,-122.0418378,6.76864318844676,17.44922,0.1,108.33792,1629837304437
Fix,GT,37.3702386,-122.0416513,6.697508193224668,17.42981,0.1,108.64612,1629837305437
Fix,GT,37.3701875,-122.0414655,6.648746003508567,17.385548,0.1,109.07443,1629837306437
Fix,GT,37.3701357,-122.0412806,6.610134990632534,17.325064,0.1,109.2612,1629837307437
Fix,GT,37.3700842,-122.0410958,6.553015983581544,17.296505,0.1,108.85135,1629837308437
Fix,GT,37.3700339,-122.0409111,6.487627191156149,17.268463,0.1,108.613525,1629837309437
Fix,GT,37.3699846,-122.0407264,6.474254188328981,17.230917,0.1,108.1915,1629837310437
Fix,GT,37.3699366,-122.0405416,6.44662699753046,17.164522,0.1,107.764496,1629837311437
Fix,GT,37.3698901,-122.0403582,6.412761984109878,16.934307,0.1,107.53302,1629837312437
Fix,GT,37.369844,-122.0401775,6.3790161678195005,16.666592,0.1,107.696014,1629837313437
Fix,GT,37.3697985,-122.0399998,6.334761982321739,16.402805,0.1,107.72571,1629837314437
Fix,GT,37.369754,-122.039825,6.284388790130615,16.139473,0.1,107.76126,1629837315437
Fix,GT,37.3697095,-122.039653,6.195880989909172,15.890294,0.1,107.89346,1629837316437
Fix,GT,37.3696655,-122.0394839,6.169238204866648,15.592552,0.1,107.88486,1629837317437
Fix,GT,37.3696228,-122.0393187,6.193118826538324,15.191462,0.1,107.71231,1629837318437
Fix,GT,37.3695816,-122.0391569,6.193881173014641,14.890707,0.1,107.522156,1629837319437
Fix,GT,37.3695414,-122.0389983,6.171746192127467,14.596853,0.1,107.500916,1629837320437
Fix,GT,37.3695023,-122.038845,6.144746008634567,13.706691,0.1,107.67868,1629837321437
Fix,GT,37.3694666,-122.0387061,6.114626813232899,12.076897,0.1,107.85434,1629837322437
Fix,GT,37.3694352,-122.038586,6.091,10.36813,0.1,107.9895,1629837323437
Fix,GT,37.3694082,-122.0384824,6.066880985081196,8.939218,0.1,108.07666,1629837324437
Fix,GT,37.3693853,-122.0383945,6.071253808796406,7.5058317,0.1,107.87695,1629837325437
Fix,GT,37.3693662,-122.03832,6.055626994729042,6.2433944,0.1,107.752075,1629837326437
Fix,GT,37.3693513,-122.038262,6.045865027546883,4.517726,0.1,107.70694,1629837327437
Fix,GT,37.369341,-122.038222,6.040880982756614,3.0336444,0.1,107.729095,1629837328437
Fix,GT,37.3693328,-122.0381898,6.022880982398987,3.0738797,0.1,107.69537,1629837329437
Fix,GT,37.3693235,-122.0381533,6.015372826814652,3.7385986,0.1,107.60916,1629837330437
Fix,GT,37.369313,-122.0381118,6.013,3.8341432,0.1,107.53851,1629837331437
Fix,GT,37.3693027,-122.0380712,6.001999821126461,3.703772,0.1,107.443756,1629837332437
Fix,GT,37.3692933,-122.0380332,6.007373006641865,3.232933,0.1,107.36438,1629837333437
Fix,GT,37.3692854,-122.0380025,6.007372827768325,2.471781,0.1,107.58771,1629837334437
Fix,GT,37.3692801,-122.0379816,6.012,1.3445916,0.1,107.761475,1629837335437
Fix,GT,37.369278,-122.0379738,6.009,0.16673468,0.1,107.80701,1629837336437
Fix,GT,37.369278,-122.0379737,6.002626813828945,0.0003730073,0.1,107.81186,1629837337437
Fix,GT,37.369278,-122.0379737,6.0010001788437375,0.0019295103,0.1,107.81094,1629837338437
Fix,GT,37.369278,-122.0379737,6.001,0.001,0.1,107.81146,1629837339437
Fix,GT,37.369278,-122.0379737,6.001,0.001,0.1,107.811584,1629837340437
Fix,GT,37.369278,-122.0379737,6.0010001788437375,0.00074601587,0.1,107.8118,1629837341437
Fix,GT,37.369278,-122.0379737,6.001,0.0013730081,0.1,107.81189,1629837342437
Fix,GT,37.369278,-122.0379737,6.0010001788437375,0.001,0.1,107.811676,1629837343437
Fix,GT,37.369278,-122.0379737,6.0010001788437375,0.0031126668,0.1,107.81116,1629837344437
Fix,GT,37.3692775,-122.0379718,5.994,0.54665434,0.1,107.83417,1629837345437
Fix,GT,37.3692739,-122.0379582,5.987,2.087396,0.1,107.92813,1629837346437
Fix,GT,37.3692655,-122.0379258,5.974626991271973,3.952999,0.1,108.02908,1629837347437
Fix,GT,37.3692518,-122.0378738,5.97,5.7642527,0.1,108.004395,1629837348437
Fix,GT,37.369233,-122.0378001,5.9643730089664455,7.8654637,0.1,107.69745,1629837349437
Fix,GT,37.3692088,-122.0377057,5.952253981828689,9.599109,0.1,107.71634,1629837350437
Fix,GT,37.3691805,-122.0375945,5.92474601840973,11.175636,0.1,107.56769,1629837351437
Fix,GT,37.3691486,-122.0374664,5.919999823570251,12.3638,0.1,107.08423,1629837352437
Fix,GT,37.3691165,-122.0373322,5.903762119889259,12.447091,0.1,106.31076,1629837353437
Fix,GT,37.3690857,-122.0371954,5.890746018886566,12.813393,0.1,105.30194,1629837354437
Fix,GT,37.3690556,-122.0370527,5.857,13.334879,0.1,104.38806,1629837355437
Fix,GT,37.3690262,-122.0369036,5.798642739146947,13.862351,0.1,103.49289,1629837356437
Fix,GT,37.3689973,-122.0367486,5.73888097023964,14.333858,0.1,102.93121,1629837357437
Fix,GT,37.3689679,-122.0365882,5.683134780526161,14.814835,0.1,102.92032,1629837358437
Fix,GT,37.3689374,-122.0364237,5.630119030475616,15.067549,0.1,102.90909,1629837359437
Fix,GT,37.3689069,-122.0362572,5.597881135940552,15.128853,0.1,102.92102,1629837360437
Fix,GT,37.368876,-122.036091,5.575880802690983,15.138497,0.1,103.068756,1629837361437
Fix,GT,37.3688451,-122.0359243,5.562626989483833,15.152517,0.1,102.91766,1629837362437
Fix,GT,37.3688144,-122.035758,5.547626824051141,15.077302,0.1,103.00998,1629837363437
Fix,GT,37.3687837,-122.0355927,5.521372846186161,14.967037,0.1,102.93021,1629837364437
Fix,GT,37.3687541,-122.0354292,5.488761771291495,14.706719,0.1,102.62503,1629837365437
Fix,GT,37.3687251,-122.0352671,5.456253978133201,14.78018,0.1,102.456726,1629837366437
Fix,GT,37.3686958,-122.0351039,5.423253978013992,14.783335,0.1,102.864655,1629837367437
Fix,GT,37.3686655,-122.0349421,5.399015750348568,14.735147,0.1,103.14551,1629837368437
Fix,GT,37.3686339,-122.034778,5.395745861619711,15.196136,0.1,103.882904,1629837369437
Fix,GT,37.3685983,-122.0346094,5.37350795507431,15.667302,0.1,105.33243,1629837370437
Fix,GT,37.3685587,-122.0344397,5.329507795840502,15.594776,0.1,106.8793,1629837371437
Fix,GT,37.3685157,-122.0342726,5.318492045402527,15.511709,0.1,108.4411,1629837372437
Fix,GT,37.3684679,-122.0341094,5.291642739236355,15.293461,0.1,111.13022,1629837373437
Fix,GT,37.3684169,-122.0339507,5.254373011469841,15.001663,0.1,112.09915,1629837374437
Fix,GT,37.3683658,-122.0337957,5.222880965411664,14.715281,0.1,112.747925,1629837375437
Fix,GT,37.3683127,-122.0336444,5.20437301158905,14.669394,0.1,114.333954,1629837376437
Fix,GT,37.3682555,-122.0334945,5.164626988351345,14.684643,0.1,116.1254,1629837377437
Fix,GT,37.3681955,-122.0333479,5.104626836180687,14.4717865,0.1,117.59424,1629837378437
Fix,GT,37.3681342,-122.0332055,5.083119035303593,14.186977,0.1,118.67569,1629837379437
Fix,GT,37.3680721,-122.0330675,5.07649189594388,13.887949,0.1,119.740814,1629837380437
Fix,GT,37.3680091,-122.0329341,5.097746023654938,13.580166,0.1,121.17816,1629837381437
Fix,GT,37.3679445,-122.0328058,5.074999848753214,13.300861,0.1,122.7204,1629837382437
Fix,GT,37.3678788,-122.032682,5.063253976106644,13.028039,0.1,124.074524,1629837383437
Fix,GT,37.3678122,-122.0325626,5.046880963981152,12.75836,0.1,125.379486,1629837384437
Fix,GT,37.367745,-122.0324467,5.020253975987434,12.770191,0.1,126.091034,1629837385437
Fix,GT,37.3676758,-122.0323284,4.99949204826355,13.289883,0.1,126.36917,1629837386437
Fix,GT,37.3676019,-122.0322057,4.993761778891087,13.936495,0.1,127.22406,1629837387437
Fix,GT,37.3675229,-122.0320794,4.986015754073858,14.501826,0.1,128.58911,1629837388437
Fix,GT,37.3674383,-122.0319507,4.9610001478493215,15.038195,0.1,129.97037,1629837389437
Fix,GT,37.3673473,-122.0318209,4.936269877552986,15.578272,0.1,132.31989,1629837390437
Fix,GT,37.3672488,-122.0316913,4.892746170461178,16.097988,0.1,134.17038,1629837391437
Fix,GT,37.3671445,-122.0315611,4.876134938180447,16.552858,0.1,135.55011,1629837392437
Fix,GT,37.3670372,-122.0314311,4.855492049932479,16.495085,0.1,136.06036,1629837393437
Fix,GT,37.3669308,-122.0313032,4.862881107240915,16.21775,0.1,136.10376,1629837394437
Fix,GT,37.3668261,-122.0311778,4.83125411862135,15.927563,0.1,136.39832,1629837395437
Fix,GT,37.3667231,-122.0310548,4.805015754699706,15.639172,0.1,136.2445,1629837396437
Fix,GT,37.3666222,-122.030934,4.775118896335363,15.34683,0.1,136.22797,1629837397437
Fix,GT,37.3665234,-122.0308153,4.7727620647251605,15.049969,0.1,136.0816,1629837398437
Fix,GT,37.3664257,-122.0306977,4.739761780738831,15.053419,0.1,136.0491,1629837399437
Fix,GT,37.3663282,-122.03058,4.7008809607625,14.951963,0.1,135.96222,1629837400437
Fix,GT,37.3662319,-122.0304638,4.663119039595127,14.702004,0.1,135.90118,1629837401437
Fix,GT,37.3661376,-122.0303496,4.628103283971548,14.4194565,0.1,135.8692,1629837402437
Fix,GT,37.3660452,-122.0302376,4.56988109600544,14.141984,0.1,135.87189,1629837403437
Fix,GT,37.3659546,-122.0301276,4.534253837913274,13.829613,0.1,135.74588,1629837404437
Fix,GT,37.365869,-122.0300232,4.527626986443996,12.415659,0.1,135.67502,1629837405437
Fix,GT,37.3657952,-122.0299332,4.511626986265182,10.419536,0.1,135.74567,1629837406437
Fix,GT,37.3657358,-122.0298614,4.501626986145974,7.8412523,0.1,136.00372,1629837407437
Fix,GT,37.3656931,-122.0298102,4.483746027946472,5.2774315,0.1,136.23956,1629837408437
Fix,GT,37.3656671,-122.0297791,4.4746269859075545,2.7525625,0.1,136.25055,1629837409437
Fix,GT,37.3656551,-122.0297647,4.467,1.1348677,0.1,136.2474,1629837410437
Fix,GT,37.3656511,-122.02976,4.465,0.13780902,0.1,136.23822,1629837411437
Fix,GT,37.365651,-122.0297599,4.46,0.0017733831,0.1,136.24054,1629837412437
Fix,GT,37.365651,-122.0297599,4.459,0.0016269856,0.1,136.23941,1629837413437
Fix,GT,37.365651,-122.0297599,4.46,0.001,0.1,136.24042,1629837414437
Fix,GT,37.365651,-122.0297599,4.460000132918358,0.00052752247,0.1,136.24045,1629837415437
Fix,GT,37.365651,-122.0297599,4.460000132918358,0.00037301486,0.1,136.24051,1629837416437
Fix,GT,37.365651,-122.0297599,4.46,0.001,0.1,136.24078,1629837417437
Fix,GT,37.365651,-122.0297599,4.460000132918358,0.0005275228,0.1,136.24097,1629837418437
Fix,GT,37.365651,-122.0297599,4.460000132918358,0.001154508,0.1,136.24069,1629837419437
Fix,GT,37.365651,-122.0297599,4.46,0.001774996,0.1,136.2406,1629837420437
Fix,GT,37.365651,-122.0297599,4.460000132918358,0.0017733809,0.1,136.24088,1629837421437
Fix,GT,37.365651,-122.0297599,4.46,0.002300904,0.1,136.24066,1629837422437
Fix,GT,37.365651,-122.0297599,4.46,0.0017749956,0.1,136.24054,1629837423437
Fix,GT,37.365651,-122.0297599,4.460000132918358,0.0017749956,0.1,136.24066,1629837424437
Fix,GT,37.365651,-122.0297599,4.46,0.00140198,0.1,136.2406,1629837425437
Fix,GT,37.365651,-122.0297599,4.460000132918358,0.0017749955,0.1,136.2406,1629837426437
Fix,GT,37.365651,-122.0297599,4.460000132918358,0.00088668993,0.1,136.24072,1629837427437
Fix,GT,37.365651,-122.0297599,4.46,0.0019826987,0.1,136.24066,1629837428437
Fix,GT,37.365651,-122.0297599,4.459999867081642,0.0019295033,0.1,136.24063,1629837429437
Fix,GT,37.365651,-122.0297599,4.459999867081642,0.0011545082,0.1,136.24042,1629837430437
Fix,GT,37.365651,-122.0297599,4.46,0.001,0.1,136.24042,1629837431437
Fix,GT,37.365651,-122.0297599,4.460000132918358,0.00062698417,0.1,136.24054,1629837432437
Fix,GT,37.365651,-122.0297599,4.46,0.00062698405,0.1,136.24069,1629837433437
Fix,GT,37.365651,-122.0297599,4.462999866992235,0.00062698394,0.1,136.24072,1629837434437
Fix,GT,37.365651,-122.0297599,4.463000133007765,0.00037301617,0.1,136.24084,1629837435437
Fix,GT,37.365651,-122.0297599,4.463000133007765,0.0,0.1,136.241,1629837436437
Fix,GT,37.365651,-122.0297599,4.462999866992235,0.0014142136,0.1,136.24084,1629837437437
Fix,GT,37.3656508,-122.0297596,4.458626983761787,0.2327847,0.1,136.24054,1629837438437
Fix,GT,37.3656464,-122.0297542,4.456000132799149,1.1822181,0.1,136.15936,1629837439437
Fix,GT,37.3656352,-122.0297406,4.451253967285156,2.3225474,0.1,135.9544,1629837440437
Fix,GT,37.365615,-122.0297159,4.449627116233111,4.0013814,0.1,135.60736,1629837441437
Fix,GT,37.3655833,-122.0296764,4.440253967046738,5.9709063,0.1,135.12958,1629837442437
Fix,GT,37.3655383,-122.0296207,4.447254099547863,7.837558,0.1,135.20657,1629837443437
Fix,GT,37.3654846,-122.0295541,4.440254099339247,8.947629,0.1,135.28516,1629837444437
Fix,GT,37.3654234,-122.0294791,4.4433730165958405,10.053436,0.1,135.61621,1629837445437
Fix,GT,37.3653548,-122.029396,4.450762032955885,11.090942,0.1,135.88733,1629837446437
Fix,GT,37.3652803,-122.0293058,4.446237967669964,11.771303,0.1,135.86304,1629837447437
Fix,GT,37.3652027,-122.0292117,4.411253966569901,12.23506,0.1,136.08212,1629837448437
Fix,GT,37.3651204,-122.0291132,4.408253966450691,13.115169,0.1,136.15204,1629837449437
Fix,GT,37.3650316,-122.0290064,4.435237968713045,14.129778,0.1,136.20648,1629837450437
Fix,GT,37.3649372,-122.0288932,4.445999867498874,14.767979,0.1,136.10526,1629837451437
Fix,GT,37.3648413,-122.0287777,4.4303888813257215,14.83061,0.1,136.00864,1629837452437
Fix,GT,37.3647436,-122.0286592,4.37549206829071,15.358131,0.1,135.80182,1629837453437
Fix,GT,37.3646427,-122.0285362,4.3728808181583885,15.87295,0.1,135.59753,1629837454437
Fix,GT,37.3645392,-122.0284106,4.354373017251492,15.962027,0.1,135.9541,1629837455437
Fix,GT,37.3644364,-122.0282864,4.335253836214543,15.7270355,0.1,135.93689,1629837456437
Fix,GT,37.3643353,-122.0281644,4.323880947887898,15.433626,0.1,136.0047,1629837457437
Fix,GT,37.364236,-122.0280447,4.310880947709084,15.137636,0.1,135.99445,1629837458437
Fix,GT,37.3641388,-122.0279272,4.307880819022655,14.837574,0.1,135.93988,1629837459437
Fix,GT,37.3640437,-122.0278118,4.28537288993597,14.553761,0.1,135.94073,1629837460437
Fix,GT,37.3639501,-122.0276991,4.273507929086685,14.279778,0.1,136.08148,1629837461437
Fix,GT,37.3638582,-122.0275884,4.246507928848267,14.008297,0.1,136.06702,1629837462437
Fix,GT,37.363768,-122.0274796,4.222373017907143,13.8304615,0.1,135.98242,1629837463437
Fix,GT,37.3636785,-122.0273715,4.241118927627802,13.767653,0.1,135.953,1629837464437
Fix,GT,37.3635894,-122.0272644,4.253626981914043,13.63797,0.1,136.17407,1629837465437
Fix,GT,37.3635007,-122.0271581,4.2452539635896684,13.63826,0.1,136.1294,1629837466437
Fix,GT,37.3634116,-122.0270509,4.249880945026876,13.736408,0.1,135.96149,1629837467437
Fix,GT,37.3633229,-122.0269435,4.236119055330754,13.708961,0.1,135.87408,1629837468437
Fix,GT,37.363233,-122.0268342,4.178626856863499,14.152964,0.1,135.75204,1629837469437
Fix,GT,37.3631405,-122.026722,4.14988106739521,14.270147,0.1,135.96362,1629837470437
Fix,GT,37.3630484,-122.0266113,4.112507802069187,14.053072,0.1,136.05267,1629837471437
Fix,GT,37.3629572,-122.0265005,4.085746159762143,14.288603,0.1,135.6123,1629837472437
Fix,GT,37.3628612,-122.0263831,4.069865216881037,15.492651,0.1,135.68799,1629837473437
Fix,GT,37.3627576,-122.0262575,4.080880820780992,16.464836,0.1,135.85477,1629837474437
Fix,GT,37.3626485,-122.026125,4.082357173502445,17.154913,0.1,135.76013,1629837475437
Fix,GT,37.3625368,-122.0259897,4.128492077589035,17.235275,0.1,135.97278,1629837476437
Fix,GT,37.3624251,-122.0258553,4.180745914518833,17.14875,0.1,136.12418,1629837477437
Fix,GT,37.3623138,-122.0257216,4.240611011356116,17.056095,0.1,136.11102,1629837478437
Fix,GT,37.3622033,-122.0255891,4.318730197548867,16.90313,0.1,136.17133,1629837479437
Fix,GT,37.3620935,-122.0254574,4.415357178866863,16.852198,0.1,136.08191,1629837480437
Fix,GT,37.3619841,-122.0253255,4.470222279906273,16.845568,0.1,136.02277,1629837481437
Fix,GT,37.3618744,-122.0251939,4.532865100860596,16.897457,0.1,136.24084,1629837482437
Fix,GT,37.3617635,-122.0250615,4.613119198411703,17.11416,0.1,136.24081,1629837483437
Fix,GT,37.3616514,-122.0249266,4.693746040940285,17.39637,0.1,135.9888,1629837484437
Fix,GT,37.3615377,-122.0247895,4.786476247787475,17.60101,0.1,136.00183,1629837485437
Fix,GT,37.361423,-122.0246518,4.873865249186754,17.626347,0.1,136.24564,1629837486437
Fix,GT,37.3613083,-122.0245151,4.92998431417346,17.515577,0.1,136.27213,1629837487437
Fix,GT,37.3611946,-122.0243788,5.017,17.424809,0.1,136.10294,1629837488437
Fix,GT,37.3610819,-122.0242426,5.092626978754997,17.330742,0.1,135.78271,1629837489437
Fix,GT,37.3609706,-122.0241061,5.162357192277908,17.259628,0.1,135.44305,1629837490437
Fix,GT,37.3608598,-122.0239699,5.2373571933507925,17.179358,0.1,135.3977,1629837491437
Fix,GT,37.3607497,-122.0238342,5.305118907004595,17.111244,0.1,135.39761,1629837492437
Fix,GT,37.3606398,-122.0236991,5.392341530293226,17.098913,0.1,135.48914,1629837493437
Fix,GT,37.3605294,-122.023564,5.437491925716401,17.121933,0.1,135.68661,1629837494437
Fix,GT,37.360419,-122.0234299,5.524730055958033,16.997593,0.1,135.7973,1629837495437
Fix,GT,37.3603096,-122.0232967,5.591864944249392,16.840641,0.1,135.72137,1629837496437
Fix,GT,37.3602014,-122.0231649,5.636984178543091,16.69072,0.1,135.7829,1629837497437
Fix,GT,37.3600938,-122.0230345,5.714119237661362,16.527311,0.1,136.00092,1629837498437
Fix,GT,37.3599869,-122.0229058,5.7699843525588514,16.383833,0.1,136.07642,1629837499437
Fix,GT,37.359881,-122.022778,5.841119242161512,16.23564,0.1,135.93588,1629837500437
Fix,GT,37.3597762,-122.0226516,5.942237960278987,16.07997,0.1,136.07434,1629837501437
Fix,GT,37.359672,-122.0225264,5.983745867699385,15.975159,0.1,136.13245,1629837502437
Fix,GT,37.3595684,-122.022402,6.058730231523514,15.899816,0.1,136.0835,1629837503437
Fix,GT,37.3594652,-122.0222774,6.131864933520555,15.890728,0.1,135.91882,1629837504437
Fix,GT,37.3593625,-122.0221528,6.20123814034462,15.885378,0.1,135.78613,1629837505437
Fix,GT,37.3592594,-122.0220276,6.244610979169607,15.96449,0.1,135.84686,1629837506437
Fix,GT,37.3591558,-122.0219021,6.319730237483978,16.029585,0.1,135.81708,1629837507437
Fix,GT,37.3590517,-122.021776,6.381865119338035,16.1041,0.1,135.974,1629837508437
Fix,GT,37.3589471,-122.0216499,6.436730239868163,16.094505,0.1,136.01721,1629837509437
Fix,GT,37.3588424,-122.0215243,6.516238144636155,16.10234,0.1,136.30133,1629837510437
Fix,GT,37.358737,-122.0213989,6.57774604845047,16.168661,0.1,136.37604,1629837511437
Fix,GT,37.3586316,-122.0212725,6.631238146424293,16.229136,0.1,136.05145,1629837512437
Fix,GT,37.358526,-122.021145,6.6706269754767415,16.302181,0.1,135.94977,1629837513437
Fix,GT,37.3584202,-122.0210169,6.729357221782207,16.365526,0.1,135.78174,1629837514437
Fix,GT,37.3583143,-122.0208878,6.787103070557118,16.42951,0.1,135.61261,1629837515437
Fix,GT,37.3582083,-122.0207585,6.846746253967286,16.367826,0.1,135.73193,1629837516437
Fix,GT,37.3581032,-122.0206307,6.8874921004772185,16.11612,0.1,135.7164,1629837517437
Fix,GT,37.358,-122.0205052,6.938119075715542,15.810777,0.1,135.85907,1629837518437
Fix,GT,37.3578985,-122.0203824,6.974999792128801,15.481815,0.1,135.8805,1629837519437
Fix,GT,37.3577996,-122.0202625,6.963626766949892,15.121583,0.1,135.78006,1629837520437
Fix,GT,37.3577027,-122.0201447,6.955372818350792,14.82926,0.1,135.86435,1629837521437
Fix,GT,37.3576074,-122.0200293,6.912999793976546,14.644606,0.1,135.88318,1629837522437
Fix,GT,37.3575122,-122.0199142,6.880626974105836,14.753831,0.1,136.03662,1629837523437
Fix,GT,37.3574157,-122.0197982,6.82013507309556,14.940794,0.1,136.10876,1629837524437
Fix,GT,37.3573179,-122.0196806,6.7272697380781175,15.156647,0.1,136.03384,1629837525437
Fix,GT,37.3572187,-122.0195613,6.629373026311397,15.372932,0.1,136.1261,1629837526437
Fix,GT,37.3571181,-122.0194403,6.508269735097885,15.584018,0.1,135.99402,1629837527437
Fix,GT,37.3570164,-122.0193174,6.40250808429718,15.767549,0.1,135.91095,1629837528437
Fix,GT,37.356914,-122.0191939,6.317523867309093,15.816608,0.1,136.02325,1629837529437
Fix,GT,37.3568109,-122.0190694,6.203269730329513,15.961348,0.1,135.97574,1629837530437
Fix,GT,37.3567068,-122.0189439,6.091777620792389,16.097527,0.1,135.97156,1629837531437
Fix,GT,37.356602,-122.0188174,5.991388809561729,16.210484,0.1,135.91699,1629837532437
Fix,GT,37.3564966,-122.0186897,5.867896874099969,16.33982,0.1,135.81787,1629837533437
Fix,GT,37.3563905,-122.0185609,5.751777442961931,16.42657,0.1,135.90558,1629837534437
Fix,GT,37.3562837,-122.0184322,5.661777443975209,16.486311,0.1,135.98236,1629837535437
Fix,GT,37.3561764,-122.0183028,5.560642915338278,16.565456,0.1,135.96048,1629837536437
Fix,GT,37.3560688,-122.0181731,5.4485235013663775,16.581657,0.1,136.0542,1629837537437
Fix,GT,37.3559609,-122.0180437,5.345523503005504,16.54879,0.1,136.20868,1629837538437
Fix,GT,37.3558532,-122.0179149,5.303761672377586,16.514032,0.1,136.2351,1629837539437
Fix,GT,37.3557457,-122.0177862,5.27725394320488,16.510387,0.1,136.18823,1629837540437
Fix,GT,37.3556382,-122.0176571,5.263373185396195,16.54428,0.1,135.94427,1629837541437
Fix,GT,37.355531,-122.0175267,5.244118929922581,16.625828,0.1,135.60724,1629837542437
Fix,GT,37.3554234,-122.0173956,5.300476346492768,16.683594,0.1,135.73984,1629837543437
Fix,GT,37.3553154,-122.0172643,5.373238174319267,16.706274,0.1,135.76251,1629837544437
Fix,GT,37.3552076,-122.0171333,5.408984233379364,16.582994,0.1,135.83795,1629837545437
Fix,GT,37.355101,-122.0170046,5.457238175749779,16.269062,0.1,136.03693,1629837546437
Fix,GT,37.354996,-122.0168782,5.496492117881775,16.082123,0.1,136.0679,1629837547437
Fix,GT,37.3548921,-122.0167525,5.564611207544804,15.989789,0.1,135.74939,1629837548437
Fix,GT,37.3547896,-122.0166275,5.592611208379269,15.747019,0.1,135.65936,1629837549437
Fix,GT,37.3546887,-122.0165044,5.640491951614618,15.588846,0.1,135.81598,1629837550437
Fix,GT,37.3545873,-122.0163825,5.692984070718289,15.583829,0.1,136.2008,1629837551437
Fix,GT,37.3544857,-122.0162613,5.740238181471825,15.530106,0.1,136.28531,1629837552437
Fix,GT,37.3543852,-122.0161415,5.797984070450068,15.26573,0.1,136.3458,1629837553437
Fix,GT,37.3542869,-122.0160235,5.851865327209234,14.945692,0.1,136.07205,1629837554437
Fix,GT,37.3541911,-122.0159077,5.898238184332848,14.576772,0.1,135.8082,1629837555437
Fix,GT,37.3541008,-122.015797,5.97235745626688,13.355656,0.1,135.29968,1629837556437
Fix,GT,37.3540199,-122.0156957,5.987730488836765,12.038477,0.1,134.65472,1629837557437
Fix,GT,37.3539488,-122.0156036,6.033611218392849,10.651051,0.1,133.57605,1629837558437
Fix,GT,37.3538878,-122.0155211,6.054864976346493,9.250145,0.1,132.5033,1629837559437
Fix,GT,37.3538364,-122.0154495,6.094745881319046,7.801906,0.1,131.78476,1629837560437
Fix,GT,37.3537937,-122.0153886,6.107373213648796,6.5732584,0.1,131.13098,1629837561437
Fix,GT,37.3537584,-122.0153372,6.124373031795025,5.4437704,0.1,130.64764,1629837562437
Fix,GT,37.3537295,-122.0152943,6.151880904257298,4.5693045,0.1,130.14008,1629837563437
Fix,GT,37.3537061,-122.0152595,6.167000183790922,3.432809,0.1,130.0055,1629837564437
Fix,GT,37.35369,-122.0152353,6.172,2.118951,0.1,129.95868,1629837565437
Fix,GT,37.3536821,-122.0152236,6.173,0.61432195,0.1,129.8812,1629837566437
Fix,GT,37.353681,-122.015222,6.167373032808304,0.010807847,0.1,129.87122,1629837567437
Fix,GT,37.353681,-122.0152219,6.168,0.00037303305,0.1,129.87146,1629837568437
Fix,GT,37.353681,-122.0152219,6.168,0.0006269668,0.1,129.87045,1629837569437
Fix,GT,37.353681,-122.0152219,6.1676269664764405,0.00037303354,0.1,129.87119,1629837570437
Fix,GT,37.3536811,-122.0152219,6.165626782506704,0.0,0.1,129.87134,1629837571437
Fix,GT,37.3536811,-122.0152219,6.165000183731317,0.0006269661,0.1,129.87146,1629837572437
Fix,GT,37.3536811,-122.0152219,6.165000183731317,0.0006269659,0.1,129.87164,1629837573437
Fix,GT,37.3536811,-122.0152219,6.164999816268683,0.0012596977,0.1,129.87161,1629837574437
Fix,GT,37.3536811,-122.0152219,6.165,0.0011545159,0.1,129.87152,1629837575437
Fix,GT,37.3536811,-122.0152219,6.165000183731317,0.001,0.1,129.87134,1629837576437
Fix,GT,37.3536811,-122.0152219,6.165,0.001,0.1,129.87134,1629837577437
Fix,GT,37.3536811,-122.0152219,6.164999816268683,0.001,0.1,129.87137,1629837578437
Fix,GT,37.3536811,-122.0152219,6.164999816268683,0.0012596973,0.1,129.8714,1629837579437
Fix,GT,37.3536811,-122.0152219,6.165,0.00037303532,0.1,129.87149,1629837580437
Fix,GT,37.3536811,-122.0152219,6.164999816268683,0.0,0.1,129.87134,1629837581437
Fix,GT,37.3536811,-122.0152219,6.165,0.0,0.1,129.87125,1629837582437
Fix,GT,37.3536811,-122.0152219,6.165,0.0006269642,0.1,129.87143,1629837583437
Fix,GT,37.3536811,-122.0152219,6.164999816268683,0.001,0.1,129.87146,1629837584437
Fix,GT,37.3536811,-122.0152219,6.165,0.0011545167,0.1,129.87164,1629837585437
Fix,GT,37.3536811,-122.0152219,6.165,0.000527553,0.1,129.87152,1629837586437
Fix,GT,37.3536811,-122.0152219,6.164999816268683,0.0006269635,0.1,129.87158,1629837587437
Fix,GT,37.3536811,-122.0152219,6.165,0.001,0.1,129.87149,1629837588437
Fix,GT,37.3536811,-122.0152219,6.165000183731317,0.0014142136,0.1,129.87155,1629837589437
Fix,GT,37.3536811,-122.0152219,6.165,0.0012596967,0.1,129.87183,1629837590437
Fix,GT,37.3536811,-122.0152219,6.165,0.0012596966,0.1,129.87177,1629837591437
Fix,GT,37.3536811,-122.0152219,6.165,0.0003730373,0.1,129.87167,1629837592437
Fix,GT,37.3536811,-122.0152219,6.164999816268683,0.00037303744,0.1,129.87134,1629837593437
Fix,GT,37.3536811,-122.0152219,6.164999816268683,0.001,0.1,129.87143,1629837594437
Fix,GT,37.3536811,-122.0152219,6.165000183731317,0.0012596963,0.1,129.87146,1629837595437
Fix,GT,37.3536811,-122.0152219,6.165,0.0011545174,0.1,129.8713,1629837596437
Fix,GT,37.3536811,-122.0152219,6.165,0.001,0.1,129.87134,1629837597437
Fix,GT,37.3536811,-122.0152219,6.165000183731317,0.0014611006,0.1,129.87091,1629837598437
Fix,GT,37.3536811,-122.0152219,6.165000183731317,0.0011545176,0.1,129.8711,1629837599437
Fix,GT,37.3536811,-122.0152219,6.165,0.0011545176,0.1,129.87122,1629837600437
Fix,GT,37.3536811,-122.0152219,6.165,0.0019294845,0.1,129.8717,1629837601437
Fix,GT,37.3536811,-122.0152219,6.165,0.0012596959,0.1,129.87158,1629837602437
Fix,GT,37.3536811,-122.0152219,6.165000183731317,0.0012596959,0.1,129.87152,1629837603437
Fix,GT,37.3536811,-122.0152219,6.165000183731317,0.001,0.1,129.87128,1629837604437
Fix,GT,37.3536811,-122.0152219,6.165,0.001,0.1,129.87112,1629837605437
Fix,GT,37.3536811,-122.0152219,6.165,0.002,0.1,129.87091,1629837606437
Fix,GT,37.3536811,-122.0152219,6.164999816268683,0.0013730396,0.1,129.87115,1629837607437
Fix,GT,37.3536811,-122.0152219,6.164999816268683,0.0022360678,0.1,129.87134,1629837608437
Fix,GT,37.3536811,-122.0152219,6.164999816268683,0.001,0.1,129.8711,1629837609437
Fix,GT,37.3536811,-122.0152219,6.165,0.0019294836,0.1,129.8711,1629837610437
Fix,GT,37.3536811,-122.0152219,6.164999816268683,0.001,0.1,129.87152,1629837611437
Fix,GT,37.3536811,-122.0152219,6.164999816268683,0.00137304,0.1,129.87146,1629837612437
Fix,GT,37.3536811,-122.0152219,6.164999816268683,0.00052755844,0.1,129.87128,1629837613437
Fix,GT,37.3536811,-122.0152219,6.164999816268683,0.0014611031,0.1,129.87134,1629837614437
Fix,GT,37.3536811,-122.0152219,6.165372856676578,0.002295247,0.1,129.86987,1629837615437
Fix,GT,37.3536795,-122.0152196,6.163373224139214,0.64229596,0.1,129.8357,1629837616437
Fix,GT,37.3536739,-122.0152112,6.168,1.2438009,0.1,129.67993,1629837617437
Fix,GT,37.3536647,-122.015197,6.167626775532961,2.1868386,0.1,129.29456,1629837618437
Fix,GT,37.3536472,-122.0151691,6.171745897620917,4.1755447,0.1,128.46432,1629837619437
Fix,GT,37.3536186,-122.0151228,6.183999815702439,6.2903833,0.1,127.61929,1629837620437
Fix,GT,37.3535776,-122.015055,6.200372856229544,8.75283,0.1,126.92911,1629837621437
Fix,GT,37.3535261,-122.0149683,6.226746082067489,9.915319,0.1,126.606445,1629837622437
Fix,GT,37.3534725,-122.0148778,6.264865018963814,9.961193,0.1,126.48343,1629837623437
Fix,GT,37.3534199,-122.0147882,6.29849197730422,9.758102,0.1,126.22705,1629837624437
Fix,GT,37.3533685,-122.0147,6.318626958668232,9.581231,0.1,126.02606,1629837625437
Fix,GT,37.353318,-122.0146132,6.322626958608628,9.529941,0.1,126.12808,1629837626437
Fix,GT,37.3532663,-122.0145247,6.3592380594313145,10.001783,0.1,126.158936,1629837627437
Fix,GT,37.3532109,-122.0144292,6.400611290574075,10.961203,0.1,125.89426,1629837628437
Fix,GT,37.3531499,-122.0143242,6.46947649884224,12.046801,0.1,125.79486,1629837629437
Fix,GT,37.353085,-122.0142093,6.522238249778747,12.660322,0.1,124.89734,1629837630437
Fix,GT,37.3530209,-122.0140912,6.547745888322591,12.56748,0.1,123.5654,1629837631437
Fix,GT,37.3529609,-122.0139728,6.5884921669960015,12.2991085,0.1,121.60864,1629837632437
Fix,GT,37.3529062,-122.0138539,6.614372844725847,11.983715,0.1,119.09415,1629837633437
Fix,GT,37.3528561,-122.0137363,6.6266112930774685,11.641694,0.1,117.59155,1629837634437
Fix,GT,37.3528094,-122.0136202,6.6553728436231605,11.531563,0.1,116.23102,1629837635437
Fix,GT,37.3527633,-122.0135006,6.676373041987419,12.017795,0.1,115.3577,1629837636437
Fix,GT,37.3527167,-122.0133748,6.671373042047024,12.528246,0.1,114.510925,1629837637437
Fix,GT,37.3526707,-122.0132444,6.701119126319886,12.7239,0.1,113.42636,1629837638437
Fix,GT,37.3526258,-122.0131109,6.726,12.990242,0.1,112.38568,1629837639437
Fix,GT,37.3525816,-122.0129727,6.747611094355583,13.390952,0.1,111.48181,1629837640437
Fix,GT,37.3525379,-122.0128293,6.753865211129188,13.803711,0.1,110.46039,1629837641437
Fix,GT,37.3524959,-122.0126819,6.753253915429115,13.907436,0.1,108.934235,1629837642437
Fix,GT,37.3524571,-122.0125324,6.72164241874218,13.99382,0.1,107.21387,1629837643437
Fix,GT,37.3524222,-122.0123794,6.685150448739529,14.191431,0.1,104.82092,1629837644437
Fix,GT,37.3523923,-122.012224,6.63288107022643,14.081764,0.1,102.77893,1629837645437
Fix,GT,37.3523661,-122.0120699,6.566015659809112,13.849152,0.1,101.61896,1629837646437
Fix,GT,37.3523413,-122.011918,6.487134593844415,13.658466,0.1,101.590576,1629837647437
Fix,GT,37.3523164,-122.0117665,6.399031509071589,13.7609625,0.1,101.510864,1629837648437
Fix,GT,37.3522918,-122.011613,6.250031317710876,14.012815,0.1,101.128204,1629837649437
Fix,GT,37.3522678,-122.011456,6.104777583837509,14.31015,0.1,100.53726,1629837650437
Fix,GT,37.3522448,-122.0112954,5.9466582730412485,14.602514,0.1,99.81195,1629837651437
Fix,GT,37.3522237,-122.011131,5.785912014305591,14.906553,0.1,98.54666,1629837652437
Fix,GT,37.3522054,-122.0109625,5.576046970844269,15.222873,0.1,97.16397,1629837653437
Fix,GT,37.35219,-122.0107909,5.4097772378623485,15.285873,0.1,95.670715,1629837654437
Fix,GT,37.3521784,-122.0106197,5.222420167565346,15.152351,0.1,94.093994,1629837655437
Fix,GT,37.3521705,-122.0104499,5.029404505491256,14.97741,0.1,92.71939,1629837656437
Fix,GT,37.352166,-122.010282,4.834404354989529,14.791546,0.1,91.25037,1629837657437
Fix,GT,37.352164,-122.0101161,4.678404214948416,14.600138,0.1,90.43814,1629837658437
Fix,GT,37.3521638,-122.0099522,4.486642746001483,14.431183,0.1,89.82251,1629837659437
Fix,GT,37.3521639,-122.0097904,4.324658266961575,14.247545,0.1,89.95615,1629837660437
Fix,GT,37.3521638,-122.0096318,4.1547775190472604,13.747284,0.1,89.96713,1629837661437
Fix,GT,37.3521639,-122.0094815,4.025896524369717,12.8231,0.1,89.895325,1629837662437
Fix,GT,37.3521638,-122.0093436,3.930388579905033,11.586061,0.1,89.964386,1629837663437
Fix,GT,37.3521638,-122.0092223,3.8697618554234494,9.812243,0.1,89.95752,1629837664437
Fix,GT,37.3521638,-122.0091226,3.819880755960941,7.8381433,0.1,89.923584,1629837665437
Fix,GT,37.3521636,-122.0090437,3.775507713884116,6.2119474,0.1,89.95349,1629837666437
Fix,GT,37.3521636,-122.0089826,3.7503886956572536,4.6147776,0.1,89.970856,1629837667437
Fix,GT,37.3521634,-122.0089372,3.71225391304493,3.4796524,0.1,90.22522,1629837668437
Fix,GT,37.3521633,-122.0089041,3.6922539130449294,2.3756404,0.1,90.42709,1629837669437
Fix,GT,37.352163,-122.0088835,3.679626846820116,1.2227478,0.1,90.5213,1629837670437
Fix,GT,37.3521629,-122.0088765,3.672000109434128,0.13941032,0.1,90.54523,1629837671437
Fix,GT,37.3521629,-122.0088764,3.666,0.0011545199,0.1,90.55029,1629837672437
Fix,GT,37.3521629,-122.0088764,3.6650001092255113,0.0022539129,0.1,90.5499,1629837673437
Fix,GT,37.3521629,-122.0088764,3.665,0.00037304373,0.1,90.54974,1629837674437
Fix,GT,37.3521629,-122.0088764,3.6649998907744887,0.0,0.1,90.549805,1629837675437
Fix,GT,37.3521629,-122.0088764,3.6649998907744887,0.0009999999,0.1,90.54999,1629837676437
Fix,GT,37.3521629,-122.0088764,3.665000109225512,0.001,0.1,90.55011,1629837677437
Fix,GT,37.3521629,-122.0088764,3.665,0.0003730439,0.1,90.55011,1629837678437
Fix,GT,37.3521629,-122.0088764,3.6650001092255113,0.0006269561,0.1,90.549805,1629837679437
Fix,GT,37.3521629,-122.0088764,3.665,0.00037304402,0.1,90.54965,1629837680437
Fix,GT,37.3521629,-122.0088764,3.665,0.0,0.1,90.54993,1629837681437
Fix,GT,37.3521629,-122.0088764,3.6650001092255113,0.0,0.1,90.55005,1629837682437
Fix,GT,37.3521629,-122.0088764,3.665,0.0,0.1,90.55011,1629837683437
Fix,GT,37.3521629,-122.0088764,3.6650001092255113,0.0,0.1,90.55017,1629837684437
Fix,GT,37.3521629,-122.0088764,3.665,0.0,0.1,90.55005,1629837685437
Fix,GT,37.3521629,-122.0088764,3.665,0.0,0.1,90.54999,1629837686437
Fix,GT,37.3521629,-122.0088764,3.665000109225512,0.0007460886,0.1,90.54993,1629837687437
Fix,GT,37.3521629,-122.0088764,3.665,0.0019826079,0.1,90.55029,1629837688437
Fix,GT,37.3521629,-122.0088764,3.665,0.0023730444,0.1,90.5499,1629837689437
Fix,GT,37.3521629,-122.0088764,3.6650001092255113,0.0017460888,0.1,90.54999,1629837690437
Fix,GT,37.3521629,-122.0088764,3.665,0.001,0.1,90.55011,1629837691437
Fix,GT,37.3521629,-122.0088764,3.665,0.0,0.1,90.55017,1629837692437
Fix,GT,37.3521629,-122.0088764,3.6650001092255113,0.001,0.1,90.55029,1629837693437
Fix,GT,37.3521629,-122.0088764,3.665,0.001,0.1,90.55017,1629837694437
Fix,GT,37.3521629,-122.0088764,3.665,0.00037304463,0.1,90.55011,1629837695437
Fix,GT,37.3521629,-122.0088764,3.6650001092255113,0.001,0.1,90.55005,1629837696437
Fix,GT,37.3521629,-122.0088764,3.6650001092255113,0.0012539108,0.1,90.55002,1629837697437
Fix,GT,37.3521629,-122.0088764,3.665,0.0012539107,0.1,90.550415,1629837698437
Fix,GT,37.3521629,-122.0088764,3.665000109225512,0.0012539106,0.1,90.55011,1629837699437
Fix,GT,37.3521629,-122.0088764,3.665,0.0014019145,0.1,90.54999,1629837700437
Fix,GT,37.3521629,-122.0088764,3.6650001092255113,0.0012539104,0.1,90.55005,1629837701437
Fix,GT,37.3521629,-122.0088764,3.665,0.0016269551,0.1,90.55026,1629837702437
Fix,GT,37.3521629,-122.0088764,3.665,0.001,0.1,90.55023,1629837703437
Fix,GT,37.3521629,-122.0088764,3.6650001092255113,0.00062695506,0.1,90.55002,1629837704437
Fix,GT,37.3521629,-122.0088764,3.665,0.0014019139,0.1,90.55005,1629837705437
Fix,GT,37.3521629,-122.0088764,3.665,0.00225391,0.1,90.55005,1629837706437
Fix,GT,37.3521629,-122.0088764,3.665,0.001,0.1,90.55005,1629837707437
Fix,GT,37.3521629,-122.0088764,3.6650001092255113,0.0,0.1,90.55023,1629837708437
Fix,GT,37.3521629,-122.0088764,3.6650001092255113,0.001626955,0.1,90.549805,1629837709437
Fix,GT,37.3521629,-122.0088764,3.665,0.0016269549,0.1,90.549805,1629837710437
Fix,GT,37.3521629,-122.0088764,3.665,0.002,0.1,90.54974,1629837711437
Fix,GT,37.3521629,-122.0088764,3.665,0.0016269549,0.1,90.54962,1629837712437
Fix,GT,37.3521629,-122.0088764,3.665000109225512,0.00062695483,0.1,90.54968,1629837713437
Fix,GT,37.3521629,-122.0088764,3.665,0.0008866479,0.1,90.55026,1629837714437
Fix,GT,37.3521629,-122.0088764,3.665,0.00037304533,0.1,90.550354,1629837715437
Fix,GT,37.3521629,-122.0088764,3.665000109225512,0.00037304536,0.1,90.55029,1629837716437
Fix,GT,37.3521629,-122.0088764,3.665000109225512,0.00037304536,0.1,90.55029,1629837717437
Fix,GT,37.3521629,-122.0088764,3.665,0.0017814751,0.1,90.55011,1629837718437
Fix,GT,37.3521629,-122.0088764,3.665,0.0008866476,0.1,90.55008,1629837719437
Fix,GT,37.3521629,-122.0088764,3.6650001092255113,0.0003730455,0.1,90.54996,1629837720437
Fix,GT,37.3521629,-122.0088764,3.6649998907744887,0.001,0.1,90.55011,1629837721437
Fix,GT,37.3521629,-122.0088764,3.6649998907744887,0.0006269545,0.1,90.55005,1629837722437
Fix,GT,37.3521629,-122.0088764,3.665626954436302,0.017248435,0.1,90.550476,1629837723437
Fix,GT,37.3521629,-122.0088722,3.659000109046697,0.7667941,0.1,90.542786,1629837724437
Fix,GT,37.3521629,-122.0088596,3.6516270632445815,1.5290179,0.1,90.39151,1629837725437
Fix,GT,37.3521628,-122.0088358,3.640880862951279,2.6958756,0.1,90.08499,1629837726437
Fix,GT,37.352163,-122.0087959,3.621,4.39888,0.1,89.549774,1629837727437
Fix,GT,37.3521633,-122.0087371,3.602507924556732,6.1757393,0.1,89.568634,1629837728437
Fix,GT,37.3521638,-122.0086566,3.563761619091034,8.041275,0.1,89.37097,1629837729437
Fix,GT,37.3521646,-122.00856,3.522761620312929,8.850937,0.1,89.25369,1629837730437
Fix,GT,37.3521654,-122.0084559,3.4637616220712664,9.673176,0.1,89.369446,1629837731437
Fix,GT,37.3521661,-122.0083422,3.403015633583069,10.356398,0.1,89.634766,1629837732437
Fix,GT,37.3521661,-122.0082237,3.3351348702907564,10.60754,0.1,90.07294,1629837733437
Fix,GT,37.3521656,-122.0081047,3.283373143672943,10.490202,0.1,90.1376,1629837734437
Fix,GT,37.3521653,-122.007986,3.232388582348824,10.620338,0.1,90.14813,1629837735437
Fix,GT,37.352165,-122.0078629,3.174015728026629,11.25078,0.1,90.05759,1629837736437
Fix,GT,37.3521648,-122.007732,3.082150311410427,11.946496,0.1,89.97125,1629837737437
Fix,GT,37.3521646,-122.0075933,2.99315049353242,12.618655,0.1,90.04373,1629837738437
Fix,GT,37.3521644,-122.0074472,2.885269454985857,13.269397,0.1,89.96359,1629837739437
Fix,GT,37.3521642,-122.0072951,2.766896412611008,13.611511,0.1,90.0918,1629837740437
Fix,GT,37.3521637,-122.0071404,2.643777278572321,13.744917,0.1,90.13245,1629837741437
Fix,GT,37.3521632,-122.0069859,2.526150479614735,13.631487,0.1,90.037384,1629837742437
Fix,GT,37.3521631,-122.0068332,2.3787774294018744,13.427916,0.1,89.89972,1629837743437
Fix,GT,37.352163,-122.0066827,2.2449121963083742,13.235697,0.1,90.04407,1629837744437
Fix,GT,37.3521629,-122.0065331,2.1132696047723294,13.292158,0.1,89.77225,1629837745437
Fix,GT,37.3521635,-122.0063835,2.0068965557813643,13.200216,0.1,89.701324,1629837746437
Fix,GT,37.3521635,-122.0062356,1.900507873356342,12.985197,0.1,89.93976,1629837747437
Fix,GT,37.3521633,-122.0060909,1.850253908395768,12.5146885,0.1,90.07901,1629837748437
Fix,GT,37.3521629,-122.0059569,1.800880862593651,11.149009,0.1,90.05328,1629837749437
Fix,GT,37.3521627,-122.0058409,1.760388627052307,9.417345,0.1,90.04001,1629837750437
Fix,GT,37.3521626,-122.0057446,1.7352538567185405,7.6400037,0.1,90.12146,1629837751437
Fix,GT,37.3521624,-122.0056683,1.7136269031465057,5.855361,0.1,90.05319,1629837752437
Fix,GT,37.3521623,-122.0056125,1.700627004981041,4.164771,0.1,90.015076,1629837753437
Fix,GT,37.3521623,-122.0055727,1.6950000505149363,2.9199684,0.1,90.04407,1629837754437
Fix,GT,37.3521623,-122.0055456,1.6933730456829073,1.8818371,0.1,90.013916,1629837755437
Fix,GT,37.3521622,-122.0055283,1.693,1.2470157,0.1,89.98291,1629837756437
Fix,GT,37.3521622,-122.0055178,1.694372995167971,0.5973835,0.1,89.95828,1629837757437
Fix,GT,37.3521623,-122.0055148,1.698253858059645,0.018146882,0.1,89.95187,1629837758437
Fix,GT,37.3521622,-122.0055148,1.6950000505149363,0.0014611098,0.1,89.95438,1629837759437
Fix,GT,37.3521623,-122.0055148,1.6949999494850636,0.0017208029,0.1,89.95239,1629837760437
Fix,GT,37.3521623,-122.0055148,1.6950000505149363,0.0014142136,0.1,89.952576,1629837761437
Fix,GT,37.3521623,-122.0055148,1.695,0.0007460912,0.1,89.9527,1629837762437
Fix,GT,37.3521623,-122.0055148,1.6949999494850636,0.001,0.1,89.9527,1629837763437
Fix,GT,37.3521623,-122.0055148,1.695,0.001,0.1,89.95264,1629837764437
Fix,GT,37.3521623,-122.0055148,1.6906269544363022,0.001,0.1,89.95264,1629837765437
Fix,GT,37.3521623,-122.0055148,1.69,0.001253909,0.1,89.95261,1629837766437
Fix,GT,37.3521623,-122.0055148,1.69,0.00088664744,0.1,89.952515,1629837767437
Fix,GT,37.3521623,-122.0055148,1.69,0.002,0.1,89.9527,1629837768437
Fix,GT,37.3521623,-122.0055148,1.6900000503659247,0.00037304562,0.1,89.95276,1629837769437
Fix,GT,37.3521623,-122.0055148,1.6900000503659247,0.0013730457,0.1,89.95282,1629837770437
Fix,GT,37.3521623,-122.0055148,1.6900000503659247,0.0017749583,0.1,89.95285,1629837771437
Fix,GT,37.3521623,-122.0055148,1.6900000503659247,0.0014142136,0.1,89.95294,1629837772437
Fix,GT,37.3521623,-122.0055148,1.6900000503659247,0.0023556496,0.1,89.95294,1629837773437
Fix,GT,37.3521623,-122.0055148,1.6900000503659247,0.0014611098,0.1,89.95282,1629837774437
Fix,GT,37.3521623,-122.0055148,1.69,0.0014142136,0.1,89.95285,1629837775437
Fix,GT,37.3521623,-122.0055148,1.6899999496340752,0.002236068,0.1,89.953064,1629837776437
Fix,GT,37.3521623,-122.0055148,1.6900000503659247,0.0012596931,0.1,89.95291,1629837777437
Fix,GT,37.3521623,-122.0055148,1.6899999496340752,0.0031622776,0.1,89.953064,1629837778437
Fix,GT,37.3521623,-122.0055148,1.6900000503659247,0.0010000002,0.1,89.953064,1629837779437
Fix,GT,37.3521623,-122.0055148,1.6900000503659247,0.0031622776,0.1,89.953156,1629837780437
Fix,GT,37.3521623,-122.0055148,1.6899999496340752,0.001,0.1,89.95285,1629837781437
Fix,GT,37.3521623,-122.0055148,1.6899999496340752,0.0017208029,0.1,89.95279,1629837782437
Fix,GT,37.3521623,-122.0055148,1.69,0.0014142136,0.1,89.95288,1629837783437
Fix,GT,37.3521623,-122.0055148,1.689,0.0014611098,0.1,89.95294,1629837784437
Fix,GT,37.3521623,-122.0055148,1.689,0.0019294787,0.1,89.953064,1629837785437
Fix,GT,37.3521623,-122.0055148,1.690000050365925,0.0019417799,0.1,89.95291,1629837786437
Fix,GT,37.3521623,-122.0055148,1.6890000503361224,0.0026074504,0.1,89.95288,1629837787437
Fix,GT,37.3521623,-122.0055148,1.6886269038915636,0.00260745,0.1,89.95264,1629837788437
Fix,GT,37.3521623,-122.0055148,1.685253858208656,0.08236711,0.1,89.95181,1629837789437
Fix,GT,37.3521623,-122.0055091,1.6769999500215054,1.0130368,0.1,89.906494,1629837790437
Fix,GT,37.3521623,-122.0054911,1.6672539083957671,2.2725246,0.1,89.76956,1629837791437
Fix,GT,37.3521626,-122.0054547,1.6508809117376804,4.204527,0.1,89.521484,1629837792437
Fix,GT,37.352163,-122.0053949,1.6356270029246804,6.5655303,0.1,89.49786,1629837793437
Fix,GT,37.3521634,-122.0053065,1.6171347703933718,9.048326,0.1,89.69214,1629837794437
Fix,GT,37.3521639,-122.005195,1.6123887264728545,10.22447,0.1,89.46823,1629837795437
Fix,GT,37.3521647,-122.0050781,1.5773573671877386,10.547927,0.1,89.31256,1629837796437
Fix,GT,37.352166,-122.0049569,1.5561347697973251,10.94977,0.1,89.08414,1629837797437
Fix,GT,37.3521675,-122.0048289,1.52150781583786,11.754072,0.1,89.071625,1629837798437
Fix,GT,37.352169,-122.0046908,1.5143730911910531,12.743915,0.1,89.10135,1629837799437
Fix,GT,37.3521707,-122.0045414,1.492253952354193,13.738228,0.1,89.02228,1629837800437
Fix,GT,37.3521729,-122.0043806,1.4708809056580066,14.734381,0.1,88.8819,1629837801437
Fix,GT,37.3521752,-122.0042116,1.4312539076805115,15.1196785,0.1,88.98572,1629837802437
Fix,GT,37.3521775,-122.0040397,1.39638867688179,15.290667,0.1,88.878296,1629837803437
Fix,GT,37.3521799,-122.003868,1.3603730461597443,15.138174,0.1,88.901,1629837804437
Fix,GT,37.3521826,-122.0036965,1.2947617615163325,15.345886,0.1,88.68051,1629837805437
Fix,GT,37.352186,-122.0035211,1.1933887123167517,15.757405,0.1,88.30829,1629837806437
Fix,GT,37.3521897,-122.0033409,1.1215391098558902,16.164648,0.1,88.61243,1629837807437
Fix,GT,37.3521925,-122.0031574,1.0446426155269146,16.248505,0.1,88.82556,1629837808437
Fix,GT,37.3521954,-122.0029751,0.9510156015753746,16.02129,0.1,88.61917,1629837809437
Fix,GT,37.3521991,-122.002796,0.8930156033039094,15.740271,0.1,88.46707,1629837810437
Fix,GT,37.3522019,-122.0026199,0.8370156049728393,15.4596195,0.1,88.90448,1629837811437
Fix,GT,37.3522046,-122.0024469,0.7592695147693157,15.207895,0.1,88.686035,1629837812437
Fix,GT,37.3522077,-122.0022767,0.6685077950358391,14.951528,0.1,88.60846,1629837813437
Fix,GT,37.3522104,-122.0021095,0.5978964733183384,14.695407,0.1,88.90018,1629837814437
Fix,GT,37.3522124,-122.001945,0.5015234299302102,14.463522,0.1,88.98874,1629837815437
Fix,GT,37.3522139,-122.001783,0.4035234446525573,14.24883,0.1,89.47449,1629837816437
Fix,GT,37.3522141,-122.0016233,0.252642583489418,14.049791,0.1,89.96942,1629837817437
Fix,GT,37.3522141,-122.001466,0.1660156345665455,13.81954,0.1,89.91165,1629837818437
Fix,GT,37.352214,-122.0013112,0.0480312606692314,13.606052,0.1,89.903015,1629837819437
Fix,GT,37.352214,-122.001159,-0.0916113247871398,13.3901825,0.1,89.780304,1629837820437
Fix,GT,37.3522148,-122.0010092,-0.178730469495058,13.152006,0.1,89.30725,1629837821437
Fix,GT,37.3522168,-122.000862,-0.2744921778142452,12.930807,0.1,88.942444,1629837822437
Fix,GT,37.3522185,-122.0007173,-0.3939687442779541,12.701698,0.1,89.08188,1629837823437
Fix,GT,37.3522203,-122.0005753,-0.4498652460873127,12.460285,0.1,88.8837,1629837824437
Fix,GT,37.3522221,-122.0004377,-0.5482382798194886,11.834671,0.1,89.01453,1629837825437
Fix,GT,37.3522237,-122.0003093,-0.6179843554794788,10.911133,0.1,88.9754,1629837826437
Fix,GT,37.3522254,-122.0001918,-0.7022382594943046,9.846122,0.1,88.78308,1629837827437
Fix,GT,37.3522272,-122.0000877,-0.7702382574677468,8.566885,0.1,88.67938,1629837828437
Fix,GT,37.3522287,-122.0,-0.8322383054494857,6.977438,0.1,88.69208,1629837829437
Fix,GT,37.3522297,-121.9999284,-0.8777460675537586,5.7412314,0.1,88.97818,1629837830437
Fix,GT,37.3522303,-121.9998704,-0.9158652069866656,4.598458,0.1,89.13522,1629837831437
Fix,GT,37.3522307,-121.9998241,-0.9524921875,3.5911834,0.1,89.234436,1629837832437
Fix,GT,37.3522311,-121.9997895,-0.987119111508131,2.583418,0.1,89.288055,1629837833437
Fix,GT,37.3522313,-121.9997646,-1.0083730469942092,1.8647184,0.1,89.32251,1629837834437
Fix,GT,37.3522315,-121.9997459,-1.024,1.5714512,0.1,89.31708,1629837835437
Fix,GT,37.3522316,-121.999729,-1.0343730471730233,1.379384,0.1,89.32257,1629837836437
Fix,GT,37.3522317,-121.9997156,-1.0453730472326277,0.9640076,0.1,89.31653,1629837837437
Fix,GT,37.3522318,-121.9997066,-1.0533730159401893,0.73656684,0.1,89.293304,1629837838437
Fix,GT,37.3522318,-121.9997003,-1.0607460632920265,0.35360783,0.1,89.2688,1629837839437
Fix,GT,37.3522318,-121.9996988,-1.0683730474710464,0.0076113325,0.1,89.26755,1629837840437
Fix,GT,37.3522318,-121.9996986,-1.07,0.0072847796,0.1,89.268585,1629837841437
Fix,GT,37.3522318,-121.9996986,-1.071,0.0014611122,0.1,89.26715,1629837842437
Fix,GT,37.3522318,-121.9996986,-1.0709999680817126,0.0,0.1,89.267944,1629837843437
Fix,GT,37.3522318,-121.9996986,-1.071,0.001,0.1,89.267914,1629837844437
Fix,GT,37.3522318,-121.9996986,-1.071,0.0006269523,0.1,89.2681,1629837845437
Fix,GT,37.3522318,-121.9996986,-1.071,0.0006269522,0.1,89.26828,1629837846437
Fix,GT,37.3522318,-121.9996986,-1.071,0.001,0.1,89.26816,1629837847437
Fix,GT,37.3522318,-121.9996986,-1.0709999680817126,0.000626952,0.1,89.268005,1629837848437
Fix,GT,37.3522318,-121.9996986,-1.071,0.00037304815,0.1,89.26865,1629837849437
Fix,GT,37.3522318,-121.9996986,-1.071,0.00037304827,0.1,89.26843,1629837850437
Fix,GT,37.3522318,-121.9996986,-1.0709999680817126,0.0003730483,0.1,89.26868,1629837851437
Fix,GT,37.3522318,-121.9996986,-1.071,0.0016269517,0.1,89.26886,1629837852437
Fix,GT,37.3522318,-121.9996986,-1.0709999680817126,0.001,0.1,89.26904,1629837853437
Fix,GT,37.3522318,-121.9996986,-1.0710000319182873,0.00062695163,0.1,89.269104,1629837854437
Fix,GT,37.3522318,-121.9996986,-1.071,0.001,0.1,89.26907,1629837855437
Fix,GT,37.3522318,-121.9996986,-1.0709999680817126,0.0014142136,0.1,89.26886,1629837856437
Fix,GT,37.3522318,-121.9996986,-1.0710000319182873,0.0020000003,0.1,89.26874,1629837857437
Fix,GT,37.3522318,-121.9996986,-1.0709999680817126,0.0012596918,0.1,89.268616,1629837858437
Fix,GT,37.3522318,-121.9996986,-1.0709999680817126,0.0019294762,0.1,89.26865,1629837859437
Fix,GT,37.3522318,-121.9996986,-1.071,0.00052757055,0.1,89.26819,1629837860437
Fix,GT,37.3522318,-121.9996986,-1.071,0.0016327405,0.1,89.2681,1629837861437
Fix,GT,37.3522318,-121.9996986,-1.0710000319182873,0.0017749544,0.1,89.26807,1629837862437
Fix,GT,37.3522318,-121.9996986,-1.0710000319182873,0.0017208054,0.1,89.26813,1629837863437
Fix,GT,37.3522318,-121.9996986,-1.0709999680817126,0.00037304888,0.1,89.2681,1629837864437
Fix,GT,37.3522318,-121.9996986,-1.0710000319182873,0.0023556424,0.1,89.26807,1629837865437
Fix,GT,37.3522318,-121.9996986,-1.071,0.002088065,0.1,89.268005,1629837866437
Fix,GT,37.3522318,-121.9996986,-1.071,0.00062695105,0.1,89.2681,1629837867437
Fix,GT,37.3522318,-121.9996986,-1.0709999680817126,0.0024335864,0.1,89.2681,1629837868437
Fix,GT,37.3522318,-121.9996986,-1.0709999680817126,0.000626951,0.1,89.26825,1629837869437
Fix,GT,37.3522318,-121.9996986,-1.0710000319182873,0.0013730491,0.1,89.26843,1629837870437
Fix,GT,37.3522318,-121.9996986,-1.0709999680817126,0.00088664255,0.1,89.2681,1629837871437
Fix,GT,37.3522318,-121.9996986,-1.0710000319182873,0.00088664255,0.1,89.26813,1629837872437
