MessageType,Provider,LatitudeDegrees,LongitudeDegrees,AltitudeMeters,SpeedMps,AccuracyMeters,BearingDegrees,UnixTimeMillis
Fix,GT,37.3958221,-122.1029278,-4.726,0.0,0.1,118.204895,1619733718999
Fix,GT,37.3958221,-122.1029278,-4.726,0.001,0.1,118.20297,1619733719999
Fix,GT,37.3958221,-122.1029278,-4.726,0.0009950255,0.1,118.20123,1619733720999
Fix,GT,37.3958221,-122.1029278,-4.726,0.001,0.1,118.19931,1619733721999
Fix,GT,37.3958221,-122.1029278,-4.726,0.001,0.1,118.197205,1619733722999
Fix,GT,37.3958221,-122.1029278,-4.726,0.0010020656,0.1,118.195404,1619733723999
Fix,GT,37.3958221,-122.1029278,-4.726,0.0014071555,0.1,118.193726,1619733724999
Fix,GT,37.3958221,-122.1029278,-4.726,4.9948694e-06,0.1,118.191895,1619733725999
Fix,GT,37.3958221,-122.1029278,-4.726,0.000995001,0.1,118.19003,1619733726999
Fix,GT,37.3958221,-122.1029278,-4.726,0.0010020724,0.1,118.18768,1619733727999
Fix,GT,37.3958221,-122.1029278,-4.726,0.0014121396,0.1,118.18616,1619733728999
Fix,GT,37.3958221,-122.1029278,-4.72600000440143,0.0014121471,0.1,118.184204,1619733730000
Fix,GT,37.3958221,-122.1029278,-4.725999925175682,0.0014340079,0.1,118.18268,1619733731000
Fix,GT,37.3958221,-122.1029278,-4.726000125440769,0.0014142137,0.1,118.18167,1619733732000
Fix,GT,37.3958221,-122.1029278,-4.72600004621502,0.0014142136,0.1,118.17435,1619733733000
Fix,GT,37.3958221,-122.1029278,-4.725999966989272,0.001,0.099,118.16553,1619733734000
Fix,GT,37.3958221,-122.1029278,-4.725999887763522,0.001,0.1,118.164154,1619733735000
Fix,GT,37.3958221,-122.1029278,-4.72600008802861,0.0019950357,0.1,118.161865,1619733736000
Fix,GT,37.3958221,-122.1029278,-4.7260000088028615,4.9603605e-06,0.1,118.15997,1619733737000
Fix,GT,37.3958221,-122.1029278,-4.725999929577113,0.0,0.1,118.15851,1619733738000
Fix,GT,37.3958221,-122.1029278,-4.725999896566384,0.0009999999,0.1,118.1568,1619733739000
Fix,GT,37.3958221,-122.1029277,-4.726000099032186,0.001,0.1,118.15485,1619733740000
Fix,GT,37.3958221,-122.1029276,-4.726000017605722,0.000995056,0.1,118.15289,1619733741000
Fix,GT,37.3958221,-122.1029276,-4.725999938379974,0.0009999999,0.1,118.151,1619733742000
Fix,GT,37.3958221,-122.1029276,-4.7260000924300405,0.0,0.1,118.149475,1619733743000
Fix,GT,37.3958221,-122.1029276,-4.726000061620027,0.0010000002,0.1,118.147644,1619733744000
Fix,GT,37.3958221,-122.1029276,-4.725999933978543,0.0009950722,0.1,118.145874,1619733745000
Fix,GT,37.3958221,-122.1029276,-4.725999900967814,0.0009950763,0.099,118.14395,1619733746000
Fix,GT,37.3958221,-122.1029276,-4.726000103433616,0.0010000002,0.1,118.14203,1619733747000
Fix,GT,37.3958221,-122.1029276,-4.726000024207868,0.0014142136,0.1,118.14014,1619733748000
Fix,GT,37.3958221,-122.1029276,-4.725999991197139,0.001,0.1,118.13855,1619733749000
Fix,GT,37.3958221,-122.1029276,-4.725999911971391,0.0009950926,0.1,118.13669,1619733750000
Fix,GT,37.3958221,-122.1029276,-4.726000112236477,0.0009950966,0.1,118.134766,1619733751000
Fix,GT,37.3958221,-122.1029276,-4.726000033010728,0.0,0.1,118.13312,1619733752000
Fix,GT,37.3958221,-122.1029276,-4.72599995378498,0.001,0.1,118.131226,1619733753000
Fix,GT,37.3958221,-122.1029276,-4.725999920774251,0.0014142134,0.1,118.1293,1619733754000
Fix,GT,37.3958221,-122.1029276,-4.726000123240054,0.001,0.1,118.12741,1619733755000
Fix,GT,37.3958221,-122.1029276,-4.726000044014305,0.001,0.1,118.12579,1619733756000
Fix,GT,37.3958221,-122.1029276,-4.72599996258784,0.002001152,0.1,118.124115,1619733757000
Fix,GT,37.3958221,-122.1029276,-4.725999883362092,0.002,0.1,118.12219,1619733758000
Fix,GT,37.3958221,-122.1029276,-4.726000085827894,0.0030007905,0.1,118.1203,1619733759000
Fix,GT,37.3958221,-122.1029276,-4.72600000440143,0.0039951336,0.1,118.118286,1619733760000
Fix,GT,37.3958221,-122.1029276,-4.725999925175682,0.0041231057,0.1,118.11633,1619733761000
Fix,GT,37.3958221,-122.1029276,-4.726000127641484,0.0050990195,0.1,118.11456,1619733762000
Fix,GT,37.3958221,-122.1029275,-4.726000048415735,0.0044721365,0.1,118.112854,1619733763000
Fix,GT,37.3958221,-122.1029275,-4.725999966989271,0.004472136,0.099,118.11075,1619733764000
Fix,GT,37.3958221,-122.1029276,-4.724999936192762,0.005,0.1,118.10864,1619733765000
Fix,GT,37.3958221,-122.1029276,-4.72100013629999,0.0036086366,0.1,118.106995,1619733766000
Fix,GT,37.3958221,-122.1029276,-4.721000057158061,0.0031614925,0.1,118.10516,1619733767000
Fix,GT,37.3958221,-122.1029276,-4.720000024177134,0.0041247928,0.1,118.1033,1619733768000
Fix,GT,37.3958221,-122.1029276,-4.719999945051968,0.005006777,0.1,118.10144,1619733769000
Fix,GT,37.3958221,-122.1029276,-4.719999865926802,0.008250909,0.1,118.09943,1619733770000
Fix,GT,37.3958221,-122.1029276,-4.721000068149995,0.013043042,0.1,118.09775,1619733771000
Fix,GT,37.3958221,-122.1029276,-4.722004804766738,0.018119872,0.1,118.09531,1619733772000
Fix,GT,37.3958221,-122.1029273,-4.72500472147949,0.023029994,0.1,118.0647,1619733773000
Fix,GT,37.3958206,-122.1029282,-4.732004919995554,0.7270709,0.1,116.11124,1619733774000
Fix,GT,37.3958134,-122.1029317,-4.724990419303066,1.8051062,0.1,106.72888,1619733775000
Fix,GT,37.3957973,-122.1029356,-4.694980742996093,2.8094761,0.1,96.57904,1619733776000
Fix,GT,37.3957684,-122.1029386,-4.63694733004272,3.732819,0.1,95.82037,1619733777000
Fix,GT,37.3957274,-122.1029467,-4.534942456641235,4.733174,0.1,104.34708,1619733778000
Fix,GT,37.3956781,-122.1029686,-4.461990414826199,5.9746118,0.1,115.01648,1619733779000
Fix,GT,37.3956241,-122.1030035,-4.383971163130366,7.0282345,0.1,118.559326,1619733780000
Fix,GT,37.395566,-122.1030442,-4.2849475091286005,7.54392,0.1,120.07556,1619733781000
Fix,GT,37.3955066,-122.103088,-4.226966590672732,7.5581474,0.1,120.767334,1619733782000
Fix,GT,37.3954511,-122.103127,-4.176976093204692,6.932341,0.1,115.77481,1619733783000
Fix,GT,37.3954031,-122.1031486,-4.086971318608615,5.86513,0.1,99.67923,1619733784000
Fix,GT,37.3953657,-122.103147,-4.014966749280691,5.0119333,0.1,74.57959,1619733785000
Fix,GT,37.3953376,-122.1031265,-4.004004718086216,5.0709877,0.1,48.155212,1619733786000
Fix,GT,37.3953119,-122.1030823,-3.999076039793901,6.307144,0.1,30.210999,1619733787000
Fix,GT,37.3952841,-122.1030136,-4.170094956029207,7.559973,0.1,28.075195,1619733788000
Fix,GT,37.3952501,-122.1029318,-4.40313304579677,8.715624,0.1,28.851715,1619733789000
Fix,GT,37.3952103,-122.1028392,-4.646104344461113,9.901104,0.1,29.209595,1619733790000
Fix,GT,37.3951658,-122.1027369,-4.9261847584010106,10.69945,0.099,29.105988,1619733791000
Fix,GT,37.3951188,-122.1026289,-5.151004825308919,11.1136675,0.1,28.874786,1619733792000
Fix,GT,37.3950713,-122.1025181,-5.103990587288513,11.244288,0.1,28.13684,1619733793000
Fix,GT,37.3950241,-122.1024071,-5.145009372986388,11.069519,0.099,28.413055,1619733794000
Fix,GT,37.3949775,-122.1022985,-5.14895756485872,10.799828,0.1,28.651703,1619733795000
Fix,GT,37.394932,-122.1021942,-4.989914981877432,10.215358,0.099,28.979645,1619733796000
Fix,GT,37.3948899,-122.1020991,-4.823957421754953,8.957903,0.1,29.233826,1619733797000
Fix,GT,37.3948572,-122.1020222,-4.647872844180557,6.7987914,0.1,25.579987,1619733798000
Fix,GT,37.3948404,-122.1019668,-4.516952867014799,5.0425377,0.1,13.69223,1619733799000
Fix,GT,37.3948376,-122.1019238,-4.429014204688371,4.623476,0.1,353.61517,1619733800000
Fix,GT,37.3948482,-122.1018869,-4.3919766067992905,4.972878,0.1,326.01825,1619733801000
Fix,GT,37.3948767,-122.1018527,-4.41000003285706,5.6935043,0.1,306.53677,1619733802000
Fix,GT,37.3949217,-122.1018176,-4.429018723768648,6.669348,0.1,300.46002,1619733803000
Fix,GT,37.3949781,-122.1017791,-4.455004569452256,7.74684,0.1,298.76596,1619733804000
Fix,GT,37.3950425,-122.1017368,-4.495023491410539,8.309846,0.1,298.0476,1619733805000
Fix,GT,37.3951084,-122.1016933,-4.576009401757269,8.130822,0.1,298.56958,1619733806000
Fix,GT,37.3951713,-122.101651,-4.637032646376639,7.598677,0.1,299.26392,1619733807000
Fix,GT,37.3952289,-122.1016104,-4.688009414860047,6.9753733,0.1,300.3639,1619733808000
Fix,GT,37.395278,-122.101574,-4.683990704560652,5.4225554,0.1,301.50098,1619733809000
Fix,GT,37.3953142,-122.1015463,-4.701083805149887,3.9797041,0.099,302.11124,1619733810000
Fix,GT,37.3953396,-122.1015265,-4.757028021593578,2.7299204,0.1,301.44763,1619733811000
Fix,GT,37.3953562,-122.1015143,-4.799023215213791,1.5138718,0.099,300.75836,1619733812000
Fix,GT,37.3953622,-122.10151,-4.812004507631064,0.044223964,0.1,300.76968,1619733813000
Fix,GT,37.3953622,-122.1015102,-4.816999872143846,0.014016915,0.1,300.77893,1619733814000
Fix,GT,37.3953622,-122.1015102,-4.817000078508165,0.007069383,0.1,300.77625,1619733815000
Fix,GT,37.3953622,-122.1015102,-4.8180000448711215,0.0031672893,0.1,300.77533,1619733816000
Fix,GT,37.3953622,-122.1015102,-4.817999964103102,0.001,0.1,300.77438,1619733817000
Fix,GT,37.3953622,-122.1015102,-4.817999881091527,0.0010019181,0.1,300.7733,1619733818000
Fix,GT,37.3953622,-122.1015102,-4.818000087498687,0.002234976,0.1,300.77234,1619733819000
Fix,GT,37.3953622,-122.1015102,-4.818000006730667,0.002,0.1,300.7712,1619733820000
Fix,GT,37.3953622,-122.1015102,-4.817999876604415,0.0020010902,0.1,300.77008,1619733821000
Fix,GT,37.3953622,-122.1015102,-4.818000083011574,0.002996475,0.1,300.7687,1619733822000
Fix,GT,37.3953622,-122.1015102,-4.818000002243556,0.002236068,0.1,300.76743,1619733823000
Fix,GT,37.3953622,-122.1015102,-4.818000112177804,0.0028284271,0.1,300.76605,1619733824000
Fix,GT,37.3953622,-122.1015102,-4.818000029166229,0.0022387942,0.1,300.7649,1619733825000
Fix,GT,37.3953624,-122.1015101,-4.820004593650811,0.08126371,0.1,300.76697,1619733826000
Fix,GT,37.3953656,-122.1015077,-4.826004699672106,0.6733298,0.1,300.7856,1619733827000
Fix,GT,37.3953709,-122.1015038,-4.830000024740584,0.67935985,0.1,300.78326,1619733828000
Fix,GT,37.395375,-122.1015006,-4.830999943759759,0.3094798,0.099,300.7913,1619733829000
Fix,GT,37.3953757,-122.1015001,-4.83299990997836,0.0041207345,0.1,300.79456,1619733830000
Fix,GT,37.3953757,-122.1015001,-4.832995298430324,0.0020010807,0.1,300.79382,1619733831000
Fix,GT,37.3953758,-122.1015002,-4.832000083252788,0.002236068,0.1,300.79303,1619733832000
Fix,GT,37.3953759,-122.1015001,-4.833000049511902,0.084730856,0.1,300.7941,1619733833000
Fix,GT,37.3953778,-122.1014987,-4.834000015757047,0.08348303,0.1,300.7632,1619733834000
Fix,GT,37.3953778,-122.1014986,-4.837000031533651,0.0130091235,0.1,300.76096,1619733835000
Fix,GT,37.3953777,-122.1014985,-4.836999950447119,0.025608331,0.1,300.75732,1619733836000
Fix,GT,37.3953776,-122.1014983,-4.836995315950364,0.037019316,0.099,300.7564,1619733837000
Fix,GT,37.3953775,-122.1014982,-4.83699552498944,0.05360674,0.1,300.755,1619733838000
Fix,GT,37.3953773,-122.1014979,-4.835995447974187,0.073015906,0.1,300.75378,1619733839000
Fix,GT,37.3953774,-122.1014967,-4.8390225684959445,0.27438182,0.099,300.73813,1619733840000
Fix,GT,37.3953863,-122.1014884,-4.884086275782902,1.9853292,0.1,303.12244,1619733841000
Fix,GT,37.3954088,-122.1014622,-5.097045266314876,3.1162682,0.099,322.5506,1619733842000
Fix,GT,37.3954258,-122.1014107,-4.948972927639261,4.263541,0.1,350.42606,1619733843000
Fix,GT,37.3954214,-122.101337,-4.897981966543011,6.7736855,0.1,14.7673645,1619733844000
Fix,GT,37.3953964,-122.101249,-4.864013594229705,9.140044,0.1,21.295135,1619733845000
Fix,GT,37.3953599,-122.1011437,-4.850990916763432,10.593696,0.1,25.079254,1619733846000
Fix,GT,37.3953134,-122.1010288,-4.852999916385394,12.028236,0.1,27.334259,1619733847000
Fix,GT,37.3952597,-122.1009021,-4.833977580604609,13.1717005,0.1,28.162964,1619733848000
Fix,GT,37.3952007,-122.1007679,-4.84002711763233,13.898007,0.1,29.009125,1619733849000
Fix,GT,37.3951379,-122.1006273,-4.963004558296874,14.649031,0.1,29.019531,1619733850000
Fix,GT,37.3950727,-122.1004802,-4.94800451950077,15.141569,0.1,28.752472,1619733851000
Fix,GT,37.3950064,-122.10033,-4.93499544786103,15.128037,0.1,29.032684,1619733852000
Fix,GT,37.3949404,-122.1001824,-4.910009077221155,14.856891,0.1,29.03421,1619733853000
Fix,GT,37.3948765,-122.1000371,-4.891968628544361,14.593016,0.1,28.487366,1619733854000
Fix,GT,37.3948148,-122.099894,-4.833973103163763,14.243099,0.1,28.31894,1619733855000
Fix,GT,37.3947547,-122.0997541,-4.833004379336723,13.912453,0.099,28.225067,1619733856000
Fix,GT,37.3946962,-122.0996172,-4.863990924531594,13.58955,0.1,28.244995,1619733857000
Fix,GT,37.3946387,-122.0994837,-4.857040191284381,13.262297,0.1,28.476196,1619733858000
Fix,GT,37.3945825,-122.0993536,-4.897013336971402,12.949044,0.1,28.37268,1619733859000
Fix,GT,37.3945279,-122.0992267,-4.88700902659772,12.567412,0.1,28.49118,1619733860000
Fix,GT,37.3944745,-122.099104,-4.868968882232904,12.155491,0.1,28.789856,1619733861000
Fix,GT,37.394423,-122.0989861,-4.829986633684952,11.580918,0.1,28.654114,1619733862000
Fix,GT,37.3943753,-122.0988759,-4.825986565001775,10.651405,0.1,28.732635,1619733863000
Fix,GT,37.3943309,-122.0987747,-4.796990987788885,9.845376,0.1,28.948456,1619733864000
Fix,GT,37.3942898,-122.0986809,-4.805955734800548,9.102359,0.1,28.945374,1619733865000
Fix,GT,37.3942514,-122.0985937,-4.784991175932345,8.583121,0.1,28.913239,1619733866000
Fix,GT,37.3942147,-122.0985101,-4.763000015525613,8.355725,0.1,28.839355,1619733867000
Fix,GT,37.3941782,-122.0984267,-4.753991078987717,8.6798,0.1,28.765045,1619733868000
Fix,GT,37.3941391,-122.098337,-4.709973364055157,9.420608,0.099,28.454071,1619733869000
Fix,GT,37.3940973,-122.0982402,-4.6599691678001545,10.114561,0.1,28.345184,1619733870000
Fix,GT,37.394052,-122.0981365,-4.589947042311542,10.772323,0.1,28.856293,1619733871000
Fix,GT,37.3940023,-122.0980266,-4.533995536187198,11.535683,0.1,29.843536,1619733872000
Fix,GT,37.3939477,-122.0979107,-4.513995508950204,12.054725,0.1,31.059692,1619733873000
Fix,GT,37.3938891,-122.0977921,-4.490004511622713,12.589135,0.1,32.079254,1619733874000
Fix,GT,37.3938261,-122.0976686,-4.48199563247664,13.2589245,0.1,32.920563,1619733875000
Fix,GT,37.3937588,-122.0975412,-4.450982377434615,13.702043,0.1,33.934845,1619733876000
Fix,GT,37.3936881,-122.0974125,-4.425986710452009,13.785358,0.1,35.065765,1619733877000
Fix,GT,37.3936139,-122.0972853,-4.395991341374814,13.9119625,0.1,37.040436,1619733878000
Fix,GT,37.3935359,-122.0971602,-4.371991275597364,13.9571,0.1,38.80304,1619733879000
Fix,GT,37.3934554,-122.0970386,-4.348986832126975,13.902852,0.1,40.064148,1619733880000
Fix,GT,37.3933743,-122.0969205,-4.314978021406569,13.563669,0.099,40.88559,1619733881000
Fix,GT,37.3932945,-122.0968079,-4.248956417092587,13.003097,0.1,41.88855,1619733882000
Fix,GT,37.3932175,-122.0967031,-4.124995679810644,12.021024,0.1,42.920532,1619733883000
Fix,GT,37.3931447,-122.0966084,-4.0549738040212535,11.180965,0.099,44.24759,1619733884000
Fix,GT,37.3930754,-122.0965212,-3.983956368311308,10.49615,0.1,45.06845,1619733885000
Fix,GT,37.3930108,-122.096443,-3.926978310059756,9.289414,0.1,46.10373,1619733886000
Fix,GT,37.3929525,-122.0963746,-3.860987002079375,8.360213,0.1,47.004944,1619733887000
Fix,GT,37.3928994,-122.0963143,-3.795973987814039,7.516371,0.1,47.91983,1619733888000
Fix,GT,37.3928506,-122.0962605,-3.72498263066588,6.8867927,0.1,48.54425,1619733889000
Fix,GT,37.3928043,-122.0962106,-3.664969607815147,6.62009,0.1,49.099884,1619733890000
Fix,GT,37.3927595,-122.0961627,-3.60097824395448,6.505228,0.1,49.189697,1619733891000
Fix,GT,37.3927135,-122.0961141,-3.551969758260995,6.8578463,0.1,49.849182,1619733892000
Fix,GT,37.3926636,-122.0960634,-3.460961075775325,7.248081,0.1,51.092163,1619733893000
Fix,GT,37.3926097,-122.0960106,-3.386974018593784,7.8936543,0.1,52.04492,1619733894000
Fix,GT,37.3925501,-122.0959529,-3.3319524345737883,8.877299,0.099,51.68982,1619733895000
Fix,GT,37.3924832,-122.0958878,-3.260982813095674,9.878098,0.1,52.102142,1619733896000
Fix,GT,37.3924084,-122.0958169,-3.188944022737444,10.771672,0.1,52.98654,1619733897000
Fix,GT,37.3923278,-122.0957427,-3.097991411019117,11.315168,0.1,53.65811,1619733898000
Fix,GT,37.3922432,-122.0956661,-3.0129698310596864,11.807312,0.1,54.21173,1619733899000
Fix,GT,37.3921544,-122.0955869,-2.939978464813903,12.359033,0.1,54.358856,1619733900000
Fix,GT,37.3920617,-122.0955043,-2.880948414139915,12.871374,0.1,54.315918,1619733901000
Fix,GT,37.3919666,-122.0954202,-2.7859571898356084,12.866898,0.1,54.881317,1619733902000
Fix,GT,37.3918719,-122.0953375,-2.687875793835614,12.790297,0.1,54.937195,1619733903000
Fix,GT,37.3917777,-122.0952544,-2.575965792063624,12.801197,0.1,54.300873,1619733904000
Fix,GT,37.3916852,-122.0951709,-2.454944396119565,12.53825,0.1,53.5278,1619733905000
Fix,GT,37.3915965,-122.095088,-2.340948706655764,12.132673,0.1,52.164093,1619733906000
Fix,GT,37.3915128,-122.0950052,-2.2419914280474185,11.701735,0.099,50.463074,1619733907000
Fix,GT,37.3914337,-122.0949222,-2.1699872655780057,11.3081665,0.1,49.069763,1619733908000
Fix,GT,37.3913589,-122.0948399,-2.116974479654804,10.916523,0.1,47.803375,1619733909000
Fix,GT,37.3912879,-122.0947587,-2.0289404355599547,10.540793,0.1,46.799133,1619733910000
Fix,GT,37.3912198,-122.094678,-1.976948982889764,10.420757,0.1,45.948364,1619733911000
Fix,GT,37.3911522,-122.0945944,-1.8609405209762044,10.97102,0.1,44.077423,1619733912000
Fix,GT,37.3910825,-122.0945013,-1.7609575610207393,11.812882,0.1,42.096313,1619733913000
Fix,GT,37.3910096,-122.0943994,-1.6789745509843343,12.46912,0.1,41.336792,1619733914000
Fix,GT,37.3909347,-122.0942921,-1.5879618403841742,12.774677,0.1,40.808197,1619733915000
Fix,GT,37.3908602,-122.0941824,-1.5209618677049874,12.89134,0.099,39.57779,1619733916000
Fix,GT,37.3907868,-122.0940692,-1.4369831235734745,13.076669,0.1,38.364532,1619733917000
Fix,GT,37.3907141,-122.0939523,-1.3389577965121715,13.279016,0.1,37.435425,1619733918000
Fix,GT,37.390641,-122.0938318,-1.2419408841598778,13.617773,0.1,36.764404,1619733919000
Fix,GT,37.3905677,-122.0937072,-1.1509747207942418,13.861541,0.1,35.741547,1619733920000
Fix,GT,37.3904951,-122.0935793,-1.0579536767038518,14.056701,0.1,34.594025,1619733921000
Fix,GT,37.3904237,-122.0934476,-1.0119116149884648,14.273084,0.1,33.37216,1619733922000
Fix,GT,37.3903537,-122.093312,-0.9039705675775184,14.468277,0.1,32.17276,1619733923000
Fix,GT,37.3902845,-122.0931728,-0.8829916062569246,14.619538,0.1,31.624268,1619733924000
Fix,GT,37.3902156,-122.0930329,-0.819995804309845,14.488252,0.1,31.443665,1619733925000
Fix,GT,37.3901478,-122.0928943,-0.7789580857781694,14.298146,0.1,31.61267,1619733926000
Fix,GT,37.3900802,-122.0927583,-0.7189246208779514,14.096833,0.099,31.952728,1619733927000
Fix,GT,37.3900131,-122.0926232,-0.6149748922926375,14.168428,0.1,31.72757,1619733928000
Fix,GT,37.3899455,-122.0924866,-0.5359247602354735,14.317484,0.1,31.823486,1619733929000
Fix,GT,37.3898766,-122.0923485,-0.4349582396191545,14.57333,0.1,31.884796,1619733930000
Fix,GT,37.3898065,-122.0922073,-0.3439791391962207,14.93829,0.1,31.352173,1619733931000
Fix,GT,37.3897351,-122.0920616,-0.2959874927238561,15.334731,0.1,31.450256,1619733932000
Fix,GT,37.389662,-122.0919122,-0.226941711013671,15.68457,0.1,31.30542,1619733933000
Fix,GT,37.3895869,-122.091759,-0.1629792020265013,16.130793,0.099,31.546509,1619733934000
Fix,GT,37.3895093,-122.0916026,-0.0569667577925138,16.45146,0.1,31.594604,1619733935000
Fix,GT,37.3894304,-122.0914434,-0.0060041509950533,16.662266,0.1,31.589172,1619733936000
Fix,GT,37.3893511,-122.0912837,0.0170082938666455,16.57808,0.1,31.68866,1619733937000
Fix,GT,37.3892736,-122.0911264,0.0419875698387622,16.150013,0.1,31.481842,1619733938000
Fix,GT,37.3891985,-122.0909734,0.0449668897660449,15.681362,0.1,31.612457,1619733939000
Fix,GT,37.3891251,-122.0908246,0.071004136711359,15.307609,0.1,31.534393,1619733940000
Fix,GT,37.3890534,-122.0906792,0.0690165245165117,14.979649,0.1,31.620087,1619733941000
Fix,GT,37.3889827,-122.090537,0.0709999980824068,14.652871,0.099,31.740997,1619733942000
Fix,GT,37.3889135,-122.0903981,0.0689958763159811,14.349445,0.099,31.871399,1619733943000
Fix,GT,37.3888454,-122.0902622,0.0650082366131246,14.043567,0.1,32.088196,1619733944000
Fix,GT,37.3887784,-122.0901303,0.0849958847071975,13.623831,0.1,32.391296,1619733945000
Fix,GT,37.3887132,-122.0900027,0.1129917771965265,13.184332,0.1,32.545258,1619733946000
Fix,GT,37.3886496,-122.0898798,0.1130123226270079,12.720059,0.1,32.956055,1619733947000
Fix,GT,37.3885879,-122.0897626,0.1150123040536418,12.105844,0.1,33.320312,1619733948000
Fix,GT,37.3885293,-122.089652,0.088008198890835,11.351153,0.1,33.22159,1619733949000
Fix,GT,37.3884749,-122.0895487,0.0879795307670719,10.599184,0.1,32.864197,1619733950000
Fix,GT,37.3884249,-122.0894518,0.1150122674657032,9.919278,0.1,32.663574,1619733951000
Fix,GT,37.3883776,-122.0893603,0.1550367720276117,9.499484,0.1,32.543518,1619733952000
Fix,GT,37.3883321,-122.0892711,0.1779510097773745,9.210745,0.1,32.207672,1619733953000
Fix,GT,37.3882898,-122.0891881,0.105036699950695,8.013671,0.1,32.124176,1619733954000
Fix,GT,37.3882566,-122.0891226,0.1150000026240013,5.757226,0.1,32.21814,1619733955000
Fix,GT,37.388233,-122.0890762,0.1349918635003268,3.926784,0.1,32.395203,1619733956000
Fix,GT,37.388218,-122.0890469,0.1430000041951425,2.238726,0.1,32.437866,1619733957000
Fix,GT,37.3882095,-122.0890303,0.1429837484317831,1.2799617,0.099,32.397095,1619733958000
Fix,GT,37.3882055,-122.0890224,0.1490000038160942,0.38480666,0.1,32.3851,1619733959000
Fix,GT,37.3882045,-122.0890205,0.1520000043176114,0.047935314,0.1,32.375732,1619733960000
Fix,GT,37.3882044,-122.0890202,0.1529999957252293,0.020192387,0.1,32.37195,1619733961000
Fix,GT,37.3882044,-122.0890202,0.1539999977052211,0.0022384645,0.1,32.37152,1619733962000
Fix,GT,37.3882044,-122.0890202,0.1529999982188455,0.0009959583,0.1,32.369904,1619733963000
Fix,GT,37.3882044,-122.0890202,0.1529999971501529,0.001,0.1,32.367584,1619733964000
Fix,GT,37.3882044,-122.0890202,0.1529999976488761,0.0,0.1,32.365173,1619733965000
Fix,GT,37.3882043,-122.08902,0.151999998088926,0.0,0.099,32.363068,1619733966000
Fix,GT,37.3882043,-122.08902,0.152000000141561,0.0,0.1,32.361176,1619733967000
Fix,GT,37.3882043,-122.08902,0.1520000021234154,0.0009959786,0.1,32.35904,1619733968000
Fix,GT,37.3882043,-122.08902,0.1520000025480985,4.01737e-06,0.1,32.356934,1619733969000
Fix,GT,37.3882043,-122.08902,0.1520000030435621,0.0,0.1,32.35504,1619733970000
Fix,GT,37.3882043,-122.08902,0.1520000019818544,0.001,0.1,32.35312,1619733971000
Fix,GT,37.3882043,-122.08902,0.1520000009909272,0.0,0.1,32.351074,1619733972000
Fix,GT,37.3882043,-122.08902,0.1520000014156103,0.001,0.1,32.349457,1619733973000
Fix,GT,37.3882043,-122.08902,0.1520000019110739,3.9971e-06,0.1,32.347534,1619733974000
Fix,GT,37.3882043,-122.08902,0.1520000038929283,0.0,0.1,32.34546,1619733975000
Fix,GT,37.3882043,-122.08902,0.1520000043883919,0.0,0.1,32.343353,1619733976000
Fix,GT,37.3882043,-122.08902,0.151999995753169,0.0,0.1,32.341278,1619733977000
Fix,GT,37.3882043,-122.08902,0.1519999962486326,0.0014125647,0.1,32.33911,1619733978000
Fix,GT,37.3882043,-122.08902,0.1519999967440962,0.001,0.1,32.33725,1619733979000
Fix,GT,37.3882043,-122.08902,0.1520000002123415,3.97283e-06,0.1,32.335022,1619733980000
Fix,GT,37.3882043,-122.08902,0.1520000037513673,0.0014125697,0.1,32.332886,1619733981000
Fix,GT,37.3882043,-122.08902,0.1520000042468309,3.9647502e-06,0.1,32.33069,1619733982000
Fix,GT,37.3882043,-122.08902,0.1520000031851232,0.0022272116,0.1,32.328857,1619733983000
Fix,GT,37.3882043,-122.08902,0.151999997664243,5.5955625e-06,0.1,32.327026,1619733984000
Fix,GT,37.3882043,-122.08902,0.151999998088926,0.001,0.1,32.32486,1619733985000
Fix,GT,37.3882043,-122.08902,0.152000000141561,5.5841215e-06,0.1,32.322937,1619733986000
Fix,GT,37.3882043,-122.08902,0.1520000021234154,0.0,0.1,32.32086,1619733987000
Fix,GT,37.3882043,-122.08902,0.1520000041052699,0.0014142136,0.1,32.318542,1619733988000
Fix,GT,37.3882043,-122.08902,0.1519999970272183,0.0,0.1,32.316864,1619733989000
Fix,GT,37.3882043,-122.08902,0.1519999990090727,0.0019960678,0.1,32.314575,1619733990000
Fix,GT,37.3882043,-122.08902,0.1520000009909272,0.001,0.1,32.3125,1619733991000
Fix,GT,37.3882043,-122.08902,0.1520000014863908,5.5498267e-06,0.1,32.310608,1619733992000
Fix,GT,37.3882043,-122.08902,0.1520000034682452,0.0009960798,0.1,32.30844,1619733993000
Fix,GT,37.3882043,-122.08902,0.1519999963901937,0.001,0.1,32.306427,1619733994000
Fix,GT,37.3882043,-122.08902,0.1519999984428286,0.0009960878,0.1,32.304382,1619733995000
Fix,GT,37.3882043,-122.08902,0.1520000019110739,0.001,0.1,32.30243,1619733996000
Fix,GT,37.3882043,-122.08902,0.1520000039283186,0.001,0.1,32.300323,1619733997000
Fix,GT,37.3882043,-122.08902,0.1520000043883919,0.001,0.1,32.29828,1619733998000
Fix,GT,37.3882043,-122.08902,0.1519999957885593,0.0014125998,0.1,32.296204,1619733999000
Fix,GT,37.3882043,-122.08902,0.151999997805804,0.0010016122,0.1,32.29419,1619734000000
Fix,GT,37.3882043,-122.08902,0.1519999997876584,0.002236068,0.1,32.292267,1619734001000
Fix,GT,37.3882043,-122.08902,0.1520000017695129,0.0028284271,0.1,32.2901,1619734002000
Fix,GT,37.3882043,-122.08902,0.1520000022649765,0.0022396618,0.1,32.28784,1619734003000
Fix,GT,37.3882043,-122.08902,0.1520000027250498,0.002238364,0.1,32.28589,1619734004000
Fix,GT,37.3882043,-122.08902,0.1519999956823885,0.003603835,0.1,32.283264,1619734005000
Fix,GT,37.3882043,-122.08902,0.151999999186024,0.004121104,0.1,32.282227,1619734006000
Fix,GT,37.3882043,-122.08902,0.1510000011601951,0.0020095517,0.1,32.279846,1619734007000
Fix,GT,37.3882043,-122.08902,0.151000003129011,0.0010038597,0.1,32.277863,1619734008000
Fix,GT,37.3882038,-122.0890191,0.1480038591593038,0.24017605,0.1,32.277252,1619734009000
Fix,GT,37.3882033,-122.089018,0.1489961450649425,0.03831489,0.099,32.273926,1619734010000
Fix,GT,37.388203,-122.0890175,0.1489999971205834,0.052927405,0.1,32.27292,1619734011000
Fix,GT,37.388203,-122.0890175,0.1480000005513429,0.0022274738,0.1,32.273224,1619734012000
Fix,GT,37.388203,-122.0890175,0.1480000009993091,0.0009961607,0.1,32.267975,1619734013000
Fix,GT,37.388203,-122.0890175,0.1480000029634684,0.0031622776,0.1,32.265778,1619734014000
Fix,GT,37.388203,-122.0890175,0.1479999975534155,0.0036055513,0.1,32.263367,1619734015000
Fix,GT,37.388203,-122.0890175,0.1479999994831159,0.0049961726,0.1,32.260742,1619734016000
Fix,GT,37.388203,-122.0890174,0.1490000029141083,0.0058257566,0.1,32.258728,1619734017000
Fix,GT,37.388203,-122.0890174,0.1490038226498291,0.0049979836,0.1,32.257263,1619734018000
Fix,GT,37.3882026,-122.0890166,0.1479999979669228,0.30234256,0.1,32.253296,1619734019000
Fix,GT,37.3881992,-122.0890099,0.1460038110779132,1.2094187,0.1,32.195465,1619734020000
Fix,GT,37.3881905,-122.088993,0.1530038090636953,2.3354409,0.1,32.121033,1619734021000
Fix,GT,37.3881767,-122.0889656,0.1570000040209852,3.433158,0.1,31.829163,1619734022000
Fix,GT,37.3881573,-122.0889268,0.1740151943755336,4.716317,0.1,31.666504,1619734023000
Fix,GT,37.3881311,-122.088874,0.1739924103450029,6.329406,0.1,31.381134,1619734024000
Fix,GT,37.3880977,-122.0888054,0.1600227483985945,8.012548,0.1,30.568817,1619734025000
Fix,GT,37.3880582,-122.0887225,0.1840075700213201,9.102624,0.099,30.464722,1619734026000
Fix,GT,37.3880132,-122.0886291,0.1790037815030664,10.188463,0.099,31.151215,1619734027000
Fix,GT,37.3879623,-122.0885258,0.1960151165239513,11.240559,0.1,31.476868,1619734028000
Fix,GT,37.3879069,-122.0884144,0.2280453046225011,11.978204,0.1,31.548828,1619734029000
Fix,GT,37.3878487,-122.0882972,0.272996224232018,12.419522,0.1,31.330719,1619734030000
Fix,GT,37.3877905,-122.088179,0.3180112986811437,12.173386,0.1,31.112915,1619734031000
Fix,GT,37.3877344,-122.088063,0.3490301081764045,11.927051,0.1,30.113434,1619734032000
Fix,GT,37.3876812,-122.0879482,0.387992471578531,11.691949,0.1,29.130219,1619734033000
Fix,GT,37.3876295,-122.0878335,0.388999994022306,11.669091,0.1,29.000092,1619734034000
Fix,GT,37.3875773,-122.0877195,0.4109924978031776,11.483245,0.1,29.822754,1619734035000
Fix,GT,37.3875249,-122.0876082,0.4940337296626531,11.48701,0.1,30.204956,1619734036000
Fix,GT,37.3874711,-122.0874952,0.5410037286942825,11.74719,0.099,30.551483,1619734037000
Fix,GT,37.3874165,-122.0873817,0.5580074756108225,11.767441,0.1,30.67456,1619734038000
Fix,GT,37.387361,-122.0872674,0.5910037348829209,11.864292,0.1,31.168884,1619734039000
Fix,GT,37.3873044,-122.087153,0.6200074693770148,11.8586445,0.1,31.471344,1619734040000
Fix,GT,37.3872484,-122.0870405,0.6430111899189652,11.65282,0.1,31.435547,1619734041000
Fix,GT,37.3871933,-122.0869298,0.6869925485621208,11.445596,0.1,31.402039,1619734042000
Fix,GT,37.3871395,-122.0868209,0.7440185941986274,11.249432,0.1,31.042633,1619734043000
Fix,GT,37.387087,-122.0867129,0.7790520127972123,11.3004675,0.1,30.841553,1619734044000
Fix,GT,37.3870331,-122.0866024,0.8460074454955757,11.618483,0.1,31.104034,1619734045000
Fix,GT,37.386977,-122.0864889,0.8669999941459391,11.99838,0.1,31.548218,1619734046000
Fix,GT,37.3869186,-122.0863721,0.8660111119539943,12.417949,0.1,31.585968,1619734047000
Fix,GT,37.3868593,-122.0862534,0.8819889314551838,12.3276,0.1,31.546967,1619734048000
Fix,GT,37.3868012,-122.0861367,0.8709962910958565,12.026265,0.099,31.417389,1619734049000
Fix,GT,37.3867448,-122.0860233,0.8850000053574332,11.632643,0.1,31.473175,1619734050000
Fix,GT,37.38669,-122.0859136,0.904011075349059,11.292496,0.1,31.623901,1619734051000
Fix,GT,37.3866366,-122.0858072,0.9300110299768858,10.966543,0.1,31.60785,1619734052000
Fix,GT,37.3865851,-122.0857037,0.9360000054482372,10.658523,0.1,31.32074,1619734053000
Fix,GT,37.3865352,-122.0856028,0.9319889864861034,10.420213,0.1,31.212524,1619734054000
Fix,GT,37.3864858,-122.0855028,0.9060036899198312,10.376023,0.1,31.29535,1619734055000
Fix,GT,37.3864366,-122.0854037,0.9170036526126788,10.26881,0.1,31.39566,1619734056000
Fix,GT,37.3863881,-122.0853054,0.9230073315913324,10.169485,0.1,31.411194,1619734057000
Fix,GT,37.3863402,-122.0852087,0.924000020007603,10.008651,0.1,31.395355,1619734058000
Fix,GT,37.3862935,-122.0851135,0.9349999862851108,9.816092,0.099,31.243896,1619734059000
Fix,GT,37.3862474,-122.08502,0.9389963581506164,9.610554,0.1,31.276855,1619734060000
Fix,GT,37.3862028,-122.0849297,0.9419890831382944,9.148783,0.1,31.302032,1619734061000
Fix,GT,37.3861618,-122.0848463,0.932996344447136,8.12922,0.1,31.270447,1619734062000
Fix,GT,37.3861263,-122.084774,0.9229963699015789,6.909719,0.1,31.082672,1619734063000
Fix,GT,37.3860968,-122.0847135,0.9079891184985172,5.6533666,0.1,31.040558,1619734064000
Fix,GT,37.3860733,-122.0846654,0.8889999776454642,4.337893,0.1,31.063202,1619734065000
Fix,GT,37.3860548,-122.0846277,0.8919999892003835,3.4773839,0.1,31.082153,1619734066000
Fix,GT,37.386041,-122.0845995,0.9030036223009228,2.4174612,0.1,31.060547,1619734067000
Fix,GT,37.3860313,-122.0845797,0.9030000128250104,1.7813004,0.1,31.045807,1619734068000
Fix,GT,37.386024,-122.0845649,0.9030000245987904,1.2966361,0.1,31.031403,1619734069000
Fix,GT,37.3860188,-122.0845544,0.9039999825302512,0.9983528,0.099,31.058838,1619734070000
Fix,GT,37.3860145,-122.0845458,0.9070000035900156,0.77636087,0.1,31.04956,1619734071000
Fix,GT,37.3860115,-122.0845397,0.9089964232705534,0.48115322,0.1,31.033813,1619734072000
Fix,GT,37.3860096,-122.0845359,0.9099999913130888,0.36717474,0.1,31.02768,1619734073000
Fix,GT,37.3860078,-122.0845323,0.9110000214229804,0.42859507,0.1,31.030548,1619734074000
Fix,GT,37.3860059,-122.0845284,0.9119999974519016,0.4254327,0.099,31.029388,1619734075000
Fix,GT,37.3860041,-122.0845245,0.9129964150525628,0.28374296,0.1,31.026642,1619734076000
Fix,GT,37.3860037,-122.0845233,0.9089999760843348,0.0076077846,0.1,31.023987,1619734077000
Fix,GT,37.3860037,-122.0845233,0.9090000061376486,0.003596231,0.1,31.022705,1619734078000
Fix,GT,37.3860037,-122.0845233,0.9090000182013028,0.0010014802,0.1,31.019867,1619734079000
Fix,GT,37.3860037,-122.0845233,0.9089999849733432,0.0,0.1,31.016876,1619734080000
Fix,GT,37.3860037,-122.0845233,0.9090000059260056,0.001,0.1,31.01419,1619734081000
Fix,GT,37.3860037,-122.0845233,0.9089999729096888,3.5609903e-06,0.1,31.011261,1619734082000
Fix,GT,37.3860037,-122.0845233,0.9089999938623516,0.0,0.1,31.008514,1619734083000
Fix,GT,37.3860037,-122.0845233,0.9089999966137112,0.001,0.1,31.005829,1619734084000
Fix,GT,37.3860037,-122.0845233,0.908999999576714,0.0010014701,0.1,31.003052,1619734085000
Fix,GT,37.3860037,-122.0845233,0.9090000205293765,0.001,0.1,31.000366,1619734086000
Fix,GT,37.3860037,-122.0845233,0.9089999782007654,0.001,0.1,30.997559,1619734087000
Fix,GT,37.3860037,-122.0845233,0.9089999993650708,0.001,0.1,30.99469,1619734088000
Fix,GT,37.3860037,-122.0845233,0.9090000203177332,0.0009964673,0.1,30.992096,1619734089000
Fix,GT,37.3860037,-122.0845233,0.908999996190425,0.0020035289,0.1,30.98944,1619734090000
Fix,GT,37.3860037,-122.0845233,0.9090000171430876,0.0029944107,0.1,30.985626,1619734091000
Fix,GT,37.3860037,-122.0845234,0.9089999750261196,0.0030035207,0.1,30.98291,1619734092000
Fix,GT,37.3860037,-122.0845234,0.9089999868781308,0.002239325,0.1,30.980255,1619734093000
Fix,GT,37.3860037,-122.0845234,0.9090000169314444,0.004,0.1,30.977692,1619734094000
Fix,GT,37.3860037,-122.0845234,0.908000001902692,0.0041231057,0.1,30.974884,1619734095000
Fix,GT,37.3860037,-122.0845234,0.9080000230437144,0.0050968225,0.1,30.972382,1619734096000
Fix,GT,37.3860034,-122.0845228,0.9049999989464416,0.15350938,0.1,30.97174,1619734097000
Fix,GT,37.3860032,-122.0845223,0.905999974897597,0.0053811697,0.099,30.967255,1619734098000
Fix,GT,37.3860032,-122.0845222,0.90500000484637,0.005000346,0.1,30.965546,1619734099000
Fix,GT,37.3860032,-122.0845222,0.9050000259175432,0.0041235224,0.1,30.963196,1619734100000
Fix,GT,37.3860032,-122.0845222,0.9049999928358012,0.005000345,0.1,30.958923,1619734101000
Fix,GT,37.3860032,-122.0845222,0.9050000136962626,0.0028284271,0.1,30.955505,1619734102000
Fix,GT,37.3860032,-122.0845222,0.9049999808252324,0.0022360678,0.099,30.952484,1619734103000
Fix,GT,37.3860032,-122.0845222,0.905000001685694,0.0014127753,0.1,30.950562,1619734104000
Fix,GT,37.3860032,-122.0845222,0.9050000225461554,0.001,0.1,30.947235,1619734105000
Fix,GT,37.3860032,-122.0845222,0.9049999894644134,0.003000562,0.1,30.944153,1619734106000
Fix,GT,37.3860032,-122.0845222,0.9050000014749822,0.0063245553,0.1,30.94159,1619734107000
Fix,GT,37.3860032,-122.0845222,0.9049999774538446,0.009432289,0.099,30.937958,1619734108000
Fix,GT,37.3860032,-122.0845222,0.9049999892537016,0.014764822,0.1,30.935364,1619734109000
Fix,GT,37.3860032,-122.0845222,0.9059965621961746,0.04002155,0.1,30.930817,1619734110000
Fix,GT,37.3860006,-122.0845173,0.8970034660291858,1.3326548,0.1,30.93628,1619734111000
Fix,GT,37.3859896,-122.0844952,0.9009999800708612,3.2471097,0.1,30.93811,1619734112000
Fix,GT,37.3859694,-122.0844542,0.9050034459433518,5.2125382,0.1,31.150543,1619734113000
Fix,GT,37.3859393,-122.0843934,0.9100068409256638,7.489424,0.1,31.158081,1619734114000
Fix,GT,37.385899,-122.0843117,0.9310034258123489,9.308783,0.1,31.158142,1619734115000
Fix,GT,37.385853,-122.0842181,0.9239965493632482,10.110659,0.1,30.675781,1619734116000
Fix,GT,37.3858032,-122.084116,0.8999828953202814,11.076802,0.1,31.210968,1619734117000
Fix,GT,37.3857481,-122.0840055,0.9149863614984788,11.951035,0.1,31.636139,1619734118000
Fix,GT,37.3856888,-122.0838875,0.9200170603068546,12.754824,0.1,31.408478,1619734119000
Fix,GT,37.3856262,-122.0837613,0.9359999853987246,13.59327,0.1,30.860504,1619734120000
Fix,GT,37.3855606,-122.0836268,0.9560170167509932,14.320259,0.1,30.75241,1619734121000
Fix,GT,37.3854921,-122.0834861,0.9830135709000752,14.857115,0.1,30.812653,1619734122000
Fix,GT,37.3854213,-122.0833428,1.0360305560796987,14.830693,0.1,31.371033,1619734123000
Fix,GT,37.3853504,-122.083201,1.0810101939048615,14.85411,0.1,31.326721,1619734124000
Fix,GT,37.3852794,-122.083059,1.1200237040107603,14.757336,0.1,31.350952,1619734125000
Fix,GT,37.3852097,-122.0829187,1.1640135627947747,14.569023,0.1,30.873291,1619734126000
Fix,GT,37.385141,-122.0827785,1.195016883425415,14.680828,0.1,30.953888,1619734127000
Fix,GT,37.3850703,-122.0826357,1.2259966371853368,15.066436,0.1,31.110992,1619734128000
Fix,GT,37.384998,-122.08249,1.2660067105414343,15.27416,0.1,31.17395,1619734129000
Fix,GT,37.3849254,-122.082344,1.3009797777996863,15.119738,0.1,31.183044,1619734130000
Fix,GT,37.384854,-122.0822004,1.3169899228122084,14.83408,0.1,31.105682,1619734131000
Fix,GT,37.3847837,-122.0820591,1.355993312847335,14.656029,0.1,31.14038,1619734132000
Fix,GT,37.3847141,-122.0819193,1.3719966403471773,14.531315,0.1,31.015259,1619734133000
Fix,GT,37.3846453,-122.081781,1.400003310082713,14.335881,0.1,31.211365,1619734134000
Fix,GT,37.3845769,-122.0816449,1.471026770009659,14.128259,0.1,31.2724,1619734135000
Fix,GT,37.3845099,-122.0815106,1.5440301322124432,14.006,0.1,31.129791,1619734136000
Fix,GT,37.3844433,-122.0813762,1.6300634326613508,14.074581,0.1,30.728363,1619734137000
Fix,GT,37.3843767,-122.0812404,1.6700000388827174,14.216422,0.1,30.725037,1619734138000
Fix,GT,37.3843081,-122.0811017,1.6650232973527164,14.668259,0.1,31.022217,1619734139000
Fix,GT,37.3842369,-122.0809591,1.7560099995408671,15.119662,0.1,31.322876,1619734140000
Fix,GT,37.3841632,-122.0808126,1.826983335056342,15.5595455,0.1,31.345398,1619734141000
Fix,GT,37.3840878,-122.0806618,1.8590165898073463,15.954852,0.1,31.200806,1619734142000
Fix,GT,37.3840111,-122.0805078,1.9120231684646567,16.237732,0.1,31.177032,1619734143000
Fix,GT,37.383933,-122.0803503,1.962036429816392,16.551348,0.1,30.967346,1619734144000
Fix,GT,37.3838548,-122.0801909,2.00901658880664,16.65505,0.1,30.787994,1619734145000
Fix,GT,37.3837768,-122.0800289,2.089023100718856,16.881884,0.1,29.89386,1619734146000
Fix,GT,37.3836992,-122.0798617,2.187016545601189,17.464846,0.1,29.125916,1619734147000
Fix,GT,37.3836194,-122.0796865,2.309065847703024,18.013918,0.1,29.04718,1619734148000
Fix,GT,37.3835386,-122.0795104,2.437029642983805,17.93559,0.1,29.418701,1619734149000
Fix,GT,37.3834582,-122.0793362,2.5390097925756128,17.686153,0.1,29.459747,1619734150000
Fix,GT,37.3833792,-122.0791652,2.6390262543298304,17.246391,0.1,29.596313,1619734151000
Fix,GT,37.3833021,-122.0790009,2.753003223244567,16.436502,0.1,30.005585,1619734152000
Fix,GT,37.3832304,-122.078847,2.860042611494427,15.229996,0.1,28.57901,1619734153000
Fix,GT,37.3831682,-122.0787039,3.006996657627635,13.756176,0.1,27.150085,1619734154000
Fix,GT,37.3831139,-122.0785729,3.091065367585048,12.508689,0.1,26.385468,1619734155000
Fix,GT,37.3830649,-122.0784545,3.173996808783384,10.890186,0.1,27.718689,1619734156000
Fix,GT,37.3830199,-122.0783529,3.229019540499197,9.633585,0.1,28.835632,1619734157000
Fix,GT,37.38298,-122.0782656,3.28201959175989,8.109164,0.1,29.590057,1619734158000
Fix,GT,37.3829461,-122.0781939,3.324006477668416,6.586804,0.1,30.400177,1619734159000
Fix,GT,37.3829179,-122.0781362,3.3840163215070493,5.352515,0.1,31.216125,1619734160000
Fix,GT,37.3828945,-122.0780896,3.410006449038163,4.441871,0.1,31.400513,1619734161000
Fix,GT,37.3828755,-122.0780516,3.432006554231048,3.4533694,0.1,31.490906,1619734162000
Fix,GT,37.3828614,-122.0780236,3.4490031865481288,2.4560838,0.1,31.582275,1619734163000
Fix,GT,37.3828513,-122.0780037,3.4630000661159865,1.8487123,0.1,31.651855,1619734164000
Fix,GT,37.3828433,-122.077988,3.4750063926784787,1.4013306,0.1,31.59552,1619734165000
Fix,GT,37.3828383,-122.0779781,3.48400327700912,0.6724697,0.1,31.632263,1619734166000
Fix,GT,37.3828363,-122.0779742,3.4859999277633618,0.31148815,0.099,31.640045,1619734167000
Fix,GT,37.3828348,-122.0779714,3.49000322272582,0.25406066,0.1,31.653442,1619734168000
Fix,GT,37.3828339,-122.0779695,3.49400008867262,0.143627,0.1,31.651276,1619734169000
Fix,GT,37.3828336,-122.0779689,3.4949999959312845,0.03298048,0.1,31.64856,1619734170000
Fix,GT,37.3828336,-122.0779689,3.495000077305595,0.003161758,0.1,31.645233,1619734171000
Fix,GT,37.3828336,-122.0779689,3.4949999495479283,3.1984903e-06,0.1,31.640198,1619734172000
Fix,GT,37.3828336,-122.0779689,3.495000065099448,0.0014128904,0.1,31.635315,1619734173000
Fix,GT,37.3828336,-122.0779689,3.4949999723327347,0.0014142136,0.1,31.63144,1619734174000
Fix,GT,37.3828336,-122.0779689,3.495000088697998,0.00100132,0.1,31.627106,1619734175000
Fix,GT,37.3828335,-122.0779688,3.4939999959324486,0.0014142136,0.1,31.62265,1619734176000
Fix,GT,37.3828334,-122.0779687,3.491999903247692,0.002233456,0.1,31.618042,1619734177000
Fix,GT,37.3828334,-122.0779687,3.491999983739108,0.001,0.1,31.614075,1619734178000
Fix,GT,37.3828334,-122.0779687,3.492000100004487,0.0010039188,0.1,31.610168,1619734179000
Fix,GT,37.3828334,-122.0779687,3.491999972356484,0.001,0.099,31.606232,1619734180000
Fix,GT,37.3828334,-122.0779687,3.492000087808817,0.00100131,0.1,31.602325,1619734181000
Fix,GT,37.3828334,-122.0779687,3.49200003008265,0.0035986304,0.1,31.596985,1619734182000
Fix,GT,37.3828334,-122.0779687,3.491999903247692,0.0036099497,0.099,31.593842,1619734183000
Fix,GT,37.3828334,-122.0779687,3.492000018700026,0.004473799,0.1,31.58902,1619734184000
Fix,GT,37.3828334,-122.0779687,3.491999926012941,0.0058295494,0.1,31.584656,1619734185000
Fix,GT,37.3828334,-122.0779686,3.491999971543439,0.0067069987,0.1,31.58075,1619734186000
Fix,GT,37.3828333,-122.0779686,3.4910000528327654,0.006323796,0.1,31.575684,1619734187000
Fix,GT,37.3828333,-122.0779686,3.4909968260522,0.0050003105,0.1,31.571472,1619734188000
Fix,GT,37.3828333,-122.0779686,3.4900000406289475,0.004474994,0.1,31.56668,1619734189000
Fix,GT,37.3828332,-122.0779686,3.4889999480098486,0.011181032,0.1,31.562164,1619734190000
Fix,GT,37.3828331,-122.0779685,3.477996941922932,0.22588886,0.1,31.560608,1619734191000
Fix,GT,37.3828286,-122.0779596,3.475009360592812,1.7958034,0.1,31.675323,1619734192000
Fix,GT,37.3828156,-122.0779331,3.4910092559019104,3.7776937,0.1,31.800903,1619734193000
Fix,GT,37.3827929,-122.0778874,3.535012505061226,5.4690905,0.1,31.479828,1619734194000
Fix,GT,37.3827674,-122.0778315,3.5530216781627386,6.401122,0.1,24.361145,1619734195000
Fix,GT,37.3827521,-122.0777674,3.600034176043002,7.087619,0.1,7.620819,1619734196000
Fix,GT,37.3827532,-122.0776941,3.5829875673626086,7.6791368,0.1,349.1707,1619734197000
Fix,GT,37.3827753,-122.0776198,3.472916504862718,8.338351,0.1,329.9921,1619734198000
Fix,GT,37.3828202,-122.0775522,3.175993804671336,9.204976,0.1,310.5277,1619734199000
Fix,GT,37.3828896,-122.0774942,3.0739105967958458,10.074392,0.1,301.0834,1619734200000
Fix,GT,37.3829723,-122.0774351,2.9589691869113595,11.24655,0.1,300.03558,1619734201000
Fix,GT,37.383064,-122.0773715,2.894969293823233,11.98326,0.1,299.37747,1619734202000
Fix,GT,37.3831611,-122.077305,2.769950786954724,12.616727,0.1,299.58496,1619734203000
Fix,GT,37.3832629,-122.0772337,2.594938609028468,13.251517,0.1,299.91705,1619734204000
Fix,GT,37.3833682,-122.0771587,2.438972347577568,13.555131,0.099,300.23404,1619734205000
Fix,GT,37.383474,-122.0770822,2.3239418462596366,13.512938,0.1,300.30814,1619734206000
Fix,GT,37.3835789,-122.0770054,2.266981612628791,13.384599,0.1,300.16193,1619734207000
Fix,GT,37.3836826,-122.0769299,2.1909847642481326,13.220653,0.1,300.35934,1619734208000
Fix,GT,37.3837847,-122.0768538,2.1509694783589803,13.030262,0.1,300.94833,1619734209000
Fix,GT,37.3838847,-122.0767776,2.0980091608252844,12.829113,0.1,301.3176,1619734210000
Fix,GT,37.3839828,-122.0767024,1.970942179583013,12.641031,0.1,301.0962,1619734211000
Fix,GT,37.384079,-122.0766284,1.813936243552249,12.290507,0.1,301.61108,1619734212000
Fix,GT,37.3841703,-122.0765568,1.6799665832291355,11.456024,0.099,301.45312,1619734213000
Fix,GT,37.3842554,-122.0764908,1.5899818143658342,10.83733,0.1,301.71768,1619734214000
Fix,GT,37.3843372,-122.0764265,1.514984899710398,10.568489,0.1,301.6745,1619734215000
Fix,GT,37.3844179,-122.0763621,1.4130120453343262,10.664634,0.1,302.36008,1619734216000
Fix,GT,37.3844991,-122.0762968,1.4329577765264547,10.646497,0.1,302.53036,1619734217000
Fix,GT,37.3845792,-122.0762319,1.3919638082915915,10.456024,0.099,302.8205,1619734218000
Fix,GT,37.3846569,-122.0761687,1.3379849413116462,9.99624,0.099,302.93414,1619734219000
Fix,GT,37.3847296,-122.0761109,1.2779880095459522,9.255413,0.1,301.5358,1619734220000
Fix,GT,37.3847976,-122.076061,1.242987979381578,8.234743,0.1,300.24228,1619734221000
Fix,GT,37.3848577,-122.076018,1.2059850384911988,7.3338757,0.1,299.63654,1619734222000
Fix,GT,37.3849141,-122.0759779,1.162994006941095,6.8403344,0.1,300.07324,1619734223000
Fix,GT,37.384959,-122.075946,1.1369820956778711,4.549356,0.1,300.04578,1619734224000
Fix,GT,37.3849864,-122.0759275,1.1100059492476286,2.4199917,0.1,300.26016,1619734225000
Fix,GT,37.3849999,-122.0759198,1.1019940422382206,0.96668065,0.1,300.29385,1619734226000
Fix,GT,37.3850033,-122.0759203,1.0949969983547925,0.053082787,0.099,300.31693,1619734227000
Fix,GT,37.3850034,-122.0759211,1.0820000007557684,0.16755506,0.1,300.31528,1619734228000
Fix,GT,37.3850091,-122.0759173,1.0649999724759254,1.5029626,0.1,299.5522,1619734229000
Fix,GT,37.3850247,-122.0759077,1.0349881473109126,3.0460005,0.1,292.14114,1619734230000
Fix,GT,37.3850517,-122.0758984,1.023985175049398,4.453186,0.099,277.4063,1619734231000
Fix,GT,37.3850892,-122.0759003,0.981964538709726,5.580429,0.1,257.59857,1619734232000
Fix,GT,37.385129,-122.0759221,0.8939468515813351,6.293981,0.1,234.94293,1619734233000
Fix,GT,37.3851662,-122.0759709,0.7820117812296375,7.563916,0.1,215.52017,1619734234000
Fix,GT,37.3852031,-122.0760476,0.7339882230358198,8.794245,0.1,210.07166,1619734235000
Fix,GT,37.3852443,-122.0761407,0.7079823734066449,9.941774,0.1,209.92787,1619734236000
Fix,GT,37.3852897,-122.0762423,0.6449706308508757,10.377953,0.1,210.33797,1619734237000
Fix,GT,37.3853367,-122.0763452,0.5529735892489552,10.236559,0.1,210.98552,1619734238000
Fix,GT,37.3853816,-122.0764406,0.4999941508709453,8.932003,0.1,211.39095,1619734239000
Fix,GT,37.3854181,-122.0765185,0.4839912160593084,6.925712,0.099,211.08627,1619734240000
Fix,GT,37.3854448,-122.076577,0.5500146120833234,5.36106,0.1,210.79417,1619734241000
Fix,GT,37.3854683,-122.0766284,0.3909854107843712,5.178463,0.1,210.79851,1619734242000
Fix,GT,37.3854936,-122.0766836,0.3819999888823367,6.099572,0.099,211.00838,1619734243000
Fix,GT,37.3855222,-122.0767438,0.3589883661842905,6.130253,0.1,211.6486,1619734244000
Fix,GT,37.3855463,-122.0767975,0.3369912947802804,5.44606,0.1,205.0513,1619734245000
Fix,GT,37.3855559,-122.0768422,0.3350029043778777,4.980687,0.1,184.0739,1619734246000
Fix,GT,37.3855494,-122.0768859,0.2860086942156776,5.2137976,0.1,160.92242,1619734247000
Fix,GT,37.3855291,-122.0769266,0.3139942106120288,5.525237,0.099,138.28491,1619734248000
Fix,GT,37.3854912,-122.0769603,0.3470231167096644,6.400457,0.1,123.29315,1619734249000
Fix,GT,37.385436,-122.0770012,0.4010028742030263,7.88373,0.1,123.042725,1619734250000
Fix,GT,37.3853706,-122.0770499,0.4560144018763676,9.067338,0.1,122.55673,1619734251000
Fix,GT,37.3852964,-122.0771059,0.5320258738831617,10.186048,0.099,122.52243,1619734252000
Fix,GT,37.3852144,-122.0771674,0.6180114926621317,11.041393,0.1,122.0238,1619734253000
Fix,GT,37.3851263,-122.0772326,0.6929971156176179,11.67723,0.1,121.60077,1619734254000
Fix,GT,37.3850343,-122.0773007,0.7760372472817544,12.036202,0.1,121.68884,1619734255000
Fix,GT,37.38494,-122.0773701,0.8610314607284963,12.319948,0.1,120.882996,1619734256000
Fix,GT,37.3848436,-122.0774392,0.9430114048228132,12.423368,0.1,119.768555,1619734257000
Fix,GT,37.3847454,-122.0775061,1.0340313884431962,12.429363,0.1,118.79913,1619734258000
Fix,GT,37.3846466,-122.0775719,1.1150370011627673,12.407122,0.1,118.66882,1619734259000
Fix,GT,37.3845486,-122.0776362,1.215002865403891,12.186647,0.1,117.84534,1619734260000
Fix,GT,37.3844523,-122.0776981,1.2860198452831246,11.799188,0.1,118.279236,1619734261000
Fix,GT,37.3843598,-122.0777599,1.366034042008221,11.38583,0.1,119.08255,1619734262000
Fix,GT,37.3842712,-122.0778204,1.4530085360445082,11.063758,0.1,119.36066,1619734263000
Fix,GT,37.3841829,-122.0778813,1.5240197992301543,11.415365,0.1,119.34027,1619734264000
Fix,GT,37.3840914,-122.0779438,1.6010169042907654,11.778473,0.099,119.4234,1619734265000
Fix,GT,37.3839983,-122.0780087,1.6840310522520447,11.758616,0.1,119.53778,1619734266000
Fix,GT,37.383907,-122.078072,1.7770027993465771,11.461091,0.1,118.995514,1619734267000
Fix,GT,37.383818,-122.0781331,1.839022523503052,11.0911255,0.1,119.36624,1619734268000
Fix,GT,37.3837323,-122.0781936,1.9320168248196128,10.734196,0.099,120.03931,1619734269000
Fix,GT,37.3836501,-122.0782542,1.9780252782267047,10.430864,0.1,121.195404,1619734270000
Fix,GT,37.3835706,-122.0783152,2.038008408281952,10.201094,0.1,121.94995,1619734271000
Fix,GT,37.3834946,-122.0783758,2.130008340525208,9.6948595,0.099,122.7829,1619734272000
Fix,GT,37.3834254,-122.0784329,2.2060418837280014,8.469631,0.1,123.80618,1619734273000
Fix,GT,37.38337,-122.0784819,2.282011093132198,6.3091965,0.1,125.991516,1619734274000
Fix,GT,37.3833321,-122.0785193,2.308994447848294,4.021432,0.1,128.77628,1619734275000
Fix,GT,37.3833104,-122.0785432,2.3400110747143628,2.1994216,0.1,130.86682,1619734276000
Fix,GT,37.3833011,-122.078555,2.3670083370879293,0.9965391,0.1,131.83295,1619734277000
Fix,GT,37.3832919,-122.0785674,2.3900166963534435,1.7566143,0.1,136.3269,1619734278000
Fix,GT,37.383276,-122.0785958,2.462027680972591,3.0116723,0.1,152.07727,1619734279000
Fix,GT,37.3832636,-122.0786518,2.5780026967935266,5.3684144,0.1,175.28375,1619734280000
Fix,GT,37.3832693,-122.0787366,2.640038631869946,8.021859,0.1,191.92043,1619734281000
Fix,GT,37.3832982,-122.0788404,2.7200026755409783,10.208255,0.1,205.2435,1619734282000
Fix,GT,37.3833491,-122.0789554,2.688967012793291,12.575796,0.1,210.618,1619734283000
Fix,GT,37.3834144,-122.0790879,2.6349835043249183,14.67609,0.1,211.4081,1619734284000
Fix,GT,37.3834868,-122.0792344,2.563967124896124,15.76012,0.1,211.37236,1619734285000
Fix,GT,37.3835632,-122.0793895,2.4739917400083504,16.525673,0.1,211.4622,1619734286000
Fix,GT,37.383643,-122.0795508,2.406975393512752,17.095512,0.1,211.54837,1619734287000
Fix,GT,37.3837255,-122.079717,2.2959589997990983,17.589968,0.1,211.69571,1619734288000
Fix,GT,37.3838102,-122.0798873,2.2399672964084894,17.955084,0.1,211.81715,1619734289000
Fix,GT,37.3838964,-122.0800589,2.1329727129337845,17.87744,0.099,212.06113,1619734290000
Fix,GT,37.3839817,-122.0802286,2.07197552216053,17.702234,0.1,212.01796,1619734291000
Fix,GT,37.3840665,-122.0803966,1.9949673581686804,17.556377,0.1,211.7934,1619734292000
Fix,GT,37.3841493,-122.0805641,1.926967491542921,17.397451,0.1,211.47394,1619734293000
Fix,GT,37.3842316,-122.0807303,1.8339701790038965,17.255238,0.099,211.66338,1619734294000
Fix,GT,37.3843131,-122.0808952,1.7339621542729438,17.118164,0.1,211.53235,1619734295000
Fix,GT,37.3843936,-122.0810585,1.670975747591816,16.868698,0.1,211.53036,1619734296000
Fix,GT,37.3844729,-122.081219,1.6009918971410952,16.565948,0.1,211.48335,1619734297000
Fix,GT,37.3845507,-122.0813765,1.56698388657975,16.26766,0.1,211.56421,1619734298000
Fix,GT,37.3846275,-122.0815311,1.4829785090284424,15.966568,0.1,211.83067,1619734299000
Fix,GT,37.3847028,-122.0816825,1.3439785713423045,15.625257,0.1,211.46194,1619734300000
Fix,GT,37.3847748,-122.0818285,1.3099812345143873,14.64014,0.1,211.43062,1619734301000
Fix,GT,37.3848415,-122.0819638,1.2819920072292443,13.528437,0.1,211.43706,1619734302000
Fix,GT,37.3849029,-122.0820884,1.2709946440393105,12.422708,0.099,211.46402,1619734303000
Fix,GT,37.3849596,-122.0822035,1.2320133532639592,11.6105,0.1,211.3436,1619734304000
Fix,GT,37.3850125,-122.0823115,1.2419946439731866,10.866543,0.1,211.21579,1619734305000
Fix,GT,37.385062,-122.0824126,1.204989361918997,10.093623,0.1,211.52719,1619734306000
Fix,GT,37.3851078,-122.0825045,1.185989405385684,8.9688835,0.1,211.96252,1619734307000
Fix,GT,37.3851477,-122.0825841,1.159002647012472,7.6239142,0.1,212.0312,1619734308000
Fix,GT,37.3851808,-122.0826494,1.1330053278584966,6.060748,0.1,212.11484,1619734309000
Fix,GT,37.3852061,-122.0826992,1.1219920620617925,4.386892,0.1,212.11629,1619734310000
Fix,GT,37.3852242,-122.0827353,1.1079947390425953,3.127036,0.1,211.92152,1619734311000
Fix,GT,37.3852366,-122.0827601,1.0940026237678249,2.1966217,0.099,211.81094,1619734312000
Fix,GT,37.385245,-122.082777,1.093002655894961,1.3234102,0.1,211.76007,1619734313000
Fix,GT,37.3852499,-122.0827867,1.0929999847309664,0.77738476,0.1,211.70804,1619734314000
Fix,GT,37.3852524,-122.0827918,1.091997376097133,0.26400608,0.1,211.70195,1619734315000
Fix,GT,37.3852528,-122.0827926,1.0880000243186951,0.06418181,0.1,211.70445,1619734316000
Fix,GT,37.3852529,-122.0827929,1.0929999954192895,0.0014257637,0.1,211.70233,1619734317000
Fix,GT,37.3852531,-122.0827932,1.0890026315976864,0.19570364,0.1,211.70105,1619734318000
Fix,GT,37.3852548,-122.0827967,1.0900000134506262,0.46334282,0.1,211.68718,1619734319000
Fix,GT,37.3852573,-122.0828016,1.0880025878408923,0.52422947,0.1,211.67589,1619734320000
Fix,GT,37.385259,-122.0828051,1.0870000098703894,0.212991,0.1,211.66417,1619734321000
Fix,GT,37.3852594,-122.0828058,1.088000024065375,0.0072240657,0.1,211.66264,1619734322000
Fix,GT,37.3852594,-122.0828058,1.0879999954402448,0.001002591,0.1,211.6628,1619734323000
Fix,GT,37.3852594,-122.0828058,1.088000031411648,5.1738602e-06,0.1,211.66061,1619734324000
Fix,GT,37.3852594,-122.0828058,1.0880000025331975,0.001,0.1,211.65979,1619734325000
Fix,GT,37.3852594,-122.0828058,1.0879999736547472,0.0009999999,0.1,211.65868,1619734326000
Fix,GT,37.3852594,-122.0828058,1.088002573593287,0.0010025749,0.1,211.65749,1619734327000
Fix,GT,37.3852594,-122.0828058,1.0889999700807966,0.0009999999,0.1,211.65623,1619734328000
Fix,GT,37.3852593,-122.0828058,1.0909999733280855,0.0036014302,0.099,211.65497,1619734329000
Fix,GT,37.3852606,-122.0828084,1.084994872964453,0.74810237,0.1,211.60919,1619734330000
Fix,GT,37.3852666,-122.0828205,1.0810025287889875,1.7714682,0.1,211.45773,1619734331000
Fix,GT,37.3852778,-122.0828433,1.0729948963059577,3.197581,0.1,211.34889,1619734332000
Fix,GT,37.3852974,-122.0828835,1.0649923781817778,5.143408,0.1,211.1244,1619734333000
Fix,GT,37.3853263,-122.0829429,1.0509923724401742,6.8772545,0.1,211.07886,1619734334000
Fix,GT,37.3853612,-122.0830142,1.0250050602417904,7.9125476,0.1,211.2798,1619734335000
Fix,GT,37.385401,-122.0830954,1.0229898644946516,9.013465,0.1,211.34505,1619734336000
Fix,GT,37.3854456,-122.0831861,0.9919873190470972,9.722524,0.1,211.45819,1619734337000
Fix,GT,37.3854927,-122.0832815,0.9539873709892852,10.09966,0.1,211.59694,1619734338000
Fix,GT,37.3855415,-122.0833796,0.9099873658292928,10.367603,0.1,211.77539,1619734339000
Fix,GT,37.3855917,-122.0834799,0.8639924426393117,10.546987,0.1,211.8666,1619734340000
Fix,GT,37.3856424,-122.0835807,0.831974794366397,10.616217,0.1,211.88184,1619734341000
Fix,GT,37.3856942,-122.0836842,0.8090075502507389,11.034039,0.1,211.7036,1619734342000
Fix,GT,37.3857469,-122.0837905,0.8150050063289236,11.0262575,0.1,211.49324,1619734343000
Fix,GT,37.3857989,-122.0838959,0.8320025190415327,11.006565,0.1,211.35803,1619734344000
Fix,GT,37.3858508,-122.0840021,0.8529974793083965,10.97161,0.1,211.24529,1619734345000
Fix,GT,37.3859022,-122.0841068,0.8359925061927642,10.851394,0.1,211.31004,1619734346000
Fix,GT,37.385954,-122.0842126,0.8259949908740818,11.219736,0.099,211.01857,1619734347000
Fix,GT,37.3860073,-122.0843225,0.8490149406564887,11.601191,0.1,211.20767,1619734348000
Fix,GT,37.3860629,-122.084435,0.9029875788022764,11.697812,0.1,211.67711,1619734349000
Fix,GT,37.3861188,-122.0845469,0.8859950131811202,11.671041,0.1,211.7949,1619734350000
Fix,GT,37.3861743,-122.0846598,0.8969900853689761,11.906025,0.1,211.05246,1619734351000
Fix,GT,37.3862305,-122.0847755,0.9250148190450854,12.030682,0.1,211.20984,1619734352000
Fix,GT,37.3862878,-122.0848919,0.9310024652043358,12.20324,0.1,211.45634,1619734353000
Fix,GT,37.386346,-122.0850099,0.9370024829586036,12.377384,0.1,211.41911,1619734354000
Fix,GT,37.3864047,-122.0851289,0.932009831160307,12.363306,0.1,211.5283,1619734355000
Fix,GT,37.3864635,-122.0852477,0.9300098458649592,12.422452,0.1,211.40933,1619734356000
Fix,GT,37.3865227,-122.0853675,0.9339901630212551,12.517797,0.1,211.6315,1619734357000
Fix,GT,37.3865826,-122.0854879,0.9439951009987854,12.56358,0.1,211.78401,1619734358000
Fix,GT,37.3866429,-122.0856091,0.9449902293814813,12.790691,0.1,211.50212,1619734359000
Fix,GT,37.3867041,-122.0857331,0.9479804523820056,13.024881,0.1,211.47923,1619734360000
Fix,GT,37.3867666,-122.0858589,0.9090000097355806,13.179604,0.1,211.69743,1619734361000
Fix,GT,37.3868299,-122.0859854,0.8799853738816454,13.250686,0.1,211.85068,1619734362000
Fix,GT,37.3868936,-122.0861123,0.8899878482206258,13.292376,0.1,211.8054,1619734363000
Fix,GT,37.3869572,-122.0862395,0.8609878455419093,13.347693,0.099,211.60597,1619734364000
Fix,GT,37.3870202,-122.0863668,0.8249854721061419,13.142411,0.1,211.5191,1619734365000
Fix,GT,37.3870818,-122.0864906,0.8120048577799462,12.635382,0.1,211.77757,1619734366000
Fix,GT,37.3871403,-122.0866082,0.8240144751258194,11.920895,0.1,211.55014,1619734367000
Fix,GT,37.3871948,-122.0867182,0.8299999785493127,10.84239,0.1,211.47017,1619734368000
Fix,GT,37.3872425,-122.0868146,0.8009927726788447,9.256122,0.1,211.43552,1619734369000
Fix,GT,37.3872831,-122.0868964,0.7599928028027062,7.905802,0.1,211.45123,1619734370000
Fix,GT,37.3873178,-122.0869669,0.7499928245970514,6.7260513,0.1,211.33607,1619734371000
Fix,GT,37.3873461,-122.0870248,0.7510023838579655,5.168167,0.1,211.29778,1619734372000
Fix,GT,37.3873658,-122.087065,0.7479976180428639,3.2384706,0.1,211.25983,1619734373000
Fix,GT,37.3873777,-122.0870894,0.748004751500208,1.9028206,0.099,211.3218,1619734374000
Fix,GT,37.3873835,-122.0871013,0.7579999899403193,0.6061343,0.099,211.36118,1619734375000
Fix,GT,37.3873849,-122.087104,0.7629976224899292,0.021542609,0.1,211.36594,1619734376000
Fix,GT,37.387385,-122.087104,0.7669999873207416,0.0058289794,0.1,211.36368,1619734377000
Fix,GT,37.3873852,-122.0871041,0.7710000127453823,0.0014142136,0.1,211.36206,1619734378000
Fix,GT,37.3873852,-122.0871041,0.7729999845218845,0.001,0.099,211.36064,1619734379000
Fix,GT,37.3873852,-122.0871041,0.7730000179978088,0.0010009783,0.1,211.35883,1619734380000
Fix,GT,37.3873852,-122.0871041,0.7729999897412491,0.0014142136,0.1,211.35703,1619734381000
Fix,GT,37.3873852,-122.0871041,0.772999999820022,0.0014142136,0.1,211.35509,1619734382000
Fix,GT,37.3873852,-122.0871041,0.7730000176378526,0.0014142136,0.1,211.3534,1619734383000
Fix,GT,37.3873852,-122.0871041,0.7729999818222132,0.0014142136,0.099,211.35164,1619734384000
Fix,GT,37.3873852,-122.0871041,0.7729999919009861,0.0014142136,0.099,211.34999,1619734385000
Fix,GT,37.3873852,-122.0871041,0.7730000174578745,0.0,0.1,211.34819,1619734386000
Fix,GT,37.3873852,-122.0871041,0.7729999893812928,0.0,0.1,211.34631,1619734387000
Fix,GT,37.3873852,-122.0871041,0.7730000071991235,0.0010000002,0.1,211.34428,1619734388000
Fix,GT,37.3873852,-122.0871041,0.7729999789425638,0.001,0.099,211.34264,1619734389000
Fix,GT,37.3873852,-122.0871041,0.7729999967603944,0.0020005482,0.1,211.34097,1619734390000
Fix,GT,37.3873852,-122.0871041,0.7770000226136763,0.0031622779,0.1,211.33937,1619734391000
Fix,GT,37.3873852,-122.0871041,0.7770023150700144,0.0053873374,0.1,211.33775,1619734392000
Fix,GT,37.3873852,-122.0871041,0.7780000199256465,0.0053873337,0.1,211.33594,1619734393000
Fix,GT,37.3873854,-122.0871044,0.7739999839612283,0.2700893,0.1,211.3335,1619734394000
Fix,GT,37.3873894,-122.0871122,0.7800000018160791,1.3781781,0.1,211.33455,1619734395000
Fix,GT,37.387399,-122.0871316,0.7759954180447385,2.7528038,0.1,211.42459,1619734396000
Fix,GT,37.3874162,-122.0871663,0.7680000219941139,4.4448514,0.1,211.47018,1619734397000
Fix,GT,37.3874419,-122.0872181,0.7609954086367506,6.4858685,0.1,211.36873,1619734398000
Fix,GT,37.3874758,-122.0872869,0.7519954341920093,7.7128954,0.1,211.15111,1619734399000
Fix,GT,37.3875144,-122.0873661,0.7299863357665017,8.778925,0.1,210.97916,1619734400000
Fix,GT,37.3875583,-122.0874562,0.6979954407718032,9.888646,0.1,211.0844,1619734401000
Fix,GT,37.3876058,-122.0875538,0.6890045557469129,10.242917,0.1,210.94829,1619734402000
