MessageType,Provider,LatitudeDegrees,LongitudeDegrees,AltitudeMeters,SpeedMps,AccuracyMeters,BearingDegrees,UnixTimeMillis
Fix,GT,37.4150399,-122.07904,-23.25961969208717,0.0056568542,0.1,337.56668,1639594133438
Fix,GT,37.4150399,-122.07904,-23.25961969208717,0.0056568542,0.1,337.56653,1639594134438
Fix,GT,37.4150399,-122.07904,-23.259618998795748,0.0059406664,0.1,337.56604,1639594135438
Fix,GT,37.4150399,-122.07904,-23.259619691967963,0.0053160177,0.1,337.56616,1639594136438
Fix,GT,37.4150399,-122.07904,-23.259619691967963,0.005,0.1,337.56604,1639594137438
Fix,GT,37.4150399,-122.07904,-23.25961969190836,0.0057647415,0.1,337.56607,1639594138438
Fix,GT,37.4150399,-122.07904,-23.25961969190836,0.0067289835,0.1,337.564,1639594139438
Fix,GT,37.4150399,-122.07904,-23.259619691967963,0.00466651,0.1,337.56497,1639594140438
Fix,GT,37.4150399,-122.07904,-23.259618998795748,0.0054070475,0.1,337.56433,1639594141438
Fix,GT,37.4150399,-122.07904,-23.25961969208717,0.0056568542,0.1,337.564,1639594142438
Fix,GT,37.4150399,-122.07904,-23.25961969208717,0.005514934,0.1,337.56567,1639594143438
Fix,GT,37.4150399,-122.07904,-23.25961969208717,0.003861178,0.1,337.56326,1639594144438
Fix,GT,37.4150399,-122.07904,-23.25961969208717,0.00453067,0.1,337.56415,1639594145438
Fix,GT,37.4150399,-122.07904,-23.25961899891496,0.0052498067,0.1,337.564,1639594146438
Fix,GT,37.4150399,-122.07904,-23.25961899891496,0.005,0.1,337.5641,1639594147438
Fix,GT,37.4150399,-122.07904,-23.25961969214677,0.004846688,0.1,337.56396,1639594148438
Fix,GT,37.4150399,-122.07904,-23.25961969214677,0.0055149347,0.1,337.56396,1639594149438
Fix,GT,37.4150399,-122.07904,-23.259619692206385,0.004780477,0.1,337.5639,1639594150438
Fix,GT,37.4150399,-122.07904,-23.25961969214677,0.005,0.1,337.5638,1639594151438
Fix,GT,37.4150399,-122.07904,-23.259618999034167,0.005,0.1,337.564,1639594152438
Fix,GT,37.4150399,-122.07904,-23.259618999034167,0.005,0.1,337.56412,1639594153438
Fix,GT,37.4150399,-122.07904,-23.25961969226599,0.00471197,0.1,337.56412,1639594154438
Fix,GT,37.4150399,-122.07904,-23.2596196923256,0.005,0.1,337.56396,1639594155438
Fix,GT,37.4150399,-122.07904,-23.2596196923256,0.0042426405,0.1,337.564,1639594156438
Fix,GT,37.4150399,-122.07904,-23.25961899915337,0.0040003504,0.1,337.56396,1639594157438
Fix,GT,37.4150399,-122.07904,-23.2596196923256,0.0036055513,0.1,337.5641,1639594158438
Fix,GT,37.4150399,-122.07904,-23.2596196923852,0.0036055513,0.1,337.56406,1639594159438
Fix,GT,37.4150399,-122.07904,-23.2596196923852,0.0031239735,0.1,337.56403,1639594160438
Fix,GT,37.4150399,-122.07904,-23.259618999272583,0.0031622776,0.1,337.56406,1639594161438
Fix,GT,37.4150399,-122.07904,-23.259618999272583,0.002810033,0.1,337.56415,1639594162438
Fix,GT,37.4150399,-122.07904,-23.259620385736227,0.0026196926,0.1,337.5642,1639594163438
Fix,GT,37.4150399,-122.07904,-23.259620385736227,0.003,0.1,337.56415,1639594164438
Fix,GT,37.4150399,-122.07904,-23.259620385736227,0.003,0.1,337.56412,1639594165438
Fix,GT,37.4150399,-122.07904,-23.25961969256401,0.0031622774,0.1,337.56403,1639594166438
Fix,GT,37.4150399,-122.07904,-23.259620385736227,0.0031622776,0.1,337.5641,1639594167438
Fix,GT,37.4150399,-122.07904,-23.25961969256401,0.003330858,0.1,337.56393,1639594168438
Fix,GT,37.4150399,-122.07904,-23.25961969256401,0.0027568927,0.1,337.56366,1639594169438
Fix,GT,37.4150399,-122.07904,-23.2596189993918,0.003123973,0.1,337.56393,1639594170438
Fix,GT,37.4150399,-122.07904,-23.25961969256401,0.0033100052,0.1,337.56454,1639594171438
Fix,GT,37.4150399,-122.07904,-23.259620385855435,0.0033100052,0.1,337.56406,1639594172438
Fix,GT,37.4150399,-122.07904,-23.259620385855435,0.005869506,0.1,337.56473,1639594173438
Fix,GT,37.4150399,-122.07904,-23.259620385855435,0.0053141844,0.1,337.56442,1639594174438
Fix,GT,37.4150399,-122.07904,-23.259620385855435,0.005385165,0.1,337.56488,1639594175438
Fix,GT,37.4150399,-122.07904,-23.259620385855435,0.0061645773,0.1,337.56436,1639594176438
Fix,GT,37.4150399,-122.07904,-23.259620385855435,0.006018673,0.1,337.56436,1639594177438
Fix,GT,37.4150399,-122.07904,-23.259620385855435,0.006708204,0.1,337.5639,1639594178438
Fix,GT,37.4150399,-122.07904,-23.2596189993918,0.006324555,0.1,337.56363,1639594179438
Fix,GT,37.4150399,-122.07904,-23.25961969256401,0.006324555,0.1,337.56317,1639594180438
Fix,GT,37.4150399,-122.07904,-23.259620385736227,0.005817461,0.1,337.56317,1639594181438
Fix,GT,37.4150399,-122.07904,-23.259620385736227,0.006018673,0.1,337.5629,1639594182438
Fix,GT,37.4150399,-122.07904,-23.259620385736227,0.0057424223,0.1,337.56284,1639594183438
Fix,GT,37.4150399,-122.07904,-23.259620385736227,0.005385165,0.1,337.5627,1639594184438
Fix,GT,37.4150399,-122.07904,-23.25961969256401,0.004905194,0.1,337.5625,1639594185438
Fix,GT,37.4150399,-122.07904,-23.25961969256401,0.005037933,0.1,337.56244,1639594186438
Fix,GT,37.4150399,-122.07904,-23.259620385855435,0.0044721365,0.1,337.56235,1639594187438
Fix,GT,37.4150399,-122.07904,-23.259620385855435,0.003330858,0.1,337.56223,1639594188438
Fix,GT,37.4150399,-122.07904,-23.259620385855435,0.0031622779,0.1,337.56223,1639594189438
Fix,GT,37.4150399,-122.07904,-23.25961969268322,0.002236068,0.1,337.56207,1639594190438
Fix,GT,37.4150399,-122.07904,-23.259618999511005,0.0014142136,0.1,337.56207,1639594191438
Fix,GT,37.4150399,-122.07904,-23.26,0.0008763778,0.1,337.56168,1639594192438
Fix,GT,37.4150399,-122.07904,-23.263,0.00053783576,0.1,337.56165,1639594193438
Fix,GT,37.4150399,-122.07904,-23.26500069335103,0.0010000002,0.1,337.56174,1639594194438
Fix,GT,37.4150399,-122.07904,-23.26371815609932,0.0017267708,0.1,337.56165,1639594195438
Fix,GT,37.4150398,-122.0790397,-23.190999308854337,0.002614641,0.1,337.56,1639594196438
Fix,GT,37.4150398,-122.0790397,-23.194,0.0033803075,0.1,337.55978,1639594197438
Fix,GT,37.4150398,-122.0790397,-23.201379615843297,0.0054873275,0.1,337.5603,1639594198438
Fix,GT,37.4150398,-122.0790397,-23.21538030731678,0.00706261,0.1,337.5621,1639594199438
Fix,GT,37.4150398,-122.0790396,-23.221999307930474,0.009116697,0.1,337.56076,1639594200438
Fix,GT,37.4150397,-122.0790396,-23.22837961503864,0.01011243,0.1,337.5605,1639594201438
Fix,GT,37.4150397,-122.0790395,-23.23199930763245,0.014060626,0.1,337.55978,1639594202438
Fix,GT,37.4150401,-122.0790395,-23.250761307358744,0.21964344,0.1,337.77103,1639594203438
Fix,GT,37.415045,-122.0790408,-23.27276061463356,0.821538,0.1,339.8336,1639594204438
Fix,GT,37.4150526,-122.0790433,-23.30276130914688,1.0786297,0.1,341.16843,1639594205438
Fix,GT,37.4150654,-122.0790492,-23.34352192503214,2.132212,0.1,340.39038,1639594206438
Fix,GT,37.4150889,-122.0790594,-23.3744234637022,3.3989553,0.1,340.59433,1639594207438
Fix,GT,37.4151224,-122.0790737,-23.44595753955841,4.3489327,0.1,340.81824,1639594208438
Fix,GT,37.4151599,-122.0790899,-23.3876196923852,4.322215,0.1,340.7964,1639594209438
Fix,GT,37.4151952,-122.0791057,-23.39357723146677,4.0063143,0.1,340.1283,1639594210438
Fix,GT,37.4152278,-122.07912,-23.37614092302322,3.6523619,0.1,340.69208,1639594211438
Fix,GT,37.4152578,-122.079127,-23.34395684304833,3.2292862,0.1,349.31104,1639594212438
Fix,GT,37.4152845,-122.0791226,-23.324239384651182,2.9185307,0.1,4.041748,1639594213438
Fix,GT,37.4153093,-122.0791141,-23.302239384651184,2.8529449,0.1,11.626801,1639594214438
Fix,GT,37.4153343,-122.0791083,-23.33376061534881,2.6536858,0.1,10.746857,1639594215438
Fix,GT,37.4153538,-122.0791041,-23.387760615348817,1.9356363,0.1,9.726868,1639594216438
Fix,GT,37.4153717,-122.0791002,-23.42490153837204,2.1893842,0.1,10.2491455,1639594217438
Fix,GT,37.4153938,-122.0790892,-23.455563692808152,3.1939702,0.1,19.50888,1639594218438
Fix,GT,37.415418,-122.0790615,-23.50195753860473,4.339203,0.1,40.752228,1639594219438
Fix,GT,37.4154389,-122.0790119,-23.50039384651184,5.802797,0.1,63.074066,1639594220438
Fix,GT,37.415456,-122.0789434,-23.59356369280815,7.032071,0.1,72.18796,1639594221438
Fix,GT,37.415476,-122.0788624,-23.69818338507413,7.8116293,0.1,72.75845,1639594222438
Fix,GT,37.4154963,-122.0787776,-23.81956298342348,7.763996,0.1,73.15289,1639594223438
Fix,GT,37.415515,-122.0786975,-23.90342276906967,7.0061064,0.1,73.77905,1639594224438
Fix,GT,37.4155302,-122.0786271,-24.04694328287244,5.9605455,0.1,75.00299,1639594225438
Fix,GT,37.4155409,-122.0785684,-24.1241409226656,4.6809583,0.1,77.44931,1639594226438
Fix,GT,37.4155451,-122.078527,-24.219803075551987,2.8343968,0.1,82.29257,1639594227438
Fix,GT,37.4155465,-122.0785043,-24.272282568097115,1.3171412,0.1,83.8909,1639594228438
Fix,GT,37.4155471,-122.0784956,-24.32952122974396,0.37963688,0.1,84.127594,1639594229438
Fix,GT,37.4155471,-122.078494,-24.36076061487197,0.011806304,0.1,84.16675,1639594230438
Fix,GT,37.415547,-122.0784934,-24.37738030743599,0.010770329,0.1,84.16608,1639594231438
Fix,GT,37.4155469,-122.0784918,-24.378999273449185,0.010440307,0.1,84.165405,1639594232438
Fix,GT,37.4155468,-122.0784916,-24.40414019495249,0.006429906,0.1,84.16461,1639594233438
Fix,GT,37.4155468,-122.0784918,-24.42838103535772,0.0056573506,0.1,84.164795,1639594234438
Fix,GT,37.4155467,-122.0784921,-24.451380307316786,0.0041231057,0.1,84.164856,1639594235438
Fix,GT,37.4155467,-122.0784922,-24.466761343598364,0.0036055513,0.1,84.16489,1639594236438
Fix,GT,37.4155467,-122.0784924,-24.483381036877635,0.0031005624,0.1,84.16449,1639594237438
Fix,GT,37.4155467,-122.0784927,-24.501761344641444,0.0021462897,0.1,84.16498,1639594238438
Fix,GT,37.4155467,-122.0784929,-24.52076134520769,0.000876378,0.1,84.16449,1639594239438
Fix,GT,37.4155467,-122.0784931,-24.541760614395145,0.0012393857,0.1,84.164154,1639594240438
Fix,GT,37.4155467,-122.0784933,-24.56375988230109,0.0027202552,0.1,84.16452,1639594241438
Fix,GT,37.4155467,-122.0784935,-24.586761346936225,0.0031005624,0.1,84.16443,1639594242438
Fix,GT,37.4155467,-122.0784937,-24.611140921235084,0.004007657,0.1,84.16461,1639594243438
Fix,GT,37.4155466,-122.0784938,-24.63614092123509,0.0047278726,0.1,84.16449,1639594244438
Fix,GT,37.4155467,-122.0784934,-24.672521963208915,0.21039914,0.1,84.18396,1639594245438
Fix,GT,37.4155471,-122.0784865,-24.72290153479576,1.0731728,0.1,84.30417,1639594246438
Fix,GT,37.4155483,-122.0784684,-24.78552122783661,2.193045,0.1,84.956665,1639594247438
Fix,GT,37.4155494,-122.0784369,-24.83742276263237,3.5113661,0.1,86.909,1639594248438
Fix,GT,37.41555,-122.0783897,-24.956380306959154,4.9177456,0.1,88.9733,1639594249438
Fix,GT,37.4155457,-122.0783315,-25.04071741208434,5.450095,0.1,96.81354,1639594250438
Fix,GT,37.4155277,-122.0782744,-25.148000749468803,5.6953363,0.1,114.77771,1639594251438
Fix,GT,37.4154911,-122.0782299,-25.206576486319307,5.9973526,0.1,140.0343,1639594252438
Fix,GT,37.4154374,-122.0782095,-25.17504320514202,6.8557835,0.1,167.85278,1639594253438
Fix,GT,37.4153705,-122.0782105,-25.1608598292768,8.159726,0.1,182.0771,1639594254438
Fix,GT,37.4152912,-122.0782157,-25.160562932014464,9.433466,0.1,182.75504,1639594255438
Fix,GT,37.4152004,-122.0782201,-25.181437069594857,10.649937,0.1,181.69331,1639594256438
Fix,GT,37.4151027,-122.0782218,-25.123534037321804,10.995205,0.1,180.84744,1639594257438
Fix,GT,37.4150029,-122.0782222,-25.008576494365933,11.043364,0.1,180.16412,1639594258438
Fix,GT,37.4149048,-122.0782223,-24.92533859649301,10.71793,0.1,180.4338,1639594259438
Fix,GT,37.4148098,-122.0782235,-24.82123938679696,10.350219,0.1,180.99269,1639594260438
Fix,GT,37.414718,-122.0782246,-24.73652048912644,10.019448,0.1,180.50629,1639594261438
Fix,GT,37.414629,-122.0782251,-24.63071742644906,9.720356,0.1,180.57454,1639594262438
Fix,GT,37.4145435,-122.0782256,-24.53243632221222,9.234151,0.1,180.5135,1639594263438
Fix,GT,37.4144633,-122.0782261,-24.41191509628296,8.497307,0.1,180.27385,1639594264438
Fix,GT,37.4143914,-122.0782264,-24.315674984842538,7.4600334,0.1,180.27762,1639594265438
Fix,GT,37.4143288,-122.0782266,-24.24471743866801,6.413271,0.1,180.36758,1639594266438
Fix,GT,37.4142761,-122.0782266,-24.181958269625905,5.2641354,0.1,180.31703,1639594267438
Fix,GT,37.4142346,-122.0782266,-24.13923938727379,3.907764,0.1,180.44514,1639594268438
Fix,GT,37.414205,-122.0782267,-24.104479492843154,2.7412324,0.1,180.5077,1639594269438
Fix,GT,37.4141837,-122.0782265,-24.08424010524153,2.0278018,0.1,180.30908,1639594270438
Fix,GT,37.4141682,-122.0782263,-24.0726189763546,1.3654406,0.1,180.08199,1639594271438
Fix,GT,37.4141593,-122.0782261,-24.068618976473807,0.6153134,0.1,179.95135,1639594272438
Fix,GT,37.414157,-122.0782258,-24.07014091873169,0.029759428,0.1,179.9151,1639594273438
Fix,GT,37.414157,-122.0782257,-24.071,0.012643494,0.1,179.91614,1639594274438
Fix,GT,37.414157,-122.0782257,-24.071,0.009055385,0.1,179.914,1639594275438
Fix,GT,37.414157,-122.0782257,-24.071000717371703,0.0070440406,0.1,179.91339,1639594276438
Fix,GT,37.414157,-122.0782257,-24.071,0.006031475,0.1,179.91333,1639594277438
Fix,GT,37.414157,-122.0782257,-24.071,0.0041231057,0.1,179.91309,1639594278438
Fix,GT,37.414157,-122.0782257,-24.0709992826283,0.0044721356,0.1,179.91321,1639594279438
Fix,GT,37.414157,-122.0782257,-24.0709992826283,0.0031622774,0.1,179.91345,1639594280438
Fix,GT,37.414157,-122.0782257,-24.0709992826283,0.0034369715,0.1,179.91339,1639594281438
Fix,GT,37.414157,-122.0782257,-24.0709992826283,0.0028284271,0.1,179.91315,1639594282438
Fix,GT,37.414157,-122.0782257,-24.0709992826283,0.0016369917,0.1,179.91321,1639594283438
Fix,GT,37.414157,-122.0782257,-24.0709992826283,0.00214629,0.1,179.91333,1639594284438
Fix,GT,37.414157,-122.0782257,-24.0709992826283,0.0019235116,0.1,179.91296,1639594285438
Fix,GT,37.414157,-122.0782257,-24.071000717371703,0.0017267698,0.1,179.91327,1639594286438
Fix,GT,37.414157,-122.0782257,-24.071000717371703,0.001765984,0.1,179.91339,1639594287438
Fix,GT,37.414157,-122.0782257,-24.071000717371703,0.001765984,0.1,179.91333,1639594288438
Fix,GT,37.414157,-122.0782257,-24.071000717371703,0.0016369917,0.1,179.91333,1639594289438
Fix,GT,37.414157,-122.0782257,-24.0709992826283,0.0016196939,0.1,179.91339,1639594290438
Fix,GT,37.414157,-122.0782257,-24.071,0.0019235117,0.1,179.91333,1639594291438
Fix,GT,37.4141569,-122.0782255,-24.062,0.0013803062,0.1,179.91364,1639594292438
Fix,GT,37.4141569,-122.0782255,-24.059999282956124,0.0011575279,0.1,179.91382,1639594293438
Fix,GT,37.4141569,-122.0782255,-24.059999282956124,0.0017659838,0.1,179.91364,1639594294438
Fix,GT,37.4141569,-122.0782255,-24.05899928298593,0.0019235116,0.1,179.91339,1639594295438
Fix,GT,37.4141569,-122.0782255,-24.057999283015725,0.002709472,0.1,179.91351,1639594296438
Fix,GT,37.4141569,-122.0782255,-24.055619693875315,0.005708639,0.1,179.91333,1639594297438
Fix,GT,37.4141569,-122.0782254,-24.05299928316474,0.008619694,0.1,179.91376,1639594298438
Fix,GT,37.4141567,-122.0782254,-24.05399928313493,0.15874131,0.1,179.91309,1639594299438
Fix,GT,37.4141526,-122.0782252,-24.04423867121339,0.712674,0.1,179.83301,1639594300438
Fix,GT,37.4141443,-122.0782249,-24.028,1.1644945,0.1,179.72253,1639594301438
Fix,GT,37.4141302,-122.0782246,-24.005239387750628,1.9677821,0.1,179.66675,1639594302438
Fix,GT,37.4141075,-122.0782243,-23.962338571131227,3.1754894,0.1,179.88245,1639594303438
Fix,GT,37.4140722,-122.0782239,-23.89709918147325,4.6548467,0.1,179.80896,1639594304438
Fix,GT,37.4140237,-122.0782231,-23.790056018829347,5.981477,0.1,179.6275,1639594305438
Fix,GT,37.4139655,-122.0782223,-23.65353549847007,6.9764786,0.1,179.896,1639594306438
Fix,GT,37.4138983,-122.078222,-23.51553409132361,7.849998,0.1,180.32765,1639594307438
Fix,GT,37.4138245,-122.0782221,-23.38595685228705,8.56258,0.1,180.49031,1639594308438
Fix,GT,37.4137437,-122.0782222,-23.31449234092236,9.348978,0.1,180.00797,1639594309438
Fix,GT,37.4136564,-122.0782213,-23.05067639762164,10.032143,0.1,179.92969,1639594310438
Fix,GT,37.413563,-122.0782214,-22.769351418495177,10.6516075,0.1,180.50986,1639594311438
Fix,GT,37.4134652,-122.0782213,-22.44206957554817,11.060609,0.1,180.04968,1639594312438
Fix,GT,37.4133631,-122.0782208,-21.919421642810107,11.692253,0.1,180.18932,1639594313438
Fix,GT,37.4132558,-122.078221,-21.249279431074857,12.0581455,0.1,180.60324,1639594314438
Fix,GT,37.4131451,-122.0782212,-20.487575462341308,12.571968,0.1,180.267,1639594315438
Fix,GT,37.4130302,-122.0782213,-19.67163087934256,12.811708,0.1,180.59712,1639594316438
Fix,GT,37.4129147,-122.0782219,-18.775772384405133,12.721247,0.1,180.63304,1639594317438
Fix,GT,37.4128021,-122.0782229,-17.87119567707181,12.2882185,0.1,180.5635,1639594318438
Fix,GT,37.4126928,-122.078223,-17.064673908472063,12.023031,0.1,180.4309,1639594319438
Fix,GT,37.412585,-122.0782235,-16.23189925029874,11.95585,0.1,180.59053,1639594320438
Fix,GT,37.4124769,-122.0782243,-15.480998657494784,11.967419,0.1,180.80647,1639594321438
Fix,GT,37.4123715,-122.078226,-14.887844161242246,11.389221,0.1,181.1817,1639594322438
Fix,GT,37.4122716,-122.0782285,-14.403646356910468,10.888536,0.1,181.746,1639594323438
Fix,GT,37.4121735,-122.078232,-13.99816843110323,10.8539505,0.1,181.88449,1639594324438
Fix,GT,37.4120775,-122.0782346,-13.67183016204834,10.416724,0.1,181.36209,1639594325438
Fix,GT,37.4119849,-122.078236,-13.418633233785627,10.254725,0.1,180.87416,1639594326438
Fix,GT,37.41189,-122.0782362,-13.262436307907103,10.857822,0.1,180.33678,1639594327438
Fix,GT,37.4117901,-122.0782366,-13.1565768379271,11.177702,0.1,180.49895,1639594328438
Fix,GT,37.4116901,-122.0782374,-13.15214053171873,10.991617,0.1,180.69295,1639594329438
Fix,GT,37.4115916,-122.0782393,-13.2353243124485,10.894148,0.1,181.08734,1639594330438
Fix,GT,37.4114943,-122.0782412,-13.422366779327392,10.695665,0.1,181.01619,1639594331438
Fix,GT,37.4113985,-122.0782454,-13.72477603006363,10.606227,0.1,183.04037,1639594332438
Fix,GT,37.4113039,-122.0782566,-13.99859264397621,10.356763,0.1,186.56302,1639594333438
Fix,GT,37.4112156,-122.0782768,-14.384972527891398,9.705949,0.1,192.06305,1639594334438
Fix,GT,37.4111336,-122.0783099,-14.929677145808936,9.5471735,0.1,201.04272,1639594335438
Fix,GT,37.4110612,-122.0783626,-15.546086396098136,9.154581,0.1,213.9153,1639594336438
Fix,GT,37.4110026,-122.0784333,-16.322579149723055,9.120976,0.1,227.17964,1639594337438
Fix,GT,37.4109609,-122.0785213,-17.09808688694239,9.360482,0.1,243.05054,1639594338438
Fix,GT,37.4109399,-122.0786248,-18.063607588529585,9.814362,0.1,260.25037,1639594339438
Fix,GT,37.4109436,-122.0787376,-19.030496748536827,10.321874,0.1,276.29367,1639594340438
Fix,GT,37.4109731,-122.0788491,-19.833720699608325,10.710038,0.1,293.14288,1639594341438
Fix,GT,37.4110277,-122.0789494,-20.45253732150793,10.954905,0.1,308.4099,1639594342438
Fix,GT,37.4111016,-122.0790308,-20.94587455314398,11.081263,0.1,322.3708,1639594343438
Fix,GT,37.4111891,-122.0790895,-21.34326899850368,11.094202,0.1,335.03354,1639594344438
Fix,GT,37.4112841,-122.0791245,-21.56802898651361,11.028685,0.1,346.90234,1639594345438
Fix,GT,37.4113821,-122.0791327,-21.83692988651991,10.974237,0.1,0.04940796,1639594346438
Fix,GT,37.4114782,-122.0791104,-22.11379026773572,10.907852,0.1,14.726685,1639594347438
Fix,GT,37.4115644,-122.0790563,-22.25400066322089,10.728689,0.1,31.311066,1639594348438
Fix,GT,37.4116354,-122.0789748,-22.307605538368225,10.973843,0.1,46.374664,1639594349438
Fix,GT,37.4116895,-122.0788706,-22.419140930712224,11.362434,0.1,61.030212,1639594350438
Fix,GT,37.4117205,-122.0787493,-22.40095685017109,11.501217,0.1,76.88092,1639594351438
Fix,GT,37.4117254,-122.0786199,-22.348478092372417,11.754071,0.1,91.9361,1639594352438
Fix,GT,37.4117033,-122.078489,-22.29791503238678,12.281576,0.1,105.90341,1639594353438
Fix,GT,37.4116604,-122.0783554,-22.196717475384474,13.282694,0.1,113.85043,1639594354438
Fix,GT,37.4116041,-122.0782142,-22.17862035042048,14.499651,0.1,117.458984,1639594355438
Fix,GT,37.4115392,-122.0780644,-22.14267631214857,15.606365,0.1,118.41144,1639594356438
Fix,GT,37.4114693,-122.0779094,-22.064817241489884,15.73827,0.1,119.82092,1639594357438
Fix,GT,37.4113973,-122.0777569,-21.986,15.707142,0.1,120.83063,1639594358438
Fix,GT,37.4113227,-122.0776047,-21.86263381412625,15.922621,0.1,121.6062,1639594359438
Fix,GT,37.4112458,-122.0774497,-21.786478756666185,16.441792,0.1,122.06915,1639594360438
Fix,GT,37.4111653,-122.0772882,-21.62943691366911,17.136679,0.1,121.6882,1639594361438
Fix,GT,37.4110849,-122.0771198,-21.506577200889588,17.481436,0.1,120.54199,1639594362438
Fix,GT,37.4110055,-122.0769495,-21.375380311071872,17.294815,0.1,120.530334,1639594363438
Fix,GT,37.4109279,-122.0767812,-21.25029533302784,17.002903,0.1,119.71234,1639594364438
Fix,GT,37.4108547,-122.0766138,-21.165295332133766,16.783428,0.1,118.29767,1639594365438
Fix,GT,37.4107844,-122.0764453,-21.00801346248388,16.928314,0.1,117.2041,1639594366438
Fix,GT,37.4107138,-122.076273,-20.633026919960976,17.30708,0.1,117.43121,1639594367438
Fix,GT,37.4106419,-122.0761009,-20.179885982990264,17.10522,0.1,117.70776,1639594368438
Fix,GT,37.4105711,-122.0759296,-19.5307590880394,17.116049,0.1,117.389404,1639594369438
Fix,GT,37.4105013,-122.0757579,-18.83209631776809,16.962833,0.1,117.06085,1639594370438
Fix,GT,37.4104317,-122.0755869,-18.088532573223112,16.991158,0.1,117.359375,1639594371438
Fix,GT,37.4103621,-122.0754182,-17.24243463894725,16.707422,0.1,117.61255,1639594372438
Fix,GT,37.4102936,-122.0752507,-16.41491286933422,16.612617,0.1,116.98761,1639594373438
Fix,GT,37.4102272,-122.0750845,-15.602096295118333,16.520222,0.1,116.57712,1639594374438
Fix,GT,37.4101594,-122.0749178,-14.892801412791014,16.733788,0.1,117.492035,1639594375438
Fix,GT,37.4100885,-122.0747505,-14.19728013637662,16.789263,0.1,118.864624,1639594376438
Fix,GT,37.410015,-122.0745849,-13.568420240104198,16.829903,0.1,119.346924,1639594377438
Fix,GT,37.4099407,-122.074419,-12.931224149793389,16.734383,0.1,119.952576,1639594378438
Fix,GT,37.4098665,-122.0742579,-12.37370287761092,16.28483,0.1,120.04532,1639594379438
Fix,GT,37.4097965,-122.0740965,-11.906351605921984,16.270247,0.1,118.148865,1639594380438
Fix,GT,37.4097312,-122.0739321,-11.471450026720763,16.124268,0.1,115.70337,1639594381438
Fix,GT,37.4096741,-122.0737672,-11.128112201452256,15.71711,0.1,112.64484,1639594382438
Fix,GT,37.4096236,-122.0736014,-10.940479074776173,15.768108,0.1,110.34857,1639594383438
Fix,GT,37.4095777,-122.0734327,-10.812056254029274,15.857777,0.1,108.339325,1639594384438
Fix,GT,37.4095344,-122.0732588,-10.73762000694871,16.40791,0.1,107.132996,1639594385438
Fix,GT,37.4094916,-122.0730802,-10.762324384212494,16.66209,0.1,106.75458,1639594386438
Fix,GT,37.4094475,-122.0729006,-10.835803132772448,16.543564,0.1,107.791504,1639594387438
Fix,GT,37.4093995,-122.072725,-10.999464999616148,16.419119,0.1,109.75845,1639594388438
Fix,GT,37.4093453,-122.0725506,-11.194042174369097,16.951468,0.1,112.64368,1639594389438
Fix,GT,37.4092806,-122.0723718,-11.397366899967192,17.72157,0.1,115.82959,1639594390438
Fix,GT,37.4092069,-122.0721914,-11.672972834020854,18.173605,0.1,118.0874,1639594391438
Fix,GT,37.4091286,-122.0720097,-11.985255068778994,18.437744,0.1,118.77301,1639594392438
Fix,GT,37.409048,-122.0718256,-12.490057845175269,18.807346,0.1,118.892914,1639594393438
Fix,GT,37.4089654,-122.0716367,-13.096100739240644,19.236609,0.1,119.046875,1639594394438
Fix,GT,37.4088812,-122.0714464,-13.741579493403432,19.346737,0.1,119.07138,1639594395438
Fix,GT,37.4087968,-122.0712521,-14.437861387968065,19.915634,0.1,118.54486,1639594396438
Fix,GT,37.4087102,-122.0710525,-15.142241714835166,20.193106,0.1,119.07953,1639594397438
Fix,GT,37.4086222,-122.0708521,-15.889326765358447,20.339245,0.1,119.09833,1639594398438
Fix,GT,37.4085345,-122.0706486,-16.607959352999924,20.509962,0.1,118.04831,1639594399438
Fix,GT,37.4084528,-122.0704408,-17.21372100120783,20.47517,0.1,115.22281,1639594400438
Fix,GT,37.4083797,-122.0702277,-17.68763492769003,20.586582,0.1,112.472046,1639594401438
Fix,GT,37.4083138,-122.0700091,-18.141931273788213,20.73458,0.1,109.73236,1639594402438
Fix,GT,37.4082538,-122.069787,-18.466268527686594,20.752323,0.1,108.418915,1639594403438
Fix,GT,37.4081963,-122.0695632,-18.70146481466293,20.851377,0.1,107.624664,1639594404438
Fix,GT,37.4081408,-122.0693377,-18.72138031619788,20.962221,0.1,107.20526,1639594405438
Fix,GT,37.4080852,-122.0691122,-18.663239923417567,20.7551,0.1,107.470276,1639594406438
Fix,GT,37.4080301,-122.0688904,-18.60015485492349,20.371344,0.1,107.38507,1639594407438
Fix,GT,37.4079765,-122.0686725,-18.517845703363417,20.022707,0.1,107.29019,1639594408438
Fix,GT,37.4079231,-122.0684587,-18.52662023514509,19.634516,0.1,107.77905,1639594409438
Fix,GT,37.407871,-122.0682495,-18.53433777952194,19.078274,0.1,107.21472,1639594410438
Fix,GT,37.4078237,-122.0680478,-18.558380317389965,18.181465,0.1,106.03067,1639594411438
Fix,GT,37.4077816,-122.0678575,-18.58752182430029,16.358349,0.1,105.93155,1639594412438
Fix,GT,37.4077444,-122.0676861,-18.671325006008143,15.48958,0.1,104.66678,1639594413438
Fix,GT,37.4077131,-122.0675147,-18.74894413459301,15.78138,0.1,102.17758,1639594414438
Fix,GT,37.4076837,-122.0673353,-18.80942230382562,16.670551,0.1,101.9299,1639594415438
Fix,GT,37.4076495,-122.0671454,-18.955986686468123,17.847704,0.1,103.34216,1639594416438
Fix,GT,37.407609,-122.0669444,-19.116041979283093,18.934286,0.1,105.071594,1639594417438
Fix,GT,37.4075641,-122.0667315,-19.144620251774786,20.03983,0.1,104.706024,1639594418438
Fix,GT,37.4075166,-122.0665072,-19.10214095699787,21.085312,0.1,105.257416,1639594419438
Fix,GT,37.4074645,-122.0662717,-19.086859611421826,22.220871,0.1,105.772156,1639594420438
Fix,GT,37.4074097,-122.0660236,-19.063478154033422,23.347122,0.1,105.42938,1639594421438
Fix,GT,37.4073532,-122.0657636,-18.995153681516648,24.372992,0.1,105.20972,1639594422438
Fix,GT,37.4072944,-122.0654933,-18.853619680225847,25.21147,0.1,105.466064,1639594423438
Fix,GT,37.407233,-122.0652146,-18.839773919761186,25.97257,0.1,105.65521,1639594424438
Fix,GT,37.4071692,-122.0649281,-18.810619679808617,26.668983,0.1,105.68149,1639594425438
Fix,GT,37.4071042,-122.0646346,-18.83163238972425,27.298306,0.1,105.530426,1639594426438
Fix,GT,37.4070371,-122.0643343,-18.80815423119068,27.866848,0.1,105.80322,1639594427438
Fix,GT,37.4069692,-122.0640284,-18.7679016033411,28.354385,0.1,105.59747,1639594428438
Fix,GT,37.4069004,-122.0637173,-18.770196791529656,28.717556,0.1,105.49878,1639594429438
Fix,GT,37.4068318,-122.0634032,-18.803,28.985298,0.1,105.36035,1639594430438
Fix,GT,37.4067628,-122.0630862,-18.833043130576613,29.212929,0.1,105.361206,1639594431438
Fix,GT,37.4066932,-122.0627654,-18.919705383092165,29.641638,0.1,105.213135,1639594432438
Fix,GT,37.4066226,-122.0624398,-18.92171807134152,30.094158,0.1,105.38501,1639594433438
Fix,GT,37.4065506,-122.06211,-18.93690104365349,30.421574,0.1,105.38321,1639594434438
Fix,GT,37.4064773,-122.061777,-18.94170539090037,30.79752,0.1,105.58728,1639594435438
Fix,GT,37.4064027,-122.0614401,-18.99328193151951,31.049294,0.1,105.56683,1639594436438
Fix,GT,37.4063283,-122.0611014,-18.986478145837783,31.228012,0.1,105.36716,1639594437438
Fix,GT,37.4062545,-122.0607596,-18.956239355444907,31.417194,0.1,105.186066,1639594438438
Fix,GT,37.4061804,-122.0604159,-18.8905770984292,31.652512,0.1,105.27222,1639594439438
Fix,GT,37.4061051,-122.0600697,-18.84629516226053,31.838257,0.1,105.44885,1639594440438
Fix,GT,37.4060288,-122.0597225,-18.795239354610445,31.933168,0.1,105.62988,1639594441438
Fix,GT,37.4059514,-122.0593751,-18.7623803228736,31.931057,0.1,105.759705,1639594442438
Fix,GT,37.4058748,-122.0590275,-18.69295741558075,31.911018,0.1,105.40427,1639594443438
Fix,GT,37.4057991,-122.0586816,-18.702337738215924,31.560131,0.1,105.56149,1639594444438
Fix,GT,37.4057236,-122.0583399,-18.665183556199075,31.271322,0.1,105.57788,1639594445438
Fix,GT,37.4056488,-122.0579999,-18.707479263812303,31.185555,0.1,105.40582,1639594446438
Fix,GT,37.4055745,-122.0576603,-18.673239352822304,31.189695,0.1,105.502625,1639594447438
Fix,GT,37.4054996,-122.0573202,-18.69804314658046,31.292921,0.1,105.59378,1639594448438
Fix,GT,37.4054243,-122.0569802,-18.723098939061167,31.184307,0.1,105.57715,1639594449438
Fix,GT,37.4053494,-122.0566413,-18.729902177721264,31.090397,0.1,105.49304,1639594450438
Fix,GT,37.4052736,-122.0563035,-18.77485902762413,31.083778,0.1,106.10321,1639594451438
Fix,GT,37.4051948,-122.0559666,-18.741379765689373,31.092373,0.1,106.80289,1639594452438
Fix,GT,37.4051127,-122.0556307,-18.7759994404316,31.101198,0.1,107.468414,1639594453438
Fix,GT,37.4050283,-122.0552975,-18.72657707965374,30.754328,0.1,107.94055,1639594454438
Fix,GT,37.4049427,-122.0549689,-18.61143610477448,30.485233,0.1,108.40265,1639594455438
Fix,GT,37.4048554,-122.0546439,-18.56357763165236,30.283428,0.1,108.9581,1639594456438
Fix,GT,37.4047662,-122.0543219,-18.383266259312627,30.066248,0.1,109.53125,1639594457438
Fix,GT,37.404676,-122.0540029,-17.809616082042456,29.908318,0.1,109.52597,1639594458438
Fix,GT,37.404587,-122.0536841,-16.99406639626622,29.918936,0.1,109.327576,1639594459438
Fix,GT,37.4044983,-122.0533655,-15.916262629628182,29.779715,0.1,109.332245,1639594460438
Fix,GT,37.4044103,-122.0530492,-14.758065428823231,29.541988,0.1,109.25552,1639594461438
Fix,GT,37.4043242,-122.0527349,-13.694488792419437,29.297184,0.1,108.915955,1639594462438
Fix,GT,37.4042393,-122.0524226,-12.896475610136983,29.110075,0.1,108.849884,1639594463438
Fix,GT,37.404156,-122.0521118,-12.3279833676517,28.965813,0.1,108.53296,1639594464438
Fix,GT,37.4040752,-122.0518019,-11.899885714530946,28.713007,0.1,107.93097,1639594465438
Fix,GT,37.4039976,-122.0514951,-11.51042292892933,28.255772,0.1,107.4613,1639594466438
Fix,GT,37.4039238,-122.0511921,-11.469183239102364,27.843994,0.1,106.866486,1639594467438
Fix,GT,37.4038529,-122.0508922,-11.623255279392003,27.58577,0.1,106.51697,1639594468438
Fix,GT,37.4037837,-122.0505939,-11.972888821750878,27.432346,0.1,106.08612,1639594469438
Fix,GT,37.4037168,-122.0502961,-12.422537215232849,27.386284,0.1,105.650085,1639594470438
Fix,GT,37.4036511,-122.0499972,-13.15070800805092,27.516624,0.1,105.41339,1639594471438
Fix,GT,37.4035854,-122.0496964,-14.000186296373606,27.660114,0.1,105.42944,1639594472438
Fix,GT,37.4035193,-122.0493957,-14.878130956113338,27.589924,0.1,105.542175,1639594473438
Fix,GT,37.4034528,-122.0490957,-15.866173569083212,27.536745,0.1,105.67975,1639594474438
Fix,GT,37.4033864,-122.0487961,-16.923792749077084,27.528313,0.1,105.51114,1639594475438
Fix,GT,37.4033209,-122.0484964,-17.840708043932914,27.473736,0.1,105.313965,1639594476438
Fix,GT,37.4032561,-122.0481977,-18.53711412891745,27.34947,0.1,105.21988,1639594477438
Fix,GT,37.4031914,-122.0479006,-19.044268244475123,27.164858,0.1,105.54358,1639594478438
Fix,GT,37.403126,-122.0476061,-19.29684530174732,26.96952,0.1,105.749176,1639594479438
Fix,GT,37.4030602,-122.047314,-19.3650983671546,26.773552,0.1,105.841736,1639594480438
Fix,GT,37.4029952,-122.0470234,-19.32529452311993,26.717915,0.1,105.60031,1639594481438
Fix,GT,37.402931,-122.0467332,-19.25866228806973,26.535976,0.1,105.58081,1639594482438
Fix,GT,37.4028676,-122.0464463,-19.22033771109581,26.15919,0.1,105.51779,1639594483438
Fix,GT,37.4028054,-122.0461634,-19.193380327105523,25.791233,0.1,105.46448,1639594484438
Fix,GT,37.4027442,-122.0458845,-19.14647869086265,25.434568,0.1,105.43359,1639594485438
Fix,GT,37.402684,-122.0456094,-19.10209779348969,25.055248,0.1,105.33087,1639594486438
Fix,GT,37.4026261,-122.0453414,-19.07171803486348,24.04676,0.1,105.151276,1639594487438
Fix,GT,37.4025709,-122.0450834,-19.03738032764196,23.430029,0.1,105.03418,1639594488438
Fix,GT,37.4025166,-122.0448296,-19.025380894720552,23.139334,0.1,105.251465,1639594489438
Fix,GT,37.4024618,-122.0445773,-19.02438089480996,23.203445,0.1,105.337616,1639594490438
Fix,GT,37.4024067,-122.0443237,-19.01885844942928,23.287888,0.1,105.35367,1639594491438
Fix,GT,37.4023513,-122.0440715,-19.020999433130022,23.075981,0.1,105.62906,1639594492438
Fix,GT,37.4022951,-122.04382,-19.041760088831182,23.26175,0.1,105.63861,1639594493438
Fix,GT,37.4022392,-122.0435641,-19.04642295414209,23.641098,0.1,105.22528,1639594494438
Fix,GT,37.4021834,-122.0433057,-19.06962024000287,23.752834,0.1,105.26257,1639594495438
Fix,GT,37.4021275,-122.0430475,-19.0740005684495,23.585114,0.1,105.30469,1639594496438
Fix,GT,37.4020717,-122.0427916,-19.12204319831729,23.38261,0.1,105.4212,1639594497438
Fix,GT,37.4020165,-122.0425383,-19.16390164357424,23.104988,0.1,105.350586,1639594498438
Fix,GT,37.4019617,-122.0422873,-19.23118418985605,23.048468,0.1,105.49457,1639594499438
Fix,GT,37.4019063,-122.0420364,-19.30652189102769,22.988045,0.1,105.606384,1639594500438
Fix,GT,37.4018511,-122.0417869,-19.353803867101668,22.944315,0.1,105.5202,1639594501438
Fix,GT,37.4017961,-122.0415351,-19.4448032913208,23.227352,0.1,105.330536,1639594502438
Fix,GT,37.4017409,-122.041283,-19.504803872793914,23.055977,0.1,105.546844,1639594503438
Fix,GT,37.4016862,-122.0410332,-19.572183621764182,22.783905,0.1,105.27179,1639594504438
Fix,GT,37.4016327,-122.0407854,-19.588239341378213,22.697643,0.1,105.23749,1639594505438
Fix,GT,37.4015791,-122.0405381,-19.581239341259003,22.694069,0.1,105.305664,1639594506438
Fix,GT,37.4015253,-122.0402902,-19.550718606323,22.806007,0.1,105.30032,1639594507438
Fix,GT,37.4014712,-122.0400404,-19.510140988469125,23.065727,0.1,105.15173,1639594508438
Fix,GT,37.4014161,-122.0397874,-19.497239340901373,23.33522,0.1,105.56903,1639594509438
Fix,GT,37.4013594,-122.0395325,-19.46123992073536,23.54236,0.1,105.54236,1639594510438
Fix,GT,37.4013029,-122.039275,-19.444295054972173,23.696953,0.1,105.2901,1639594511438
Fix,GT,37.4012464,-122.0390166,-19.412380908161403,23.70719,0.1,105.439575,1639594512438
Fix,GT,37.4011897,-122.0387587,-19.384479259192943,23.694424,0.1,105.50876,1639594513438
Fix,GT,37.4011328,-122.0385006,-19.380140989005568,23.69562,0.1,105.41022,1639594514438
Fix,GT,37.4010763,-122.038243,-19.372140989005565,23.60273,0.1,105.439545,1639594515438
Fix,GT,37.4010201,-122.0379879,-19.36561967033148,23.18628,0.1,105.52063,1639594516438
Fix,GT,37.4009656,-122.0377434,-19.423,21.960041,0.1,105.73828,1639594517438
Fix,GT,37.4009123,-122.0375074,-19.51836725270748,21.528187,0.1,105.733795,1639594518438
Fix,GT,37.4008602,-122.0372754,-19.570380329668524,21.19637,0.1,106.13971,1639594519438
Fix,GT,37.4008052,-122.0370479,-19.64408527469635,20.885685,0.1,107.338104,1639594520438
Fix,GT,37.4007483,-122.0368251,-19.73988857138157,20.559963,0.1,107.73346,1639594521438
Fix,GT,37.4006926,-122.0366061,-19.853043228685856,20.08218,0.1,107.36084,1639594522438
Fix,GT,37.4006408,-122.0363924,-19.97722685828805,19.404245,0.1,106.54053,1639594523438
Fix,GT,37.4005927,-122.0361885,-20.076803894609213,18.094872,0.1,106.12088,1639594524438
Fix,GT,37.4005498,-122.0360002,-20.164521318435668,16.554888,0.1,105.664246,1639594525438
Fix,GT,37.4005106,-122.0358294,-20.243140988826752,14.831843,0.1,106.351105,1639594526438
Fix,GT,37.4004731,-122.0356822,-20.314042635440828,12.3928795,0.1,108.763794,1639594527438
Fix,GT,37.4004372,-122.03557,-20.394183623075484,9.146486,0.1,113.18344,1639594528438
Fix,GT,37.4004047,-122.035487,-20.52570493966341,7.5795164,0.1,116.99414,1639594529438
Fix,GT,37.4003711,-122.0354152,-20.580043247491123,7.1998434,0.1,121.24927,1639594530438
Fix,GT,37.400334,-122.0353525,-20.63152193194628,6.6174154,0.1,127.89801,1639594531438
Fix,GT,37.4002927,-122.0353019,-20.62433769524097,6.3110523,0.1,136.65433,1639594532438
Fix,GT,37.4002478,-122.0352613,-20.58585901224613,6.080532,0.1,144.8529,1639594533438
Fix,GT,37.4002008,-122.0352305,-20.532957366466523,5.7547283,0.1,152.7569,1639594534438
Fix,GT,37.4001531,-122.0352094,-20.479197318822145,5.8586483,0.1,160.59442,1639594535438
Fix,GT,37.4000977,-122.0351963,-20.39309896200896,6.6000624,0.1,169.92236,1639594536438
Fix,GT,37.4000374,-122.0351942,-20.321098959863185,6.8390336,0.1,178.72156,1639594537438
Fix,GT,37.3999759,-122.0352033,-20.25833829969168,7.109356,0.1,188.01982,1639594538438
Fix,GT,37.399913,-122.0352282,-20.19919670808316,7.5970955,0.1,199.16023,1639594539438
Fix,GT,37.3998509,-122.0352691,-20.1060557205081,8.00084,0.1,209.16306,1639594540438
Fix,GT,37.3997936,-122.0353228,-20.03095796281099,7.919531,0.1,217.64021,1639594541438
Fix,GT,37.3997418,-122.0353825,-19.9566196706295,7.7602835,0.1,222.59082,1639594542438
Fix,GT,37.3996934,-122.0354473,-19.896000592947004,8.051498,0.1,227.51395,1639594543438
Fix,GT,37.399647,-122.0355201,-19.834055717408656,8.485681,0.1,231.47849,1639594544438
Fix,GT,37.3996028,-122.035601,-19.72109894019365,8.94721,0.1,236.18942,1639594545438
Fix,GT,37.399563,-122.0356887,-19.596154068112376,8.859112,0.1,241.17094,1639594546438
Fix,GT,37.3995301,-122.0357773,-19.418675963938234,8.473938,0.1,245.71791,1639594547438
Fix,GT,37.3995047,-122.0358649,-19.21639397776127,8.067564,0.1,250.56525,1639594548438
Fix,GT,37.3994857,-122.0359503,-18.96063274335861,7.772666,0.1,254.86685,1639594549438
Fix,GT,37.3994722,-122.036036,-18.717534950107336,7.6448307,0.1,259.36725,1639594550438
Fix,GT,37.3994656,-122.0361212,-18.44573164013028,7.77213,0.1,265.3291,1639594551438
Fix,GT,37.3994673,-122.0362108,-18.166209767341613,7.9652042,0.1,272.93027,1639594552438
Fix,GT,37.39948,-122.0362975,-17.838829435348508,7.865323,0.1,282.17108,1639594553438
Fix,GT,37.3995052,-122.0363816,-17.4684069814384,8.147987,0.1,292.89258,1639594554438
Fix,GT,37.3995443,-122.0364593,-17.086927265048026,8.286056,0.1,304.73447,1639594555438
Fix,GT,37.3995965,-122.0365274,-16.742589588284496,8.645882,0.1,315.78247,1639594556438
Fix,GT,37.3996609,-122.0365845,-16.36268892148137,8.949255,0.1,327.11182,1639594557438
Fix,GT,37.3997359,-122.0366237,-16.01392728820443,9.252701,0.1,340.5392,1639594558438
Fix,GT,37.399818,-122.0366406,-15.709688893675803,9.400413,0.1,353.36246,1639594559438
Fix,GT,37.3999033,-122.0366345,-15.458209745168686,9.805447,0.1,6.130127,1639594560438
Fix,GT,37.3999896,-122.0366034,-15.206632266968487,10.304874,0.1,19.529266,1639594561438
Fix,GT,37.400071,-122.0365447,-14.931632719755171,10.763393,0.1,33.54135,1639594562438
Fix,GT,37.4001442,-122.0364602,-14.709675365448,11.565519,0.1,46.08426,1639594563438
Fix,GT,37.4002108,-122.0363525,-14.39749129241705,12.700841,0.1,53.347412,1639594564438
Fix,GT,37.4002795,-122.0362295,-14.156154460698366,13.894844,0.1,54.943665,1639594565438
Fix,GT,37.4003499,-122.036095,-13.895393374443051,14.646927,0.1,57.40805,1639594566438
Fix,GT,37.4004205,-122.035948,-13.705056101590396,15.716509,0.1,58.944733,1639594567438
Fix,GT,37.400496,-122.0357892,-13.57585900580883,17.068546,0.1,58.619324,1639594568438
Fix,GT,37.4005792,-122.0356178,-13.546619264781476,18.466263,0.1,58.468445,1639594569438
Fix,GT,37.4006666,-122.0354316,-13.54728158596158,19.689732,0.1,60.027435,1639594570438
Fix,GT,37.4007541,-122.0352333,-13.699423392087224,20.512905,0.1,61.517212,1639594571438
Fix,GT,37.4008419,-122.0350236,-13.93536688026786,21.39574,0.1,62.74228,1639594572438
Fix,GT,37.400929,-122.0348029,-14.242268529206513,22.143509,0.1,64.239685,1639594573438
Fix,GT,37.4010134,-122.0345753,-14.662354698091749,22.258963,0.1,65.48538,1639594574438
Fix,GT,37.401095,-122.034344,-15.17001613470912,22.53952,0.1,66.39282,1639594575438
Fix,GT,37.4011749,-122.0341099,-15.783426540374755,22.546146,0.1,66.99173,1639594576438
Fix,GT,37.4012536,-122.0338736,-16.54266588151455,22.87434,0.1,67.385254,1639594577438
Fix,GT,37.4013319,-122.0336323,-17.347033187389375,23.176613,0.1,68.01309,1639594578438
Fix,GT,37.4014084,-122.0333881,-18.26165286141634,23.330797,0.1,68.69641,1639594579438
Fix,GT,37.4014838,-122.0331398,-19.097905231475828,23.697803,0.1,69.33652,1639594580438
Fix,GT,37.4015566,-122.0328881,-19.775439591109752,23.738358,0.1,70.30582,1639594581438
Fix,GT,37.4016274,-122.032633,-20.273832947731016,24.207123,0.1,70.87134,1639594582438
Fix,GT,37.401698,-122.0323699,-20.56636669313908,24.864094,0.1,71.6452,1639594583438
Fix,GT,37.4017666,-122.0321029,-20.734606023937463,24.778683,0.1,72.16223,1639594584438
Fix,GT,37.4018358,-122.031836,-20.925085313797,25.040272,0.1,71.37222,1639594585438
Fix,GT,37.4019098,-122.0315643,-21.05156335917115,25.797035,0.1,70.67914,1639594586438
Fix,GT,37.4019875,-122.0312861,-21.23326833695173,26.284218,0.1,70.47861,1639594587438
Fix,GT,37.4020662,-122.0310037,-21.464029634714127,26.768707,0.1,70.61841,1639594588438
Fix,GT,37.4021458,-122.0307159,-21.64584598124027,27.163347,0.1,71.00397,1639594589438
Fix,GT,37.4022231,-122.0304224,-21.80298697811365,27.54956,0.1,71.8905,1639594590438
Fix,GT,37.4022987,-122.0301254,-21.97950830876828,27.605179,0.1,72.421875,1639594591438
Fix,GT,37.4023722,-122.0298276,-22.17314099723101,27.59491,0.1,72.616394,1639594592438
Fix,GT,37.4024463,-122.0295302,-22.26790166205168,27.618807,0.1,72.47046,1639594593438
Fix,GT,37.4025203,-122.0292323,-22.21611135578156,27.534227,0.1,72.611145,1639594594438
Fix,GT,37.4025929,-122.028937,-21.90708171087504,27.181046,0.1,72.69687,1639594595438
Fix,GT,37.402665,-122.0286457,-21.317996386170385,26.796349,0.1,72.510254,1639594596438
Fix,GT,37.4027368,-122.0283588,-20.533714386045933,26.50919,0.1,72.40588,1639594597438
Fix,GT,37.4028081,-122.0280727,-19.650812717914583,26.534836,0.1,72.51883,1639594598438
Fix,GT,37.4028785,-122.0277882,-18.877658702850344,26.237576,0.1,72.735504,1639594599438
Fix,GT,37.4029459,-122.027505,-18.284462027311324,26.060543,0.1,73.7041,1639594600438
Fix,GT,37.403009,-122.0272243,-17.79068834686279,25.576183,0.1,74.41083,1639594601438
Fix,GT,37.4030684,-122.0269471,-17.487534338891507,25.343128,0.1,75.10211,1639594602438
Fix,GT,37.4031253,-122.02667,-17.335914670944213,25.288696,0.1,75.8049,1639594603438
Fix,GT,37.4031788,-122.0263939,-17.309042149484156,25.080782,0.1,76.47339,1639594604438
Fix,GT,37.4032304,-122.026117,-17.3891279964447,25.361385,0.1,76.809906,1639594605438
Fix,GT,37.4032812,-122.0258355,-17.603029140681027,25.655373,0.1,77.41339,1639594606438
Fix,GT,37.4033288,-122.0255518,-18.007875133365392,25.72784,0.1,78.32593,1639594607438
Fix,GT,37.4033743,-122.0252655,-18.4710587939322,25.975613,0.1,78.504,1639594608438
Fix,GT,37.4034198,-122.024976,-19.094144120574,26.2644,0.1,78.991,1639594609438
Fix,GT,37.4034644,-122.0246845,-19.86218677660823,26.2667,0.1,78.91174,1639594610438
Fix,GT,37.4035095,-122.0243936,-20.76489238256216,26.228529,0.1,78.758484,1639594611438
Fix,GT,37.403555,-122.0241019,-21.73337105828524,26.41726,0.1,78.81308,1639594612438
Fix,GT,37.4036024,-122.0238082,-22.65660972973704,26.681782,0.1,78.109955,1639594613438
Fix,GT,37.4036533,-122.0235116,-23.5011440333426,27.005028,0.1,77.364624,1639594614438
Fix,GT,37.4037076,-122.0232133,-24.12239633339644,27.112003,0.1,76.8869,1639594615438
Fix,GT,37.4037633,-122.0229162,-24.50122708371282,26.897194,0.1,76.41986,1639594616438
Fix,GT,37.4038202,-122.0226228,-24.66656474930048,26.556988,0.1,76.07913,1639594617438
Fix,GT,37.4038783,-122.0223319,-24.73680408355594,26.647152,0.1,75.527405,1639594618438
Fix,GT,37.4039398,-122.0220359,-24.90270427858829,27.69636,0.1,74.967834,1639594619438
Fix,GT,37.4040046,-122.0217263,-25.05246569252014,28.950323,0.1,75.20001,1639594620438
Fix,GT,37.4040726,-122.0214047,-25.17184602952004,29.932175,0.1,74.73224,1639594621438
Fix,GT,37.4041441,-122.0210732,-25.255183686673643,30.86607,0.1,74.698975,1639594622438
Fix,GT,37.4042177,-122.0207318,-25.25114100581408,31.691303,0.1,74.61694,1639594623438
Fix,GT,37.4042947,-122.0203833,-25.37184679242969,32.350285,0.1,74.17056,1639594624438
Fix,GT,37.4043739,-122.0200277,-25.459423019587994,33.025616,0.1,74.112305,1639594625438
Fix,GT,37.4044559,-122.0196658,-25.56932469964028,33.51775,0.1,73.87015,1639594626438
Fix,GT,37.4045394,-122.0192999,-25.587381098389628,33.931164,0.1,73.85651,1639594627438
Fix,GT,37.4046245,-122.0189285,-25.614465711772443,34.487896,0.1,73.77289,1639594628438
Fix,GT,37.4047104,-122.0185519,-25.62581630218029,34.746384,0.1,73.93863,1639594629438
Fix,GT,37.4047951,-122.0181754,-25.65766311877966,34.50215,0.1,74.24356,1639594630438
Fix,GT,37.4048782,-122.0178015,-25.75628125143051,34.22597,0.1,73.96219,1639594631438
Fix,GT,37.4049624,-122.0174313,-25.907281248360874,33.95323,0.1,73.64685,1639594632438
Fix,GT,37.4050471,-122.0170643,-26.00066235816479,33.685814,0.1,73.68414,1639594633438
Fix,GT,37.4051307,-122.0167,-26.06961888596416,33.491924,0.1,73.83301,1639594634438
Fix,GT,37.4052131,-122.0163364,-26.11100077816844,33.3802,0.1,73.96347,1639594635438
Fix,GT,37.4052951,-122.0159761,-26.14746573710441,32.970486,0.1,73.76019,1639594636438
Fix,GT,37.4053775,-122.0156203,-26.21622563493252,32.715866,0.1,73.479095,1639594637438
Fix,GT,37.405463,-122.015265,-26.283520568430426,33.02992,0.1,72.50342,1639594638438
Fix,GT,37.4055539,-122.0149044,-26.294380338072777,33.940796,0.1,71.961975,1639594639438
Fix,GT,37.4056481,-122.0145342,-26.302183721423148,34.847916,0.1,72.39053,1639594640438
Fix,GT,37.4057417,-122.0141546,-26.3628025996387,35.41537,0.1,72.84299,1639594641438
Fix,GT,37.4058355,-122.0137699,-26.40680338728428,35.77399,0.1,72.96268,1639594642438
Fix,GT,37.4059268,-122.013382,-26.491,35.820877,0.1,73.75223,1639594643438
Fix,GT,37.4060151,-122.0129927,-26.5444230517745,35.87929,0.1,73.99432,1639594644438
Fix,GT,37.4061033,-122.012603,-26.592282828211783,35.77527,0.1,73.98773,1639594645438
Fix,GT,37.4061905,-122.0122165,-26.757196605563163,35.345276,0.1,73.99707,1639594646438
Fix,GT,37.4062772,-122.0118338,-26.80370429524779,35.12764,0.1,73.90262,1639594647438
Fix,GT,37.4063636,-122.0114534,-26.85919740286469,34.931965,0.1,73.84204,1639594648438
Fix,GT,37.4064503,-122.011075,-26.96418373912573,34.7714,0.1,73.76105,1639594649438
Fix,GT,37.4065368,-122.0106982,-27.080663187891243,34.683403,0.1,73.782715,1639594650438
Fix,GT,37.4066233,-122.0103215,-27.238085444450377,34.75009,0.1,73.72339,1639594651438
Fix,GT,37.4067103,-122.0099427,-27.44627001079917,35.06978,0.1,73.72943,1639594652438
Fix,GT,37.4067972,-122.0095597,-27.511987153351303,35.4289,0.1,73.97052,1639594653438
Fix,GT,37.4068845,-122.0091733,-27.50609829592705,35.64781,0.1,73.93265,1639594654438
Fix,GT,37.406972,-122.0087856,-27.36035045385361,35.667515,0.1,74.15994,1639594655438
Fix,GT,37.4070585,-122.008398,-27.03001364305616,35.60197,0.1,74.16461,1639594656438
Fix,GT,37.4071454,-122.0080115,-26.799915339648727,35.50345,0.1,73.994385,1639594657438
Fix,GT,37.4072327,-122.0076253,-26.54301362103224,35.635933,0.1,73.92221,1639594658438
Fix,GT,37.4073207,-122.0072368,-26.327970879733563,35.85746,0.1,73.877045,1639594659438
Fix,GT,37.4074097,-122.0068471,-26.164098291456703,35.912743,0.1,73.96402,1639594660438
Fix,GT,37.4074972,-122.0064564,-26.05171794903278,35.910625,0.1,74.282776,1639594661438
Fix,GT,37.4075827,-122.0060659,-26.060423078060147,35.808563,0.1,74.660675,1639594662438
Fix,GT,37.4076668,-122.0056758,-26.25488967821002,35.7579,0.1,74.50122,1639594663438
Fix,GT,37.4077523,-122.0052856,-26.61140947729349,35.897415,0.1,74.29028,1639594664438
Fix,GT,37.4078389,-122.0048942,-26.97431118237972,36.03376,0.1,74.338715,1639594665438
Fix,GT,37.4079252,-122.0045011,-27.2791290358901,36.135197,0.1,74.45441,1639594666438
Fix,GT,37.4080112,-122.0041076,-27.58498637717962,36.110813,0.1,74.42035,1639594667438
Fix,GT,37.4080972,-122.0037145,-27.74947862815857,36.057796,0.1,74.46365,1639594668438
Fix,GT,37.4081827,-122.0033219,-27.8276632310152,36.02446,0.1,74.62274,1639594669438
Fix,GT,37.4082673,-122.0029295,-27.84680260309577,35.931396,0.1,74.61905,1639594670438
Fix,GT,37.4083521,-122.0025385,-27.85823931312561,35.806355,0.1,74.4787,1639594671438
Fix,GT,37.4084373,-122.0021494,-27.885759856253863,35.554012,0.1,74.4812,1639594672438
Fix,GT,37.4085215,-122.0017644,-27.93842226135731,35.161205,0.1,74.474335,1639594673438
Fix,GT,37.4086053,-122.0013818,-27.95023847898841,35.121513,0.1,74.52704,1639594674438
Fix,GT,37.4086885,-122.0009987,-27.994423097372056,35.19539,0.1,74.490326,1639594675438
Fix,GT,37.4087726,-122.0006148,-28.02138034439087,35.315258,0.1,74.42731,1639594676438
Fix,GT,37.408857,-122.0002292,-28.05261965543032,35.489708,0.1,74.41138,1639594677438
Fix,GT,37.4089417,-121.9998416,-28.03509827595949,35.614277,0.1,74.710815,1639594678438
Fix,GT,37.4090249,-121.9994528,-28.070282070279124,35.686466,0.1,74.77899,1639594679438
Fix,GT,37.4091086,-121.9990634,-28.10637950757146,35.71112,0.1,74.79077,1639594680438
Fix,GT,37.4091916,-121.9986736,-28.17452222111821,35.757576,0.1,74.91968,1639594681438
Fix,GT,37.4092748,-121.9982831,-28.19852138209343,35.778473,0.1,74.72296,1639594682438
Fix,GT,37.4093593,-121.9978933,-28.17733674046397,35.77366,0.1,74.42822,1639594683438
Fix,GT,37.4094453,-121.9975036,-28.18361881414056,35.800827,0.1,74.39987,1639594684438
Fix,GT,37.4095302,-121.9971135,-28.19176069223881,35.80753,0.1,74.60205,1639594685438
Fix,GT,37.4096148,-121.9967232,-28.232282919287684,35.802406,0.1,74.65857,1639594686438
Fix,GT,37.4096995,-121.9963333,-28.246,35.74307,0.1,74.50397,1639594687438
Fix,GT,37.409784,-121.995944,-28.27714188274741,35.69407,0.1,74.66431,1639594688438
Fix,GT,37.409868,-121.9955553,-28.29171791899204,35.613644,0.1,74.567474,1639594689438
Fix,GT,37.4099521,-121.9951676,-28.30366327273845,35.534283,0.1,74.65445,1639594690438
Fix,GT,37.4100356,-121.9947806,-28.305564166307448,35.464043,0.1,74.6821,1639594691438
Fix,GT,37.4101196,-121.9943939,-28.33333841267228,35.52486,0.1,74.40158,1639594692438
Fix,GT,37.4102045,-121.9940065,-28.34542312848568,35.596516,0.1,74.52591,1639594693438
Fix,GT,37.4102892,-121.9936185,-28.32971875780821,35.61726,0.1,74.471466,1639594694438
Fix,GT,37.4103737,-121.9932322,-28.3156751292944,35.29294,0.1,74.47571,1639594695438
Fix,GT,37.4104584,-121.9928482,-28.289,35.307,0.1,74.43988,1639594696438
Fix,GT,37.4105423,-121.9924634,-28.28895805633068,35.26961,0.1,74.69205,1639594697438
Fix,GT,37.4106252,-121.9920797,-28.226294771552084,35.13198,0.1,74.618164,1639594698438
Fix,GT,37.4107082,-121.9916971,-28.182056306779387,35.058872,0.1,74.673065,1639594699438
Fix,GT,37.4107904,-121.9913152,-28.0021537194252,34.980846,0.1,74.59189,1639594700438
Fix,GT,37.4108731,-121.9909342,-27.81733755588532,34.9379,0.1,74.527405,1639594701438
Fix,GT,37.4109566,-121.990553,-27.79129393106699,35.111702,0.1,74.36618,1639594702438
Fix,GT,37.4110422,-121.9901698,-27.61429475724697,35.315147,0.1,74.0972,1639594703438
Fix,GT,37.4111287,-121.9897856,-27.45381615269184,35.397964,0.1,73.98648,1639594704438
Fix,GT,37.4112179,-121.9894018,-27.128546697974205,35.236633,0.1,73.27521,1639594705438
Fix,GT,37.4113096,-121.9890237,-26.70746108424664,34.75553,0.1,72.50491,1639594706438
Fix,GT,37.411405,-121.9886502,-26.14793967270851,34.789288,0.1,71.63446,1639594707438
Fix,GT,37.4115048,-121.988276,-25.61417895746231,35.057907,0.1,71.166595,1639594708438
Fix,GT,37.4116079,-121.9879007,-25.046221005260943,35.14613,0.1,70.407166,1639594709438
Fix,GT,37.4117155,-121.9875272,-24.530221008241178,35.170303,0.1,69.60535,1639594710438
Fix,GT,37.4118261,-121.9871571,-24.05378665915132,34.74252,0.1,69.035065,1639594711438
Fix,GT,37.4119381,-121.9867918,-23.71533824500441,34.66887,0.1,68.46338,1639594712438
Fix,GT,37.4120537,-121.9864269,-23.504547327548263,34.81045,0.1,67.81958,1639594713438
Fix,GT,37.4121734,-121.986063,-23.28135013842583,34.873394,0.1,67.23474,1639594714438
Fix,GT,37.4122956,-121.9856998,-23.25685824945569,34.93821,0.1,66.56268,1639594715438
Fix,GT,37.4124229,-121.9853372,-23.29470598554612,35.206192,0.1,65.546814,1639594716438
Fix,GT,37.4125564,-121.9849748,-23.414564236402512,35.408234,0.1,64.71521,1639594717438
Fix,GT,37.412693,-121.9846122,-23.60866247332096,35.640816,0.1,64.35269,1639594718438
Fix,GT,37.412833,-121.9842481,-23.72122742512822,35.910828,0.1,63.947327,1639594719438
Fix,GT,37.412976,-121.9838822,-23.904988142788408,36.17829,0.1,63.515747,1639594720438
Fix,GT,37.4131224,-121.9835163,-24.07239363610744,36.262135,0.1,62.825806,1639594721438
Fix,GT,37.4132716,-121.9831539,-24.11812922206521,35.86901,0.1,62.363617,1639594722438
Fix,GT,37.4134211,-121.9827976,-24.39200072693825,35.446938,0.1,61.799072,1639594723438
Fix,GT,37.413571,-121.9824465,-24.611649202674627,35.04949,0.1,61.755493,1639594724438
Fix,GT,37.4137195,-121.982099,-24.887268846035003,34.790955,0.1,61.593018,1639594725438
Fix,GT,37.4138669,-121.9817533,-25.13160710716248,34.641045,0.1,61.711823,1639594726438
Fix,GT,37.4140138,-121.9814087,-25.170956405222416,34.544907,0.1,61.610413,1639594727438
Fix,GT,37.4141607,-121.9810636,-25.021350034952164,34.71541,0.1,61.831238,1639594728438
Fix,GT,37.4143072,-121.9807164,-24.73258857768774,34.7718,0.1,62.00772,1639594729438
Fix,GT,37.4144528,-121.9803698,-24.36282786872983,34.57911,0.1,61.998383,1639594730438
Fix,GT,37.4145976,-121.9800248,-23.9777732244134,34.443962,0.1,62.03772,1639594731438
Fix,GT,37.4147429,-121.9796807,-23.59464395058156,34.52365,0.1,61.71933,1639594732438
Fix,GT,37.4148894,-121.9793361,-23.191502880960705,34.59036,0.1,61.68048,1639594733438
Fix,GT,37.4150361,-121.9789917,-22.799166740745303,34.51991,0.1,61.77652,1639594734438
Fix,GT,37.4151812,-121.9786474,-22.43392676573992,34.45514,0.1,62.156006,1639594735438
Fix,GT,37.4153253,-121.9783027,-22.034447530567647,34.45549,0.1,61.973694,1639594736438
Fix,GT,37.415471,-121.9779586,-21.68519706389308,34.56101,0.1,61.746338,1639594737438
Fix,GT,37.415618,-121.9776134,-21.328220719337462,34.70199,0.1,61.60846,1639594738438
Fix,GT,37.415765,-121.977267,-20.933220718711613,34.77237,0.1,61.857605,1639594739438
Fix,GT,37.4159122,-121.9769195,-20.529785635471345,34.85735,0.1,61.864136,1639594740438
Fix,GT,37.4160588,-121.9765716,-20.18187137556076,34.807068,0.1,61.921997,1639594741438
Fix,GT,37.4162056,-121.9762242,-19.92101304066181,34.81137,0.1,61.986298,1639594742438
Fix,GT,37.4163518,-121.9758761,-19.734674959898,34.848667,0.1,62.085846,1639594743438
Fix,GT,37.4164982,-121.9755277,-19.59957675778866,34.863647,0.1,61.83615,1639594744438
Fix,GT,37.4166456,-121.9751805,-19.54247797524929,34.664253,0.1,61.67099,1639594745438
Fix,GT,37.4167917,-121.9748371,-19.59042383158207,34.299377,0.1,61.804718,1639594746438
Fix,GT,37.4169358,-121.9744952,-19.74474830758572,34.196735,0.1,61.972534,1639594747438
Fix,GT,37.4170803,-121.9741529,-19.87362023082376,34.375427,0.1,61.73703,1639594748438
Fix,GT,37.4172259,-121.9738095,-20.20568001911044,34.464016,0.1,61.97882,1639594749438
Fix,GT,37.4173707,-121.9734647,-20.62015918779373,34.51314,0.1,62.15564,1639594750438
Fix,GT,37.4175155,-121.9731192,-21.05869304609299,34.584213,0.1,61.882324,1639594751438
Fix,GT,37.4176621,-121.9727732,-21.544128704547884,34.865654,0.1,61.590027,1639594752438
Fix,GT,37.4178115,-121.9724247,-21.92387706321478,35.12868,0.1,61.603912,1639594753438
Fix,GT,37.4179587,-121.9720747,-22.426018164277075,34.892944,0.1,62.35132,1639594754438
Fix,GT,37.4181006,-121.9717235,-22.95139854580164,34.88347,0.1,64.0564,1639594755438
Fix,GT,37.4182311,-121.9713641,-23.496877102434635,35.057198,0.1,66.61389,1639594756438
Fix,GT,37.4183501,-121.9709973,-23.8087919960022,35.08286,0.1,68.88959,1639594757438
Fix,GT,37.4184557,-121.9706237,-23.929662550508976,35.10333,0.1,71.80664,1639594758438
Fix,GT,37.4185468,-121.970245,-23.78425232130289,34.94601,0.1,74.40045,1639594759438
Fix,GT,37.4186234,-121.9698633,-23.58339270091057,34.778175,0.1,77.03003,1639594760438
Fix,GT,37.4186847,-121.9694795,-23.407490870177742,34.585648,0.1,80.17432,1639594761438
Fix,GT,37.4187295,-121.9690939,-23.237154115498065,34.423683,0.1,82.71158,1639594762438
Fix,GT,37.418762,-121.968708,-23.14818471178413,34.349953,0.1,84.86688,1639594763438
Fix,GT,37.4187844,-121.9683205,-23.128515484154224,34.46055,0.1,86.21863,1639594764438
Fix,GT,37.4188001,-121.9679316,-23.143509155154227,34.487705,0.1,87.55304,1639594765438
Fix,GT,37.4188123,-121.9675426,-23.265368061780933,34.42148,0.1,87.211914,1639594766438
Fix,GT,37.4188265,-121.967154,-23.54429379835725,34.49546,0.1,87.26312,1639594767438
Fix,GT,37.4188392,-121.9667648,-23.690128099650146,34.392704,0.1,87.55292,1639594768438
Fix,GT,37.4188512,-121.9663786,-24.006453235924248,34.031536,0.1,87.71771,1639594769438
Fix,GT,37.418862,-121.9659959,-24.510062033712863,33.8151,0.1,87.55347,1639594770438
Fix,GT,37.4188744,-121.9656133,-25.0299754357338,34.06624,0.1,87.223755,1639594771438
Fix,GT,37.4188879,-121.9652265,-25.516257652282714,34.46971,0.1,87.23303,1639594772438
Fix,GT,37.4189018,-121.9648362,-26.00173541602492,34.623695,0.1,87.182465,1639594773438
Fix,GT,37.4189155,-121.9644452,-26.45738036817312,34.65021,0.1,87.29367,1639594774438
Fix,GT,37.418928,-121.9640539,-26.744889577150342,34.689663,0.1,87.509125,1639594775438
Fix,GT,37.4189409,-121.9636625,-26.92622700095177,34.64834,0.1,87.14874,1639594776438
Fix,GT,37.4189559,-121.9632723,-27.0361403003335,34.524742,0.1,86.967224,1639594777438
Fix,GT,37.418971,-121.9628827,-27.16698774540424,34.560753,0.1,86.92294,1639594778438
Fix,GT,37.4189863,-121.9624915,-27.4583129131794,34.781166,0.1,86.90469,1639594779438
Fix,GT,37.4190014,-121.9620977,-27.68174766588211,34.980064,0.1,87.096924,1639594780438
Fix,GT,37.419016,-121.9617027,-27.961509232640267,35.04062,0.1,87.08411,1639594781438
Fix,GT,37.4190319,-121.9613064,-28.151030715048314,35.17976,0.1,86.6351,1639594782438
Fix,GT,37.4190518,-121.9609096,-28.32108675894141,35.185474,0.1,85.652466,1639594783438
Fix,GT,37.4190759,-121.9605133,-28.457227026999,35.149956,0.1,85.11328,1639594784438
Fix,GT,37.4191031,-121.960118,-28.579227029263976,35.11479,0.1,84.52365,1639594785438
Fix,GT,37.4191331,-121.9597233,-28.69794395631552,35.089664,0.1,84.04361,1639594786438
Fix,GT,37.4191652,-121.9593286,-28.82456530237198,35.17759,0.1,83.879944,1639594787438
Fix,GT,37.4191969,-121.9589326,-28.71425233662129,35.245106,0.1,84.09134,1639594788438
Fix,GT,37.4192283,-121.9585368,-28.646565299928188,35.181,0.1,84.15497,1639594789438
Fix,GT,37.4192583,-121.9581416,-28.703240114152432,35.121384,0.1,84.50656,1639594790438
Fix,GT,37.4192863,-121.9577468,-28.76214025497437,35.057426,0.1,84.8692,1639594791438
Fix,GT,37.4193097,-121.9573522,-28.761380370795727,35.010563,0.1,86.277985,1639594792438
Fix,GT,37.4193259,-121.9569591,-28.80270556372404,34.644905,0.1,87.66791,1639594793438
Fix,GT,37.4193343,-121.9565703,-28.798718632310628,34.286987,0.1,88.81271,1639594794438
Fix,GT,37.4193367,-121.956184,-28.69581677296757,34.11904,0.1,89.801025,1639594795438
Fix,GT,37.4193353,-121.9557998,-28.597674802184105,33.887684,0.1,89.91586,1639594796438
Fix,GT,37.4193346,-121.9554182,-28.53052233567834,33.689423,0.1,89.97296,1639594797438
Fix,GT,37.4193326,-121.9550387,-28.47233739984036,33.509106,0.1,90.103455,1639594798438
Fix,GT,37.419331,-121.954661,-28.463337399423125,33.38208,0.1,89.96387,1639594799438
Fix,GT,37.4193302,-121.9542838,-28.463184935748576,33.43097,0.1,89.75287,1639594800438
Fix,GT,37.4193307,-121.9539055,-28.470619628369807,33.5468,0.1,89.56616,1639594801438
Fix,GT,37.4193312,-121.953526,-28.453859732866285,33.579437,0.1,89.75934,1639594802438
Fix,GT,37.419332,-121.9531476,-28.440521487236023,33.41824,0.1,89.500244,1639594803438
Fix,GT,37.4193325,-121.9527706,-28.44476159137488,33.34503,0.1,89.85687,1639594804438
Fix,GT,37.4193317,-121.9523936,-28.42085888421536,33.416138,0.1,89.83453,1639594805438
Fix,GT,37.4193319,-121.9520154,-28.56356531462073,33.527084,0.1,89.721924,1639594806438
Fix,GT,37.4193324,-121.9516368,-28.563619627952576,33.46368,0.1,89.76248,1639594807438
Fix,GT,37.4193319,-121.9512596,-28.55685973486305,33.332634,0.1,89.96988,1639594808438
Fix,GT,37.4193317,-121.9508837,-28.55976159527897,33.205605,0.1,89.714935,1639594809438
Fix,GT,37.4193324,-121.9505086,-28.55404297685623,33.24391,0.1,89.73392,1639594810438
Fix,GT,37.419333,-121.9501335,-28.539098989605904,33.134205,0.1,89.920654,1639594811438
Fix,GT,37.4193316,-121.9497591,-28.48747851109505,33.1864,0.1,90.2121,1639594812438
Fix,GT,37.4193295,-121.9493835,-28.41247851109505,33.29024,0.1,90.25574,1639594813438
Fix,GT,37.419328,-121.9490075,-28.34047935539484,33.28927,0.1,89.979065,1639594814438
Fix,GT,37.4193272,-121.9486311,-28.224858882784844,33.336052,0.1,89.929016,1639594815438
Fix,GT,37.4193274,-121.9482545,-28.16719711521268,33.3096,0.1,89.649475,1639594816438
