MessageType,Provider,LatitudeDegrees,LongitudeDegrees,AltitudeMeters,SpeedMps,AccuracyMeters,BearingDegrees,UnixTimeMillis
Fix,GT,37.3958118,-122.1029723,-5.914999823719263,0.0,0.1,208.82118,1625176219441
Fix,GT,37.3958118,-122.1029723,-5.914999823719263,0.0011724806,0.1,208.82127,1625176220441
Fix,GT,37.3958118,-122.1029723,-5.915,0.001,0.1,208.82135,1625176221441
Fix,GT,37.3958118,-122.1029723,-5.915,0.0014142136,0.1,208.82104,1625176222441
Fix,GT,37.3958118,-122.1029723,-5.914999823719263,0.0018938435,0.1,208.82117,1625176223441
Fix,GT,37.3958118,-122.1029723,-5.915000176280737,0.0005835951,0.1,208.8211,1625176224441
Fix,GT,37.3958118,-122.1029723,-5.914999823719263,0.0014164051,0.1,208.82094,1625176225441
Fix,GT,37.3958118,-122.1029723,-5.915000176280737,0.001241733,0.1,208.82143,1625176226441
Fix,GT,37.3958118,-122.1029723,-5.915000176280737,0.0005835951,0.1,208.82133,1625176227441
Fix,GT,37.3958118,-122.1029723,-5.915000176280737,0.001,0.1,208.82129,1625176228441
Fix,GT,37.3958118,-122.1029723,-5.911583418637514,0.001,0.1,208.82127,1625176229441
Fix,GT,37.3958118,-122.1029722,-5.910999823838472,0.005484939,0.1,208.82155,1625176230441
Fix,GT,37.3958118,-122.1029723,-5.9089998238980765,0.0056731263,0.1,208.8222,1625176231441
Fix,GT,37.3958118,-122.1029723,-5.909,0.0023449613,0.1,208.82182,1625176232441
Fix,GT,37.3958118,-122.1029723,-5.909,0.0015835948,0.1,208.82176,1625176233441
Fix,GT,37.3958118,-122.1029723,-5.908000176072122,0.002,0.1,208.8222,1625176234441
Fix,GT,37.3958118,-122.1029723,-5.90799982392788,0.0014164054,0.1,208.82208,1625176235441
Fix,GT,37.3958118,-122.1029723,-5.90799982392788,0.0011724808,0.1,208.82195,1625176236441
Fix,GT,37.3958118,-122.1029723,-5.908000176072122,0.0012417329,0.1,208.82181,1625176237441
Fix,GT,37.3958118,-122.1029723,-5.908000176072122,0.0010000002,0.1,208.82181,1625176238441
Fix,GT,37.3958118,-122.1029723,-5.908000176072122,0.0010000002,0.1,208.8219,1625176239441
Fix,GT,37.3958118,-122.1029723,-5.908000176072122,0.0010000002,0.1,208.822,1625176240441
Fix,GT,37.3958118,-122.1029723,-5.90799982392788,0.0012417329,0.1,208.82196,1625176241441
Fix,GT,37.3958118,-122.1029723,-5.908,0.0012417327,0.1,208.82213,1625176242441
Fix,GT,37.3958118,-122.1029723,-5.90799982392788,0.0,0.1,208.82204,1625176243441
Fix,GT,37.3958118,-122.1029723,-5.908000176072122,0.0,0.1,208.82211,1625176244441
Fix,GT,37.3958118,-122.1029723,-5.90799982392788,0.0,0.1,208.82211,1625176245441
Fix,GT,37.3958118,-122.1029723,-5.908,0.0012417327,0.1,208.82199,1625176246441
Fix,GT,37.3958118,-122.1029723,-5.908,0.001,0.1,208.82187,1625176247441
Fix,GT,37.3958118,-122.1029723,-5.908000176072122,0.0010000002,0.1,208.82172,1625176248441
Fix,GT,37.3958118,-122.1029723,-5.908,0.0015835945,0.1,208.82161,1625176249441
Fix,GT,37.3958118,-122.1029723,-5.908000176072122,0.0067538577,0.1,208.82225,1625176250441
Fix,GT,37.3958118,-122.1029723,-5.910416581839323,0.0033373325,0.1,208.8234,1625176251441
Fix,GT,37.3958118,-122.1029722,-5.914,0.0033468595,0.1,208.82335,1625176252441
Fix,GT,37.3958118,-122.1029723,-5.916416582137346,0.0041416036,0.1,208.82085,1625176253441
Fix,GT,37.3958117,-122.1029723,-5.916999823659658,0.0022395402,0.1,208.82088,1625176254441
Fix,GT,37.3958117,-122.1029723,-5.917,0.002236068,0.1,208.82124,1625176255441
Fix,GT,37.3958117,-122.1029723,-5.917,0.0017564386,0.1,208.8212,1625176256441
Fix,GT,37.3958117,-122.1029723,-5.917,0.0014142136,0.1,208.82104,1625176257441
Fix,GT,37.3958117,-122.1029723,-5.916999823659658,0.0014142136,0.1,208.82127,1625176258441
Fix,GT,37.3958117,-122.1029723,-5.918,0.0014142136,0.1,208.82118,1625176259441
Fix,GT,37.3958117,-122.1029723,-5.917,0.0012417326,0.1,208.8212,1625176260441
Fix,GT,37.3958117,-122.1029723,-5.919000176399946,0.0020000003,0.1,208.81998,1625176261441
Fix,GT,37.3958117,-122.1029723,-5.920999823540449,0.0020983,0.1,208.82043,1625176262441
Fix,GT,37.3958117,-122.1029723,-5.923000176519155,0.0012417326,0.1,208.82025,1625176263441
Fix,GT,37.3958117,-122.1029723,-5.922000176489353,0.0012417326,0.1,208.8201,1625176264441
Fix,GT,37.3958117,-122.1029723,-5.922000176489353,0.0017560753,0.1,208.81998,1625176265441
Fix,GT,37.3958117,-122.1029723,-5.921999823510647,0.0,0.1,208.82027,1625176266441
Fix,GT,37.3958117,-122.1029723,-5.921999823510647,0.0004164059,0.1,208.8206,1625176267441
Fix,GT,37.3958117,-122.1029723,-5.9220001764893535,0.0,0.1,208.82036,1625176268441
Fix,GT,37.3958117,-122.1029723,-5.922,0.0,0.1,208.82033,1625176269441
Fix,GT,37.3958117,-122.1029723,-5.922000176489353,0.0011724811,0.1,208.82053,1625176270441
Fix,GT,37.3958117,-122.1029723,-5.922000176489353,0.001,0.1,208.82056,1625176271441
Fix,GT,37.3958117,-122.1029723,-5.922000176489353,0.001,0.1,208.82039,1625176272441
Fix,GT,37.3958117,-122.1029723,-5.921999823510646,0.00058359385,0.1,208.82045,1625176273441
Fix,GT,37.3958117,-122.1029723,-5.921999823510646,0.00041640614,0.1,208.82037,1625176274441
Fix,GT,37.3958117,-122.1029723,-5.922,0.001,0.1,208.82034,1625176275441
Fix,GT,37.3958117,-122.1029723,-5.922,0.001,0.1,208.82036,1625176276441
Fix,GT,37.3958117,-122.1029723,-5.922,0.0014164061,0.1,208.82059,1625176277441
Fix,GT,37.3958117,-122.1029723,-5.922000176489353,0.0014164061,0.1,208.82072,1625176278441
Fix,GT,37.3958117,-122.1029723,-5.922000176489353,0.0014142136,0.1,208.82065,1625176279441
Fix,GT,37.3958117,-122.1029723,-5.922000176489353,0.0014142136,0.1,208.82047,1625176280441
Fix,GT,37.3958117,-122.1029723,-5.922000176489353,0.0014142136,0.1,208.82048,1625176281441
Fix,GT,37.3958117,-122.1029723,-5.922000176489353,0.0014142136,0.1,208.82059,1625176282441
Fix,GT,37.3958117,-122.1029723,-5.922,0.0014142136,0.1,208.82057,1625176283441
Fix,GT,37.3958117,-122.1029723,-5.922000176489353,0.001,0.1,208.82056,1625176284441
Fix,GT,37.3958117,-122.1029723,-5.922000176489353,0.001,0.1,208.82076,1625176285441
Fix,GT,37.3958117,-122.1029723,-5.922,0.001,0.1,208.82083,1625176286441
Fix,GT,37.3958117,-122.1029723,-5.921999823510646,0.0009999999,0.1,208.82082,1625176287441
Fix,GT,37.3958117,-122.1029723,-5.922000176489353,0.001,0.1,208.82077,1625176288441
Fix,GT,37.3958117,-122.1029723,-5.921999823510646,0.0009999999,0.1,208.82037,1625176289441
Fix,GT,37.3958117,-122.1029723,-5.9220001764893535,0.00041640596,0.1,208.82048,1625176290441
Fix,GT,37.3958117,-122.1029723,-5.921999823510646,0.0,0.1,208.82039,1625176291441
Fix,GT,37.3958117,-122.1029723,-5.922,0.0,0.1,208.8202,1625176292441
Fix,GT,37.3958117,-122.1029723,-5.922,0.001,0.1,208.82031,1625176293441
Fix,GT,37.3958117,-122.1029723,-5.922000176489353,0.00058359397,0.1,208.81996,1625176294441
Fix,GT,37.3958117,-122.1029723,-5.922000176489353,0.00041640608,0.1,208.82024,1625176295441
Fix,GT,37.3958117,-122.1029723,-5.922000176489353,0.001,0.1,208.82019,1625176296441
Fix,GT,37.3958117,-122.1029723,-5.922,0.0012417325,0.1,208.82022,1625176297441
Fix,GT,37.3958117,-122.1029723,-5.922000176489353,0.0012417326,0.1,208.82011,1625176298441
Fix,GT,37.3958117,-122.1029723,-5.922000176489353,0.0014142136,0.1,208.8203,1625176299441
Fix,GT,37.3958117,-122.1029723,-5.921999823510646,0.0009999999,0.1,208.82022,1625176300441
Fix,GT,37.3958117,-122.1029723,-5.922,0.0012417325,0.1,208.82005,1625176301441
Fix,GT,37.3958117,-122.1029723,-5.921999823510646,0.001756075,0.1,208.81984,1625176302441
Fix,GT,37.3958117,-122.1029723,-5.922000176489353,0.001,0.1,208.82077,1625176303441
Fix,GT,37.3958117,-122.1029723,-5.922,0.001,0.1,208.82114,1625176304441
Fix,GT,37.3958117,-122.1029723,-5.922,0.0014142136,0.1,-151.17854,1625176305441
Fix,GT,37.3958117,-122.1029723,-5.922,0.0014142136,0.1,208.8216,1625176306441
Fix,GT,37.3958117,-122.1029723,-5.922,0.0014164061,0.1,208.82162,1625176307441
Fix,GT,37.3958117,-122.1029723,-5.922,0.001,0.1,208.82158,1625176308441
Fix,GT,37.3958117,-122.1029723,-5.922,0.0020983003,0.1,208.82185,1625176309441
Fix,GT,37.3958117,-122.1029723,-5.922,0.002,0.1,208.82185,1625176310441
Fix,GT,37.3958117,-122.1029723,-5.922,0.0017213617,0.1,208.82164,1625176311441
Fix,GT,37.3958117,-122.1029723,-5.922,0.0017213617,0.1,208.82193,1625176312441
Fix,GT,37.3958117,-122.1029723,-5.922,0.0023396688,0.1,208.8218,1625176313441
Fix,GT,37.3958117,-122.1029723,-5.922,0.002236068,0.1,208.82098,1625176314441
Fix,GT,37.3958117,-122.1029723,-5.922,0.0014142136,0.1,208.82072,1625176315441
Fix,GT,37.3958117,-122.1029723,-5.922,0.0012417325,0.1,208.82076,1625176316441
Fix,GT,37.3958117,-122.1029723,-5.922,0.0018938426,0.1,208.8207,1625176317441
Fix,GT,37.3958117,-122.1029723,-5.922,0.001,0.1,208.82068,1625176318441
Fix,GT,37.3958117,-122.1029723,-5.922,0.001,0.1,208.82025,1625176319441
Fix,GT,37.3958117,-122.1029723,-5.922,0.001,0.1,208.82027,1625176320441
Fix,GT,37.3958117,-122.1029723,-5.922,0.001,0.1,208.82022,1625176321441
Fix,GT,37.3958117,-122.1029723,-5.922,0.0,0.1,208.82028,1625176322441
Fix,GT,37.3958117,-122.1029723,-5.922,0.001,0.1,208.82033,1625176323441
Fix,GT,37.3958117,-122.1029723,-5.921999823510646,0.0005835936,0.1,208.82043,1625176324441
Fix,GT,37.3958117,-122.1029723,-5.922,0.001,0.1,208.82048,1625176325441
Fix,GT,37.3958117,-122.1029723,-5.922,0.001,0.1,208.8206,1625176326441
Fix,GT,37.3958117,-122.1029723,-5.922,0.001,0.1,208.82065,1625176327441
Fix,GT,37.3958117,-122.1029723,-5.922,0.001,0.1,208.82051,1625176328441
Fix,GT,37.3958117,-122.1029723,-5.922,0.0021377678,0.1,208.82054,1625176329441
Fix,GT,37.3958117,-122.1029723,-5.922,0.002,0.1,208.82056,1625176330441
Fix,GT,37.3958117,-122.1029723,-5.921999823510646,0.0019999999,0.1,208.8206,1625176331441
Fix,GT,37.3958117,-122.1029723,-5.921999823510646,0.0019999999,0.1,208.82077,1625176332441
Fix,GT,37.3958117,-122.1029723,-5.922,0.0014164061,0.1,208.82092,1625176333441
Fix,GT,37.3958117,-122.1029723,-5.922,0.0011724811,0.1,208.82077,1625176334441
Fix,GT,37.3958117,-122.1029723,-5.922,0.001,0.1,208.82098,1625176335441
Fix,GT,37.3958117,-122.1029723,-5.922,0.00058359385,0.1,208.8211,1625176336441
Fix,GT,37.3958117,-122.1029723,-5.922,0.00041640617,0.1,208.82106,1625176337441
Fix,GT,37.3958117,-122.1029723,-5.922,0.0017213615,0.1,208.82074,1625176338441
Fix,GT,37.3958117,-122.1029723,-5.922,0.001756439,0.1,208.82056,1625176339441
Fix,GT,37.3958117,-122.1029723,-5.922,0.002236068,0.1,208.8208,1625176340441
Fix,GT,37.3958117,-122.1029723,-5.921999823510646,0.0032819519,0.1,208.82086,1625176341441
Fix,GT,37.3958117,-122.1029723,-5.922,0.0031520266,0.1,208.82088,1625176342441
Fix,GT,37.3958117,-122.1029723,-5.922,0.0031520266,0.1,208.82083,1625176343441
Fix,GT,37.3958117,-122.1029723,-5.922,0.0028284271,0.1,208.82076,1625176344441
Fix,GT,37.3958117,-122.1029723,-5.921999823510646,0.0028284271,0.1,208.82066,1625176345441
Fix,GT,37.3958117,-122.1029723,-5.922,0.0030232603,0.1,208.82072,1625176346441
Fix,GT,37.3958117,-122.1029723,-5.922,0.002236068,0.1,208.82094,1625176347441
Fix,GT,37.3958117,-122.1029723,-5.922,0.0028284271,0.1,208.82088,1625176348441
Fix,GT,37.3958117,-122.1029723,-5.922,0.002236068,0.1,208.82085,1625176349441
Fix,GT,37.3958117,-122.1029723,-5.922,0.002236068,0.1,208.82103,1625176350441
Fix,GT,37.3958117,-122.1029723,-5.922,0.002,0.1,208.82115,1625176351441
Fix,GT,37.3958117,-122.1029723,-5.922,0.002,0.1,208.82117,1625176352441
Fix,GT,37.3958117,-122.1029723,-5.921999823510646,0.0019999999,0.1,208.82114,1625176353441
Fix,GT,37.3958117,-122.1029723,-5.922,0.0021377678,0.1,208.82095,1625176354441
Fix,GT,37.3958117,-122.1029723,-5.922,0.002236068,0.1,208.82104,1625176355441
Fix,GT,37.3958117,-122.1029723,-5.921999823510646,0.0022360678,0.1,208.82097,1625176356441
Fix,GT,37.3958117,-122.1029723,-5.921999823510646,0.002776598,0.1,208.82104,1625176357441
Fix,GT,37.3958117,-122.1029723,-5.922,0.002776598,0.1,208.82108,1625176358441
Fix,GT,37.3958117,-122.1029723,-5.921999823510646,0.0022360678,0.1,208.82117,1625176359441
Fix,GT,37.3958117,-122.1029723,-5.922,0.002236068,0.1,208.82124,1625176360441
Fix,GT,37.3958117,-122.1029723,-5.921999823510646,0.0022360678,0.1,208.82124,1625176361441
Fix,GT,37.3958117,-122.1029723,-5.922,0.0016581387,0.1,208.82123,1625176362441
Fix,GT,37.3958117,-122.1029723,-5.921999823510646,0.0020983,0.1,208.82112,1625176363441
Fix,GT,37.3958117,-122.1029723,-5.921999823510646,0.0009999999,0.1,208.82126,1625176364441
Fix,GT,37.3958117,-122.1029723,-5.921999823510646,0.0009999999,0.1,208.82129,1625176365441
Fix,GT,37.3958117,-122.1029723,-5.922,0.001,0.1,208.82118,1625176366441
Fix,GT,37.3958117,-122.1029723,-5.922,0.0011724811,0.1,208.82115,1625176367441
Fix,GT,37.3958117,-122.1029723,-5.922,0.0011724811,0.1,208.82109,1625176368441
Fix,GT,37.3958117,-122.1029723,-5.922,0.0012417325,0.1,208.82082,1625176369441
Fix,GT,37.3958117,-122.1029723,-5.921999823510646,0.00058359385,0.1,208.8206,1625176370441
Fix,GT,37.3958117,-122.1029723,-5.922,0.001,0.1,208.82088,1625176371441
Fix,GT,37.3958117,-122.1029723,-5.921999823510646,0.0014142136,0.1,208.82086,1625176372441
Fix,GT,37.3958117,-122.1029723,-5.922,0.0011724811,0.1,208.82062,1625176373441
Fix,GT,37.3958117,-122.1029723,-5.9220001764893535,0.001,0.1,208.82045,1625176374441
Fix,GT,37.3958117,-122.1029723,-5.922,0.0014142136,0.1,208.82047,1625176375441
Fix,GT,37.3958117,-122.1029723,-5.922000176489353,0.0010000002,0.1,208.821,1625176376441
Fix,GT,37.3958117,-122.1029723,-5.922000176489353,0.0014142136,0.1,208.82138,1625176377441
Fix,GT,37.3958117,-122.1029723,-5.922000176489353,0.0011724811,0.1,208.82138,1625176378441
Fix,GT,37.3958117,-122.1029723,-5.922,0.0014142136,0.1,208.82137,1625176379441
Fix,GT,37.3958117,-122.1029723,-5.922000176489353,0.0012417326,0.1,208.82144,1625176380441
Fix,GT,37.3958117,-122.1029723,-5.922,0.001172481,0.1,208.82153,1625176381441
Fix,GT,37.3958117,-122.1029723,-5.921999823510646,0.0014142136,0.1,208.82156,1625176382441
Fix,GT,37.3958117,-122.1029723,-5.921999823510646,0.0014142136,0.1,208.82162,1625176383441
Fix,GT,37.3958117,-122.1029723,-5.922,0.0012417326,0.1,208.82161,1625176384441
Fix,GT,37.3958117,-122.1029723,-5.921999823510646,0.0014164059,0.1,208.82138,1625176385441
Fix,GT,37.3958117,-122.1029723,-5.922000176489353,0.0010000002,0.1,208.82127,1625176386441
Fix,GT,37.3958117,-122.1029723,-5.922000176489353,0.0010000002,0.1,208.82108,1625176387441
Fix,GT,37.3958117,-122.1029723,-5.921999823510646,0.001,0.1,208.82094,1625176388441
Fix,GT,37.3958117,-122.1029723,-5.922000176489353,0.0012417326,0.1,208.8209,1625176389441
Fix,GT,37.3958117,-122.1029723,-5.922000176489353,0.0011724811,0.1,208.821,1625176390441
Fix,GT,37.3958117,-122.1029723,-5.922000176489353,0.0010000002,0.1,208.821,1625176391441
Fix,GT,37.3958117,-122.1029723,-5.921999823510647,0.0014142136,0.1,208.82112,1625176392441
Fix,GT,37.3958117,-122.1029723,-5.921999823510647,0.0022360678,0.1,208.82132,1625176393441
Fix,GT,37.3958117,-122.1029723,-5.922000176489353,0.0014142136,0.1,208.82121,1625176394441
Fix,GT,37.3958117,-122.1029723,-5.922,0.0014142136,0.1,208.82114,1625176395441
Fix,GT,37.3958117,-122.1029723,-5.922,0.0014142136,0.1,208.8211,1625176396441
Fix,GT,37.3958117,-122.1029723,-5.922,0.001172481,0.1,208.82161,1625176397441
Fix,GT,37.3958117,-122.1029723,-5.921999823510647,0.0014142136,0.1,208.82178,1625176398441
Fix,GT,37.3958117,-122.1029723,-5.921999823510647,0.0014142136,0.1,208.82172,1625176399441
Fix,GT,37.3958117,-122.1029723,-5.922,0.0014142136,0.1,-151.17822,1625176400441
Fix,GT,37.3958117,-122.1029723,-5.921999823510647,0.0012417326,0.1,208.82173,1625176401441
Fix,GT,37.3958117,-122.1029723,-5.922,0.001,0.1,208.82172,1625176402441
Fix,GT,37.3958117,-122.1029723,-5.921999823510647,0.0014142136,0.1,208.8217,1625176403441
Fix,GT,37.3958117,-122.1029723,-5.921999823510646,0.0009999999,0.1,208.8218,1625176404441
Fix,GT,37.3958117,-122.1029723,-5.9220001764893535,0.0005835941,0.1,208.82187,1625176405441
Fix,GT,37.3958117,-122.1029723,-5.9220001764893535,0.00082532666,0.1,208.82187,1625176406441
Fix,GT,37.3958117,-122.1029723,-5.9220001764893535,0.0011724811,0.1,208.82173,1625176407441
Fix,GT,37.3958117,-122.1029723,-5.9220001764893535,0.00041640596,0.1,208.82175,1625176408441
Fix,GT,37.3958117,-122.1029723,-5.921999823510646,0.0,0.1,208.8218,1625176409441
Fix,GT,37.3958117,-122.1029723,-5.922,0.0012417325,0.1,208.8219,1625176410441
Fix,GT,37.3958117,-122.1029723,-5.922000176489353,0.0014142136,0.1,208.82213,1625176411441
Fix,GT,37.3958117,-122.1029723,-5.922000176489353,0.0017560751,0.1,208.8222,1625176412441
Fix,GT,37.3958117,-122.1029723,-5.922000176489353,0.0014142136,0.1,208.82181,1625176413441
Fix,GT,37.3958117,-122.1029723,-5.922000176489353,0.0011724811,0.1,208.82156,1625176414441
Fix,GT,37.3958117,-122.1029723,-5.921999823510646,0.0011724811,0.1,208.8216,1625176415441
Fix,GT,37.3958117,-122.1029723,-5.922,0.0014142136,0.1,208.82173,1625176416441
Fix,GT,37.3958117,-122.1029723,-5.922,0.0014142136,0.1,208.82166,1625176417441
Fix,GT,37.3958117,-122.1029723,-5.922,0.0014142136,0.1,-151.1783,1625176418441
Fix,GT,37.3958117,-122.1029723,-5.921999823510646,0.0014142136,0.1,208.8215,1625176419441
Fix,GT,37.3958117,-122.1029723,-5.922000176489353,0.0014142136,0.1,208.82153,1625176420441
Fix,GT,37.3958117,-122.1029723,-5.922000176489353,0.0014142136,0.1,208.82147,1625176421441
Fix,GT,37.3958117,-122.1029723,-5.922000176489353,0.0014142136,0.1,208.82164,1625176422441
Fix,GT,37.3958117,-122.1029723,-5.922,0.0018938428,0.1,208.82167,1625176423441
Fix,GT,37.3958117,-122.1029723,-5.922,0.001,0.1,208.82169,1625176424441
Fix,GT,37.3958117,-122.1029723,-5.922,0.0012417325,0.1,208.82153,1625176425441
Fix,GT,37.3958117,-122.1029723,-5.921999823510646,0.0009999999,0.1,208.82127,1625176426441
Fix,GT,37.3958117,-122.1029723,-5.922,0.0014142136,0.1,208.82121,1625176427441
Fix,GT,37.3958117,-122.1029723,-5.922,0.0014142136,0.1,208.8215,1625176428441
Fix,GT,37.3958117,-122.1029723,-5.922,0.002236068,0.1,208.82173,1625176429441
Fix,GT,37.3958117,-122.1029723,-5.922,0.0018938426,0.1,208.82184,1625176430441
Fix,GT,37.3958117,-122.1029723,-5.921999823510646,0.0022360678,0.1,208.8218,1625176431441
Fix,GT,37.3958117,-122.1029723,-5.921999823510646,0.0014142136,0.1,208.8216,1625176432441
Fix,GT,37.3958117,-122.1029723,-5.922,0.0011724811,0.1,208.8215,1625176433441
Fix,GT,37.3958117,-122.1029723,-5.922,0.001,0.1,208.82108,1625176434441
Fix,GT,37.3958117,-122.1029723,-5.921999823510646,0.0011724811,0.1,208.82109,1625176435441
Fix,GT,37.3958117,-122.1029723,-5.922,0.0012417324,0.1,208.82127,1625176436441
Fix,GT,37.3958117,-122.1029723,-5.922,0.001,0.1,208.81943,1625176437441
Fix,GT,37.3958117,-122.1029723,-5.922,0.0012417324,0.1,208.82027,1625176438441
Fix,GT,37.3958117,-122.1029723,-5.922,0.001,0.1,208.82,1625176439441
Fix,GT,37.3958117,-122.1029723,-5.921999823510646,0.0009999999,0.1,208.8197,1625176440441
Fix,GT,37.3958117,-122.1029723,-5.922,0.000825326,0.1,208.8204,1625176441441
Fix,GT,37.3958117,-122.1029723,-5.921999823510646,0.002236068,0.1,208.8211,1625176442441
Fix,GT,37.3958117,-122.1029723,-5.921999823510646,0.002236068,0.1,208.82138,1625176443441
Fix,GT,37.3958117,-122.1029723,-5.922,0.001756439,0.1,208.82153,1625176444441
Fix,GT,37.3958117,-122.1029723,-5.922,0.0018938426,0.1,208.82133,1625176445441
Fix,GT,37.3958117,-122.1029723,-5.922,0.002236068,0.1,-151.17876,1625176446441
Fix,GT,37.3958117,-122.1029723,-5.921999823510647,0.002236068,0.1,208.82115,1625176447441
Fix,GT,37.3958117,-122.1029723,-5.922,0.0018938426,0.1,208.82117,1625176448441
Fix,GT,37.3958117,-122.1029723,-5.921999823510646,0.0014142136,0.1,208.82127,1625176449441
Fix,GT,37.3958117,-122.1029723,-5.921999823510646,0.001756439,0.1,208.82126,1625176450441
Fix,GT,37.3958117,-122.1029723,-5.922,0.002236068,0.1,208.82127,1625176451441
Fix,GT,37.3958117,-122.1029723,-5.922,0.002236068,0.1,208.82133,1625176452441
Fix,GT,37.3958117,-122.1029723,-5.921999823510646,0.0014142136,0.1,208.82123,1625176453441
Fix,GT,37.3958117,-122.1029723,-5.921999823510646,0.0012417324,0.1,208.82117,1625176454441
Fix,GT,37.3958117,-122.1029723,-5.922,0.0011724811,0.1,208.82095,1625176455441
Fix,GT,37.3958117,-122.1029723,-5.922,0.0012417325,0.1,208.82095,1625176456441
Fix,GT,37.3958117,-122.1029723,-5.921999823510646,0.0022360678,0.1,208.82092,1625176457441
Fix,GT,37.3958117,-122.1029723,-5.922,0.0014142136,0.1,208.82089,1625176458441
Fix,GT,37.3958117,-122.1029723,-5.921999823510646,0.0014142136,0.1,208.8209,1625176459441
Fix,GT,37.3958117,-122.1029723,-5.922,0.0014142136,0.1,208.82072,1625176460441
Fix,GT,37.3958117,-122.1029723,-5.922,0.0012417324,0.1,208.82072,1625176461441
Fix,GT,37.3958117,-122.1029723,-5.922,0.001756439,0.1,208.82086,1625176462441
Fix,GT,37.3958117,-122.1029723,-5.922,0.0014142136,0.1,208.82101,1625176463441
Fix,GT,37.3958117,-122.1029723,-5.922,0.0014142136,0.1,208.82098,1625176464441
Fix,GT,37.3958117,-122.1029723,-5.922,0.0014142136,0.1,208.8209,1625176465441
Fix,GT,37.3958117,-122.1029723,-5.922,0.0020983003,0.1,208.82097,1625176466441
Fix,GT,37.3958117,-122.1029723,-5.922,0.0026217476,0.1,208.82088,1625176467441
Fix,GT,37.3958117,-122.1029723,-5.921999823510646,0.0022360678,0.1,208.82083,1625176468441
Fix,GT,37.3958117,-122.1029723,-5.921999823510646,0.0017564389,0.1,208.82079,1625176469441
Fix,GT,37.3958117,-122.1029723,-5.922,0.0018938426,0.1,208.82048,1625176470441
Fix,GT,37.3958117,-122.1029723,-5.922,0.0012417324,0.1,208.82051,1625176471441
Fix,GT,37.3958117,-122.1029723,-5.922,0.0014142136,0.1,208.82056,1625176472441
Fix,GT,37.3958117,-122.1029723,-5.922,0.0011724811,0.1,208.82039,1625176473441
Fix,GT,37.3958117,-122.1029723,-5.921999823510647,0.0009999999,0.1,208.82036,1625176474441
Fix,GT,37.3958117,-122.1029723,-5.921999823510647,0.0009999999,0.1,208.82025,1625176475441
Fix,GT,37.3958117,-122.1029723,-5.922,0.0014142136,0.1,208.8203,1625176476441
Fix,GT,37.3958117,-122.1029723,-5.922,0.0014142136,0.1,208.82059,1625176477441
Fix,GT,37.3958117,-122.1029723,-5.922,0.001,0.1,208.82045,1625176478441
Fix,GT,37.3958117,-122.1029723,-5.921999823510646,0.0014142136,0.1,208.8203,1625176479441
Fix,GT,37.3958117,-122.1029723,-5.922,0.0011724811,0.1,208.82019,1625176480441
Fix,GT,37.3958117,-122.1029723,-5.922,0.0011724811,0.1,208.82019,1625176481441
Fix,GT,37.3958117,-122.1029723,-5.922,0.001,0.1,208.82042,1625176482441
Fix,GT,37.3958117,-122.1029723,-5.921999823510647,0.0014142136,0.1,208.82045,1625176483441
Fix,GT,37.3958117,-122.1029723,-5.922,0.0018938426,0.1,208.82063,1625176484441
Fix,GT,37.3958117,-122.1029723,-5.922,0.002236068,0.1,208.82071,1625176485441
Fix,GT,37.3958117,-122.1029723,-5.922,0.002236068,0.1,208.8207,1625176486441
Fix,GT,37.3958117,-122.1029723,-5.922,0.002236068,0.1,-151.17943,1625176487441
Fix,GT,37.3958117,-122.1029723,-5.922,0.002236068,0.1,208.82057,1625176488441
Fix,GT,37.3958117,-122.1029723,-5.922,0.002236068,0.1,208.8206,1625176489441
Fix,GT,37.3958117,-122.1029723,-5.922,0.0031622776,0.1,208.82071,1625176490441
Fix,GT,37.3958117,-122.1029723,-5.922,0.0031622776,0.1,-151.17934,1625176491441
Fix,GT,37.3958117,-122.1029723,-5.922,0.0031622776,0.1,208.82047,1625176492441
Fix,GT,37.3958117,-122.1029723,-5.921999823510647,0.0026217476,0.1,208.82043,1625176493441
Fix,GT,37.3958117,-122.1029723,-5.921999823510647,0.002236068,0.1,208.82053,1625176494441
Fix,GT,37.3958117,-122.1029723,-5.921999823510646,0.002236068,0.1,208.8205,1625176495441
Fix,GT,37.3958117,-122.1029723,-5.922,0.002236068,0.1,-151.17957,1625176496441
Fix,GT,37.3958117,-122.1029723,-5.922,0.002236068,0.1,208.82059,1625176497441
Fix,GT,37.3958117,-122.1029723,-5.922,0.002236068,0.1,208.8206,1625176498441
Fix,GT,37.3958117,-122.1029723,-5.922,0.002236068,0.1,208.82053,1625176499441
Fix,GT,37.3958117,-122.1029723,-5.922,0.0014142136,0.1,208.82048,1625176500441
Fix,GT,37.3958117,-122.1029723,-5.922,0.0015147065,0.1,208.82059,1625176501441
Fix,GT,37.3958117,-122.1029723,-5.921999823510646,0.0018938426,0.1,208.82043,1625176502441
Fix,GT,37.3958117,-122.1029723,-5.921999823510646,0.0017564389,0.1,208.82047,1625176503441
Fix,GT,37.3958117,-122.1029723,-5.922,0.0014142136,0.1,208.82077,1625176504441
Fix,GT,37.3958117,-122.1029723,-5.921999823510647,0.0014142136,0.1,208.82079,1625176505441
Fix,GT,37.3958117,-122.1029723,-5.921999823510646,0.0014142136,0.1,208.82053,1625176506441
Fix,GT,37.3958117,-122.1029723,-5.922,0.0014142136,0.1,208.82047,1625176507441
Fix,GT,37.3958117,-122.1029723,-5.922,0.0011724812,0.1,208.8206,1625176508441
Fix,GT,37.3958117,-122.1029723,-5.922,0.0011724811,0.1,208.8206,1625176509441
Fix,GT,37.3958117,-122.1029723,-5.922,0.0011724811,0.1,208.82071,1625176510441
Fix,GT,37.3958117,-122.1029723,-5.922,0.0018938426,0.1,208.8206,1625176511441
Fix,GT,37.3958117,-122.1029723,-5.921999823510647,0.0017560747,0.1,208.82066,1625176512441
Fix,GT,37.3958117,-122.1029723,-5.921999823510647,0.0016581388,0.1,208.82072,1625176513441
Fix,GT,37.3958117,-122.1029723,-5.921999823510647,0.0015835934,0.1,208.82072,1625176514441
Fix,GT,37.3958117,-122.1029723,-5.922,0.0021377678,0.1,208.82065,1625176515441
Fix,GT,37.3958117,-122.1029723,-5.921999823510647,0.0020983003,0.1,208.82057,1625176516441
Fix,GT,37.3958117,-122.1029723,-5.921999823510647,0.0020983003,0.1,208.82054,1625176517441
Fix,GT,37.3958117,-122.1029723,-5.921999823510647,0.0021377676,0.1,208.82053,1625176518441
Fix,GT,37.3958117,-122.1029723,-5.921999823510647,0.0014142136,0.1,208.8205,1625176519441
Fix,GT,37.3958117,-122.1029723,-5.922,0.0014142136,0.1,208.8206,1625176520441
Fix,GT,37.3958117,-122.1029723,-5.922,0.0014142136,0.1,208.82066,1625176521441
Fix,GT,37.3958117,-122.1029723,-5.922,0.0011724813,0.1,208.8207,1625176522441
Fix,GT,37.3958117,-122.1029723,-5.921999823510647,0.0014142136,0.1,208.82063,1625176523441
Fix,GT,37.3958117,-122.1029723,-5.922,0.001,0.1,208.82043,1625176524441
Fix,GT,37.3958117,-122.1029723,-5.921999823510647,0.0009999999,0.1,208.82062,1625176525441
Fix,GT,37.3958117,-122.1029723,-5.922,0.001,0.1,208.82063,1625176526441
Fix,GT,37.3958117,-122.1029723,-5.922,0.001,0.1,208.82054,1625176527441
Fix,GT,37.3958117,-122.1029723,-5.922,0.001,0.1,208.82065,1625176528441
Fix,GT,37.3958117,-122.1029723,-5.921999823510646,0.0012417324,0.1,208.82074,1625176529441
Fix,GT,37.3958117,-122.1029723,-5.922,0.0014142136,0.1,-151.17938,1625176530441
Fix,GT,37.3958117,-122.1029723,-5.922,0.0015147064,0.1,208.8206,1625176531441
Fix,GT,37.3958117,-122.1029723,-5.922,0.0014142136,0.1,208.82068,1625176532441
Fix,GT,37.3958117,-122.1029723,-5.922,0.0014142136,0.1,208.82085,1625176533441
Fix,GT,37.3958117,-122.1029723,-5.922,0.0018938428,0.1,208.82088,1625176534441
Fix,GT,37.3958117,-122.1029723,-5.922,0.0014142136,0.1,208.82077,1625176535441
Fix,GT,37.3958117,-122.1029723,-5.922,0.002,0.1,208.8206,1625176536441
Fix,GT,37.3958117,-122.1029723,-5.922,0.0020983,0.1,208.82053,1625176537441
Fix,GT,37.3958117,-122.1029723,-5.921999823510646,0.0021377678,0.1,208.82053,1625176538441
Fix,GT,37.3958117,-122.1029723,-5.922,0.002236068,0.1,-151.17943,1625176539441
Fix,GT,37.3958117,-122.1029723,-5.922,0.002236068,0.1,208.82063,1625176540441
Fix,GT,37.3958117,-122.1029723,-5.922,0.002236068,0.1,208.82071,1625176541441
Fix,GT,37.3958117,-122.1029723,-5.921999823510647,0.0026818942,0.1,208.82108,1625176542441
Fix,GT,37.3958117,-122.1029723,-5.922,0.002,0.1,208.82149,1625176543441
Fix,GT,37.3958117,-122.1029723,-5.922000176489353,0.0015147061,0.1,208.82158,1625176544441
Fix,GT,37.3958117,-122.1029723,-5.922000176489353,0.0017213622,0.1,208.82146,1625176545441
Fix,GT,37.3958117,-122.1029723,-5.922000176489353,0.0010000002,0.1,208.82124,1625176546441
Fix,GT,37.3958117,-122.1029723,-5.922000176489353,0.0012417326,0.1,208.82121,1625176547441
Fix,GT,37.3958117,-122.1029723,-5.921999823510646,0.001,0.1,208.82123,1625176548441
Fix,GT,37.3958117,-122.1029723,-5.9220001764893535,0.0010000002,0.1,208.82126,1625176549441
Fix,GT,37.3958117,-122.1029723,-5.921999823510646,0.001,0.1,208.82138,1625176550441
Fix,GT,37.3958117,-122.1029723,-5.921999823510647,0.00041640567,0.1,208.82158,1625176551441
Fix,GT,37.3958117,-122.1029723,-5.9220001764893535,0.00041640562,0.1,208.82162,1625176552441
Fix,GT,37.3958117,-122.1029723,-5.922,0.001,0.1,208.8216,1625176553441
Fix,GT,37.3958117,-122.1029723,-5.922,0.001,0.1,208.82146,1625176554441
Fix,GT,37.3958117,-122.1029723,-5.921999823510646,0.001,0.1,208.82167,1625176555441
Fix,GT,37.3958117,-122.1029723,-5.921999823510646,0.001,0.1,208.82187,1625176556441
Fix,GT,37.3958117,-122.1029723,-5.921999823510646,0.0015835946,0.1,208.82172,1625176557441
Fix,GT,37.3958117,-122.1029723,-5.922,0.001,0.1,208.82161,1625176558441
Fix,GT,37.3958117,-122.1029723,-5.921999823510646,0.0012417329,0.1,208.82161,1625176559441
Fix,GT,37.3958117,-122.1029723,-5.9220001764893535,0.0012417329,0.1,208.82147,1625176560441
Fix,GT,37.3958117,-122.1029723,-5.9220001764893535,0.0010000002,0.1,208.82141,1625176561441
Fix,GT,37.3958117,-122.1029723,-5.922,0.0011724808,0.1,208.8216,1625176562441
Fix,GT,37.3958117,-122.1029723,-5.922,0.0011724808,0.1,208.82161,1625176563441
Fix,GT,37.3958117,-122.1029723,-5.922,0.001,0.1,208.82124,1625176564441
Fix,GT,37.3958117,-122.1029723,-5.922,0.0014142136,0.1,208.8214,1625176565441
Fix,GT,37.3958117,-122.1029723,-5.921999823510646,0.0014142136,0.1,208.82143,1625176566441
Fix,GT,37.3958117,-122.1029723,-5.922000176489353,0.0014164053,0.1,208.82121,1625176567441
Fix,GT,37.3958117,-122.1029723,-5.922,0.0014164052,0.1,208.82115,1625176568441
Fix,GT,37.3958117,-122.1029723,-5.921999823510646,0.001,0.1,208.82117,1625176569441
Fix,GT,37.3958117,-122.1029723,-5.921999823510646,0.001,0.1,208.82121,1625176570441
Fix,GT,37.3958117,-122.1029723,-5.9220001764893535,0.001241733,0.1,208.82127,1625176571441
Fix,GT,37.3958117,-122.1029723,-5.922,0.001,0.1,208.82138,1625176572441
Fix,GT,37.3958117,-122.1029723,-5.9220001764893535,0.001,0.1,208.82144,1625176573441
Fix,GT,37.3958117,-122.1029723,-5.9220001764893535,0.001,0.1,208.82152,1625176574441
Fix,GT,37.3958117,-122.1029723,-5.922,0.0014142136,0.1,208.82167,1625176575441
Fix,GT,37.3958117,-122.1029723,-5.921999823510647,0.0011724806,0.1,208.82158,1625176576441
Fix,GT,37.3958117,-122.1029723,-5.922,0.00058359496,0.1,208.8215,1625176577441
Fix,GT,37.3958117,-122.1029723,-5.921999823510646,0.0,0.1,208.82149,1625176578441
Fix,GT,37.3958117,-122.1029723,-5.9220001764893535,0.0,0.1,208.82169,1625176579441
Fix,GT,37.3958117,-122.1029723,-5.9220001764893535,0.0,0.1,208.82172,1625176580441
Fix,GT,37.3958117,-122.1029723,-5.9220001764893535,0.0,0.1,208.82169,1625176581441
Fix,GT,37.3958117,-122.1029723,-5.9220001764893535,0.0,0.1,208.82164,1625176582441
Fix,GT,37.3958117,-122.1029723,-5.922,0.0,0.1,-151.17831,1625176583441
Fix,GT,37.3958117,-122.1029723,-5.922000176489353,0.0,0.1,208.82155,1625176584441
Fix,GT,37.3958117,-122.1029723,-5.922,0.00082532753,0.1,208.82144,1625176585441
Fix,GT,37.3958117,-122.1029723,-5.922,0.0004164052,0.1,208.8216,1625176586441
Fix,GT,37.3958117,-122.1029723,-5.922,0.0011724806,0.1,208.82161,1625176587441
Fix,GT,37.3958117,-122.1029723,-5.921999823510646,0.00041640518,0.1,208.8216,1625176588441
Fix,GT,37.3958117,-122.1029723,-5.9220001764893535,0.00058359496,0.1,208.82155,1625176589441
Fix,GT,37.3958117,-122.1029723,-5.922,0.0,0.1,208.8215,1625176590441
Fix,GT,37.3958117,-122.1029723,-5.922,0.0004164051,0.1,208.82146,1625176591441
Fix,GT,37.3958117,-122.1029723,-5.9220001764893535,0.00058359496,0.1,208.82155,1625176592441
Fix,GT,37.3958117,-122.1029723,-5.922,0.0,0.1,208.82162,1625176593441
Fix,GT,37.3958117,-122.1029723,-5.922,0.001,0.1,208.82161,1625176594441
Fix,GT,37.3958117,-122.1029723,-5.922,0.001,0.1,208.82149,1625176595441
Fix,GT,37.3958117,-122.1029723,-5.921999823510647,0.001,0.1,208.82135,1625176596441
Fix,GT,37.3958117,-122.1029723,-5.921999823510647,0.0,0.1,208.82141,1625176597441
Fix,GT,37.3958117,-122.1029723,-5.922,0.0,0.1,-151.17845,1625176598441
Fix,GT,37.3958117,-122.1029723,-5.922000176489353,0.000416405,0.1,208.82169,1625176599441
Fix,GT,37.3958117,-122.1029723,-5.921999823510647,0.0,0.1,208.82175,1625176600441
Fix,GT,37.3958117,-122.1029723,-5.921999823510647,0.001,0.1,208.82175,1625176601441
Fix,GT,37.3958117,-122.1029723,-5.921999823510647,0.00058359496,0.1,208.82175,1625176602441
Fix,GT,37.3958117,-122.1029723,-5.922000176489353,0.000416405,0.1,208.82153,1625176603441
Fix,GT,37.3958117,-122.1029723,-5.921999823510647,0.00041640506,0.1,208.82172,1625176604441
Fix,GT,37.3958117,-122.1029723,-5.921999823510647,0.00058359496,0.1,208.82205,1625176605441
Fix,GT,37.3958117,-122.1029723,-5.921999823510647,0.0,0.1,208.82207,1625176606441
Fix,GT,37.3958117,-122.1029723,-5.921999823510647,0.001,0.1,208.82204,1625176607441
Fix,GT,37.3958117,-122.1029723,-5.922,0.001241733,0.1,208.82167,1625176608441
Fix,GT,37.3958117,-122.1029723,-5.922,0.0,0.1,208.82167,1625176609441
Fix,GT,37.3958117,-122.1029723,-5.922000176489353,0.0,0.1,208.8217,1625176610441
Fix,GT,37.3958117,-122.1029723,-5.922000176489353,0.0,0.1,208.82175,1625176611441
Fix,GT,37.3958117,-122.1029723,-5.922,0.0,0.1,208.82193,1625176612441
Fix,GT,37.3958117,-122.1029723,-5.921999823510647,0.0,0.1,208.82193,1625176613441
Fix,GT,37.3958117,-122.1029723,-5.921999823510647,0.001,0.1,208.82176,1625176614441
Fix,GT,37.3958117,-122.1029723,-5.922000176489353,0.0014142136,0.1,208.82196,1625176615441
Fix,GT,37.3958117,-122.1029723,-5.922,0.0014142136,0.1,208.82198,1625176616441
Fix,GT,37.3958117,-122.1029723,-5.922,0.000825328,0.1,208.82185,1625176617441
Fix,GT,37.3958117,-122.1029723,-5.921999823510646,0.0014142136,0.1,208.822,1625176618441
Fix,GT,37.3958117,-122.1029723,-5.922,0.001,0.1,-151.178,1625176619441
Fix,GT,37.3958117,-122.1029723,-5.922,0.001,0.1,208.82196,1625176620441
Fix,GT,37.3958117,-122.1029723,-5.922000176489353,0.0,0.1,208.82184,1625176621441
Fix,GT,37.3958117,-122.1029723,-5.922000176489353,0.0005835951,0.1,208.82191,1625176622441
Fix,GT,37.3958117,-122.1029723,-5.921999823510646,0.0005888855,0.1,208.82198,1625176623441
Fix,GT,37.3958117,-122.1029723,-5.9220001764893535,0.0,0.1,208.82188,1625176624441
Fix,GT,37.3958117,-122.1029723,-5.922,0.0005835951,0.1,208.82167,1625176625441
Fix,GT,37.3958117,-122.1029723,-5.922,0.001,0.1,208.82158,1625176626441
Fix,GT,37.3958117,-122.1029723,-5.922,0.001241733,0.1,208.82182,1625176627441
Fix,GT,37.3958117,-122.1029723,-5.922000176489353,0.001,0.1,208.82196,1625176628441
Fix,GT,37.3958117,-122.1029723,-5.9220001764893535,0.0,0.1,208.82188,1625176629441
Fix,GT,37.3958117,-122.1029723,-5.922,0.0011724806,0.1,208.8219,1625176630441
Fix,GT,37.3958117,-122.1029723,-5.922,0.0,0.1,208.82208,1625176631441
Fix,GT,37.3958117,-122.1029723,-5.921999823510647,0.001,0.1,208.82199,1625176632441
Fix,GT,37.3958117,-122.1029723,-5.921999823510647,0.00041640506,0.1,208.82184,1625176633441
Fix,GT,37.3958117,-122.1029723,-5.921999823510647,0.0012417329,0.1,208.82181,1625176634441
Fix,GT,37.3958117,-122.1029723,-5.921999823510647,0.0012417329,0.1,208.8221,1625176635441
Fix,GT,37.3958117,-122.1029723,-5.9220001764893535,0.001,0.1,208.82199,1625176636441
Fix,GT,37.3958117,-122.1029723,-5.9220001764893535,0.00058359496,0.1,208.82199,1625176637441
Fix,GT,37.3958117,-122.1029723,-5.9220001764893535,0.0,0.1,208.82182,1625176638441
Fix,GT,37.3958117,-122.1029723,-5.9220001764893535,0.001,0.1,208.8218,1625176639441
Fix,GT,37.3958117,-122.1029723,-5.9220001764893535,0.00058359496,0.1,208.82181,1625176640441
Fix,GT,37.3958117,-122.1029723,-5.9220001764893535,0.0011724806,0.1,208.82188,1625176641441
Fix,GT,37.3958117,-122.1029723,-5.9220001764893535,0.001,0.1,208.82207,1625176642441
Fix,GT,37.3958117,-122.1029723,-5.922,0.0012417329,0.1,208.82199,1625176643441
Fix,GT,37.3958117,-122.1029723,-5.921999823510646,0.0012417329,0.1,208.82185,1625176644441
Fix,GT,37.3958117,-122.1029723,-5.922,0.0014142136,0.1,208.82185,1625176645441
Fix,GT,37.3958117,-122.1029723,-5.9220001764893535,0.0014142136,0.1,208.82184,1625176646441
Fix,GT,37.3958117,-122.1029723,-5.9220001764893535,0.002236068,0.1,208.82187,1625176647441
Fix,GT,37.3958117,-122.1029723,-5.921999823510646,0.0011724806,0.1,208.82191,1625176648441
Fix,GT,37.3958117,-122.1029723,-5.922,0.0014142136,0.1,208.82199,1625176649441
Fix,GT,37.3958117,-122.1029723,-5.922,0.0014164054,0.1,208.82175,1625176650441
Fix,GT,37.3958117,-122.1029723,-5.921999823510646,0.0014142136,0.1,208.8217,1625176651441
Fix,GT,37.3958117,-122.1029723,-5.922000176489353,0.0018938435,0.1,208.82167,1625176652441
Fix,GT,37.3958117,-122.1029723,-5.921999823510646,0.001,0.1,208.82156,1625176653441
Fix,GT,37.3958117,-122.1029723,-5.921999823510646,0.0014142136,0.1,208.8217,1625176654441
Fix,GT,37.3958117,-122.1029723,-5.922,0.0014142136,0.1,208.82175,1625176655441
Fix,GT,37.3958117,-122.1029723,-5.921999823510646,0.001,0.1,208.82176,1625176656441
Fix,GT,37.3958117,-122.1029723,-5.922000176489353,0.0012417329,0.1,208.8217,1625176657441
Fix,GT,37.3958117,-122.1029723,-5.922,0.0014142136,0.1,208.8219,1625176658441
Fix,GT,37.3958117,-122.1029723,-5.922,0.001,0.1,208.82211,1625176659441
Fix,GT,37.3958117,-122.1029723,-5.922,0.001,0.1,208.82196,1625176660441
Fix,GT,37.3958117,-122.1029723,-5.921999823510646,0.001,0.1,208.82181,1625176661441
Fix,GT,37.3958117,-122.1029723,-5.922,0.0014142136,0.1,208.82196,1625176662441
Fix,GT,37.3958117,-122.1029723,-5.922000176489353,0.0014142136,0.1,208.82239,1625176663441
Fix,GT,37.3958117,-122.1029723,-5.922,0.0011724809,0.1,208.82234,1625176664441
Fix,GT,37.3958117,-122.1029723,-5.922,0.0014142136,0.1,208.82224,1625176665441
Fix,GT,37.3958117,-122.1029723,-5.922000176489353,0.0010000002,0.1,208.82231,1625176666441
Fix,GT,37.3958117,-122.1029723,-5.922,0.0014142136,0.1,208.82233,1625176667441
Fix,GT,37.3958117,-122.1029723,-5.922000176489353,0.0012417329,0.1,208.82231,1625176668441
Fix,GT,37.3958117,-122.1029723,-5.922,0.002236068,0.1,208.82234,1625176669441
Fix,GT,37.3958117,-122.1029723,-5.922,0.001,0.1,-151.17763,1625176670441
Fix,GT,37.3958117,-122.1029723,-5.9220001764893535,0.0020000003,0.1,208.82246,1625176671441
Fix,GT,37.3958117,-122.1029723,-5.921999823510646,0.0015147054,0.1,208.82268,1625176672441
Fix,GT,37.3958117,-122.1029723,-5.9220001764893535,0.0011724809,0.1,208.8227,1625176673441
Fix,GT,37.3958117,-122.1029723,-5.9220001764893535,0.0011724809,0.1,208.82272,1625176674441
Fix,GT,37.3958117,-122.1029723,-5.921999823510646,0.001,0.1,208.82257,1625176675441
Fix,GT,37.3958117,-122.1029723,-5.922,0.0018938435,0.1,208.82256,1625176676441
Fix,GT,37.3958117,-122.1029723,-5.922000176489353,0.0014142136,0.1,208.82262,1625176677441
Fix,GT,37.3958117,-122.1029723,-5.921999823510646,0.001,0.1,208.82274,1625176678441
Fix,GT,37.3958117,-122.1029723,-5.9220001764893535,0.0014164052,0.1,208.82281,1625176679441
Fix,GT,37.3958117,-122.1029723,-5.922,0.001,0.1,208.82292,1625176680441
Fix,GT,37.3958117,-122.1029723,-5.9220001764893535,0.001,0.1,208.82278,1625176681441
Fix,GT,37.3958117,-122.1029723,-5.921999823510646,0.001,0.1,208.82268,1625176682441
Fix,GT,37.3958117,-122.1029723,-5.921999823510647,0.001,0.1,208.82262,1625176683441
Fix,GT,37.3958117,-122.1029723,-5.921999823510646,0.002,0.1,208.82262,1625176684441
Fix,GT,37.3958117,-122.1029723,-5.922,0.002,0.1,208.82271,1625176685441
Fix,GT,37.3958117,-122.1029723,-5.921999823510647,0.002,0.1,208.82268,1625176686441
Fix,GT,37.3958117,-122.1029723,-5.922000176489353,0.002,0.1,208.82272,1625176687441
Fix,GT,37.3958117,-122.1029723,-5.921999823510647,0.0014164051,0.1,208.82262,1625176688441
Fix,GT,37.3958117,-122.1029723,-5.922,0.0015835951,0.1,208.82272,1625176689441
Fix,GT,37.3958117,-122.1029723,-5.921999823510646,0.0017564378,0.1,208.8228,1625176690441
Fix,GT,37.3958117,-122.1029723,-5.922,0.0011724806,0.1,208.82266,1625176691441
Fix,GT,37.3958117,-122.1029723,-5.921999823510647,0.001,0.1,208.82259,1625176692441
Fix,GT,37.3958117,-122.1029723,-5.922,0.001,0.1,208.82275,1625176693441
Fix,GT,37.3958117,-122.1029723,-5.921999823510647,0.00041640506,0.1,208.8224,1625176694441
Fix,GT,37.3958117,-122.1029723,-5.921999823510647,0.0012417329,0.1,208.82237,1625176695441
Fix,GT,37.3958117,-122.1029723,-5.921999823510647,0.00041640506,0.1,208.82245,1625176696441
Fix,GT,37.3958117,-122.1029723,-5.921999823510647,0.0,0.1,208.82242,1625176697441
Fix,GT,37.3958117,-122.1029723,-5.922000176489353,0.0005835951,0.1,208.82257,1625176698441
Fix,GT,37.3958117,-122.1029723,-5.922,0.0014142136,0.1,-151.17738,1625176699441
Fix,GT,37.3958117,-122.1029723,-5.9220001764893535,0.0014142136,0.1,208.82268,1625176700441
Fix,GT,37.3958117,-122.1029723,-5.921999823510647,0.0014142136,0.1,208.82265,1625176701441
Fix,GT,37.3958117,-122.1029723,-5.922,0.0014142136,0.1,208.8226,1625176702441
Fix,GT,37.3958117,-122.1029723,-5.921999823510646,0.0014142136,0.1,208.82253,1625176703441
Fix,GT,37.3958117,-122.1029723,-5.921999823510646,0.0014142136,0.1,208.82243,1625176704441
Fix,GT,37.3958117,-122.1029723,-5.9220001764893535,0.002236068,0.1,208.82227,1625176705441
Fix,GT,37.3958117,-122.1029723,-5.9220001764893535,0.0014142136,0.1,208.82217,1625176706441
Fix,GT,37.3958117,-122.1029723,-5.921999823510646,0.0018938438,0.1,208.82216,1625176707441
Fix,GT,37.3958117,-122.1029723,-5.922,0.002236068,0.1,208.82237,1625176708441
Fix,GT,37.3958117,-122.1029723,-5.922,0.002236068,0.1,208.82236,1625176709441
Fix,GT,37.3958117,-122.1029723,-5.922,0.0020030988,0.1,208.82254,1625176710441
Fix,GT,37.3958117,-122.1029723,-5.922,0.0018938439,0.1,208.82256,1625176711441
Fix,GT,37.3958117,-122.1029723,-5.922,0.0014142136,0.1,208.82246,1625176712441
Fix,GT,37.3958117,-122.1029723,-5.922,0.0014142136,0.1,208.8224,1625176713441
Fix,GT,37.3958117,-122.1029723,-5.9220001764893535,0.0017564378,0.1,208.82251,1625176714441
Fix,GT,37.3958117,-122.1029723,-5.921999823510647,0.0014142136,0.1,208.82248,1625176715441
Fix,GT,37.3958117,-122.1029723,-5.921999823510647,0.001241733,0.1,208.82254,1625176716441
Fix,GT,37.3958117,-122.1029723,-5.921999823510647,0.0011724805,0.1,208.82262,1625176717441
Fix,GT,37.3958117,-122.1029723,-5.921999823510647,0.001,0.1,208.82253,1625176718441
Fix,GT,37.3958117,-122.1029723,-5.921999823510647,0.0011724805,0.1,208.82285,1625176719441
Fix,GT,37.3958117,-122.1029723,-5.921999823510647,0.001,0.1,208.82285,1625176720441
Fix,GT,37.3958117,-122.1029723,-5.922,0.0011724806,0.1,208.82283,1625176721441
Fix,GT,37.3958117,-122.1029723,-5.922,0.0017213633,0.1,208.82278,1625176722441
Fix,GT,37.3958117,-122.1029723,-5.9220001764893535,0.0014142136,0.1,208.8229,1625176723441
Fix,GT,37.3958117,-122.1029723,-5.9220001764893535,0.0017560758,0.1,208.82367,1625176724441
Fix,GT,37.3958117,-122.1029723,-5.921999823510646,0.001,0.1,208.82361,1625176725441
Fix,GT,37.3958117,-122.1029723,-5.9220001764893535,0.0011724806,0.1,208.8235,1625176726441
Fix,GT,37.3958117,-122.1029723,-5.9220001764893535,0.0017560758,0.1,208.82358,1625176727441
Fix,GT,37.3958117,-122.1029723,-5.921999823510647,0.001,0.1,208.82353,1625176728441
Fix,GT,37.3958117,-122.1029723,-5.9220001764893535,0.0018938439,0.1,208.82361,1625176729441
Fix,GT,37.3958117,-122.1029723,-5.9220001764893535,0.0012417331,0.1,208.82372,1625176730441
Fix,GT,37.3958117,-122.1029723,-5.922,0.0011724806,0.1,208.8239,1625176731441
Fix,GT,37.3958117,-122.1029723,-5.921999823510647,0.001241733,0.1,208.82387,1625176732441
Fix,GT,37.3958117,-122.1029723,-5.921999823510647,0.001,0.1,208.82402,1625176733441
Fix,GT,37.3958117,-122.1029723,-5.921999823510647,0.001,0.1,208.82387,1625176734441
Fix,GT,37.3958117,-122.1029723,-5.922,0.0011724805,0.1,208.82393,1625176735441
Fix,GT,37.3958117,-122.1029723,-5.921999823510647,0.001241733,0.1,208.82384,1625176736441
Fix,GT,37.3958117,-122.1029723,-5.922,0.001,0.1,208.82394,1625176737441
Fix,GT,37.3958117,-122.1029723,-5.922,0.001,0.1,208.82393,1625176738441
Fix,GT,37.3958117,-122.1029723,-5.922,0.001,0.1,-151.1762,1625176739441
Fix,GT,37.3958117,-122.1029723,-5.922,0.0,0.1,208.82356,1625176740441
Fix,GT,37.3958117,-122.1029723,-5.921999823510646,0.00058888516,0.1,208.82353,1625176741441
Fix,GT,37.3958117,-122.1029723,-5.922,0.001,0.1,208.82361,1625176742441
Fix,GT,37.3958117,-122.1029723,-5.9220001764893535,0.0014142136,0.1,208.82365,1625176743441
Fix,GT,37.3958117,-122.1029723,-5.9220001764893535,0.0014142136,0.1,208.82336,1625176744441
Fix,GT,37.3958117,-122.1029723,-5.921999823510646,0.0014142136,0.1,208.82356,1625176745441
Fix,GT,37.3958117,-122.1029723,-5.9220001764893535,0.0011724805,0.1,208.8236,1625176746441
Fix,GT,37.3958117,-122.1029723,-5.9220001764893535,0.001893844,0.1,208.8236,1625176747441
Fix,GT,37.3958117,-122.1029723,-5.9220001764893535,0.0014142136,0.1,208.82358,1625176748441
Fix,GT,37.3958117,-122.1029723,-5.922,0.001893844,0.1,208.82353,1625176749441
Fix,GT,37.3958117,-122.1029723,-5.922,0.0014142136,0.1,208.82358,1625176750441
Fix,GT,37.3958117,-122.1029723,-5.922,0.0014142136,0.1,-151.17647,1625176751441
Fix,GT,37.3958117,-122.1029723,-5.9220001764893535,0.0014142136,0.1,208.82352,1625176752441
Fix,GT,37.3958117,-122.1029723,-5.9220001764893535,0.0014142136,0.1,208.82362,1625176753441
Fix,GT,37.3958117,-122.1029723,-5.9220001764893535,0.0012417332,0.1,208.8236,1625176754441
Fix,GT,37.3958117,-122.1029723,-5.9220001764893535,0.001,0.1,208.82358,1625176755441
Fix,GT,37.3958117,-122.1029723,-5.922,0.001893844,0.1,208.82346,1625176756441
Fix,GT,37.3958117,-122.1029723,-5.922,0.001,0.1,208.82373,1625176757441
Fix,GT,37.3958117,-122.1029723,-5.922,0.0,0.1,-151.17627,1625176758441
Fix,GT,37.3958117,-122.1029723,-5.922,0.0,0.1,208.82384,1625176759441
Fix,GT,37.3958117,-122.1029723,-5.922,0.0,0.1,208.82379,1625176760441
Fix,GT,37.3958117,-122.1029723,-5.9220001764893535,0.0,0.1,208.82378,1625176761441
Fix,GT,37.3958117,-122.1029723,-5.922,0.0,0.1,-151.17624,1625176762441
Fix,GT,37.3958117,-122.1029723,-5.922,0.0005835953,0.1,208.82397,1625176763441
Fix,GT,37.3958117,-122.1029723,-5.921999823510646,0.0,0.1,208.82408,1625176764441
Fix,GT,37.3958117,-122.1029723,-5.9220001764893535,0.0,0.1,208.82393,1625176765441
Fix,GT,37.3958117,-122.1029723,-5.922,0.0,0.1,208.82385,1625176766441
Fix,GT,37.3958117,-122.1029723,-5.921999823510646,0.0004164047,0.1,208.82393,1625176767441
Fix,GT,37.3958117,-122.1029723,-5.9220001764893535,0.0,0.1,208.82416,1625176768441
Fix,GT,37.3958117,-122.1029723,-5.9220001764893535,0.0005835954,0.1,208.82417,1625176769441
Fix,GT,37.3958117,-122.1029723,-5.922,0.0005835953,0.1,208.82407,1625176770441
Fix,GT,37.3958117,-122.1029723,-5.921999823510647,0.0005835952,0.1,208.8241,1625176771441
Fix,GT,37.3958117,-122.1029723,-5.922,0.0,0.1,208.82402,1625176772441
Fix,GT,37.3958117,-122.1029723,-5.922,0.0,0.1,208.82402,1625176773441
Fix,GT,37.3958117,-122.1029723,-5.921999823510647,0.0,0.1,208.82404,1625176774441
Fix,GT,37.3958117,-122.1029723,-5.922,0.0,0.1,-151.17593,1625176775441
Fix,GT,37.3958117,-122.1029723,-5.921999823510647,0.0005835952,0.1,208.82393,1625176776441
Fix,GT,37.3958117,-122.1029723,-5.9220001764893535,0.0,0.1,208.8238,1625176777441
Fix,GT,37.3958117,-122.1029723,-5.9220001764893535,0.0005835952,0.1,208.82391,1625176778441
Fix,GT,37.3958117,-122.1029723,-5.922,0.0005835952,0.1,208.82378,1625176779441
Fix,GT,37.3958117,-122.1029723,-5.922,0.0,0.1,208.8237,1625176780441
Fix,GT,37.3958117,-122.1029723,-5.921999823510647,0.0,0.1,208.82352,1625176781441
Fix,GT,37.3958117,-122.1029723,-5.921999823510647,0.00041640483,0.1,208.82367,1625176782441
Fix,GT,37.3958117,-122.1029723,-5.9220001764893535,0.0005835952,0.1,208.8237,1625176783441
Fix,GT,37.3958117,-122.1029723,-5.922,0.00041640486,0.1,208.82388,1625176784441
Fix,GT,37.3958117,-122.1029723,-5.922,0.0,0.1,208.82388,1625176785441
Fix,GT,37.3958117,-122.1029723,-5.9220001764893535,0.0,0.1,208.824,1625176786441
Fix,GT,37.3958117,-122.1029723,-5.9220001764893535,0.0,0.1,208.824,1625176787441
Fix,GT,37.3958117,-122.1029723,-5.922,0.0,0.1,208.82408,1625176788441
Fix,GT,37.3958117,-122.1029723,-5.9220001764893535,0.0,0.1,208.82422,1625176789441
Fix,GT,37.3958117,-122.1029723,-5.922,0.001,0.1,-151.17586,1625176790441
Fix,GT,37.3958117,-122.1029723,-5.922,0.001,0.1,208.82397,1625176791441
Fix,GT,37.3958117,-122.1029723,-5.922,0.001,0.1,208.82385,1625176792441
Fix,GT,37.3958117,-122.1029723,-5.922,0.001,0.1,208.82408,1625176793441
Fix,GT,37.3958117,-122.1029723,-5.9220001764893535,0.0012417332,0.1,208.824,1625176794441
Fix,GT,37.3958117,-122.1029723,-5.9220001764893535,0.001,0.1,208.82402,1625176795441
Fix,GT,37.3958117,-122.1029723,-5.922,0.0012417331,0.1,208.82423,1625176796441
Fix,GT,37.3958117,-122.1029723,-5.922,0.00041640463,0.1,208.82439,1625176797441
Fix,GT,37.3958117,-122.1029723,-5.922,0.0005835954,0.1,208.82439,1625176798441
Fix,GT,37.3958117,-122.1029723,-5.9220001764893535,0.001,0.1,208.82431,1625176799441
Fix,GT,37.3958117,-122.1029723,-5.922,0.0,0.1,208.82417,1625176800441
Fix,GT,37.3958117,-122.1029723,-5.922,0.0,0.1,208.82399,1625176801441
Fix,GT,37.3958117,-122.1029723,-5.922,0.00041640463,0.1,208.82419,1625176802441
Fix,GT,37.3958117,-122.1029723,-5.922,0.0005835954,0.1,208.82414,1625176803441
Fix,GT,37.3958117,-122.1029723,-5.9220001764893535,0.0,0.1,208.82411,1625176804441
Fix,GT,37.3958117,-122.1029723,-5.9220001764893535,0.001,0.1,208.82404,1625176805441
Fix,GT,37.3958117,-122.1029723,-5.9220001764893535,0.0005835954,0.1,208.82393,1625176806441
Fix,GT,37.3958117,-122.1029723,-5.921999823510646,0.0004164047,0.1,208.8239,1625176807441
Fix,GT,37.3958117,-122.1029723,-5.922,0.0005835953,0.1,208.82405,1625176808441
Fix,GT,37.3958117,-122.1029723,-5.921999823510646,0.001,0.1,208.82404,1625176809441
Fix,GT,37.3958117,-122.1029723,-5.921999823510646,0.0005835953,0.1,208.82417,1625176810441
Fix,GT,37.3958117,-122.1029723,-5.922,0.001,0.1,208.82407,1625176811441
Fix,GT,37.3958117,-122.1029723,-5.9220001764893535,0.0,0.1,208.82397,1625176812441
Fix,GT,37.3958117,-122.1029723,-5.922,0.001,0.1,208.82397,1625176813441
Fix,GT,37.3958117,-122.1029723,-5.921999823510646,0.0,0.1,208.82404,1625176814441
Fix,GT,37.3958117,-122.1029723,-5.922,0.0,0.1,208.82391,1625176815441
Fix,GT,37.3958117,-122.1029723,-5.922,0.0,0.1,208.82391,1625176816441
Fix,GT,37.3958117,-122.1029723,-5.921999823510646,0.0004164047,0.1,208.82402,1625176817441
Fix,GT,37.3958117,-122.1029723,-5.921999823510647,0.0,0.1,208.82411,1625176818441
Fix,GT,37.3958117,-122.1029723,-5.9220001764893535,0.0005835953,0.1,208.82411,1625176819441
Fix,GT,37.3958117,-122.1029723,-5.9220001764893535,0.00041640477,0.1,208.8239,1625176820441
Fix,GT,37.3958117,-122.1029723,-5.922,0.0005835953,0.1,208.82411,1625176821441
Fix,GT,37.3958117,-122.1029723,-5.922,0.001,0.1,208.82423,1625176822441
Fix,GT,37.3958117,-122.1029723,-5.922,0.0,0.1,208.8241,1625176823441
Fix,GT,37.3958117,-122.1029723,-5.922,0.0,0.1,-151.1759,1625176824441
Fix,GT,37.3958117,-122.1029723,-5.922,0.0,0.1,208.82408,1625176825441
Fix,GT,37.3958117,-122.1029723,-5.9220001764893535,0.0,0.1,208.8243,1625176826441
Fix,GT,37.3958117,-122.1029723,-5.9220001764893535,0.0,0.1,208.82437,1625176827441
Fix,GT,37.3958117,-122.1029723,-5.9220001764893535,0.001,0.1,208.82434,1625176828441
Fix,GT,37.3958117,-122.1029723,-5.9220001764893535,0.0011724805,0.1,208.82437,1625176829441
Fix,GT,37.3958117,-122.1029723,-5.922,0.001,0.1,208.82426,1625176830441
Fix,GT,37.3958117,-122.1029723,-5.9220001764893535,0.0011724805,0.1,208.82407,1625176831441
Fix,GT,37.3958117,-122.1029723,-5.9220001764893535,0.0011724805,0.1,208.82397,1625176832441
Fix,GT,37.3958117,-122.1029723,-5.9220001764893535,0.0012417332,0.1,208.82413,1625176833441
Fix,GT,37.3958117,-122.1029723,-5.9220001764893535,0.001,0.1,208.8242,1625176834441
Fix,GT,37.3958117,-122.1029723,-5.921999823510646,0.0016581378,0.1,208.82434,1625176835441
Fix,GT,37.3958117,-122.1029723,-5.922,0.0014142136,0.1,-151.17558,1625176836441
Fix,GT,37.3958117,-122.1029723,-5.9220001764893535,0.0014142136,0.1,208.82443,1625176837441
Fix,GT,37.3958117,-122.1029723,-5.921999823510646,0.0014142136,0.1,208.82423,1625176838441
Fix,GT,37.3958117,-122.1029723,-5.921999823510646,0.0012417331,0.1,208.82419,1625176839441
Fix,GT,37.3958117,-122.1029723,-5.922,0.0014142136,0.1,208.8243,1625176840441
Fix,GT,37.3958117,-122.1029723,-5.922,0.001,0.1,208.82439,1625176841441
Fix,GT,37.3958117,-122.1029723,-5.922,0.001,0.1,208.8246,1625176842441
Fix,GT,37.3958117,-122.1029723,-5.9220001764893535,0.0012417331,0.1,208.82465,1625176843441
Fix,GT,37.3958117,-122.1029723,-5.922,0.0014142136,0.1,208.82463,1625176844441
Fix,GT,37.3958117,-122.1029723,-5.9220001764893535,0.001,0.1,208.82445,1625176845441
Fix,GT,37.3958117,-122.1029723,-5.921999823510647,0.0011724805,0.1,208.82436,1625176846441
Fix,GT,37.3958117,-122.1029723,-5.9220001764893535,0.0014142136,0.1,208.82431,1625176847441
Fix,GT,37.3958117,-122.1029723,-5.9220001764893535,0.0014142136,0.1,208.82434,1625176848441
Fix,GT,37.3958117,-122.1029723,-5.9220001764893535,0.0014142136,0.1,208.82448,1625176849441
Fix,GT,37.3958117,-122.1029723,-5.9220001764893535,0.0014142136,0.1,208.8246,1625176850441
Fix,GT,37.3958117,-122.1029723,-5.9220001764893535,0.0014142136,0.1,208.8247,1625176851441
Fix,GT,37.3958117,-122.1029723,-5.9220001764893535,0.0014142136,0.1,208.82494,1625176852441
Fix,GT,37.3958117,-122.1029723,-5.9220001764893535,0.0014142136,0.1,208.82497,1625176853441
Fix,GT,37.3958117,-122.1029723,-5.922,0.0018938438,0.1,208.82486,1625176854441
Fix,GT,37.3958117,-122.1029723,-5.922,0.0017564377,0.1,208.82484,1625176855441
Fix,GT,37.3958117,-122.1029723,-5.922,0.0014142136,0.1,208.82484,1625176856441
Fix,GT,37.3958117,-122.1029723,-5.9220001764893535,0.0005888854,0.1,208.82477,1625176857441
Fix,GT,37.3958117,-122.1029723,-5.9220001764893535,0.0012417331,0.1,208.82475,1625176858441
Fix,GT,37.3958117,-122.1029723,-5.9220001764893535,0.0017560758,0.1,208.82466,1625176859441
Fix,GT,37.3958117,-122.1029723,-5.9220001764893535,0.0017213634,0.1,208.8244,1625176860441
Fix,GT,37.3958117,-122.1029723,-5.922,0.001416405,0.1,208.82428,1625176861441
Fix,GT,37.3958117,-122.1029723,-5.921999823510646,0.0005835951,0.1,208.82462,1625176862441
Fix,GT,37.3958117,-122.1029723,-5.9220001764893535,0.001416405,0.1,208.82452,1625176863441
Fix,GT,37.3958117,-122.1029723,-5.9220001764893535,0.001,0.1,208.82439,1625176864441
Fix,GT,37.3958117,-122.1029723,-5.9220001764893535,0.00082532817,0.1,208.8246,1625176865441
Fix,GT,37.3958117,-122.1029723,-5.9220001764893535,0.001,0.1,208.8249,1625176866441
Fix,GT,37.3958117,-122.1029723,-5.9220001764893535,0.0011724806,0.1,208.82497,1625176867441
Fix,GT,37.3958117,-122.1029723,-5.922,0.001,0.1,208.8249,1625176868441
Fix,GT,37.3958117,-122.1029723,-5.9220001764893535,0.00082532817,0.1,208.82474,1625176869441
Fix,GT,37.3958117,-122.1029723,-5.9220001764893535,0.0004164049,0.1,208.82469,1625176870441
Fix,GT,37.3958117,-122.1029723,-5.921999823510646,0.001,0.1,208.8246,1625176871441
Fix,GT,37.3958117,-122.1029723,-5.922,0.001,0.1,208.82483,1625176872441
Fix,GT,37.3958117,-122.1029723,-5.922000176489353,0.000416405,0.1,208.82483,1625176873441
Fix,GT,37.3958117,-122.1029723,-5.921999823510647,0.00041640506,0.1,208.82483,1625176874441
Fix,GT,37.3958117,-122.1029723,-5.921999823510647,0.0,0.1,208.8249,1625176875441
Fix,GT,37.3958117,-122.1029723,-5.9220001764893535,0.00041640512,0.1,208.82475,1625176876441
Fix,GT,37.3958117,-122.1029723,-5.922,0.0,0.1,208.8246,1625176877441
Fix,GT,37.3958117,-122.1029723,-5.9220001764893535,0.00041640512,0.1,208.8246,1625176878441
Fix,GT,37.3958117,-122.1029723,-5.9220001764893535,0.00058359496,0.1,208.8246,1625176879441
Fix,GT,37.3958117,-122.1029723,-5.9220001764893535,0.00041640512,0.1,208.8246,1625176880441
Fix,GT,37.3958117,-122.1029723,-5.9220001764893535,0.00058359496,0.1,208.82468,1625176881441
Fix,GT,37.3958117,-122.1029723,-5.9220001764893535,0.001241733,0.1,208.82478,1625176882441
Fix,GT,37.3958117,-122.1029723,-5.922,0.00058888586,0.1,208.82486,1625176883441
Fix,GT,37.3958117,-122.1029723,-5.921999823510646,0.0014142136,0.1,208.8248,1625176884441
Fix,GT,37.3958117,-122.1029723,-5.9220001764893535,0.00041640512,0.1,208.82457,1625176885441
Fix,GT,37.3958117,-122.1029723,-5.9220001764893535,0.00058359496,0.1,208.82489,1625176886441
Fix,GT,37.3958117,-122.1029723,-5.9220001764893535,0.0014142136,0.1,208.82497,1625176887441
Fix,GT,37.3958117,-122.1029723,-5.922,0.001,0.1,208.8249,1625176888441
Fix,GT,37.3958117,-122.1029723,-5.921999823510647,0.00041640506,0.1,208.8247,1625176889441
Fix,GT,37.3958117,-122.1029723,-5.922,0.0004164052,0.1,208.82487,1625176890441
Fix,GT,37.3958117,-122.1029723,-5.9220001764893535,0.00041640512,0.1,208.82486,1625176891441
Fix,GT,37.3958117,-122.1029723,-5.921999823510646,0.0,0.1,208.82495,1625176892441
Fix,GT,37.3958117,-122.1029723,-5.9220001764893535,0.0,0.1,208.82503,1625176893441
Fix,GT,37.3958117,-122.1029723,-5.9220001764893535,0.0,0.1,208.82492,1625176894441
Fix,GT,37.3958117,-122.1029723,-5.9220001764893535,0.0,0.1,208.82486,1625176895441
Fix,GT,37.3958117,-122.1029723,-5.9220001764893535,0.001,0.1,208.8249,1625176896441
Fix,GT,37.3958117,-122.1029723,-5.922,0.0004164052,0.1,208.82481,1625176897441
Fix,GT,37.3958117,-122.1029723,-5.9220001764893535,0.001,0.1,208.82512,1625176898441
Fix,GT,37.3958117,-122.1029723,-5.922,0.0012417329,0.1,208.82481,1625176899441
Fix,GT,37.3958117,-122.1029723,-5.922,0.00058888586,0.1,208.82486,1625176900441
Fix,GT,37.3958117,-122.1029723,-5.922,0.0,0.1,208.82484,1625176901441
Fix,GT,37.3958117,-122.1029723,-5.922000176489353,0.00058359484,0.1,208.82475,1625176902441
Fix,GT,37.3958117,-122.1029723,-5.922000176489353,0.00058359484,0.1,208.82466,1625176903441
Fix,GT,37.3958117,-122.1029723,-5.922000176489353,0.00058359484,0.1,208.82477,1625176904441
Fix,GT,37.3958117,-122.1029723,-5.922,0.00041640535,0.1,208.82487,1625176905441
Fix,GT,37.3958117,-122.1029723,-5.921999823510646,0.00041640532,0.1,208.82486,1625176906441
Fix,GT,37.3958117,-122.1029723,-5.921999823510646,0.00041640532,0.1,208.8249,1625176907441
Fix,GT,37.3958117,-122.1029723,-5.921999823510646,0.0005835947,0.1,208.82492,1625176908441
Fix,GT,37.3958117,-122.1029723,-5.921999823510646,0.0005835947,0.1,208.82503,1625176909441
Fix,GT,37.3958117,-122.1029723,-5.922000176489353,0.0,0.1,208.82495,1625176910441
Fix,GT,37.3958117,-122.1029723,-5.921999823510646,0.00041640518,0.1,208.82489,1625176911441
Fix,GT,37.3958117,-122.1029723,-5.922000176489353,0.0,0.1,208.82498,1625176912441
Fix,GT,37.3958117,-122.1029723,-5.921999823510646,0.0,0.1,208.82509,1625176913441
Fix,GT,37.3958117,-122.1029723,-5.9220001764893535,0.001,0.1,208.82526,1625176914441
Fix,GT,37.3958117,-122.1029723,-5.921999823510646,0.00058359484,0.1,208.82523,1625176915441
Fix,GT,37.3958117,-122.1029723,-5.921999823510646,0.001,0.1,208.82524,1625176916441
Fix,GT,37.3958117,-122.1029723,-5.921999823510646,0.00058359484,0.1,208.82516,1625176917441
Fix,GT,37.3958117,-122.1029723,-5.9220001764893535,0.00041640512,0.1,208.82507,1625176918441
Fix,GT,37.3958117,-122.1029723,-5.921999823510646,0.0,0.1,208.8251,1625176919441
Fix,GT,37.3958117,-122.1029723,-5.9220001764893535,0.0,0.1,208.82527,1625176920441
Fix,GT,37.3958117,-122.1029723,-5.921999823510647,0.0,0.1,208.8253,1625176921441
Fix,GT,37.3958117,-122.1029723,-5.922,0.0,0.1,-151.17484,1625176922441
Fix,GT,37.3958117,-122.1029723,-5.922,0.0,0.1,208.82515,1625176923441
Fix,GT,37.3958117,-122.1029723,-5.922,0.0,0.1,208.8252,1625176924441
Fix,GT,37.3958117,-122.1029723,-5.922,0.0014142136,0.1,208.82515,1625176925441
Fix,GT,37.3958117,-122.1029723,-5.922000176489353,0.00058888557,0.1,208.82529,1625176926441
Fix,GT,37.3958117,-122.1029723,-5.922000176489353,0.0014142136,0.1,208.82536,1625176927441
Fix,GT,37.3958117,-122.1029723,-5.921999823510647,0.0011724806,0.1,208.8253,1625176928441
Fix,GT,37.3958117,-122.1029723,-5.922000176489353,0.0017213633,0.1,208.82529,1625176929441
Fix,GT,37.3958117,-122.1029723,-5.921999823510647,0.001,0.1,208.82536,1625176930441
Fix,GT,37.3958117,-122.1029723,-5.922000176489353,0.0014142136,0.1,208.82547,1625176931441
Fix,GT,37.3958117,-122.1029723,-5.922000176489353,0.001,0.1,208.82542,1625176932441
Fix,GT,37.3958117,-122.1029723,-5.922,0.0,0.1,-151.17468,1625176933441
Fix,GT,37.3958117,-122.1029723,-5.921999823510647,0.00041640506,0.1,208.82523,1625176934441
Fix,GT,37.3958117,-122.1029723,-5.922000176489353,0.0,0.1,208.8252,1625176935441
Fix,GT,37.3958117,-122.1029723,-5.922,0.0005835951,0.1,208.82507,1625176936441
