MessageType,Provider,LatitudeDegrees,LongitudeDegrees,AltitudeMeters,SpeedMps,AccuracyMeters,BearingDegrees,UnixTimeMillis
Fix,GT,37.3958232,-122.1029269,-4.726000033010728,0.0009981854,0.1,118.20297,1619733720000
Fix,GT,37.3958232,-122.1029269,-4.725999937279616,0.001,0.099,118.20123,1619733721000
Fix,GT,37.3958232,-122.1029269,-4.726000123240054,0.0009981885,0.1,118.19931,1619733722000
Fix,GT,37.3958232,-122.1029269,-4.72600007427414,0.00099819,0.1,118.197205,1619733723000
Fix,GT,37.3958232,-122.1029269,-4.725999978543026,0.0009981915,0.1,118.195404,1619733724000
Fix,GT,37.3958232,-122.1029269,-4.725999975241954,0.0014134651,0.1,118.193726,1619733725000
Fix,GT,37.3958232,-122.1029269,-4.726000066571636,0.0,0.1,118.191895,1619733726000
Fix,GT,37.3958232,-122.1029269,-4.7259999708405225,0.0009981963,0.1,118.19003,1619733727000
Fix,GT,37.3958232,-122.1029269,-4.726000109485583,0.0010022275,0.1,118.18768,1619733728000
Fix,GT,37.3958232,-122.1029269,-4.725999871808337,0.0014142136,0.1,118.18616,1619733729000
Fix,GT,37.3958232,-122.1029269,-4.725999915822642,0.0014134685,0.1,118.184204,1619733730000
Fix,GT,37.3958232,-122.1029269,-4.725999959836947,0.0014213505,0.1,118.18268,1619733731000
Fix,GT,37.3958232,-122.1029269,-4.726000003851251,0.0014142136,0.1,118.18167,1619733732000
Fix,GT,37.3958232,-122.1029269,-4.725999953784981,0.0014142136,0.099,118.17438,1619733733000
Fix,GT,37.3958232,-122.1029269,-4.725999903168529,0.001,0.099,118.16553,1619733734000
Fix,GT,37.3958232,-122.1029269,-4.7260001342436295,0.001,0.1,118.164154,1619733735000
Fix,GT,37.3958232,-122.1029269,-4.7260000841773575,0.001998211,0.1,118.161865,1619733736000
Fix,GT,37.3958232,-122.1029269,-4.7259999862455295,1.7876001e-06,0.1,118.15997,1619733737000
Fix,GT,37.3958232,-122.1029269,-4.72599993562908,0.0,0.1,118.15851,1619733738000
Fix,GT,37.3958232,-122.1029269,-4.725999885562808,0.001,0.1,118.1568,1619733739000
Fix,GT,37.3958232,-122.1029268,-4.726000116637908,0.0010000002,0.1,118.15485,1619733740000
Fix,GT,37.3958232,-122.1029268,-4.726000018706079,0.0009982189,0.1,118.15289,1619733741000
Fix,GT,37.3958232,-122.1029268,-4.725999968639807,0.001,0.1,118.151,1619733742000
Fix,GT,37.3958232,-122.1029268,-4.725999870707979,0.0,0.1,118.149475,1619733743000
Fix,GT,37.3958232,-122.1029268,-4.726000055017881,0.001,0.1,118.147644,1619733744000
Fix,GT,37.3958232,-122.1029268,-4.725999909770675,0.0009982254,0.1,118.145874,1619733745000
Fix,GT,37.3958232,-122.1029268,-4.726000093530398,0.0009982272,0.1,118.14395,1619733746000
Fix,GT,37.3958232,-122.1029268,-4.7259999015179925,0.0009999999,0.1,118.14203,1619733747000
Fix,GT,37.3958232,-122.1029268,-4.726000085277716,0.0014142136,0.1,118.14014,1619733748000
Fix,GT,37.3958232,-122.1029268,-4.7259998932653104,0.001,0.1,118.13855,1619733749000
Fix,GT,37.3958232,-122.1029268,-4.726000077025033,0.0009982337,0.1,118.13669,1619733750000
Fix,GT,37.3958232,-122.1029268,-4.725999979643383,0.0009982353,0.1,118.134766,1619733751000
Fix,GT,37.3958232,-122.1029268,-4.725999881711556,0.0,0.1,118.13312,1619733752000
Fix,GT,37.3958232,-122.1029268,-4.726000018706079,0.001,0.1,118.131226,1619733753000
Fix,GT,37.3958232,-122.1029268,-4.725999920774251,0.0014142136,0.1,118.1293,1619733754000
Fix,GT,37.3958232,-122.1029268,-4.726000105084153,0.001,0.1,118.12741,1619733755000
Fix,GT,37.3958232,-122.1029268,-4.726000054467702,0.001,0.1,118.12579,1619733756000
Fix,GT,37.3958232,-122.1029268,-4.725999956535874,0.0020004145,0.1,118.124115,1619733757000
Fix,GT,37.3958232,-122.1029268,-4.726000140845775,0.002,0.1,118.12219,1619733758000
Fix,GT,37.3958232,-122.1029268,-4.726000042913947,0.0030002843,0.1,118.1203,1619733759000
Fix,GT,37.3958232,-122.1029268,-4.725999898216919,0.0039982502,0.1,118.118286,1619733760000
Fix,GT,37.3958232,-122.1029268,-4.726000034661265,0.0041231057,0.1,118.11633,1619733761000
Fix,GT,37.3958232,-122.1029268,-4.725999937279616,0.0050990195,0.1,118.11456,1619733762000
Fix,GT,37.3958232,-122.1029267,-4.726000026408583,0.004472136,0.1,118.112854,1619733763000
Fix,GT,37.3958232,-122.1029267,-4.72600011608773,0.004472136,0.1,118.11075,1619733764000
Fix,GT,37.3958232,-122.1029268,-4.724999970846692,0.005,0.1,118.10864,1619733765000
Fix,GT,37.3958232,-122.1029268,-4.72100010772096,0.00360666,0.1,118.106995,1619733766000
Fix,GT,37.3958232,-122.1029268,-4.721000009892741,0.0031619954,0.1,118.10516,1619733767000
Fix,GT,37.3958232,-122.1029268,-4.7200000994559375,0.004123712,0.1,118.1033,1619733768000
Fix,GT,37.3958232,-122.1029268,-4.719999907137826,0.005002435,0.1,118.10144,1619733769000
Fix,GT,37.3958232,-122.1029268,-4.720000091213732,0.008247899,0.1,118.09943,1619733770000
Fix,GT,37.3958232,-122.1029268,-4.720999898874201,0.01304007,0.1,118.09775,1619733771000
Fix,GT,37.3958232,-122.1029268,-4.722001718836022,0.01811404,0.1,118.09531,1619733772000
Fix,GT,37.3958232,-122.1029265,-4.725001854154281,0.023024699,0.1,118.06476,1619733773000
Fix,GT,37.3958217,-122.1029274,-4.732001754653873,0.7266586,0.1,116.11313,1619733774000
Fix,GT,37.3958146,-122.1029311,-4.724996571672498,1.8048214,0.1,106.73245,1619733775000
Fix,GT,37.3957986,-122.1029353,-4.6949929829150205,2.8091931,0.099,96.581055,1619733776000
Fix,GT,37.3957697,-122.1029383,-4.63698097764654,3.7325256,0.099,95.81882,1619733777000
Fix,GT,37.3957286,-122.1029462,-4.534979363094433,4.732859,0.1,104.34366,1619733778000
Fix,GT,37.3956792,-122.1029678,-4.461996433997061,5.9742155,0.099,115.014465,1619733779000
Fix,GT,37.3956251,-122.1030026,-4.383989653929136,7.0280137,0.1,118.55887,1619733780000
Fix,GT,37.395567,-122.1030433,-4.284981210649945,7.543833,0.1,120.07507,1619733781000
Fix,GT,37.3955077,-122.1030871,-4.226987953843083,7.55826,0.1,120.76785,1619733782000
Fix,GT,37.3954522,-122.1031262,-4.176991552822757,6.9326124,0.1,115.77792,1619733783000
Fix,GT,37.3954043,-122.1031482,-4.086989843808348,5.8654876,0.1,99.68616,1619733784000
Fix,GT,37.395367,-122.1031473,-4.014987979718484,5.0120606,0.1,74.58807,1619733785000
Fix,GT,37.3953386,-122.1031274,-4.004001685402007,5.0706086,0.1,48.16217,1619733786000
Fix,GT,37.3953126,-122.1030836,-3.99902734456351,6.3067627,0.1,30.213898,1619733787000
Fix,GT,37.3952848,-122.1030149,-4.1700340505014175,7.5595884,0.1,28.074951,1619733788000
Fix,GT,37.3952508,-122.1029332,-4.403047718410729,8.715244,0.1,28.851501,1619733789000
Fix,GT,37.3952109,-122.1028405,-4.646037328117993,9.900786,0.1,29.209656,1619733790000
Fix,GT,37.3951665,-122.1027384,-4.926066264510156,10.699266,0.1,29.106018,1619733791000
Fix,GT,37.3951195,-122.1026304,-5.151001795183867,11.113612,0.1,28.874939,1619733792000
Fix,GT,37.395072,-122.1025196,-5.103996750449995,11.244317,0.1,28.136932,1619733793000
Fix,GT,37.3950248,-122.1024086,-5.145003270844463,11.069576,0.1,28.413025,1619733794000
Fix,GT,37.3949782,-122.1023,-5.148984747988638,10.799947,0.1,28.651672,1619733795000
Fix,GT,37.3949327,-122.1021955,-4.98996964017814,10.215665,0.1,28.97937,1619733796000
Fix,GT,37.3948906,-122.1021004,-4.823984913246939,8.958472,0.1,29.23413,1619733797000
Fix,GT,37.3948578,-122.1020235,-4.647954313587281,6.7994676,0.099,25.58255,1619733798000
Fix,GT,37.3948408,-122.1019683,-4.516983016022831,5.042776,0.1,13.697144,1619733799000
Fix,GT,37.3948375,-122.1019254,-4.42900496898219,4.623386,0.1,353.62292,1619733800000
Fix,GT,37.3948475,-122.1018883,-4.391991543989745,4.9727664,0.1,326.02618,1619733801000
Fix,GT,37.3948757,-122.1018538,-4.409999907589517,5.6932344,0.1,306.53983,1619733802000
Fix,GT,37.3949206,-122.1018185,-4.429006663057022,6.669029,0.1,300.461,1619733803000
Fix,GT,37.394977,-122.1017799,-4.4550016635069625,7.746568,0.099,298.76624,1619733804000
Fix,GT,37.3950414,-122.1017376,-4.49500840541441,8.309781,0.1,298.04767,1619733805000
Fix,GT,37.3951074,-122.1016942,-4.576003370201448,8.130937,0.1,298.56943,1619733806000
Fix,GT,37.3951702,-122.1016519,-4.637011770798359,7.5988746,0.1,299.26346,1619733807000
Fix,GT,37.3952279,-122.1016113,-4.6880034006414935,6.9755955,0.1,300.3634,1619733808000
Fix,GT,37.395277,-122.1015749,-4.68399666874879,5.4230337,0.1,301.50067,1619733809000
Fix,GT,37.3953132,-122.1015473,-4.701030017189216,3.980082,0.1,302.1111,1619733810000
Fix,GT,37.3953386,-122.1015275,-4.757009896839619,2.7302551,0.1,301.44815,1619733811000
Fix,GT,37.3953551,-122.1015152,-4.799008216786199,1.514293,0.1,300.75833,1619733812000
Fix,GT,37.3953611,-122.1015109,-4.812001600858988,0.044145692,0.099,300.76965,1619733813000
Fix,GT,37.3953611,-122.1015111,-4.8170000297209485,0.014028966,0.1,300.77893,1619733814000
Fix,GT,37.3953611,-122.1015111,-4.817000024673996,0.0070704655,0.1,300.77625,1619733815000
Fix,GT,37.3953611,-122.1015111,-4.818000019631115,0.0031640683,0.1,300.77533,1619733816000
Fix,GT,37.3953611,-122.1015111,-4.818000014022225,0.001,0.1,300.77438,1619733817000
Fix,GT,37.3953611,-122.1015111,-4.818000008974224,0.0010006853,0.1,300.7733,1619733818000
Fix,GT,37.3953611,-122.1015111,-4.818000100399135,0.002235678,0.1,300.77234,1619733819000
Fix,GT,37.3953611,-122.1015111,-4.818000095351134,0.0020000003,0.1,300.7712,1619733820000
Fix,GT,37.3953611,-122.1015111,-4.818000042066677,0.0020003894,0.1,300.77008,1619733821000
Fix,GT,37.3953611,-122.1015111,-4.818000084694242,0.0029987413,0.1,300.7687,1619733822000
Fix,GT,37.3953611,-122.1015111,-4.81800007964624,0.002236068,0.1,300.76743,1619733823000
Fix,GT,37.3953611,-122.1015111,-4.818000074598239,0.0028284271,0.1,300.76605,1619733824000
Fix,GT,37.3953611,-122.1015111,-4.818000117786694,0.002237041,0.1,300.7649,1619733825000
Fix,GT,37.3953613,-122.101511,-4.820001705339063,0.08117344,0.1,300.76697,1619733826000
Fix,GT,37.3953645,-122.1015087,-4.826001505386783,0.673313,0.1,300.78558,1619733827000
Fix,GT,37.3953698,-122.1015047,-4.830000003936002,0.679448,0.1,300.78326,1619733828000
Fix,GT,37.3953739,-122.1015016,-4.830999998875195,0.3096463,0.1,300.7913,1619733829000
Fix,GT,37.3953746,-122.1015011,-4.832999993811013,0.00412226,0.1,300.79456,1619733830000
Fix,GT,37.3953746,-122.1015011,-4.832998404171318,0.0020003854,0.1,300.79382,1619733831000
Fix,GT,37.3953747,-122.1015012,-4.832000079877675,0.002236068,0.1,300.79303,1619733832000
Fix,GT,37.3953748,-122.1015011,-4.833000026443857,0.084646046,0.1,300.7941,1619733833000
Fix,GT,37.3953767,-122.1014996,-4.833999876194633,0.08369686,0.1,300.7632,1619733834000
Fix,GT,37.3953767,-122.1014995,-4.837000062504201,0.0130032515,0.1,300.76096,1619733835000
Fix,GT,37.3953766,-122.1014994,-4.836999960582936,0.025611013,0.1,300.75732,1619733836000
Fix,GT,37.3953765,-122.1014992,-4.83699838162167,0.03701558,0.1,300.7564,1619733837000
Fix,GT,37.3953764,-122.1014991,-4.8369982813904056,0.053602643,0.1,300.755,1619733838000
Fix,GT,37.3953762,-122.1014988,-4.83599827801378,0.07301007,0.1,300.75378,1619733839000
Fix,GT,37.3953763,-122.1014976,-4.839007977726404,0.2739914,0.1,300.73813,1619733840000
Fix,GT,37.3953853,-122.1014894,-4.884030581928092,1.985064,0.099,303.1196,1619733841000
Fix,GT,37.3954081,-122.1014635,-5.097016014299239,3.115946,0.099,322.54285,1619733842000
Fix,GT,37.3954257,-122.1014123,-4.9489903955766925,4.262975,0.1,350.41754,1619733843000
Fix,GT,37.3954218,-122.1013385,-4.8979934269834775,6.7729745,0.1,14.763336,1619733844000
Fix,GT,37.3953969,-122.1012504,-4.864004788941587,9.139383,0.1,21.294159,1619733845000
Fix,GT,37.3953605,-122.1011451,-4.850996693953639,10.593303,0.1,25.078156,1619733846000
Fix,GT,37.3953141,-122.1010303,-4.853000144065707,12.027862,0.1,27.334137,1619733847000
Fix,GT,37.3952604,-122.1009036,-4.833991879004519,13.171491,0.1,28.162659,1619733848000
Fix,GT,37.3952014,-122.1007693,-4.8400095065641215,13.89778,0.099,29.008972,1619733849000
Fix,GT,37.3951386,-122.1006287,-4.963001485623885,14.648826,0.099,29.019684,1619733850000
Fix,GT,37.3950733,-122.1004816,-4.948001724492992,15.141477,0.1,28.752441,1619733851000
Fix,GT,37.3950071,-122.1003314,-4.934998424026882,15.12812,0.1,29.032532,1619733852000
Fix,GT,37.3949411,-122.1001838,-4.910003108769655,14.857004,0.1,29.034393,1619733853000
Fix,GT,37.3948772,-122.1000385,-4.891988755775965,14.59307,0.1,28.487457,1619733854000
Fix,GT,37.3948154,-122.0998954,-4.833990547089837,14.243195,0.1,28.31894,1619733855000
Fix,GT,37.3947554,-122.0997556,-4.833001588802087,13.912547,0.1,28.225067,1619733856000
Fix,GT,37.3946969,-122.0996186,-4.863996864242014,13.589658,0.1,28.244965,1619733857000
Fix,GT,37.3946394,-122.0994851,-4.857014415825018,13.262395,0.1,28.476105,1619733858000
Fix,GT,37.3945831,-122.0993551,-4.89700483499188,12.949161,0.1,28.372711,1619733859000
Fix,GT,37.3945286,-122.0992281,-4.887003240930964,12.567523,0.1,28.49112,1619733860000
Fix,GT,37.3944751,-122.0991054,-4.868988895964809,12.155627,0.1,28.789856,1619733861000
Fix,GT,37.3944237,-122.0989876,-4.829995127817266,11.5812025,0.099,28.654205,1619733862000
Fix,GT,37.394376,-122.0988772,-4.825995127879316,10.651648,0.1,28.732422,1619733863000
Fix,GT,37.3943316,-122.098776,-4.796996705172117,9.845572,0.1,28.948486,1619733864000
Fix,GT,37.3942905,-122.0986822,-4.805984290600289,9.10258,0.1,28.945465,1619733865000
Fix,GT,37.3942521,-122.0985951,-4.784996747955215,8.583229,0.099,28.9133,1619733866000
Fix,GT,37.3942154,-122.0985115,-4.763000126977334,8.355755,0.1,28.839355,1619733867000
Fix,GT,37.3941788,-122.098428,-4.753996933560818,8.679565,0.1,28.765167,1619733868000
Fix,GT,37.3941398,-122.0983384,-4.709990562569351,9.420413,0.1,28.454163,1619733869000
Fix,GT,37.3940979,-122.0982415,-4.659988907871303,10.114377,0.1,28.345154,1619733870000
Fix,GT,37.3940527,-122.0981379,-4.589981226444476,10.772101,0.1,28.855988,1619733871000
Fix,GT,37.394003,-122.0980279,-4.533998395289527,11.535453,0.1,29.843231,1619733872000
Fix,GT,37.3939484,-122.0979121,-4.513998571101228,12.054592,0.1,31.059387,1619733873000
Fix,GT,37.3938899,-122.0977935,-4.490001597794705,12.588917,0.1,32.0791,1619733874000
Fix,GT,37.3938269,-122.0976699,-4.481998339794227,13.258776,0.1,32.920258,1619733875000
Fix,GT,37.3937595,-122.0975425,-4.450993887912714,13.701954,0.1,33.93454,1619733876000
Fix,GT,37.3936888,-122.0974138,-4.425995355855557,13.785346,0.1,35.065247,1619733877000
Fix,GT,37.3936147,-122.0972866,-4.395996777561959,13.911911,0.1,37.039948,1619733878000
Fix,GT,37.3935368,-122.0971615,-4.371996993792942,13.957114,0.1,38.80246,1619733879000
Fix,GT,37.3934563,-122.0970399,-4.348995311998063,13.902897,0.1,40.063965,1619733880000
Fix,GT,37.3933752,-122.0969218,-4.314992343846243,13.563812,0.1,40.885315,1619733881000
Fix,GT,37.3932954,-122.096809,-4.248984485918772,13.003303,0.1,41.888245,1619733882000
Fix,GT,37.3932185,-122.0967042,-4.12499856744986,12.0213,0.1,42.920105,1619733883000
Fix,GT,37.3931457,-122.0966095,-4.054990765639231,11.181157,0.1,44.247375,1619733884000
Fix,GT,37.3930763,-122.0965223,-3.983984565020073,10.496443,0.1,45.068115,1619733885000
Fix,GT,37.3930118,-122.096444,-3.926992393553956,9.289748,0.1,46.103485,1619733886000
Fix,GT,37.3929535,-122.0963756,-3.860995434033685,8.3604965,0.1,47.0047,1619733887000
Fix,GT,37.3929004,-122.0963153,-3.795990748860176,7.516558,0.1,47.919586,1619733888000
Fix,GT,37.3928516,-122.0962615,-3.7249937506935096,6.886877,0.1,48.544098,1619733889000
Fix,GT,37.3928053,-122.0962115,-3.66498930115276,6.620158,0.1,49.099792,1619733890000
Fix,GT,37.3927605,-122.0961636,-3.6009922993518413,6.5051928,0.099,49.189728,1619733891000
Fix,GT,37.3927145,-122.096115,-3.551989350334392,6.857724,0.1,49.848907,1619733892000
Fix,GT,37.3926647,-122.0960643,-3.460986231703311,7.2479434,0.1,51.09189,1619733893000
Fix,GT,37.3926108,-122.0960115,-3.386990754879895,7.8934264,0.1,52.04489,1619733894000
Fix,GT,37.3925512,-122.0959538,-3.331983205130556,8.87704,0.1,51.68991,1619733895000
Fix,GT,37.3924842,-122.0958887,-3.2609939451842807,9.8778105,0.1,52.10199,1619733896000
Fix,GT,37.3924094,-122.0958178,-3.1889801929555834,10.771496,0.1,52.986206,1619733897000
Fix,GT,37.3923289,-122.0957436,-3.0979970500217746,11.31506,0.1,53.658142,1619733898000
Fix,GT,37.3922443,-122.0956669,-3.012989338429877,11.807146,0.099,54.21164,1619733899000
Fix,GT,37.3921555,-122.0955878,-2.9399924967007243,12.358884,0.1,54.358948,1619733900000
Fix,GT,37.3920628,-122.0955052,-2.8809817556411725,12.871335,0.1,54.315826,1619733901000
Fix,GT,37.3919677,-122.095421,-2.7859849388636646,12.866934,0.1,54.881226,1619733902000
Fix,GT,37.391873,-122.0953383,-2.687956133794156,12.790276,0.1,54.93747,1619733903000
Fix,GT,37.3917788,-122.0952553,-2.575987954229116,12.801203,0.1,54.300934,1619733904000
Fix,GT,37.3916862,-122.0951718,-2.454980376517167,12.53832,0.1,53.528046,1619733905000
Fix,GT,37.3915975,-122.0950889,-2.3409819491275123,12.132781,0.1,52.16458,1619733906000
Fix,GT,37.3915138,-122.0950061,-2.241996963612736,11.701835,0.1,50.4635,1619733907000
Fix,GT,37.3914347,-122.0949231,-2.1699955058287594,11.308298,0.1,49.07019,1619733908000
Fix,GT,37.3913599,-122.0948409,-2.11699094233918,10.916632,0.1,47.80371,1619733909000
Fix,GT,37.3912889,-122.0947597,-2.0289789994683813,10.540849,0.1,46.799316,1619733910000
Fix,GT,37.3912207,-122.0946791,-1.976982055136003,10.420682,0.1,45.94873,1619733911000
Fix,GT,37.3911531,-122.0945954,-1.8609790063948604,10.970763,0.099,44.078033,1619733912000
Fix,GT,37.3910834,-122.0945024,-1.7609850417498965,11.812673,0.1,42.09668,1619733913000
Fix,GT,37.3910105,-122.0944005,-1.6789910768116827,12.468972,0.1,41.336914,1619733914000
Fix,GT,37.3909356,-122.0942932,-1.587986548450892,12.774661,0.099,40.80847,1619733915000
Fix,GT,37.390861,-122.0941836,-1.5209866086691617,12.891297,0.1,39.578186,1619733916000
Fix,GT,37.3907877,-122.0940703,-1.4369940859888448,13.076631,0.1,38.364807,1619733917000
Fix,GT,37.3907149,-122.0939536,-1.3389851227418983,13.278935,0.1,37.435577,1619733918000
Fix,GT,37.3906418,-122.0938331,-1.2419792541093193,13.617668,0.1,36.764618,1619733919000
Fix,GT,37.3905685,-122.0937086,-1.1509910966528114,13.861478,0.1,35.741882,1619733920000
Fix,GT,37.3904959,-122.0935806,-1.0579837152743712,14.056625,0.1,34.59424,1619733921000
Fix,GT,37.3904245,-122.0934489,-1.0119689764812356,14.273027,0.1,33.37262,1619733922000
Fix,GT,37.3903545,-122.0933133,-0.9039896492823029,14.468218,0.099,32.172974,1619733923000
Fix,GT,37.3902852,-122.0931742,-0.8829970539802453,14.6195135,0.1,31.624298,1619733924000
Fix,GT,37.3902163,-122.0930343,-0.8199985132964793,14.488314,0.1,31.443604,1619733925000
Fix,GT,37.3901485,-122.0928957,-0.7789852837945801,14.2982,0.1,31.61258,1619733926000
Fix,GT,37.3900809,-122.0927596,-0.7189735531696352,14.096871,0.1,31.95279,1619733927000
Fix,GT,37.3900139,-122.0926246,-0.6149911772855557,14.168386,0.1,31.72757,1619733928000
Fix,GT,37.3899462,-122.092488,-0.5359736039552372,14.317428,0.1,31.823517,1619733929000
Fix,GT,37.3898773,-122.0923499,-0.4349853618489578,14.573223,0.1,31.884949,1619733930000
Fix,GT,37.3898073,-122.0922087,-0.3439926787546137,14.938183,0.1,31.352173,1619733931000
Fix,GT,37.3897358,-122.092063,-0.2959956195672275,15.334626,0.1,31.450287,1619733932000
Fix,GT,37.3896628,-122.0919136,-0.2269795579269994,15.684426,0.1,31.30542,1619733933000
Fix,GT,37.3895876,-122.0917604,-0.1629927126362454,16.130686,0.1,31.546478,1619733934000
Fix,GT,37.38951,-122.091604,-0.0569883470716886,16.451385,0.099,31.594666,1619733935000
Fix,GT,37.3894311,-122.0914448,-0.0060014546964084,16.662249,0.1,31.589111,1619733936000
Fix,GT,37.3893519,-122.0912851,0.0170029064246919,16.57815,0.1,31.68872,1619733937000
Fix,GT,37.3892743,-122.0911278,0.0419956453676568,16.150137,0.1,31.481873,1619733938000
Fix,GT,37.3891992,-122.0909748,0.0449884034163551,15.681474,0.1,31.612427,1619733939000
Fix,GT,37.3891258,-122.090826,0.0710014468524604,15.30769,0.1,31.534393,1619733940000
Fix,GT,37.3890541,-122.0906806,0.0690057859317166,14.9797535,0.1,31.619995,1619733941000
Fix,GT,37.3889835,-122.0905384,0.0709999979997519,14.6529455,0.1,31.740997,1619733942000
Fix,GT,37.3889142,-122.0903995,0.0689985551317222,14.349526,0.099,31.871338,1619733943000
Fix,GT,37.3888462,-122.0902636,0.0650028821720043,14.043659,0.1,32.088135,1619733944000
Fix,GT,37.3887791,-122.0901317,0.084998561233282,13.62396,0.1,32.391388,1619733945000
Fix,GT,37.388714,-122.0900041,0.1129971219295403,13.184449,0.099,32.545166,1619733946000
Fix,GT,37.3886504,-122.0898811,0.1130043085524812,12.720195,0.1,32.955963,1619733947000
Fix,GT,37.3885887,-122.0897639,0.1150043043794576,12.106016,0.1,33.320282,1619733948000
Fix,GT,37.3885301,-122.0896533,0.0880028627121355,11.351382,0.1,33.221527,1619733949000
Fix,GT,37.3884757,-122.08955,0.0879928449008148,10.599461,0.1,32.86438,1619733950000
Fix,GT,37.3884256,-122.089453,0.1150042885344009,9.919436,0.1,32.663544,1619733951000
Fix,GT,37.3883784,-122.0893616,0.1550128512904048,9.499531,0.1,32.54367,1619733952000
Fix,GT,37.3883329,-122.0892724,0.1779828905609902,9.210927,0.099,32.207764,1619733953000
Fix,GT,37.3882906,-122.0891894,0.1050128144721966,8.014249,0.1,32.124054,1619733954000
Fix,GT,37.3882574,-122.0891239,0.1150000004551839,5.757674,0.1,32.21811,1619733955000
Fix,GT,37.3882337,-122.0890775,0.1349971605417085,3.9272645,0.1,32.395264,1619733956000
Fix,GT,37.3882188,-122.0890481,0.1429999959213891,2.2389953,0.099,32.437897,1619733957000
Fix,GT,37.3882102,-122.0890316,0.1429943285766057,1.2801707,0.1,32.397095,1619733958000
Fix,GT,37.3882062,-122.0890237,0.1489999982827576,0.38494524,0.1,32.3851,1619733959000
Fix,GT,37.3882052,-122.0890218,0.1519999995576217,0.047991008,0.1,32.375732,1619733960000
Fix,GT,37.3882051,-122.0890215,0.1530000023867469,0.020228907,0.1,32.37195,1619733961000
Fix,GT,37.3882051,-122.0890215,0.1539999976155813,0.0022369034,0.1,32.37152,1619733962000
Fix,GT,37.3882051,-122.0890215,0.1530000004631001,0.0009985914,0.1,32.369904,1619733963000
Fix,GT,37.3882051,-122.0890215,0.1530000017633428,0.001,0.1,32.367584,1619733964000
Fix,GT,37.3882051,-122.0890215,0.1530000015496043,0.0,0.1,32.365173,1619733965000
Fix,GT,37.388205,-122.0890213,0.1519999997876584,0.0,0.1,32.363068,1619733966000
Fix,GT,37.388205,-122.0890213,0.1519999995753169,0.0,0.1,32.361176,1619733967000
Fix,GT,37.388205,-122.0890213,0.1520000008670613,0.0009986002,0.1,32.35904,1619733968000
Fix,GT,37.388205,-122.0890213,0.1519999991329386,1.3982001e-06,0.099,32.356934,1619733969000
Fix,GT,37.388205,-122.0890213,0.1520000019464641,0.0,0.1,32.35504,1619733970000
Fix,GT,37.388205,-122.0890213,0.1520000017164275,0.001,0.1,32.35312,1619733971000
Fix,GT,37.388205,-122.0890213,0.1519999954700469,0.0,0.1,32.351074,1619733972000
Fix,GT,37.388205,-122.0890213,0.1520000027958303,0.001,0.1,32.349457,1619733973000
Fix,GT,37.388205,-122.0890213,0.1520000040875747,1.38959e-06,0.1,32.347534,1619733974000
Fix,GT,37.388205,-122.0890213,0.1519999963371083,0.0,0.1,32.34546,1619733975000
Fix,GT,37.388205,-122.0890213,0.1519999976288527,0.0,0.1,32.343353,1619733976000
Fix,GT,37.388205,-122.0890213,0.151999997398816,0.0,0.1,32.341278,1619733977000
Fix,GT,37.388205,-122.0890213,0.1520000017341226,0.0014136408,0.1,32.33911,1619733978000
Fix,GT,37.388205,-122.0890213,0.1520000030435621,0.001,0.1,32.33725,1619733979000
Fix,GT,37.388205,-122.0890213,0.1520000043353065,1.3792801e-06,0.1,32.335022,1619733980000
Fix,GT,37.388205,-122.0890213,0.1519999965671449,0.0014136429,0.1,32.332886,1619733981000
Fix,GT,37.388205,-122.0890213,0.1519999963548034,1.3758302e-06,0.099,32.33069,1619733982000
Fix,GT,37.388205,-122.0890213,0.1519999991683289,0.0022329953,0.1,32.328857,1619733983000
Fix,GT,37.388205,-122.0890213,0.1520000004600733,1.9408667e-06,0.1,32.327026,1619733984000
Fix,GT,37.388205,-122.0890213,0.1520000017695129,0.001,0.1,32.32486,1619733985000
Fix,GT,37.388205,-122.0890213,0.1520000030612573,1.9360018e-06,0.1,32.322937,1619733986000
Fix,GT,37.388205,-122.0890213,0.1520000043530017,0.0,0.1,32.32086,1619733987000
Fix,GT,37.388205,-122.0890213,0.1520000041406601,0.0014142136,0.1,32.318542,1619733988000
Fix,GT,37.388205,-122.0890213,0.1520000039106235,0.0,0.1,32.316864,1619733989000
Fix,GT,37.388205,-122.0890213,0.1519999961424618,0.001998638,0.1,32.314575,1619733990000
Fix,GT,37.388205,-122.0890213,0.1519999974519014,0.001,0.1,32.3125,1619733991000
Fix,GT,37.388205,-122.0890213,0.1520000002654269,1.921393e-06,0.1,32.310608,1619733992000
Fix,GT,37.388205,-122.0890213,0.1520000030789524,0.0009986431,0.1,32.30844,1619733993000
Fix,GT,37.388205,-122.0890213,0.1520000043706968,0.001,0.1,32.306427,1619733994000
Fix,GT,37.388205,-122.0890213,0.1519999966202303,0.0009986466,0.099,32.304382,1619733995000
Fix,GT,37.388205,-122.0890213,0.1519999963901936,0.0009999999,0.1,32.30243,1619733996000
Fix,GT,37.388205,-122.0890213,0.1519999976819381,0.001,0.1,32.300323,1619733997000
Fix,GT,37.388205,-122.0890213,0.1519999959478154,0.001,0.099,32.29828,1619733998000
Fix,GT,37.388205,-122.0890213,0.1519999972395598,0.0014136558,0.1,32.296204,1619733999000
Fix,GT,37.388205,-122.0890213,0.1520000000530854,0.0010005571,0.1,32.29419,1619734000000
Fix,GT,37.388205,-122.0890213,0.1519999998407438,0.002236068,0.1,32.292267,1619734001000
Fix,GT,37.388205,-122.0890213,0.1519999996107071,0.0028284271,0.1,32.2901,1619734002000
Fix,GT,37.388205,-122.0890213,0.1520000009201467,0.0022373088,0.1,32.28784,1619734003000
Fix,GT,37.388205,-122.0890213,0.1520000037336722,0.0022368608,0.1,32.28589,1619734004000
Fix,GT,37.388205,-122.0890213,0.1520000035036355,0.0036049592,0.1,32.283264,1619734005000
Fix,GT,37.388205,-122.0890213,0.151999995753169,0.004122415,0.1,32.282227,1619734006000
Fix,GT,37.388205,-122.0890213,0.1509999955525854,0.0020032949,0.099,32.279846,1619734007000
Fix,GT,37.388205,-122.0890213,0.1510000028125941,0.0010013311,0.1,32.277863,1619734008000
Fix,GT,37.3882045,-122.0890204,0.1480013260319828,0.24020259,0.1,32.277252,1619734009000
Fix,GT,37.388204,-122.0890193,0.1489986762334592,0.038288962,0.1,32.273956,1619734010000
Fix,GT,37.3882037,-122.0890188,0.1489999977103434,0.05297498,0.1,32.27292,1619734011000
Fix,GT,37.3882037,-122.0890188,0.1480000033769756,0.002233107,0.1,32.273224,1619734012000
Fix,GT,37.3882037,-122.0890188,0.1479999958132393,0.0009986776,0.099,32.267975,1619734013000
Fix,GT,37.3882037,-122.0890188,0.1480000029462389,0.0031622776,0.1,32.265778,1619734014000
Fix,GT,37.3882037,-122.0890188,0.1480000027222558,0.0036055513,0.1,32.263367,1619734015000
Fix,GT,37.3882037,-122.0890188,0.1480000039972365,0.004998683,0.1,32.260742,1619734016000
Fix,GT,37.3882037,-122.0890187,0.1489999964094022,0.0058291643,0.1,32.258728,1619734017000
Fix,GT,37.3882037,-122.0890187,0.1490013144691474,0.0049993065,0.1,32.257263,1619734018000
Fix,GT,37.3882033,-122.0890179,0.1480000004307367,0.3021884,0.1,32.253296,1619734019000
Fix,GT,37.3882,-122.0890111,0.1460013120427029,1.2091223,0.1,32.195465,1619734020000
Fix,GT,37.3881913,-122.0889943,0.1530013101617805,2.3351686,0.1,32.121063,1619734021000
Fix,GT,37.3881774,-122.0889669,0.1570000029060756,3.432857,0.1,31.829193,1619734022000
Fix,GT,37.3881581,-122.0889281,0.1740052236977498,4.715936,0.1,31.666565,1619734023000
Fix,GT,37.3881319,-122.0888753,0.1739973975364118,6.3290286,0.1,31.381348,1619734024000
Fix,GT,37.3880984,-122.0888067,0.1600078063604887,8.012237,0.1,30.569,1619734025000
Fix,GT,37.388059,-122.0887238,0.1840025987962726,9.1024065,0.1,30.46457,1619734026000
Fix,GT,37.3880139,-122.0886304,0.1790012986017391,10.188202,0.1,31.151093,1619734027000
Fix,GT,37.387963,-122.0885271,0.1960051863426342,11.24037,0.1,31.476776,1619734028000
Fix,GT,37.3879076,-122.0884157,0.2280155451167375,11.978055,0.1,31.548859,1619734029000
Fix,GT,37.3878495,-122.0882985,0.2729987115636468,12.419537,0.1,31.33081,1619734030000
Fix,GT,37.3877912,-122.0881803,0.3180038824413205,12.173446,0.1,31.113007,1619734031000
Fix,GT,37.3877351,-122.0880643,0.3490103087838506,11.927117,0.099,30.113708,1619734032000
Fix,GT,37.3876819,-122.0879496,0.3879974175356328,11.691997,0.1,29.130463,1619734033000
Fix,GT,37.3876302,-122.0878348,0.3889999889956089,11.669098,0.1,28.999939,1619734034000
Fix,GT,37.387578,-122.0877209,0.4109974228738574,11.483279,0.099,29.822693,1619734035000
Fix,GT,37.3875256,-122.0876095,0.4940115346431266,11.486946,0.1,30.204956,1619734036000
Fix,GT,37.3874718,-122.0874965,0.541001268841792,11.74718,0.1,30.551514,1619734037000
Fix,GT,37.3874172,-122.087383,0.5580025452133268,11.767414,0.099,30.674438,1619734038000
Fix,GT,37.3873617,-122.0872687,0.5910012918319553,11.864269,0.1,31.168732,1619734039000
Fix,GT,37.3873051,-122.0871543,0.6200025594951585,11.8587,0.1,31.471344,1619734040000
Fix,GT,37.3872491,-122.0870418,0.6430038230787032,11.652864,0.1,31.435577,1619734041000
Fix,GT,37.387194,-122.0869311,0.6869974550000625,11.445639,0.1,31.402222,1619734042000
Fix,GT,37.3871402,-122.0868222,0.7440063518639654,11.249469,0.1,31.042755,1619734043000
Fix,GT,37.3870877,-122.0867142,0.7790177544017789,11.300391,0.1,30.841492,1619734044000
Fix,GT,37.3870338,-122.0866037,0.8460025303419678,11.61839,0.1,31.103882,1619734045000
Fix,GT,37.3869777,-122.0864902,0.8669999946505995,11.998277,0.1,31.548187,1619734046000
Fix,GT,37.3869193,-122.0863734,0.8660037932363339,12.417903,0.1,31.585938,1619734047000
Fix,GT,37.38686,-122.0862547,0.881996214688872,12.327646,0.1,31.547028,1619734048000
Fix,GT,37.3868019,-122.086138,0.8709987479231786,12.026369,0.1,31.417358,1619734049000
Fix,GT,37.3867455,-122.0860246,0.8849999981455039,11.6327305,0.1,31.473053,1619734050000
Fix,GT,37.3866907,-122.0859149,0.9040037762779976,11.29257,0.1,31.62387,1619734051000
Fix,GT,37.3866373,-122.0858085,0.9300037699554816,10.966617,0.1,31.60794,1619734052000
Fix,GT,37.3865859,-122.085705,0.93600001263991,10.658606,0.1,31.32074,1619734053000
Fix,GT,37.3865359,-122.0856041,0.9319962656346616,10.420237,0.1,31.212524,1619734054000
Fix,GT,37.3864866,-122.0855041,0.9060012685986004,10.376055,0.1,31.295288,1619734055000
Fix,GT,37.3864373,-122.085405,0.9170012748981826,10.268837,0.1,31.39569,1619734056000
Fix,GT,37.3863888,-122.0853067,0.923002472779248,10.169514,0.1,31.411163,1619734057000
Fix,GT,37.3863409,-122.08521,0.923999987629708,10.008706,0.099,31.395416,1619734058000
Fix,GT,37.3862942,-122.0851148,0.9349999954283704,9.816134,0.1,31.243896,1619734059000
Fix,GT,37.3862482,-122.0850213,0.9389987621679902,9.61063,0.1,31.276825,1619734060000
Fix,GT,37.3862036,-122.084931,0.9419962738825706,9.148964,0.1,31.302032,1619734061000
Fix,GT,37.3861626,-122.0848476,0.932998753450811,8.12949,0.1,31.270477,1619734062000
Fix,GT,37.386127,-122.0847753,0.9229987447536552,6.910015,0.1,31.082703,1619734063000
Fix,GT,37.3860975,-122.0847148,0.9079962766404496,5.653684,0.099,31.040558,1619734064000
Fix,GT,37.386074,-122.0846667,0.8890000141785713,4.3381515,0.1,31.063171,1619734065000
Fix,GT,37.3860555,-122.084629,0.8919999861889519,3.4776502,0.099,31.082184,1619734066000
Fix,GT,37.3860417,-122.0846008,0.9030012138020248,2.4176807,0.1,31.060547,1619734067000
Fix,GT,37.386032,-122.084581,0.9030000191323926,1.7814143,0.1,31.045807,1619734068000
Fix,GT,37.3860247,-122.0845662,0.903000017765793,1.2967553,0.1,31.031403,1619734069000
Fix,GT,37.3860195,-122.0845557,0.904000016522594,0.99839413,0.1,31.058838,1619734070000
Fix,GT,37.3860152,-122.0845471,0.9070000242854004,0.7764225,0.1,31.049591,1619734071000
Fix,GT,37.3860122,-122.084541,0.9089987664739602,0.48121887,0.099,31.033813,1619734072000
Fix,GT,37.3860103,-122.0845372,0.9099999855924398,0.36718887,0.1,31.027649,1619734073000
Fix,GT,37.3860085,-122.0845336,0.910999984303955,0.4285883,0.1,31.030548,1619734074000
Fix,GT,37.3860066,-122.0845297,0.9119999829065056,0.42539617,0.099,31.029388,1619734075000
Fix,GT,37.3860048,-122.0845258,0.912998768022284,0.2838256,0.1,31.026642,1619734076000
Fix,GT,37.3860044,-122.0845246,0.9090000162965152,0.00761307,0.1,31.023987,1619734077000
Fix,GT,37.3860044,-122.0845246,0.909000015026657,0.0036023983,0.1,31.022705,1619734078000
Fix,GT,37.3860044,-122.0845246,0.9090000045503256,0.0010005005,0.1,31.019867,1619734079000
Fix,GT,37.3860044,-122.0845246,0.908999994179816,0.0,0.1,31.016876,1619734080000
Fix,GT,37.3860044,-122.0845246,0.9089999837034848,0.001,0.1,31.01419,1619734081000
Fix,GT,37.3860044,-122.0845246,0.9090000096297592,1.20319e-06,0.1,31.011261,1619734082000
Fix,GT,37.3860044,-122.0845246,0.909000017460552,0.0,0.1,31.008514,1619734083000
Fix,GT,37.3860044,-122.0845246,0.9090000251855236,0.001,0.1,31.005829,1619734084000
Fix,GT,37.3860044,-122.0845246,0.9090000238098436,0.0010004963,0.1,31.003052,1619734085000
Fix,GT,37.3860044,-122.0845246,0.9090000225399854,0.001,0.1,31.000366,1619734086000
Fix,GT,37.3860044,-122.0845246,0.9090000029630028,0.001,0.1,30.997559,1619734087000
Fix,GT,37.3860044,-122.0845246,0.9089999925924932,0.001,0.1,30.99469,1619734088000
Fix,GT,37.3860044,-122.0845246,0.9090000182013028,0.000998809,0.1,30.992096,1619734089000
Fix,GT,37.3860044,-122.0845247,0.9090000077249716,0.0020011894,0.1,30.98944,1619734090000
Fix,GT,37.3860044,-122.0845247,0.9089999882538106,0.0029981167,0.099,30.985626,1619734091000
Fix,GT,37.3860044,-122.0845247,0.90900002285745,0.0030011858,0.1,30.98291,1619734092000
Fix,GT,37.3860044,-122.0845247,0.9090000124869404,0.0022371649,0.1,30.980255,1619734093000
Fix,GT,37.3860044,-122.0845247,0.909000002010609,0.004,0.1,30.977692,1619734094000
Fix,GT,37.3860044,-122.0845247,0.908000000739936,0.0041231057,0.1,30.974884,1619734095000
Fix,GT,37.3860044,-122.0845247,0.90799998118449,0.00509828,0.099,30.972382,1619734096000
Fix,GT,37.3860041,-122.0845241,0.90500001580338,0.15354368,0.1,30.97174,1619734097000
Fix,GT,37.3860039,-122.0845236,0.9059999964139424,0.005383822,0.1,30.967255,1619734098000
Fix,GT,37.3860039,-122.0845235,0.9049999950482744,0.005000116,0.1,30.965546,1619734099000
Fix,GT,37.3860039,-122.0845235,0.9049999847233994,0.004123246,0.1,30.963196,1619734100000
Fix,GT,37.386004,-122.0845235,0.9049999833537732,0.005000116,0.099,30.958923,1619734101000
Fix,GT,37.386004,-122.0845235,0.9050000088498928,0.0028284271,0.1,30.955505,1619734102000
Fix,GT,37.386004,-122.0845235,0.9049999802984532,0.002236068,0.1,30.952484,1619734103000
Fix,GT,37.386004,-122.0845235,0.9050000239157816,0.001413731,0.1,30.950562,1619734104000
Fix,GT,37.386004,-122.0845235,0.9049999954696978,0.001,0.1,30.947235,1619734105000
Fix,GT,37.386004,-122.0845235,0.904999985039467,0.0030001886,0.099,30.944153,1619734106000
Fix,GT,37.386004,-122.0845235,0.904999974714592,0.0063245553,0.1,30.94159,1619734107000
Fix,GT,37.386004,-122.0845235,0.9050000091659604,0.009433414,0.1,30.937958,1619734108000
Fix,GT,37.386004,-122.0845235,0.9049999988410856,0.014764823,0.1,30.935364,1619734109000
Fix,GT,37.386004,-122.0845235,0.9059988521093038,0.03989055,0.1,30.930786,1619734110000
Fix,GT,37.3860014,-122.0845186,0.8970011489307508,1.3321617,0.1,30.93628,1619734111000
Fix,GT,37.3859904,-122.0844965,0.9009999768192648,3.2466338,0.1,30.93805,1619734112000
Fix,GT,37.3859701,-122.0844555,0.9050011513924692,5.2120748,0.1,31.150482,1619734113000
Fix,GT,37.38594,-122.0843947,0.9100022957473992,7.488909,0.1,31.158081,1619734114000
Fix,GT,37.3858997,-122.084313,0.9310011359555648,9.308568,0.1,31.158203,1619734115000
Fix,GT,37.3858537,-122.0842194,0.92399885418138,10.110491,0.1,30.675873,1619734116000
Fix,GT,37.3858039,-122.0841173,0.8999942767008907,11.076582,0.1,31.210907,1619734117000
Fix,GT,37.3857488,-122.0840068,0.9149954334062058,11.950827,0.1,31.636108,1619734118000
Fix,GT,37.3856895,-122.0838888,0.9200056789559312,12.754629,0.099,31.408478,1619734119000
Fix,GT,37.385627,-122.0837626,0.9359999833283946,13.593105,0.1,30.860504,1619734120000
Fix,GT,37.3855613,-122.0836282,0.9560056864052312,14.3201275,0.1,30.752472,1619734121000
Fix,GT,37.3854928,-122.0834874,0.9830045528586489,14.857017,0.1,30.812592,1619734122000
Fix,GT,37.3854221,-122.0833441,1.0360101838170086,14.830733,0.1,31.371002,1619734123000
Fix,GT,37.3853512,-122.0832023,1.0810033750426955,14.854084,0.1,31.326782,1619734124000
Fix,GT,37.3852802,-122.0830603,1.1200079253698931,14.757389,0.1,31.351013,1619734125000
Fix,GT,37.3852105,-122.08292,1.164004521034658,14.569045,0.1,30.873322,1619734126000
Fix,GT,37.3851418,-122.0827798,1.1950056016631423,14.68074,0.1,30.953827,1619734127000
Fix,GT,37.385071,-122.082637,1.225998912866693,15.06636,0.1,31.110992,1619734128000
Fix,GT,37.3849987,-122.0824913,1.2660022525745442,15.274157,0.1,31.17395,1619734129000
Fix,GT,37.3849261,-122.0823453,1.300993277644622,15.119789,0.1,31.183105,1619734130000
Fix,GT,37.3848547,-122.0822017,1.3169966133031994,14.834123,0.1,31.105743,1619734131000
Fix,GT,37.3847844,-122.0820604,1.3559977990160696,14.656062,0.1,31.14035,1619734132000
Fix,GT,37.3847148,-122.0819206,1.371998874139972,14.531349,0.1,31.015228,1619734133000
Fix,GT,37.384646,-122.0817823,1.4000010987765852,14.335927,0.099,31.211304,1619734134000
Fix,GT,37.3845777,-122.0816462,1.4710088556101546,14.128307,0.1,31.27246,1619734135000
Fix,GT,37.3845106,-122.0815119,1.5440099472100848,14.005987,0.1,31.129883,1619734136000
Fix,GT,37.384444,-122.0813775,1.6300210015102057,14.074579,0.099,30.728485,1619734137000
Fix,GT,37.3843774,-122.0812417,1.6699999737541655,14.216323,0.1,30.724976,1619734138000
Fix,GT,37.3843088,-122.081103,1.665007682433352,14.668153,0.1,31.022186,1619734139000
Fix,GT,37.3842377,-122.0809604,1.756003256431548,15.11956,0.099,31.322784,1619734140000
Fix,GT,37.384164,-122.0808139,1.8269945147780235,15.55945,0.1,31.345459,1619734141000
Fix,GT,37.3840885,-122.0806632,1.8590054714092985,15.954803,0.099,31.200806,1619734142000
Fix,GT,37.3840118,-122.0805092,1.9120076532498933,16.23763,0.1,31.177063,1619734143000
Fix,GT,37.3839337,-122.0803517,1.9620120383679167,16.551306,0.1,30.967468,1619734144000
Fix,GT,37.3838555,-122.0801923,2.009005414609564,16.654879,0.099,30.788147,1619734145000
Fix,GT,37.3837775,-122.0800303,2.0890076670926065,16.881777,0.1,29.894073,1619734146000
Fix,GT,37.3836999,-122.0798632,2.1870054727047683,17.464691,0.1,29.126038,1619734147000
Fix,GT,37.3836201,-122.0796879,2.309021740395576,18.013939,0.1,29.047058,1619734148000
Fix,GT,37.3835393,-122.0795118,2.4370097238074524,17.935625,0.1,29.41867,1619734149000
Fix,GT,37.3834589,-122.0793376,2.539003319221782,17.686226,0.1,29.459717,1619734150000
Fix,GT,37.3833799,-122.0791667,2.639008728087181,17.246552,0.1,29.59613,1619734151000
Fix,GT,37.3833028,-122.0790023,2.753001115973108,16.436735,0.1,30.005676,1619734152000
Fix,GT,37.3832311,-122.0788483,2.8600140092925868,15.23031,0.1,28.579407,1619734153000
Fix,GT,37.3831689,-122.0787052,3.006998860869324,13.7565155,0.1,27.15033,1619734154000
Fix,GT,37.3831145,-122.0785743,3.091021577094682,12.508983,0.1,26.385406,1619734155000
Fix,GT,37.3830656,-122.0784559,3.173998977340292,10.890543,0.1,27.718292,1619734156000
Fix,GT,37.3830206,-122.0783542,3.2290064513118706,9.633912,0.1,28.83548,1619734157000
Fix,GT,37.3829807,-122.078267,3.282006403681822,8.109498,0.1,29.589905,1619734158000
Fix,GT,37.3829468,-122.0781952,3.324002077973448,6.5871186,0.1,30.399994,1619734159000
Fix,GT,37.3829186,-122.0781375,3.38400527101662,5.3527656,0.1,31.216064,1619734160000
Fix,GT,37.3828952,-122.0780909,3.410002160339151,4.442064,0.1,31.400513,1619734161000
Fix,GT,37.3828762,-122.0780529,3.432002117891563,3.453614,0.1,31.490906,1619734162000
Fix,GT,37.3828621,-122.0780249,3.4490010128135324,2.4562736,0.099,31.582245,1619734163000
Fix,GT,37.382852,-122.078005,3.463000082241837,1.8487647,0.1,31.651886,1619734164000
Fix,GT,37.382844,-122.0779893,3.4750021254909225,1.4014813,0.1,31.59552,1619734165000
Fix,GT,37.382839,-122.0779794,3.4840009900274453,0.6726283,0.1,31.632233,1619734166000
Fix,GT,37.382837,-122.0779755,3.485999963070033,0.31148398,0.1,31.640015,1619734167000
Fix,GT,37.3828356,-122.0779727,3.490000976294978,0.2540847,0.099,31.653442,1619734168000
Fix,GT,37.3828346,-122.0779708,3.4940000561322084,0.14365576,0.1,31.651276,1619734169000
Fix,GT,37.3828343,-122.0779702,3.4949999113020023,0.033003792,0.1,31.64856,1619734170000
Fix,GT,37.3828343,-122.0779702,3.4950000093580456,0.0031621074,0.1,31.645233,1619734171000
Fix,GT,37.3828343,-122.0779702,3.494999899502727,1.04645e-06,0.1,31.640198,1619734172000
Fix,GT,37.3828343,-122.0779702,3.495000032956596,0.0014137808,0.1,31.635315,1619734173000
Fix,GT,37.3828343,-122.0779702,3.495000096021686,0.0014142137,0.1,31.63144,1619734174000
Fix,GT,37.3828343,-122.0779702,3.494999986166368,0.0010004312,0.1,31.627136,1619734175000
Fix,GT,37.3828342,-122.0779701,3.493999911327381,0.0014142136,0.1,31.62265,1619734176000
Fix,GT,37.3828341,-122.07797,3.492000009756535,0.0022352154,0.1,31.618042,1619734177000
Fix,GT,37.3828341,-122.07797,3.4919998995889907,0.0009999999,0.1,31.614075,1619734178000
Fix,GT,37.3828341,-122.07797,3.491999997967388,0.0010012783,0.1,31.610168,1619734179000
Fix,GT,37.3828341,-122.07797,3.492000096345786,0.001,0.1,31.606232,1619734180000
Fix,GT,37.3828341,-122.07797,3.491999916662928,0.001000427,0.099,31.602325,1619734181000
Fix,GT,37.3828341,-122.07797,3.4920000146348027,0.0036032968,0.1,31.596985,1619734182000
Fix,GT,37.3828341,-122.07797,3.492000078052282,0.0036069835,0.1,31.593842,1619734183000
Fix,GT,37.3828341,-122.07797,3.49199996829126,0.004472677,0.1,31.58902,1619734184000
Fix,GT,37.3828341,-122.07797,3.4920001012240536,0.0058304956,0.1,31.584656,1619734185000
Fix,GT,37.3828341,-122.0779699,3.4919999565021134,0.0067078117,0.1,31.58075,1619734186000
Fix,GT,37.382834,-122.0779699,3.491000089815701,0.0063243085,0.1,31.575684,1619734187000
Fix,GT,37.382834,-122.0779699,3.4909989618060644,0.0050001005,0.1,31.571472,1619734188000
Fix,GT,37.382834,-122.0779699,3.490000078007579,0.0044730646,0.1,31.56668,1619734189000
Fix,GT,37.3828339,-122.0779699,3.488999968318501,0.011180565,0.1,31.562164,1619734190000
Fix,GT,37.3828338,-122.0779698,3.477999018591596,0.22567223,0.1,31.560608,1619734191000
Fix,GT,37.3828294,-122.0779609,3.475002956017852,1.7954186,0.099,31.675293,1619734192000
Fix,GT,37.3828164,-122.0779344,3.491003048323793,3.7772148,0.1,31.800842,1619734193000
Fix,GT,37.3827936,-122.0778887,3.53500401075522,5.468867,0.1,31.480103,1619734194000
Fix,GT,37.382768,-122.0778329,3.5530071216197685,6.401043,0.1,24.364288,1619734195000
Fix,GT,37.3827523,-122.077769,3.6000110136203003,7.087479,0.1,7.624481,1619734196000
Fix,GT,37.382753,-122.0776957,3.582996058607008,7.679017,0.1,349.1747,1619734197000
Fix,GT,37.3827747,-122.0776212,3.472973007111577,8.338186,0.1,329.99603,1619734198000
Fix,GT,37.3828193,-122.0775533,3.1759980838315096,9.204708,0.1,310.53122,1619734199000
Fix,GT,37.3828885,-122.0774951,3.0739710642447458,10.074204,0.1,301.08377,1619734200000
Fix,GT,37.3829713,-122.077436,2.958990023709252,11.246322,0.1,300.03574,1619734201000
Fix,GT,37.383063,-122.0773724,2.894990008564782,11.983149,0.1,299.37756,1619734202000
Fix,GT,37.38316,-122.0773059,2.769984099768568,12.6166,0.1,299.58484,1619734203000
Fix,GT,37.3832618,-122.0772346,2.594980242510792,13.251417,0.1,299.91696,1619734204000
Fix,GT,37.3833671,-122.0771596,2.438991166928317,13.555115,0.1,300.23407,1619734205000
Fix,GT,37.383473,-122.0770831,2.3239812411009333,13.512954,0.1,300.3081,1619734206000
Fix,GT,37.3835778,-122.0770063,2.266994096010225,13.384627,0.1,300.16193,1619734207000
Fix,GT,37.3836816,-122.0769308,2.1909951073955742,13.220695,0.1,300.35922,1619734208000
Fix,GT,37.3837837,-122.0768547,2.150990227264119,13.030291,0.1,300.94818,1619734209000
Fix,GT,37.3838836,-122.0767785,2.098002910810872,12.829133,0.1,301.3177,1619734210000
Fix,GT,37.3839817,-122.0767034,1.9709814531095329,12.641091,0.1,301.0962,1619734211000
Fix,GT,37.384078,-122.0766293,1.8139794751688023,12.29062,0.1,301.611,1619734212000
Fix,GT,37.3841693,-122.0765578,1.6799892701462955,11.456219,0.1,301.45322,1619734213000
Fix,GT,37.3842544,-122.0764917,1.5899941812409089,10.837392,0.1,301.71744,1619734214000
Fix,GT,37.3843361,-122.0764274,1.5149951891787348,10.56856,0.1,301.6743,1619734215000
Fix,GT,37.3844169,-122.0763631,1.41300384217198,10.664591,0.1,302.36,1619734216000
Fix,GT,37.3844981,-122.0762977,1.4329864532060457,10.646553,0.1,302.53036,1619734217000
Fix,GT,37.3845782,-122.0762328,1.39198843410518,10.456083,0.1,302.8204,1619734218000
Fix,GT,37.3846559,-122.0761696,1.337995170595532,9.996381,0.1,302.93423,1619734219000
Fix,GT,37.3847286,-122.0761118,1.2779961522103986,9.25556,0.1,301.53616,1619734220000
Fix,GT,37.3847966,-122.0760619,1.2429961818103912,8.23497,0.1,300.24246,1619734221000
Fix,GT,37.3848566,-122.0760189,1.205995239877724,7.3339095,0.1,299.63647,1619734222000
Fix,GT,37.3849131,-122.0759788,1.1629980688021753,6.8406744,0.1,300.0732,1619734223000
Fix,GT,37.384958,-122.0759469,1.1369942633161554,4.5498266,0.1,300.0457,1619734224000
Fix,GT,37.3849854,-122.0759284,1.1100019175144844,2.42037,0.1,300.2601,1619734225000
Fix,GT,37.3849989,-122.0759207,1.1019981073176024,0.9669661,0.1,300.29382,1619734226000
Fix,GT,37.3850023,-122.0759212,1.0949990366077982,0.0530264,0.1,300.31693,1619734227000
Fix,GT,37.3850024,-122.075922,1.0820000057942234,0.16739088,0.1,300.31525,1619734228000
Fix,GT,37.385008,-122.0759182,1.065000025044428,1.5026292,0.1,299.5529,1619734229000
Fix,GT,37.3850235,-122.0759084,1.0349961948823183,3.0456655,0.1,292.14362,1619734230000
Fix,GT,37.3850505,-122.0758987,1.0239952683249138,4.4529,0.1,277.40997,1619734231000
Fix,GT,37.3850879,-122.0759001,0.9819887026309734,5.5803027,0.1,257.60294,1619734232000
Fix,GT,37.3851279,-122.0759213,0.8939831263055094,6.2937536,0.1,234.94772,1619734233000
Fix,GT,37.3851654,-122.0759696,0.7820037361362484,7.5636654,0.1,215.52225,1619734234000
Fix,GT,37.3852023,-122.0760463,0.7339962687731021,8.793978,0.1,210.07193,1619734235000
Fix,GT,37.3852436,-122.0761394,0.7079944144621259,9.9416,0.1,209.92786,1619734236000
Fix,GT,37.385289,-122.076241,0.6449906961023226,10.377947,0.1,210.33786,1619734237000
Fix,GT,37.385336,-122.0763438,0.552991618970409,10.23667,0.1,210.98543,1619734238000
Fix,GT,37.3853809,-122.0764393,0.4999981368641601,8.932366,0.1,211.39102,1619734239000
Fix,GT,37.3854174,-122.0765172,0.483997218280856,6.9261646,0.1,211.08633,1619734240000
Fix,GT,37.3854441,-122.0765757,0.5500046239304356,5.3612394,0.1,210.79411,1619734241000
Fix,GT,37.3854676,-122.0766271,0.3909953942112624,5.178376,0.1,210.7985,1619734242000
Fix,GT,37.3854929,-122.0766823,0.3819999958197586,6.099482,0.1,211.00816,1619734243000
Fix,GT,37.3855215,-122.0767425,0.3589963220961508,6.13035,0.1,211.64891,1619734244000
Fix,GT,37.3855457,-122.0767961,0.3369972427967004,5.446216,0.1,205.05421,1619734245000
Fix,GT,37.3855557,-122.0768406,0.3350009201643989,4.9806876,0.1,184.07918,1619734246000
Fix,GT,37.3855498,-122.0768844,0.2860027449228218,5.213758,0.1,160.92664,1619734247000
Fix,GT,37.3855299,-122.0769253,0.3139981695292517,5.5251594,0.1,138.28998,1619734248000
Fix,GT,37.3854922,-122.0769593,0.3470072892223252,6.400168,0.1,123.29321,1619734249000
Fix,GT,37.385437,-122.0770002,0.4010008992768126,7.8834558,0.1,123.04288,1619734250000
Fix,GT,37.3853717,-122.077049,0.4560045456101652,9.067095,0.1,122.55673,1619734251000
Fix,GT,37.3852974,-122.077105,0.5320081369255204,10.185857,0.1,122.52243,1619734252000
Fix,GT,37.3852154,-122.0771665,0.6180036080200225,11.041244,0.1,122.02402,1619734253000
Fix,GT,37.3851273,-122.0772317,0.6929990846847649,11.677169,0.1,121.60071,1619734254000
Fix,GT,37.3850354,-122.0772998,0.7760117038137978,12.036155,0.1,121.688965,1619734255000
Fix,GT,37.384941,-122.0773692,0.8610099010830745,12.319913,0.1,120.88312,1619734256000
Fix,GT,37.3848446,-122.0774384,0.9430035803045028,12.423355,0.1,119.76877,1619734257000
Fix,GT,37.3847464,-122.0775053,1.0340098635042667,12.429369,0.1,118.799194,1619734258000
Fix,GT,37.3846477,-122.077571,1.1150115851107985,12.407138,0.099,118.66907,1619734259000
Fix,GT,37.3845497,-122.0776353,1.2150009150356056,12.186708,0.1,117.84546,1619734260000
Fix,GT,37.3844533,-122.0776972,1.286006196618953,11.799256,0.1,118.27905,1619734261000
Fix,GT,37.3843608,-122.0777591,1.366010658346,11.385914,0.1,119.08252,1619734262000
Fix,GT,37.3842723,-122.0778195,1.4530026782685892,11.063742,0.1,119.360596,1619734263000
Fix,GT,37.384184,-122.0778804,1.5240061617145546,11.415274,0.1,119.34033,1619734264000
Fix,GT,37.3840924,-122.077943,1.6010052798739052,11.77842,0.1,119.42334,1619734265000
Fix,GT,37.3839994,-122.0780078,1.6840097011975013,11.758676,0.1,119.53787,1619734266000
Fix,GT,37.3839081,-122.0780711,1.7770008927071466,11.461176,0.1,118.995514,1619734267000
Fix,GT,37.3838191,-122.0781322,1.8390070629157127,11.091184,0.1,119.36612,1619734268000
Fix,GT,37.3837333,-122.0781927,1.932005220911465,10.734296,0.1,120.03903,1619734269000
Fix,GT,37.3836511,-122.0782533,1.9780078454879693,10.430893,0.1,121.19522,1619734270000
Fix,GT,37.3835717,-122.0783143,2.03800263683329,10.201172,0.1,121.9498,1619734271000
Fix,GT,37.3834956,-122.0783748,2.130002649852249,9.695028,0.1,122.78296,1619734272000
Fix,GT,37.3834264,-122.078432,2.2060130575799266,8.469961,0.1,123.80591,1619734273000
Fix,GT,37.3833709,-122.0784809,2.2820034322037825,6.309573,0.1,125.991,1619734274000
Fix,GT,37.3833331,-122.0785182,2.3089982799704885,4.0218534,0.1,128.77585,1619734275000
Fix,GT,37.3833113,-122.078542,2.34000347873848,2.1997628,0.1,130.86658,1619734276000
Fix,GT,37.383302,-122.0785539,2.367002582885558,0.9965097,0.1,131.83273,1619734277000
Fix,GT,37.3832927,-122.0785662,2.39000517429458,1.7563955,0.1,136.32513,1619734278000
Fix,GT,37.3832765,-122.0785944,2.462008588763885,3.0113072,0.1,152.073,1619734279000
Fix,GT,37.3832637,-122.0786502,2.578000790864404,5.3678684,0.1,175.2796,1619734280000
Fix,GT,37.383269,-122.0787351,2.6400119857199025,8.021392,0.1,191.91768,1619734281000
Fix,GT,37.3832976,-122.078839,2.7200007735891853,10.20781,0.1,205.24174,1619734282000
Fix,GT,37.3833484,-122.0789541,2.688989742275386,12.575337,0.099,210.61758,1619734283000
Fix,GT,37.3834137,-122.0790866,2.634994850303104,14.675833,0.1,211.40811,1619734284000
Fix,GT,37.383486,-122.0792331,2.563989803816657,15.7599745,0.1,211.37234,1619734285000
Fix,GT,37.3835625,-122.0793883,2.473997425362409,16.52556,0.1,211.4622,1619734286000
Fix,GT,37.3836423,-122.0795495,2.406992369157145,17.09542,0.1,211.54834,1619734287000
Fix,GT,37.3837247,-122.0797158,2.29598733555997,17.589886,0.099,211.6957,1619734288000
Fix,GT,37.3838095,-122.079886,2.2399899889139925,17.955034,0.1,211.81711,1619734289000
Fix,GT,37.3838956,-122.0800576,2.132991657618782,17.877485,0.1,212.06117,1619734290000
Fix,GT,37.383981,-122.0802273,2.0719925270706296,17.702269,0.1,212.01788,1619734291000
Fix,GT,37.3840657,-122.0803953,1.994990035403695,17.556417,0.1,211.79349,1619734292000
Fix,GT,37.3841486,-122.0805628,1.9269900327253853,17.39748,0.1,211.47388,1619734293000
Fix,GT,37.3842308,-122.080729,1.833990862054401,17.25527,0.1,211.66345,1619734294000
Fix,GT,37.3843124,-122.0808939,1.7339883926259354,17.118212,0.1,211.53238,1619734295000
Fix,GT,37.3843929,-122.0810572,1.6709925325966906,16.868752,0.1,211.53033,1619734296000
Fix,GT,37.3844722,-122.0812177,1.600997560854652,16.566013,0.1,211.48334,1619734297000
Fix,GT,37.38455,-122.0813752,1.5669950926999443,16.267735,0.1,211.56418,1619734298000
Fix,GT,37.3846268,-122.0815298,1.482993441194587,15.9666195,0.1,211.83066,1619734299000
Fix,GT,37.3847021,-122.0816813,1.3439934517894871,15.625363,0.1,211.46199,1619734300000
Fix,GT,37.3847741,-122.0818272,1.3099942552433932,14.640372,0.1,211.43063,1619734301000
Fix,GT,37.3848408,-122.0819625,1.281997517433716,13.528637,0.1,211.43706,1619734302000
Fix,GT,37.3849022,-122.0820872,1.270998385368613,12.422898,0.1,211.46402,1619734303000
Fix,GT,37.3849588,-122.0822022,1.2320040612025185,11.610609,0.1,211.34363,1619734304000
Fix,GT,37.3850118,-122.0823102,1.2419984120274894,10.866677,0.1,211.21584,1619734305000
Fix,GT,37.3850613,-122.0824113,1.2049967706020106,10.093793,0.1,211.52704,1619734306000
Fix,GT,37.3851071,-122.0825032,1.1859967518600167,8.9691,0.1,211.96251,1619734307000
Fix,GT,37.385147,-122.0825828,1.159000771903433,7.624189,0.099,212.03123,1619734308000
Fix,GT,37.38518,-122.0826481,1.133001616996131,6.0610456,0.1,212.11478,1619734309000
Fix,GT,37.3852053,-122.0826979,1.121997603142925,4.387108,0.1,212.11633,1619734310000
Fix,GT,37.3852235,-122.082734,1.1079983840429923,3.1273084,0.099,211.92154,1619734311000
Fix,GT,37.3852358,-122.0827588,1.094000823163253,2.1967826,0.1,211.81096,1619734312000
Fix,GT,37.3852442,-122.0827757,1.0930008084252476,1.3235584,0.1,211.76009,1619734313000
Fix,GT,37.3852491,-122.0827855,1.092999988293741,0.7774718,0.1,211.70804,1619734314000
Fix,GT,37.3852516,-122.0827906,1.0919991827376652,0.26410756,0.1,211.70193,1619734315000
Fix,GT,37.385252,-122.0827914,1.0880000165291133,0.06415295,0.1,211.70445,1619734316000
Fix,GT,37.3852521,-122.0827917,1.092999992683588,0.0014176982,0.1,211.70233,1619734317000
Fix,GT,37.3852523,-122.082792,1.0890007669591577,0.19561453,0.1,211.70107,1619734318000
Fix,GT,37.385254,-122.0827954,1.0900000209372958,0.4633326,0.1,211.68718,1619734319000
Fix,GT,37.3852565,-122.0828003,1.0880008024523269,0.52427715,0.1,211.67589,1619734320000
Fix,GT,37.3852582,-122.0828038,1.0870000059475424,0.2130416,0.1,211.66417,1619734321000
Fix,GT,37.3852586,-122.0828045,1.0879999822042885,0.007214999,0.1,211.66264,1619734322000
Fix,GT,37.3852586,-122.0828045,1.0879999692849815,0.0010007782,0.1,211.6628,1619734323000
Fix,GT,37.3852586,-122.0828045,1.0879999886006118,1.5526801e-06,0.1,211.66061,1619734324000
Fix,GT,37.3852586,-122.0828045,1.0880000296384098,0.001,0.1,211.65979,1619734325000
Fix,GT,37.3852586,-122.0828045,1.0879999841041863,0.0009999999,0.1,211.65868,1619734326000
Fix,GT,37.3852586,-122.0828045,1.0880007420848703,0.001000771,0.099,211.65749,1619734327000
Fix,GT,37.3852586,-122.0828045,1.0890000013945391,0.001,0.1,211.65623,1619734328000
Fix,GT,37.3852585,-122.0828045,1.0910000207659905,0.0036043196,0.1,211.65497,1619734329000
Fix,GT,37.3852599,-122.0828071,1.0849984551827074,0.74791145,0.1,211.6092,1619734330000
Fix,GT,37.3852659,-122.0828192,1.0810007905508392,1.7713226,0.1,211.45778,1619734331000
Fix,GT,37.385277,-122.082842,1.0729984796277712,3.1972172,0.1,211.3489,1619734332000
Fix,GT,37.3852967,-122.0828822,1.0649977421908403,5.1430326,0.1,211.1244,1619734333000
Fix,GT,37.3853256,-122.0829416,1.0509977348200046,6.877083,0.1,211.07884,1619734334000
Fix,GT,37.3853604,-122.0830129,1.0250014892128527,7.912374,0.1,211.27977,1619734335000
Fix,GT,37.3854002,-122.0830941,1.0229969867229227,9.013254,0.1,211.34503,1619734336000
Fix,GT,37.3854449,-122.0831848,0.991996258796251,9.722451,0.1,211.4582,1619734337000
Fix,GT,37.385492,-122.0832802,0.9539962366651744,10.099628,0.1,211.59691,1619734338000
Fix,GT,37.3855407,-122.0833783,0.9099962804489768,10.367547,0.1,211.77536,1619734339000
Fix,GT,37.385591,-122.0834786,0.8639977380126365,10.54699,0.099,211.86658,1619734340000
Fix,GT,37.3856417,-122.0835794,0.8319925493837799,10.61615,0.1,211.88187,1619734341000
Fix,GT,37.3856934,-122.083683,0.8090022085264791,11.033972,0.1,211.70363,1619734342000
Fix,GT,37.3857462,-122.0837892,0.8150014837022753,11.026284,0.1,211.49315,1619734343000
Fix,GT,37.3857981,-122.0838946,0.8320007632058113,11.006523,0.1,211.35808,1619734344000
Fix,GT,37.3858501,-122.0840008,0.852999258533353,10.971645,0.1,211.2453,1619734345000
Fix,GT,37.3859014,-122.0841055,0.8359977694529225,10.851383,0.099,211.31006,1619734346000
Fix,GT,37.3859533,-122.0842113,0.8259985326146706,11.219667,0.1,211.01863,1619734347000
Fix,GT,37.3860066,-122.0843212,0.849004421343212,11.601122,0.1,211.20752,1619734348000
Fix,GT,37.3860621,-122.0844337,0.9029963706089184,11.69782,0.1,211.67706,1619734349000
Fix,GT,37.386118,-122.0845456,0.8859985380405561,11.6710205,0.1,211.7951,1619734350000
Fix,GT,37.3861736,-122.0846585,0.8969971121370909,11.905964,0.1,211.05252,1619734351000
Fix,GT,37.3862298,-122.0847742,0.925004335098318,12.030674,0.1,211.20982,1619734352000
Fix,GT,37.3862871,-122.0848906,0.9310007414431312,12.203228,0.1,211.45638,1619734353000
Fix,GT,37.3863453,-122.0850086,0.9370007192956984,12.377358,0.1,211.41908,1619734354000
Fix,GT,37.386404,-122.0851276,0.932002856920939,12.363301,0.099,211.5283,1619734355000
Fix,GT,37.3864628,-122.0852464,0.9300028755115344,12.422435,0.1,211.40927,1619734356000
Fix,GT,37.386522,-122.0853662,0.9339971451550956,12.517784,0.1,211.63147,1619734357000
Fix,GT,37.3865818,-122.0854866,0.9439985513536956,12.563562,0.1,211.78404,1619734358000
Fix,GT,37.3866422,-122.0856078,0.9449971559307304,12.7906475,0.1,211.5022,1619734359000
Fix,GT,37.3867034,-122.0857318,0.9479943368614184,13.024831,0.1,211.4792,1619734360000
Fix,GT,37.3867658,-122.0858577,0.9089999933861546,13.179597,0.1,211.69742,1619734361000
Fix,GT,37.3868292,-122.0859841,0.8799957750104368,13.250669,0.1,211.85066,1619734362000
Fix,GT,37.3868928,-122.086111,0.8899964631479815,13.292378,0.1,211.80539,1619734363000
Fix,GT,37.3869565,-122.0862382,0.860996462253388,13.347704,0.1,211.60603,1619734364000
Fix,GT,37.3870195,-122.0863655,0.8249957933655241,13.142495,0.1,211.51909,1619734365000
Fix,GT,37.387081,-122.0864893,0.8120014097528765,12.63548,0.1,211.77759,1619734366000
Fix,GT,37.3871396,-122.0866069,0.8240041964896954,11.921,0.1,211.55013,1619734367000
Fix,GT,37.3871941,-122.0867169,0.830000023044995,10.842644,0.1,211.47015,1619734368000
Fix,GT,37.3872418,-122.0868133,0.8009978975874837,9.256375,0.099,211.43549,1619734369000
Fix,GT,37.3872824,-122.0868951,0.7599979099791381,7.9059777,0.1,211.45125,1619734370000
Fix,GT,37.387317,-122.0869656,0.7499979214689229,6.726253,0.1,211.3361,1619734371000
Fix,GT,37.3873453,-122.0870235,0.7510006881942972,5.168519,0.1,211.29779,1619734372000
Fix,GT,37.387365,-122.0870637,0.7479993256063898,3.238754,0.1,211.25984,1619734373000
Fix,GT,37.3873769,-122.0870881,0.7480013887771638,1.9030458,0.1,211.32178,1619734374000
Fix,GT,37.3873827,-122.0871,0.7580000169426203,0.60626733,0.1,211.36119,1619734375000
Fix,GT,37.3873841,-122.0871027,0.762999303621822,0.021541217,0.1,211.36594,1619734376000
Fix,GT,37.3873842,-122.0871027,0.7669999986606417,0.005830387,0.1,211.36368,1619734377000
Fix,GT,37.3873844,-122.0871028,0.7710000046224449,0.0014142136,0.1,211.36206,1619734378000
Fix,GT,37.3873844,-122.0871028,0.7730000183577649,0.001,0.1,211.36064,1619734379000
Fix,GT,37.3873844,-122.0871028,0.7729999782676459,0.0010002793,0.099,211.35883,1619734380000
Fix,GT,37.3873844,-122.0871028,0.7729999919459807,0.0014142134,0.1,211.35703,1619734381000
Fix,GT,37.3873844,-122.0871028,0.7730000056693098,0.0014142136,0.1,211.35509,1619734382000
Fix,GT,37.3873844,-122.0871028,0.7730000116535811,0.0014142136,0.1,211.3534,1619734383000
Fix,GT,37.3873844,-122.0871028,0.77299997930252,0.0014142136,0.099,211.35164,1619734384000
Fix,GT,37.3873844,-122.0871028,0.7729999775477336,0.0014142134,0.1,211.34999,1619734385000
Fix,GT,37.3873844,-122.0871028,0.772999983532005,0.0,0.1,211.34819,1619734386000
Fix,GT,37.3873844,-122.0871028,0.7729999972553342,0.0,0.1,211.34631,1619734387000
Fix,GT,37.3873844,-122.0871028,0.7730000032396056,0.001,0.1,211.34428,1619734388000
Fix,GT,37.3873844,-122.0871028,0.7730000169629347,0.001,0.1,211.34264,1619734389000
Fix,GT,37.3873844,-122.0871028,0.7730000152081484,0.002000155,0.1,211.34097,1619734390000
Fix,GT,37.3873844,-122.0871028,0.7770000135682058,0.0031622779,0.1,211.33937,1619734391000
Fix,GT,37.3873844,-122.0871028,0.7770006561052287,0.005385777,0.1,211.33775,1619734392000
Fix,GT,37.3873844,-122.0871028,0.778000002264278,0.005385775,0.1,211.33594,1619734393000
Fix,GT,37.3873846,-122.0871031,0.7740000005406328,0.2699266,0.1,211.3335,1619734394000
Fix,GT,37.3873886,-122.0871109,0.7799999987741467,1.3779721,0.1,211.33453,1619734395000
Fix,GT,37.3873983,-122.0871303,0.775998707658844,2.7525108,0.1,211.42456,1619734396000
Fix,GT,37.3874155,-122.087165,0.7680000029951334,4.444578,0.1,211.47018,1619734397000
Fix,GT,37.3874411,-122.0872168,0.7609987268592231,6.4855285,0.1,211.36873,1619734398000
Fix,GT,37.3874751,-122.0872856,0.7519987362561514,7.7127447,0.1,211.15121,1619734399000
Fix,GT,37.3875137,-122.0873648,0.7299961958811618,8.778734,0.1,210.97914,1619734400000
Fix,GT,37.3875576,-122.0874549,0.6979987117727287,9.888503,0.099,211.08438,1619734401000
Fix,GT,37.387605,-122.0875525,0.6890012486914056,10.242918,0.1,210.9483,1619734402000
