MessageType,Provider,LatitudeDegrees,LongitudeDegrees,AltitudeMeters,SpeedMps,AccuracyMeters,BearingDegrees,UnixTimeMillis
Fix,GT,37.4146623,-122.0741227,-25.81000076919794,0.0014142136,0.1,183.61354,1617917304431
Fix,GT,37.4146623,-122.0741227,-25.81000076919794,0.0019744802,0.1,183.61378,1617917305431
Fix,GT,37.4146623,-122.0741227,-25.80999923080206,0.0016758014,0.099,183.6137,1617917306431
Fix,GT,37.4146623,-122.0741227,-25.81,0.0019744802,0.1,183.61382,1617917307431
Fix,GT,37.4146623,-122.0741227,-25.81000076919794,0.0016758014,0.1,183.61377,1617917308431
Fix,GT,37.4146623,-122.0741227,-25.80999923080206,0.002236068,0.099,183.6137,1617917309431
Fix,GT,37.4146623,-122.0741227,-25.80999923080206,0.0027923365,0.099,183.61461,1617917310431
Fix,GT,37.4146623,-122.0741227,-25.809680941075086,0.0033582004,0.099,183.61581,1617917311431
Fix,GT,37.4146615,-122.0741228,-25.81199923074245,0.31140107,0.099,183.559,1617917312431
Fix,GT,37.414656,-122.074123,-25.81299923071265,0.91129506,0.099,183.21838,1617917313431
Fix,GT,37.4146456,-122.0741233,-25.810999230772254,1.3537366,0.099,182.2268,1617917314431
Fix,GT,37.4146322,-122.0741223,-25.802680941283704,1.6041775,0.099,179.2597,1617917315431
Fix,GT,37.4146173,-122.0741203,-25.78836265197396,1.7359798,0.099,176.08997,1617917316431
Fix,GT,37.4146015,-122.0741181,-25.78000076830387,1.7755194,0.1,174.57141,1617917317431
Fix,GT,37.4145853,-122.0741161,-25.778363420605658,1.8326472,0.1,174.70502,1617917318431
Fix,GT,37.4145689,-122.0741154,-25.778636579394338,1.8380171,0.1,176.67645,1617917319431
Fix,GT,37.4145492,-122.0741189,-25.795364189445973,2.5527954,0.1,185.3309,1617917320431
Fix,GT,37.4145265,-122.074139,-25.82090896818041,3.291869,0.1,211.70934,1617917321431
Fix,GT,37.4145114,-122.0741796,-25.892272386819123,4.3821764,0.1,243.49329,1617917322431
Fix,GT,37.4145069,-122.0742364,-25.97754709145427,5.5261836,0.1,264.19562,1617917323431
Fix,GT,37.4145046,-122.0743044,-26.055863831102847,6.483486,0.099,267.3728,1617917324431
Fix,GT,37.4145043,-122.0743826,-26.13990973818302,7.3257074,0.1,270.10724,1617917325431
Fix,GT,37.4145053,-122.0744671,-26.179680930048228,7.4803963,0.099,270.75757,1617917326431
Fix,GT,37.4145029,-122.0745478,-26.10940932923556,6.737672,0.1,266.13794,1617917327431
Fix,GT,37.4144932,-122.074617,-26.033816326767205,5.8141847,0.099,257.3298,1617917328431
Fix,GT,37.414468,-122.0746696,-25.857951724380257,5.1912637,0.099,234.56757,1617917329431
Fix,GT,37.4144308,-122.0747,-25.77717975494265,4.9223638,0.099,211.09746,1617917330431
Fix,GT,37.4143862,-122.0747178,-25.67481710243225,5.5517564,0.1,196.8242,1617917331431
Fix,GT,37.4143338,-122.0747296,-25.560634203672407,6.2854376,0.1,189.73102,1617917332431
Fix,GT,37.4142745,-122.0747404,-25.47013615107536,7.0054336,0.1,187.65517,1617917333431
Fix,GT,37.4142087,-122.0747489,-25.35677121531964,7.6279774,0.1,185.27498,1617917334431
Fix,GT,37.4141373,-122.0747556,-25.351273915112017,8.270757,0.1,184.17494,1617917335431
Fix,GT,37.4140607,-122.0747614,-25.36800075602531,8.771473,0.1,183.18958,1617917336431
Fix,GT,37.4139798,-122.0747669,-25.374362663835285,9.1810255,0.099,183.14517,1617917337431
Fix,GT,37.4138965,-122.0747728,-25.38004588633776,9.28114,0.1,183.1582,1617917338431
Fix,GT,37.4138136,-122.0747785,-25.3733182901144,9.137838,0.1,183.11563,1617917339431
Fix,GT,37.4137321,-122.0747841,-25.378636580228807,8.965591,0.1,182.98871,1617917340431
Fix,GT,37.4136532,-122.0747892,-25.379864611566063,8.491474,0.1,183.10033,1617917341431
Fix,GT,37.4135806,-122.0747958,-25.34613538843393,7.539261,0.1,184.8683,1617917342431
Fix,GT,37.4135202,-122.074805,-25.108679324626923,5.817651,0.1,187.02188,1617917343431
Fix,GT,37.4134771,-122.0748116,-24.9414536781311,3.7524018,0.1,186.7661,1617917344431
Fix,GT,37.4134504,-122.0748153,-24.878453678131105,2.3203793,0.1,186.29161,1617917345431
Fix,GT,37.4134344,-122.0748174,-24.819726838827133,1.3029466,0.1,186.15614,1617917346431
Fix,GT,37.4134269,-122.0748184,-24.79368170970678,0.36258852,0.1,186.1085,1617917347431
Fix,GT,37.4134262,-122.0748185,-24.797,0.054525375,0.1,186.10587,1617917348431
Fix,GT,37.413423,-122.0748189,-24.78740854793787,0.8002895,0.1,186.09186,1617917349431
Fix,GT,37.4134131,-122.0748211,-24.76068097162247,1.3830613,0.1,187.75728,1617917350431
Fix,GT,37.4134012,-122.0748281,-24.782546323776245,1.4191021,0.1,196.95279,1617917351431
Fix,GT,37.4133884,-122.0748436,-24.980910487443207,2.4153972,0.1,214.60477,1617917352431
Fix,GT,37.4133774,-122.0748756,-24.903771966695786,3.4893441,0.1,241.56711,1617917353431
Fix,GT,37.4133758,-122.0749261,-24.85468170946837,5.458419,0.1,266.6089,1617917354431
Fix,GT,37.413376,-122.0750018,-24.819318290650845,7.8603535,0.1,269.814,1617917355431
Fix,GT,37.4133761,-122.0751029,-24.824729231715203,10.028028,0.1,269.92435,1617917356431
Fix,GT,37.4133769,-122.0752244,-24.82427316236496,11.1968775,0.1,270.8687,1617917357431
Fix,GT,37.4133798,-122.0753556,-24.85750119715929,12.002203,0.1,271.86108,1617917358431
Fix,GT,37.4133845,-122.0754948,-24.8732731628418,12.656885,0.1,272.52643,1617917359431
Fix,GT,37.4133905,-122.0756407,-24.946636581540112,13.210216,0.1,273.1471,1617917360431
Fix,GT,37.4133978,-122.0757926,-24.96390734767914,13.708256,0.1,273.49133,1617917361431
Fix,GT,37.413406,-122.0759489,-24.998001652807,13.971392,0.099,273.8738,1617917362431
Fix,GT,37.4134158,-122.0761065,-25.06595487248898,13.998465,0.1,274.73895,1617917363431
Fix,GT,37.4134281,-122.0762637,-25.02513612815737,13.948872,0.1,276.0141,1617917364431
Fix,GT,37.4134435,-122.0764187,-25.010634182214737,13.639158,0.1,277.64398,1617917365431
Fix,GT,37.4134617,-122.0765678,-24.926636581897736,12.974825,0.1,279.43695,1617917366431
Fix,GT,37.413483,-122.0767065,-24.857408545255662,12.084773,0.1,281.553,1617917367431
Fix,GT,37.4135058,-122.0768366,-24.84177196294069,11.4394,0.1,282.71136,1617917368431
Fix,GT,37.4135282,-122.0769578,-24.837954873025417,10.577045,0.1,283.0199,1617917369431
Fix,GT,37.4135487,-122.0770687,-24.80009099328518,9.537258,0.1,282.96304,1617917370431
Fix,GT,37.4135668,-122.0771673,-24.76131755310297,8.341263,0.099,283.11603,1617917371431
Fix,GT,37.4135834,-122.077251,-24.73440854465961,6.9265766,0.1,283.92267,1617917372431
Fix,GT,37.413597,-122.0773192,-24.70140854436159,5.503312,0.1,283.9218,1617917373431
Fix,GT,37.4136073,-122.077371,-24.68036415335536,3.9789395,0.1,283.83322,1617917374431
Fix,GT,37.4136144,-122.0774069,-24.66036341774464,2.6015704,0.1,283.70578,1617917375431
Fix,GT,37.4136187,-122.0774295,-24.65099926534295,1.5257156,0.1,283.7071,1617917376431
Fix,GT,37.4136208,-122.0774405,-24.66159072086215,0.666182,0.1,283.63672,1617917377431
Fix,GT,37.4136229,-122.0774511,-24.67331829112768,1.4321523,0.1,283.62146,1617917378431
Fix,GT,37.4136273,-122.0774731,-24.67268097352981,2.5166614,0.1,283.68506,1617917379431
Fix,GT,37.4136331,-122.0775029,-24.66068170881272,2.8459032,0.1,283.8227,1617917380431
Fix,GT,37.4136402,-122.0775377,-24.65772683501244,3.6960871,0.1,283.99457,1617917381431
Fix,GT,37.4136497,-122.0775845,-24.63995487374067,4.849501,0.1,284.1958,1617917382431
Fix,GT,37.4136616,-122.0776444,-24.62527316522598,5.9692492,0.1,284.12506,1617917383431
Fix,GT,37.4136753,-122.0777123,-24.56177196043729,6.5686383,0.1,284.05368,1617917384431
Fix,GT,37.4136904,-122.0777873,-24.51840781226754,6.9285808,0.1,283.92978,1617917385431
Fix,GT,37.4137049,-122.0778624,-24.51372369289398,6.7041807,0.1,283.1241,1617917386431
Fix,GT,37.4137156,-122.0779358,-24.413454396009445,6.67064,0.1,278.7465,1617917387431
Fix,GT,37.4137153,-122.0780114,-24.310270753264422,6.7176447,0.1,265.89676,1617917388431
Fix,GT,37.4136965,-122.078084,-24.057225626826288,7.041039,0.1,247.81425,1617917389431
Fix,GT,37.4136574,-122.0781502,-24.06,7.683503,0.1,228.9359,1617917390431
Fix,GT,37.4136013,-122.0782098,-23.93981779780984,8.722041,0.1,217.96677,1617917391431
Fix,GT,37.4135312,-122.0782661,-23.78367858338356,9.779028,0.1,210.22464,1617917392431
Fix,GT,37.4134475,-122.0783142,-23.65727387177944,10.667446,0.1,201.35077,1617917393431
Fix,GT,37.4133532,-122.0783541,-23.61740854138136,11.451175,0.1,198.78635,1617917394431
Fix,GT,37.4132538,-122.078401,-23.531363416433333,12.073294,0.1,201.5916,1617917395431
Fix,GT,37.4131527,-122.0784601,-23.53891045305133,12.705576,0.1,207.00362,1617917396431
Fix,GT,37.4130532,-122.0785391,-23.750957299053667,13.384184,0.1,215.83717,1617917397431
Fix,GT,37.4129648,-122.0786429,-24.02623118525744,13.44174,0.1,227.45506,1617917398431
Fix,GT,37.4128955,-122.0787694,-24.146362696141004,13.778943,0.099,240.73529,1617917399431
Fix,GT,37.412851,-122.0789181,-24.24009024679661,14.359137,0.1,254.94058,1617917400431
Fix,GT,37.4128357,-122.0790815,-24.248453661441804,14.627417,0.1,268.74304,1617917401431
Fix,GT,37.4128461,-122.0792449,-24.14127388906479,14.361858,0.1,278.06787,1617917402431
Fix,GT,37.4128738,-122.0794031,-24.0630895279944,14.458811,0.1,284.7606,1617917403431
Fix,GT,37.4129147,-122.0795631,-24.013501218140128,15.416573,0.1,289.56595,1617917404431
Fix,GT,37.412969,-122.0797315,-24.06922733169794,16.729437,0.099,293.1959,1617917405431
Fix,GT,37.4130343,-122.0799098,-24.125273890018462,17.930447,0.1,295.58685,1617917406431
Fix,GT,37.4131079,-122.0800928,-24.16622732964158,18.374014,0.1,297.539,1617917407431
Fix,GT,37.4131881,-122.0802778,-24.260818792432545,18.957901,0.099,298.96692,1617917408431
Fix,GT,37.4132739,-122.0804675,-24.365273898601533,19.642317,0.1,299.80768,1617917409431
Fix,GT,37.4133653,-122.0806622,-24.44100563070178,20.371937,0.1,300.7911,1617917410431
Fix,GT,37.4134623,-122.0808624,-24.58432074666024,21.08565,0.1,301.41824,1617917411431
Fix,GT,37.4135651,-122.0810674,-24.70036513251066,21.790459,0.1,302.8446,1617917412431
Fix,GT,37.4136772,-122.0812741,-24.736954880714418,22.424444,0.1,305.6367,1617917413431
Fix,GT,37.4138035,-122.0814764,-24.74654708719253,23.051468,0.1,309.67255,1617917414431
Fix,GT,37.4139428,-122.0816739,-24.538307709008457,23.550337,0.099,312.81653,1617917415431
Fix,GT,37.4140898,-122.0818677,-23.340260843515395,23.795631,0.1,313.74084,1617917416431
Fix,GT,37.4142366,-122.0820637,-22.18330842298269,23.824215,0.1,312.39334,1617917417431
Fix,GT,37.414377,-122.0822679,-21.593087120354177,23.9036,0.1,309.24146,1617917418431
Fix,GT,37.414506,-122.0824827,-21.48704759144784,23.691917,0.1,304.91614,1617917419431
Fix,GT,37.4146195,-122.0827079,-21.959872075974943,23.53113,0.1,299.96497,1617917420431
Fix,GT,37.4147202,-122.0829432,-22.98573921966553,23.84394,0.1,296.99512,1617917421431
Fix,GT,37.4148181,-122.0831865,-24.129331426888704,24.411316,0.1,296.6457,1617917422431
Fix,GT,37.4149203,-122.0834321,-25.105649013519287,24.550156,0.1,298.2502,1617917423431
Fix,GT,37.4150301,-122.0836729,-25.827272409737112,24.508747,0.099,300.82944,1617917424431
Fix,GT,37.4151499,-122.0839053,-25.58004338678717,24.528091,0.1,304.47675,1617917425431
Fix,GT,37.4152807,-122.0841297,-25.4095897398591,24.6843,0.1,307.542,1617917426431
Fix,GT,37.41542,-122.0843475,-25.341138593614097,24.62095,0.1,309.51508,1617917427431
Fix,GT,37.4155628,-122.0845607,-25.42327393919229,24.808554,0.1,310.15375,1617917428431
Fix,GT,37.4157093,-122.084777,-25.353771930813792,25.431826,0.1,310.25967,1617917429431
Fix,GT,37.4158587,-122.084997,-25.51086641001701,25.714672,0.1,310.3363,1617917430431
Fix,GT,37.4160102,-122.0852184,-25.54563735327125,25.937363,0.1,310.63712,1617917431431
Fix,GT,37.4161639,-122.0854402,-25.533135334789755,26.120388,0.1,311.0664,1617917432431
Fix,GT,37.41632,-122.0856622,-25.52458896267414,26.253317,0.1,311.43484,1617917433431
Fix,GT,37.4164772,-122.0858839,-25.5478646684289,26.250183,0.1,311.52863,1617917434431
Fix,GT,37.4166344,-122.0861052,-25.56409098172188,26.224829,0.1,311.66116,1617917435431
Fix,GT,37.4167917,-122.0863262,-25.629771157950163,26.214672,0.1,311.64926,1617917436431
Fix,GT,37.416949,-122.0865477,-25.66122807919979,26.329762,0.1,311.58807,1617917437431
Fix,GT,37.4171075,-122.0867701,-25.67517966786027,26.453773,0.1,311.70874,1617917438431
Fix,GT,37.4172669,-122.0869933,-25.69427318954468,26.590593,0.1,311.88916,1617917439431
Fix,GT,37.417428,-122.087217,-25.77122885155677,26.75298,0.1,312.1195,1617917440431
Fix,GT,37.4175906,-122.0874406,-25.860545612037185,26.844015,0.099,312.48996,1617917441431
Fix,GT,37.4177544,-122.0876648,-26.00868503317237,26.989058,0.1,312.30936,1617917442431
Fix,GT,37.4179189,-122.0878909,-26.18513787609339,27.176014,0.1,312.2638,1617917443431
Fix,GT,37.4180832,-122.0881174,-26.35273015585542,26.999184,0.1,312.2325,1617917444431
Fix,GT,37.4182462,-122.0883422,-26.50381958222389,26.803625,0.1,312.1496,1617917445431
Fix,GT,37.4184084,-122.0885664,-26.701456182599067,26.800793,0.1,312.1199,1617917446431
Fix,GT,37.4185705,-122.0887913,-26.856365177929405,26.862068,0.1,311.96576,1617917447431
Fix,GT,37.4187323,-122.089017,-27.06568508720398,26.81583,0.1,311.79877,1617917448431
Fix,GT,37.4188932,-122.0892409,-27.22309278774261,26.52507,0.1,312.1305,1617917449431
Fix,GT,37.4190531,-122.0894612,-27.402684288918973,26.197262,0.1,312.26007,1617917450431
Fix,GT,37.4192109,-122.0896785,-27.53790979790688,25.846432,0.1,312.2571,1617917451431
Fix,GT,37.4193666,-122.089893,-27.671820422172544,25.50139,0.1,312.19714,1617917452431
Fix,GT,37.4195205,-122.0901043,-27.758182172626256,25.155392,0.1,312.44202,1617917453431
Fix,GT,37.4196728,-122.0903124,-27.912228101313115,24.856895,0.1,312.3157,1617917454431
Fix,GT,37.419823,-122.090519,-28.02050130403041,24.687119,0.1,312.24103,1617917455431
Fix,GT,37.4199731,-122.0907252,-28.090228103816507,24.739891,0.1,312.33716,1617917456431
Fix,GT,37.4201238,-122.0909318,-28.203456210136416,24.821648,0.1,312.2497,1617917457431
Fix,GT,37.4202744,-122.0911396,-28.30386470866204,24.87906,0.1,312.0918,1617917458431
Fix,GT,37.4204249,-122.0913479,-28.42900347149372,24.861801,0.1,312.1562,1617917459431
Fix,GT,37.4205751,-122.0915551,-28.51373027390241,24.672829,0.1,312.25974,1617917460431
Fix,GT,37.4207241,-122.0917597,-28.61486471402645,24.356983,0.1,312.16324,1617917461431
Fix,GT,37.4208701,-122.0919626,-28.80568519663811,23.994478,0.1,311.93106,1617917462431
Fix,GT,37.4210123,-122.0921609,-28.96968520653248,23.13232,0.1,311.82336,1617917463431
Fix,GT,37.4211478,-122.09235,-29.03736253011227,21.827091,0.099,311.89334,1617917464431
Fix,GT,37.4212758,-122.0925276,-29.082955773979428,20.586466,0.1,312.16162,1617917465431
Fix,GT,37.4213968,-122.0926918,-29.106453578948976,18.870804,0.1,313.38513,1617917466431
Fix,GT,37.4215123,-122.0928335,-29.029681697130208,17.01531,0.1,317.84814,1617917467431
Fix,GT,37.4216265,-122.092948,-29.08841202008724,15.590855,0.1,323.9134,1617917468431
Fix,GT,37.421741,-122.0930355,-29.25545624601841,14.114822,0.1,332.9519,1617917469431
Fix,GT,37.4218534,-122.0930833,-29.23790982115269,12.302338,0.1,347.28186,1617917470431
Fix,GT,37.4219603,-122.0930907,-29.14395222848654,11.533186,0.1,2.4291992,1617917471431
Fix,GT,37.422059,-122.0930616,-28.98709017634392,10.998138,0.1,19.242798,1617917472431
Fix,GT,37.4221443,-122.0930002,-28.80731647029519,10.885534,0.1,35.172333,1617917473431
Fix,GT,37.4222125,-122.0929128,-28.58463306012749,10.763224,0.099,50.907654,1617917474431
Fix,GT,37.4222601,-122.0928058,-28.33799814161658,10.907093,0.1,65.78067,1617917475431
Fix,GT,37.4222843,-122.0926852,-28.03390357923508,11.113756,0.1,81.19934,1617917476431
Fix,GT,37.4222813,-122.0925586,-27.58963201072812,11.288436,0.1,97.51929,1617917477431
Fix,GT,37.4222506,-122.092436,-27.14704046115279,11.404181,0.1,112.979095,1617917478431
Fix,GT,37.4221953,-122.0923306,-26.65240302795172,10.868368,0.1,129.086,1617917479431
Fix,GT,37.4221218,-122.0922531,-26.09408471345901,10.492538,0.1,146.29852,1617917480431
Fix,GT,37.4220353,-122.092208,-25.577403007507325,10.323276,0.1,163.01404,1617917481431
Fix,GT,37.4219422,-122.0921943,-25.08181146800518,10.558813,0.1,177.89417,1617917482431
Fix,GT,37.4218442,-122.0922053,-24.58340298706293,11.276512,0.1,187.96667,1617917483431
Fix,GT,37.4217403,-122.0922295,-24.00794740059972,12.175021,0.1,191.503,1617917484431
Fix,GT,37.4216289,-122.0922618,-23.44772197124362,13.1454315,0.1,193.73592,1617917485431
Fix,GT,37.4215111,-122.0923024,-22.95931348055601,13.985882,0.1,196.1842,1617917486431
Fix,GT,37.4213874,-122.0923516,-22.56158668765426,14.74539,0.1,198.2998,1617917487431
Fix,GT,37.42126,-122.0924091,-22.263906416505574,15.2633095,0.1,200.61635,1617917488431
Fix,GT,37.42113,-122.0924734,-22.138727429151537,15.760365,0.1,201.98828,1617917489431
Fix,GT,37.4209969,-122.092543,-22.20982035666704,16.23312,0.1,202.82585,1617917490431
Fix,GT,37.4208616,-122.0926153,-22.39959432071447,16.324797,0.1,203.05194,1617917491431
Fix,GT,37.4207265,-122.0926868,-22.79423372602463,16.222153,0.1,202.36661,1617917492431
Fix,GT,37.4205925,-122.0927514,-23.320960501015183,15.546659,0.1,199.50943,1617917493431
Fix,GT,37.4204634,-122.0928034,-23.96032668763399,14.513664,0.1,196.8418,1617917494431
Fix,GT,37.4203448,-122.0928489,-24.65959920752049,12.982062,0.099,197.2001,1617917495431
Fix,GT,37.4202408,-122.092892,-25.316825314521783,11.3502865,0.1,198.63179,1617917496431
Fix,GT,37.4201508,-122.0929321,-25.91018793573976,9.872615,0.1,199.86649,1617917497431
Fix,GT,37.4200736,-122.0929685,-26.37041407227516,8.409409,0.1,200.88564,1617917498431
Fix,GT,37.4200092,-122.0930002,-26.70355008995533,7.0063844,0.1,201.79341,1617917499431
Fix,GT,37.4199564,-122.0930277,-26.96363943910599,5.666084,0.1,202.5639,1617917500431
Fix,GT,37.4199153,-122.0930492,-27.165412082344297,4.224674,0.1,202.63094,1617917501431
Fix,GT,37.4198856,-122.0930645,-27.299500600367782,2.9643419,0.1,202.44269,1617917502431
Fix,GT,37.4198645,-122.0930755,-27.39191067945957,2.0317569,0.1,202.283,1617917503431
Fix,GT,37.4198527,-122.0930814,-27.442954932034016,0.7489432,0.1,202.18384,1617917504431
Fix,GT,37.4198511,-122.0930823,-27.46036255994439,0.009383195,0.1,202.17393,1617917505431
Fix,GT,37.4198511,-122.0930823,-27.462000000000003,0.0009640538,0.1,202.1744,1617917506431
Fix,GT,37.4198511,-122.0930823,-27.463,0.0011318489,0.1,202.17249,1617917507431
Fix,GT,37.4198511,-122.0930823,-27.463,0.0,0.1,-157.82764,1617917508431
Fix,GT,37.4198511,-122.0930823,-27.464,0.0,0.1,202.17268,1617917509431
Fix,GT,37.4198511,-122.0930823,-27.464,0.00031831182,0.1,202.1727,1617917510431
Fix,GT,37.4198511,-122.0930823,-27.464,0.001,0.1,202.17252,1617917511431
Fix,GT,37.4198511,-122.0930823,-27.464,0.0014142136,0.1,202.17279,1617917512431
Fix,GT,37.4198511,-122.0930823,-27.464,0.0019744616,0.1,202.17265,1617917513431
Fix,GT,37.4198511,-122.0930823,-27.464,0.0021609247,0.1,202.1722,1617917514431
Fix,GT,37.4198511,-122.0930823,-27.463999181509017,0.0019706443,0.099,202.17252,1617917515431
Fix,GT,37.4198509,-122.0930824,-27.471318312883376,0.113097355,0.1,202.17107,1617917516431
Fix,GT,37.4198483,-122.0930838,-27.48763662600517,0.5560629,0.1,202.15088,1617917517431
Fix,GT,37.4198433,-122.0930864,-27.50863744610548,0.51749253,0.1,202.11064,1617917518431
Fix,GT,37.4198404,-122.0930878,-27.52331749308109,0.16636315,0.1,202.08624,1617917519431
Fix,GT,37.4198401,-122.093088,-27.531000820487737,0.00408392,0.1,202.08415,1617917520431
Fix,GT,37.4198401,-122.0930881,-27.53400082057714,0.0036270726,0.1,202.084,1617917521431
Fix,GT,37.4198401,-122.0930881,-27.53599917936325,0.002639871,0.1,202.08304,1617917522431
Fix,GT,37.4198401,-122.0930881,-27.535000000000004,0.0020751439,0.1,202.08255,1617917523431
Fix,GT,37.4198401,-122.0930881,-27.53499917939305,0.002160924,0.1,202.08286,1617917524431
Fix,GT,37.4198401,-122.0930881,-27.53499917939305,0.0013934581,0.1,202.08302,1617917525431
Fix,GT,37.4198402,-122.0930881,-27.53599917936325,0.00071177265,0.1,202.08308,1617917526431
Fix,GT,37.4198402,-122.0930881,-27.536,0.001,0.1,202.08244,1617917527431
Fix,GT,37.4198402,-122.0930881,-27.53599917936325,0.00031831476,0.099,202.0828,1617917528431
Fix,GT,37.4198402,-122.0930881,-27.536,0.001,0.1,202.08241,1617917529431
Fix,GT,37.4198402,-122.0930881,-27.536,0.001,0.1,202.08263,1617917530431
Fix,GT,37.4198402,-122.0930881,-27.536,0.0014142136,0.1,202.08241,1617917531431
Fix,GT,37.4198402,-122.0930881,-27.53600082063675,0.0011318505,0.1,202.08232,1617917532431
Fix,GT,37.4198402,-122.0930881,-27.536,0.0014142136,0.1,202.08206,1617917533431
Fix,GT,37.4198402,-122.0930881,-27.536,0.001,0.1,-157.91798,1617917534431
Fix,GT,37.4198402,-122.0930881,-27.536,0.001,0.1,202.08205,1617917535431
Fix,GT,37.4198402,-122.0930881,-27.536,0.001,0.1,202.08232,1617917536431
Fix,GT,37.4198402,-122.0930881,-27.537,0.0012823627,0.1,202.08241,1617917537431
Fix,GT,37.4198402,-122.0930881,-27.536318316042426,0.0011318509,0.1,202.08263,1617917538431
Fix,GT,37.4198402,-122.0930881,-27.538000000000004,0.001,0.1,202.08244,1617917539431
Fix,GT,37.4198402,-122.0930881,-27.539,0.0,0.1,-157.91771,1617917540431
Fix,GT,37.4198402,-122.0930881,-27.53999917924404,0.0,0.099,202.08232,1617917541431
Fix,GT,37.4198402,-122.0930881,-27.54099917921424,0.0048197987,0.1,202.08205,1617917542431
Fix,GT,37.4198375,-122.0930894,-27.558272445410488,0.8513962,0.099,202.05896,1617917543431
Fix,GT,37.4198236,-122.0930965,-27.60854571157694,2.446878,0.1,201.8846,1617917544431
Fix,GT,37.419797,-122.0931094,-27.69482062885165,3.8594165,0.1,201.34431,1617917545431
Fix,GT,37.4197584,-122.093128,-27.81641139096021,5.4112916,0.1,200.89587,1617917546431
Fix,GT,37.4197058,-122.0931504,-27.94727326893807,6.740343,0.1,197.29912,1617917547431
Fix,GT,37.4196447,-122.0931597,-28.01450149089098,6.9363766,0.1,183.52461,1617917548431
Fix,GT,37.4195803,-122.0931463,-28.158002984404565,7.6677923,0.1,166.16309,1617917549431
Fix,GT,37.4195175,-122.0931021,-28.40223121017217,8.415116,0.1,144.00793,1617917550431
Fix,GT,37.4194719,-122.0930257,-28.70045943975449,8.725747,0.1,119.668335,1617917551431
Fix,GT,37.4194473,-122.0929294,-28.8236808231175,9.281563,0.1,103.32242,1617917552431
Fix,GT,37.4194402,-122.0928218,-28.724453455924987,9.922952,0.1,91.32135,1617917553431
Fix,GT,37.4194503,-122.0927073,-28.67299914547801,10.565874,0.1,78.98813,1617917554431
Fix,GT,37.4194852,-122.0925938,-28.659,11.089853,0.1,62.97461,1617917555431
Fix,GT,37.4195451,-122.0924904,-28.6271351352334,11.688583,0.1,50.237152,1617917556431
Fix,GT,37.4196172,-122.0923887,-28.54709094044566,12.393888,0.1,47.976807,1617917557431
Fix,GT,37.4196939,-122.0922812,-28.53390991091728,13.12048,0.1,48.46695,1617917558431
Fix,GT,37.4197707,-122.092165,-28.60190991163254,13.5395565,0.1,51.418213,1617917559431
Fix,GT,37.4198414,-122.092038,-28.730138998359443,13.828402,0.1,57.72339,1617917560431
Fix,GT,37.4198941,-122.0918974,-28.83095409724116,13.619799,0.099,69.9035,1617917561431
Fix,GT,37.4199177,-122.0917483,-28.679633623123166,13.317688,0.1,83.937805,1617917562431
Fix,GT,37.4199132,-122.0915973,-28.451132113993168,13.506527,0.1,97.24194,1617917563431
Fix,GT,37.4198812,-122.0914475,-28.27481765282154,13.975063,0.1,109.910675,1617917564431
Fix,GT,37.4198218,-122.0913036,-28.27127327632904,14.740047,0.1,121.90051,1617917565431
Fix,GT,37.4197399,-122.0911664,-28.338862696230407,15.584857,0.1,128.33368,1617917566431
Fix,GT,37.4196499,-122.0910257,-28.32890907081962,16.33388,0.1,128.95203,1617917567431
Fix,GT,37.4195533,-122.090881,-28.34440924862028,17.078487,0.1,130.41641,1617917568431
Fix,GT,37.4194504,-122.0907316,-28.26249932953716,17.846584,0.1,130.75839,1617917569431
Fix,GT,37.4193439,-122.0905752,-28.1780442019701,18.577974,0.099,130.17151,1617917570431
Fix,GT,37.419234,-122.090412,-28.07131831943989,19.181715,0.1,130.00531,1617917571431
Fix,GT,37.4191213,-122.0902442,-27.994184028893702,19.660566,0.1,130.02805,1617917572431
Fix,GT,37.4190052,-122.0900727,-27.93609091508388,20.200838,0.1,130.38663,1617917573431
Fix,GT,37.4188843,-122.0898971,-27.825497654497624,20.853603,0.099,130.96573,1617917574431
Fix,GT,37.4187577,-122.0897172,-27.703632778823376,21.677223,0.1,131.4819,1617917575431
Fix,GT,37.4186254,-122.08953,-27.554906060457228,22.623772,0.1,131.43079,1617917576431
Fix,GT,37.4184883,-122.0893365,-27.396951103210448,23.044962,0.1,131.54053,1617917577431
Fix,GT,37.4183497,-122.0891418,-27.245225199460982,23.086359,0.1,131.82922,1617917578431
Fix,GT,37.4182106,-122.0889498,-27.096861030697823,22.838682,0.1,132.44806,1617917579431
Fix,GT,37.4180718,-122.0887597,-26.97027104061842,22.808987,0.1,132.22763,1617917580431
Fix,GT,37.4179335,-122.0885691,-26.80386183565855,22.78681,0.1,132.25873,1617917581431
Fix,GT,37.4177968,-122.0883781,-26.63454351449013,22.632214,0.1,131.12772,1617917582431
Fix,GT,37.4176624,-122.0881872,-26.48517936477065,22.43518,0.099,131.8747,1617917583431
Fix,GT,37.4175271,-122.088001,-26.34822519141436,22.152447,0.1,132.37302,1617917584431
Fix,GT,37.4173935,-122.0878177,-26.219179369837043,21.811724,0.099,132.22687,1617917585431
Fix,GT,37.4172617,-122.0876372,-26.12445343351364,21.4949,0.1,132.42377,1617917586431
Fix,GT,37.4171315,-122.0874598,-26.0683633582592,21.215525,0.1,132.5014,1617917587431
Fix,GT,37.417002,-122.087283,-26.044,21.396557,0.1,132.24072,1617917588431
Fix,GT,37.4168709,-122.0871026,-26.000090848088263,21.833622,0.1,132.34967,1617917589431
Fix,GT,37.4167362,-122.0869193,-25.929363357543945,22.284227,0.1,132.64233,1617917590431
Fix,GT,37.4165987,-122.0867322,-25.90517937204241,22.757154,0.099,132.44284,1617917591431
Fix,GT,37.4164586,-122.0865402,-25.86368167859316,23.334034,0.1,132.25864,1617917592431
Fix,GT,37.416315,-122.0863429,-25.84531832152605,23.94132,0.1,132.29877,1617917593431
Fix,GT,37.4161676,-122.086141,-25.801453427314755,24.535156,0.1,132.33087,1617917594431
Fix,GT,37.416017,-122.0859337,-25.76300076779724,25.096466,0.1,132.09903,1617917595431
Fix,GT,37.4158637,-122.0857219,-25.7283625896275,25.546875,0.1,132.26575,1617917596431
Fix,GT,37.4157071,-122.0855067,-25.67999923467636,26.01049,0.1,132.2969,1617917597431
Fix,GT,37.4155482,-122.085288,-25.65240762528777,26.339575,0.1,132.19342,1617917598431
Fix,GT,37.4153873,-122.0850673,-25.59681677877903,26.619524,0.1,132.64645,1617917599431
Fix,GT,37.4152231,-122.0848461,-25.54313586142659,26.85172,0.1,132.9956,1617917600431
Fix,GT,37.4150577,-122.0846233,-25.409589277803896,27.00735,0.1,132.73663,1617917601431
Fix,GT,37.4148931,-122.0843985,-25.226997658133502,26.948578,0.1,132.2189,1617917602431
Fix,GT,37.4147317,-122.0841739,-25.037360259056094,26.582245,0.1,131.67825,1617917603431
Fix,GT,37.4145746,-122.0839502,-24.87790683841705,26.18069,0.1,130.9347,1617917604431
Fix,GT,37.4144223,-122.0837258,-24.7658610676229,26.015205,0.099,129.7768,1617917605431
Fix,GT,37.4142747,-122.0834997,-24.664224423587324,25.747438,0.1,128.83136,1617917606431
Fix,GT,37.4141315,-122.0832731,-24.549816771626475,25.299017,0.1,127.90741,1617917607431
Fix,GT,37.4139966,-122.0830516,-24.47036408343911,24.060406,0.1,126.76398,1617917608431
Fix,GT,37.4138693,-122.082835,-24.3958610740006,23.641068,0.1,126.085815,1617917609431
Fix,GT,37.4137447,-122.0826179,-24.32127018356324,23.801035,0.1,125.1557,1617917610431
Fix,GT,37.413623,-122.082397,-24.23209078323841,23.645111,0.1,124.18439,1617917611431
Fix,GT,37.4135044,-122.0821778,-24.154407663971185,23.148651,0.099,124.256226,1617917612431
Fix,GT,37.4133882,-122.0819681,-24.06240838342905,21.94728,0.1,125.11893,1617917613431
Fix,GT,37.4132754,-122.0817691,-23.99840838283301,21.378817,0.1,125.369934,1617917614431
Fix,GT,37.4131665,-122.0815721,-23.927134375661613,21.060524,0.099,123.676575,1617917615431
Fix,GT,37.4130656,-122.081373,-23.80077173554897,20.74237,0.1,121.630066,1617917616431
Fix,GT,37.4129696,-122.0811739,-23.75481747281551,20.448742,0.1,121.00995,1617917617431
Fix,GT,37.4128756,-122.0809772,-23.65327017498016,20.145298,0.1,120.68277,1617917618431
Fix,GT,37.4127837,-122.080783,-23.61095497101545,19.81654,0.1,120.782684,1617917619431
Fix,GT,37.412692,-122.0805933,-23.56427017390728,19.444862,0.1,121.37662,1617917620431
Fix,GT,37.4126016,-122.0804091,-23.552498439610005,18.75082,0.1,121.423706,1617917621431
Fix,GT,37.412515,-122.0802325,-23.61954658985138,18.049387,0.1,121.32736,1617917622431
Fix,GT,37.4124318,-122.0800599,-23.62786179149151,17.63577,0.1,120.821625,1617917623431
Fix,GT,37.4123516,-122.0798914,-23.611816762685777,16.958717,0.1,120.90799,1617917624431
Fix,GT,37.4122736,-122.0797347,-23.567681676268577,15.609795,0.1,123.0116,1617917625431
Fix,GT,37.4121926,-122.0796016,-23.481450286269187,14.290255,0.1,130.95532,1617917626431
Fix,GT,37.4120984,-122.0794951,-23.325135085344314,13.87351,0.1,142.06512,1617917627431
Fix,GT,37.4119917,-122.0794164,-23.16658849555254,13.694132,0.1,154.41577,1617917628431
Fix,GT,37.4118731,-122.0793704,-22.924768610060216,13.855427,0.1,167.706,1617917629431
Fix,GT,37.4117481,-122.0793514,-22.788588494539265,14.106916,0.1,175.53174,1617917630431
Fix,GT,37.4116201,-122.079341,-22.6618624650538,14.348984,0.1,176.55725,1617917631431
Fix,GT,37.4114906,-122.0793311,-22.52622514134645,14.311394,0.1,176.22284,1617917632431
Fix,GT,37.411365,-122.079316,-22.42331519663334,13.75514,0.1,172.83533,1617917633431
Fix,GT,37.4112456,-122.0792863,-22.304816759705545,13.332575,0.1,166.00232,1617917634431
Fix,GT,37.4111336,-122.0792379,-22.159270166397093,13.137047,0.1,157.72333,1617917635431
Fix,GT,37.4110278,-122.0791689,-21.94413195323944,13.426001,0.1,149.24295,1617917636431
Fix,GT,37.410929,-122.0790792,-21.61622200649977,13.70697,0.1,140.93259,1617917637431
Fix,GT,37.4108382,-122.0789724,-21.143084418684246,13.958688,0.1,134.16602,1617917638431
Fix,GT,37.4107564,-122.0788529,-20.65899372959137,13.821096,0.1,127.93878,1617917639431
Fix,GT,37.4106892,-122.0787282,-20.239675405263903,12.738895,0.1,120.76288,1617917640431
Fix,GT,37.4106427,-122.0786061,-19.8997685945034,11.297855,0.1,111.991455,1617917641431
Fix,GT,37.4106144,-122.0784934,-19.64527074721456,9.448161,0.1,104.59073,1617917642431
Fix,GT,37.4106004,-122.0784036,-19.48758848440648,6.721664,0.1,99.25787,1617917643431
Fix,GT,37.4105947,-122.0783445,-19.37477172887325,3.8194814,0.1,96.17175,1617917644431
Fix,GT,37.4105925,-122.078316,-19.336726702213287,1.5138477,0.1,95.46649,1617917645431
Fix,GT,37.4105919,-122.0783068,-19.32563722488284,0.20562163,0.1,95.29004,1617917646431
Fix,GT,37.4105918,-122.0783064,-19.333,0.0014142136,0.1,95.29108,1617917647431
Fix,GT,37.4105918,-122.0783064,-19.3340005761981,0.0011318544,0.1,95.28998,1617917648431
Fix,GT,37.4105918,-122.0783064,-19.334317748457195,0.0057696123,0.1,95.28546,1617917649431
Fix,GT,37.4105916,-122.0783024,-19.350637226104737,1.1072221,0.1,95.26178,1617917650431
Fix,GT,37.4105892,-122.0782764,-19.306817328333853,3.2794526,0.1,96.31958,1617917651431
Fix,GT,37.4105819,-122.0782364,-19.20968110272288,3.9298549,0.1,102.981384,1617917652431
Fix,GT,37.4105621,-122.0781926,-19.17327272772789,4.8579383,0.1,121.681854,1617917653431
Fix,GT,37.4105211,-122.0781575,-19.323093773067,6.099419,0.1,149.01743,1617917654431
Fix,GT,37.4104603,-122.0781404,-19.63705073580146,7.696971,0.1,170.81366,1617917655431
Fix,GT,37.4103844,-122.0781343,-20.042006296634675,9.12108,0.1,177.23401,1617917656431
Fix,GT,37.4102959,-122.0781307,-20.471915641009808,10.509975,0.1,178.4242,1617917657431
Fix,GT,37.4101954,-122.0781293,-20.88750472640991,11.77831,0.1,179.78137,1617917658431
Fix,GT,37.4100842,-122.0781297,-21.27741468131542,12.890646,0.1,180.09364,1617917659431
Fix,GT,37.4099634,-122.0781304,-21.57577172344923,13.897799,0.1,180.20547,1617917660431
Fix,GT,37.4098341,-122.0781313,-21.722183899194004,14.796234,0.1,180.28261,1617917661431
Fix,GT,37.4096974,-122.078133,-21.789681025356053,15.496544,0.1,180.45631,1617917662431
Fix,GT,37.4095553,-122.0781342,-21.78463600152731,16.035744,0.099,180.13931,1617917663431
Fix,GT,37.4094086,-122.078134,-21.71404502397776,16.547049,0.1,179.71704,1617917664431
Fix,GT,37.4092571,-122.0781333,-21.68081739193201,17.047422,0.1,179.81207,1617917665431
Fix,GT,37.4091018,-122.0781343,-21.62750093594193,17.414368,0.1,180.29395,1617917666431
Fix,GT,37.4089439,-122.0781358,-21.567090689510103,17.5737,0.1,180.33557,1617917667431
Fix,GT,37.4087865,-122.0781367,-21.51781610253453,17.332935,0.1,180.025,1617917668431
Fix,GT,37.4086318,-122.0781369,-21.47150158202648,17.001553,0.1,179.80914,1617917669431
Fix,GT,37.4084802,-122.0781356,-21.41331768757105,16.645624,0.1,179.38715,1617917670431
Fix,GT,37.4083319,-122.0781335,-21.320225112736225,16.280674,0.1,179.23157,1617917671431
Fix,GT,37.4081869,-122.0781319,-21.24499936684966,15.9182415,0.1,179.77551,1617917672431
Fix,GT,37.4080451,-122.0781322,-21.15658782991767,15.553461,0.1,180.23062,1617917673431
Fix,GT,37.4079071,-122.078133,-21.021044395953417,15.076723,0.1,180.03336,1617917674431
Fix,GT,37.4077732,-122.0781329,-20.88445401522517,14.619895,0.1,179.77625,1617917675431
Fix,GT,37.4076445,-122.0781332,-20.77486176204681,13.944468,0.1,180.21745,1617917676431
Fix,GT,37.4075218,-122.0781343,-20.6811344498694,13.287629,0.1,180.21002,1617917677431
Fix,GT,37.4074058,-122.078135,-20.57345277905464,12.396675,0.1,180.15576,1617917678431
Fix,GT,37.4072987,-122.0781357,-20.49513445541263,11.338381,0.1,180.19626,1617917679431
Fix,GT,37.4072022,-122.0781363,-20.39613506603241,10.094994,0.1,180.17522,1617917680431
Fix,GT,37.4071167,-122.0781367,-20.32013445955515,8.89368,0.1,180.03337,1617917681431
Fix,GT,37.4070419,-122.0781366,-20.2687260915637,7.6995597,0.1,179.69238,1617917682431
Fix,GT,37.4069757,-122.0781362,-20.22608944064379,7.105918,0.1,179.70166,1617917683431
Fix,GT,37.4069141,-122.0781361,-20.1544990131557,6.456682,0.1,179.72046,1617917684431
Fix,GT,37.4068614,-122.078136,-20.094408968180417,5.1453066,0.1,179.76111,1617917685431
Fix,GT,37.4068196,-122.0781359,-20.068363347530365,4.3577228,0.1,179.82635,1617917686431
Fix,GT,37.4067825,-122.0781358,-20.03231832623482,3.78098,0.1,179.7915,1617917687431
Fix,GT,37.4067542,-122.0781358,-20.0250906392634,2.5135384,0.1,179.7251,1617917688431
Fix,GT,37.4067364,-122.0781355,-20.020045021295548,1.3929207,0.1,179.71155,1617917689431
Fix,GT,37.4067292,-122.0781355,-20.018318326294423,0.24277079,0.1,179.70068,1617917690431
Fix,GT,37.4067285,-122.0781355,-20.025,0.088609025,0.1,179.7063,1617917691431
Fix,GT,37.4067263,-122.0781355,-20.02799940311909,0.56111705,0.099,179.70233,1617917692431
Fix,GT,37.4067186,-122.0781354,-20.021681673526764,1.1369008,0.1,179.6753,1617917693431
Fix,GT,37.4067062,-122.0781353,-20.022,1.6541089,0.1,179.64545,1617917694431
Fix,GT,37.4066874,-122.0781352,-20.00836394307017,2.568657,0.1,179.62988,1617917695431
Fix,GT,37.4066586,-122.078135,-19.99404442405701,4.018082,0.1,179.67212,1617917696431
Fix,GT,37.4066149,-122.0781348,-19.983681673228745,5.7437916,0.1,179.76257,1617917697431
Fix,GT,37.4065556,-122.0781345,-19.95209003865719,7.4222736,0.1,179.69946,1617917698431
Fix,GT,37.4064819,-122.0781341,-19.876135057449343,8.835335,0.1,179.63916,1617917699431
Fix,GT,37.4063968,-122.078134,-19.796453383445737,10.114974,0.1,180.06827,1617917700431
Fix,GT,37.4062998,-122.0781347,-19.65949781525135,11.3637,0.1,180.533,1617917701431
Fix,GT,37.406192,-122.0781375,-19.51290676403045,12.57723,0.1,181.29625,1617917702431
Fix,GT,37.4060734,-122.0781409,-19.50868487346172,13.696152,0.1,181.01675,1617917703431
Fix,GT,37.4059455,-122.0781429,-19.49472610938549,14.643905,0.1,180.43001,1617917704431
Fix,GT,37.4058105,-122.0781434,-19.37945338058472,15.238281,0.1,179.90936,1617917705431
Fix,GT,37.4056712,-122.0781435,-19.281771708011625,15.656918,0.1,179.95764,1617917706431
Fix,GT,37.405529,-122.0781438,-19.199497825026512,15.923818,0.1,180.03238,1617917707431
Fix,GT,37.4053839,-122.0781444,-19.112543414354324,16.285217,0.1,180.09218,1617917708431
Fix,GT,37.4052355,-122.0781455,-19.02149896365404,16.640312,0.1,180.27194,1617917709431
Fix,GT,37.4050845,-122.0781468,-18.94218006873131,16.872194,0.1,180.2435,1617917710431
Fix,GT,37.4049315,-122.078148,-18.856224523365498,17.038754,0.1,180.1694,1617917711431
Fix,GT,37.4047791,-122.0781491,-18.724225085020063,16.762648,0.1,180.14467,1617917712431
Fix,GT,37.4046297,-122.0781497,-18.66413505101204,16.41272,0.1,180.00824,1617917713431
Fix,GT,37.4044836,-122.0781492,-18.492906206548213,16.01988,0.1,179.651,1617917714431
Fix,GT,37.4043408,-122.0781486,-18.43681672394276,15.6721325,0.1,179.8927,1617917715431
Fix,GT,37.4042013,-122.078149,-18.330089487850664,15.294375,0.1,180.07426,1617917716431
Fix,GT,37.4040651,-122.0781497,-18.25331511902809,14.926823,0.1,180.21123,1617917717431
Fix,GT,37.4039323,-122.0781508,-18.13286120021344,14.572558,0.1,180.33415,1617917718431
Fix,GT,37.4038019,-122.0781519,-18.046407823950048,14.4737,0.1,180.28061,1617917719431
Fix,GT,37.4036706,-122.078153,-17.95277170675993,14.686407,0.1,180.25603,1617917720431
Fix,GT,37.403538,-122.0781542,-17.82318006873131,14.687664,0.1,180.32545,1617917721431
Fix,GT,37.4034062,-122.0781565,-17.752453379631042,14.55986,0.1,180.93903,1617917722431
Fix,GT,37.4032758,-122.0781611,-17.680318327486518,14.406822,0.1,182.03368,1617917723431
Fix,GT,37.4031466,-122.0781704,-17.641408362567425,14.297874,0.1,184.19774,1617917724431
Fix,GT,37.4030194,-122.0781865,-17.546090035438535,14.045859,0.1,186.64627,1617917725431
Fix,GT,37.4028955,-122.0782081,-17.485682193785905,13.708496,0.1,188.54787,1617917726431
Fix,GT,37.4027752,-122.0782334,-17.391816208809615,13.371095,0.099,190.12364,1617917727431
Fix,GT,37.40266,-122.0782623,-17.317681672692302,12.643492,0.1,191.90364,1617917728431
Fix,GT,37.402552,-122.0782949,-17.279861744999884,11.966824,0.1,194.39696,1617917729431
Fix,GT,37.4024524,-122.0783305,-17.19390996348858,10.88793,0.1,196.8162,1617917730431
Fix,GT,37.4023643,-122.0783667,-17.190954981565476,9.714327,0.1,198.62923,1617917731431
Fix,GT,37.4022864,-122.0784021,-17.105362835884094,8.6772175,0.1,200.58101,1617917732431
Fix,GT,37.4022182,-122.0784368,-17.07240836405754,7.6527233,0.1,202.38387,1617917733431
Fix,GT,37.4021589,-122.0784692,-17.042135055840017,6.703591,0.1,203.73882,1617917734431
Fix,GT,37.4021083,-122.0784984,-17.007771202951673,5.5831943,0.1,204.84753,1617917735431
Fix,GT,37.4020688,-122.0785224,-16.96504501861334,4.127065,0.1,205.94498,1617917736431
Fix,GT,37.4020414,-122.0785401,-16.950726691246036,2.7508101,0.1,206.98969,1617917737431
Fix,GT,37.4020237,-122.0785521,-16.94236334562302,1.818306,0.1,207.64668,1617917738431
Fix,GT,37.4020128,-122.0785594,-16.932,0.88449013,0.1,208.00485,1617917739431
Fix,GT,37.4020095,-122.0785618,-16.932000504612922,0.025754996,0.1,208.11168,1617917740431
Fix,GT,37.4020095,-122.0785617,-16.937999495208263,0.0006366546,0.099,208.1181,1617917741431
Fix,GT,37.4020095,-122.0785618,-16.937999495208263,0.0014142136,0.099,208.11726,1617917742431
Fix,GT,37.4020095,-122.0785618,-16.937999495208263,0.0006816727,0.099,208.1184,1617917743431
Fix,GT,37.4020095,-122.0785618,-16.93899949517846,0.0003183273,0.099,208.11887,1617917744431
Fix,GT,37.4020095,-122.0785618,-16.93899949517846,0.001,0.1,208.11964,1617917745431
Fix,GT,37.4020094,-122.0785618,-16.94263665485382,0.09096883,0.1,208.12915,1617917746431
Fix,GT,37.402007,-122.0785634,-16.942999495059254,0.47380197,0.1,208.1621,1617917747431
Fix,GT,37.4020032,-122.078566,-16.938,0.34483472,0.1,208.18835,1617917748431
Fix,GT,37.4020019,-122.0785669,-16.939317822813987,0.0055407328,0.1,208.199,1617917749431
Fix,GT,37.4020019,-122.0785669,-16.942,0.0012823578,0.1,208.20073,1617917750431
Fix,GT,37.402002,-122.0785668,-16.941999495089057,0.0022360678,0.1,208.19878,1617917751431
Fix,GT,37.402002,-122.0785668,-16.942000504910947,0.001282358,0.1,208.1992,1617917752431
Fix,GT,37.402002,-122.0785668,-16.942000504910947,0.0006816721,0.1,208.19917,1617917753431
Fix,GT,37.402002,-122.0785668,-16.942000504910947,0.0011318558,0.1,208.19922,1617917754431
Fix,GT,37.402002,-122.0785668,-16.942,0.00045018372,0.1,208.19855,1617917755431
Fix,GT,37.402002,-122.0785668,-16.942,0.0018135278,0.1,208.19887,1617917756431
Fix,GT,37.402002,-122.0785668,-16.942999495059254,0.0019190141,0.1,208.19926,1617917757431
Fix,GT,37.402002,-122.0785668,-16.943,0.0019744486,0.1,208.19925,1617917758431
Fix,GT,37.402002,-122.0785668,-16.94400050497055,0.0016758332,0.1,208.20045,1617917759431
Fix,GT,37.4019999,-122.0785682,-16.953954480171205,0.7760938,0.1,208.2222,1617917760431
Fix,GT,37.401986,-122.0785777,-16.952681166172027,2.796712,0.1,208.28012,1617917761431
Fix,GT,37.4019563,-122.0785978,-16.931045518666505,4.6092443,0.1,208.46234,1617917762431
Fix,GT,37.4019125,-122.0786283,-16.90340785264969,6.5897474,0.1,209.17302,1617917763431
Fix,GT,37.401854,-122.0786719,-16.836771196365355,8.472995,0.1,211.22939,1617917764431
Fix,GT,37.4017845,-122.0787282,-16.734817208766938,9.862477,0.1,213.38657,1617917765431
Fix,GT,37.4017057,-122.0787966,-16.644362845808267,11.34272,0.1,215.29613,1617917766431
Fix,GT,37.4016185,-122.0788776,-16.60400049483776,12.776941,0.1,216.845,1617917767431
Fix,GT,37.401524,-122.0789708,-16.54372668242455,13.816137,0.1,219.24982,1617917768431
Fix,GT,37.4014277,-122.0790765,-16.504722939759493,14.554131,0.1,222.20204,1617917769431
Fix,GT,37.401332,-122.0791932,-16.384180531740192,15.037958,0.1,225.44112,1617917770431
Fix,GT,37.4012389,-122.0793198,-16.30240835124254,15.440679,0.1,228.44388,1617917771431
Fix,GT,37.4011482,-122.0794549,-16.23536334013939,15.804317,0.1,230.74144,1617917772431
Fix,GT,37.4010582,-122.0795952,-16.158453359127044,16.04159,0.1,231.21652,1617917773431
Fix,GT,37.4009675,-122.0797348,-16.052452879458667,15.802475,0.099,230.2714,1617917774431
Fix,GT,37.4008765,-122.0798694,-15.967270052671433,15.460021,0.1,229.33363,1617917775431
Fix,GT,37.4007853,-122.0799985,-15.873588853776454,15.078962,0.1,227.43314,1617917776431
Fix,GT,37.4006917,-122.0801188,-15.744,14.695709,0.1,224.29616,1617917777431
Fix,GT,37.4005962,-122.0802287,-15.627408811211586,13.94926,0.1,221.3262,1617917778431
Fix,GT,37.4005036,-122.0803252,-15.570180027246476,12.766264,0.1,218.87166,1617917779431
Fix,GT,37.4004172,-122.0804095,-15.5224528876245,11.651855,0.1,217.24905,1617917780431
Fix,GT,37.400335,-122.0804847,-15.453090472251176,10.979207,0.1,215.28336,1617917781431
Fix,GT,37.4002562,-122.0805511,-15.382498352408408,9.947697,0.1,213.18135,1617917782431
Fix,GT,37.4001857,-122.0806063,-15.280862142801286,8.566216,0.1,211.1751,1617917783431
Fix,GT,37.4001246,-122.0806504,-15.173543353438378,6.9847584,0.1,209.26476,1617917784431
Fix,GT,37.4000761,-122.0806828,-15.079045003771782,5.1833034,0.1,207.61488,1617917785431
Fix,GT,37.4000425,-122.0807044,-15.029,3.2666836,0.1,207.00523,1617917786431
Fix,GT,37.4000225,-122.0807169,-15.001045002520089,1.7238598,0.1,206.61517,1617917787431
Fix,GT,37.4000143,-122.080722,-14.99131833267212,0.39150792,0.1,206.4693,1617917788431
Fix,GT,37.4000135,-122.0807225,-14.995,0.0046063433,0.1,206.46246,1617917789431
Fix,GT,37.4000135,-122.0807225,-14.994999553114177,0.0020751483,0.099,206.46295,1617917790431
Fix,GT,37.4000135,-122.0807225,-14.995,0.001131858,0.1,206.46027,1617917791431
Fix,GT,37.4000135,-122.0807226,-14.984681666612625,0.0013183334,0.1,206.45992,1617917792431
Fix,GT,37.4000135,-122.0807226,-14.98000044643879,0.0010000002,0.1,206.46004,1617917793431
Fix,GT,37.4000135,-122.0807226,-14.979000446408984,0.0014142136,0.1,206.46028,1617917794431
Fix,GT,37.4000135,-122.0807226,-14.98,0.0014142136,0.1,206.46051,1617917795431
Fix,GT,37.4000135,-122.0807226,-14.98,0.0011318583,0.1,206.46005,1617917796431
Fix,GT,37.4000135,-122.0807226,-14.98000044643879,0.001,0.1,206.46005,1617917797431
Fix,GT,37.4000135,-122.0807226,-14.98,0.00096402055,0.1,206.46013,1617917798431
Fix,GT,37.4000135,-122.0807226,-14.97999955356121,0.0011318586,0.099,206.46014,1617917799431
Fix,GT,37.4000135,-122.0807226,-14.98000044643879,0.0,0.1,206.46056,1617917800431
Fix,GT,37.4000135,-122.0807226,-14.98,0.0,0.1,-153.53922,1617917801431
Fix,GT,37.4000135,-122.0807226,-14.98000044643879,0.0,0.1,206.46031,1617917802431
Fix,GT,37.4000135,-122.0807226,-14.97999955356121,0.0,0.1,206.4602,1617917803431
Fix,GT,37.4000135,-122.0807226,-14.981,0.0,0.1,206.46046,1617917804431
Fix,GT,37.4000135,-122.0807226,-14.981000000000002,0.0,0.1,206.46053,1617917805431
Fix,GT,37.4000135,-122.0807226,-14.982,0.0053851646,0.1,206.46085,1617917806431
Fix,GT,37.4000115,-122.0807239,-14.986681663930415,0.55685097,0.1,206.43146,1617917807431
Fix,GT,37.4000062,-122.0807271,-14.979681217342614,0.8213086,0.1,206.34926,1617917808431
Fix,GT,37.3999974,-122.0807325,-14.973000000000004,1.3035247,0.1,206.21718,1617917809431
Fix,GT,37.3999832,-122.0807412,-14.968682109594344,2.4498837,0.1,206.09872,1617917810431
Fix,GT,37.3999563,-122.0807576,-14.924726208388805,4.168379,0.1,205.85196,1617917811431
Fix,GT,37.3999161,-122.0807816,-14.88649785128236,5.856677,0.099,205.52974,1617917812431
Fix,GT,37.3998606,-122.0808145,-14.815588712811468,7.728078,0.1,204.99557,1617917813431
Fix,GT,37.3997906,-122.080854,-14.68849785324931,9.188697,0.1,203.98732,1617917814431
Fix,GT,37.3997092,-122.0808983,-14.594134964108466,10.579441,0.1,203.20334,1617917815431
Fix,GT,37.3996161,-122.0809478,-14.512951588630676,11.840704,0.1,202.83728,1617917816431
Fix,GT,37.3995123,-122.0810022,-14.41081705367565,13.129171,0.1,202.50507,1617917817431
Fix,GT,37.3993976,-122.0810598,-14.254677806288004,14.214039,0.1,201.3553,1617917818431
Fix,GT,37.3992732,-122.081117,-13.953584821224212,15.195908,0.1,199.1613,1617917819431
Fix,GT,37.3991396,-122.0811724,-13.49240143328905,15.961176,0.1,197.70126,1617917820431
Fix,GT,37.3990012,-122.0812255,-12.92317305660248,16.189327,0.1,196.56844,1617917821431
Fix,GT,37.3988597,-122.0812758,-12.229577908337117,16.489906,0.1,195.11136,1617917822431
Fix,GT,37.3987142,-122.0813224,-11.399986189842224,16.839275,0.1,193.79395,1617917823431
Fix,GT,37.3985651,-122.0813665,-10.455802784800529,17.176186,0.1,192.82986,1617917824431
Fix,GT,37.3984127,-122.0814099,-9.528165807127952,17.519678,0.1,192.99237,1617917825431
Fix,GT,37.3982581,-122.0814586,-8.580256035447121,17.816357,0.1,194.91077,1617917826431
Fix,GT,37.3981023,-122.0815143,-7.573211022615432,18.12329,0.1,196.57008,1617917827431
Fix,GT,37.3979464,-122.0815761,-6.556847689747811,17.981646,0.1,198.34283,1617917828431
Fix,GT,37.3977968,-122.0816422,-5.573941104769707,17.23727,0.1,200.12732,1617917829431
Fix,GT,37.397655,-122.0817096,-4.663896105051041,16.412018,0.1,201.35883,1617917830431
Fix,GT,37.3975213,-122.081778,-3.904352966368199,15.670726,0.1,202.65742,1617917831431
Fix,GT,37.3973945,-122.0818476,-3.30362610065937,15.10428,0.099,204.14975,1617917832431
Fix,GT,37.3972719,-122.0819198,-2.796037895441055,15.019058,0.1,205.77063,1617917833431
Fix,GT,37.3971505,-122.0819968,-2.455539646655321,15.229051,0.1,207.52818,1617917834431
Fix,GT,37.3970288,-122.0820807,-2.251269855260849,15.598278,0.1,209.45816,1617917835431
Fix,GT,37.396906,-122.0821714,-2.2201833497583863,16.068594,0.1,211.16003,1617917836431
Fix,GT,37.3967819,-122.0822696,-2.367003519415856,16.401686,0.1,212.84421,1617917837431
Fix,GT,37.396659,-122.0823723,-2.719550260901451,16.265976,0.1,214.15553,1617917838431
Fix,GT,37.396541,-122.0824763,-3.1194117262661454,15.756092,0.099,215.77802,1617917839431
Fix,GT,37.3964292,-122.0825789,-3.6253289479613295,14.940018,0.1,216.30478,1617917840431
Fix,GT,37.3963235,-122.0826735,-4.300965645313263,13.908775,0.1,214.76422,1617917841431
Fix,GT,37.396223,-122.0827572,-5.0159206905365,12.842247,0.1,212.97746,1617917842431
Fix,GT,37.39613,-122.0828318,-5.778194080352783,11.660985,0.1,212.72453,1617917843431
Fix,GT,37.3960458,-122.0829022,-6.525010468661785,10.886064,0.099,214.31746,1617917844431
Fix,GT,37.3959684,-122.0829713,-7.162737090915441,10.165036,0.099,215.66827,1617917845431
Fix,GT,37.3958973,-122.0830343,-7.637644041448832,9.112009,0.1,214.7443,1617917846431
Fix,GT,37.3958338,-122.0830884,-8.055415656745435,7.883003,0.1,213.88635,1617917847431
Fix,GT,37.3957792,-122.0831333,-8.375187265783548,6.583906,0.1,213.06801,1617917848431
Fix,GT,37.3957345,-122.0831687,-8.595138478934764,5.1040297,0.1,211.99826,1617917849431
Fix,GT,37.395701,-122.0831942,-8.76282013654709,3.716751,0.1,211.28174,1617917850431
Fix,GT,37.3956765,-122.0832121,-8.868183449506759,2.5454946,0.1,210.52458,1617917851431
Fix,GT,37.3956618,-122.0832226,-8.933273114442825,1.1746798,0.1,210.04916,1617917852431
Fix,GT,37.3956582,-122.0832251,-8.954591726839542,0.04219936,0.1,209.92754,1617917853431
Fix,GT,37.3956582,-122.0832252,-8.959318345546723,0.001600696,0.1,209.92767,1617917854431
Fix,GT,37.3956582,-122.0832252,-8.961999732911586,0.001393497,0.1,209.92671,1617917855431
Fix,GT,37.3956582,-122.0832252,-8.962999732881784,0.0011318632,0.1,209.92635,1617917856431
Fix,GT,37.3956582,-122.0832252,-8.963,0.0013934977,0.1,209.92647,1617917857431
Fix,GT,37.3956582,-122.0832252,-8.962999732881784,0.001,0.1,209.92665,1617917858431
Fix,GT,37.3956582,-122.0832252,-8.962999732881784,0.00031834672,0.1,209.92639,1617917859431
Fix,GT,37.3956582,-122.0832252,-8.963,0.001,0.1,209.92624,1617917860431
Fix,GT,37.3956582,-122.0832252,-8.963,0.0,0.1,209.92633,1617917861431
Fix,GT,37.3956582,-122.0832252,-8.963,0.001,0.1,209.92628,1617917862431
Fix,GT,37.3956582,-122.0832252,-8.963,0.0028202713,0.1,209.92725,1617917863431
Fix,GT,37.3956582,-122.0832252,-8.963,0.0021609163,0.1,209.93001,1617917864431
Fix,GT,37.3956582,-122.0832252,-8.963,0.00031834788,0.1,209.92973,1617917865431
Fix,GT,37.3956582,-122.0832252,-8.963,0.0,0.1,209.92943,1617917866431
Fix,GT,37.3956582,-122.0832252,-8.963,0.0014142136,0.1,209.9291,1617917867431
Fix,GT,37.3956582,-122.0832252,-8.963,0.001,0.1,209.92789,1617917868431
Fix,GT,37.3956582,-122.0832252,-8.963000267118215,0.0003183487,0.1,209.9278,1617917869431
Fix,GT,37.3956582,-122.0832252,-8.963,0.00096400024,0.1,209.92801,1617917870431
Fix,GT,37.3956582,-122.0832252,-8.963000267118215,0.00045021353,0.1,209.92815,1617917871431
Fix,GT,37.3956582,-122.0832252,-8.963000267118215,0.0009639998,0.1,209.92805,1617917872431
Fix,GT,37.3956582,-122.0832252,-8.962999732881784,0.0009999999,0.1,209.92813,1617917873431
Fix,GT,37.3956582,-122.0832252,-8.963000267118215,0.001,0.1,209.92784,1617917874431
Fix,GT,37.3956582,-122.0832252,-8.963000267118215,0.0006816503,0.1,209.92827,1617917875431
Fix,GT,37.3956582,-122.0832252,-8.963,0.001131865,0.1,209.92838,1617917876431
Fix,GT,37.3956582,-122.0832252,-8.963000267118215,0.00031835012,0.1,209.92798,1617917877431
Fix,GT,37.3956582,-122.0832252,-8.963000267118215,0.001,0.1,209.92763,1617917878431
Fix,GT,37.3956582,-122.0832252,-8.962999732881784,0.0,0.1,209.92818,1617917879431
Fix,GT,37.3956582,-122.0832252,-8.963,0.001,0.1,209.92809,1617917880431
Fix,GT,37.3956582,-122.0832252,-8.962999732881784,0.001,0.099,209.928,1617917881431
Fix,GT,37.3956582,-122.0832252,-8.963,0.000318351,0.1,209.92813,1617917882431
Fix,GT,37.3956582,-122.0832252,-8.962999732881784,0.001,0.1,209.92844,1617917883431
Fix,GT,37.3956582,-122.0832252,-8.963,0.0011318654,0.1,209.92833,1617917884431
Fix,GT,37.3956582,-122.0832252,-8.963,0.001,0.1,209.92802,1617917885431
Fix,GT,37.3956582,-122.0832252,-8.963,0.001,0.1,209.92789,1617917886431
Fix,GT,37.3956582,-122.0832252,-8.963,0.00068164815,0.1,209.92781,1617917887431
Fix,GT,37.3956582,-122.0832252,-8.962999732881784,0.0009999999,0.099,209.92772,1617917888431
Fix,GT,37.3956582,-122.0832252,-8.963000267118215,0.0011318659,0.1,209.92812,1617917889431
Fix,GT,37.3956582,-122.0832252,-8.962999732881784,0.0009639952,0.1,209.92828,1617917890431
Fix,GT,37.3956582,-122.0832252,-8.963000267118215,0.001131866,0.1,209.9285,1617917891431
Fix,GT,37.3956582,-122.0832252,-8.963000267118215,0.0011318661,0.1,209.92807,1617917892431
Fix,GT,37.3956582,-122.0832252,-8.963,0.0014142136,0.1,-150.0718,1617917893431
Fix,GT,37.3956582,-122.0832252,-8.963000267118215,0.00068164687,0.1,209.92809,1617917894431
Fix,GT,37.3956582,-122.0832252,-8.963,0.0016007007,0.1,209.92801,1617917895431
Fix,GT,37.3956582,-122.0832252,-8.963000267118215,0.0013935068,0.1,209.92815,1617917896431
Fix,GT,37.3956582,-122.0832252,-8.963,0.0019744276,0.1,209.92859,1617917897431
Fix,GT,37.3956582,-122.0832252,-8.963000267118215,0.00045022042,0.1,209.92766,1617917898431
Fix,GT,37.3956582,-122.0832252,-8.963,0.0018425606,0.1,209.92781,1617917899431
Fix,GT,37.3956582,-122.0832252,-8.963,0.001,0.1,-150.0723,1617917900431
Fix,GT,37.3956582,-122.0832252,-8.963,0.0012823468,0.1,209.92755,1617917901431
Fix,GT,37.3956582,-122.0832252,-8.963000267118215,0.0012823468,0.1,209.92729,1617917902431
Fix,GT,37.3956582,-122.0832252,-8.963,0.0014142136,0.1,209.92723,1617917903431
Fix,GT,37.3956582,-122.0832252,-8.963000267118215,0.0011318671,0.1,209.92725,1617917904431
Fix,GT,37.3956582,-122.0832252,-8.962999732881784,0.001,0.1,209.92688,1617917905431
Fix,GT,37.3956582,-122.0832252,-8.963000267118215,0.0012823466,0.1,209.9271,1617917906431
Fix,GT,37.3956582,-122.0832252,-8.963,0.0011318673,0.1,209.92734,1617917907431
Fix,GT,37.3956582,-122.0832252,-8.963,0.0012823463,0.1,209.92732,1617917908431
Fix,GT,37.3956582,-122.0832252,-8.963,0.001,0.1,209.92738,1617917909431
Fix,GT,37.3956582,-122.0832252,-8.963,0.0014142136,0.1,209.9274,1617917910431
Fix,GT,37.3956582,-122.0832252,-8.963,0.0014142136,0.1,209.92776,1617917911431
Fix,GT,37.3956582,-122.0832252,-8.962999732881784,0.0014142136,0.1,209.92776,1617917912431
Fix,GT,37.3956582,-122.0832252,-8.963,0.001282346,0.1,209.92766,1617917913431
Fix,GT,37.3956582,-122.0832252,-8.963,0.001,0.1,209.92735,1617917914431
Fix,GT,37.3956582,-122.0832252,-8.963,0.0012823459,0.1,209.92723,1617917915431
Fix,GT,37.3956582,-122.0832252,-8.962999732881784,0.0014142136,0.1,209.92749,1617917916431
Fix,GT,37.3956582,-122.0832252,-8.963,0.0012823457,0.1,209.92773,1617917917431
Fix,GT,37.3956582,-122.0832252,-8.962999732881784,0.0014142136,0.1,209.92766,1617917918431
Fix,GT,37.3956582,-122.0832252,-8.963,0.0016367154,0.1,209.92764,1617917919431
Fix,GT,37.3956582,-122.0832252,-8.962999732881784,0.0012823454,0.099,209.92789,1617917920431
Fix,GT,37.3956582,-122.0832252,-8.963000267118215,0.0013935121,0.1,209.92795,1617917921431
Fix,GT,37.3956582,-122.0832252,-8.963000267118215,0.0011318683,0.1,209.92819,1617917922431
Fix,GT,37.3956582,-122.0832252,-8.962999732881784,0.001,0.099,209.92801,1617917923431
Fix,GT,37.3956582,-122.0832252,-8.963,0.001,0.1,209.92796,1617917924431
Fix,GT,37.3956582,-122.0832252,-8.963000267118215,0.0011318687,0.1,209.928,1617917925431
Fix,GT,37.3956582,-122.0832252,-8.962999732881784,0.00045022758,0.1,209.92818,1617917926431
Fix,GT,37.3956582,-122.0832252,-8.963000267118215,0.0006816409,0.1,209.9279,1617917927431
Fix,GT,37.3956582,-122.0832252,-8.963000267118215,0.002,0.1,209.92776,1617917928431
Fix,GT,37.3956582,-122.0832252,-8.963,0.0013183597,0.1,209.92805,1617917929431
Fix,GT,37.3956582,-122.0832252,-8.963,0.002,0.1,209.92792,1617917930431
Fix,GT,37.3956578,-122.0832255,-8.972636720061303,0.29720354,0.1,209.91177,1617917931431
Fix,GT,37.3956503,-122.0832311,-9.006273440599443,1.76953,0.1,210.02917,1617917932431
Fix,GT,37.3956314,-122.0832446,-9.054546882629396,3.0102549,0.1,209.38179,1617917933431
Fix,GT,37.3956027,-122.0832544,-9.102775407612324,3.4511542,0.1,194.4382,1617917934431
Fix,GT,37.3955727,-122.0832385,-9.196910163760185,3.74195,0.1,158.2002,1617917935431
Fix,GT,37.3955589,-122.0831974,-9.259865247786044,4.1476,0.1,113.101074,1617917936431
Fix,GT,37.3955725,-122.0831468,-9.295681915968656,5.2587986,0.1,68.72296,1617917937431
Fix,GT,37.3956124,-122.0831059,-9.19790621948242,6.301154,0.1,36.211884,1617917938431
Fix,GT,37.3956654,-122.0830659,-9.010633040100336,7.4406543,0.1,32.010376,1617917939431
Fix,GT,37.3957252,-122.0830167,-8.791449150800705,8.357328,0.1,33.273743,1617917940431
Fix,GT,37.3957921,-122.0829608,-8.450355102688075,9.492016,0.1,33.698303,1617917941431
Fix,GT,37.3958668,-122.0828966,-7.960171964228153,10.69695,0.1,34.790985,1617917942431
Fix,GT,37.3959492,-122.0828212,-7.372943405091762,11.90349,0.1,36.74814,1617917943431
Fix,GT,37.3960387,-122.0827361,-6.588575729846955,12.988808,0.1,37.127533,1617917944431
Fix,GT,37.3961353,-122.0826436,-5.738620647668839,14.009916,0.1,37.27301,1617917945431
Fix,GT,37.3962396,-122.0825446,-4.84493916940689,15.02463,0.1,36.69934,1617917946431
Fix,GT,37.3963528,-122.0824416,-4.094759384006262,16.023958,0.1,35.21643,1617917947431
Fix,GT,37.3964738,-122.0823371,-3.4234452213048936,16.574026,0.1,34.10141,1617917948431
Fix,GT,37.3965991,-122.0822319,-2.958441028475762,16.925974,0.099,33.334106,1617917949431
Fix,GT,37.3967284,-122.0821276,-2.56322054874897,17.197226,0.1,32.073334,1617917950431
Fix,GT,37.3968619,-122.0820256,-2.348453160494566,17.532537,0.1,30.614105,1617917951431
Fix,GT,37.3970005,-122.0819261,-2.364910183429718,17.89831,0.1,28.91565,1617917952431
Fix,GT,37.397144,-122.0818311,-2.5838243031799792,18.106571,0.1,26.757172,1617917953431
Fix,GT,37.3972915,-122.0817418,-3.022420311331749,18.213287,0.1,25.04425,1617917954431
Fix,GT,37.3974406,-122.0816568,-3.668738488465548,18.137476,0.1,23.75879,1617917955431
Fix,GT,37.3975903,-122.0815769,-4.43347722029686,17.991165,0.1,22.190674,1617917956431
Fix,GT,37.3977412,-122.081504,-5.399289561510086,17.916492,0.1,19.765991,1617917957431
Fix,GT,37.3978933,-122.0814393,-6.318110148102045,17.737457,0.1,17.791199,1617917958431
Fix,GT,37.3980457,-122.08138,-7.292881420195103,17.757376,0.1,16.808533,1617917959431
Fix,GT,37.3981997,-122.0813226,-8.235836286067963,17.89336,0.1,16.206238,1617917960431
Fix,GT,37.3983554,-122.0812675,-9.195473282456398,18.028498,0.1,14.969116,1617917961431
Fix,GT,37.3985128,-122.0812141,-10.16119983792305,18.152004,0.1,15.533264,1617917962431
Fix,GT,37.3986703,-122.0811566,-11.126881817370652,18.272343,0.1,16.402832,1617917963431
Fix,GT,37.398829,-122.081099,-12.110792053967714,18.372992,0.1,15.703339,1617917964431
Fix,GT,37.3989886,-122.0810429,-12.933514190495016,18.434301,0.1,15.437653,1617917965431
Fix,GT,37.399147,-122.0809877,-13.60023668074608,17.472462,0.1,15.601654,1617917966431
Fix,GT,37.3992858,-122.0809371,-14.017097925782204,14.421717,0.1,16.649597,1617917967431
Fix,GT,37.3993953,-122.0808936,-14.256502456903458,10.934832,0.1,17.919525,1617917968431
Fix,GT,37.3994722,-122.0808612,-14.384865300893784,7.050472,0.1,18.605438,1617917969431
Fix,GT,37.3995167,-122.080842,-14.438273897916078,3.406508,0.1,19.047241,1617917970431
Fix,GT,37.3995329,-122.0808348,-14.469636734008787,0.603179,0.1,19.199677,1617917971431
Fix,GT,37.3995336,-122.0808345,-14.480317935556174,0.0029453768,0.099,19.214478,1617917972431
Fix,GT,37.3995336,-122.0808345,-14.479999568462372,0.0004502394,0.099,19.21582,1617917973431
Fix,GT,37.3995336,-122.0808345,-14.48000043153763,0.001,0.1,19.215271,1617917974431
Fix,GT,37.3995336,-122.0808345,-14.48,0.001393524,0.1,19.215118,1617917975431
Fix,GT,37.3995336,-122.0808345,-14.479999568462372,0.001,0.1,19.215088,1617917976431
Fix,GT,37.3995336,-122.0808345,-14.479000431507826,0.0013183679,0.1,19.215424,1617917977431
Fix,GT,37.3995336,-122.0808345,-14.479,0.0012823412,0.1,19.21521,1617917978431
Fix,GT,37.3995336,-122.0808345,-14.478999568492174,0.0013935247,0.099,19.215485,1617917979431
Fix,GT,37.3995336,-122.0808345,-14.479000431507824,0.0011318725,0.1,19.21518,1617917980431
Fix,GT,37.3995336,-122.0808345,-14.479,0.001,0.1,19.215454,1617917981431
Fix,GT,37.3995336,-122.0808345,-14.479000431507824,0.0,0.1,19.215454,1617917982431
Fix,GT,37.3995336,-122.0808345,-14.479,0.0014142136,0.1,19.215454,1617917983431
Fix,GT,37.3995336,-122.0808345,-14.479,0.0014142136,0.1,19.215302,1617917984431
Fix,GT,37.3995336,-122.0808345,-14.479,0.0014142136,0.1,19.21521,1617917985431
Fix,GT,37.3995336,-122.0808345,-14.479,0.002236068,0.1,19.21579,1617917986431
Fix,GT,37.3995336,-122.0808345,-14.479,0.001,0.1,19.214935,1617917987431
Fix,GT,37.3995336,-122.0808345,-14.479,0.00068163057,0.1,19.215332,1617917988431
Fix,GT,37.3995336,-122.0808345,-14.478999568492174,0.001,0.1,19.215607,1617917989431
Fix,GT,37.3995336,-122.0808345,-14.478999568492174,0.001,0.1,19.215912,1617917990431
Fix,GT,37.3995336,-122.0808345,-14.479000431507824,0.0018135033,0.1,19.21582,1617917991431
Fix,GT,37.3995336,-122.0808345,-14.478999568492174,0.0012823404,0.1,19.215698,1617917992431
Fix,GT,37.3995336,-122.0808345,-14.478999568492172,0.0006816299,0.099,19.215454,1617917993431
Fix,GT,37.3995336,-122.0808345,-14.479999568462372,0.001,0.1,19.215637,1617917994431
