MessageType,Provider,LatitudeDegrees,LongitudeDegrees,AltitudeMeters,SpeedMps,AccuracyMeters,BearingDegrees,UnixTimeMillis
Fix,GT,37.3174312,-121.9480263,12.167298949718475,0.054021757,0.1,1.833313,1628109629445
Fix,GT,37.3174312,-121.9480269,12.10429894900322,0.05355916,0.1,1.8334656,1628109630445
Fix,GT,37.3174312,-121.9480275,12.042299307078125,0.053009436,0.1,1.8336182,1628109631445
Fix,GT,37.3174312,-121.9480281,11.981298590600492,0.052009612,0.1,1.833435,1628109632445
Fix,GT,37.3174312,-121.9480286,11.921298591673374,0.051017646,0.1,1.8332825,1628109633445
Fix,GT,37.3174312,-121.9480292,11.861298946857453,0.049391076,0.1,1.8334656,1628109634445
Fix,GT,37.3174312,-121.9480298,11.802298946857452,0.04949061,0.1,1.8326111,1628109635445
Fix,GT,37.3174312,-121.9480303,11.74574912238121,0.04851438,0.1,1.8319092,1628109636445
Fix,GT,37.3174311,-121.9480308,11.690298946857451,0.04707174,0.1,1.8319702,1628109637445
Fix,GT,37.3174245,-121.9480308,15.066154739141464,0.026925825,0.1,1.8318481,1628109638445
Fix,GT,37.3174244,-121.9480309,15.421797191619874,0.030714147,0.1,1.7927856,1628109639445
Fix,GT,37.3174277,-121.9480315,15.244446662783623,0.82857305,0.1,0.3788452,1628109640445
Fix,GT,37.3174399,-121.9480364,15.060996038615704,1.6508043,0.1,351.81772,1628109641445
Fix,GT,37.3174538,-121.9480462,14.850645518004894,1.540041,0.1,339.72577,1628109642445
Fix,GT,37.3174634,-121.9480578,14.619545876145365,1.1699967,0.1,327.44052,1628109643445
Fix,GT,37.3174692,-121.9480716,14.395546740174291,1.3927096,0.1,313.02795,1628109644445
Fix,GT,37.3174793,-121.9480855,14.216147715091704,1.9333446,0.1,312.8105,1628109645445
Fix,GT,37.3174974,-121.9480958,14.059246943026782,2.231225,0.1,328.53644,1628109646445
Fix,GT,37.3175174,-121.9480993,13.868996892988685,1.9855367,0.1,344.38116,1628109647445
Fix,GT,37.3175347,-121.9481002,13.678446246385574,1.8152931,0.1,353.10153,1628109648445
Fix,GT,37.3175524,-121.9481003,13.455446250766515,2.0356321,0.1,357.7697,1628109649445
Fix,GT,37.3175746,-121.9481006,13.259498237609863,2.628016,0.1,359.55713,1628109650445
Fix,GT,37.3176002,-121.9481004,13.062793262392285,3.305548,0.1,0.67562866,1628109651445
Fix,GT,37.3176365,-121.9480998,12.843096505135296,4.5912523,0.1,1.4221802,1628109652445
Fix,GT,37.3176799,-121.9480981,12.6643473790586,4.829009,0.1,2.0525208,1628109653445
Fix,GT,37.3177214,-121.9480964,12.524598256766796,4.175305,0.1,1.8336792,1628109654445
Fix,GT,37.3177511,-121.948096,12.428346631795169,2.4053783,0.1,0.7439575,1628109655445
Fix,GT,37.3177713,-121.948096,12.26849860188365,2.2411313,0.1,359.80023,1628109656445
Fix,GT,37.3177923,-121.9480996,12.161003529548644,2.3373995,0.1,354.0919,1628109657445
Fix,GT,37.3178122,-121.9481119,12.01684523510933,2.5878284,0.1,338.52206,1628109658445
Fix,GT,37.3178314,-121.948138,11.903398233562708,3.6134639,0.1,316.75497,1628109659445
Fix,GT,37.317847,-121.9481822,11.777498584866525,4.9042077,0.1,293.85773,1628109660445
Fix,GT,37.3178514,-121.9482451,11.645697180807591,6.211467,0.1,272.62357,1628109661445
Fix,GT,37.317848,-121.9483187,11.522147361069916,6.766652,0.1,267.46967,1628109662445
Fix,GT,37.3178467,-121.9483964,11.435298599720005,6.9327354,0.1,269.09866,1628109663445
Fix,GT,37.3178464,-121.9484741,11.356848763823509,6.8034215,0.1,269.79175,1628109664445
Fix,GT,37.3178464,-121.94855,11.278748780965806,6.659011,0.1,270.03693,1628109665445
Fix,GT,37.3178467,-121.9486241,11.204748783171178,6.4765625,0.1,270.24042,1628109666445
Fix,GT,37.3178471,-121.9486957,11.160649469852448,6.219545,0.1,270.3549,1628109667445
Fix,GT,37.3178477,-121.9487642,11.116749116420744,5.9114475,0.1,270.61823,1628109668445
Fix,GT,37.3178484,-121.9488265,11.064398586273192,4.9931355,0.1,270.48352,1628109669445
Fix,GT,37.3178483,-121.9488743,11.041099646568298,3.513176,0.1,269.55786,1628109670445
Fix,GT,37.3178469,-121.9489113,11.02464914098382,3.121702,0.1,267.23077,1628109671445
Fix,GT,37.3178413,-121.948944,11.043501768350602,2.76817,0.1,258.4569,1628109672445
Fix,GT,37.3178274,-121.9489689,11.147852300405502,2.627799,0.1,239.24997,1628109673445
Fix,GT,37.3178035,-121.9489862,11.23860108152032,3.5088453,0.1,214.87885,1628109674445
Fix,GT,37.317766,-121.9489982,11.309700726002454,5.0502667,0.1,195.16608,1628109675445
Fix,GT,37.3177147,-121.9490083,11.34125088596344,6.3867397,0.1,189.29521,1628109676445
Fix,GT,37.3176548,-121.949019,11.33194806662202,6.868615,0.1,187.60255,1628109677445
Fix,GT,37.3175939,-121.9490276,11.244800709247588,6.700528,0.1,185.77345,1628109678445
Fix,GT,37.3175348,-121.9490324,11.27535053229332,6.4308033,0.1,183.20482,1628109679445
Fix,GT,37.3174783,-121.9490349,11.331701065301896,6.0991383,0.1,181.6531,1628109680445
Fix,GT,37.3174262,-121.9490358,11.393601420879364,5.4073296,0.1,180.5826,1628109681445
Fix,GT,37.3173822,-121.9490356,11.50440179041028,4.3144293,0.1,179.70264,1628109682445
Fix,GT,37.3173498,-121.9490352,11.55490035557747,2.8428943,0.1,179.19647,1628109683445
Fix,GT,37.3173295,-121.9490348,11.593450177907943,1.4562391,0.1,179.01892,1628109684445
Fix,GT,37.3173235,-121.9490347,11.599449832320213,0.17562783,0.1,179.099,1628109685445
Fix,GT,37.3173231,-121.9490347,11.599450178027151,0.019,0.1,179.11102,1628109686445
Fix,GT,37.3173231,-121.9490347,11.60245017808676,0.0020508615,0.1,179.11115,1628109687445
Fix,GT,37.3173231,-121.9490347,11.605,0.0021062726,0.1,179.11157,1628109688445
Fix,GT,37.3173231,-121.9490347,11.607000345915557,0.0027453182,0.1,179.11182,1628109689445
Fix,GT,37.3173224,-121.9490347,11.604,0.36019665,0.1,179.1148,1628109690445
Fix,GT,37.3173133,-121.9490349,11.6233501894176,1.6938353,0.1,179.8559,1628109691445
Fix,GT,37.3172957,-121.9490403,11.62044625788927,2.0850732,0.1,189.64722,1628109692445
Fix,GT,37.3172799,-121.9490586,11.4181509116292,2.428918,0.1,214.21663,1628109693445
Fix,GT,37.3172712,-121.9490903,11.506151253283024,3.3149123,0.1,243.48602,1628109694445
Fix,GT,37.3172701,-121.9491352,11.558900013923646,4.6151857,0.1,267.20184,1628109695445
Fix,GT,37.317278,-121.9491958,11.530749446868896,6.058526,0.1,278.27618,1628109696445
Fix,GT,37.3172845,-121.9492651,11.458848743379116,6.2058234,0.1,276.05414,1628109697445
Fix,GT,37.3172893,-121.9493346,11.3703985619545,6.1183343,0.1,274.93848,1628109698445
Fix,GT,37.3172934,-121.9493994,11.279498200654984,5.4282055,0.1,274.28357,1628109699445
Fix,GT,37.3172964,-121.9494577,11.20604835319519,4.8877964,0.1,273.50635,1628109700445
Fix,GT,37.3172989,-121.9495095,11.132298918247225,4.3573227,0.1,273.5085,1628109701445
Fix,GT,37.3173011,-121.949554,11.068398555278778,3.5548334,0.1,273.5822,1628109702445
Fix,GT,37.3173031,-121.9495909,11.008398554325105,3.0497403,0.1,273.6394,1628109703445
Fix,GT,37.3173048,-121.9496233,10.96464978441596,2.700132,0.1,273.68036,1628109704445
Fix,GT,37.3173062,-121.949651,10.92484905925393,2.2310138,0.1,273.69406,1628109705445
Fix,GT,37.3173074,-121.9496734,10.89109996253252,1.7343633,0.1,273.73666,1628109706445
Fix,GT,37.3173082,-121.9496897,10.861099961400033,1.1717204,0.1,273.82968,1628109707445
Fix,GT,37.3173088,-121.9496998,10.846,0.60374284,0.1,273.84232,1628109708445
Fix,GT,37.317309,-121.9497036,10.835549495607616,0.074402325,0.1,273.83887,1628109709445
Fix,GT,37.317309,-121.9497037,10.83,0.0027453152,0.1,273.8409,1628109710445
Fix,GT,37.317309,-121.9497038,10.828999677270652,0.0011864714,0.1,273.838,1628109711445
Fix,GT,37.317309,-121.9497038,10.829,0.002236068,0.1,273.837,1628109712445
Fix,GT,37.317309,-121.9497038,10.82900032272935,0.002236068,0.1,273.8369,1628109713445
Fix,GT,37.317309,-121.9497038,10.829,0.002236068,0.1,-86.16309,1628109714445
Fix,GT,37.317309,-121.9497038,10.828999677270652,0.0018660838,0.1,273.83682,1628109715445
Fix,GT,37.317309,-121.9497038,10.829,0.002236068,0.1,-86.16294,1628109716445
Fix,GT,37.317309,-121.9497038,10.828999677270652,0.0014142136,0.1,273.8372,1628109717445
Fix,GT,37.317309,-121.9497038,10.828999677270652,0.0018660837,0.1,273.83716,1628109718445
Fix,GT,37.317309,-121.9497038,10.82900032272935,0.0017841978,0.1,273.8371,1628109719445
Fix,GT,37.317309,-121.9497038,10.83,0.0021297943,0.1,273.83725,1628109720445
Fix,GT,37.317309,-121.9497038,10.829999677240847,0.0022360678,0.1,273.83734,1628109721445
Fix,GT,37.317309,-121.9497038,10.830000322759153,0.004813572,0.1,273.8358,1628109722445
Fix,GT,37.3173092,-121.9497061,10.82209931334853,0.60213614,0.1,273.8291,1628109723445
Fix,GT,37.31731,-121.9497192,10.805298908233642,1.5716791,0.1,273.928,1628109724445
Fix,GT,37.3173112,-121.9497389,10.78264945447445,1.811105,0.1,273.88318,1628109725445
Fix,GT,37.3173122,-121.9497577,10.7631992726326,1.4434235,0.1,273.95175,1628109726445
Fix,GT,37.317313,-121.9497711,10.742099315971137,0.8870714,0.1,274.04858,1628109727445
Fix,GT,37.3173135,-121.9497773,10.727000319689513,0.21463302,0.1,274.09528,1628109728445
Fix,GT,37.3173135,-121.9497776,10.718999680548905,0.0021297946,0.1,274.09512,1628109729445
Fix,GT,37.3173135,-121.9497776,10.716,0.0035948246,0.1,274.09363,1628109730445
Fix,GT,37.3173135,-121.9497776,10.716000319361688,0.002502737,0.1,274.0941,1628109731445
Fix,GT,37.3173135,-121.9497776,10.715,0.0016796131,0.1,274.09372,1628109732445
Fix,GT,37.3173135,-121.9497776,10.714999680668114,0.0023753312,0.1,274.0937,1628109733445
Fix,GT,37.3173135,-121.9497776,10.715000319331883,0.0019734176,0.1,274.09415,1628109734445
Fix,GT,37.3173135,-121.9497776,10.715000319331883,0.0010000002,0.1,274.09445,1628109735445
Fix,GT,37.3173135,-121.9497776,10.715000319331883,0.0020053033,0.1,274.09457,1628109736445
Fix,GT,37.3173135,-121.9497776,10.715000319331883,0.0021297946,0.1,274.0946,1628109737445
Fix,GT,37.3173135,-121.9497776,10.715000319331883,0.0010000002,0.1,274.095,1628109738445
Fix,GT,37.3173135,-121.9497776,10.714999680668114,0.0014501817,0.1,274.0948,1628109739445
Fix,GT,37.3173135,-121.9497776,10.715000319331883,0.00045018166,0.1,274.09467,1628109740445
Fix,GT,37.3173135,-121.9497776,10.715,0.0017841973,0.1,274.09473,1628109741445
Fix,GT,37.3173135,-121.9497776,10.714999680668114,0.0021062735,0.1,274.09485,1628109742445
Fix,GT,37.3173135,-121.9497776,10.713999680697915,0.002989035,0.1,274.0948,1628109743445
Fix,GT,37.3173135,-121.9497776,10.714000319302082,0.003892357,0.1,274.09442,1628109744445
Fix,GT,37.3173136,-121.9497793,10.704549818515778,0.57641065,0.1,274.10416,1628109745445
Fix,GT,37.3173147,-121.949798,10.669199273586273,2.7698164,0.1,274.1028,1628109746445
Fix,GT,37.3173172,-121.9498405,10.606749091982842,4.7837667,0.1,274.04648,1628109747445
Fix,GT,37.3173197,-121.9499089,10.524948052048682,7.4299207,0.1,272.13327,1628109748445
Fix,GT,37.3173193,-121.9500043,10.43350575596094,9.371111,0.1,268.61197,1628109749445
Fix,GT,37.3173153,-121.9501178,10.63590430998802,10.872713,0.1,266.94434,1628109750445
Fix,GT,37.317308,-121.9502501,10.626346594303849,12.475647,0.1,265.67087,1628109751445
Fix,GT,37.3172984,-121.9503969,10.323350852519273,13.6994915,0.1,264.96362,1628109752445
Fix,GT,37.3172859,-121.9505583,10.416801037400962,14.9535675,0.1,264.13184,1628109753445
Fix,GT,37.3172718,-121.9507316,10.476848727941514,16.012262,0.1,263.87805,1628109754445
Fix,GT,37.3172545,-121.9509172,10.492701403141025,16.994316,0.1,262.87582,1628109755445
Fix,GT,37.3172339,-121.951112,10.5208007273674,17.846832,0.1,262.02277,1628109756445
Fix,GT,37.3172103,-121.951316,10.55454950362444,18.672956,0.1,261.52933,1628109757445
Fix,GT,37.3171864,-121.9515291,10.5641992726326,19.457163,0.1,262.25076,1628109758445
Fix,GT,37.3171634,-121.9517491,10.558051636576652,19.862867,0.1,262.41193,1628109759445
Fix,GT,37.317139,-121.9519736,10.509749090194704,20.316002,0.1,262.0568,1628109760445
Fix,GT,37.3171136,-121.9522031,10.485549817919733,20.67087,0.1,262.00974,1628109761445
Fix,GT,37.3170881,-121.9524335,10.429048307746648,20.591858,0.1,262.14212,1628109762445
Fix,GT,37.3170627,-121.9526649,10.373298597753047,20.840374,0.1,261.96832,1628109763445
Fix,GT,37.3170364,-121.9528993,10.335749396950009,21.111885,0.1,261.92548,1628109764445
Fix,GT,37.3170096,-121.9531367,10.29769713920355,21.396584,0.1,261.86774,1628109765445
Fix,GT,37.3169828,-121.9533773,10.258900364875792,21.675426,0.1,262.1275,1628109766445
Fix,GT,37.3169566,-121.9536214,10.163099937736987,21.96563,0.1,262.22974,1628109767445
Fix,GT,37.3169302,-121.9538681,10.281054990738632,22.165314,0.1,262.35498,1628109768445
Fix,GT,37.3169039,-121.9541174,10.37605164408684,22.421793,0.1,262.2184,1628109769445
Fix,GT,37.3168755,-121.9543697,10.5009559764266,22.748455,0.1,261.6543,1628109770445
Fix,GT,37.3168452,-121.9546257,10.571354516983032,23.124823,0.1,261.1448,1628109771445
Fix,GT,37.3168131,-121.9548853,10.63215127956867,23.456736,0.1,261.07574,1628109772445
Fix,GT,37.3167814,-121.9551489,10.710951692670584,23.781586,0.1,261.84122,1628109773445
Fix,GT,37.3167533,-121.9554171,10.753350548923017,24.18322,0.1,263.062,1628109774445
Fix,GT,37.3167294,-121.9556904,10.791151280820367,24.575306,0.1,263.92438,1628109775445
Fix,GT,37.3167073,-121.9559688,10.838549816906452,24.999504,0.1,264.54333,1628109776445
Fix,GT,37.3166867,-121.9562519,10.891402197122574,25.409409,0.1,264.83936,1628109777445
Fix,GT,37.3166669,-121.9565398,10.932900366306304,25.81676,0.1,265.2881,1628109778445
Fix,GT,37.3166496,-121.9568309,11.007250916063786,25.82096,0.1,265.85773,1628109779445
Fix,GT,37.3166342,-121.9571208,11.030900366425511,25.708525,0.1,266.35986,1628109780445
Fix,GT,37.316621,-121.9574103,11.06910330104828,25.734062,0.1,266.9917,1628109781445
Fix,GT,37.3166109,-121.9577011,11.101800402641295,25.92944,0.1,267.9088,1628109782445
Fix,GT,37.3166042,-121.9579954,11.114749083042144,26.308277,0.1,268.5858,1628109783445
Fix,GT,37.3166001,-121.9582947,11.18184871584177,26.729141,0.1,269.2359,1628109784445
Fix,GT,37.316599,-121.9585979,11.209700766891242,27.018814,0.1,270.02588,1628109785445
Fix,GT,37.3166009,-121.9589037,11.2752509175539,27.176174,0.1,270.53174,1628109786445
Fix,GT,37.3166045,-121.9592114,11.307749082148074,27.438011,0.1,270.92575,1628109787445
Fix,GT,37.3166096,-121.9595232,11.321952020585538,27.83791,0.1,271.01205,1628109788445
Fix,GT,37.3166143,-121.9598393,11.32814727386832,28.18655,0.1,270.94568,1628109789445
Fix,GT,37.3166194,-121.9601581,11.431800734996797,28.307571,0.1,271.15707,1628109790445
Fix,GT,37.3166251,-121.9604773,11.543453858733177,28.291382,0.1,271.1578,1628109791445
Fix,GT,37.3166304,-121.9607963,11.847058655679229,28.293694,0.1,270.87393,1628109792445
Fix,GT,37.3166345,-121.9611157,12.338110664367676,28.323132,0.1,270.77478,1628109793445
Fix,GT,37.3166385,-121.9614334,13.01781177520752,28.009317,0.1,270.84793,1628109794445
Fix,GT,37.3166428,-121.9617476,13.802412851750852,27.727856,0.1,270.82782,1628109795445
Fix,GT,37.3166472,-121.9620592,14.514863448500634,27.528063,0.1,270.95898,1628109796445
Fix,GT,37.3166518,-121.9623688,15.218863002449272,27.365055,0.1,271.05157,1628109797445
Fix,GT,37.3166568,-121.9626765,15.9179151211977,27.209034,0.1,271.13727,1628109798445
Fix,GT,37.3166619,-121.9629827,16.532406396090984,27.094131,0.1,270.98898,1628109799445
Fix,GT,37.3166655,-121.9632877,16.92045807287097,26.9859,0.1,270.60815,1628109800445
Fix,GT,37.3166675,-121.9635916,17.351158163160086,26.918558,0.1,270.2597,1628109801445
Fix,GT,37.3166676,-121.9638956,17.566605699002743,26.987545,0.1,269.69736,1628109802445
Fix,GT,37.3166654,-121.9642006,17.58674959933758,27.088905,0.1,269.10904,1628109803445
Fix,GT,37.3166603,-121.9645065,17.534992075651886,27.163021,0.1,268.43384,1628109804445
Fix,GT,37.3166521,-121.9648138,17.43374959358573,27.339539,0.1,267.59753,1628109805445
Fix,GT,37.316641,-121.9651231,17.232342630982398,27.552383,0.1,267.2306,1628109806445
Fix,GT,37.3166292,-121.965435,16.788490732073782,27.83064,0.1,267.26633,1628109807445
Fix,GT,37.3166187,-121.9657505,16.242240285158157,28.136185,0.1,267.69934,1628109808445
Fix,GT,37.3166091,-121.9660693,15.710140163362023,28.431852,0.1,267.69788,1628109809445
Fix,GT,37.3165987,-121.9663912,15.11528819605708,28.616943,0.1,267.50995,1628109810445
Fix,GT,37.3165882,-121.9667135,14.423686681240795,28.564812,0.1,267.55603,1628109811445
Fix,GT,37.3165775,-121.9670349,13.640036792993548,28.454668,0.1,267.44577,1628109812445
Fix,GT,37.3165664,-121.9673549,13.007439404815436,28.306152,0.1,267.31522,1628109813445
Fix,GT,37.3165546,-121.9676727,12.570044229865074,28.091019,0.1,267.23257,1628109814445
Fix,GT,37.3165427,-121.9679877,12.332597764968872,27.814043,0.1,267.27222,1628109815445
Fix,GT,37.3165337,-121.9682995,12.27370148268342,27.481041,0.1,268.5951,1628109816445
Fix,GT,37.3165322,-121.9686073,12.354051675736905,27.108242,0.1,270.54034,1628109817445
Fix,GT,37.316538,-121.968911,12.423151303768158,26.730873,0.1,272.06363,1628109818445
Fix,GT,37.3165496,-121.96921,12.469450186252594,26.355612,0.1,273.1563,1628109819445
Fix,GT,37.3165635,-121.969505,12.48550186252594,26.022396,0.1,273.06726,1628109820445
Fix,GT,37.3165769,-121.9697962,12.515546088695526,25.694103,0.1,273.15436,1628109821445
Fix,GT,37.3165882,-121.970084,12.444199254751204,25.379139,0.1,272.4068,1628109822445
Fix,GT,37.3165971,-121.970368,12.403701117157937,24.96752,0.1,272.0041,1628109823445
Fix,GT,37.3166055,-121.9706468,12.364649810045956,24.502064,0.1,272.27216,1628109824445
Fix,GT,37.3166172,-121.9709201,12.298697760432958,24.042194,0.1,273.81665,1628109825445
Fix,GT,37.3166364,-121.9711884,12.165948323726653,23.70273,0.1,275.9496,1628109826445
Fix,GT,37.316662,-121.9714516,12.017147578716278,23.341057,0.1,277.59036,1628109827445
Fix,GT,37.3166933,-121.9717102,11.791394783258438,23.004368,0.1,279.4199,1628109828445
Fix,GT,37.3167308,-121.9719614,11.48264233264327,22.245697,0.1,281.4029,1628109829445
Fix,GT,37.3167767,-121.9722019,11.055590308666227,21.725266,0.1,285.09592,1628109830445
Fix,GT,37.3168334,-121.9724356,10.495937140345571,21.599827,0.1,288.28244,1628109831445
Fix,GT,37.3169015,-121.9726631,9.97799284183979,21.470375,0.1,292.2426,1628109832445
Fix,GT,37.3169801,-121.9728831,9.771143845796583,21.274792,0.1,295.21448,1628109833445
Fix,GT,37.3170654,-121.9730972,9.837457944869996,21.10769,0.1,296.8628,1628109834445
Fix,GT,37.3171506,-121.9733076,10.281110833764078,20.6553,0.1,296.96414,1628109835445
Fix,GT,37.3172342,-121.9735108,10.890011207342148,19.767826,0.1,297.32816,1628109836445
Fix,GT,37.3173128,-121.9737021,11.47511118015647,18.282433,0.1,296.6079,1628109837445
Fix,GT,37.3173823,-121.9738771,12.014859909296035,16.213428,0.1,296.22675,1628109838445
Fix,GT,37.3174422,-121.9740243,12.477354675233364,13.107662,0.1,298.35583,1628109839445
Fix,GT,37.3175022,-121.9741375,12.684701123952866,11.206415,0.1,307.55435,1628109840445
Fix,GT,37.3175742,-121.9742196,12.723649817168711,10.53414,0.1,323.80566,1628109841445
Fix,GT,37.3176587,-121.9742674,12.690697753757238,10.187423,0.1,342.73575,1628109842445
Fix,GT,37.3177486,-121.9742674,12.60009924891591,9.99451,0.1,8.468414,1628109843445
Fix,GT,37.3178343,-121.9742295,12.556099998563528,10.084586,0.1,22.403473,1628109844445
Fix,GT,37.3179135,-121.9741935,12.580099624156952,8.644658,0.1,16.209137,1628109845445
Fix,GT,37.3179866,-121.9741816,12.594999624639753,7.7360067,0.1,4.8938904,1628109846445
Fix,GT,37.3180521,-121.9741754,12.607298494696616,6.9238625,0.1,5.3069153,1628109847445
Fix,GT,37.3181087,-121.9741612,12.597549811601638,5.866848,0.1,13.615875,1628109848445
Fix,GT,37.3181534,-121.9741389,12.540848680377009,4.8341036,0.1,22.975159,1628109849445
Fix,GT,37.3181853,-121.9741154,12.487749428898097,3.2459939,0.1,30.384369,1628109850445
Fix,GT,37.3182031,-121.9741004,12.459099622249605,1.5818348,0.1,32.61795,1628109851445
Fix,GT,37.3182098,-121.9740951,12.444999629110098,0.3567478,0.1,32.637756,1628109852445
Fix,GT,37.3182106,-121.9740945,12.438450189173222,0.0048829056,0.1,32.63208,1628109853445
Fix,GT,37.3182106,-121.9740945,12.437,0.001,0.1,32.63199,1628109854445
Fix,GT,37.3182106,-121.9740945,12.436999629348517,0.00045018946,0.1,32.63095,1628109855445
Fix,GT,37.3182106,-121.9740945,12.437,0.00063666416,0.1,32.63144,1628109856445
Fix,GT,37.3182106,-121.9740945,12.436999629348517,0.0011864746,0.1,32.631348,1628109857445
Fix,GT,37.3182106,-121.9740945,12.437,0.0011864747,0.1,32.631348,1628109858445
Fix,GT,37.3182106,-121.9740945,12.437,0.001,0.1,32.63138,1628109859445
Fix,GT,37.3182106,-121.9740945,12.436999629348517,0.001,0.1,32.63138,1628109860445
Fix,GT,37.3182106,-121.9740945,12.437,0.001,0.1,32.631165,1628109861445
Fix,GT,37.3182106,-121.9740945,12.436999629348517,0.0011864748,0.1,32.63147,1628109862445
Fix,GT,37.3182106,-121.9740945,12.437,0.0011864749,0.1,32.631836,1628109863445
Fix,GT,37.3182106,-121.9740945,12.436999629348517,0.001,0.1,32.63141,1628109864445
Fix,GT,37.3182106,-121.9740945,12.437,0.001,0.1,32.6315,1628109865445
Fix,GT,37.3182106,-121.9740945,12.437,0.0011864749,0.1,32.631226,1628109866445
Fix,GT,37.3182106,-121.9740945,12.436999629348517,0.0012277386,0.1,32.63095,1628109867445
Fix,GT,37.3182106,-121.9740945,12.437,0.0025617527,0.1,32.632477,1628109868445
Fix,GT,37.3182106,-121.9740945,12.437000370651482,0.0012277386,0.1,32.631317,1628109869445
Fix,GT,37.3182106,-121.9740945,12.437,0.0006366657,0.1,32.631775,1628109870445
Fix,GT,37.3182106,-121.9740945,12.437,0.00045019074,0.1,32.63138,1628109871445
Fix,GT,37.3182106,-121.9740945,12.437,0.0,0.1,32.63089,1628109872445
Fix,GT,37.3182106,-121.9740945,12.437,0.0,0.1,32.630646,1628109873445
Fix,GT,37.3182106,-121.9740945,12.437,0.00045019086,0.1,32.63138,1628109874445
Fix,GT,37.3182106,-121.9740945,12.436999629348517,0.00054980913,0.1,32.631287,1628109875445
Fix,GT,37.3182106,-121.9740945,12.437000370651482,0.001,0.1,32.631256,1628109876445
Fix,GT,37.3182106,-121.9740945,12.437,0.001784205,0.1,32.630707,1628109877445
Fix,GT,37.3182106,-121.9740945,12.436999629348517,0.0014142136,0.1,32.63098,1628109878445
Fix,GT,37.3182106,-121.9740945,12.437,0.0011864752,0.1,32.6315,1628109879445
Fix,GT,37.3182106,-121.9740945,12.437000370651482,0.0014142136,0.1,32.631165,1628109880445
Fix,GT,37.3182106,-121.9740945,12.437000370651482,0.002236068,0.1,32.63144,1628109881445
Fix,GT,37.3182106,-121.9740945,12.437000370651482,0.0025027427,0.1,32.63147,1628109882445
Fix,GT,37.3182106,-121.9740945,12.436999629348517,0.002236068,0.1,32.631134,1628109883445
Fix,GT,37.3182106,-121.9740945,12.437,0.002653039,0.1,32.631622,1628109884445
Fix,GT,37.3182106,-121.9740945,12.437000370651482,0.0025617525,0.1,32.631866,1628109885445
Fix,GT,37.3182106,-121.9740945,12.436999629348517,0.0021297922,0.1,32.631287,1628109886445
Fix,GT,37.3182106,-121.9740945,12.436999629348517,0.0012294105,0.1,32.63208,1628109887445
Fix,GT,37.3182106,-121.9740945,12.436999629348517,0.0011864752,0.1,32.631256,1628109888445
Fix,GT,37.3182106,-121.9740945,12.436999629348517,0.001,0.1,32.63147,1628109889445
Fix,GT,37.3182106,-121.9740945,12.436999629348517,0.001,0.1,32.63138,1628109890445
Fix,GT,37.3182106,-121.9740945,12.437000370651482,0.0016779293,0.1,32.6315,1628109891445
Fix,GT,37.3182106,-121.9740945,12.437000370651482,0.0011864752,0.1,32.631653,1628109892445
Fix,GT,37.3182106,-121.9740945,12.437000370651482,0.0014142136,0.1,32.63202,1628109893445
Fix,GT,37.3182106,-121.9740945,12.436999629348517,0.0011864752,0.1,32.63205,1628109894445
Fix,GT,37.3182106,-121.9740945,12.436999629348517,0.001,0.1,32.631958,1628109895445
Fix,GT,37.3182106,-121.9740945,12.437000370651482,0.001,0.1,32.631226,1628109896445
Fix,GT,37.3182106,-121.9740945,12.437,0.001,0.1,32.631104,1628109897445
Fix,GT,37.3182106,-121.9740945,12.437,0.0014142136,0.1,32.631287,1628109898445
Fix,GT,37.3182106,-121.9740945,12.436999629348517,0.001,0.1,32.631348,1628109899445
Fix,GT,37.3182106,-121.9740945,12.437000370651482,0.001,0.1,32.631287,1628109900445
Fix,GT,37.3182106,-121.9740945,12.436999629348517,0.0,0.1,32.6308,1628109901445
Fix,GT,37.3182106,-121.9740945,12.437000370651482,0.00063666643,0.1,32.63086,1628109902445
Fix,GT,37.3182106,-121.9740945,12.437,0.001,0.1,32.631104,1628109903445
Fix,GT,37.3182106,-121.9740945,12.437,0.00054980884,0.1,32.631195,1628109904445
Fix,GT,37.3182106,-121.9740945,12.437,0.0,0.1,32.63147,1628109905445
Fix,GT,37.3182106,-121.9740945,12.436999629348517,0.00045019126,0.1,32.631195,1628109906445
Fix,GT,37.3182106,-121.9740945,12.437,0.0012277382,0.1,32.631134,1628109907445
Fix,GT,37.3182106,-121.9740945,12.437,0.001,0.1,32.63208,1628109908445
Fix,GT,37.3182106,-121.9740945,12.437,0.00045019147,0.1,32.631714,1628109909445
Fix,GT,37.3182106,-121.9740945,12.437,0.0012277382,0.1,32.63138,1628109910445
Fix,GT,37.3182106,-121.9740945,12.437,0.002,0.1,32.631714,1628109911445
Fix,GT,37.3182106,-121.9740945,12.437,0.001,0.1,32.631744,1628109912445
Fix,GT,37.3182106,-121.9740945,12.437000370651482,0.0011864755,0.1,32.631744,1628109913445
Fix,GT,37.3182106,-121.9740945,12.437000370651482,0.0012277382,0.1,32.63144,1628109914445
Fix,GT,37.3182106,-121.9740945,12.437,0.001,0.1,32.631775,1628109915445
Fix,GT,37.3182106,-121.9740945,12.437,0.001,0.1,32.631866,1628109916445
Fix,GT,37.3182106,-121.9740945,12.437000370651482,0.0010000002,0.1,32.631836,1628109917445
Fix,GT,37.3182106,-121.9740945,12.436999629348517,0.001,0.1,32.631714,1628109918445
Fix,GT,37.3182106,-121.9740945,12.437000370651482,0.0012277382,0.1,32.631653,1628109919445
Fix,GT,37.3182106,-121.9740945,12.437,0.0017842054,0.1,32.631897,1628109920445
Fix,GT,37.3182106,-121.9740945,12.437000370651482,0.0011864754,0.1,32.63205,1628109921445
Fix,GT,37.3182106,-121.9740945,12.436999629348517,0.0012277381,0.1,32.632202,1628109922445
Fix,GT,37.3182106,-121.9740945,12.437,0.0011864754,0.1,32.632263,1628109923445
Fix,GT,37.3182106,-121.9740945,12.437,0.002236068,0.1,32.63211,1628109924445
Fix,GT,37.3182106,-121.9740945,12.437000370651482,0.0022360682,0.1,32.632324,1628109925445
Fix,GT,37.3182106,-121.9740945,12.436999629348517,0.0022360678,0.1,32.632233,1628109926445
Fix,GT,37.3182106,-121.9740945,12.437000370651482,0.0017842054,0.1,32.6326,1628109927445
Fix,GT,37.3182106,-121.9740945,12.436999629348517,0.0014142136,0.1,32.63217,1628109928445
Fix,GT,37.3182106,-121.9740945,12.436999629348517,0.0022360678,0.1,32.63214,1628109929445
Fix,GT,37.3182106,-121.9740945,12.436999629348517,0.0022360678,0.1,32.632324,1628109930445
Fix,GT,37.3182106,-121.9740945,12.437,0.002236068,0.1,32.632324,1628109931445
Fix,GT,37.3182106,-121.9740945,12.436999629348517,0.002,0.1,32.632355,1628109932445
Fix,GT,37.3182106,-121.9740945,12.437000370651482,0.001556467,0.1,32.632324,1628109933445
Fix,GT,37.3182106,-121.9740945,12.437,0.002236068,0.1,32.632507,1628109934445
Fix,GT,37.3182106,-121.9740945,12.437,0.002236068,0.1,32.632355,1628109935445
Fix,GT,37.3182106,-121.9740945,12.437000370651482,0.0021062759,0.1,32.63269,1628109936445
Fix,GT,37.3182106,-121.9740945,12.437000370651482,0.002236068,0.1,32.63324,1628109937445
Fix,GT,37.3182106,-121.9740945,12.437000370651482,0.0017842052,0.1,32.63336,1628109938445
Fix,GT,37.3182106,-121.9740945,12.437,0.0012277383,0.1,32.633392,1628109939445
Fix,GT,37.3182106,-121.9740945,12.437000370651482,0.0014501915,0.1,32.63333,1628109940445
Fix,GT,37.3182106,-121.9740945,12.437,0.001,0.1,32.633514,1628109941445
Fix,GT,37.3182106,-121.9740945,12.437,0.0016779295,0.1,32.633545,1628109942445
Fix,GT,37.3182106,-121.9740945,12.437,0.001556467,0.1,32.63379,1628109943445
Fix,GT,37.3182106,-121.9740945,12.436999629348517,0.001,0.1,32.633514,1628109944445
Fix,GT,37.3182106,-121.9740945,12.437,0.0014142136,0.1,32.63376,1628109945445
Fix,GT,37.3182106,-121.9740945,12.437,0.0014142136,0.1,32.634033,1628109946445
Fix,GT,37.3182106,-121.9740945,12.437,0.0014142136,0.1,32.63379,1628109947445
Fix,GT,37.3182106,-121.9740945,12.436999629348517,0.001,0.1,32.63394,1628109948445
Fix,GT,37.3182106,-121.9740945,12.437000370651482,0.0010000002,0.1,32.63385,1628109949445
Fix,GT,37.3182106,-121.9740945,12.437000370651482,0.0012277382,0.1,32.63382,1628109950445
Fix,GT,37.3182106,-121.9740945,12.437,0.0014142136,0.1,32.633423,1628109951445
Fix,GT,37.3182106,-121.9740945,12.436999629348517,0.0018660761,0.1,32.634064,1628109952445
Fix,GT,37.3182106,-121.9740945,12.437000370651482,0.0014142136,0.1,32.633972,1628109953445
Fix,GT,37.3182106,-121.9740945,12.436999629348517,0.0018660759,0.1,32.633972,1628109954445
Fix,GT,37.3182106,-121.9740945,12.437,0.0018660761,0.1,32.634216,1628109955445
Fix,GT,37.3182106,-121.9740945,12.436999629348517,0.001,0.1,32.634277,1628109956445
Fix,GT,37.3182106,-121.9740945,12.437,0.001,0.1,32.634216,1628109957445
Fix,GT,37.3182106,-121.9740945,12.437,0.0014142136,0.1,32.634308,1628109958445
Fix,GT,37.3182106,-121.9740945,12.437000370651482,0.0014142136,0.1,32.634247,1628109959445
Fix,GT,37.3182106,-121.9740945,12.436999629348517,0.0014142136,0.1,32.634155,1628109960445
Fix,GT,37.3182106,-121.9740945,12.436999629348517,0.0009999999,0.1,32.634125,1628109961445
Fix,GT,37.3182106,-121.9740945,12.436999629348517,0.0009999999,0.1,32.634094,1628109962445
Fix,GT,37.3182106,-121.9740945,12.437,0.0021062759,0.1,32.634613,1628109963445
Fix,GT,37.3182106,-121.9740945,12.437,0.0011864756,0.1,32.63446,1628109964445
Fix,GT,37.3182106,-121.9740945,12.437000370651482,0.0011864756,0.1,32.63449,1628109965445
Fix,GT,37.3182106,-121.9740945,12.437,0.001,0.1,32.63452,1628109966445
Fix,GT,37.3182106,-121.9740945,12.437,0.0014142136,0.1,32.63446,1628109967445
Fix,GT,37.3182106,-121.9740945,12.437,0.0014142136,0.1,32.63452,1628109968445
Fix,GT,37.3182109,-121.9740943,12.429649423897269,0.2539078,0.1,32.638763,1628109969445
Fix,GT,37.3182181,-121.974088,12.412549807906151,1.8930889,0.1,33.525543,1628109970445
Fix,GT,37.3182377,-121.9740715,12.39719960102439,2.941691,0.1,33.151672,1628109971445
Fix,GT,37.3182627,-121.9740619,12.38009998473525,2.7471564,0.1,18.148346,1628109972445
Fix,GT,37.3182863,-121.9740738,12.341549807906151,2.5940838,0.1,345.57635,1628109973445
Fix,GT,37.3183009,-121.9741012,12.284948270618916,2.8836966,0.1,311.1525,1628109974445
Fix,GT,37.3182997,-121.9741382,12.228649788111449,3.2638044,0.1,272.3899,1628109975445
Fix,GT,37.3182774,-121.9741712,12.200199594676494,4.2745,0.1,232.25798,1628109976445
Fix,GT,37.3182344,-121.9741973,12.235151710242032,6.3155336,0.1,204.87076,1628109977445
Fix,GT,37.318173,-121.9742269,12.338952482253312,8.152128,0.1,201.77696,1628109978445
Fix,GT,37.3181013,-121.9742679,12.47380076932907,9.323669,0.1,205.88168,1628109979445
Fix,GT,37.3180219,-121.9743202,12.598402308702468,10.506881,0.1,208.221,1628109980445
Fix,GT,37.3179374,-121.9743814,12.72160154056549,11.067324,0.1,210.97922,1628109981445
Fix,GT,37.3178531,-121.9744484,12.812801152676345,11.165194,0.1,212.95607,1628109982445
Fix,GT,37.3177667,-121.9745203,12.900051735818389,11.846508,0.1,213.6377,1628109983445
Fix,GT,37.3176778,-121.9745946,13.010701157569883,11.760061,0.1,213.75865,1628109984445
Fix,GT,37.3175907,-121.9746673,13.105752894818783,11.5008335,0.1,212.92679,1628109985445
Fix,GT,37.3175009,-121.974733,13.053553669035434,11.715521,0.1,208.16461,1628109986445
Fix,GT,37.3174046,-121.9747935,13.182653676986694,12.164343,0.1,206.9705,1628109987445
Fix,GT,37.3173078,-121.9748622,13.30650193285942,12.487074,0.1,210.96565,1628109988445
Fix,GT,37.3172139,-121.9749377,13.399752900183202,12.243902,0.1,213.3644,1628109989445
Fix,GT,37.317124,-121.9750141,13.48390078869462,11.872147,0.1,214.49142,1628109990445
Fix,GT,37.3170381,-121.975089,13.561402323722838,11.266919,0.1,214.68231,1628109991445
Fix,GT,37.3169599,-121.9751552,13.666250561445953,9.456411,0.1,212.91869,1628109992445
Fix,GT,37.3168905,-121.9751968,13.769405797153713,7.858013,0.1,200.34709,1628109993445
Fix,GT,37.3168219,-121.9752049,13.87,7.51488,0.1,179.18938,1628109994445
Fix,GT,37.3167589,-121.9751766,13.8674497808218,7.5275755,0.1,153.84473,1628109995445
Fix,GT,37.3167084,-121.9751128,13.643350582718847,8.581084,0.1,127.947296,1628109996445
Fix,GT,37.3166743,-121.9750178,13.801203107833864,10.001048,0.1,110.55505,1628109997445
Fix,GT,37.3166464,-121.9749002,13.994004302173852,11.800493,0.1,105.29773,1628109998445
Fix,GT,37.3166172,-121.9747607,14.162652881741524,13.810872,0.1,104.39139,1628109999445
Fix,GT,37.3165849,-121.974598,14.23474860405922,15.829848,0.1,103.61896,1628110000445
Fix,GT,37.3165498,-121.9744161,14.176047439754008,17.187532,0.1,103.413574,1628110001445
Fix,GT,37.316513,-121.9742231,14.067299252986908,17.953918,0.1,103.345215,1628110002445
Fix,GT,37.3164738,-121.9740223,13.950147471785543,18.716862,0.1,103.86621,1628110003445
Fix,GT,37.3164321,-121.973812,13.837748615294696,19.786743,0.1,103.961395,1628110004445
Fix,GT,37.3163882,-121.9735891,13.764749438345431,20.706223,0.1,103.60852,1628110005445
Fix,GT,37.3163458,-121.9733617,13.691047452896834,20.664112,0.1,102.72034,1628110006445
Fix,GT,37.316308,-121.9731342,13.550299237579107,20.511028,0.1,100.82495,1628110007445
Fix,GT,37.3162772,-121.9729075,13.435796490103003,20.23352,0.1,98.82086,1628110008445
Fix,GT,37.3162528,-121.9726832,13.33059727203846,19.868668,0.1,97.064514,1628110009445
Fix,GT,37.316233,-121.9724623,13.199649417638778,19.580593,0.1,95.95819,1628110010445
Fix,GT,37.3162164,-121.9722439,13.163800776004791,19.315083,0.1,94.98935,1628110011445
Fix,GT,37.316203,-121.9720275,13.254956010341644,19.161148,0.1,94.00067,1628110012445
Fix,GT,37.3161901,-121.971813,13.459852119117976,18.998863,0.1,94.45343,1628110013445
Fix,GT,37.3161766,-121.9715997,13.61385251891613,19.0069,0.1,94.71484,1628110014445
Fix,GT,37.3161623,-121.9713843,13.742402326583862,19.376404,0.1,94.78052,1628110015445
Fix,GT,37.316148,-121.9711633,13.84340232658386,19.91483,0.1,94.39978,1628110016445
Fix,GT,37.3161352,-121.9709361,13.929700748771427,20.470776,0.1,93.71777,1628110017445
Fix,GT,37.3161246,-121.9707019,13.958299252599478,21.14393,0.1,92.8136,1628110018445
Fix,GT,37.3161171,-121.9704596,13.92794866999984,21.869247,0.1,91.63165,1628110019445
Fix,GT,37.3161146,-121.9702074,13.850298835992811,22.881414,0.1,89.98285,1628110020445
Fix,GT,37.3161169,-121.9699432,13.699947845846417,23.933598,0.1,88.80481,1628110021445
Fix,GT,37.3161235,-121.9696682,13.380191463947297,24.875584,0.1,87.771545,1628110022445
Fix,GT,37.3161336,-121.9693824,12.91203972196579,25.827503,0.1,87.23236,1628110023445
Fix,GT,37.3161441,-121.9690862,12.53064553797245,26.715626,0.1,87.46124,1628110024445
Fix,GT,37.3161533,-121.9687805,12.355797263950109,27.494799,0.1,87.85364,1628110025445
Fix,GT,37.3161623,-121.9684663,12.238247452676296,28.222878,0.1,87.848724,1628110026445
Fix,GT,37.3161717,-121.9681443,12.17,28.89688,0.1,87.70114,1628110027445
Fix,GT,37.3161824,-121.9678151,12.29080429792404,29.409035,0.1,87.52557,1628110028445
Fix,GT,37.3161931,-121.9674841,12.602709316849708,29.346287,0.1,87.60437,1628110029445
Fix,GT,37.3162038,-121.9671533,13.132760304003956,29.343285,0.1,87.58011,1628110030445
Fix,GT,37.3162144,-121.9668225,13.83466538837552,29.320786,0.1,87.648285,1628110031445
Fix,GT,37.3162245,-121.9664931,14.60896425294876,29.107128,0.1,87.76282,1628110032445
Fix,GT,37.3162338,-121.9661669,15.294760709404944,28.731739,0.1,87.898254,1628110033445
Fix,GT,37.3162428,-121.9658447,15.834708489775656,28.441898,0.1,87.81857,1628110034445
Fix,GT,37.3162523,-121.9655251,16.2470073133409,28.28201,0.1,87.687775,1628110035445
Fix,GT,37.3162624,-121.965207,16.61140574678779,28.16962,0.1,87.60324,1628110036445
Fix,GT,37.3162726,-121.9648898,16.86645409655571,28.101748,0.1,87.5896,1628110037445
Fix,GT,37.3162821,-121.9645746,17.040553707540035,27.802864,0.1,88.060974,1628110038445
Fix,GT,37.3162892,-121.9642626,17.215003905057905,27.640278,0.1,88.40497,1628110039445
Fix,GT,37.316295,-121.9639498,17.17814745938778,27.864914,0.1,89.21277,1628110040445
Fix,GT,37.3162963,-121.9636338,16.996398435115815,28.149574,0.1,90.058014,1628110041445
Fix,GT,37.3162935,-121.9633146,16.612693343162537,28.426811,0.1,90.838165,1628110042445
Fix,GT,37.316289,-121.9629926,16.276290988206867,28.675625,0.1,91.00763,1628110043445
Fix,GT,37.316284,-121.9626676,15.712836862146856,28.966698,0.1,91.091736,1628110044445
Fix,GT,37.3162789,-121.9623393,15.141139147520065,29.23129,0.1,90.87366,1628110045445
Fix,GT,37.316275,-121.9620083,14.463685471892356,29.453709,0.1,90.747375,1628110046445
Fix,GT,37.316271,-121.9616745,13.636633695065974,29.749634,0.1,90.729614,1628110047445
Fix,GT,37.3162668,-121.961337,12.807733292043208,30.073421,0.1,90.801025,1628110048445
Fix,GT,37.3162625,-121.9609961,12.146841119915248,30.368984,0.1,90.698944,1628110049445
Fix,GT,37.3162596,-121.9606523,11.693043552994729,30.58355,0.1,90.45758,1628110050445
Fix,GT,37.3162561,-121.9603063,11.435597638368606,30.774113,0.1,90.845795,1628110051445
Fix,GT,37.316251,-121.9599579,11.401800448060037,30.985485,0.1,91.06653,1628110052445
Fix,GT,37.3162458,-121.9596078,11.560701526522635,31.050283,0.1,90.920654,1628110053445
Fix,GT,37.3162414,-121.9592584,11.734653351724148,30.827698,0.1,90.818085,1628110054445
Fix,GT,37.3162379,-121.9589128,11.829501972794532,30.449501,0.1,90.57474,1628110055445
Fix,GT,37.316237,-121.9585713,11.834099957972764,30.090069,0.1,89.64905,1628110056445
Fix,GT,37.3162401,-121.9582339,11.777199561089278,29.75573,0.1,89.03073,1628110057445
Fix,GT,37.3162454,-121.9579001,11.734649057596922,29.42067,0.1,88.521545,1628110058445
Fix,GT,37.3162541,-121.9575703,11.715250639259814,29.07502,0.1,87.594635,1628110059445
Fix,GT,37.3162665,-121.9572446,11.651796835899354,28.727097,0.1,86.899536,1628110060445
Fix,GT,37.3162818,-121.9569231,11.609697229743004,28.384527,0.1,86.32623,1628110061445
Fix,GT,37.3162991,-121.9566055,11.5810992590189,28.049995,0.1,85.787506,1628110062445
Fix,GT,37.3163191,-121.9562919,11.473844654142855,27.728006,0.1,84.91748,1628110063445
Fix,GT,37.3163417,-121.9559818,11.228745382875204,27.459845,0.1,84.604675,1628110064445
Fix,GT,37.3163649,-121.955675,11.009896432876587,27.1844,0.1,84.487366,1628110065445
Fix,GT,37.3163869,-121.9553712,10.813948538571594,26.89453,0.1,85.00693,1628110066445
Fix,GT,37.3164062,-121.9550706,10.730099603295326,26.5639,0.1,85.82385,1628110067445
Fix,GT,37.3164199,-121.9547734,10.687099603176115,26.224285,0.1,87.177155,1628110068445
Fix,GT,37.316429,-121.9544797,10.633247023820878,25.883343,0.1,88.212555,1628110069445
Fix,GT,37.3164342,-121.9541897,10.54429880952835,25.554012,0.1,88.88229,1628110070445
Fix,GT,37.3164388,-121.9539031,10.351247022926808,25.26873,0.1,88.797424,1628110071445
Fix,GT,37.3164431,-121.9536202,10.39645416790247,24.860931,0.1,88.73917,1628110072445
Fix,GT,37.3164478,-121.9533429,10.505952497124673,24.287983,0.1,88.6062,1628110073445
Fix,GT,37.316453,-121.9530734,10.662601907104252,23.479479,0.1,88.40228,1628110074445
Fix,GT,37.3164584,-121.9528153,10.790003974199294,22.187706,0.1,88.50708,1628110075445
Fix,GT,37.3164625,-121.9525733,10.924753307372333,20.672775,0.1,88.726074,1628110076445
Fix,GT,37.316466,-121.9523513,11.083051789999008,18.6785,0.1,88.71222,1628110077445
Fix,GT,37.31647,-121.9521502,11.189701194047927,16.797451,0.1,88.54419,1628110078445
Fix,GT,37.3164721,-121.9519739,11.278701194405556,14.513435,0.1,89.716125,1628110079445
Fix,GT,37.316468,-121.9518253,11.32664940190315,11.8829975,0.1,94.28961,1628110080445
Fix,GT,37.3164529,-121.9517077,11.327848603606224,9.208819,0.1,101.8811,1628110081445
Fix,GT,37.3164309,-121.9516196,11.279298466324809,7.072913,0.1,109.89325,1628110082445
Fix,GT,37.3164056,-121.9515621,11.247999664783478,4.6810465,0.1,121.043396,1628110083445
Fix,GT,37.3163839,-121.9515271,11.185298801660537,3.4005716,0.1,127.200745,1628110084445
Fix,GT,37.3163644,-121.9515011,11.124298800945285,3.1305838,0.1,132.59464,1628110085445
Fix,GT,37.3163427,-121.9514782,11.056649729937316,3.1088357,0.1,139.01913,1628110086445
Fix,GT,37.3163203,-121.9514606,10.99484892782569,2.7171392,0.1,146.3117,1628110087445
Fix,GT,37.3163007,-121.9514487,10.955099599838256,2.089462,0.1,152.00458,1628110088445
Fix,GT,37.3162863,-121.9514418,10.936099273711442,1.4004986,0.1,156.40857,1628110089445
Fix,GT,37.3162766,-121.9514384,10.92055012524128,0.7314098,0.1,159.36414,1628110090445
Fix,GT,37.3162736,-121.9514372,10.914000325262544,0.03165886,0.1,160.03406,1628110091445
Fix,GT,37.3162736,-121.9514372,10.910000325143338,0.0012277345,0.1,160.05627,1628110092445
Fix,GT,37.3162736,-121.9514372,10.91,0.001,0.1,160.05548,1628110093445
Fix,GT,37.3162736,-121.9514372,10.91,0.0005497995,0.1,160.05603,1628110094445
Fix,GT,37.3162736,-121.9514372,10.910000325143336,0.001,0.1,160.05627,1628110095445
Fix,GT,37.3162736,-121.9514372,10.909999674856664,0.0016795893,0.1,160.05615,1628110096445
Fix,GT,37.3162736,-121.9514372,10.909999674856664,0.0014502007,0.1,160.05634,1628110097445
Fix,GT,37.3162736,-121.9514372,10.910000325143338,0.001,0.1,160.05603,1628110098445
Fix,GT,37.3162736,-121.9514372,10.91,0.001,0.1,160.05579,1628110099445
Fix,GT,37.3162736,-121.9514372,10.91,0.0,0.1,160.05524,1628110100445
Fix,GT,37.3162736,-121.9514372,10.910000325143338,0.0,0.1,160.05518,1628110101445
Fix,GT,37.3162736,-121.9514372,10.909999674856664,0.00063668034,0.1,160.05511,1628110102445
Fix,GT,37.3162736,-121.9514372,10.909999674856664,0.0014142136,0.1,160.0553,1628110103445
Fix,GT,37.3162736,-121.9514372,10.910000325143338,0.0,0.1,160.05554,1628110104445
Fix,GT,37.3162736,-121.9514372,10.909999674856664,0.0,0.1,160.05554,1628110105445
Fix,GT,37.3162736,-121.9514372,10.91,0.00054979895,0.1,160.05554,1628110106445
Fix,GT,37.3162736,-121.9514372,10.908999674886466,0.0086554,0.1,160.05908,1628110107445
Fix,GT,37.31627,-121.9514358,10.887199196338653,1.1467252,0.1,160.40363,1628110108445
Fix,GT,37.3162521,-121.9514271,10.85039806944132,3.033927,0.1,159.27216,1628110109445
Fix,GT,37.3162214,-121.9514074,10.81155012139678,4.4898643,0.1,152.88965,1628110110445
Fix,GT,37.3161852,-121.9513712,10.953856303215026,5.7052884,0.1,139.21207,1628110111445
Fix,GT,37.3161541,-121.9513179,11.152601607322692,5.8343,0.1,123.88788,1628110112445
Fix,GT,37.3161359,-121.9512577,11.207700871378185,5.565896,0.1,108.1319,1628110113445
Fix,GT,37.3161311,-121.9511959,11.231199196338654,5.6511297,0.1,94.366,1628110114445
Fix,GT,37.3161307,-121.9511248,11.23835060274601,7.0814834,0.1,89.98929,1628110115445
Fix,GT,37.3161311,-121.9510349,11.260350938022135,8.772833,0.1,90.11676,1628110116445
Fix,GT,37.3161294,-121.9509284,11.2820003362298,10.097271,0.1,91.37933,1628110117445
Fix,GT,37.3161268,-121.9508103,11.319701540797949,10.738012,0.1,91.80652,1628110118445
Fix,GT,37.3161231,-121.9506892,11.35090073943138,10.683643,0.1,92.13092,1628110119445
Fix,GT,37.3161195,-121.9505702,11.369450539290904,10.383306,0.1,92.15857,1628110120445
Fix,GT,37.3161159,-121.9504553,11.363649737656116,9.991705,0.1,92.3761,1628110121445
Fix,GT,37.3161148,-121.9503463,11.37964973849058,9.212072,0.1,88.68445,1628110122445
Fix,GT,37.3161283,-121.9502503,11.420801140278575,8.106243,0.1,74.241516,1628110123445
Fix,GT,37.3161655,-121.950175,11.399250999212263,7.7621393,0.1,52.704803,1628110124445
Fix,GT,37.3162215,-121.9501229,11.35459726512432,7.924379,0.1,29.09491,1628110125445
Fix,GT,37.3162953,-121.9501084,11.309299140036106,8.816704,0.1,2.750061,1628110126445
Fix,GT,37.3163815,-121.9501104,11.257402392387393,10.276788,0.1,358.72974,1628110127445
Fix,GT,37.3164759,-121.9501128,11.248199538648128,10.544104,0.1,358.79523,1628110128445
Fix,GT,37.3165718,-121.9501151,11.215848607361316,10.730263,0.1,358.7243,1628110129445
Fix,GT,37.3166681,-121.9501172,11.117597614049911,10.62998,0.1,359.11313,1628110130445
Fix,GT,37.3167624,-121.9501181,11.076450198709964,10.167368,0.1,359.66446,1628110131445
Fix,GT,37.3168492,-121.9501186,11.042047816812993,9.020279,0.1,359.6354,1628110132445
Fix,GT,37.3169247,-121.9501191,10.96584861153364,7.6690187,0.1,359.6357,1628110133445
Fix,GT,37.3169848,-121.9501197,10.932450198173523,5.505747,0.1,359.54123,1628110134445
Fix,GT,37.3170229,-121.95012,10.933,2.9627044,0.1,359.49243,1628110135445
Fix,GT,37.3170415,-121.9501202,10.920999674528836,1.314024,0.1,359.54224,1628110136445
Fix,GT,37.3170476,-121.9501201,10.916999674648046,0.17483279,0.1,359.57996,1628110137445
Fix,GT,37.3170478,-121.9501201,10.912,0.0022860828,0.1,359.58423,1628110138445
Fix,GT,37.3170478,-121.9501201,10.913,0.0011864778,0.1,359.58374,1628110139445
Fix,GT,37.3170478,-121.9501201,10.913000325232744,0.0,0.1,359.58545,1628110140445
Fix,GT,37.3170478,-121.9501201,10.912999674767256,0.0011864777,0.1,359.58508,1628110141445
Fix,GT,37.3170478,-121.9501201,10.912999674767256,0.0012277358,0.1,359.585,1628110142445
Fix,GT,37.3170478,-121.9501201,10.913,0.0005498032,0.1,359.58517,1628110143445
Fix,GT,37.3170478,-121.9501201,10.913,0.001,0.1,359.58527,1628110144445
Fix,GT,37.3170478,-121.9501201,10.912999674767256,0.0,0.1,359.58505,1628110145445
Fix,GT,37.3170478,-121.9501201,10.912999674767256,0.00045019673,0.1,359.58484,1628110146445
Fix,GT,37.3170478,-121.9501201,10.913000325232744,0.0010000002,0.1,359.58484,1628110147445
Fix,GT,37.3170478,-121.9501201,10.913,0.001,0.1,359.5848,1628110148445
Fix,GT,37.3170478,-121.9501201,10.912999674767256,0.001,0.1,359.5848,1628110149445
Fix,GT,37.3170478,-121.9501201,10.913,0.0011864775,0.1,359.58487,1628110150445
Fix,GT,37.3170478,-121.9501201,10.913,0.0014142136,0.1,359.58517,1628110151445
Fix,GT,37.3170478,-121.9501201,10.913,0.001,0.1,359.5853,1628110152445
Fix,GT,37.3170478,-121.9501201,10.913,0.0004501963,0.1,359.58502,1628110153445
Fix,GT,37.3170478,-121.9501201,10.914,0.0005498038,0.1,359.585,1628110154445
Fix,GT,37.3170478,-121.9501201,10.914,0.001,0.1,359.58505,1628110155445
Fix,GT,37.3170478,-121.9501201,10.915,0.003355865,0.1,359.58432,1628110156445
Fix,GT,37.3170491,-121.9501201,10.914,0.118093766,0.1,359.59222,1628110157445
Fix,GT,37.3170493,-121.9501201,10.91244987091422,0.0032427371,0.1,359.59506,1628110158445
Fix,GT,37.3170493,-121.9501201,10.912,0.0018660724,0.1,359.59467,1628110159445
Fix,GT,37.3170493,-121.9501201,10.91199967479706,0.0011864773,0.1,359.59528,1628110160445
Fix,GT,37.3170493,-121.9501201,10.912,0.0025617494,0.1,359.5929,1628110161445
Fix,GT,37.3170493,-121.9501201,10.91199967479706,0.001,0.1,359.5927,1628110162445
Fix,GT,37.3170493,-121.9501201,10.912,0.0011864773,0.1,359.59244,1628110163445
Fix,GT,37.3170493,-121.9501201,10.912,0.0012277362,0.1,359.59274,1628110164445
Fix,GT,37.3170493,-121.9501201,10.912,0.001,0.1,359.59277,1628110165445
Fix,GT,37.3170493,-121.9501201,10.91199967479706,0.0014142136,0.1,359.59302,1628110166445
Fix,GT,37.3170493,-121.9501201,10.912,0.001,0.1,359.59293,1628110167445
Fix,GT,37.3170493,-121.9501201,10.912,0.001,0.1,359.593,1628110168445
Fix,GT,37.3170493,-121.9501201,10.912,0.001,0.1,359.59302,1628110169445
Fix,GT,37.3170493,-121.9501201,10.91199967479706,0.001,0.1,359.59286,1628110170445
Fix,GT,37.3170493,-121.9501201,10.912,0.0014501959,0.1,359.5928,1628110171445
Fix,GT,37.3170493,-121.9501201,10.912,0.0,0.1,359.5928,1628110172445
Fix,GT,37.3170493,-121.9501201,10.91199967479706,0.002,0.1,359.59326,1628110173445
Fix,GT,37.3170493,-121.9501201,10.912,0.0012277365,0.1,359.59265,1628110174445
Fix,GT,37.3170493,-121.9501201,10.912,0.0011864773,0.1,359.5929,1628110175445
Fix,GT,37.3170493,-121.9501201,10.91199967479706,0.0011864773,0.1,359.5928,1628110176445
Fix,GT,37.3170493,-121.9501201,10.91199967479706,0.0014142136,0.1,359.5929,1628110177445
Fix,GT,37.3170493,-121.9501201,10.91199967479706,0.0012277364,0.1,359.59332,1628110178445
Fix,GT,37.3170493,-121.9501201,10.912,0.0014142136,0.1,359.5934,1628110179445
Fix,GT,37.3170493,-121.9501201,10.912,0.0011864773,0.1,359.59335,1628110180445
Fix,GT,37.3170493,-121.9501201,10.912,0.001,0.1,359.5932,1628110181445
Fix,GT,37.3170493,-121.9501201,10.912,0.001,0.1,359.59338,1628110182445
Fix,GT,37.3170493,-121.9501201,10.912,0.001,0.1,359.59332,1628110183445
Fix,GT,37.3170493,-121.9501201,10.912,0.00045019586,0.1,359.59335,1628110184445
Fix,GT,37.3170493,-121.9501201,10.912,0.0012277364,0.1,359.59363,1628110185445
Fix,GT,37.3170493,-121.9501201,10.91199967479706,0.0011864773,0.1,359.59357,1628110186445
Fix,GT,37.3170493,-121.9501201,10.912,0.0006366732,0.1,359.59354,1628110187445
Fix,GT,37.3170493,-121.9501201,10.91199967479706,0.0005498041,0.1,359.59344,1628110188445
Fix,GT,37.3170493,-121.9501201,10.912,0.00063667324,0.1,359.59354,1628110189445
Fix,GT,37.3170493,-121.9501201,10.912,0.0011864773,0.1,359.59354,1628110190445
Fix,GT,37.3170493,-121.9501201,10.912,0.001,0.1,359.5935,1628110191445
Fix,GT,37.3170493,-121.9501201,10.912,0.001,0.1,359.5935,1628110192445
Fix,GT,37.3170493,-121.9501201,10.91199967479706,0.001,0.1,359.5936,1628110193445
Fix,GT,37.3170493,-121.9501201,10.91199967479706,0.0011864773,0.1,359.59354,1628110194445
Fix,GT,37.3170493,-121.9501201,10.912,0.0014142136,0.1,359.59357,1628110195445
Fix,GT,37.3170493,-121.9501201,10.912,0.0014142136,0.1,359.59338,1628110196445
Fix,GT,37.3170493,-121.9501201,10.91199967479706,0.0014142136,0.1,359.5934,1628110197445
Fix,GT,37.3170493,-121.9501201,10.912,0.0014142136,0.1,359.59357,1628110198445
Fix,GT,37.3170493,-121.9501201,10.91199967479706,0.0012277362,0.1,359.5939,1628110199445
Fix,GT,37.3170493,-121.9501201,10.912,0.0014501961,0.1,359.59378,1628110200445
Fix,GT,37.3170493,-121.9501201,10.91199967479706,0.0011864773,0.1,359.5936,1628110201445
Fix,GT,37.3170493,-121.9501201,10.912,0.00045019604,0.1,359.59357,1628110202445
Fix,GT,37.3170493,-121.9501201,10.91199967479706,0.00077754026,0.1,359.5935,1628110203445
Fix,GT,37.3170493,-121.9501201,10.912,0.0017362814,0.1,359.59406,1628110204445
Fix,GT,37.3170493,-121.9501201,10.91099967482686,0.0015564729,0.1,359.59387,1628110205445
Fix,GT,37.3170493,-121.9501201,10.911,0.001,0.1,359.5937,1628110206445
Fix,GT,37.3170493,-121.9501201,10.90954980391264,0.018155294,0.1,359.5926,1628110207445
Fix,GT,37.3170537,-121.9501201,10.892,1.1975021,0.1,359.60233,1628110208445
Fix,GT,37.317071,-121.9501202,10.87664941173792,2.6482701,0.1,359.57977,1628110209445
Fix,GT,37.3171036,-121.9501206,10.858549480259418,4.5645103,0.1,359.54144,1628110210445
Fix,GT,37.3171532,-121.9501268,10.832649411380292,6.404664,0.1,351.4949,1628110211445
Fix,GT,37.3172082,-121.9501603,10.798649411559104,7.241267,0.1,328.7576,1628110212445
Fix,GT,37.3172519,-121.9502278,10.725147129118444,8.223604,0.1,302.21448,1628110213445
Fix,GT,37.317273,-121.9503258,10.56679293227196,9.921442,0.1,278.65408,1628110214445
Fix,GT,37.3172702,-121.950448,10.420597333014012,11.771763,0.1,264.8813,1628110215445
Fix,GT,37.3172575,-121.9505909,10.510151374697683,13.756278,0.1,263.56177,1628110216445
Fix,GT,37.3172431,-121.950757,10.538099607229231,15.867186,0.1,263.8418,1628110217445
Fix,GT,37.3172278,-121.9509456,10.54970086452365,17.664627,0.1,264.29065,1628110218445
Fix,GT,37.3172116,-121.951153,10.574151060283183,19.146906,0.1,264.19534,1628110219445
Fix,GT,37.3171931,-121.9513756,10.596051452606916,20.49321,0.1,263.8959,1628110220445
Fix,GT,37.3171732,-121.9516122,10.593549803435804,21.677708,0.1,263.86978,1628110221445
Fix,GT,37.317151,-121.9518614,10.566299135059118,22.712353,0.1,263.06677,1628110222445
Fix,GT,37.3171246,-121.9521201,10.505449883639812,23.34777,0.1,262.3116,1628110223445
Fix,GT,37.3170964,-121.9523808,10.470748704314232,23.38028,0.1,262.14438,1628110224445
Fix,GT,37.3170676,-121.9526435,10.39964940959215,23.647575,0.1,262.00842,1628110225445
Fix,GT,37.3170375,-121.9529101,10.35954949441552,24.090397,0.1,261.64835,1628110226445
Fix,GT,37.3170058,-121.9531813,10.314999692589044,24.506605,0.1,261.62305,1628110227445
Fix,GT,37.3169737,-121.9534575,10.284498337715863,24.97877,0.1,261.62247,1628110228445
Fix,GT,37.316941,-121.953739,10.238605817735197,25.459305,0.1,261.63525,1628110229445
Fix,GT,37.3169081,-121.9540255,10.38510354459286,25.786438,0.1,261.8039,1628110230445
Fix,GT,37.3168754,-121.9543142,10.505601889073848,25.880081,0.1,261.80524,1628110231445
Fix,GT,37.3168425,-121.9546035,10.618852245628831,25.917572,0.1,261.62115,1628110232445
Fix,GT,37.3168087,-121.954893,10.686951849430798,25.913216,0.1,261.7222,1628110233445
Fix,GT,37.3167771,-121.9551811,10.762450517863035,25.617376,0.1,262.56012,1628110234445
Fix,GT,37.3167491,-121.9554661,10.802151701748372,25.312145,0.1,263.07596,1628110235445
Fix,GT,37.3167201,-121.9557493,10.84860157728195,25.309225,0.1,262.24286,1628110236445
Fix,GT,37.3166893,-121.956031,10.905900719255207,25.093,0.1,261.7518,1628110237445
Fix,GT,37.3166556,-121.956312,10.984099933117628,25.379879,0.1,261.21973,1628110238445
Fix,GT,37.3166216,-121.9565965,11.061701182961464,25.617676,0.1,261.59296,1628110239445
Fix,GT,37.316594,-121.9568844,11.137900726169349,25.67514,0.1,265.43695,1628110240445
Fix,GT,37.3165814,-121.9571736,11.149749346703292,25.800968,0.1,267.8883,1628110241445
Fix,GT,37.3165753,-121.9574677,11.168398755908012,26.30893,0.1,268.82526,1628110242445
Fix,GT,37.3165716,-121.9577679,11.202051773369313,27.003347,0.1,268.94305,1628110243445
Fix,GT,37.3165677,-121.9580768,11.231151379287244,27.682417,0.1,269.13403,1628110244445
Fix,GT,37.3165653,-121.9583912,11.260250985205172,28.050652,0.1,269.55685,1628110245445
Fix,GT,37.3165647,-121.9587099,11.304099942654371,28.434427,0.1,270.01694,1628110246445
Fix,GT,37.3165664,-121.959032,11.36725064665079,28.658157,0.1,270.69006,1628110247445
Fix,GT,37.3165709,-121.9593574,11.37390005519986,29.038609,0.1,271.05112,1628110248445
Fix,GT,37.3165769,-121.9596867,11.428653689563276,29.33284,0.1,271.30835,1628110249445
Fix,GT,37.3165834,-121.9600198,11.478701181530951,29.753834,0.1,271.20676,1628110250445
Fix,GT,37.3165892,-121.9603574,11.55330310061574,30.081348,0.1,271.18884,1628110251445
Fix,GT,37.3165947,-121.9606984,11.81155767530203,30.390022,0.1,270.95605,1628110252445
Fix,GT,37.3165999,-121.9610429,12.299561247348786,30.690483,0.1,270.90097,1628110253445
Fix,GT,37.3166051,-121.9613875,12.992214956998826,30.333391,0.1,271.0298,1628110254445
Fix,GT,37.3166102,-121.9617264,13.835816950142384,29.74094,0.1,271.02664,1628110255445
Fix,GT,37.3166151,-121.9620584,14.611764336913824,29.132805,0.1,270.96472,1628110256445
Fix,GT,37.31662,-121.9623836,15.34931458103657,28.537457,0.1,271.00894,1628110257445
Fix,GT,37.3166248,-121.9627022,16.038764303326605,27.968363,0.1,271.01202,1628110258445
Fix,GT,37.316629,-121.9630147,16.61390877905488,27.43888,0.1,270.81863,1628110259445
Fix,GT,37.3166333,-121.9633215,16.9677095785439,26.972345,0.1,270.86115,1628110260445
Fix,GT,37.3166356,-121.963623,17.356003945589066,26.497452,0.1,270.16254,1628110261445
Fix,GT,37.3166352,-121.9639198,17.56345019727945,26.171728,0.1,269.60788,1628110262445
Fix,GT,37.3166325,-121.9642151,17.566251509696244,26.243057,0.1,268.71234,1628110263445
Fix,GT,37.316626,-121.9645102,17.50944283425808,26.090633,0.1,268.0867,1628110264445
Fix,GT,37.3166176,-121.9648041,17.451848620712756,26.065292,0.1,267.76364,1628110265445
Fix,GT,37.3166082,-121.9650986,17.285043895423414,26.213211,0.1,267.52863,1628110266445
Fix,GT,37.3165981,-121.9653955,16.908442324697972,26.474834,0.1,267.4041,1628110267445
Fix,GT,37.316588,-121.9656954,16.442641542613508,26.72028,0.1,267.57642,1628110268445
Fix,GT,37.3165785,-121.9659972,15.95514005988836,26.776478,0.1,267.73093,1628110269445
Fix,GT,37.3165696,-121.9662989,15.422239202082157,26.764458,0.1,267.7266,1628110270445
Fix,GT,37.3165601,-121.9666014,14.792836858153343,26.917149,0.1,267.651,1628110271445
Fix,GT,37.3165505,-121.9669057,14.07243450909853,27.05952,0.1,267.6005,1628110272445
Fix,GT,37.3165402,-121.9672112,13.400438444912435,27.111467,0.1,267.41492,1628110273445
Fix,GT,37.3165292,-121.9675162,12.899441985070704,27.00322,0.1,267.21738,1628110274445
Fix,GT,37.3165178,-121.9678196,12.56784472334385,26.813873,0.1,267.2172,1628110275445
Fix,GT,37.3165068,-121.9681204,12.42604785221815,26.547882,0.1,267.37393,1628110276445
Fix,GT,37.316499,-121.9684177,12.455151365518567,26.144718,0.1,269.0071,1628110277445
Fix,GT,37.3164994,-121.9687084,12.54905212765932,25.397774,0.1,271.13855,1628110278445
Fix,GT,37.3165067,-121.9689913,12.61525059813261,24.835695,0.1,272.41223,1628110279445
Fix,GT,37.3165195,-121.9692693,12.667800400793553,24.62603,0.1,274.1773,1628110280445
Fix,GT,37.3165389,-121.9695473,12.67440233230591,24.91818,0.1,275.59802,1628110281445
Fix,GT,37.3165627,-121.9698289,12.6666976595819,25.199875,0.1,275.6771,1628110282445
Fix,GT,37.316581,-121.9701112,12.59090076303482,24.975674,0.1,273.63416,1628110283445
Fix,GT,37.3165939,-121.9703908,12.538748658180236,24.671795,0.1,272.972,1628110284445
Fix,GT,37.3166057,-121.9706668,12.48484864616394,24.302036,0.1,273.1019,1628110285445
Fix,GT,37.3166197,-121.9709379,12.400948262035849,23.819195,0.1,274.0188,1628110286445
Fix,GT,37.3166384,-121.9712018,12.26659768629074,23.128479,0.1,275.7457,1628110287445
Fix,GT,37.3166623,-121.9714573,12.123247112333775,22.481613,0.1,277.21677,1628110288445
Fix,GT,37.3166916,-121.971704,11.904044039547443,21.710358,0.1,279.14258,1628110289445
Fix,GT,37.3167262,-121.9719431,11.608593856811524,21.372791,0.1,281.0779,1628110290445
Fix,GT,37.3167689,-121.9721764,11.209139841139317,21.118816,0.1,284.45477,1628110291445
Fix,GT,37.3168236,-121.972404,10.673737556517125,21.029613,0.1,288.3857,1628110292445
Fix,GT,37.3168892,-121.9726261,10.1054425432086,20.941193,0.1,291.47385,1628110293445
Fix,GT,37.3169635,-121.9728419,9.87984836935997,20.705328,0.1,294.5724,1628110294445
Fix,GT,37.3170446,-121.9730503,9.827103138774634,20.364346,0.1,296.73825,1628110295445
Fix,GT,37.3171277,-121.973252,10.168059324979785,19.84703,0.1,297.3692,1628110296445
Fix,GT,37.3172075,-121.9734458,10.73531026685238,18.735065,0.1,296.97003,1628110297445
Fix,GT,37.3172822,-121.9736277,11.277011400461198,17.5379,0.1,297.12952,1628110298445
Fix,GT,37.3173514,-121.9737968,11.792509488463402,16.133955,0.1,296.8628,1628110299445
Fix,GT,37.3174135,-121.9739504,12.266158905148506,14.138986,0.1,297.0486,1628110300445
Fix,GT,37.3174694,-121.9740772,12.616203028678894,11.57827,0.1,300.95734,1628110301445
Fix,GT,37.3175274,-121.9741703,12.726450189054011,9.649,0.1,312.75552,1628110302445
Fix,GT,37.3175954,-121.9742315,12.711549432307482,9.029245,0.1,329.74402,1628110303445
Fix,GT,37.3176681,-121.9742644,12.671047924995422,8.170496,0.1,343.54413,1628110304445
Fix,GT,37.3177393,-121.9742815,12.616748681485651,8.029501,0.1,350.39246,1628110305445
Fix,GT,37.3178134,-121.9742903,12.69695169249177,8.514376,0.1,356.14755,1628110306445
Fix,GT,37.3178894,-121.9742868,12.728999620646238,8.355622,0.1,4.6381836,1628110307445
Fix,GT,37.3179621,-121.9742684,12.750948688566686,8.025299,0.1,14.205536,1628110308445
Fix,GT,37.3180276,-121.9742373,12.696449809402226,7.5686626,0.1,22.743286,1628110309445
Fix,GT,37.3180847,-121.9741987,12.647849063873291,6.77332,0.1,29.745728,1628110310445
Fix,GT,37.3181318,-121.974162,12.596749062776563,5.4700108,0.1,32.38733,1628110311445
Fix,GT,37.3181671,-121.9741321,12.539749063372613,4.019699,0.1,33.97342,1628110312445
Fix,GT,37.318192,-121.9741109,12.503099998414516,2.6672902,0.1,33.830353,1628110313445
Fix,GT,37.3182059,-121.9740992,12.4860996260643,1.084125,0.1,33.834198,1628110314445
Fix,GT,37.3182097,-121.9740961,12.476549813210966,0.093807876,0.1,33.828644,1628110315445
Fix,GT,37.3182097,-121.974096,12.473,0.0016796066,0.1,33.82852,1628110316445
Fix,GT,37.3182097,-121.974096,12.473,0.00054981344,0.1,33.827606,1628110317445
Fix,GT,37.3182097,-121.974096,12.474000371754167,0.0012277403,0.1,33.82782,1628110318445
Fix,GT,37.3182097,-121.974096,12.474000371754167,0.0010000002,0.1,33.827637,1628110319445
Fix,GT,37.3182097,-121.974096,12.474,0.00045018608,0.1,33.827454,1628110320445
Fix,GT,37.3182097,-121.974096,12.474,0.0005498141,0.1,33.827698,1628110321445
Fix,GT,37.3182097,-121.974096,12.474000371754167,0.00054981426,0.1,33.827667,1628110322445
Fix,GT,37.3182097,-121.974096,12.473999628245831,0.0007775549,0.1,33.82788,1628110323445
Fix,GT,37.3182097,-121.974096,12.474000371754167,0.00045018547,0.1,33.827637,1628110324445
Fix,GT,37.3182097,-121.974096,12.474,0.0,0.1,33.82776,1628110325445
Fix,GT,37.3182097,-121.974096,12.474000371754167,0.00054981484,0.1,33.827454,1628110326445
Fix,GT,37.3182097,-121.974096,12.474000371754167,0.00045018512,0.1,33.827545,1628110327445
Fix,GT,37.3182097,-121.974096,12.474,0.0,0.1,33.827576,1628110328445
Fix,GT,37.3182097,-121.974096,12.474,0.0,0.1,33.827698,1628110329445
