MessageType,Provider,LatitudeDegrees,LongitudeDegrees,AltitudeMeters,SpeedMps,AccuracyMeters,BearingDegrees,UnixTimeMillis
Fix,GT,37.394975,-122.1016878,-5.384,0.0008252649,0.1,30.59729,1615936310641
Fix,GT,37.394975,-122.1016878,-5.384,0.0009653924,0.1,30.596832,1615936311631
Fix,GT,37.394975,-122.1016878,-5.384000160455704,0.001,0.1,30.597076,1615936312644
Fix,GT,37.394975,-122.1016878,-5.384000160455704,0.00064026547,0.1,30.596802,1615936313645
Fix,GT,37.394975,-122.1016878,-5.384000160455704,0.0010000002,0.1,30.596832,1615936314649
Fix,GT,37.394975,-122.1016878,-5.384,0.0,0.1,30.596924,1615936315645
Fix,GT,37.394975,-122.1016878,-5.384,0.00039335992,0.1,30.596802,1615936316660
Fix,GT,37.394975,-122.1016878,-5.384,0.0,0.1,30.596802,1615936317651
Fix,GT,37.394975,-122.1016878,-5.384,0.0,0.1,30.596823,1615936318665
Fix,GT,37.394975,-122.1016878,-5.384,0.0,0.1,30.59674,1615936319650
Fix,GT,37.394975,-122.1016878,-5.384000160455704,0.001,0.1,30.596802,1615936320649
Fix,GT,37.394975,-122.1016878,-5.384,0.001,0.1,30.59671,1615936321661
Fix,GT,37.394975,-122.1016878,-5.384,0.001482566,0.1,30.59665,1615936322651
Fix,GT,37.394975,-122.1016878,-5.384,0.0012281652,0.1,30.596558,1615936323644
Fix,GT,37.394975,-122.1016878,-5.384,0.0012307821,0.1,30.596619,1615936324655
Fix,GT,37.394975,-122.1016878,-5.3839998395442965,0.0009999999,0.1,30.596466,1615936325646
Fix,GT,37.394975,-122.1016878,-5.384,0.0012464252,0.1,30.596375,1615936326659
Fix,GT,37.3949751,-122.1016878,-5.384,0.0,0.1,30.595978,1615936327651
Fix,GT,37.3949751,-122.1016878,-5.384,0.0016588136,0.1,30.596039,1615936328641
Fix,GT,37.3949751,-122.1016878,-5.384,0.001,0.1,30.596039,1615936329657
Fix,GT,37.394975,-122.1016878,-5.384000160455704,0.0005196086,0.1,30.59616,1615936330648
Fix,GT,37.394975,-122.1016878,-5.384,0.0019263558,0.1,30.596466,1615936331662
Fix,GT,37.3949751,-122.1016878,-5.384,0.0,0.1,30.59607,1615936332650
Fix,GT,37.394975,-122.1016878,-5.384000160455704,0.0005488904,0.1,30.596436,1615936333645
Fix,GT,37.394975,-122.1016878,-5.385,0.0011678059,0.1,30.596527,1615936334659
Fix,GT,37.394975,-122.1016878,-5.384999839514494,0.0025101032,0.1,30.597626,1615936335646
Fix,GT,37.394975,-122.1016878,-5.386,0.0016379884,0.1,30.597076,1615936336661
Fix,GT,37.394975,-122.1016878,-5.386,0.002,0.1,30.597961,1615936337651
Fix,GT,37.3949751,-122.1016878,-5.387907017111779,0.07337719,0.1,30.473175,1615936338645
Fix,GT,37.3949783,-122.1016866,-5.39,0.63425565,0.1,28.197693,1615936339657
Fix,GT,37.394986,-122.1016847,-5.395935184150934,1.0516945,0.1,22.033081,1615936340646
Fix,GT,37.3949982,-122.101683,-5.409217868328095,1.5538111,0.1,14.414368,1615936341660
Fix,GT,37.3950139,-122.1016806,-5.427051742672921,2.0082672,0.1,9.931549,1615936342652
Fix,GT,37.395035,-122.1016772,-5.441661812782288,2.7724457,0.1,8.269836,1615936343641
Fix,GT,37.3950632,-122.1016698,-5.491380759954453,3.4896364,0.1,11.685181,1615936344656
Fix,GT,37.3950954,-122.1016553,-5.540736909627915,4.2111797,0.1,19.611206,1615936345645
Fix,GT,37.3951323,-122.1016318,-5.573437330961227,4.8313913,0.1,26.733612,1615936346660
Fix,GT,37.395171,-122.1016052,-5.60953219795227,4.9395213,0.1,28.887054,1615936347651
Fix,GT,37.3952086,-122.1015777,-5.63508120650053,4.812702,0.1,30.284912,1615936348641
Fix,GT,37.3952455,-122.1015494,-5.655696168363095,4.6389217,0.1,31.509369,1615936349656
Fix,GT,37.3952791,-122.1015224,-5.630566761225461,4.241041,0.1,32.73816,1615936350647
Fix,GT,37.3953096,-122.1014979,-5.659544425547123,3.633453,0.1,32.344696,1615936351660
Fix,GT,37.3953335,-122.1014794,-5.696560490369796,2.6275153,0.1,31.709564,1615936352651
Fix,GT,37.3953497,-122.1014671,-5.741290593504905,1.6427584,0.1,31.380402,1615936353645
Fix,GT,37.3953598,-122.1014594,-5.752,1.1277719,0.1,31.263245,1615936354655
Fix,GT,37.3953686,-122.1014527,-5.760938318908215,1.3540858,0.1,31.26773,1615936355646
Fix,GT,37.3953814,-122.1014403,-5.8380164002180095,2.0987198,0.1,35.50522,1615936356661
Fix,GT,37.3953956,-122.1014183,-6.057201311707496,2.89603,0.1,47.4711,1615936357652
Fix,GT,37.3954082,-122.1013855,-5.86939890602231,3.6609635,0.1,62.096222,1615936358645
Fix,GT,37.3954149,-122.1013375,-5.785456101894379,4.876142,0.1,80.43118,1615936359656
Fix,GT,37.395408,-122.1012672,-5.706504420429468,6.638442,0.1,99.87366,1615936360749
Fix,GT,37.3953928,-122.1012125,-5.680696790456771,7.871605,0.1,110.03476,1615936361457
Fix,GT,37.395351,-122.1011062,-5.68869264125824,9.564479,0.1,117.62564,1615936362652
Fix,GT,37.3953076,-122.1010049,-5.689084175944329,10.989946,0.1,118.26434,1615936363641
Fix,GT,37.3952577,-122.1008891,-5.694,11.81772,0.1,118.246826,1615936364656
Fix,GT,37.3952064,-122.100771,-5.699392875820398,12.192184,0.1,118.49008,1615936365648
Fix,GT,37.3951525,-122.1006463,-5.786884789943695,12.561117,0.1,118.32202,1615936366661
Fix,GT,37.3950985,-122.1005222,-5.824932671189307,12.669491,0.1,118.48993,1615936367653
Fix,GT,37.3950436,-122.1003959,-5.800149914979935,13.035028,0.1,118.4389,1615936368645
Fix,GT,37.3949803,-122.1002498,-5.79789607822895,13.412443,0.1,118.38434,1615936369757
Fix,GT,37.3949404,-122.1001574,-5.7741991736888885,13.613821,0.1,118.382935,1615936370446
Fix,GT,37.3948679,-122.0999911,-5.750320857524872,14.000645,0.1,118.71945,1615936371661
Fix,GT,37.3948007,-122.099838,-5.728597895085812,14.336365,0.1,118.72977,1615936372753
Fix,GT,37.3947576,-122.0997394,-5.736686386317015,14.482626,0.1,118.62393,1615936373443
Fix,GT,37.3946809,-122.0995641,-5.769661926746369,14.716561,0.1,118.67749,1615936374656
Fix,GT,37.3946174,-122.0994188,-5.750350254178047,14.9479885,0.1,118.4892,1615936375645
Fix,GT,37.3945517,-122.0992676,-5.743405303061008,15.093136,0.1,118.44183,1615936376659
Fix,GT,37.3944871,-122.0991185,-5.741516117393971,15.1736145,0.1,118.46689,1615936377651
Fix,GT,37.3944226,-122.0989704,-5.693098663687706,14.960609,0.1,118.73935,1615936378643
Fix,GT,37.3943574,-122.098822,-5.699723715782166,14.640873,0.1,118.738495,1615936379656
Fix,GT,37.3942951,-122.0986801,-5.70532590547204,14.36161,0.1,118.57428,1615936380647
Fix,GT,37.3942328,-122.0985366,-5.643159580349923,14.267818,0.1,118.409515,1615936381657
Fix,GT,37.3941729,-122.098397,-5.597036550998688,14.038439,0.1,118.10141,1615936382649
Fix,GT,37.3941145,-122.0982601,-5.54678250309825,13.683924,0.1,117.998505,1615936383640
Fix,GT,37.3940552,-122.0981225,-5.490594136357307,13.60799,0.1,118.75586,1615936384656
Fix,GT,37.3939953,-122.0979905,-5.410115849018097,13.504534,0.1,119.86322,1615936385647
Fix,GT,37.3939329,-122.0978594,-5.386269863784313,13.234802,0.1,121.32269,1615936386657
Fix,GT,37.3938708,-122.0977349,-5.37,12.913645,0.1,122.21289,1615936387652
Fix,GT,37.3938092,-122.0976142,-5.346604733258486,12.600832,0.1,122.872375,1615936388646
Fix,GT,37.3937461,-122.0974968,-5.332712897777558,12.269049,0.1,124.41699,1615936389654
Fix,GT,37.3936837,-122.0973862,-5.301806348115205,11.944815,0.1,125.815796,1615936390646
Fix,GT,37.3936128,-122.0972679,-5.244,11.617157,0.1,127.31839,1615936391758
Fix,GT,37.3935687,-122.0971964,-5.241522304952145,11.406961,0.1,127.866455,1615936392452
Fix,GT,37.3934946,-122.0970802,-5.19585121679306,10.6770525,0.1,128.97464,1615936393642
Fix,GT,37.3934348,-122.0969894,-5.159579365968705,9.8668585,0.1,129.79706,1615936394657
Fix,GT,37.3933807,-122.0969103,-5.093181187808513,8.699301,0.1,130.68073,1615936395646
Fix,GT,37.3933327,-122.0968421,-5.037695446968078,7.1853533,0.1,131.6897,1615936396657
Fix,GT,37.3932914,-122.0967856,-4.993846114635468,5.1180477,0.1,132.62756,1615936397753
Fix,GT,37.3932724,-122.0967603,-4.96559662270546,3.628794,0.1,133.0459,1615936398460
Fix,GT,37.3932534,-122.0967353,-4.939,1.6836545,0.1,133.42383,1615936399655
Fix,GT,37.3932468,-122.0967266,-4.927347010374069,0.45438734,0.1,133.48764,1615936400665
Fix,GT,37.3932463,-122.0967258,-4.93060350805521,0.0033749104,0.1,133.50061,1615936401660
Fix,GT,37.3932463,-122.0967258,-4.929,0.0024179255,0.1,133.50177,1615936402649
Fix,GT,37.3932463,-122.0967258,-4.929,0.0017363963,0.1,133.50189,1615936403655
Fix,GT,37.3932463,-122.0967258,-4.929,0.00032220376,0.1,133.50195,1615936404667
Fix,GT,37.3932463,-122.0967258,-4.929,0.001,0.1,133.50238,1615936405663
Fix,GT,37.3932463,-122.0967258,-4.929,0.0011782097,0.1,133.50208,1615936406656
Fix,GT,37.3932463,-122.0967258,-4.929,0.0,0.1,133.5026,1615936407670
Fix,GT,37.3932463,-122.0967258,-4.929,0.0011542946,0.1,133.50256,1615936408662
Fix,GT,37.3932463,-122.0967258,-4.929,0.000434788,0.1,133.50217,1615936409656
Fix,GT,37.3932463,-122.0967258,-4.928999853104353,0.0011834118,0.1,133.50232,1615936410644
Fix,GT,37.3932463,-122.0967258,-4.929,0.00038283266,0.1,133.50189,1615936411661
Fix,GT,37.3932463,-122.0967258,-4.929,0.00069046003,0.1,133.50165,1615936412651
Fix,GT,37.3932463,-122.0967258,-4.929,0.0,0.1,133.50171,1615936413646
Fix,GT,37.3932463,-122.0967258,-4.929,0.00044638748,0.1,133.50159,1615936414655
Fix,GT,37.3932463,-122.0967258,-4.929,0.0,0.1,133.50146,1615936415646
Fix,GT,37.3932463,-122.0967258,-4.929,0.00037764353,0.1,133.50183,1615936416662
Fix,GT,37.3932463,-122.0967258,-4.929,0.0011991896,0.1,133.5011,1615936417651
Fix,GT,37.3932463,-122.0967258,-4.929,0.00078782515,0.1,133.50128,1615936418639
Fix,GT,37.3932463,-122.0967258,-4.929,0.000549253,0.1,133.50116,1615936419654
Fix,GT,37.3932463,-122.0967258,-4.929,0.001,0.1,133.50128,1615936420645
Fix,GT,37.3932463,-122.0967258,-4.929,0.0012560985,0.1,133.50122,1615936421661
Fix,GT,37.3932463,-122.0967258,-4.928,0.0016021458,0.1,133.50159,1615936422651
Fix,GT,37.3932463,-122.0967258,-4.929000146895648,0.001,0.1,133.50195,1615936423645
Fix,GT,37.3932463,-122.0967258,-4.929,0.001,0.1,133.50201,1615936424656
Fix,GT,37.3932463,-122.0967258,-4.931480255126953,0.030415945,0.1,133.50232,1615936425648
Fix,GT,37.3932426,-122.0967211,-4.937423115432263,1.2584362,0.1,133.51892,1615936426657
Fix,GT,37.3932276,-122.0967015,-4.919392231166363,3.222025,0.1,133.56091,1615936427753
Fix,GT,37.3932109,-122.0966795,-4.898238354206086,4.5531254,0.1,133.56342,1615936428444
Fix,GT,37.3931688,-122.0966242,-4.836425291538238,6.7883577,0.1,133.6388,1615936429651
Fix,GT,37.3931209,-122.0965626,-4.7830217480659485,8.593628,0.1,134.54999,1615936430639
Fix,GT,37.39306,-122.0964882,-4.688211311340332,9.903714,0.1,136.07367,1615936431659
Fix,GT,37.3929905,-122.0964071,-4.633396526038647,11.278654,0.1,137.29004,1615936432652
Fix,GT,37.3929036,-122.0963076,-4.515129935264588,12.539462,0.1,137.7362,1615936433746
Fix,GT,37.3928433,-122.0962403,-4.4119658449590204,13.087439,0.1,138.50739,1615936434446
Fix,GT,37.3927334,-122.0961226,-4.260351391851902,13.664477,0.1,140.07147,1615936435641
Fix,GT,37.3926352,-122.0960223,-4.09397966581583,13.92615,0.1,141.30142,1615936436660
Fix,GT,37.3925374,-122.0959272,-3.976901259660721,13.723593,0.1,142.54218,1615936437650
Fix,GT,37.3924401,-122.095836,-3.831707550287247,13.486347,0.1,143.3302,1615936438644
Fix,GT,37.3923418,-122.0957447,-3.7234659082293513,13.521421,0.1,143.3291,1615936439650
Fix,GT,37.3922449,-122.0956546,-3.619172870129347,13.548008,0.1,143.47891,1615936440640
Fix,GT,37.3921434,-122.0955613,-3.5437519727349285,13.73355,0.1,143.86554,1615936441664
Fix,GT,37.3920429,-122.095472,-3.463558104276657,13.929489,0.1,144.95728,1615936442653
Fix,GT,37.3919403,-122.0953832,-3.369195884823799,13.949353,0.1,145.4961,1615936443645
Fix,GT,37.3918364,-122.0952937,-3.272417210280896,13.915099,0.1,145.32806,1615936444650
Fix,GT,37.3917344,-122.0952035,-3.1220284053981304,13.963636,0.1,143.90146,1615936445644
Fix,GT,37.3916321,-122.0951064,-2.9948559637069705,14.053867,0.1,142.2128,1615936446662
Fix,GT,37.3915339,-122.0950079,-2.8768796874284748,14.172258,0.1,140.66089,1615936447651
Fix,GT,37.3914362,-122.0949051,-2.7851587391495705,14.340106,0.1,139.41522,1615936448644
Fix,GT,37.3913372,-122.0947964,-2.683712256193161,14.44453,0.1,138.31622,1615936449657
Fix,GT,37.391243,-122.0946879,-2.589654020786285,14.332409,0.1,136.4737,1615936450644
Fix,GT,37.3911509,-122.0945729,-2.4932143839597702,14.326496,0.1,134.11478,1615936451652
Fix,GT,37.391063,-122.0944543,-2.4028350977897643,14.38497,0.1,131.97205,1615936452651
Fix,GT,37.3909779,-122.0943333,-2.298336324959993,14.371748,0.1,130.86234,1615936453644
Fix,GT,37.3908934,-122.0942076,-2.214986002504826,14.370762,0.1,129.7315,1615936454657
Fix,GT,37.3908121,-122.094083,-2.147234988927841,14.434301,0.1,128.87817,1615936455647
Fix,GT,37.3907296,-122.0939532,-2.028415702104569,14.490791,0.1,128.28702,1615936456663
Fix,GT,37.3906489,-122.0938235,-1.935997526407241,14.554335,0.1,127.39493,1615936457666
Fix,GT,37.3905704,-122.0936923,-1.852240881741047,14.621807,0.1,126.188965,1615936458661
Fix,GT,37.390495,-122.0935585,-1.7674653922319412,14.724081,0.1,124.450714,1615936459650
Fix,GT,37.3904205,-122.0934181,-1.7517028744220733,14.834961,0.1,123.04028,1615936460660
Fix,GT,37.3903481,-122.0932762,-1.6278764275312425,14.962489,0.1,122.30148,1615936461662
Fix,GT,37.3902748,-122.0931311,-1.5779536324143408,15.127907,0.1,122.06534,1615936462672
Fix,GT,37.3902032,-122.0929866,-1.5499252654910087,15.30265,0.1,121.69888,1615936463662
Fix,GT,37.3901308,-122.09284,-1.4966817157268526,15.436796,0.1,121.61713,1615936464656
Fix,GT,37.3900566,-122.0926899,-1.3579839153885842,15.47134,0.1,121.838196,1615936465666
Fix,GT,37.3899835,-122.0925432,-1.280876232981682,15.490352,0.1,121.82291,1615936466656
Fix,GT,37.3899093,-122.0923941,-1.2157962138652805,15.5063305,0.1,121.904755,1615936467660
Fix,GT,37.3898355,-122.0922465,-1.1203398394584658,15.532369,0.1,121.89093,1615936468654
Fix,GT,37.3897611,-122.0920973,-1.0353077236413954,15.613575,0.1,121.764465,1615936469654
Fix,GT,37.3896857,-122.0919454,-0.9943986677527428,15.701529,0.1,121.82593,1615936470666
Fix,GT,37.3896118,-122.0917963,-0.9004406597018242,15.745991,0.1,121.69562,1615936471655
Fix,GT,37.3895374,-122.0916458,-0.8374526600837707,15.702332,0.1,121.80365,1615936472650
Fix,GT,37.3894638,-122.0914976,-0.7838334170877934,15.420962,0.1,121.66745,1615936473643
Fix,GT,37.3893901,-122.0913481,-0.7715486423969269,15.226498,0.1,121.513,1615936474658
Fix,GT,37.3893191,-122.0912043,-0.7830546602606774,15.079056,0.1,121.75827,1615936475647
Fix,GT,37.3892467,-122.0910584,-0.7644768025875092,14.945574,0.1,121.76666,1615936476660
Fix,GT,37.3891765,-122.0909168,-0.788047420501709,14.8778925,0.1,121.711945,1615936477652
Fix,GT,37.389107,-122.0907748,-0.7778572621941566,14.823769,0.1,121.34241,1615936478646
Fix,GT,37.3890366,-122.0906307,-0.7821596336364747,14.764046,0.1,121.53003,1615936479656
Fix,GT,37.3889673,-122.0904907,-0.7660650748312474,14.737476,0.1,121.71219,1615936480646
Fix,GT,37.3888967,-122.0903483,-0.7833213507533074,14.62103,0.1,121.73874,1615936481655
Fix,GT,37.3888284,-122.0902105,-0.7685352162718773,14.337143,0.1,121.84216,1615936482646
Fix,GT,37.3887607,-122.0900754,-0.7179166437983513,14.002773,0.1,122.20453,1615936483644
Fix,GT,37.3886927,-122.0899418,-0.7152698255181312,13.691327,0.1,122.61804,1615936484657
Fix,GT,37.3886268,-122.0898152,-0.7148581785261631,13.369333,0.1,123.28879,1615936485646
Fix,GT,37.3885595,-122.0896893,-0.7136201666593551,13.060844,0.1,123.98859,1615936486662
Fix,GT,37.3884943,-122.0895703,-0.7314101847410202,12.777187,0.1,124.53674,1615936487651
Fix,GT,37.3884308,-122.0894534,-0.7216226353645325,12.469532,0.1,123.85101,1615936488643
Fix,GT,37.388369,-122.0893356,-0.7038520437479019,12.159374,0.1,122.97299,1615936489657
Fix,GT,37.3883111,-122.0892222,-0.6883751701116563,11.9291935,0.1,122.22391,1615936490648
Fix,GT,37.3882544,-122.0891083,-0.705,11.684404,0.1,121.74457,1615936491656
Fix,GT,37.3881996,-122.088998,-0.6854279272556305,11.430459,0.1,121.93509,1615936492651
Fix,GT,37.3881462,-122.0888901,-0.6540987975001336,10.731202,0.1,121.69733,1615936493663
Fix,GT,37.3880978,-122.0887928,-0.674992690563202,9.542564,0.1,121.742065,1615936494658
Fix,GT,37.3880572,-122.0887106,-0.6575339356958867,7.7430267,0.1,121.58234,1615936495646
Fix,GT,37.3880247,-122.0886449,-0.6579413023591042,5.780986,0.1,121.76166,1615936496658
Fix,GT,37.388002,-122.088599,-0.6544855521321298,3.9461095,0.1,121.67108,1615936497651
Fix,GT,37.3879868,-122.0885682,-0.6454365876913071,2.5745049,0.1,121.62454,1615936498643
Fix,GT,37.3879769,-122.0885483,-0.6445757322311402,1.4983411,0.1,121.59723,1615936499657
Fix,GT,37.3879723,-122.0885389,-0.6489999806582928,0.5606946,0.1,121.60962,1615936500640
Fix,GT,37.3879709,-122.0885361,-0.6513096055984497,0.044199955,0.1,121.619385,1615936501630
Fix,GT,37.3879709,-122.088536,-0.6550000195205212,0.007130678,0.1,121.62378,1615936502644
Fix,GT,37.3879709,-122.088536,-0.654,0.0020070586,0.1,121.62387,1615936503646
Fix,GT,37.3879709,-122.088536,-0.654,0.001,0.1,121.62369,1615936504656
Fix,GT,37.3879709,-122.088536,-0.6539999805092811,0.001,0.1,121.62375,1615936505647
Fix,GT,37.3879709,-122.088536,-0.654,0.0014142136,0.1,121.62369,1615936506657
Fix,GT,37.3879709,-122.088536,-0.654,0.0014142136,0.1,121.62378,1615936507651
Fix,GT,37.3879709,-122.088536,-0.654,0.0014142136,0.1,121.62396,1615936508644
Fix,GT,37.3879709,-122.088536,-0.654,0.0014142136,0.1,121.62402,1615936509657
Fix,GT,37.3879709,-122.088536,-0.654,0.0014142136,0.1,121.62393,1615936510647
Fix,GT,37.3879709,-122.088536,-0.654,0.0011745815,0.1,121.62372,1615936511657
Fix,GT,37.3879709,-122.088536,-0.654,0.0012205702,0.1,121.62372,1615936512653
Fix,GT,37.3879709,-122.088536,-0.654,0.0,0.1,121.623535,1615936513644
Fix,GT,37.3879709,-122.088536,-0.654,0.0004824857,0.1,121.623474,1615936514651
Fix,GT,37.3879709,-122.088536,-0.654,0.001,0.1,121.62365,1615936515644
Fix,GT,37.3879709,-122.088536,-0.654,0.0,0.1,121.62366,1615936516661
Fix,GT,37.3879709,-122.0885361,-0.654,0.0,0.1,121.62378,1615936517652
Fix,GT,37.3879709,-122.0885361,-0.655,0.00090368796,0.1,121.624084,1615936518663
Fix,GT,37.3879704,-122.0885352,-0.6605581905841827,0.34869748,0.1,121.62427,1615936519655
Fix,GT,37.3879666,-122.0885274,-0.6664825066328048,1.3557758,0.1,121.53375,1615936520648
Fix,GT,37.387957,-122.0885074,-0.6716123651862145,2.7976425,0.1,121.29178,1615936521661
Fix,GT,37.3879401,-122.088472,-0.6663771366477014,4.526657,0.1,120.809235,1615936522652
Fix,GT,37.3879161,-122.0884209,-0.6465615997314453,6.1496468,0.1,120.595184,1615936523643
Fix,GT,37.3878835,-122.0883526,-0.6220778760910034,7.7549114,0.1,120.7041,1615936524655
Fix,GT,37.3878454,-122.0882726,-0.603109183549881,8.859213,0.1,120.67386,1615936525647
Fix,GT,37.3878016,-122.0881803,-0.5692731618285178,9.983513,0.1,120.49451,1615936526657
Fix,GT,37.387754,-122.0880787,-0.5240282111167908,11.005122,0.1,120.20935,1615936527651
Fix,GT,37.3877019,-122.0879672,-0.5186348890364171,12.007402,0.1,120.27246,1615936528645
Fix,GT,37.3876452,-122.0878439,-0.4531656808257103,12.875953,0.1,119.74191,1615936529656
Fix,GT,37.3875859,-122.0877148,-0.4269999872744083,13.737178,0.1,120.0235,1615936530646
Fix,GT,37.3875205,-122.0875761,-0.3509666537642478,14.333168,0.1,120.79169,1615936531660
Fix,GT,37.3874533,-122.0874373,-0.3189499646425247,14.641651,0.1,121.30237,1615936532650
Fix,GT,37.3873848,-122.0872972,-0.2766454720497131,14.645342,0.1,121.52878,1615936533644
Fix,GT,37.3873145,-122.0871548,-0.2672827730178833,14.615217,0.1,121.63199,1615936534657
Fix,GT,37.387246,-122.0870166,-0.2063814970254898,14.492792,0.1,121.81052,1615936535646
Fix,GT,37.387176,-122.086876,-0.1689486090540886,14.423559,0.1,121.849304,1615936536661
Fix,GT,37.3871082,-122.0867392,-0.1108960007429123,14.371393,0.1,121.71054,1615936537651
Fix,GT,37.3870407,-122.0866023,-0.0825016779899597,14.373962,0.1,121.73767,1615936538643
Fix,GT,37.3869713,-122.0864625,-0.053,14.376463,0.1,121.792694,1615936539656
Fix,GT,37.3869035,-122.0863262,-0.0275689263343811,14.362661,0.1,121.80011,1615936540647
Fix,GT,37.3868346,-122.0861865,-0.0649570919275283,14.396925,0.1,121.611694,1615936541659
Fix,GT,37.3867667,-122.0860495,-0.0266605147719383,14.335382,0.1,121.77545,1615936542652
Fix,GT,37.3866994,-122.0859133,-0.0459327706694603,14.306765,0.1,121.723206,1615936543643
Fix,GT,37.3866305,-122.0857744,-0.0105667588114738,14.270248,0.1,121.84943,1615936544656
Fix,GT,37.3865632,-122.0856395,0.002,14.233328,0.1,121.9949,1615936545646
Fix,GT,37.3864947,-122.0855019,-0.0084326490759849,14.196978,0.1,121.75821,1615936546656
Fix,GT,37.3864277,-122.0853664,0.0124670760631561,14.13407,0.1,121.71719,1615936547653
Fix,GT,37.3863614,-122.0852321,0.022457875072956,14.0335865,0.1,121.618774,1615936548645
Fix,GT,37.3862951,-122.0850976,0.0165075439810752,13.835797,0.1,121.7135,1615936549650
Fix,GT,37.38623,-122.0849667,0.020868424385786,13.743326,0.1,121.802155,1615936550640
Fix,GT,37.3861634,-122.084832,0.0035261375904083,13.762161,0.1,121.55231,1615936551661
Fix,GT,37.386099,-122.084701,-0.0045547612309455,13.694177,0.1,121.51944,1615936552651
Fix,GT,37.3860361,-122.0845736,-0.0050303772091865,12.9105,0.1,121.812836,1615936553642
Fix,GT,37.3859771,-122.0844555,-0.0041579999923706,11.502595,0.1,122.04108,1615936554651
Fix,GT,37.3859271,-122.0843554,-0.0054043218493461,9.595144,0.1,122.01874,1615936555640
Fix,GT,37.3858856,-122.0842718,0.002,7.4678793,0.1,121.73398,1615936556662
Fix,GT,37.3858543,-122.0842089,0.0045931876301765,5.772855,0.1,121.78299,1615936557653
Fix,GT,37.3858316,-122.0841629,0.0041238687932491,3.934782,0.1,121.7471,1615936558643
Fix,GT,37.3858164,-122.0841322,-0.0004562412798404,2.4510136,0.1,121.66583,1615936559645
Fix,GT,37.3858081,-122.0841153,-0.0084107372760772,1.0405515,0.1,121.62738,1615936560641
Fix,GT,37.3858063,-122.0841118,-0.0192493977546691,0.023624664,0.1,121.63556,1615936561662
Fix,GT,37.3858063,-122.0841118,-0.015,0.0029845356,0.1,121.63281,1615936562653
Fix,GT,37.3858063,-122.0841118,-0.0150000004470348,0.00062300364,0.1,121.63211,1615936563644
Fix,GT,37.3858063,-122.0841118,-0.014,0.00049898226,0.1,121.6322,1615936564650
Fix,GT,37.3858063,-122.0841118,-0.014,0.00059117365,0.1,121.6322,1615936565640
Fix,GT,37.3858063,-122.0841118,-0.0143783941864967,0.0012574776,0.1,121.63208,1615936566662
Fix,GT,37.3858063,-122.0841118,-0.014,0.001,0.1,121.631836,1615936567653
Fix,GT,37.3858063,-122.0841118,-0.014,0.001,0.1,121.63205,1615936568643
Fix,GT,37.3858063,-122.0841118,-0.014,0.0,0.1,121.63217,1615936569657
Fix,GT,37.3858063,-122.0841118,-0.014,0.0,0.1,121.63147,1615936570647
Fix,GT,37.3858063,-122.0841118,-0.014,0.00061592675,0.1,121.6315,1615936571661
Fix,GT,37.3858063,-122.0841118,-0.014,0.00051270606,0.1,121.63101,1615936572651
Fix,GT,37.3858063,-122.0841118,-0.0139999999999999,0.0,0.1,121.63098,1615936573643
Fix,GT,37.3858063,-122.0841118,-0.0140000004172325,0.0,0.1,121.63071,1615936574429
Fix,GT,37.3858063,-122.0841118,-0.0139999995827674,0.00070478325,0.099,121.63068,1615936575429
Fix,GT,37.3858063,-122.0841118,-0.0140000004172325,0.0,0.1,121.63104,1615936576429
Fix,GT,37.3858063,-122.0841118,-0.0140000004172325,0.0,0.1,121.63104,1615936577429
Fix,GT,37.3858063,-122.0841118,-0.0139999995827674,0.00029521654,0.1,121.63141,1615936578429
Fix,GT,37.3858063,-122.0841118,-0.0139999995827674,0.0,0.1,121.63107,1615936579429
Fix,GT,37.3858063,-122.0841118,-0.0140000004172325,0.0007047836,0.1,121.63098,1615936580429
Fix,GT,37.3858063,-122.0841118,-0.014,0.0,0.1,121.63074,1615936581429
Fix,GT,37.3858063,-122.0841118,-0.0140000004172325,0.0,0.1,121.63092,1615936582429
Fix,GT,37.3858063,-122.0841118,-0.014,0.0,0.1,121.6311,1615936583429
Fix,GT,37.3858063,-122.0841118,-0.0139999995827674,0.0,0.1,121.63098,1615936584429
Fix,GT,37.3858063,-122.0841118,-0.0139999995827674,0.0,0.1,121.631134,1615936585429
Fix,GT,37.3858063,-122.0841118,-0.014,0.0,0.1,121.63162,1615936586429
Fix,GT,37.3858063,-122.0841118,-0.0139999995827674,0.0,0.1,121.63141,1615936587429
Fix,GT,37.3858063,-122.0841118,-0.014,0.0,0.1,121.631195,1615936588429
Fix,GT,37.3858063,-122.0841118,-0.0140000004172325,0.0,0.1,121.63141,1615936589429
Fix,GT,37.3858063,-122.0841118,-0.014,0.0,0.1,121.631195,1615936590429
Fix,GT,37.3858063,-122.0841118,-0.014,0.0,0.1,121.63138,1615936591429
Fix,GT,37.3858063,-122.0841118,-0.014,0.0,0.1,121.63147,1615936592429
Fix,GT,37.3858063,-122.0841118,-0.014,0.0,0.1,121.63162,1615936593429
Fix,GT,37.3858063,-122.0841118,-0.0140000004172325,0.0,0.1,121.63168,1615936594429
Fix,GT,37.3858063,-122.0841118,-0.0139999995827674,0.0,0.1,121.63165,1615936595429
Fix,GT,37.3858063,-122.0841118,-0.0139999995827674,0.0,0.1,121.63159,1615936596429
Fix,GT,37.3858063,-122.0841118,-0.0139999995827674,0.0007047835,0.1,121.63156,1615936597429
Fix,GT,37.3858063,-122.0841118,-0.0140000004172325,0.001,0.1,121.63147,1615936598429
Fix,GT,37.3858063,-122.0841118,-0.0140000004172325,0.001,0.1,121.6315,1615936599429
Fix,GT,37.3858063,-122.0841118,-0.0139999995827674,0.0,0.1,121.631775,1615936600429
Fix,GT,37.3858063,-122.0841118,-0.0140000004172325,0.0,0.1,121.63196,1615936601429
Fix,GT,37.3858063,-122.0841118,-0.014,0.0,0.1,121.631996,1615936602429
Fix,GT,37.3858063,-122.0841118,-0.014,0.0,0.1,121.63202,1615936603429
Fix,GT,37.3858063,-122.0841118,-0.014,0.00029521668,0.1,121.63196,1615936604429
Fix,GT,37.3858063,-122.0841118,-0.014,0.0,0.1,121.6319,1615936605429
Fix,GT,37.3858063,-122.0841118,-0.014,0.0,0.1,121.631836,1615936606429
Fix,GT,37.3858063,-122.0841118,-0.0140000004172325,0.0,0.1,121.631775,1615936607429
Fix,GT,37.3858063,-122.0841118,-0.0139999995827674,0.0,0.1,121.63153,1615936608429
Fix,GT,37.3858063,-122.0841118,-0.0139999995827674,0.0,0.1,121.6319,1615936609429
Fix,GT,37.3858063,-122.0841118,-0.0139999995827674,0.0,0.099,121.631836,1615936610429
Fix,GT,37.3858063,-122.0841118,-0.0140000004172325,0.0,0.1,121.631744,1615936611429
Fix,GT,37.3858063,-122.0841118,-0.014,0.0,0.1,121.63165,1615936612429
Fix,GT,37.3858063,-122.0841118,-0.014,0.0,0.1,121.63165,1615936613429
Fix,GT,37.3858063,-122.0841118,-0.0140000004172325,0.0,0.1,121.63159,1615936614429
Fix,GT,37.3858063,-122.0841118,-0.0139999995827674,0.0,0.1,121.63156,1615936615429
Fix,GT,37.3858063,-122.0841118,-0.0139999995827674,0.0,0.1,121.63153,1615936616429
Fix,GT,37.3858063,-122.0841118,-0.0139999995827674,0.0,0.1,121.63156,1615936617429
Fix,GT,37.3858063,-122.0841118,-0.014,0.0,0.1,121.631744,1615936618429
Fix,GT,37.3858063,-122.0841118,-0.0139999995827674,0.0,0.1,121.63147,1615936619429
Fix,GT,37.3858063,-122.0841118,-0.0139999995827674,0.0,0.1,121.6315,1615936620429
Fix,GT,37.3858063,-122.0841118,-0.0140000004172325,0.0,0.1,121.63165,1615936621429
Fix,GT,37.3858063,-122.0841118,-0.0140000004172325,0.0,0.1,121.631775,1615936622429
Fix,GT,37.3858063,-122.0841118,-0.014,0.0,0.1,121.63138,1615936623429
Fix,GT,37.3858063,-122.0841118,-0.0139999995827674,0.0,0.1,121.63147,1615936624429
Fix,GT,37.3858063,-122.0841118,-0.014,0.0,0.1,121.63141,1615936625429
Fix,GT,37.3858063,-122.0841118,-0.014,0.0,0.1,121.631165,1615936626429
Fix,GT,37.3858063,-122.0841118,-0.014,0.0,0.1,121.63107,1615936627429
Fix,GT,37.3858063,-122.0841118,-0.014,0.001,0.1,121.631165,1615936628429
Fix,GT,37.3858063,-122.0841118,-0.0140000004172325,0.0007047825,0.1,121.631226,1615936629429
Fix,GT,37.3858063,-122.0841118,-0.014,0.0,0.1,121.63107,1615936630429
Fix,GT,37.3858063,-122.0841118,-0.014,0.001,0.1,121.6311,1615936631429
Fix,GT,37.3858063,-122.0841118,-0.014,0.0,0.1,121.63086,1615936632658
Fix,GT,37.3858063,-122.0841118,-0.014,0.0,0.1,121.63083,1615936633653
Fix,GT,37.3858063,-122.0841118,-0.014,0.0,0.1,121.63092,1615936634665
Fix,GT,37.3858063,-122.0841118,-0.014,0.0,0.1,121.63075,1615936635658
Fix,GT,37.3858063,-122.0841118,-0.0140000004172325,0.0,0.1,121.630615,1615936636647
Fix,GT,37.3858063,-122.0841118,-0.014,0.0,0.1,121.630745,1615936637660
Fix,GT,37.3858063,-122.0841118,-0.014,0.0,0.1,121.631165,1615936638652
Fix,GT,37.3858063,-122.0841118,-0.0139999995827674,0.0,0.1,121.631134,1615936639643
Fix,GT,37.3858063,-122.0841118,-0.014,0.00042889937,0.1,121.63138,1615936640657
Fix,GT,37.3858063,-122.0841118,-0.014,0.001,0.1,121.63135,1615936641648
Fix,GT,37.3858063,-122.0841118,-0.014,0.0,0.1,121.63107,1615936642660
Fix,GT,37.3858063,-122.0841118,-0.014,0.0,0.1,121.63098,1615936643653
Fix,GT,37.3858063,-122.0841118,-0.014,0.0,0.1,121.63095,1615936644644
Fix,GT,37.3858063,-122.0841118,-0.013,0.0,0.1,121.63104,1615936645658
Fix,GT,37.3858063,-122.0841118,-0.0140000004172325,0.0,0.1,121.63095,1615936646649
Fix,GT,37.3858063,-122.0841118,-0.013,0.001,0.1,121.6311,1615936647660
Fix,GT,37.3858063,-122.0841118,-0.014,0.00047598596,0.1,121.63104,1615936648652
Fix,GT,37.3858063,-122.0841118,-0.0139999995827674,0.0011891625,0.1,121.631165,1615936649645
Fix,GT,37.3858064,-122.0841118,-0.015,0.0038145913,0.1,121.63263,1615936650657
Fix,GT,37.3858046,-122.0841082,-0.0244709290862083,0.8830492,0.1,121.61511,1615936651647
Fix,GT,37.385797,-122.0840928,-0.034,2.3379574,0.1,121.64801,1615936652662
Fix,GT,37.385782,-122.0840627,-0.005,4.036608,0.1,121.82251,1615936653652
Fix,GT,37.385759,-122.0840166,-0.0123017798066139,5.6819263,0.1,121.88367,1615936654643
Fix,GT,37.385727,-122.0839523,-0.0310600190758705,7.5136538,0.1,121.83569,1615936655658
Fix,GT,37.3856883,-122.0838741,-0.0230496928691864,8.859918,0.1,121.74121,1615936656647
Fix,GT,37.3856423,-122.0837811,0.004056166768074,10.348035,0.1,121.67996,1615936657657
Fix,GT,37.3855904,-122.0836757,0.0171341204643249,11.664255,0.1,121.51697,1615936658652
Fix,GT,37.385533,-122.0835591,0.0343481554985046,12.741797,0.1,121.59271,1615936659644
Fix,GT,37.3854698,-122.0834312,0.0648363808989524,13.631174,0.1,121.64395,1615936660656
Fix,GT,37.385404,-122.083297,0.1238507161140441,14.456367,0.1,121.47629,1615936661648
Fix,GT,37.3853338,-122.0831546,0.1669018907546997,14.80463,0.1,121.641235,1615936662661
Fix,GT,37.3852634,-122.0830123,0.2245684449672699,15.112183,0.1,121.70148,1615936663652
Fix,GT,37.3851916,-122.082867,0.2531179759204388,15.398376,0.1,121.660645,1615936664644
Fix,GT,37.3851171,-122.0827165,0.3051104547977448,15.621002,0.1,121.73682,1615936665655
Fix,GT,37.385043,-122.0825672,0.3451482558846473,15.730316,0.1,121.89172,1615936666647
Fix,GT,37.3849666,-122.0824142,0.3940578815937042,15.792599,0.1,121.84802,1615936667661
Fix,GT,37.3848921,-122.0822638,0.4095692626833915,15.851669,0.1,121.75131,1615936668652
Fix,GT,37.3848176,-122.0821136,0.4391599468588829,15.8936825,0.1,121.79242,1615936669638
Fix,GT,37.3847411,-122.0819602,0.4542353413105011,15.895934,0.1,121.881256,1615936670646
Fix,GT,37.3846655,-122.0818075,0.5094836620092392,15.851221,0.1,121.66742,1615936671648
Fix,GT,37.38459,-122.0816544,0.5505268650650978,15.675116,0.1,121.637085,1615936672659
Fix,GT,37.3845164,-122.0815058,0.6391192510128021,15.497841,0.1,121.65503,1615936673652
Fix,GT,37.3844444,-122.0813603,0.6907724840044975,15.345621,0.1,121.78708,1615936674635
Fix,GT,37.3843707,-122.0812118,0.7405711179971695,15.164216,0.1,121.86569,1615936675650
Fix,GT,37.3842993,-122.0810678,0.787271684318781,14.997323,0.1,121.57184,1615936676646
Fix,GT,37.3842276,-122.0809223,0.8777371767759323,14.815282,0.1,121.74457,1615936677662
Fix,GT,37.3841582,-122.0807823,0.925662784218788,14.72633,0.1,121.70526,1615936678651
Fix,GT,37.3840891,-122.0806431,0.990080340832472,14.661707,0.1,121.7775,1615936679638
Fix,GT,37.3840185,-122.0805014,1.0424825839698315,14.593312,0.1,121.88324,1615936680649
Fix,GT,37.3839494,-122.0803621,1.087318474173546,14.535333,0.1,121.713135,1615936681647
Fix,GT,37.3838793,-122.0802206,1.1089465808868408,14.525633,0.1,121.73459,1615936682663
Fix,GT,37.3838113,-122.0800827,1.16274562394619,14.463795,0.1,121.48709,1615936683653
Fix,GT,37.3837443,-122.0799463,1.2166344492435457,14.401022,0.1,121.64365,1615936684636
Fix,GT,37.3836749,-122.0798067,1.295489156186581,14.334161,0.1,121.90253,1615936685649
Fix,GT,37.3836064,-122.07967,1.3938002373874188,14.283806,0.1,122.07068,1615936686648
Fix,GT,37.3835377,-122.0795323,1.4915788679122923,14.114729,0.1,121.84003,1615936687659
Fix,GT,37.3834718,-122.0793995,1.5746551041007042,13.789333,0.1,121.786865,1615936688651
Fix,GT,37.3834076,-122.07927,1.6490236487984655,13.419161,0.1,121.66116,1615936689644
Fix,GT,37.3833442,-122.0791415,1.7051261997818947,13.031544,0.1,121.60156,1615936690656
Fix,GT,37.3832842,-122.0790196,1.7790337088108064,12.79369,0.1,121.59375,1615936691641
Fix,GT,37.3832246,-122.0788971,1.8478340783715248,12.803539,0.1,120.77249,1615936692631
Fix,GT,37.3831688,-122.0787703,1.960242931813002,12.473688,0.1,117.543976,1615936693645
Fix,GT,37.3831188,-122.0786468,2.074828358054161,12.082415,0.1,116.548065,1615936694644
Fix,GT,37.3830692,-122.0785257,2.169447723686695,11.737277,0.1,117.83786,1615936695655
Fix,GT,37.3830185,-122.078414,2.225900514006615,11.142801,0.1,120.14331,1615936696647
Fix,GT,37.3829687,-122.07831,2.2923979263305663,10.023217,0.1,121.21655,1615936697659
Fix,GT,37.3829247,-122.0782204,2.359060686349869,8.724606,0.1,121.71155,1615936698653
Fix,GT,37.3828873,-122.0781444,2.401884455442429,7.1653337,0.1,121.50665,1615936699644
Fix,GT,37.3828569,-122.0780823,2.431347718954086,5.549119,0.1,121.53323,1615936700658
Fix,GT,37.3828343,-122.078037,2.4519518789052963,4.151472,0.1,121.800964,1615936701647
Fix,GT,37.3828168,-122.0780021,2.476217256784439,3.0649376,0.1,122.10956,1615936702660
Fix,GT,37.3828043,-122.0779772,2.489039930820465,2.233296,0.1,122.142914,1615936703651
Fix,GT,37.3827958,-122.0779603,2.503919272184372,1.3251727,0.1,122.192535,1615936704645
Fix,GT,37.3827919,-122.0779525,2.513556245625019,0.2795952,0.1,122.23566,1615936705655
Fix,GT,37.3827917,-122.077952,2.524465428829193,0.0044636563,0.1,122.24744,1615936706646
Fix,GT,37.3827917,-122.077952,2.527,0.0016972647,0.1,122.24771,1615936707656
Fix,GT,37.3827917,-122.077952,2.529,0.0014142136,0.1,122.24774,1615936708653
Fix,GT,37.3827917,-122.077952,2.53,0.001,0.1,122.24774,1615936709643
Fix,GT,37.3827917,-122.077952,2.531,0.0004289604,0.1,122.24802,1615936710657
Fix,GT,37.3827917,-122.077952,2.531,0.001,0.1,122.24823,1615936711647
Fix,GT,37.3827917,-122.077952,2.531,0.00059783814,0.1,122.24811,1615936712659
Fix,GT,37.3827917,-122.077952,2.531,0.001,0.1,122.24805,1615936713652
Fix,GT,37.3827917,-122.077952,2.530999924570322,0.0,0.1,122.24835,1615936714643
Fix,GT,37.3827917,-122.077952,2.531,0.00045072523,0.1,122.24835,1615936715654
Fix,GT,37.3827917,-122.077952,2.531,0.0,0.1,122.24838,1615936716647
Fix,GT,37.3827917,-122.077952,2.531,0.0,0.1,122.248474,1615936717660
Fix,GT,37.3827917,-122.077952,2.531,0.0,0.1,122.248474,1615936718652
Fix,GT,37.3827917,-122.077952,2.531,0.0,0.1,122.248474,1615936719643
Fix,GT,37.3827917,-122.077952,2.531,0.0,0.1,122.24844,1615936720658
Fix,GT,37.3827917,-122.077952,2.531000075429678,0.0,0.1,122.24838,1615936721647
Fix,GT,37.3827917,-122.077952,2.531,0.0,0.1,122.24832,1615936722660
Fix,GT,37.3827917,-122.077952,2.531,0.0,0.1,122.24829,1615936723651
Fix,GT,37.3827917,-122.077952,2.530999924570322,0.0,0.1,122.24811,1615936724643
Fix,GT,37.3827917,-122.077952,2.531,0.0,0.1,122.24811,1615936725657
Fix,GT,37.3827917,-122.077952,2.530999924570322,0.0,0.1,122.24814,1615936726647
Fix,GT,37.3827917,-122.077952,2.531,0.0006120474,0.1,122.24823,1615936727661
Fix,GT,37.3827917,-122.077952,2.531,0.0,0.1,122.24817,1615936728651
Fix,GT,37.3827917,-122.077952,2.531000075429678,0.0,0.1,122.24811,1615936729644
Fix,GT,37.3827917,-122.077952,2.531,0.0,0.1,122.24805,1615936730656
Fix,GT,37.3827917,-122.077952,2.531,0.0,0.1,122.24817,1615936731647
Fix,GT,37.3827917,-122.077952,2.532,0.00038489533,0.1,122.24823,1615936732661
Fix,GT,37.3827917,-122.077952,2.5320000754594805,0.0005243106,0.1,122.24811,1615936733647
Fix,GT,37.3827917,-122.077952,2.532,0.0014142136,0.1,122.24805,1615936734644
Fix,GT,37.3827917,-122.077952,2.533,0.0021570555,0.1,122.249115,1615936735657
Fix,GT,37.3827908,-122.0779502,2.53,0.49610645,0.1,122.26077,1615936736648
Fix,GT,37.3827863,-122.0779413,2.533600000858307,1.4386536,0.1,122.27344,1615936737660
Fix,GT,37.3827768,-122.0779227,2.5475295892357823,2.549114,0.1,122.28967,1615936738650
Fix,GT,37.3827613,-122.0778919,2.5683189187049864,3.9353876,0.1,122.26614,1615936739643
Fix,GT,37.3827402,-122.0778463,2.5832170862555506,5.301573,0.1,119.13284,1615936740655
Fix,GT,37.3827232,-122.0777847,2.6467686511576174,6.17713,0.1,106.19714,1615936741647
Fix,GT,37.3827207,-122.0777131,2.6613882656693457,6.240632,0.1,89.026,1615936742661
Fix,GT,37.3827334,-122.0776459,2.619920210242272,6.1634054,0.1,74.003296,1615936743650
Fix,GT,37.3827594,-122.0775837,2.5291319497823714,6.36811,0.1,59.61075,1615936744645
Fix,GT,37.3827997,-122.0775276,2.321225147724152,6.8505945,0.1,44.70526,1615936745658
Fix,GT,37.3828513,-122.0774817,2.217532307803631,7.3352413,0.1,33.37378,1615936746646
Fix,GT,37.3829103,-122.0774355,2.063096306562424,8.02432,0.1,31.775665,1615936747659
Fix,GT,37.3829747,-122.077387,2.033770030617714,8.790806,0.1,30.433197,1615936748651
Fix,GT,37.3830459,-122.0773355,1.994119452267885,9.569752,0.1,29.77951,1615936749644
Fix,GT,37.3831244,-122.0772787,1.9092347230911253,10.285243,0.1,30.214294,1615936750654
Fix,GT,37.3832038,-122.0772197,1.8022460402250289,10.294196,0.1,30.655396,1615936751647
Fix,GT,37.3832849,-122.0771591,1.6607364711761474,10.447012,0.1,30.724121,1615936752660
Fix,GT,37.3833658,-122.0770991,1.550853613138199,10.645741,0.1,30.363342,1615936753651
Fix,GT,37.3834497,-122.0770373,1.4710907656550407,11.073874,0.1,30.453888,1615936754643
Fix,GT,37.3835372,-122.0769721,1.4128654819726942,11.237441,0.1,30.701813,1615936755656
Fix,GT,37.3836236,-122.0769071,1.3697761752009392,11.314426,0.1,30.888367,1615936756646
Fix,GT,37.3837117,-122.0768407,1.3207701555490494,11.141432,0.1,30.843323,1615936757661
Fix,GT,37.3837961,-122.0767769,1.2924431747198106,10.949604,0.1,31.354584,1615936758651
Fix,GT,37.3838785,-122.0767127,1.2707744689583778,10.772482,0.1,31.955261,1615936759643
Fix,GT,37.3839613,-122.0766473,1.1529804898500442,10.68536,0.1,32.142456,1615936760657
Fix,GT,37.3840416,-122.0765841,1.017663497775793,10.600103,0.1,32.05127,1615936761646
Fix,GT,37.3841231,-122.07652,0.8881239011287689,10.496849,0.1,32.04825,1615936762658
Fix,GT,37.3842022,-122.0764575,0.8077074270248412,10.360786,0.1,32.13669,1615936763652
Fix,GT,37.3842798,-122.0763959,0.7400765037238598,10.220459,0.1,32.41913,1615936764643
Fix,GT,37.3843577,-122.0763334,0.6743412193059921,10.085398,0.1,32.628174,1615936765655
Fix,GT,37.3844329,-122.0762727,0.6257232096791268,9.908382,0.1,32.601044,1615936766647
Fix,GT,37.3845084,-122.0762123,0.590592465698719,9.737028,0.1,32.614655,1615936767659
Fix,GT,37.3845811,-122.076154,0.5769130523204803,9.584528,0.1,32.50824,1615936768652
Fix,GT,37.3846529,-122.0760968,0.5392986197471619,9.441598,0.1,32.204773,1615936769645
Fix,GT,37.3847252,-122.0760406,0.4878605830669402,9.240437,0.1,31.775879,1615936770653
Fix,GT,37.3847922,-122.075989,0.4542076073288917,8.091673,0.1,31.262634,1615936771647
Fix,GT,37.3848483,-122.075947,0.4275962419509888,6.2767067,0.1,30.748138,1615936772660
Fix,GT,37.3848902,-122.0759161,0.3879648039340972,4.595684,0.1,30.352753,1615936773650
Fix,GT,37.3849215,-122.0758932,0.3601183407604694,3.6545763,0.1,30.14273,1615936774644
Fix,GT,37.3849476,-122.0758744,0.3414301823377609,2.871633,0.1,29.669678,1615936775656
Fix,GT,37.3849665,-122.0758614,0.3488967775106429,1.8081659,0.1,29.422913,1615936776648
Fix,GT,37.384975,-122.0758554,0.3347507650852204,0.36821276,0.1,29.331879,1615936777662
Fix,GT,37.3849755,-122.075855,0.3294823772907257,0.0023996145,0.1,29.32138,1615936778651
Fix,GT,37.3849755,-122.075855,0.3309999901354313,0.001,0.1,29.321503,1615936779640
Fix,GT,37.3849755,-122.075855,0.331,0.000640006,0.1,29.321167,1615936780654
Fix,GT,37.3849755,-122.075855,0.3309999901354313,0.00052351074,0.1,29.321411,1615936781647
Fix,GT,37.3849755,-122.075855,0.331,0.00060993165,0.1,29.321472,1615936782656
Fix,GT,37.3849755,-122.075855,0.331,0.0005148386,0.1,29.321106,1615936783651
Fix,GT,37.3849755,-122.075855,0.3309999901354313,0.0,0.1,29.321075,1615936784645
Fix,GT,37.3849755,-122.075855,0.331,0.0,0.1,29.320953,1615936785656
Fix,GT,37.3849755,-122.075855,0.3309999901354313,0.00052147463,0.1,29.320953,1615936786647
Fix,GT,37.3849755,-122.075855,0.331,0.0008807974,0.1,29.321075,1615936787662
Fix,GT,37.3849755,-122.075855,0.331,0.0022299706,0.1,29.32074,1615936788654
Fix,GT,37.3849763,-122.0758545,0.324,0.37940437,0.1,29.308258,1615936789661
Fix,GT,37.3849821,-122.0758503,0.3220010507404804,1.1357466,0.1,29.240479,1615936790649
Fix,GT,37.3849946,-122.0758417,0.3045770680904388,2.0171425,0.1,29.106262,1615936791647
Fix,GT,37.3850142,-122.0758303,0.2763834967017174,2.683279,0.1,25.48175,1615936792661
Fix,GT,37.3850404,-122.0758223,0.271,3.2982774,0.1,14.883179,1615936793652
Fix,GT,37.3850725,-122.0758249,0.2472181071043014,3.9241977,0.1,357.53867,1615936794639
Fix,GT,37.3851045,-122.0758429,0.1882196094989776,4.064107,0.1,335.69385,1615936795589
Fix,GT,37.3851354,-122.0758826,0.1108527840971946,4.3349643,0.1,313.60526,1615936796768
Fix,GT,37.3851556,-122.0759206,0.0370668702125549,4.6751256,0.1,303.69345,1615936797661
Fix,GT,37.3851776,-122.0759668,0.035,4.941713,0.1,300.85364,1615936798652
Fix,GT,37.385201,-122.0760166,0.0016220643520355,5.231766,0.1,300.63095,1615936799659
Fix,GT,37.3852259,-122.076068,-0.0350192601680755,5.4998693,0.1,301.19528,1615936800650
Fix,GT,37.3852522,-122.0761221,-0.0578786887526512,5.746764,0.1,301.22906,1615936801648
Fix,GT,37.3852799,-122.0761787,-0.1075476670265197,5.8173056,0.1,301.3399,1615936802659
Fix,GT,37.3853068,-122.076234,-0.1641351042985916,5.7292724,0.1,301.29242,1615936803652
Fix,GT,37.3853338,-122.0762891,-0.224427083492279,5.6494503,0.1,301.55875,1615936804657
Fix,GT,37.3853603,-122.076342,-0.2753306465744972,5.54445,0.1,301.99658,1615936805647
Fix,GT,37.3853869,-122.0763945,-0.3224958505034446,5.4640207,0.1,302.31146,1615936806649
Fix,GT,37.3854131,-122.0764471,-0.3458392565250396,5.3511267,0.1,301.53104,1615936807661
Fix,GT,37.3854375,-122.0764978,-0.3686878982782364,5.2182274,0.1,301.0145,1615936808653
Fix,GT,37.3854612,-122.0765468,-0.2921120014190673,5.047827,0.1,301.16675,1615936809644
Fix,GT,37.3854855,-122.0765956,-0.4625141844749451,4.9896545,0.1,301.83783,1615936810658
Fix,GT,37.385509,-122.0766421,-0.476415229678154,4.940734,0.1,302.33264,1615936811647
Fix,GT,37.3855341,-122.0766905,-0.513,5.0557737,0.1,302.92148,1615936812661
Fix,GT,37.3855587,-122.0767371,-0.5485415393710137,4.9517765,0.1,303.2154,1615936813651
Fix,GT,37.3855808,-122.0767827,-0.5827758166491985,4.4167686,0.1,300.31003,1615936814644
Fix,GT,37.3855919,-122.0768263,-0.5894448108673096,3.70765,0.1,286.12207,1615936815655
Fix,GT,37.3855898,-122.0768669,-0.5984704207479954,3.4751046,0.1,267.38605,1615936816647
Fix,GT,37.3855761,-122.0769022,-0.5947970346212387,3.2744007,0.1,245.38339,1615936817659
Fix,GT,37.3855538,-122.076928,-0.6254859815835953,3.5028825,0.1,225.30788,1615936818651
Fix,GT,37.385526,-122.07695,-0.628,3.8118792,0.1,213.66512,1615936819643
Fix,GT,37.3854953,-122.0769731,-0.5888924884796143,4.0585737,0.1,211.28317,1615936820655
Fix,GT,37.3854631,-122.0769967,-0.5656597629189491,4.2918673,0.1,210.24615,1615936821647
Fix,GT,37.3854279,-122.0770215,-0.529,4.565978,0.1,209.24849,1615936822658
Fix,GT,37.3853913,-122.0770474,-0.5069779967069626,4.827199,0.1,209.50981,1615936823651
Fix,GT,37.385353,-122.0770751,-0.4682545640468597,5.056157,0.1,210.06323,1615936824643
Fix,GT,37.385313,-122.0771049,-0.4288467577695846,5.0649786,0.1,210.63211,1615936825655
Fix,GT,37.3852753,-122.0771338,-0.3890477393865585,4.830928,0.1,211.63184,1615936826647
Fix,GT,37.3852387,-122.0771629,-0.34821928358078,4.7045364,0.1,212.16101,1615936827659
Fix,GT,37.3852036,-122.0771914,-0.3188616545200348,4.677214,0.1,212.93486,1615936828652
Fix,GT,37.3851686,-122.0772204,-0.2862135826349258,4.723276,0.1,213.39035,1615936829644
Fix,GT,37.3851321,-122.0772507,-0.2651291488409042,4.867281,0.1,213.17685,1615936830656
Fix,GT,37.3850953,-122.0772794,-0.2444800331890583,4.771418,0.1,211.53386,1615936831648
Fix,GT,37.3850581,-122.0773064,-0.2052273823022842,4.660655,0.1,210.06989,1615936832661
Fix,GT,37.3850217,-122.0773324,-0.179519383251667,4.7609816,0.1,209.61478,1615936833651
Fix,GT,37.3849841,-122.0773594,-0.1502952966690063,4.9768744,0.1,209.67447,1615936834642
Fix,GT,37.3849436,-122.0773887,-0.1061551092267036,5.294135,0.1,209.99683,1615936835653
Fix,GT,37.3849025,-122.0774188,-0.0668410518467426,5.2363853,0.1,210.26254,1615936836648
Fix,GT,37.3848622,-122.0774485,-0.0337482392191886,5.025226,0.1,210.24043,1615936837660
Fix,GT,37.3848233,-122.0774765,0.0016392829418182,5.036976,0.1,209.85794,1615936838652
Fix,GT,37.3847839,-122.0775045,0.0244361180961132,5.120227,0.1,209.22133,1615936839643
Fix,GT,37.3847427,-122.077533,0.0713459960222244,5.2054863,0.1,208.81587,1615936840655
Fix,GT,37.3847013,-122.0775616,0.1063737981915474,5.3907213,0.1,208.90213,1615936841647
Fix,GT,37.3846574,-122.077592,0.140089672923088,5.58354,0.1,208.82045,1615936842661
Fix,GT,37.3846136,-122.0776221,0.1825561824440956,5.626239,0.1,208.6042,1615936843651
Fix,GT,37.3845691,-122.0776525,0.2300739050507545,5.7026362,0.1,208.47305,1615936844643
Fix,GT,37.3845229,-122.0776836,0.2603356333971023,5.8224173,0.1,208.37099,1615936845655
Fix,GT,37.3844765,-122.0777153,0.3099502077102661,6.0089865,0.1,208.49034,1615936846648
Fix,GT,37.3844276,-122.0777487,0.347402040541172,6.236122,0.1,208.53113,1615936847659
Fix,GT,37.3843777,-122.0777829,0.3921321623325348,6.4471397,0.1,208.5572,1615936848653
Fix,GT,37.3843263,-122.0778179,0.4462403874695301,6.656514,0.1,208.44136,1615936849644
Fix,GT,37.384272,-122.0778547,0.5001654963493347,6.8602734,0.1,208.26941,1615936850658
Fix,GT,37.3842174,-122.0778918,0.5608604761362075,7.0649967,0.1,208.618,1615936851647
Fix,GT,37.3841603,-122.0779317,0.6042314186096192,7.271053,0.1,209.09363,1615936852660
Fix,GT,37.3841027,-122.0779723,0.6456277217268944,7.5636773,0.1,209.17937,1615936853652
Fix,GT,37.3840425,-122.0780143,0.6907147296071052,7.813845,0.1,209.00029,1615936854645
Fix,GT,37.3839794,-122.0780581,0.7564531698226928,8.040925,0.1,208.91374,1615936855655
Fix,GT,37.3839163,-122.0781021,0.8208964989185332,8.077268,0.1,208.9636,1615936856647
Fix,GT,37.3838518,-122.0781473,0.862761472582817,8.082035,0.1,209.01294,1615936857661
Fix,GT,37.3837889,-122.0781912,0.9285779899954796,8.075455,0.1,209.02338,1615936858651
Fix,GT,37.383726,-122.0782354,0.988841479420662,8.044728,0.1,209.38777,1615936859642
Fix,GT,37.3836632,-122.0782808,1.0355965223312378,7.8347526,0.1,209.99574,1615936860655
Fix,GT,37.3836036,-122.0783248,1.087951664239168,7.633194,0.1,210.57675,1615936861647
Fix,GT,37.3835448,-122.0783692,1.1193402984142304,7.4060383,0.1,211.15576,1615936862661
Fix,GT,37.3834899,-122.0784127,1.1869459371566773,7.1448326,0.1,212.43651,1615936863652
Fix,GT,37.3834378,-122.078456,1.239901343822479,6.766699,0.1,213.74916,1615936864643
Fix,GT,37.3833905,-122.078497,1.3092365727424622,5.755814,0.1,214.63124,1615936865655
Fix,GT,37.3833549,-122.0785298,1.3668699505627155,4.006007,0.1,216.43073,1615936866646
Fix,GT,37.3833324,-122.0785519,1.3577347409725191,2.3947258,0.1,217.64365,1615936867656
Fix,GT,37.3833191,-122.0785654,1.3586879687309266,1.4381287,0.1,218.2715,1615936868651
Fix,GT,37.3833111,-122.0785738,1.3948855484724043,1.1197102,0.1,219.04419,1615936869644
Fix,GT,37.3833023,-122.0785846,1.4167256073951722,1.6397502,0.1,222.05919,1615936870657
Fix,GT,37.3832909,-122.0786053,1.4753219990730286,2.4981744,0.1,231.8122,1615936871748
Fix,GT,37.3832833,-122.0786268,1.5413729494810102,3.302907,0.1,241.45824,1615936872459
Fix,GT,37.3832758,-122.0786807,1.6500118433237074,4.873805,0.1,261.55365,1615936873650
Fix,GT,37.3832805,-122.0787433,1.7276784930229188,6.2533817,0.1,277.17685,1615936874644
Fix,GT,37.3832983,-122.0788186,1.80066147595644,7.5212336,0.1,288.55734,1615936875655
Fix,GT,37.3833287,-122.0789003,1.7747573817372322,8.568063,0.1,296.70013,1615936876647
Fix,GT,37.3833699,-122.0789905,1.7220048961043355,9.57583,0.1,300.06628,1615936877659
Fix,GT,37.3834159,-122.0790867,1.673783352613449,10.447444,0.1,301.1293,1615936878651
Fix,GT,37.3834665,-122.0791904,1.616374467909336,11.232143,0.1,301.3054,1615936879643
Fix,GT,37.3835209,-122.0793025,1.5225028434395789,11.821955,0.1,301.15207,1615936880649
Fix,GT,37.3835766,-122.0794184,1.477226921975613,12.3504505,0.1,300.88766,1615936881640
Fix,GT,37.3836349,-122.0795387,1.4774147623181344,12.748529,0.1,301.39142,1615936882631
Fix,GT,37.3836971,-122.0796652,1.3793996121883392,13.018084,0.1,301.6126,1615936883651
Fix,GT,37.38376,-122.0797929,1.3094112269878388,13.203152,0.1,301.5921,1615936884664
Fix,GT,37.3838221,-122.0799194,1.2478943803310396,13.363071,0.1,301.62335,1615936885655
Fix,GT,37.3838853,-122.0800476,1.171373981773853,13.51421,0.1,301.70633,1615936886647
Fix,GT,37.3839508,-122.0801794,1.1358844226002691,13.567387,0.1,301.93372,1615936887662
Fix,GT,37.3840151,-122.0803079,1.0783325725197792,13.56316,0.1,302.01837,1615936888652
Fix,GT,37.3840793,-122.0804368,0.9937674141526224,13.555932,0.1,301.7984,1615936889644
Fix,GT,37.3841441,-122.0805685,0.9576721975803376,13.558397,0.1,301.5364,1615936890655
Fix,GT,37.3842077,-122.0806975,0.8886941833496094,13.543245,0.1,301.56955,1615936891647
Fix,GT,37.3842724,-122.0808285,0.6093785173892975,13.507532,0.1,301.83905,1615936892660
Fix,GT,37.3843365,-122.0809573,0.4691023607254028,13.49165,0.1,301.83206,1615936893657
Fix,GT,37.3843998,-122.0810846,0.5480134345293045,13.465537,0.1,301.89584,1615936894642
Fix,GT,37.384465,-122.0812151,0.505,13.505653,0.1,301.8943,1615936895653
Fix,GT,37.3845285,-122.0813433,0.481825694233179,13.5428505,0.1,301.65125,1615936896641
Fix,GT,37.3845932,-122.0814748,0.436022833108902,13.587851,0.1,301.63837,1615936897649
Fix,GT,37.3846577,-122.0816049,0.3500700634717941,13.655669,0.1,301.83606,1615936898644
Fix,GT,37.3847226,-122.081736,0.3011328803300858,13.717417,0.1,301.6037,1615936899643
Fix,GT,37.3847889,-122.0818699,0.2775783009529113,13.826082,0.1,301.7996,1615936900657
Fix,GT,37.384854,-122.0820014,0.250081719994545,13.870664,0.1,301.7409,1615936901645
Fix,GT,37.3849211,-122.0821365,0.2368970155715942,13.828737,0.1,301.79898,1615936902662
Fix,GT,37.3849855,-122.0822667,0.2338595009744167,13.793278,0.1,301.68005,1615936903645
Fix,GT,37.3850505,-122.0823989,0.21100000628829,13.748037,0.1,301.54333,1615936904643
Fix,GT,37.3851162,-122.0825326,0.177,13.743664,0.1,301.53033,1615936905655
Fix,GT,37.3851805,-122.0826628,0.2058939315080643,13.557367,0.1,301.65536,1615936906648
Fix,GT,37.3852448,-122.0827933,0.1664061290025711,13.279899,0.1,301.4989,1615936907659
Fix,GT,37.3853063,-122.0829188,0.1369483736753464,12.981447,0.1,301.53586,1615936908652
Fix,GT,37.3853662,-122.0830398,0.1316650722026825,12.672955,0.1,301.8308,1615936909635
Fix,GT,37.3854266,-122.0831611,0.1117070649266243,12.360605,0.1,301.92108,1615936910647
Fix,GT,37.3854846,-122.0832771,0.0491657558381557,11.8346195,0.1,301.89362,1615936911647
Fix,GT,37.3855391,-122.0833864,0.0188310585021972,10.662045,0.1,301.87625,1615936912658
Fix,GT,37.3855867,-122.0834819,-0.0222357664108276,9.342166,0.1,301.99014,1615936913652
Fix,GT,37.385627,-122.0835623,-0.0481630010008811,7.6698,0.1,302.03653,1615936914638
Fix,GT,37.3856597,-122.0836273,-0.0495258446037769,5.747443,0.1,302.04236,1615936915647
Fix,GT,37.3856818,-122.0836715,-0.0614464606046676,3.524231,0.1,301.92447,1615936916648
Fix,GT,37.3856948,-122.0836978,-0.060393432021141,1.9207847,0.1,301.8383,1615936917660
Fix,GT,37.3857004,-122.0837089,-0.059,0.548941,0.1,301.80878,1615936918651
Fix,GT,37.385701,-122.0837102,-0.0606197939515113,0.001256727,0.1,301.8102,1615936919638
Fix,GT,37.385701,-122.0837102,-0.059,0.0016050951,0.1,301.80746,1615936920648
Fix,GT,37.385701,-122.0837102,-0.0580000017285347,0.0004824243,0.1,301.80762,1615936921648
Fix,GT,37.385701,-122.0837102,-0.0579999999999999,0.0006141399,0.1,301.80762,1615936922661
Fix,GT,37.385701,-122.0837102,-0.058,0.0014142136,0.1,301.80768,1615936923652
Fix,GT,37.385701,-122.0837102,-0.0580000017285347,0.0,0.1,301.8075,1615936924638
Fix,GT,37.385701,-122.0837102,-0.058,0.0,0.1,301.80756,1615936925650
Fix,GT,37.385701,-122.0837102,-0.0580000017285347,0.0005239786,0.1,301.80768,1615936926647
Fix,GT,37.385701,-122.0837102,-0.0580000017285347,0.0,0.1,301.80777,1615936927435
Fix,GT,37.385701,-122.0837102,-0.0580000017285347,0.0,0.1,301.80783,1615936928435
Fix,GT,37.385701,-122.0837102,-0.0580000017285347,0.0,0.1,301.808,1615936929435
Fix,GT,37.385701,-122.0837102,-0.0579999982714653,0.0,0.1,301.80798,1615936930435
Fix,GT,37.385701,-122.0837102,-0.0580000017285347,0.00035809368,0.1,301.80817,1615936931435
Fix,GT,37.385701,-122.0837102,-0.0580000017285347,0.0006419063,0.1,301.8083,1615936932435
Fix,GT,37.385701,-122.0837102,-0.058,0.001,0.1,301.80835,1615936933435
Fix,GT,37.385701,-122.0837102,-0.0580000017285347,0.0,0.1,301.8084,1615936934435
Fix,GT,37.385701,-122.0837102,-0.0579999999999999,0.0012658861,0.1,301.808,1615936935435
Fix,GT,37.385701,-122.0837102,-0.0580000017285347,0.0012658861,0.1,301.808,1615936936435
Fix,GT,37.385701,-122.0837102,-0.058,0.001265886,0.1,301.80792,1615936937435
Fix,GT,37.385701,-122.0837102,-0.0579999999999999,0.0,0.1,301.808,1615936938435
Fix,GT,37.385701,-122.0837102,-0.058,0.0,0.1,301.80765,1615936939435
Fix,GT,37.385701,-122.0837102,-0.0580000017285347,0.0006419051,0.1,301.8079,1615936940435
Fix,GT,37.385701,-122.0837102,-0.058,0.0,0.1,301.8081,1615936941435
Fix,GT,37.385701,-122.0837102,-0.0579999999999999,0.0,0.1,301.80823,1615936942435
Fix,GT,37.385701,-122.0837102,-0.0580000017285347,0.0,0.1,301.80817,1615936943435
Fix,GT,37.385701,-122.0837102,-0.0579999999999999,0.0,0.1,301.80814,1615936944435
Fix,GT,37.385701,-122.0837102,-0.058,0.0,0.1,301.80804,1615936945435
Fix,GT,37.385701,-122.0837102,-0.0580000017285347,0.0,0.1,301.80817,1615936946435
Fix,GT,37.385701,-122.0837102,-0.0579999982714653,0.0,0.1,301.80814,1615936947435
Fix,GT,37.385701,-122.0837102,-0.0579999982714653,0.0,0.1,301.808,1615936948435
Fix,GT,37.385701,-122.0837102,-0.0579999982714653,0.0,0.099,301.80804,1615936949435
Fix,GT,37.385701,-122.0837102,-0.0580000017285347,0.0,0.1,301.80832,1615936950435
Fix,GT,37.385701,-122.0837102,-0.058,0.00064190367,0.1,301.80832,1615936951435
Fix,GT,37.385701,-122.0837102,-0.058,0.0,0.1,301.80814,1615936952435
Fix,GT,37.385701,-122.0837102,-0.0579999982714653,0.00064190343,0.1,301.80804,1615936953435
Fix,GT,37.385701,-122.0837102,-0.058,0.001,0.1,301.80823,1615936954435
Fix,GT,37.385701,-122.0837102,-0.0580000017285347,0.0,0.1,301.80823,1615936955435
Fix,GT,37.385701,-122.0837102,-0.058,0.0,0.1,-58.191765,1615936956435
Fix,GT,37.385701,-122.0837102,-0.0580000017285347,0.0,0.1,301.8082,1615936957435
Fix,GT,37.385701,-122.0837102,-0.0579999982714653,0.0,0.1,301.8082,1615936958435
Fix,GT,37.385701,-122.0837102,-0.058,0.0,0.1,301.8084,1615936959435
Fix,GT,37.385701,-122.0837102,-0.0579999982714653,0.00035809755,0.1,301.8083,1615936960435
Fix,GT,37.385701,-122.0837102,-0.0579999999999999,0.0003580977,0.1,301.80838,1615936961435
Fix,GT,37.385701,-122.0837102,-0.058,0.0,0.1,301.80817,1615936962435
Fix,GT,37.385701,-122.0837102,-0.0579999982714653,0.0,0.1,301.80807,1615936963435
Fix,GT,37.385701,-122.0837102,-0.058,0.00064190186,0.1,301.8083,1615936964435
Fix,GT,37.385701,-122.0837102,-0.058,0.001,0.1,301.8081,1615936965435
Fix,GT,37.385701,-122.0837102,-0.058,0.001,0.1,301.8081,1615936966435
Fix,GT,37.385701,-122.0837102,-0.058,0.00035809848,0.1,301.8081,1615936967435
Fix,GT,37.385701,-122.0837102,-0.0579999999999999,0.001,0.1,301.8081,1615936968435
Fix,GT,37.385701,-122.0837102,-0.0593580986857414,0.034363873,0.1,301.80768,1615936969435
Fix,GT,37.3857036,-122.0837155,-0.069,1.2003343,0.1,301.76312,1615936970435
Fix,GT,37.3857133,-122.083735,-0.068,2.841959,0.1,301.84824,1615936971435
Fix,GT,37.3857314,-122.0837709,-0.0749999977648258,4.6582794,0.1,302.05255,1615936972435
Fix,GT,37.3857575,-122.0838236,-0.0856419007182121,6.3891096,0.1,301.6972,1615936973435
Fix,GT,37.3857917,-122.0838929,-0.0677162009775638,8.008441,0.1,301.7229,1615936974435
Fix,GT,37.3858326,-122.0839758,-0.0726419025659561,9.246534,0.1,301.5486,1615936975435
Fix,GT,37.3858793,-122.0840711,-0.0570000016987323,10.546345,0.1,301.37964,1615936976435
Fix,GT,37.3859317,-122.0841783,-0.0676419021785259,11.729162,0.1,301.384,1615936977435
Fix,GT,37.3859894,-122.0842969,-0.0582838018238544,12.84646,0.1,301.21262,1615936978435
Fix,GT,37.3860505,-122.084423,-0.0477161988914012,13.201126,0.099,301.452,1615936979435
Fix,GT,37.3861137,-122.0845509,-0.0500743024349212,13.471846,0.1,301.6754,1615936980435
Fix,GT,37.3861785,-122.0846818,-0.0563581004142761,13.81577,0.1,301.7647,1615936981435
Fix,GT,37.3862453,-122.0848165,-0.0263581013381481,14.279278,0.1,301.8822,1615936982435
Fix,GT,37.3863143,-122.0849548,-0.02220949614048,14.581525,0.1,301.89432,1615936983435
Fix,GT,37.3863842,-122.0850969,-0.0325675968527793,15.024885,0.1,301.41022,1615936984435
Fix,GT,37.3864563,-122.0852436,0.000925696581602,15.469109,0.1,301.59875,1615936985435
Fix,GT,37.3865305,-122.0853938,0.0150743046104907,15.807091,0.1,301.60785,1615936986435
Fix,GT,37.3866063,-122.0855471,0.0037770855426788,16.121635,0.1,301.7767,1615936987435
Fix,GT,37.3866829,-122.0857023,-0.032925695747137,16.086208,0.1,301.76178,1615936988435
Fix,GT,37.3867589,-122.0858551,-0.0305675913095474,15.764984,0.1,301.82254,1615936989435
Fix,GT,37.3868332,-122.0860044,-0.0394324083328247,15.39742,0.1,301.89188,1615936990435
Fix,GT,37.3869059,-122.08615,-0.0501486123204231,15.03694,0.1,301.87436,1615936991435
Fix,GT,37.3869769,-122.0862922,-0.0550743056237697,14.669626,0.1,301.85226,1615936992435
Fix,GT,37.3870459,-122.086431,-0.0819391294717788,14.313087,0.1,301.7272,1615936993435
Fix,GT,37.3871131,-122.0865665,-0.0874324143528938,13.95736,0.1,301.737,1615936994435
Fix,GT,37.3871786,-122.0866989,-0.1263580993711948,13.630365,0.1,301.65057,1615936995435
Fix,GT,37.3872425,-122.0868282,-0.1600743146538734,13.29588,0.1,301.614,1615936996435
Fix,GT,37.3873045,-122.0869544,-0.1913581035137176,12.945556,0.1,301.529,1615936997435
Fix,GT,37.3873646,-122.0870773,-0.2261486156582832,12.604179,0.099,301.35596,1615936998435
Fix,GT,37.3874233,-122.0871969,-0.2597162002027035,12.270521,0.099,301.57422,1615936999435
Fix,GT,37.3874806,-122.0873134,-0.2602837840616703,11.985714,0.1,301.60028,1615937000435
Fix,GT,37.387537,-122.0874269,-0.278999991685152,11.7080345,0.1,301.97385,1615937001435
Fix,GT,37.3876042,-122.0875622,-0.3269344205856324,11.448273,0.1,301.76132,1615937002653
Fix,GT,37.3876573,-122.0876689,-0.342,10.823154,0.1,301.93652,1615937003649
Fix,GT,37.387707,-122.0877684,-0.3814153301715851,9.6697,0.1,302.01535,1615937004660
Fix,GT,37.3877493,-122.087853,-0.4183849166035652,8.007266,0.1,302.03525,1615937005653
Fix,GT,37.3877823,-122.0879186,-0.4184562385082244,5.8027325,0.1,302.1567,1615937006645
Fix,GT,37.3878048,-122.0879636,-0.424559427857399,3.6557589,0.1,302.03735,1615937007655
Fix,GT,37.3878185,-122.0879909,-0.4334821547865868,2.1771083,0.1,301.9961,1615937008648
Fix,GT,37.3878259,-122.0880057,-0.4431910409927369,0.81706977,0.1,301.96017,1615937009659
Fix,GT,37.3878272,-122.0880083,-0.4510514938831329,0.015215952,0.1,301.9574,1615937010652
Fix,GT,37.3878272,-122.0880083,-0.4480000133514404,0.0033037243,0.1,301.95792,1615937011643
Fix,GT,37.3878272,-122.0880083,-0.447,0.0024241845,0.1,301.9583,1615937012657
Fix,GT,37.3878272,-122.0880083,-0.4469999866783619,0.0009999999,0.1,301.9582,1615937013648
Fix,GT,37.3878272,-122.0880083,-0.447,0.001,0.1,301.95816,1615937014658
Fix,GT,37.3878272,-122.0880083,-0.447,0.0011957167,0.1,301.95813,1615937015652
Fix,GT,37.3878272,-122.0880083,-0.447,0.001,0.1,301.9584,1615937016643
Fix,GT,37.3878272,-122.0880083,-0.447,0.001,0.1,301.95828,1615937017655
Fix,GT,37.3878272,-122.0880083,-0.4469999866783619,0.00051041524,0.1,301.9582,1615937018648
Fix,GT,37.3878272,-122.0880083,-0.447,0.00038041646,0.1,301.95807,1615937019661
Fix,GT,37.3878272,-122.0880083,-0.447,0.0,0.1,301.95804,1615937020653
Fix,GT,37.3878272,-122.0880083,-0.447,0.0004552547,0.1,301.9581,1615937021645
Fix,GT,37.3878272,-122.0880083,-0.447,0.000590418,0.1,301.95822,1615937022658
Fix,GT,37.3878272,-122.0880083,-0.4469999999999999,0.0,0.1,301.95792,1615937023641
