MessageType,Provider,LatitudeDegrees,LongitudeDegrees,AltitudeMeters,SpeedMps,AccuracyMeters,BearingDegrees,UnixTimeMillis
Fix,GT,37.3714847,-122.0478763,9.111,0.001,0.1,201.13797,1619480283999
Fix,GT,37.3714847,-122.0478763,9.111,0.001,0.1,201.13776,1619480284999
Fix,GT,37.3714847,-122.0478763,9.111,2.7795436e-06,0.1,201.1378,1619480285999
Fix,GT,37.3714847,-122.0478763,9.111,0.0010011513,0.1,201.13753,1619480286999
Fix,GT,37.3714847,-122.0478763,9.111,0.0022298542,0.1,201.13756,1619480287999
Fix,GT,37.3714847,-122.0478763,9.111,0.001410284,0.1,201.13786,1619480288999
Fix,GT,37.3714847,-122.0478763,9.111,0.0014102844,0.1,201.13782,1619480289999
Fix,GT,37.3714847,-122.0478763,9.111,2.7779938e-06,0.1,201.13763,1619480290999
Fix,GT,37.3714847,-122.0478763,9.111,0.0010034335,0.1,201.13776,1619480291999
Fix,GT,37.3714847,-122.0478763,9.111,0.0014164961,0.1,201.13763,1619480292999
Fix,GT,37.3714847,-122.0478763,9.111,0.001418141,0.1,201.13779,1619480293999
Fix,GT,37.3714847,-122.0478763,9.11,0.0041240747,0.1,201.13576,1619480294999
Fix,GT,37.3714847,-122.0478763,9.107002776503563,0.0070576435,0.1,201.13782,1619480295999
Fix,GT,37.3714824,-122.0478775,9.093002776145935,0.4332135,0.1,201.1171,1619480296999
Fix,GT,37.3714768,-122.04788,9.071008327543735,0.9631117,0.1,200.82114,1619480297999
Fix,GT,37.3714659,-122.0478853,9.049008326470853,1.5790864,0.1,200.94533,1619480298999
Fix,GT,37.3714506,-122.0478929,9.034005550503732,2.1146855,0.1,201.26627,1619480299999
Fix,GT,37.3714299,-122.0479033,9.02000277495384,2.8157206,0.1,201.8313,1619480300999
Fix,GT,37.371405,-122.0479158,9.049,3.04232,0.1,201.7215,1619480301999
Fix,GT,37.3713766,-122.0479289,9.086958385527137,3.7159724,0.1,200.5295,1619480302999
Fix,GT,37.3713423,-122.0479435,9.088980581998824,4.1944556,0.1,198.57217,1619480303999
Fix,GT,37.371308,-122.0479577,9.110988904953004,3.7613935,0.1,198.36943,1619480304999
Fix,GT,37.3712778,-122.0479702,9.155988906145096,3.3179848,0.1,198.59862,1619480305999
Fix,GT,37.3712528,-122.0479859,9.213975042045115,2.9194825,0.1,206.69815,1619480306999
Fix,GT,37.3712375,-122.0480102,9.30799445438385,2.6031828,0.1,227.70947,1619480307999
Fix,GT,37.3712325,-122.0480415,9.336994454860688,3.026187,0.1,252.71828,1619480308999
Fix,GT,37.3712359,-122.0480793,9.377991683363916,3.657161,0.1,273.48917,1619480309999
Fix,GT,37.3712435,-122.0481201,9.431983368515969,3.6376822,0.1,281.6834,1619480310999
Fix,GT,37.3712503,-122.0481585,9.490983370304107,3.2857444,0.1,282.40973,1619480311999
Fix,GT,37.3712563,-122.0481927,9.528986143708227,2.9884307,0.1,282.48264,1619480312999
Fix,GT,37.3712624,-122.0482256,9.659027710199355,2.9329174,0.1,282.98456,1619480313999
Fix,GT,37.3712687,-122.0482591,9.551997229278088,3.1908948,0.1,283.25558,1619480314999
Fix,GT,37.3712761,-122.0482971,9.503008311271667,3.8037908,0.1,283.52084,1619480315999
Fix,GT,37.3712846,-122.0483411,9.43904432106018,4.0227556,0.1,283.5354,1619480316999
Fix,GT,37.3712938,-122.0483838,9.433994460463524,3.8172886,0.1,285.05493,1619480317999
Fix,GT,37.3713037,-122.0484255,9.47399169176817,3.913403,0.1,286.47406,1619480318999
Fix,GT,37.3713136,-122.0484661,9.537986154437064,3.4386926,0.1,286.9325,1619480319999
Fix,GT,37.3713212,-122.048496,9.575988924741743,2.079616,0.1,287.46524,1619480320999
Fix,GT,37.3713268,-122.0485144,9.59098615771532,1.8703022,0.1,289.83124,1619480321999
Fix,GT,37.3713381,-122.0485333,9.546035986840725,2.176843,0.1,301.5512,1619480322999
Fix,GT,37.3713576,-122.0485472,9.3309529453516,2.7753563,0.1,323.41818,1619480323999
Fix,GT,37.3713869,-122.0485516,9.485955718040469,3.7343323,0.1,349.28546,1619480324999
Fix,GT,37.3714272,-122.0485419,9.538,5.4888,0.1,10.944,1619480325999
Fix,GT,37.3714806,-122.0485191,9.493019369184973,6.8635254,0.1,18.33963,1619480326999
Fix,GT,37.3715404,-122.0484938,9.424008300185204,6.897103,0.1,18.481384,1619480327999
Fix,GT,37.3715939,-122.0484696,9.372997233629226,5.613546,0.1,20.997467,1619480328999
Fix,GT,37.3716321,-122.0484414,9.316011064291002,4.5914392,0.1,32.32727,1619480329999
Fix,GT,37.3716613,-122.0484049,9.258002765774728,4.8057694,0.1,45.86917,1619480330999
Fix,GT,37.3716844,-122.0483518,9.214016592502595,5.986089,0.1,64.4664,1619480331999
Fix,GT,37.3716918,-122.0482793,9.220002765119077,7.066356,0.1,86.89136,1619480332999
Fix,GT,37.3716807,-122.0481948,9.201002764880656,8.144043,0.1,101.785065,1619480333999
Fix,GT,37.3716614,-122.0481002,9.159,9.133094,0.1,104.23224,1619480334999
Fix,GT,37.3716402,-122.047995,9.12801382112503,10.083892,0.1,103.97928,1619480335999
Fix,GT,37.3716171,-122.0478797,9.092008291959765,10.9956,0.1,104.04291,1619480336999
Fix,GT,37.3715916,-122.0477539,9.062002763688564,11.995596,0.1,104.152954,1619480337999
Fix,GT,37.3715639,-122.0476174,9.045024869978429,12.894595,0.1,104.23178,1619480338999
Fix,GT,37.3715339,-122.0474721,9.007005526065825,13.655093,0.1,104.60596,1619480339999
Fix,GT,37.371502,-122.0473197,8.931022101879119,14.227621,0.1,104.71228,1619480340999
Fix,GT,37.3714687,-122.0471615,8.85701381188631,14.759722,0.1,104.6926,1619480341999
Fix,GT,37.3714338,-122.0469975,8.81900276207924,15.325021,0.1,104.87866,1619480342999
Fix,GT,37.3713977,-122.0468274,8.710024856567383,15.863903,0.1,104.8009,1619480343999
Fix,GT,37.3713607,-122.0466519,8.645,16.25329,0.1,104.674774,1619480344999
Fix,GT,37.3713231,-122.0464729,8.569022089481354,16.573471,0.1,104.63144,1619480345999
Fix,GT,37.3712853,-122.0462906,8.464033131361008,16.71376,0.1,104.47525,1619480346999
Fix,GT,37.3712477,-122.046109,8.39002208518982,16.480364,0.1,104.5025,1619480347999
Fix,GT,37.3712106,-122.0459306,8.3130082808733,16.178127,0.1,104.56244,1619480348999
Fix,GT,37.3711742,-122.0457556,8.270008279979228,15.867749,0.1,104.548676,1619480349999
Fix,GT,37.3711388,-122.0455837,8.236013798475266,15.560716,0.1,104.2977,1619480350999
Fix,GT,37.3711053,-122.0454149,8.235002759456634,15.231262,0.1,103.603455,1619480351999
Fix,GT,37.3710743,-122.0452492,8.23999172270298,14.915877,0.1,102.71637,1619480352999
Fix,GT,37.3710451,-122.0450868,8.24200827640295,14.585168,0.1,102.5531,1619480353999
Fix,GT,37.3710162,-122.0449281,8.25800275850296,14.24869,0.1,102.91339,1619480354999
Fix,GT,37.3709866,-122.0447733,8.258991725206375,14.023215,0.1,103.650604,1619480355999
Fix,GT,37.3709552,-122.0446182,8.257019305348397,14.380065,0.1,104.37784,1619480356999
Fix,GT,37.370922,-122.0444588,8.211011030435563,14.789954,0.1,104.365814,1619480357999
Fix,GT,37.3708893,-122.0442955,8.160022058010101,14.995037,0.1,103.80951,1619480358999
Fix,GT,37.3708572,-122.0441316,8.054022055625916,14.853858,0.1,103.68689,1619480359999
Fix,GT,37.3708243,-122.0439706,7.955038594007492,14.599481,0.1,105.03555,1619480360999
Fix,GT,37.3707884,-122.0438135,7.85502480775118,14.349132,0.1,106.40839,1619480361999
Fix,GT,37.3707505,-122.0436601,7.759038584828377,14.173633,0.1,107.55701,1619480362999
Fix,GT,37.3707105,-122.0435057,7.644024801850319,14.651599,0.1,107.85095,1619480363999
Fix,GT,37.3706694,-122.043345,7.553011021852494,15.277334,0.1,107.488464,1619480364999
Fix,GT,37.3706274,-122.0431772,7.446030306160449,15.846326,0.1,107.255035,1619480365999
Fix,GT,37.3705843,-122.0430039,7.337019283652305,16.273104,0.1,107.239136,1619480366999
Fix,GT,37.3705404,-122.0428278,7.250052336812019,16.333105,0.1,107.36334,1619480367999
Fix,GT,37.3704958,-122.0426526,7.17303305053711,16.225792,0.1,107.71344,1619480368999
Fix,GT,37.3704509,-122.0424781,7.054035800874233,16.329891,0.1,107.839355,1619480369999
Fix,GT,37.3704055,-122.0423019,6.960024782538414,16.437939,0.1,107.74304,1619480370999
Fix,GT,37.3703601,-122.0421259,6.8660330390930175,16.314728,0.1,107.90039,1619480371999
Fix,GT,37.3703143,-122.0419521,6.785024776637554,16.105204,0.1,108.381805,1619480372999
Fix,GT,37.3702678,-122.0417806,6.714011010885239,15.990732,0.1,108.83826,1619480373999
Fix,GT,37.3702207,-122.0416108,6.641024771809578,15.869497,0.1,109.1304,1619480374999
Fix,GT,37.3701746,-122.0414421,6.608005504131317,15.691845,0.1,108.550964,1619480375999
Fix,GT,37.3701299,-122.0412757,6.56800550353527,15.39985,0.1,108.55261,1619480376999
Fix,GT,37.3700854,-122.0411121,6.531002751469612,15.2336035,0.1,108.78754,1619480377999
Fix,GT,37.3700409,-122.0409485,6.472019258201122,15.412967,0.1,108.470276,1619480378999
Fix,GT,37.3699974,-122.0407829,6.444002750873565,15.461246,0.1,107.97919,1619480379999
Fix,GT,37.3699543,-122.040617,6.433,15.484676,0.1,107.87076,1619480380999
Fix,GT,37.3699116,-122.04045,6.397011000871658,15.551485,0.1,107.51788,1619480381999
Fix,GT,37.3698694,-122.0402819,6.373008249759675,15.680919,0.1,107.44409,1619480382999
Fix,GT,37.3698264,-122.0401125,6.331008248865604,15.718103,0.1,107.640686,1619480383999
Fix,GT,37.3697833,-122.0399449,6.284013746321201,15.464611,0.1,107.917786,1619480384999
Fix,GT,37.3697405,-122.0397805,6.224021992206573,15.181788,0.1,108.00308,1619480385999
Fix,GT,37.3696983,-122.039619,6.165002748727798,14.905708,0.1,108.09317,1619480386999
Fix,GT,37.3696568,-122.0394608,6.152980760991573,14.604562,0.1,108.132965,1619480387999
Fix,GT,37.3696164,-122.0393058,6.171986259639263,14.283388,0.1,107.8074,1619480388999
Fix,GT,37.3695776,-122.0391539,6.165008243501186,13.982619,0.1,107.47058,1619480389999
Fix,GT,37.3695399,-122.0390051,6.147,13.693826,0.1,107.65906,1619480390999
Fix,GT,37.369502,-122.0388596,6.1110082415342335,13.419717,0.1,108.08786,1619480391999
Fix,GT,37.3694643,-122.0387173,6.079021975040435,13.141865,0.1,108.20648,1619480392999
Fix,GT,37.369428,-122.0385778,6.054002746582032,12.8659115,0.1,107.875336,1619480393999
Fix,GT,37.3693928,-122.0384409,6.041986268877984,12.587585,0.1,107.6886,1619480394999
Fix,GT,37.3693585,-122.0383072,6.02700549185276,12.3077545,0.1,107.740814,1619480395999
Fix,GT,37.369325,-122.0381764,6.005008236885071,12.006994,0.1,107.718445,1619480396999
Fix,GT,37.3692926,-122.0380499,5.985002745330334,11.476295,0.1,107.70996,1619480397999
Fix,GT,37.369262,-122.0379305,5.987013725161553,10.725439,0.1,107.71307,1619480398999
Fix,GT,37.3692342,-122.0378214,5.978005489468574,9.475541,0.1,107.55798,1619480399999
Fix,GT,37.3692113,-122.0377291,5.96600274437666,7.7218275,0.1,107.14905,1619480400999
Fix,GT,37.369192,-122.0376498,5.946,7.004754,0.1,106.86536,1619480401999
Fix,GT,37.3691742,-122.0375773,5.933,6.402771,0.1,106.94495,1619480402999
Fix,GT,37.369159,-122.0375146,5.928002743422986,5.133899,0.1,106.8461,1619480403999
Fix,GT,37.3691476,-122.0374673,5.92,3.6271222,0.1,106.73337,1619480404999
Fix,GT,37.3691402,-122.037436,5.915,2.2127352,0.1,106.63345,1619480405999
Fix,GT,37.3691361,-122.0374188,5.913,0.9716725,0.1,106.57553,1619480406999
Fix,GT,37.3691349,-122.0374139,5.91,0.05458633,0.1,106.55362,1619480407999
Fix,GT,37.3691349,-122.0374139,5.905,0.0022354207,0.1,106.55298,1619480408999
Fix,GT,37.3691349,-122.0374139,5.905,3.8773414e-06,0.1,106.5509,1619480409999
Fix,GT,37.3691349,-122.0374139,5.905,2.7413369e-06,0.1,106.55173,1619480410999
Fix,GT,37.3691349,-122.0374139,5.905,0.000997259,0.1,106.552216,1619480411999
Fix,GT,37.3691348,-122.0374133,5.898,0.29842925,0.1,106.54797,1619480412999
Fix,GT,37.3691321,-122.0374022,5.889997259616852,1.8385271,0.1,106.480774,1619480413999
Fix,GT,37.3691255,-122.0373738,5.88,3.546365,0.1,106.323456,1619480414999
Fix,GT,37.3691144,-122.0373254,5.868002739846706,5.346307,0.1,105.98877,1619480415999
Fix,GT,37.3690994,-122.0372584,5.861008218646049,6.9010515,0.1,105.53128,1619480416999
Fix,GT,37.3690816,-122.0371751,5.866997260808945,8.333777,0.1,104.71414,1619480417999
Fix,GT,37.3690617,-122.0370774,5.835008216679096,9.552203,0.1,104.100464,1619480418999
Fix,GT,37.3690397,-122.0369657,5.806016431212425,10.784405,0.1,103.631775,1619480419999
Fix,GT,37.3690162,-122.0368416,5.749010952949523,11.801449,0.1,103.16229,1619480420999
Fix,GT,37.368991,-122.036707,5.719991786181926,12.679195,0.1,103.13403,1619480421999
Fix,GT,37.3689638,-122.0365625,5.652019163072109,13.61759,0.1,103.233765,1619480422999
Fix,GT,37.3689352,-122.0364102,5.612991787970066,14.11474,0.1,103.22919,1619480423999
Fix,GT,37.3689052,-122.0362528,5.578010948181152,14.451666,0.1,103.38696,1619480424999
Fix,GT,37.3688747,-122.0360927,5.55701094698906,14.73047,0.1,103.16678,1619480425999
Fix,GT,37.3688447,-122.0359293,5.541002736508847,15.041855,0.1,102.72778,1619480426999
Fix,GT,37.3688142,-122.035764,5.531,14.939119,0.1,103.1369,1619480427999
Fix,GT,37.368783,-122.0356007,5.499005471706391,14.931053,0.1,103.52872,1619480428999
Fix,GT,37.3687513,-122.0354343,5.465016412973404,15.361167,0.1,103.1098,1619480429999
Fix,GT,37.3687198,-122.0352629,5.432008205592633,15.780914,0.1,102.78,1619480430999
Fix,GT,37.3686879,-122.0350877,5.399008204698562,15.969941,0.1,102.86182,1619480431999
Fix,GT,37.3686545,-122.0349111,5.365010938644409,16.201262,0.1,103.591675,1619480432999
Fix,GT,37.368618,-122.0347336,5.373005468606949,16.312645,0.1,104.892334,1619480433999
Fix,GT,37.3685786,-122.034556,5.324024606049061,16.274414,0.1,105.88226,1619480434999
Fix,GT,37.3685366,-122.0343811,5.283010934829712,16.152744,0.1,107.26352,1619480435999
Fix,GT,37.368491,-122.0342076,5.2840109333992,16.23194,0.1,108.763885,1619480436999
Fix,GT,37.3684414,-122.0340347,5.256002733051777,16.338957,0.1,110.46411,1619480437999
Fix,GT,37.368387,-122.0338621,5.231024594247341,16.552023,0.1,112.209595,1619480438999
Fix,GT,37.3683277,-122.0336896,5.194989070177078,16.707348,0.1,113.95737,1619480439999
Fix,GT,37.3682638,-122.0335189,5.1620081964731215,16.724913,0.1,115.969086,1619480440999
Fix,GT,37.3681948,-122.0333508,5.097013659298421,16.759521,0.1,117.79965,1619480441999
Fix,GT,37.3681221,-122.0331841,5.08198634248972,16.880846,0.1,119.14542,1619480442999
Fix,GT,37.3680456,-122.033019,5.087986343979836,16.932938,0.1,120.71088,1619480443999
Fix,GT,37.3679663,-122.0328563,5.088019116342068,16.857208,0.1,121.83469,1619480444999
Fix,GT,37.3678846,-122.0326965,5.075002730548382,16.782381,0.1,123.19467,1619480445999
Fix,GT,37.3677996,-122.0325394,5.055002730250359,16.86275,0.1,124.773865,1619480446999
Fix,GT,37.3677106,-122.0323854,5.028005459785461,16.813623,0.1,126.68866,1619480447999
Fix,GT,37.3676184,-122.0322351,5.023997270345688,16.797169,0.1,127.9989,1619480448999
Fix,GT,37.3675236,-122.0320873,5.012008188068866,16.814075,0.1,129.23022,1619480449999
Fix,GT,37.3674258,-122.031942,4.983,16.845995,0.1,130.82742,1619480450999
Fix,GT,37.3673245,-122.0318003,4.938030015707016,16.880032,0.1,132.49554,1619480451999
Fix,GT,37.3672195,-122.031662,4.911010913610458,16.986862,0.1,134.18988,1619480452999
Fix,GT,37.3671105,-122.0315256,4.894997271835804,17.204723,0.1,135.55212,1619480453999
Fix,GT,37.3669984,-122.0313902,4.899989088535309,17.3179,0.1,136.14514,1619480454999
Fix,GT,37.3668854,-122.0312555,4.87601091003418,17.329813,0.1,136.48785,1619480455999
Fix,GT,37.3667718,-122.0311207,4.841,17.371199,0.1,136.39948,1619480456999
Fix,GT,37.366659,-122.0309854,4.804002726852894,17.254671,0.1,136.05026,1619480457999
Fix,GT,37.3665477,-122.0308515,4.809997273445129,16.995064,0.1,136.01935,1619480458999
Fix,GT,37.3664387,-122.0307188,4.784021810054779,16.72792,0.1,135.64417,1619480459999
Fix,GT,37.3663314,-122.0305883,4.731027258992195,16.466534,0.1,135.88559,1619480460999
Fix,GT,37.3662252,-122.0304606,4.691,16.212435,0.1,136.11462,1619480461999
Fix,GT,37.3661206,-122.030335,4.655005450606347,15.93148,0.1,136.12433,1619480462999
Fix,GT,37.3660178,-122.0302115,4.58202452558279,15.679978,0.1,136.0918,1619480463999
Fix,GT,37.365917,-122.0300903,4.55600817412138,15.303369,0.1,136.03882,1619480464999
Fix,GT,37.3658194,-122.0299719,4.536013622045516,14.825952,0.1,135.67511,1619480465999
Fix,GT,37.3657262,-122.0298572,4.516005448102952,14.117842,0.1,135.26779,1619480466999
Fix,GT,37.3656385,-122.0297483,4.491005447506905,13.28554,0.1,135.27814,1619480467999
Fix,GT,37.365556,-122.0296472,4.467008170366286,12.296376,0.1,135.60645,1619480468999
Fix,GT,37.3654803,-122.0295544,4.457005446195602,11.163858,0.1,135.40927,1619480469999
Fix,GT,37.3654131,-122.0294716,4.459986385703087,9.786854,0.1,135.42838,1619480470999
Fix,GT,37.3653545,-122.0293995,4.457005445122719,8.421641,0.1,135.4472,1619480471999
Fix,GT,37.3653059,-122.0293397,4.448008166790009,6.701333,0.1,135.47794,1619480472999
Fix,GT,37.3652684,-122.0292937,4.4460027219057086,4.90387,0.1,135.45508,1619480473999
Fix,GT,37.3652427,-122.029262,4.434,3.144391,0.1,135.44113,1619480474999
Fix,GT,37.3652271,-122.0292427,4.425002721309662,1.8529719,0.1,135.4299,1619480475999
Fix,GT,37.3652183,-122.0292319,4.415002720952034,0.8855619,0.1,135.40604,1619480476999
Fix,GT,37.3652156,-122.0292286,4.411002720713615,0.012178174,0.1,135.40396,1619480477999
Fix,GT,37.3652156,-122.0292286,4.406,0.0014103663,0.1,135.4065,1619480478999
Fix,GT,37.3652156,-122.0292286,4.406,0.00099728,0.1,135.40512,1619480479999
Fix,GT,37.3652156,-122.0292286,4.406,0.0009972802,0.1,135.40579,1619480480999
Fix,GT,37.3652156,-122.0292286,4.406,0.0009972806,0.1,135.40637,1619480481999
Fix,GT,37.3652156,-122.0292286,4.406,0.0009972808,0.1,135.40582,1619480482999
Fix,GT,37.3652156,-122.0292286,4.406,0.001,0.1,135.40582,1619480483999
Fix,GT,37.3652151,-122.029228,4.402,0.30038664,0.1,135.40631,1619480484999
Fix,GT,37.3652122,-122.0292243,4.402,0.4893574,0.1,135.39392,1619480485999
Fix,GT,37.3652098,-122.0292212,4.402,0.2737301,0.1,135.3789,1619480486999
Fix,GT,37.365209,-122.0292202,4.402,0.0058862325,0.1,135.37592,1619480487999
Fix,GT,37.365209,-122.0292202,4.402,0.0014158053,0.1,135.3758,1619480488999
Fix,GT,37.365209,-122.0292202,4.403,0.0014142136,0.1,135.3735,1619480489999
Fix,GT,37.365209,-122.0292202,4.403,6.0746374e-06,0.1,135.37323,1619480490999
Fix,GT,37.365209,-122.0292202,4.403,0.001,0.1,135.37375,1619480491999
Fix,GT,37.365209,-122.0292202,4.403,2.7160645e-06,0.1,135.37354,1619480492999
Fix,GT,37.365209,-122.0292202,4.403,0.0014142136,0.1,135.37335,1619480493999
Fix,GT,37.365209,-122.0292202,4.403,0.002236068,0.1,135.37311,1619480494999
Fix,GT,37.365209,-122.0292202,4.403,0.0028284271,0.1,135.37341,1619480495999
Fix,GT,37.365209,-122.0292202,4.403,0.0028284271,0.1,135.37384,1619480496999
Fix,GT,37.365209,-122.0292202,4.403,0.0028293333,0.1,135.3743,1619480497999
Fix,GT,37.365209,-122.0292202,4.403,0.0031597638,0.1,135.37341,1619480498999
Fix,GT,37.365209,-122.0292202,4.403,0.0028284271,0.1,135.37299,1619480499999
Fix,GT,37.365209,-122.0292202,4.403,0.002236068,0.1,135.37332,1619480500999
Fix,GT,37.365209,-122.0292202,4.403,0.0028305359,0.1,135.37341,1619480501999
Fix,GT,37.365209,-122.0292202,4.403,0.0036018358,0.1,135.37299,1619480502999
Fix,GT,37.365209,-122.0292202,4.403,0.0022376748,0.1,135.37271,1619480503999
Fix,GT,37.365209,-122.0292202,4.403,0.0028268204,0.1,135.37262,1619480504999
Fix,GT,37.365209,-122.0292202,4.403,0.0022376745,0.1,135.37225,1619480505999
Fix,GT,37.365209,-122.0292202,4.403,0.0028284271,0.1,135.37268,1619480506999
Fix,GT,37.365209,-122.0292202,4.403,0.0028268208,0.1,135.37286,1619480507999
Fix,GT,37.365209,-122.0292202,4.403,0.0022376738,0.1,135.37256,1619480508999
Fix,GT,37.365209,-122.0292202,4.403,0.0028284271,0.1,135.37274,1619480509999
Fix,GT,37.365209,-122.0292201,4.404,0.0031613726,0.1,135.37259,1619480510999
Fix,GT,37.3652071,-122.0292177,4.402997289776802,0.60874104,0.1,135.35803,1619480511999
Fix,GT,37.3652036,-122.0292134,4.406,0.36851987,0.1,135.33221,1619480512999
Fix,GT,37.3652025,-122.029212,4.407,0.004171607,0.1,135.3237,1619480513999
Fix,GT,37.3652026,-122.029212,4.408,0.0010058583,0.1,135.32245,1619480514999
Fix,GT,37.3652026,-122.029212,4.409,0.0014142136,0.1,135.3205,1619480515999
Fix,GT,37.3652026,-122.029212,4.409,0.0014130917,0.1,135.32037,1619480516999
Fix,GT,37.3652026,-122.029212,4.409,0.001,0.1,135.32071,1619480517999
Fix,GT,37.3652026,-122.029212,4.409,0.001,0.1,135.32074,1619480518999
Fix,GT,37.3652026,-122.029212,4.409,0.001,0.1,135.32031,1619480519999
Fix,GT,37.3652026,-122.029212,4.409,0.001,0.1,135.31973,1619480520999
Fix,GT,37.3652025,-122.0292119,4.408005414247513,0.10236638,0.1,135.31989,1619480521999
Fix,GT,37.3651994,-122.0292081,4.406,0.86460257,0.1,135.28656,1619480522999
Fix,GT,37.3651896,-122.029196,4.398002706587314,2.234123,0.1,135.20435,1619480523999
Fix,GT,37.3651696,-122.0291712,4.389997293770313,4.0739307,0.1,135.30807,1619480524999
Fix,GT,37.3651376,-122.0291316,4.381997294068336,5.9695888,0.1,135.16522,1619480525999
Fix,GT,37.3650945,-122.0290787,4.382002705574036,7.3385863,0.1,135.67743,1619480526999
Fix,GT,37.3650438,-122.0290177,4.40398917889595,8.153929,0.1,136.35718,1619480527999
Fix,GT,37.3649871,-122.0289516,4.412002704977989,9.056408,0.1,136.95593,1619480528999
Fix,GT,37.3649244,-122.0288782,4.408,9.97929,0.1,136.6854,1619480529999
Fix,GT,37.3648561,-122.0287973,4.395005408763885,10.904634,0.1,136.49854,1619480530999
Fix,GT,37.3647815,-122.0287085,4.349018928587436,11.931142,0.1,136.32477,1619480531999
Fix,GT,37.3647007,-122.0286113,4.311008111357689,12.851665,0.1,135.8841,1619480532999
Fix,GT,37.3646151,-122.028507,4.311002703547477,13.666376,0.1,135.6319,1619480533999
Fix,GT,37.3645243,-122.0283965,4.287008109569549,14.410553,0.1,135.69907,1619480534999
Fix,GT,37.3644294,-122.0282806,4.264008108675481,14.983893,0.1,135.60187,1619480535999
Fix,GT,37.3643311,-122.0281606,4.247010810136795,15.488392,0.1,135.73917,1619480536999
Fix,GT,37.3642296,-122.0280375,4.232008106708526,15.747111,0.1,135.86243,1619480537999
Fix,GT,37.3641273,-122.0279142,4.220010807752609,15.723102,0.1,136.25113,1619480538999
Fix,GT,37.3640243,-122.0277917,4.191997298300267,15.861942,0.1,136.46472,1619480539999
Fix,GT,37.3639199,-122.0276675,4.147024312078953,16.059093,0.1,136.2933,1619480540999
Fix,GT,37.3638149,-122.0275414,4.116008103132248,16.24607,0.1,136.06079,1619480541999
Fix,GT,37.3637088,-122.0274146,4.125983795523643,16.258814,0.1,136.31152,1619480542999
Fix,GT,37.3636031,-122.027288,4.124008101165295,16.202398,0.1,136.04382,1619480543999
Fix,GT,37.3634984,-122.0271608,4.114010800361633,16.173576,0.1,135.6518,1619480544999
Fix,GT,37.3633941,-122.0270338,4.106021598815918,16.042482,0.1,135.77002,1619480545999
Fix,GT,37.3632909,-122.0269087,4.078032393932342,15.897536,0.1,135.90479,1619480546999
Fix,GT,37.3631879,-122.0267838,4.021010796785355,15.924985,0.1,135.76855,1619480547999
Fix,GT,37.3630849,-122.0266589,3.974013494491577,15.888124,0.1,135.92157,1619480548999
Fix,GT,37.3629824,-122.0265351,3.9520053973197937,15.686713,0.1,135.9776,1619480549999
Fix,GT,37.3628816,-122.0264134,3.9350269830226896,15.385737,0.1,135.9336,1619480550999
Fix,GT,37.362783,-122.0262938,3.9370026980042456,15.083511,0.1,135.73071,1619480551999
Fix,GT,37.3626867,-122.0261768,3.940005395412445,14.665583,0.1,135.79819,1619480552999
Fix,GT,37.3625932,-122.0260632,3.9529946053028095,14.2756815,0.1,135.82568,1619480553999
Fix,GT,37.3625019,-122.0259526,3.989005394101143,13.88806,0.1,135.80493,1619480554999
Fix,GT,37.3624137,-122.0258454,4.039994606375695,13.361253,0.1,135.79956,1619480555999
Fix,GT,37.3623294,-122.0257431,4.09499460709095,12.670146,0.1,135.81909,1619480556999
Fix,GT,37.3622506,-122.0256476,4.144986519217491,11.553359,0.1,135.90341,1619480557999
Fix,GT,37.3621807,-122.0255633,4.2089838248491285,9.955011,0.1,135.98044,1619480558999
Fix,GT,37.3621213,-122.0254917,4.2619865224957465,8.33671,0.1,136.09708,1619480559999
Fix,GT,37.3620716,-122.0254322,4.298,7.016019,0.1,136.16782,1619480560999
Fix,GT,37.3620304,-122.0253827,4.326991915106773,5.611106,0.1,136.12915,1619480561999
Fix,GT,37.3619993,-122.0253451,4.335,4.024855,0.1,136.03424,1619480562999
Fix,GT,37.361978,-122.0253196,4.353997305691242,2.597394,0.1,135.9848,1619480563999
Fix,GT,37.3619648,-122.0253037,4.362997305989266,1.3695709,0.1,135.9165,1619480564999
Fix,GT,37.3619607,-122.0252986,4.367,0.0034452346,0.1,135.90335,1619480565999
Fix,GT,37.3619607,-122.0252988,4.361,0.001413098,0.1,135.90897,1619480566999
Fix,GT,37.3619607,-122.0252988,4.361,0.0031634714,0.1,135.90613,1619480567999
Fix,GT,37.3619607,-122.0252988,4.361,0.002826832,0.1,135.90628,1619480568999
Fix,GT,37.3619607,-122.0252988,4.361,0.0010070154,0.1,135.9071,1619480569999
Fix,GT,37.3619607,-122.0252988,4.361,0.0019973079,0.1,135.90738,1619480570999
Fix,GT,37.3619607,-122.0252988,4.361,0.002236068,0.1,135.90643,1619480571999
Fix,GT,37.3619607,-122.0252988,4.361,0.0010011148,0.1,135.90662,1619480572999
Fix,GT,37.3619607,-122.0252988,4.361,0.001,0.1,135.9065,1619480573999
Fix,GT,37.3619607,-122.0252988,4.361,0.0010033263,0.1,135.90656,1619480574999
Fix,GT,37.3619607,-122.0252988,4.361,0.0010011146,0.1,135.906,1619480575999
Fix,GT,37.3619607,-122.0252988,4.361,0.001,0.1,135.90619,1619480576999
Fix,GT,37.3619607,-122.0252988,4.361,0.0014130994,0.1,135.90613,1619480577999
Fix,GT,37.3619607,-122.0252988,4.361,0.0014130995,0.1,135.90573,1619480578999
Fix,GT,37.3619607,-122.0252988,4.361,0.0014130996,0.1,135.906,1619480579999
Fix,GT,37.3619607,-122.0252988,4.361,0.0022327441,0.1,135.90637,1619480580999
Fix,GT,37.3619607,-122.0252988,4.361,0.0010033236,0.1,135.90637,1619480581999
Fix,GT,37.3619607,-122.0252988,4.361,0.0020006348,0.1,135.90643,1619480582999
Fix,GT,37.3619607,-122.0252988,4.361,0.0010026882,0.1,135.90625,1619480583999
Fix,GT,37.3619607,-122.0252988,4.361,0.001,0.1,135.90616,1619480584999
Fix,GT,37.3619607,-122.0252988,4.361,0.0010026876,0.1,135.906,1619480585999
Fix,GT,37.3619607,-122.0252988,4.361,0.0020006343,0.1,135.90646,1619480586999
Fix,GT,37.3619607,-122.0252988,4.361,0.002,0.1,135.90637,1619480587999
Fix,GT,37.3619607,-122.0252988,4.361,0.0029957397,0.1,135.90564,1619480588999
Fix,GT,37.3619607,-122.0252988,4.361,0.0029979479,0.1,135.90567,1619480589999
Fix,GT,37.3619607,-122.0252988,4.361,0.002,0.1,135.90549,1619480590999
Fix,GT,37.3619607,-122.0252988,4.361,0.002,0.1,135.90549,1619480591999
Fix,GT,37.3619607,-122.0252988,4.361,0.002,0.1,135.90564,1619480592999
Fix,GT,37.3619607,-122.0252988,4.361,0.002,0.1,135.9054,1619480593999
Fix,GT,37.3619607,-122.0252988,4.361,0.002,0.1,135.90533,1619480594999
Fix,GT,37.3619607,-122.0252988,4.361,0.0022354343,0.1,135.90527,1619480595999
Fix,GT,37.3619607,-122.0252988,4.361,0.0022354343,0.1,135.90524,1619480596999
Fix,GT,37.3619607,-122.0252988,4.361,0.002,0.1,135.90552,1619480597999
Fix,GT,37.3619607,-122.0252988,4.361,0.001,0.1,135.90546,1619480598999
Fix,GT,37.3619607,-122.0252988,4.361,0.001,0.1,135.9054,1619480599999
Fix,GT,37.3619607,-122.0252988,4.361,0.001,0.1,135.90527,1619480600999
Fix,GT,37.3619607,-122.0252988,4.361,0.001,0.1,135.90598,1619480601999
Fix,GT,37.3619607,-122.0252988,4.361,0.002,0.1,135.9057,1619480602999
Fix,GT,37.3619607,-122.0252988,4.361,0.001998429,0.1,135.90573,1619480603999
Fix,GT,37.3619607,-122.0252988,4.361,0.0010033149,0.1,135.90536,1619480604999
Fix,GT,37.3619607,-122.0252988,4.361,0.0019973188,0.1,135.90533,1619480605999
Fix,GT,37.3619607,-122.0252988,4.361,0.002000633,0.1,135.90552,1619480606999
Fix,GT,37.3619607,-122.0252988,4.361,0.002238551,0.1,135.90576,1619480607999
Fix,GT,37.3619607,-122.0252988,4.361,0.002,0.1,135.90622,1619480608999
Fix,GT,37.3619607,-122.0252988,4.361,0.002,0.1,135.90599,1619480609999
Fix,GT,37.3619607,-122.0252987,4.361,0.0010026799,0.1,135.90497,1619480610999
Fix,GT,37.3619607,-122.0252987,4.361,0.0010011101,0.1,135.905,1619480611999
Fix,GT,37.3619607,-122.0252987,4.361,0.001,0.1,135.90466,1619480612999
Fix,GT,37.3619607,-122.0252987,4.361,0.001,0.1,135.90479,1619480613999
Fix,GT,37.3619607,-122.0252987,4.361,0.0014157827,0.1,135.90472,1619480614999
Fix,GT,37.3619607,-122.0252987,4.361,0.0014131041,0.1,135.9047,1619480615999
Fix,GT,37.3619607,-122.0252987,4.361,0.001,0.1,135.90445,1619480616999
Fix,GT,37.3619607,-122.0252987,4.361,0.0022354359,0.1,135.9049,1619480617999
Fix,GT,37.3619607,-122.0252987,4.361,0.002235436,0.1,135.90463,1619480618999
Fix,GT,37.3619607,-122.0252987,4.361,0.0014142136,0.1,135.90454,1619480619999
Fix,GT,37.3619607,-122.0252987,4.361,0.002236068,0.1,135.90448,1619480620999
Fix,GT,37.3619607,-122.0252987,4.361,0.002236068,0.1,135.90463,1619480621999
Fix,GT,37.3619607,-122.0252987,4.361,0.0028268418,0.1,135.90472,1619480622999
Fix,GT,37.3619607,-122.0252987,4.361,0.002236068,0.1,135.90479,1619480623999
Fix,GT,37.3619607,-122.0252987,4.361,0.0031597991,0.1,135.9046,1619480624999
Fix,GT,37.3619607,-122.0252987,4.361,0.0020006315,0.1,135.9049,1619480625999
Fix,GT,37.3619607,-122.0252987,4.361,0.0014164123,0.1,135.90463,1619480626999
Fix,GT,37.3619607,-122.0252987,4.361,0.001001108,0.1,135.90454,1619480627999
Fix,GT,37.3619607,-122.0252987,4.361,0.0014164117,0.1,135.90408,1619480628999
Fix,GT,37.3619607,-122.0252987,4.361,0.0014157802,0.1,135.90411,1619480629999
Fix,GT,37.3619607,-122.0252987,4.361,0.0014142136,0.1,135.90497,1619480630999
Fix,GT,37.3619607,-122.0252987,4.361,0.0014142136,0.1,135.90399,1619480631999
Fix,GT,37.3619607,-122.0252987,4.361,0.001,0.1,135.90417,1619480632999
Fix,GT,37.3619607,-122.0252987,4.361,0.001,0.1,135.90393,1619480633999
Fix,GT,37.3619607,-122.0252987,4.361,0.001,0.1,135.90369,1619480634999
Fix,GT,37.3619607,-122.0252987,4.361,0.001,0.1,135.90308,1619480635999
Fix,GT,37.3619607,-122.0252987,4.361,0.001,0.1,135.90292,1619480636999
Fix,GT,37.3619607,-122.0252987,4.361,0.0010026721,0.1,135.90305,1619480637999
Fix,GT,37.3619607,-122.0252987,4.361,0.0031591724,0.1,135.90265,1619480638999
Fix,GT,37.3619607,-122.0252987,4.361,0.001003302,0.1,135.90295,1619480639999
Fix,GT,37.3619607,-122.0252987,4.361,0.002236068,0.1,135.90271,1619480640999
Fix,GT,37.3619607,-122.0252987,4.361,0.0010011063,0.1,135.90302,1619480641999
Fix,GT,37.3619607,-122.0252987,4.361,0.001,0.1,135.9032,1619480642999
Fix,GT,37.3619607,-122.0252987,4.361,0.0014131076,0.1,135.90369,1619480643999
Fix,GT,37.3619607,-122.0252987,4.361,0.0014131077,0.1,135.90363,1619480644999
Fix,GT,37.3619608,-122.0252987,4.361,0.002824652,0.1,135.90344,1619480645999
Fix,GT,37.36196,-122.0252977,4.355002669215203,0.448047,0.1,135.90433,1619480646999
Fix,GT,37.3619516,-122.0252876,4.348,2.2165108,0.1,135.88348,1619480647999
Fix,GT,37.3619305,-122.025262,4.366994662761688,4.278712,0.1,135.7897,1619480648999
Fix,GT,37.3618967,-122.0252207,4.377994663357735,6.293827,0.1,135.62207,1619480649999
Fix,GT,37.3618506,-122.0251643,4.393005336046218,7.854037,0.1,135.57095,1619480650999
Fix,GT,37.3617963,-122.0250984,4.448986661076546,8.977592,0.1,135.9361,1619480651999
Fix,GT,37.3617336,-122.0250234,4.508981328010559,10.233479,0.1,136.3251,1619480652999
Fix,GT,37.3616632,-122.0249395,4.54799199861288,11.378822,0.1,136.27966,1619480653999
Fix,GT,37.3615854,-122.0248459,4.613989332914352,12.547494,0.1,136.02734,1619480654999
Fix,GT,37.3615008,-122.0247449,4.668978667736053,13.405467,0.1,136.41656,1619480655999
Fix,GT,37.3614101,-122.0246379,4.74298400259018,14.255834,0.1,136.68152,1619480656999
Fix,GT,37.3613138,-122.0245244,4.792989336252212,15.016363,0.1,136.60172,1619480657999
Fix,GT,37.3612137,-122.0244057,4.872970678627492,15.56881,0.1,136.24255,1619480658999
Fix,GT,37.361111,-122.0242827,4.939962686061859,15.951522,0.1,136.26569,1619480659999
Fix,GT,37.361006,-122.0241562,5.005997334957123,16.427206,0.1,135.71912,1619480660999
Fix,GT,37.3608984,-122.0240238,5.07597335255146,16.998991,0.1,135.2015,1619480661999
Fix,GT,37.3607882,-122.023887,5.153984013676643,17.433098,0.1,135.19742,1619480662999
Fix,GT,37.3606751,-122.0237472,5.232002664089203,17.796926,0.1,135.44562,1619480663999
Fix,GT,37.3605593,-122.0236055,5.3179840176105495,18.163412,0.1,135.69397,1619480664999
Fix,GT,37.3604412,-122.0234622,5.401973365068436,18.226501,0.1,135.88568,1619480665999
Fix,GT,37.3603235,-122.0233191,5.478976031243801,18.273,0.1,135.71094,1619480666999
Fix,GT,37.3602043,-122.0231742,5.53998135972023,18.576475,0.1,135.83136,1619480667999
Fix,GT,37.3600832,-122.0230275,5.631981362223625,18.824852,0.1,135.98035,1619480668999
Fix,GT,37.3599607,-122.02288,5.703984026551247,18.867285,0.1,135.975,1619480669999
Fix,GT,37.3598381,-122.022732,5.782960069954396,18.920444,0.1,136.00183,1619480670999
Fix,GT,37.3597154,-122.0225836,5.894976044654846,18.889385,0.1,135.7222,1619480671999
Fix,GT,37.3595942,-122.0224358,5.95996540248394,18.682703,0.1,135.68982,1619480672999
Fix,GT,37.3594735,-122.0222889,6.0689946779012685,18.668259,0.1,135.7735,1619480673999
Fix,GT,37.3593527,-122.0221422,6.151973391890526,18.681751,0.1,135.85352,1619480674999
Fix,GT,37.3592308,-122.0219951,6.216965414106846,18.913616,0.1,136.01624,1619480675999
Fix,GT,37.3591068,-122.0218464,6.306981378912926,19.182878,0.1,136.21393,1619480676999
Fix,GT,37.3589816,-122.021696,6.363970741569996,19.296076,0.1,136.05624,1619480677999
Fix,GT,37.358856,-122.0215447,6.458986702501773,19.420631,0.1,135.9636,1619480678999
Fix,GT,37.3587292,-122.0213921,6.535989362955093,19.599352,0.1,136.04022,1619480679999
Fix,GT,37.3586011,-122.0212387,6.608973410367966,19.741974,0.1,136.20541,1619480680999
Fix,GT,37.3584722,-122.0210844,6.646976072013378,19.794743,0.1,136.18033,1619480681999
Fix,GT,37.3583445,-122.0209302,6.7289813918471335,19.568436,0.1,135.83081,1619480682999
Fix,GT,37.358218,-122.0207764,6.797984051585197,19.60666,0.1,135.69568,1619480683999
Fix,GT,37.3580911,-122.0206218,6.842989368915558,19.69548,0.1,135.69052,1619480684999
Fix,GT,37.3579637,-122.0204667,6.903978740692138,19.735512,0.1,135.75552,1619480685999
Fix,GT,37.3578356,-122.0203115,6.917,19.8061,0.1,135.8833,1619480686999
Fix,GT,37.3577072,-122.0201561,6.899,19.811777,0.1,135.87097,1619480687999
Fix,GT,37.3575792,-122.0200011,6.860005313158036,19.674646,0.1,135.8624,1619480688999
Fix,GT,37.3574521,-122.0198468,6.793031876087189,19.725521,0.1,135.74445,1619480689999
Fix,GT,37.357324,-122.0196905,6.687029215812683,19.901815,0.1,135.59985,1619480690999
Fix,GT,37.3571956,-122.0195337,6.561055769383907,19.880346,0.1,135.69666,1619480691999
Fix,GT,37.3570673,-122.0193781,6.405034520030022,19.736372,0.1,135.93707,1619480692999
Fix,GT,37.3569398,-122.0192247,6.303018586039544,19.490767,0.1,136.13232,1619480693999
Fix,GT,37.356814,-122.0190734,6.166037167072297,19.226631,0.1,136.02924,1619480694999
Fix,GT,37.3566901,-122.0189239,6.033034508407116,18.962137,0.1,135.92572,1619480695999
Fix,GT,37.356568,-122.0187761,5.9260238882899285,18.707123,0.1,135.82275,1619480696999
Fix,GT,37.3564477,-122.0186303,5.771034500658511,18.461006,0.1,135.89725,1619480697999
Fix,GT,37.3563287,-122.0184865,5.656031843185424,18.302223,0.1,135.94754,1619480698999
Fix,GT,37.3562089,-122.018342,5.550026533007622,18.612377,0.1,136.04309,1619480699999
Fix,GT,37.3560875,-122.0181964,5.432037141203881,18.682293,0.1,136.20453,1619480700999
Fix,GT,37.3559651,-122.0180501,5.3160238743424415,18.84291,0.1,136.28705,1619480701999
Fix,GT,37.3558417,-122.0179031,5.26402121925354,18.964296,0.1,136.39005,1619480702999
Fix,GT,37.3557173,-122.0177551,5.241013260543346,19.083767,0.1,136.133,1619480703999
Fix,GT,37.3555935,-122.017605,5.222015910506249,19.200874,0.1,135.68558,1619480704999
Fix,GT,37.355469,-122.0174537,5.247986742436886,19.22228,0.1,135.95587,1619480705999
Fix,GT,37.3553442,-122.0173046,5.3239840927124025,19.05453,0.1,136.48694,1619480706999
Fix,GT,37.3552202,-122.0171579,5.3779920474290845,18.773485,0.1,136.38202,1619480707999
Fix,GT,37.3550991,-122.0170125,5.434981445670127,18.451889,0.1,135.88391,1619480708999
Fix,GT,37.354981,-122.0168686,5.48898674839735,18.147762,0.1,135.51892,1619480709999
Fix,GT,37.354864,-122.0167244,5.56998409986496,18.32341,0.1,135.21545,1619480710999
Fix,GT,37.3547457,-122.0165785,5.608986751675606,18.498152,0.1,135.6004,1619480711999
Fix,GT,37.3546256,-122.0164323,5.667976155161858,18.646618,0.1,135.88464,1619480712999
Fix,GT,37.3545049,-122.0162875,5.736986754357814,18.430748,0.1,136.29987,1619480713999
Fix,GT,37.3543855,-122.0161453,5.801970863521099,18.167097,0.1,136.39032,1619480714999
Fix,GT,37.3542678,-122.016005,5.8709894058704375,17.877886,0.1,136.22311,1619480715999
Fix,GT,37.3541541,-122.0158673,5.93498940706253,17.118532,0.1,135.57285,1619480716999
Fix,GT,37.3540476,-122.0157353,6.001034423172475,16.15482,0.1,134.95636,1619480717999
Fix,GT,37.3539484,-122.0156083,6.0569814669489865,15.388854,0.1,133.86792,1619480718999
Fix,GT,37.3538563,-122.0154856,6.118970879256724,14.4648905,0.1,132.72382,1619480719999
Fix,GT,37.3537723,-122.0153683,6.159992058873177,13.396455,0.1,131.2027,1619480720999
Fix,GT,37.353698,-122.0152578,6.220981472790242,12.220717,0.1,129.38263,1619480721999
Fix,GT,37.3536324,-122.0151547,6.25399206084013,11.117715,0.1,128.09015,1619480722999
Fix,GT,37.3535749,-122.0150609,6.275997353851795,9.853427,0.1,127.02908,1619480723999
Fix,GT,37.3535258,-122.0149769,6.282997354149819,8.6207485,0.1,125.93179,1619480724999
Fix,GT,37.3534828,-122.014902,6.302997354507446,7.6896067,0.1,125.61365,1619480725999
Fix,GT,37.353445,-122.0148354,6.335984128475189,6.8129644,0.1,125.295746,1619480726999
Fix,GT,37.3534124,-122.0147771,6.349997355043888,5.7333198,0.1,124.98514,1619480727999
Fix,GT,37.3533864,-122.0147307,6.359994710683822,4.319685,0.1,124.908356,1619480728999
Fix,GT,37.3533677,-122.014697,6.36299735569954,2.9598248,0.1,124.85419,1619480729999
Fix,GT,37.3533546,-122.0146735,6.36,2.2113266,0.1,124.88901,1619480730999
Fix,GT,37.3533453,-122.0146568,6.36000264376402,1.3171303,0.1,124.829834,1619480731999
Fix,GT,37.3533412,-122.0146494,6.361,0.28404886,0.1,124.78165,1619480732999
Fix,GT,37.353341,-122.0146491,6.355002643108368,0.0010127688,0.1,124.778625,1619480733999
Fix,GT,37.353341,-122.0146491,6.35599735713005,0.0022328012,0.1,124.777954,1619480734999
Fix,GT,37.353341,-122.0146491,6.356,0.001,0.1,124.77708,1619480735999
Fix,GT,37.353341,-122.0146491,6.356,0.0009973579,0.1,124.77734,1619480736999
Fix,GT,37.353341,-122.0146491,6.356,0.0014131193,0.1,124.77725,1619480737999
Fix,GT,37.3533409,-122.014649,6.352005283355713,0.124099165,0.1,124.77356,1619480738999
Fix,GT,37.3533383,-122.0146443,6.350002641379833,0.87443817,0.1,124.71689,1619480739999
Fix,GT,37.3533321,-122.0146328,6.348997358858585,1.6272726,0.1,124.58856,1619480740999
Fix,GT,37.353321,-122.0146132,6.340002640783786,2.8117485,0.1,125.09271,1619480741999
Fix,GT,37.3533018,-122.0145803,6.34699207854271,4.445586,0.1,126.190704,1619480742999
Fix,GT,37.3532725,-122.0145313,6.368986799061298,6.4610906,0.1,126.6438,1619480743999
Fix,GT,37.3532328,-122.0144642,6.40598944067955,8.214154,0.1,126.428375,1619480744999
Fix,GT,37.3531867,-122.0143847,6.458981522858142,9.2082405,0.1,125.697815,1619480745999
Fix,GT,37.353136,-122.0142948,6.513992082118988,10.323166,0.1,125.28616,1619480746999
Fix,GT,37.3530798,-122.0141958,6.546976249575614,11.164618,0.1,125.17938,1619480747999
Fix,GT,37.3530211,-122.0140893,6.561994722723961,11.743683,0.1,124.14911,1619480748999
Fix,GT,37.3529612,-122.0139754,6.60099208498001,12.417588,0.1,122.85199,1619480749999
Fix,GT,37.3529003,-122.0138505,6.627002638101578,13.55846,0.1,120.30942,1619480750999
Fix,GT,37.35284,-122.013711,6.6529868112802495,14.541661,0.1,117.49811,1619480751999
Fix,GT,37.3527798,-122.0135588,6.700989450216293,15.463717,0.1,115.408936,1619480752999
Fix,GT,37.3527202,-122.0133966,6.698,16.071854,0.1,114.05609,1619480753999
Fix,GT,37.352663,-122.0132307,6.72499472618103,15.903382,0.1,112.80975,1619480754999
Fix,GT,37.352609,-122.0130655,6.746002636611462,15.779374,0.1,111.79129,1619480755999
Fix,GT,37.3525573,-122.0128986,6.754021090507507,15.969713,0.1,110.65881,1619480756999
Fix,GT,37.3525076,-122.0127268,6.7530079080462455,16.431808,0.1,109.29889,1619480757999
Fix,GT,37.3524601,-122.0125484,6.730002635657788,16.846357,0.1,107.62189,1619480758999
Fix,GT,37.3524169,-122.0123652,6.676047437548637,16.979849,0.1,105.256226,1619480759999
Fix,GT,37.3523799,-122.0121781,6.628010540485382,17.165163,0.1,102.881714,1619480760999
Fix,GT,37.352347,-122.0119878,6.538021079063416,17.376299,0.1,101.71979,1619480761999
Fix,GT,37.3523161,-122.011794,6.432042153358459,17.631279,0.1,100.90918,1619480762999
Fix,GT,37.3522861,-122.0115969,6.242050050318241,17.880472,0.1,100.65784,1619480763999
Fix,GT,37.3522567,-122.0113972,6.060055313766003,18.105831,0.1,100.13541,1619480764999
Fix,GT,37.3522298,-122.0111948,5.870044772744179,18.208012,0.1,98.614044,1619480765999
Fix,GT,37.3522075,-122.0109916,5.6360658333301545,18.106377,0.1,97.18222,1619480766999
Fix,GT,37.3521896,-122.0107896,5.4280421295166015,17.92278,0.1,95.57712,1619480767999
Fix,GT,37.3521761,-122.010589,5.2050684527158735,17.706106,0.1,94.09604,1619480768999
Fix,GT,37.3521675,-122.0103934,4.999057914972305,16.9427,0.1,92.216064,1619480769999
Fix,GT,37.3521633,-122.0102073,4.801063174247743,15.956087,0.1,91.10492,1619480770999
Fix,GT,37.3521613,-122.0100333,4.598065797567367,14.866853,0.1,90.50647,1619480771999
Fix,GT,37.3521609,-122.0098726,4.44704736995697,13.648307,0.1,89.97946,1619480772999
Fix,GT,37.3521609,-122.0097218,4.271042101860046,13.231066,0.1,89.82324,1619480773999
Fix,GT,37.3521613,-122.0095736,4.137026310682296,12.944256,0.1,89.65344,1619480774999
Fix,GT,37.3521617,-122.0094335,4.027021046161652,11.781418,0.1,89.7319,1619480775999
Fix,GT,37.3521617,-122.0093101,3.963010522127152,9.84961,0.1,90.00125,1619480776999
Fix,GT,37.3521616,-122.009212,3.912013151168823,7.49462,0.1,89.94141,1619480777999
Fix,GT,37.3521618,-122.0091404,3.873005259871483,5.27955,0.1,89.740845,1619480778999
Fix,GT,37.3521619,-122.0090906,3.847005259156227,3.6723924,0.1,89.567535,1619480779999
Fix,GT,37.3521621,-122.0090587,3.8320052586793896,1.9924867,0.1,89.4498,1619480780999
Fix,GT,37.3521622,-122.0090432,3.819,0.87229383,0.1,89.38104,1619480781999
Fix,GT,37.3521623,-122.0090369,3.812002628743648,0.34906098,0.1,89.345245,1619480782999
Fix,GT,37.3521623,-122.0090326,3.808,0.5319183,0.1,89.31729,1619480783999
Fix,GT,37.3521625,-122.009024,3.804002628147602,1.0238793,0.1,89.26453,1619480784999
Fix,GT,37.3521626,-122.0090092,3.7990026278495774,1.5969516,0.1,89.1835,1619480785999
Fix,GT,37.3521628,-122.0089863,3.78700262761116,2.504842,0.1,89.22949,1619480786999
Fix,GT,37.3521629,-122.0089508,3.7530105090141297,3.938604,0.1,89.54779,1619480787999
Fix,GT,37.3521629,-122.0088963,3.7190131347775455,5.7734594,0.1,89.91931,1619480788999
Fix,GT,37.3521626,-122.0088216,3.688010506629944,7.3667474,0.1,90.23535,1619480789999
Fix,GT,37.3521619,-122.0087318,3.662007879257202,8.511058,0.1,90.435,1619480790999
Fix,GT,37.3521611,-122.0086294,3.6040131303071976,9.6181555,0.1,90.37012,1619480791999
Fix,GT,37.3521604,-122.0085156,3.540013128817081,10.524012,0.1,90.28433,1619480792999
Fix,GT,37.3521597,-122.008392,3.464023629188538,11.37313,0.1,90.31653,1619480793999
Fix,GT,37.3521591,-122.0082592,3.386021000862122,12.114933,0.1,90.01965,1619480794999
Fix,GT,37.3521593,-122.0081187,3.3110288735628126,12.752897,0.1,89.76001,1619480795999
Fix,GT,37.3521595,-122.007972,3.262020996570587,13.253905,0.1,89.83859,1619480796999
Fix,GT,37.3521595,-122.0078197,3.1880209937095647,13.7399435,0.1,89.987885,1619480797999
Fix,GT,37.3521591,-122.0076617,3.071036735653877,14.24795,0.1,90.035645,1619480798999
Fix,GT,37.352159,-122.0074988,2.9550341078042988,14.573935,0.1,89.94562,1619480799999
Fix,GT,37.3521589,-122.0073328,2.8240445974469184,14.844941,0.1,89.85272,1619480800999
Fix,GT,37.3521589,-122.0071639,2.68704197025299,15.063971,0.1,89.90689,1619480801999
Fix,GT,37.3521587,-122.0069933,2.5520288506150246,15.198003,0.1,90.083496,1619480802999
Fix,GT,37.3521583,-122.0068204,2.378044583261013,15.440928,0.1,89.92844,1619480803999
Fix,GT,37.3521583,-122.0066448,2.205055067181587,15.662972,0.1,89.79492,1619480804999
Fix,GT,37.3521588,-122.0064682,2.0650471950769425,15.581165,0.1,89.64703,1619480805999
Fix,GT,37.3521593,-122.0062936,1.939031459093094,15.359157,0.1,89.68872,1619480806999
Fix,GT,37.3521591,-122.0061216,1.834034077584744,15.153234,0.1,90.18677,1619480807999
Fix,GT,37.3521582,-122.00595,1.7750157263278958,15.264418,0.1,90.25244,1619480808999
Fix,GT,37.3521575,-122.0057773,1.7050052416324617,15.370107,0.1,90.10953,1619480809999
Fix,GT,37.3521573,-122.0056029,1.6659921386241912,15.480998,0.1,89.9534,1619480810999
Fix,GT,37.3521575,-122.0054276,1.626015720963478,15.611042,0.1,89.66968,1619480811999
Fix,GT,37.3521585,-122.0052501,1.588010479450226,15.880641,0.1,89.32446,1619480812999
Fix,GT,37.3521602,-122.0050692,1.549981662631035,16.095741,0.1,89.254456,1619480813999
Fix,GT,37.3521606,-122.0048879,1.51702357339859,16.023022,0.1,89.91492,1619480814999
Fix,GT,37.3521614,-122.0047072,1.4870183327794075,16.013716,0.1,89.18176,1619480815999
Fix,GT,37.352164,-122.0045258,1.4600078561902046,16.141209,0.1,88.69806,1619480816999
Fix,GT,37.3521666,-122.0043428,1.4310104734897613,16.289722,0.1,89.02435,1619480817999
Fix,GT,37.352169,-122.0041577,1.3840104722976685,16.522953,0.1,88.76532,1619480818999
Fix,GT,37.3521722,-122.0039701,1.3390157070159912,16.710953,0.1,88.62521,1619480819999
Fix,GT,37.3521753,-122.0037807,1.2840287929177283,16.858295,0.1,88.75339,1619480820999
Fix,GT,37.3521784,-122.0035897,1.193028788983822,17.037962,0.1,88.77307,1619480821999
Fix,GT,37.3521811,-122.0033962,1.1010026169419287,17.264921,0.1,88.8176,1619480822999
Fix,GT,37.3521841,-122.0032004,1.0360026166439058,17.420187,0.1,88.72949,1619480823999
Fix,GT,37.3521878,-122.0030035,0.9200156984329224,17.487743,0.1,88.41153,1619480824999
Fix,GT,37.3521922,-122.002806,0.8560156966447829,17.501093,0.1,88.19537,1619480825999
Fix,GT,37.3521967,-122.0026093,0.8010156944990159,17.36834,0.1,88.25824,1619480826999
Fix,GT,37.352201,-122.0024133,0.705034001648426,17.422338,0.1,88.36417,1619480827999
Fix,GT,37.352205,-122.0022163,0.6260130760669708,17.459892,0.1,88.53888,1619480828999
Fix,GT,37.3522085,-122.0020194,0.5110287634134293,17.44137,0.1,88.64874,1619480829999
Fix,GT,37.3522115,-122.0018232,0.394018302321434,17.303232,0.1,88.92108,1619480830999
Fix,GT,37.3522134,-122.0016292,0.2340522863864899,17.086702,0.1,89.43353,1619480831999
Fix,GT,37.3522135,-122.0014375,0.1240287542343139,16.854242,0.1,90.18982,1619480832999
Fix,GT,37.3522119,-122.0012486,-0.0369634070396423,16.636236,0.1,90.56378,1619480833999
Fix,GT,37.352211,-122.0010621,-0.1579686388969421,16.410082,0.1,89.99628,1619480834999
Fix,GT,37.3522117,-122.0008782,-0.2979686424732208,16.179846,0.1,89.30853,1619480835999
Fix,GT,37.3522141,-122.0006969,-0.4349634203910827,15.9438505,0.1,88.66107,1619480836999
Fix,GT,37.3522176,-122.0005184,-0.5099581995010376,15.700817,0.1,88.476135,1619480837999
Fix,GT,37.3522206,-122.0003428,-0.6209817143678665,15.384498,0.1,88.65869,1619480838999
Fix,GT,37.3522233,-122.0001688,-0.7469791040420533,15.590315,0.1,88.868774,1619480839999
Fix,GT,37.3522257,-121.9999896,-0.8719634362459182,16.079742,0.1,89.032715,1619480840999
Fix,GT,37.3522273,-121.9998068,-0.9879634412527084,16.290924,0.1,89.357025,1619480841999
Fix,GT,37.3522288,-121.9996237,-1.1019634445905686,16.130095,0.1,89.11865,1619480842999
Fix,GT,37.3522315,-121.9994432,-1.214971281170845,15.852653,0.1,88.64856,1619480843999
Fix,GT,37.3522352,-121.9992658,-1.3429634521007536,15.595025,0.1,88.290924,1619480844999
Fix,GT,37.352239,-121.9990914,-1.4259686768054962,15.320695,0.1,88.31064,1619480845999
Fix,GT,37.3522424,-121.9989205,-1.5289712910056117,14.913341,0.1,88.58838,1619480846999
Fix,GT,37.3522447,-121.9987546,-1.6169869516491888,14.537659,0.1,89.05603,1619480847999
Fix,GT,37.352246,-121.9985924,-1.677986953139305,14.135511,0.1,89.51172,1619480848999
Fix,GT,37.3522463,-121.9984373,-1.729981736063957,13.357211,0.1,89.90701,1619480849999
Fix,GT,37.3522456,-121.9982909,-1.7779817385673522,12.519884,0.1,90.464294,1619480850999
Fix,GT,37.3522438,-121.9981565,-1.809,11.3063135,0.1,90.98999,1619480851999
Fix,GT,37.3522418,-121.9980364,-1.877984350919724,9.990554,0.1,91.10004,1619480852999
Fix,GT,37.3522402,-121.9979283,-1.915989568233489,9.3645525,0.1,90.86435,1619480853999
Fix,GT,37.3522391,-121.9978238,-1.9709947848320009,9.156859,0.1,90.61734,1619480854999
Fix,GT,37.3522383,-121.9977214,-2.0110026073455813,8.981418,0.1,90.375305,1619480855999
Fix,GT,37.3522376,-121.9976201,-2.051986964762211,9.140194,0.1,90.371185,1619480856999
Fix,GT,37.3522367,-121.9975134,-2.107986966252327,9.833342,0.1,90.615326,1619480857999
Fix,GT,37.3522353,-121.997398,-2.146984361290931,10.546426,0.1,90.86276,1619480858999
Fix,GT,37.3522337,-121.9972767,-2.192994787693024,10.954162,0.1,90.77002,1619480859999
Fix,GT,37.3522325,-121.9971512,-2.252971334934235,11.255591,0.1,90.51361,1619480860999
Fix,GT,37.3522318,-121.9970223,-2.319981760680676,11.572052,0.1,90.19107,1619480861999
Fix,GT,37.3522316,-121.9968902,-2.3979843684434896,11.796009,0.1,89.8266,1619480862999
Fix,GT,37.3522323,-121.9967578,-2.457986975193024,11.65762,0.1,89.31445,1619480863999
Fix,GT,37.3522338,-121.9966272,-2.52098437166214,11.484274,0.1,89.00867,1619480864999
Fix,GT,37.3522354,-121.9964986,-2.565989582061768,11.326532,0.1,88.917725,1619480865999
Fix,GT,37.3522371,-121.9963706,-2.575997395813465,11.362662,0.1,88.93164,1619480866999
Fix,GT,37.3522389,-121.9962415,-2.561002603828907,11.522981,0.1,88.8519,1619480867999
Fix,GT,37.3522414,-121.9961098,-2.5930026035904885,11.84259,0.1,88.26767,1619480868999
Fix,GT,37.3522456,-121.9959749,-2.6379921899437906,12.088102,0.1,87.2565,1619480869999
Fix,GT,37.3522529,-121.9958374,-2.680986984729767,12.279779,0.1,85.36899,1619480870999
Fix,GT,37.3522635,-121.9956984,-2.723984383821488,12.469326,0.1,83.809906,1619480871999
Fix,GT,37.3522764,-121.995559,-2.772989590406418,12.413041,0.1,83.26404,1619480872999
Fix,GT,37.3522892,-121.9954173,-2.803989591360092,12.919483,0.1,83.49158,1619480873999
Fix,GT,37.352302,-121.9952696,-2.8119895925521847,13.37251,0.1,83.96924,1619480874999
Fix,GT,37.3523127,-121.9951183,-2.7879869924783707,13.445347,0.1,85.47037,1619480875999
Fix,GT,37.3523196,-121.9949676,-2.8050052025318144,13.310388,0.1,87.563354,1619480876999
Fix,GT,37.3523212,-121.9948173,-2.8199869951605794,13.39001,0.1,89.80356,1619480877999
Fix,GT,37.3523208,-121.9946642,-2.846976593434811,13.758067,0.1,90.15735,1619480878999
Fix,GT,37.3523206,-121.9945064,-2.869942791819573,14.217874,0.1,89.84738,1619480879999
Fix,GT,37.3523207,-121.9943429,-2.948986999332905,14.733888,0.1,89.875885,1619480880999
Fix,GT,37.3523207,-121.9941742,-3.0239896006584166,15.124925,0.1,89.85742,1619480881999
Fix,GT,37.3523207,-121.9940016,-3.037012997984886,15.478906,0.1,89.7301,1619480882999
Fix,GT,37.3523211,-121.9938249,-3.077992202103138,15.819937,0.1,89.74463,1619480883999
Fix,GT,37.3523212,-121.9936446,-3.133981806576252,16.11693,0.1,89.899414,1619480884999
Fix,GT,37.3523208,-121.9934611,-3.188976611673832,16.403975,0.1,90.03418,1619480885999
Fix,GT,37.3523203,-121.9932739,-3.236968819141388,16.770975,0.1,90.0694,1619480886999
Fix,GT,37.3523197,-121.9930829,-3.3219870091676715,17.073183,0.1,90.230255,1619480887999
Fix,GT,37.3523188,-121.9928888,-3.403971423447132,17.283278,0.1,90.21454,1619480888999
Fix,GT,37.3523189,-121.9926932,-3.456,17.391268,0.1,89.627106,1619480889999
Fix,GT,37.3523201,-121.9924959,-3.505984416007996,17.570023,0.1,89.358765,1619480890999
Fix,GT,37.3523215,-121.9922966,-3.578981820344925,17.737427,0.1,89.45889,1619480891999
Fix,GT,37.3523221,-121.9920965,-3.6539740320444105,17.66609,0.1,89.83334,1619480892999
Fix,GT,37.3523221,-121.9918983,-3.734989614009857,17.43807,0.1,89.92212,1619480893999
Fix,GT,37.3523223,-121.9917015,-3.817966250181198,17.508028,0.1,89.71808,1619480894999
Fix,GT,37.3523233,-121.9915027,-3.9219844245910647,17.699482,0.1,89.46646,1619480895999
Fix,GT,37.3523242,-121.9913021,-3.974989617586136,17.832148,0.1,89.605774,1619480896999
Fix,GT,37.352325,-121.991101,-4.015987023174763,17.742254,0.1,89.569214,1619480897999
Fix,GT,37.3523258,-121.9909022,-4.077992214798927,17.492249,0.1,89.649445,1619480898999
Fix,GT,37.3523265,-121.9907061,-4.171989621162415,17.250315,0.1,89.65033,1619480899999
Fix,GT,37.3523272,-121.9905111,-4.242981838703155,17.355108,0.1,89.65662,1619480900999
Fix,GT,37.3523279,-121.9903145,-4.317979246139526,17.497166,0.1,89.6077,1619480901999
Fix,GT,37.3523287,-121.9901164,-4.378002593934537,17.584223,0.1,89.56717,1619480902999
Fix,GT,37.3523295,-121.9899183,-4.455963688254356,17.473202,0.1,89.6004,1619480903999
Fix,GT,37.3523303,-121.9897222,-4.5339896261692045,17.326164,0.1,89.59125,1619480904999
Fix,GT,37.3523313,-121.9895255,-4.575984441399574,17.582308,0.1,89.512665,1619480905999
Fix,GT,37.3523324,-121.9893249,-4.654974071979523,17.961245,0.1,89.46994,1619480906999
Fix,GT,37.3523334,-121.9891213,-4.693994814872741,18.04729,0.1,89.60565,1619480907999
Fix,GT,37.3523337,-121.9889186,-4.743976669609546,17.854069,0.1,89.877014,1619480908999
Fix,GT,37.3523336,-121.9887185,-4.776989631891251,17.615055,0.1,89.97302,1619480909999
Fix,GT,37.3523336,-121.9885212,-4.778005183339119,17.354088,0.1,89.828064,1619480910999
Fix,GT,37.3523338,-121.988327,-4.719044053316116,17.049068,0.1,89.763885,1619480911999
Fix,GT,37.3523346,-121.9881361,-4.725018137931823,16.766441,0.1,89.464935,1619480912999
Fix,GT,37.352337,-121.9879493,-4.68200518155098,16.27753,0.1,88.38898,1619480913999
Fix,GT,37.3523429,-121.9877704,-4.634007771611214,15.388303,0.1,86.93823,1619480914999
Fix,GT,37.3523517,-121.9876046,-4.576007770895957,13.942011,0.1,85.72165,1619480915999
Fix,GT,37.3523609,-121.987456,-4.55,12.538132,0.1,85.643524,1619480916999
Fix,GT,37.3523677,-121.9873231,-4.527002589762211,11.03387,0.1,86.85315,1619480917999
Fix,GT,37.3523711,-121.9872082,-4.510002589464188,9.24298,0.1,88.27872,1619480918999
Fix,GT,37.3523724,-121.9871157,-4.5020051784515385,7.1315446,0.1,89.05145,1619480919999
Fix,GT,37.3523728,-121.9870457,-4.501997411131859,5.259566,0.1,89.762634,1619480920999
Fix,GT,37.3523726,-121.9869964,-4.51,3.5384614,0.1,90.14267,1619480921999
Fix,GT,37.3523724,-121.9869656,-4.524989646673203,2.0433083,0.1,90.29053,1619480922999
Fix,GT,37.3523724,-121.9869491,-4.534,0.84137166,0.1,90.2294,1619480923999
Fix,GT,37.3523724,-121.9869459,-4.541992236793041,0.014020761,0.1,90.1965,1619480924999
Fix,GT,37.3523724,-121.9869459,-4.541,0.001,0.1,90.1976,1619480925999
Fix,GT,37.3523724,-121.9869459,-4.541,0.0010051745,0.1,90.19556,1619480926999
Fix,GT,37.3523724,-121.9869459,-4.541,0.0014142136,0.1,90.195496,1619480927999
Fix,GT,37.3523724,-121.9869459,-4.541,0.0010031974,0.1,90.19537,1619480928999
Fix,GT,37.3523724,-121.9869459,-4.541,0.0014157286,0.1,90.196075,1619480929999
Fix,GT,37.3523724,-121.9869459,-4.541,0.0014142136,0.1,90.19635,1619480930999
Fix,GT,37.3523724,-121.9869459,-4.541,0.0014142136,0.1,90.19624,1619480931999
Fix,GT,37.3523724,-121.9869459,-4.541,0.001,0.1,90.196106,1619480932999
Fix,GT,37.3523724,-121.9869459,-4.541,0.0,0.1,90.196075,1619480933999
Fix,GT,37.3523724,-121.9869459,-4.541,0.0009974152,0.1,90.19589,1619480934999
Fix,GT,37.3523724,-121.9869459,-4.541,0.0,0.1,90.1965,1619480935999
Fix,GT,37.3523724,-121.9869459,-4.541,2.5843979e-06,0.1,90.19638,1619480936999
Fix,GT,37.3523724,-121.9869459,-4.541,0.001,0.1,90.196655,1619480937999
Fix,GT,37.3523724,-121.9869459,-4.541,0.001,0.1,90.19629,1619480938999
Fix,GT,37.3523724,-121.9869459,-4.541,0.0014131435,0.1,90.196655,1619480939999
Fix,GT,37.3523724,-121.9869459,-4.541,0.001,0.1,90.196655,1619480940999
Fix,GT,37.3523724,-121.9869459,-4.541,0.0022328754,0.1,90.19675,1619480941999
Fix,GT,37.3523724,-121.9869459,-4.541,0.0014131437,0.1,90.19751,1619480942999
Fix,GT,37.3523724,-121.9869459,-4.541,0.001,0.1,90.19534,1619480943999
Fix,GT,37.3523724,-121.9869459,-4.541,2.582133e-06,0.1,90.19513,1619480944999
Fix,GT,37.3523724,-121.9869459,-4.541,0.001002582,0.1,90.195496,1619480945999
Fix,GT,37.3523724,-121.9869459,-4.541,0.0009974184,0.1,90.19556,1619480946999
Fix,GT,37.3523724,-121.9869459,-4.541,0.0014131443,0.1,90.195984,1619480947999
Fix,GT,37.3523724,-121.9869459,-4.541,0.001,0.1,90.19526,1619480948999
Fix,GT,37.3523724,-121.9869459,-4.541,0.001,0.1,90.19507,1619480949999
Fix,GT,37.3523724,-121.9869459,-4.541,0.001,0.1,90.1951,1619480950999
Fix,GT,37.3523724,-121.9869459,-4.541,0.00199742,0.1,90.19516,1619480951999
Fix,GT,37.3523724,-121.9869459,-4.541,0.0010010687,0.1,90.194916,1619480952999
Fix,GT,37.3523724,-121.9869459,-4.541,0.00359883,0.1,90.194824,1619480953999
Fix,GT,37.3523724,-121.9869459,-4.541,0.0019984893,0.1,90.194824,1619480954999
Fix,GT,37.3523724,-121.9869459,-4.541,0.0014142136,0.1,90.1947,1619480955999
Fix,GT,37.3523724,-121.9869459,-4.541,0.0014142136,0.1,90.19464,1619480956999
Fix,GT,37.3523724,-121.9869459,-4.541,0.0014157239,0.1,90.19476,1619480957999
Fix,GT,37.3523724,-121.9869459,-4.541,0.001,0.1,90.194916,1619480958999
Fix,GT,37.3523724,-121.9869459,-4.541,0.0010031865,0.1,90.19501,1619480959999
Fix,GT,37.3523724,-121.9869459,-4.541,0.002236068,0.1,90.19519,1619480960999
Fix,GT,37.3523724,-121.9869459,-4.541,0.0028269005,0.1,90.19516,1619480961999
Fix,GT,37.3523724,-121.9869459,-4.541,0.002236068,0.1,90.19522,1619480962999
Fix,GT,37.3523724,-121.9869459,-4.541,0.0014163314,0.1,90.19516,1619480963999
Fix,GT,37.3523724,-121.9869459,-4.541,0.0022328831,0.1,90.19525,1619480964999
Fix,GT,37.3523724,-121.9869459,-4.541,0.001,0.1,90.19519,1619480965999
Fix,GT,37.3523724,-121.9869459,-4.541,0.0014131466,0.1,90.19504,1619480966999
Fix,GT,37.3523724,-121.9869459,-4.541,0.001,0.1,90.19504,1619480967999
Fix,GT,37.3523724,-121.9869459,-4.541,0.0014142136,0.1,90.194885,1619480968999
Fix,GT,37.3523724,-121.9869459,-4.541,0.0014142136,0.1,90.19458,1619480969999
Fix,GT,37.3523724,-121.9869459,-4.541,0.0014131471,0.1,90.19458,1619480970999
Fix,GT,37.3523724,-121.9869459,-4.541,0.001,0.1,90.194214,1619480971999
Fix,GT,37.3523724,-121.9869459,-4.541,2.5743248e-06,0.1,90.19409,1619480972999
Fix,GT,37.3523724,-121.9869459,-4.541,0.0,0.1,90.19418,1619480973999
Fix,GT,37.3523724,-121.9869459,-4.541,0.0009974262,0.1,90.19437,1619480974999
Fix,GT,37.3523724,-121.9869459,-4.541,0.001001066,0.1,90.19403,1619480975999
Fix,GT,37.3523724,-121.9869459,-4.541,0.0014131478,0.1,90.193756,1619480976999
Fix,GT,37.3523724,-121.9869459,-4.542,0.0022375921,0.1,90.19403,1619480977999
Fix,GT,37.3523724,-121.9869459,-4.544,0.0035999138,0.1,90.19342,1619480978999
Fix,GT,37.3523724,-121.9869441,-4.55499742770195,0.5237537,0.1,90.168365,1619480979999
Fix,GT,37.3523733,-121.9869294,-4.567,1.9718125,0.1,87.407166,1619480980999
Fix,GT,37.3523836,-121.9869043,-4.584992284715176,2.7250617,0.1,67.411224,1619480981999
Fix,GT,37.3524089,-121.9868875,-4.59500257152319,2.9983823,0.1,32.496094,1619480982999
Fix,GT,37.3524391,-121.9868944,-4.655987143874168,3.3664432,0.1,353.20972,1619480983999
Fix,GT,37.3524613,-121.9869291,-4.721976861119271,4.0441313,0.1,309.17157,1619480984999
Fix,GT,37.3524665,-121.9869867,-4.74999485874176,6.0951037,0.1,275.10083,1619480985999
Fix,GT,37.3524612,-121.9870691,-4.733,8.443911,0.1,265.49463,1619480986999
Fix,GT,37.352454,-121.9871771,-4.7260051401853564,10.64415,0.1,265.11398,1619480987999
Fix,GT,37.3524478,-121.9873048,-4.719987151324749,12.033652,0.1,267.39508,1619480988999
Fix,GT,37.3524453,-121.9874474,-4.695005138993264,12.953085,0.1,268.92328,1619480989999
Fix,GT,37.3524436,-121.9875929,-4.691997430801392,12.65074,0.1,269.0651,1619480990999
Fix,GT,37.352442,-121.9877311,-4.685002568900585,11.719421,0.1,269.10132,1619480991999
Fix,GT,37.3524403,-121.9878564,-4.718987156689167,10.507532,0.1,268.42773,1619480992999
Fix,GT,37.3524341,-121.9879699,-4.74,9.556357,0.1,264.87946,1619480993999
Fix,GT,37.3524266,-121.9880694,-4.74799229580164,8.032444,0.1,264.32117,1619480994999
Fix,GT,37.3524209,-121.9881477,-4.752002567768097,5.8491154,0.1,264.93967,1619480995999
Fix,GT,37.3524179,-121.9882022,-4.758,3.9613025,0.1,266.29822,1619480996999
Fix,GT,37.3524175,-121.9882375,-4.763997432827949,2.3283112,0.1,268.72864,1619480997999
Fix,GT,37.3524177,-121.9882567,-4.766,1.093315,0.1,269.71558,1619480998999
Fix,GT,37.3524177,-121.9882632,-4.769,0.18717721,0.1,269.69836,1619480999999
Fix,GT,37.3524177,-121.9882634,-4.772002566397191,0.0028314337,0.1,269.702,1619481000999
Fix,GT,37.3524177,-121.9882634,-4.772,0.002236068,0.1,269.70053,1619481001999
Fix,GT,37.3524177,-121.9882634,-4.772,0.0022339593,0.1,269.70004,1619481002999
Fix,GT,37.3524177,-121.9882634,-4.772,0.001,0.1,269.69937,1619481003999
Fix,GT,37.3524177,-121.9882634,-4.772,0.0009974348,0.1,269.69968,1619481004999
