MessageType,Provider,LatitudeDegrees,LongitudeDegrees,AltitudeMeters,SpeedMps,AccuracyMeters,BearingDegrees,UnixTimeMillis
Fix,GT,37.3949743,-122.1016865,-5.384000017549843,4.34548e-06,0.1,30.597198,1615936309000
Fix,GT,37.3949743,-122.1016865,-5.3840001128204165,0.0,0.1,30.597137,1615936310000
Fix,GT,37.3949743,-122.1016865,-5.384000152934343,4.34479e-06,0.1,30.596893,1615936311000
Fix,GT,37.3949743,-122.1016865,-5.383999874643981,0.0,0.099,30.597168,1615936312000
Fix,GT,37.3949743,-122.1016865,-5.383999914757908,6.1434707e-06,0.1,30.596924,1615936313000
Fix,GT,37.3949743,-122.1016865,-5.383999957378954,6.1429764e-06,0.1,30.597046,1615936314000
Fix,GT,37.3949743,-122.1016865,-5.383999944843352,4.3433806e-06,0.1,30.597046,1615936315000
Fix,GT,37.3949743,-122.1016865,-5.384000037606806,0.0,0.1,30.597015,1615936316000
Fix,GT,37.3949743,-122.1016865,-5.38400013287738,0.0009956574,0.1,30.596985,1615936317000
Fix,GT,37.3949743,-122.1016865,-5.384000120341779,0.0,0.1,30.596863,1615936318000
Fix,GT,37.3949743,-122.1016865,-5.384000107806177,0.0,0.1,30.596924,1615936319000
Fix,GT,37.3949743,-122.1016865,-5.383999882165343,0.0,0.1,30.596558,1615936320000
Fix,GT,37.3949743,-122.1016865,-5.383999977435917,0.0009999999,0.1,30.596222,1615936321000
Fix,GT,37.3949743,-122.1016865,-5.384000072706491,0.0010000002,0.1,30.595917,1615936322000
Fix,GT,37.3949743,-122.1016865,-5.3840001128204165,0.0009956595,0.1,30.59674,1615936323000
Fix,GT,37.3949743,-122.1016865,-5.383999887179583,0.0014124158,0.1,30.596619,1615936324000
Fix,GT,37.3949743,-122.1016865,-5.383999982450158,0.001,0.1,30.596619,1615936325000
Fix,GT,37.3949743,-122.1016865,-5.38400013037026,0.0014167557,0.1,30.59616,1615936326000
Fix,GT,37.3949743,-122.1016865,-5.383999849572778,4.33925e-06,0.099,30.596283,1615936327000
Fix,GT,37.3949743,-122.1016865,-5.383999944843352,4.33891e-06,0.1,30.596558,1615936328000
Fix,GT,37.3949743,-122.1016865,-5.38399993230775,0.0010043386,0.1,30.596252,1615936329000
Fix,GT,37.3949743,-122.1016865,-5.384000027578324,0.0009956618,0.1,30.596039,1615936330000
Fix,GT,37.3949743,-122.1016865,-5.3840001228488985,0.0,0.1,30.59616,1615936331000
Fix,GT,37.3949743,-122.1016865,-5.383999842051417,0.0019956627,0.1,30.596191,1615936332000
Fix,GT,37.3949743,-122.1016865,-5.383999884672464,0.0010017966,0.1,30.595917,1615936333000
Fix,GT,37.3949743,-122.1016865,-5.383999872136862,0.0009956632,0.099,30.596436,1615936334000
Fix,GT,37.3949743,-122.1016865,-5.3849999122344885,0.0022263713,0.1,30.596436,1615936335000
Fix,GT,37.3949743,-122.1016865,-5.385000115348957,0.002244769,0.1,30.596588,1615936336000
Fix,GT,37.3949743,-122.1016865,-5.386000155499205,0.001001796,0.1,30.597137,1615936337000
Fix,GT,37.3949743,-122.1016865,-5.385999877105467,0.0028205002,0.099,30.589539,1615936338000
Fix,GT,37.3949749,-122.1016862,-5.390000130515545,0.27761745,0.1,30.199646,1615936339000
Fix,GT,37.3949799,-122.1016846,-5.391004397459328,0.8005826,0.1,26.384003,1615936340000
Fix,GT,37.3949892,-122.1016827,-5.399004384621978,1.2484472,0.1,19.263275,1615936341000
Fix,GT,37.3950029,-122.1016807,-5.416008599945345,1.6989102,0.1,12.438538,1615936342000
Fix,GT,37.3950203,-122.1016781,-5.429999919086694,2.2714086,0.1,9.034637,1615936343000
Fix,GT,37.395044,-122.1016737,-5.455017348521389,3.0425546,0.1,8.793671,1615936344000
Fix,GT,37.3950735,-122.1016643,-5.506008668484166,3.700507,0.1,14.154175,1615936345000
Fix,GT,37.3951072,-122.1016465,-5.552017485640943,4.4216847,0.1,22.747833,1615936346000
Fix,GT,37.3951449,-122.1016216,-5.584017193906009,4.966598,0.1,27.758331,1615936347000
Fix,GT,37.3951837,-122.1015942,-5.623008514590096,4.8992114,0.099,29.404144,1615936348000
Fix,GT,37.3952211,-122.1015664,-5.645008557993918,4.762022,0.1,30.69571,1615936349000
Fix,GT,37.3952568,-122.1015386,-5.647995663509704,4.551211,0.1,32.01584,1615936350000
Fix,GT,37.3952894,-122.1015121,-5.612004422354977,4.0817256,0.1,32.743988,1615936351000
Fix,GT,37.3953179,-122.1014896,-5.676995806924999,3.3272665,0.1,32.07617,1615936352000
Fix,GT,37.3953394,-122.1014731,-5.710013115509879,2.2407048,0.1,31.56607,1615936353000
Fix,GT,37.3953531,-122.1014627,-5.7489871229771525,1.3336525,0.1,31.309998,1615936354000
Fix,GT,37.3953621,-122.1014559,-5.755004200845956,1.1100966,0.099,31.22998,1615936355000
Fix,GT,37.3953718,-122.1014482,-5.772021616133396,1.6305096,0.1,31.83429,1615936356000
Fix,GT,37.3953853,-122.1014329,-5.91209097912861,2.3703868,0.1,39.076263,1615936357000
Fix,GT,37.3953992,-122.1014071,-5.9509438520781694,3.0839243,0.1,52.28775,1615936358000
Fix,GT,37.3954104,-122.1013701,-5.84397419467941,4.0604873,0.1,68.18933,1615936359000
Fix,GT,37.3954135,-122.1013175,-5.74996535202302,5.388739,0.1,86.93466,1615936360000
Fix,GT,37.3954025,-122.101249,-5.694974108101334,7.073546,0.1,103.74228,1615936361000
Fix,GT,37.3953747,-122.1011668,-5.680008653759956,8.737242,0.1,114.62128,1615936362000
Fix,GT,37.3953355,-122.1010731,-5.684008753659204,10.091172,0.1,117.853516,1615936363000
Fix,GT,37.3952894,-122.100966,-5.69999991771765,11.385791,0.1,118.39166,1615936364000
Fix,GT,37.3952391,-122.1008494,-5.696995636999607,11.935264,0.1,118.41339,1615936365000
Fix,GT,37.3951868,-122.1007291,-5.734056236970239,12.363045,0.1,118.420105,1615936366000
Fix,GT,37.395133,-122.1006048,-5.800008698934689,12.604928,0.1,118.38696,1615936367000
Fix,GT,37.3950785,-122.1004793,-5.801987120131495,12.785832,0.1,118.497925,1615936368000
Fix,GT,37.3950226,-122.1003505,-5.798995756560937,13.162483,0.1,118.4082,1615936369000
Fix,GT,37.3949653,-122.1002182,-5.793974179510027,13.484773,0.1,118.3537,1615936370000
Fix,GT,37.3949067,-122.1000829,-5.766982702194248,13.797548,0.1,118.506195,1615936371000
Fix,GT,37.3948462,-122.0999448,-5.731961129168514,14.096978,0.1,118.74362,1615936372000
Fix,GT,37.3947843,-122.0998036,-5.734021756965201,14.397201,0.1,118.6604,1615936373000
Fix,GT,37.3947216,-122.0996601,-5.74702151473239,14.58539,0.1,118.56583,1615936374000
Fix,GT,37.3946579,-122.0995147,-5.750021555770655,14.799922,0.1,118.776855,1615936375000
Fix,GT,37.3945935,-122.0993669,-5.751987138250376,15.013893,0.1,118.447174,1615936376000
Fix,GT,37.3945286,-122.0992173,-5.737978538358119,15.127558,0.1,118.40634,1615936377000
Fix,GT,37.3944633,-122.0990669,-5.732974205321632,15.115967,0.1,118.55646,1615936378000
Fix,GT,37.3943983,-122.0989186,-5.704008591593243,14.844477,0.1,118.819824,1615936379000
Fix,GT,37.3943346,-122.0987733,-5.697017333164346,14.514839,0.1,118.7442,1615936380000
Fix,GT,37.3942723,-122.0986307,-5.6830087915421466,14.325391,0.1,118.45004,1615936381000
Fix,GT,37.3942108,-122.098489,-5.623991215961985,14.202612,0.1,118.24423,1615936382000
Fix,GT,37.394151,-122.098349,-5.576986996871419,13.915222,0.1,118.05405,1615936383000
Fix,GT,37.3940926,-122.098212,-5.524974138108548,13.634692,0.1,118.060486,1615936384000
Fix,GT,37.3940335,-122.0980772,-5.464969861370511,13.598769,0.1,119.205536,1615936385000
Fix,GT,37.3939727,-122.097945,-5.393004454230889,13.421855,0.1,120.32071,1615936386000
Fix,GT,37.3939105,-122.0978168,-5.3789871679544445,13.123134,0.1,121.81714,1615936387000
Fix,GT,37.3938481,-122.0976931,-5.357008745560423,12.802976,0.1,122.36578,1615936388000
Fix,GT,37.3937862,-122.0975733,-5.350974244205281,12.480922,0.1,123.39444,1615936389000
Fix,GT,37.3937234,-122.0974587,-5.328969705084339,12.147761,0.1,124.85132,1615936390000
Fix,GT,37.3936602,-122.097349,-5.252978435218334,11.845682,0.1,126.34796,1615936391000
Fix,GT,37.3935965,-122.0972439,-5.236978475928306,11.569956,0.1,127.52777,1615936392000
Fix,GT,37.3935333,-122.0971428,-5.2229871487766495,11.10248,0.1,128.32599,1615936393000
Fix,GT,37.3934722,-122.0970484,-5.182991505930666,10.417502,0.1,129.25635,1615936394000
Fix,GT,37.3934145,-122.0969618,-5.140961029103026,9.49391,0.1,130.14313,1615936395000
Fix,GT,37.3933622,-122.096886,-5.07297838419117,8.1997795,0.1,131.02283,1615936396000
Fix,GT,37.3933175,-122.0968236,-5.0259914195686575,6.576567,0.1,132.01724,1615936397000
Fix,GT,37.3932832,-122.0967769,-4.982982828095089,4.5870614,0.1,132.79749,1615936398000
Fix,GT,37.3932612,-122.0967478,-4.950991445615887,2.5681574,0.1,133.26501,1615936399000
Fix,GT,37.3932495,-122.0967323,-4.931999866794794,1.2387257,0.1,133.46231,1615936400000
Fix,GT,37.3932455,-122.096727,-4.925999954123051,0.10144527,0.1,133.4924,1615936401000
Fix,GT,37.3932455,-122.096727,-4.929000140009913,0.0099724205,0.1,133.50067,1615936402000
Fix,GT,37.3932455,-122.096727,-4.929000032133422,0.0022264244,0.1,133.50128,1615936403000
Fix,GT,37.3932455,-122.096727,-4.929000117057469,0.001,0.1,133.5021,1615936404000
Fix,GT,37.3932455,-122.096727,-4.929,0.001,0.1,133.5019,1615936405000
Fix,GT,37.3932455,-122.096727,-4.929000096400269,0.003158284,0.1,133.50201,1615936406000
Fix,GT,37.3932455,-122.096727,-4.929000084924047,0.0009956887,0.1,133.50195,1615936407000
Fix,GT,37.3932455,-122.096727,-4.929000073447823,4.3110404e-06,0.1,133.50244,1615936408000
Fix,GT,37.3932455,-122.096727,-4.929000061971601,0.0009956894,0.1,133.50226,1615936409000
Fix,GT,37.3932455,-122.096727,-4.9290000986955125,0.0014124281,0.1,133.50195,1615936410000
Fix,GT,37.3932455,-122.096727,-4.928999942618889,0.0014124283,0.1,133.50214,1615936411000
Fix,GT,37.3932455,-122.096727,-4.928999928847421,0.0009956904,0.099,133.50177,1615936412000
Fix,GT,37.3932455,-122.096727,-4.9289999173712,0.0009999999,0.1,133.50183,1615936413000
Fix,GT,37.3932455,-122.096727,-4.928999905894976,0.0,0.1,133.50183,1615936414000
Fix,GT,37.3932455,-122.096727,-4.929000043609645,0.0009956915,0.1,133.50177,1615936415000
Fix,GT,37.3932455,-122.096727,-4.9289998852377765,0.001412429,0.099,133.50146,1615936416000
Fix,GT,37.3932455,-122.096727,-4.9289999219616885,0.0009956921,0.1,133.50226,1615936417000
Fix,GT,37.3932455,-122.096727,-4.928999960980844,0.0019956925,0.1,133.50183,1615936418000
Fix,GT,37.3932455,-122.096727,-4.929000144600402,0.0010017841,0.1,133.50134,1615936419000
Fix,GT,37.3932455,-122.096727,-4.928999938028399,0.001,0.099,133.50104,1615936420000
Fix,GT,37.3932455,-122.096727,-4.9290000252476895,0.001,0.1,133.50116,1615936421000
Fix,GT,37.3932455,-122.096727,-4.928000112444162,0.0010017838,0.1,133.50107,1615936422000
Fix,GT,37.3932455,-122.096727,-4.927999905914068,0.001,0.1,133.50183,1615936423000
Fix,GT,37.3932455,-122.096727,-4.92900009180978,0.001,0.1,133.50192,1615936424000
Fix,GT,37.3932455,-122.096727,-4.929995579994283,0.001435692,0.099,133.50201,1615936425000
Fix,GT,37.3932451,-122.0967265,-4.941995616885833,0.37259656,0.1,133.50665,1615936426000
Fix,GT,37.3932386,-122.096718,-4.9349999103765,1.7854505,0.1,133.54852,1615936427000
Fix,GT,37.3932216,-122.0966956,-4.915987034868915,3.7209127,0.099,133.56448,1615936428000
Fix,GT,37.3931929,-122.0966579,-4.868982721315697,5.4559884,0.1,133.52768,1615936429000
Fix,GT,37.3931525,-122.0966052,-4.818974201680161,7.445883,0.1,133.836,1615936430000
Fix,GT,37.3930996,-122.0965384,-4.751952535015065,9.095262,0.1,135.15265,1615936431000
Fix,GT,37.3930365,-122.0964626,-4.6689568808833135,10.41482,0.099,136.53394,1615936432000
Fix,GT,37.3929631,-122.0963778,-4.595961177629884,11.705256,0.1,137.3335,1615936433000
Fix,GT,37.3928814,-122.0962848,-4.48194835417159,12.735615,0.1,137.95886,1615936434000
Fix,GT,37.3927925,-122.0961873,-4.333952781657689,13.431087,0.1,139.20651,1615936435000
Fix,GT,37.3926984,-122.0960886,-4.1999095493434,13.762258,0.099,140.47363,1615936436000
Fix,GT,37.3926009,-122.0959905,-4.065922495894133,13.917904,0.1,141.74796,1615936437000
Fix,GT,37.3925025,-122.0958961,-3.931892429400701,13.598937,0.1,142.91193,1615936438000
Fix,GT,37.3924047,-122.095805,-3.8049656130657534,13.4703865,0.1,143.40335,1615936439000
Fix,GT,37.392307,-122.0957142,-3.703901142891962,13.524703,0.1,143.2601,1615936440000
Fix,GT,37.3922088,-122.0956233,-3.586978428106755,13.597689,0.1,143.58624,1615936441000
Fix,GT,37.3921091,-122.0955322,-3.5149827584861777,13.803177,0.1,144.2602,1615936442000
Fix,GT,37.3920065,-122.0954422,-3.430948498153128,13.9678545,0.1,145.21442,1615936443000
Fix,GT,37.3919029,-122.0953531,-3.3319527908754534,13.930577,0.1,145.50208,1615936444000
Fix,GT,37.3917997,-122.0952638,-3.2289053740324456,13.939028,0.1,145.15991,1615936445000
Fix,GT,37.3916978,-122.0951716,-3.092896842962131,13.979019,0.1,143.21838,1615936446000
Fix,GT,37.3915976,-122.0950746,-2.960974232203793,14.088827,0.1,141.6955,1615936447000
Fix,GT,37.3914988,-122.0949736,-2.844948471179698,14.226874,0.1,140.23248,1615936448000
Fix,GT,37.3914006,-122.0948687,-2.7459527646787465,14.428192,0.1,138.93353,1615936449000
Fix,GT,37.3913033,-122.0947603,-2.647918441618793,14.3788395,0.1,137.8074,1615936450000
Fix,GT,37.3912092,-122.0946492,-2.5619441156033425,14.321507,0.1,135.55951,1615936451000
Fix,GT,37.3911191,-122.0945333,-2.4619527315627785,14.34519,0.1,133.41986,1615936452000
Fix,GT,37.391032,-122.094413,-2.367939843974076,14.37975,0.1,131.60837,1615936453000
Fix,GT,37.3909471,-122.0942904,-2.272952752073296,14.369806,0.1,130.29004,1615936454000
Fix,GT,37.3908642,-122.0941658,-2.184982836998999,14.389626,0.1,129.37958,1615936455000
Fix,GT,37.3907825,-122.0940391,-2.106965697140433,14.454061,0.1,128.4917,1615936456000
Fix,GT,37.3907014,-122.0939109,-2.0019613386658017,14.51328,0.1,128.26251,1615936457000
Fix,GT,37.3906215,-122.0937807,-1.9049656125037,14.58017,0.099,127.09839,1615936458000
Fix,GT,37.3905433,-122.0936479,-1.8179398523326964,14.650007,0.1,125.67105,1615936459000
Fix,GT,37.390468,-122.0935112,-1.7570343553577548,14.785928,0.1,124.043274,1615936460000
Fix,GT,37.3903948,-122.0933711,-1.70396138835093,14.873491,0.1,122.647644,1615936461000
Fix,GT,37.3903227,-122.0932287,-1.6219913691263648,15.019651,0.099,122.263794,1615936462000
Fix,GT,37.3902502,-122.0930844,-1.5479742310596631,15.178932,0.1,121.90973,1615936463000
Fix,GT,37.3901776,-122.0929379,-1.5349098690869285,15.356382,0.1,121.5509,1615936464000
Fix,GT,37.3901046,-122.0927897,-1.4349914092812688,15.465467,0.1,121.58197,1615936465000
Fix,GT,37.390031,-122.0926414,-1.3229699654653668,15.480425,0.1,121.83084,1615936466000
Fix,GT,37.3899572,-122.092493,-1.2659870902597905,15.502552,0.1,121.892456,1615936467000
Fix,GT,37.3898831,-122.0923446,-1.1879442465691823,15.5125475,0.1,121.995026,1615936468000
Fix,GT,37.3898088,-122.0921959,-1.082944257381372,15.563125,0.1,121.89694,1615936469000
Fix,GT,37.3897345,-122.0920463,-1.0289656653921118,15.646748,0.1,121.747986,1615936470000
Fix,GT,37.3896598,-122.0918959,-0.9589399603488856,15.708773,0.1,121.816956,1615936471000
Fix,GT,37.3895851,-122.091745,-0.9009699938530102,15.76402,0.1,121.67401,1615936472000
Fix,GT,37.3895103,-122.0915942,-0.810970000712201,15.611356,0.1,121.828186,1615936473000
Fix,GT,37.3894368,-122.0914457,-0.7680128825409338,15.353591,0.1,121.64575,1615936474000
Fix,GT,37.3893646,-122.0912992,-0.766991402472835,15.171463,0.1,121.59729,1615936475000
Fix,GT,37.3892928,-122.0911542,-0.7690042868237943,15.029267,0.1,121.78305,1615936476000
Fix,GT,37.3892217,-122.0910108,-0.7819014075081795,14.900414,0.1,121.85184,1615936477000
Fix,GT,37.389151,-122.090868,-0.8009571508970111,14.854081,0.1,121.56131,1615936478000
Fix,GT,37.3890814,-122.0907251,-0.7969999781032093,14.791845,0.1,121.400024,1615936479000
Fix,GT,37.3890115,-122.090583,-0.7640128431520424,14.756716,0.099,121.71411,1615936480000
Fix,GT,37.3889415,-122.0904415,-0.7750128556257114,14.7289295,0.1,121.79889,1615936481000
Fix,GT,37.3888718,-122.090301,-0.7719914409229532,14.54217,0.1,121.707214,1615936482000
Fix,GT,37.3888033,-122.0901631,-0.7559614210668952,14.220787,0.1,121.98755,1615936483000
Fix,GT,37.3887357,-122.0900289,-0.7119957085791975,13.893021,0.1,122.34674,1615936484000
Fix,GT,37.3886688,-122.0898984,-0.7139614531584084,13.577291,0.1,122.73642,1615936485000
Fix,GT,37.3886024,-122.0897719,-0.7119914151821286,13.266761,0.1,123.56094,1615936486000
Fix,GT,37.3885362,-122.0896492,-0.709995698055718,12.964958,0.1,124.24954,1615936487000
Fix,GT,37.3884708,-122.0895299,-0.7269785697469487,12.66783,0.1,124.37894,1615936488000
Fix,GT,37.3884077,-122.0894128,-0.7079999996703118,12.374351,0.1,123.51373,1615936489000
Fix,GT,37.3883478,-122.0892972,-0.694987149927765,12.061835,0.1,122.666016,1615936490000
Fix,GT,37.38829,-122.0891832,-0.7060171118061989,11.820879,0.1,122.012146,1615936491000
Fix,GT,37.3882344,-122.0890709,-0.6940042700828053,11.623037,0.1,121.70038,1615936492000
Fix,GT,37.3881797,-122.088961,-0.6829914299412632,11.246354,0.1,121.8089,1615936493000
Fix,GT,37.3881281,-122.0888569,-0.673012835841626,10.403018,0.1,121.86008,1615936494000
Fix,GT,37.3880817,-122.0887634,-0.6719828797951342,8.96783,0.1,121.68268,1615936495000
Fix,GT,37.3880438,-122.0886863,-0.6590000153435394,7.0450716,0.1,121.67764,1615936496000
Fix,GT,37.3880147,-122.088628,-0.6540042745335959,5.094197,0.1,121.7229,1615936497000
Fix,GT,37.3879949,-122.0885876,-0.6539914327710867,3.4316626,0.1,121.661835,1615936498000
Fix,GT,37.3879817,-122.0885609,-0.6449957179874182,2.2004528,0.1,121.5932,1615936499000
Fix,GT,37.3879738,-122.0885449,-0.6470085612316616,1.1351743,0.1,121.60333,1615936500000
Fix,GT,37.3879705,-122.0885382,-0.6509999818112702,0.36164382,0.1,121.62045,1615936501000
Fix,GT,37.3879699,-122.088537,-0.655,0.015637733,0.1,121.626526,1615936502000
Fix,GT,37.3879699,-122.0885369,-0.6540000112680718,0.0010111473,0.1,121.62323,1615936503000
Fix,GT,37.3879699,-122.0885369,-0.654000016445294,0.001004278,0.1,121.62341,1615936504000
Fix,GT,37.3879699,-122.0885369,-0.6539999823365361,4.27756e-06,0.1,121.62366,1615936505000
Fix,GT,37.3879699,-122.0885369,-0.6540000003045425,4.27723e-06,0.1,121.6239,1615936506000
Fix,GT,37.3879699,-122.0885369,-0.6540000118771568,0.0014142137,0.1,121.62375,1615936507000
Fix,GT,37.3879699,-122.0885369,-0.654000017054379,0.0014142136,0.1,121.62396,1615936508000
Fix,GT,37.3879699,-122.0885369,-0.6539999960409477,0.0010017713,0.1,121.62393,1615936509000
Fix,GT,37.3879699,-122.0885369,-0.6540000140089542,0.0010017712,0.1,121.6239,1615936510000
Fix,GT,37.3879699,-122.0885369,-0.6539999996954575,0.0014142136,0.1,121.62363,1615936511000
Fix,GT,37.3879699,-122.0885369,-0.6540000179680064,0.001001771,0.1,121.62375,1615936512000
Fix,GT,37.3879699,-122.0885369,-0.6539999838592485,0.0,0.1,121.62372,1615936513000
Fix,GT,37.3879699,-122.0885369,-0.6539999887319282,0.001,0.1,121.623566,1615936514000
Fix,GT,37.3879699,-122.0885369,-0.654000007004477,0.001,0.1,121.623566,1615936515000
Fix,GT,37.3879699,-122.0885369,-0.6540000182725489,0.001,0.1,121.62372,1615936516000
Fix,GT,37.3879699,-122.0885369,-0.6539999908637255,4.27352e-06,0.1,121.62372,1615936517000
Fix,GT,37.3879699,-122.088537,-0.6540000024363399,0.0,0.1,121.62378,1615936518000
Fix,GT,37.3879699,-122.088537,-0.6550000076252036,0.002018814,0.1,121.6239,1615936519000
Fix,GT,37.3879686,-122.0885345,-0.6620042916024104,0.6216933,0.1,121.60968,1615936520000
Fix,GT,37.387963,-122.088523,-0.669004270290956,1.8080163,0.1,121.462555,1615936521000
Fix,GT,37.3879511,-122.0884983,-0.6720000165849924,3.4052746,0.1,121.17932,1615936522000
Fix,GT,37.3879315,-122.0884568,-0.6600042601185852,5.047432,0.099,120.66199,1615936523000
Fix,GT,37.3879044,-122.0883996,-0.636982928371057,6.7201266,0.1,120.60019,1615936524000
Fix,GT,37.3878699,-122.0883268,-0.619961561481934,8.175987,0.1,120.74188,1615936525000
Fix,GT,37.3878296,-122.0882426,-0.5990042624510824,9.239676,0.1,120.64282,1615936526000
Fix,GT,37.3877846,-122.0881473,-0.5480085480753333,10.330007,0.1,120.38522,1615936527000
Fix,GT,37.3877352,-122.0880416,-0.5309871755540372,11.371311,0.1,120.322845,1615936528000
Fix,GT,37.3876813,-122.0879258,-0.4889829168701544,12.347894,0.1,119.89978,1615936529000
Fix,GT,37.387624,-122.0878009,-0.4420042724832893,13.185904,0.1,119.76193,1615936530000
Fix,GT,37.3875625,-122.0876679,-0.4099530324214138,13.98528,0.1,120.311584,1615936531000
Fix,GT,37.3874968,-122.0875297,-0.3329871953409165,14.477509,0.1,121.01825,1615936532000
Fix,GT,37.3874283,-122.0873888,-0.3019829334281385,14.653363,0.1,121.34836,1615936533000
Fix,GT,37.3873591,-122.087248,-0.2809957289993763,14.648271,0.1,121.70358,1615936534000
Fix,GT,37.3872897,-122.0871076,-0.2299957338725216,14.580326,0.1,121.628815,1615936535000
Fix,GT,37.3872205,-122.0869684,-0.1889786685891449,14.473403,0.1,121.8681,1615936536000
Fix,GT,37.3871517,-122.08683,-0.1359701309720985,14.41243,0.099,121.80826,1615936537000
Fix,GT,37.3870835,-122.086692,-0.0840170685835182,14.368595,0.1,121.61069,1615936538000
Fix,GT,37.3870153,-122.0865539,-0.0759999983012676,14.377965,0.1,121.77258,1615936539000
Fix,GT,37.3869469,-122.0864162,-0.054970138862729,14.374292,0.1,121.83673,1615936540000
Fix,GT,37.3868784,-122.0862784,-0.0270298579093068,14.372131,0.1,121.705475,1615936541000
Fix,GT,37.3868103,-122.0861402,-0.071914696265012,14.380049,0.1,121.63513,1615936542000
Fix,GT,37.3867421,-122.0860026,-0.0369658811273984,14.325966,0.1,121.780365,1615936543000
Fix,GT,37.3866742,-122.0858652,-0.0299914701618254,14.295326,0.1,121.73273,1615936544000
Fix,GT,37.3866062,-122.0857284,-0.0070000001010485,14.256215,0.1,121.898254,1615936545000
Fix,GT,37.3865381,-122.0855922,-0.0019701525261625,14.221766,0.1,121.9046,1615936546000
Fix,GT,37.3864705,-122.0854559,0.0059658913407474,14.185736,0.1,121.726135,1615936547000
Fix,GT,37.3864035,-122.0853201,0.0030127897141501,14.104378,0.099,121.66516,1615936548000
Fix,GT,37.3863368,-122.0851853,0.0309914740300737,13.979711,0.1,121.60843,1615936549000
Fix,GT,37.386271,-122.085052,0.0089957371652126,13.784715,0.1,121.754944,1615936550000
Fix,GT,37.3862056,-122.0849202,0.0199957379526458,13.742883,0.1,121.78613,1615936551000
Fix,GT,37.3861404,-122.0847881,0.0009914760696701,13.786967,0.1,121.57062,1615936552000
Fix,GT,37.3860756,-122.0846563,-0.0039957384080626,13.552591,0.1,121.569824,1615936553000
Fix,GT,37.3860135,-122.084531,-0.0100085226893424,12.449257,0.1,121.91266,1615936554000
Fix,GT,37.3859575,-122.0844191,-0.0089957389049232,10.88829,0.1,121.96912,1615936555000
Fix,GT,37.3859102,-122.0843246,-0.0009914787802845,8.86146,0.1,121.95502,1615936556000
Fix,GT,37.385873,-122.0842494,0.0099957399214617,6.8812304,0.1,121.72769,1615936557000
Fix,GT,37.3858443,-122.0841917,0.0020042599020525,5.10604,0.1,121.76114,1615936558000
Fix,GT,37.3858243,-122.0841513,-0.0030000000111758,3.4124064,0.1,121.739105,1615936559000
Fix,GT,37.3858117,-122.0841256,-0.0060042591611854,1.9695014,0.1,121.640076,1615936560000
Fix,GT,37.3858057,-122.0841135,-0.0100042592533864,0.5260846,0.1,121.634674,1615936561000
Fix,GT,37.3858053,-122.0841126,-0.0170000001266598,0.0042340956,0.1,121.633575,1615936562000
Fix,GT,37.3858053,-122.0841127,-0.0150000002235174,0.0019975058,0.1,121.63318,1615936563000
Fix,GT,37.3858053,-122.0841127,-0.0139999997587874,0.0010017637,0.1,121.632324,1615936564000
Fix,GT,37.3858053,-122.0841127,-0.0140000001499429,0.00141245,0.1,121.63229,1615936565000
Fix,GT,37.3858053,-122.0841127,-0.0139999998435378,4.2573106e-06,0.099,121.63196,1615936566000
Fix,GT,37.3858053,-122.0841127,-0.0139999996740371,0.0,0.099,121.63202,1615936567000
Fix,GT,37.3858053,-122.0841127,-0.014000000202097,0.0009957434,0.1,121.6326,1615936568000
Fix,GT,37.3858053,-122.0841127,-0.0139999997522681,0.001,0.1,121.632416,1615936569000
Fix,GT,37.3858053,-122.0841127,-0.0140000001369044,0.0,0.1,121.63187,1615936570000
Fix,GT,37.3858053,-122.0841127,-0.0139999998304992,0.0,0.1,121.631775,1615936571000
Fix,GT,37.3858053,-122.0841127,-0.0139999999413266,0.001,0.1,121.63129,1615936572000
Fix,GT,37.3858053,-122.0841127,-0.0139999999087303,0.0,0.1,121.6311,1615936573000
Fix,GT,37.3858053,-122.0841127,-0.0140000001564621,0.0,0.1,121.63083,1615936574000
Fix,GT,37.3858053,-122.0841127,-0.0139999999869614,0.0,0.1,121.63086,1615936575000
Fix,GT,37.3858053,-122.0841127,-0.01399999982398,0.0,0.1,121.630615,1615936576000
Fix,GT,37.3858053,-122.0841127,-0.0140000003520399,0.0,0.1,121.63132,1615936577000
Fix,GT,37.3858053,-122.0841127,-0.0139999999022111,4.2534402e-06,0.1,121.63098,1615936578000
Fix,GT,37.3858053,-122.0841127,-0.0140000001499429,0.0,0.1,121.631195,1615936579000
Fix,GT,37.3858053,-122.0841127,-0.0139999997001141,4.2527704e-06,0.1,121.631195,1615936580000
Fix,GT,37.3858053,-122.0841127,-0.014000000228174,0.0009957476,0.1,121.63068,1615936581000
Fix,GT,37.3858053,-122.0841127,-0.0139999999217689,0.0,0.1,121.63092,1615936582000
Fix,GT,37.3858053,-122.0841127,-0.0139999996088445,0.0,0.099,121.63098,1615936583000
Fix,GT,37.3858053,-122.0841127,-0.014000000280328,0.0,0.1,121.63092,1615936584000
Fix,GT,37.3858053,-122.0841127,-0.0139999998304992,0.0,0.1,121.631195,1615936585000
Fix,GT,37.3858053,-122.0841127,-0.014,0.0,0.1,121.63143,1615936586000
Fix,GT,37.3858053,-122.0841127,-0.0139999997783452,0.0,0.1,121.63159,1615936587000
Fix,GT,37.3858053,-122.0841127,-0.0140000001629814,0.0,0.1,121.63104,1615936588000
Fix,GT,37.3858053,-122.0841127,-0.0139999998565763,0.0,0.1,121.63147,1615936589000
Fix,GT,37.3858053,-122.0841127,-0.0140000003846362,0.0,0.1,121.631256,1615936590000
Fix,GT,37.3858053,-122.0841127,-0.0140000002151355,0.0,0.1,121.63141,1615936591000
Fix,GT,37.3858053,-122.0841127,-0.0139999996284022,0.0,0.1,121.63147,1615936592000
Fix,GT,37.3858053,-122.0841127,-0.0140000002933666,0.0,0.1,121.63159,1615936593000
Fix,GT,37.3858053,-122.0841127,-0.0139999998435378,0.0,0.099,121.63165,1615936594000
Fix,GT,37.3858053,-122.0841127,-0.0140000003715977,0.0,0.1,121.63165,1615936595000
Fix,GT,37.3858053,-122.0841127,-0.0139999999217689,0.0,0.1,121.63156,1615936596000
Fix,GT,37.3858053,-122.0841127,-0.0139999997587874,0.0,0.1,121.63162,1615936597000
Fix,GT,37.3858053,-122.0841127,-0.0140000000065192,0.001,0.1,121.63153,1615936598000
Fix,GT,37.3858053,-122.0841127,-0.0140000002477318,0.0009957534,0.1,121.63153,1615936599000
Fix,GT,37.3858053,-122.0841127,-0.0139999999413266,0.0,0.1,121.631744,1615936600000
Fix,GT,37.3858053,-122.0841127,-0.0139999999152496,0.0,0.1,121.6319,1615936601000
Fix,GT,37.3858053,-122.0841127,-0.0139999996088445,0.0,0.1,121.63205,1615936602000
Fix,GT,37.3858053,-122.0841127,-0.0140000002738088,0.0,0.1,121.63202,1615936603000
Fix,GT,37.3858053,-122.0841127,-0.0140000001043081,0.0,0.1,121.63199,1615936604000
Fix,GT,37.3858053,-122.0841127,-0.0139999999413266,0.0,0.099,121.63187,1615936605000
Fix,GT,37.3858053,-122.0841127,-0.014000000052154,0.0,0.1,121.631836,1615936606000
Fix,GT,37.3858053,-122.0841127,-0.0139999998826533,0.0,0.1,121.631744,1615936607000
Fix,GT,37.3858053,-122.0841127,-0.0140000002672895,0.0,0.1,121.63159,1615936608000
Fix,GT,37.3858053,-122.0841127,-0.0139999999608844,0.0,0.1,121.63159,1615936609000
Fix,GT,37.3858053,-122.0841127,-0.013999999797903,0.0009957568,0.1,121.63199,1615936610000
Fix,GT,37.3858053,-122.0841127,-0.0139999997653067,0.0,0.1,121.631775,1615936611000
Fix,GT,37.3858053,-122.0841127,-0.0140000002933666,0.0,0.1,121.63168,1615936612000
Fix,GT,37.3858053,-122.0841127,-0.0139999998435378,0.0,0.1,121.63165,1615936613000
Fix,GT,37.3858053,-122.0841127,-0.0140000002346932,4.24196e-06,0.1,121.63165,1615936614000
Fix,GT,37.3858053,-122.0841127,-0.0140000000651925,0.0,0.1,121.63159,1615936615000
Fix,GT,37.3858053,-122.0841127,-0.0139999998956918,0.0,0.1,121.6315,1615936616000
Fix,GT,37.3858053,-122.0841127,-0.0140000002868473,0.0,0.1,121.6315,1615936617000
Fix,GT,37.3858053,-122.0841127,-0.0140000001173466,0.0,0.1,121.631714,1615936618000
Fix,GT,37.3858053,-122.0841127,-0.0139999996675178,0.0,0.099,121.63159,1615936619000
Fix,GT,37.3858053,-122.0841127,-0.0140000001955777,0.0,0.1,121.63153,1615936620000
Fix,GT,37.3858053,-122.0841127,-0.014000000026077,0.0,0.1,121.63165,1615936621000
Fix,GT,37.3858053,-122.0841127,-0.0139999998630955,0.0,0.1,121.631775,1615936622000
Fix,GT,37.3858053,-122.0841127,-0.0139999999739229,0.0,0.1,121.631714,1615936623000
Fix,GT,37.3858053,-122.0841127,-0.0139999999478459,0.0,0.1,121.63144,1615936624000
Fix,GT,37.3858053,-122.0841127,-0.0139999997783452,0.0,0.1,121.63153,1615936625000
Fix,GT,37.3858053,-122.0841127,-0.0139999997522681,0.0,0.099,121.63135,1615936626000
Fix,GT,37.3858053,-122.0841127,-0.0140000004172325,0.0,0.1,121.631165,1615936627000
Fix,GT,37.3858053,-122.0841127,-0.0140000001108273,4.2376005e-06,0.1,121.631134,1615936628000
Fix,GT,37.3858053,-122.0841127,-0.0139999999413266,0.0009957628,0.1,121.631195,1615936629000
Fix,GT,37.3858053,-122.0841127,-0.0140000003259629,0.0,0.1,121.631134,1615936630000
Fix,GT,37.3858053,-122.0841127,-0.0139999996088445,0.001,0.1,121.6311,1615936631000
Fix,GT,37.3858053,-122.0841127,-0.0140000002738088,4.2363604e-06,0.1,121.63098,1615936632000
Fix,GT,37.3858053,-122.0841127,-0.01399999982398,0.000995764,0.099,121.63089,1615936633000
Fix,GT,37.3858053,-122.0841127,-0.0140000003520399,0.0,0.1,121.63095,1615936634000
Fix,GT,37.3858053,-122.0841127,-0.014,0.0,0.1,121.63089,1615936635000
Fix,GT,37.3858053,-122.0841127,-0.013999999876134,0.0,0.1,121.63068,1615936636000
Fix,GT,37.3858053,-122.0841127,-0.0139999997066333,0.0,0.1,121.63068,1615936637000
Fix,GT,37.3858053,-122.0841127,-0.0140000002346932,0.0,0.1,121.63086,1615936638000
Fix,GT,37.3858053,-122.0841127,-0.0140000002086162,0.0,0.1,121.631256,1615936639000
Fix,GT,37.3858053,-122.0841127,-0.014,0.0,0.1,121.63117,1615936640000
Fix,GT,37.3858053,-122.0841127,-0.0139999997327104,0.0,0.1,121.63141,1615936641000
Fix,GT,37.3858053,-122.0841127,-0.0140000003976747,0.0,0.1,121.631195,1615936642000
Fix,GT,37.3858053,-122.0841127,-0.0139999998174607,0.0,0.1,121.63104,1615936643000
Fix,GT,37.3858053,-122.0841127,-0.0139999997913837,0.0,0.1,121.63104,1615936644000
Fix,GT,37.3858053,-122.0841127,-0.013999999621883,0.0,0.1,121.63095,1615936645000
Fix,GT,37.3858053,-122.0841127,-0.013999999595806,0.0,0.1,121.63104,1615936646000
Fix,GT,37.3858053,-122.0841127,-0.0140000004041939,4.2317206e-06,0.1,121.63104,1615936647000
Fix,GT,37.3858053,-122.0841127,-0.0130000002179294,0.0010000002,0.1,121.6311,1615936648000
Fix,GT,37.3858053,-122.0841127,-0.014,0.001,0.1,121.631065,1615936649000
Fix,GT,37.3858053,-122.0841127,-0.0139999997587874,0.001412461,0.1,121.631165,1615936650000
Fix,GT,37.3858052,-122.0841124,-0.0230084605212323,0.22064249,0.1,121.63257,1615936651000
Fix,GT,37.3858018,-122.0841054,-0.0230042308233678,1.3337764,0.1,121.6236,1615936652000
Fix,GT,37.3857919,-122.0840853,-0.0209830810767598,2.890065,0.1,121.671234,1615936653000
Fix,GT,37.3857738,-122.0840493,-0.0039957704376429,4.6465917,0.099,121.86862,1615936654000
Fix,GT,37.3857478,-122.083997,-0.0090042291730642,6.355093,0.099,121.9212,1615936655000
Fix,GT,37.3857133,-122.0839277,-0.0290084579135291,8.065255,0.1,121.76535,1615936656000
Fix,GT,37.385672,-122.0838442,-0.0179999997904524,9.357157,0.1,121.73193,1615936657000
Fix,GT,37.3856241,-122.0837472,0.0110042286068201,10.825487,0.1,121.6297,1615936658000
Fix,GT,37.3855699,-122.0836371,0.0280042286980897,12.070915,0.1,121.54474,1615936659000
Fix,GT,37.3855104,-122.083516,0.0430084564015269,13.02508,0.1,121.65259,1615936660000
Fix,GT,37.3854464,-122.0833866,0.0990211342461407,13.943667,0.1,121.542755,1615936661000
Fix,GT,37.3853787,-122.0832488,0.1420380482054315,14.589369,0.1,121.522064,1615936662000
Fix,GT,37.3853089,-122.0831071,0.1960169047527015,14.91081,0.1,121.68219,1615936663000
Fix,GT,37.3852374,-122.0829625,0.2350295798722654,15.213388,0.1,121.69226,1615936664000
Fix,GT,37.3851646,-122.0828151,0.276012671136763,15.491331,0.099,121.67099,1615936665000
Fix,GT,37.3850904,-122.0826655,0.3130084459246136,15.67255,0.099,121.713684,1615936666000
Fix,GT,37.3850155,-122.0825149,0.3829915404962375,15.757207,0.099,121.97031,1615936667000
Fix,GT,37.3849402,-122.0823637,0.3959957654299214,15.810691,0.1,121.81409,1615936668000
Fix,GT,37.3848649,-122.0822118,0.4189915600661188,15.879738,0.1,121.674774,1615936669000
Fix,GT,37.3847892,-122.0820594,0.4599957810533233,15.893092,0.1,121.929474,1615936670000
Fix,GT,37.3847133,-122.0819071,0.4670295574488118,15.890459,0.1,121.74896,1615936671000
Fix,GT,37.3846382,-122.0817549,0.5100084525346756,15.801584,0.1,121.67319,1615936672000
Fix,GT,37.3845636,-122.081604,0.5819662187667564,15.615275,0.1,121.73813,1615936673000
Fix,GT,37.38449,-122.081455,0.6590295742927119,15.445847,0.1,121.67917,1615936674000
Fix,GT,37.3844169,-122.0813076,0.7230126788103953,15.290006,0.1,121.82797,1615936675000
Fix,GT,37.3843444,-122.081162,0.7710000157970935,15.1055565,0.1,121.76996,1615936676000
Fix,GT,37.3842732,-122.0810178,0.8190042379051446,14.938723,0.1,121.53735,1615936677000
Fix,GT,37.3842027,-122.0808752,0.8880169042870403,14.771423,0.1,121.706665,1615936678000
Fix,GT,37.3841328,-122.0807338,0.9679620155249722,14.714175,0.1,121.70026,1615936679000
Fix,GT,37.3840628,-122.0805932,1.02205066373758,14.643311,0.1,121.78363,1615936680000
Fix,GT,37.3839931,-122.0804533,1.046004232652951,14.569797,0.1,121.815094,1615936681000
Fix,GT,37.383924,-122.0803138,1.09799578856444,14.535108,0.1,121.71912,1615936682000
Fix,GT,37.383855,-122.0801744,1.112021133864764,14.514495,0.1,121.71915,1615936683000
Fix,GT,37.3837866,-122.0800352,1.1720337357167154,14.441641,0.1,121.44031,1615936684000
Fix,GT,37.3837184,-122.0798968,1.2470126521894709,14.384655,0.1,121.75717,1615936685000
Fix,GT,37.3836499,-122.0797595,1.331016894955188,14.317485,0.1,121.95856,1615936686000
Fix,GT,37.3835814,-122.0796228,1.424033756352961,14.257922,0.1,122.03735,1615936687000
Fix,GT,37.3835139,-122.0794872,1.522004215157591,14.019569,0.1,121.76013,1615936688000
Fix,GT,37.383448,-122.0793545,1.598029542024713,13.660282,0.1,121.79056,1615936689000
Fix,GT,37.3833841,-122.0792253,1.659080179397017,13.278743,0.1,121.59653,1615936690000
Fix,GT,37.3833221,-122.0790995,1.732025330536067,12.902213,0.1,121.591034,1615936691000
Fix,GT,37.3832614,-122.0789764,1.7910548713114112,12.846337,0.1,121.52069,1615936692000
Fix,GT,37.3832024,-122.078852,1.893037975475192,12.692979,0.1,119.56488,1615936693000
Fix,GT,37.3831497,-122.0787268,2.0280548604843207,12.333349,0.1,116.99365,1615936694000
Fix,GT,37.3831004,-122.0786043,2.1170000285883432,11.970008,0.1,116.671265,1615936695000
Fix,GT,37.3830508,-122.0784868,2.212033696388826,11.552376,0.1,118.77698,1615936696000
Fix,GT,37.3829998,-122.0783773,2.256037905758712,10.790606,0.1,120.50079,1615936697000
Fix,GT,37.382952,-122.0782787,2.313029578767717,9.592793,0.1,121.41492,1615936698000
Fix,GT,37.3829097,-122.0781931,2.3590295735383404,8.206317,0.1,121.58563,1615936699000
Fix,GT,37.3828747,-122.0781218,2.4160084879715,6.5979395,0.1,121.46521,1615936700000
Fix,GT,37.3828474,-122.0780661,2.4420083868112417,4.979348,0.099,121.642395,1615936701000
Fix,GT,37.3828267,-122.0780246,2.4610083812824453,3.7729146,0.1,121.877045,1615936702000
Fix,GT,37.3828111,-122.0779937,2.4810041849520057,2.7350912,0.1,122.15689,1615936703000
Fix,GT,37.3827998,-122.0779712,2.495004254221916,1.9214911,0.1,122.148865,1615936704000
Fix,GT,37.3827928,-122.0779574,2.508008489590138,0.96385556,0.1,122.22632,1615936705000
Fix,GT,37.3827907,-122.077953,2.5180084095597266,0.065307416,0.1,122.24124,1615936706000
Fix,GT,37.3827907,-122.077953,2.5270000258879737,0.0010017455,0.1,122.24838,1615936707000
Fix,GT,37.3827907,-122.077953,2.528000021189451,0.004239956,0.1,122.247925,1615936708000
Fix,GT,37.3827907,-122.077953,2.5290000671264714,0.0014082551,0.1,122.24805,1615936709000
Fix,GT,37.3827907,-122.077953,2.530004175320268,0.0010017451,0.1,122.24786,1615936710000
Fix,GT,37.3827907,-122.077953,2.5310000330004843,0.0009957873,0.1,122.2482,1615936711000
Fix,GT,37.3827907,-122.077953,2.5309999269275,0.0009957876,0.1,122.24823,1615936712000
Fix,GT,37.3827907,-122.077953,2.530999998821412,0.001,0.1,122.24802,1615936713000
Fix,GT,37.3827907,-122.077953,2.531000043607783,0.001,0.1,122.24823,1615936714000
Fix,GT,37.3827907,-122.077953,2.5309999646423385,0.0,0.1,122.24832,1615936715000
Fix,GT,37.3827907,-122.077953,2.5309999351776207,0.0,0.1,122.24838,1615936716000
Fix,GT,37.3827907,-122.077953,2.530999979963992,4.21112e-06,0.1,122.24838,1615936717000
Fix,GT,37.3827907,-122.077953,2.531000025928952,0.0,0.1,122.248474,1615936718000
Fix,GT,37.3827907,-122.077953,2.53100004596496,0.0,0.1,122.24844,1615936719000
Fix,GT,37.3827907,-122.077953,2.530999991749879,0.0,0.1,122.24841,1615936720000
Fix,GT,37.3827907,-122.077953,2.530999937534798,0.0,0.1,122.248474,1615936721000
Fix,GT,37.3827907,-122.077953,2.5310000330004843,0.0,0.1,122.24835,1615936722000
Fix,GT,37.3827907,-122.077953,2.5309999528564515,0.0,0.1,122.24829,1615936723000
Fix,GT,37.3827907,-122.077953,2.5310000495007263,0.0,0.1,122.24829,1615936724000
Fix,GT,37.3827907,-122.077953,2.5309999693566936,0.0,0.1,122.24814,1615936725000
Fix,GT,37.3827907,-122.077953,2.5309999658209272,0.0009957913,0.1,122.24811,1615936726000
Fix,GT,37.3827907,-122.077953,2.5310000365362506,4.2084603e-06,0.1,122.24817,1615936727000
Fix,GT,37.3827907,-122.077953,2.5309999316418543,0.0,0.099,122.24829,1615936728000
Fix,GT,37.3827907,-122.077953,2.531000027107541,0.0,0.1,122.2482,1615936729000
Fix,GT,37.3827907,-122.077953,2.5309999728924595,0.0,0.1,122.24811,1615936730000
Fix,GT,37.3827907,-122.077953,2.5309999434277413,0.0,0.099,122.24817,1615936731000
Fix,GT,37.3827907,-122.077953,2.5320000141486525,0.0,0.1,122.2482,1615936732000
Fix,GT,37.3827907,-122.077953,2.531999935152009,0.0010017426,0.099,122.24817,1615936733000
Fix,GT,37.3827907,-122.077953,2.532000005895272,0.0010017426,0.1,122.24817,1615936734000
Fix,GT,37.3827907,-122.077953,2.5320042322492227,0.0014142136,0.1,122.24808,1615936735000
Fix,GT,37.3827906,-122.077953,2.530991559613496,0.081562296,0.1,122.25113,1615936736000
Fix,GT,37.3827887,-122.0779491,2.530004222263582,0.7486392,0.1,122.26404,1615936737000
Fix,GT,37.3827826,-122.077937,2.538008347179741,1.7877959,0.099,122.28003,1615936738000
Fix,GT,37.3827712,-122.0779144,2.5540083676055074,3.0341215,0.1,122.293396,1615936739000
Fix,GT,37.3827531,-122.0778787,2.580995823904872,4.415887,0.1,122.112335,1615936740000
Fix,GT,37.382732,-122.0778275,2.5880252269348127,5.7139053,0.1,115.73102,1615936741000
Fix,GT,37.3827191,-122.0777605,2.637041986587923,6.2821393,0.099,100.11798,1615936742000
Fix,GT,37.3827223,-122.0776895,2.6579705075467936,6.176937,0.1,83.61743,1615936743000
Fix,GT,37.3827398,-122.0776229,2.5949958069557324,6.239375,0.1,68.97897,1615936744000
Fix,GT,37.3827708,-122.0775623,2.460857033160049,6.4977126,0.1,54.225983,1615936745000
Fix,GT,37.3828155,-122.0775098,2.270995731024072,7.0536385,0.1,40.101227,1615936746000
Fix,GT,37.3828705,-122.0774647,2.183932769939304,7.5004435,0.1,32.421844,1615936747000
Fix,GT,37.3829309,-122.0774177,2.063970533706248,8.271756,0.1,31.48639,1615936748000
Fix,GT,37.3829983,-122.077368,2.0039831812009217,9.085348,0.1,30.076385,1615936749000
Fix,GT,37.3830722,-122.0773149,1.971991642172448,9.845115,0.1,29.774414,1615936750000
Fix,GT,37.3831514,-122.077257,1.8799328085780145,10.3350315,0.1,30.46756,1615936751000
Fix,GT,37.3832311,-122.0771974,1.74494957885379,10.298264,0.1,30.675476,1615936752000
Fix,GT,37.3833117,-122.0771373,1.6089622316658496,10.514663,0.1,30.611053,1615936753000
Fix,GT,37.3833942,-122.0770764,1.5029790039984507,10.815147,0.1,30.356995,1615936754000
Fix,GT,37.3834796,-122.0770132,1.4310000359835102,11.136492,0.1,30.567871,1615936755000
Fix,GT,37.3835664,-122.0769483,1.404983229593374,11.296345,0.1,30.790802,1615936756000
Fix,GT,37.3836538,-122.0768825,1.3499747993946076,11.259695,0.1,30.9198,1615936757000
Fix,GT,37.3837401,-122.0768176,1.30900003901124,11.071028,0.1,30.920746,1615936758000
Fix,GT,37.3838245,-122.0767531,1.276016810655594,10.890143,0.1,31.615936,1615936759000
Fix,GT,37.383907,-122.0766885,1.265941237660125,10.725845,0.1,32.082275,1615936760000
Fix,GT,37.3839885,-122.076624,1.0909202265143394,10.650039,0.1,32.0773,1615936761000
Fix,GT,37.3840695,-122.0765604,0.9699285975079984,10.56026,0.1,32.071503,1615936762000
Fix,GT,37.3841497,-122.0764972,0.8619580204337836,10.452527,0.1,32.091614,1615936763000
Fix,GT,37.3842288,-122.0764346,0.7839915866367518,10.312315,0.1,32.226654,1615936764000
Fix,GT,37.3843066,-122.0763725,0.7189748150780797,10.172548,0.1,32.496704,1615936765000
Fix,GT,37.3843832,-122.0763109,0.6419244187697769,10.012309,0.099,32.65854,1615936766000
Fix,GT,37.3844586,-122.0762503,0.6290335788312369,9.853326,0.1,32.428833,1615936767000
Fix,GT,37.3845327,-122.0761909,0.6070084024490788,9.679075,0.1,32.598816,1615936768000
Fix,GT,37.3846057,-122.0761325,0.5649916167934425,9.532463,0.1,32.461853,1615936769000
Fix,GT,37.3846778,-122.0760755,0.5139832112817094,9.391097,0.1,31.960602,1615936770000
Fix,GT,37.3847487,-122.0760205,0.4749874129667877,8.999583,0.1,31.613037,1615936771000
Fix,GT,37.3848127,-122.0759717,0.4490000110813417,7.447972,0.1,31.083435,1615936772000
Fix,GT,37.3848634,-122.0759339,0.4079832085594534,5.7239933,0.1,30.582367,1615936773000
Fix,GT,37.3849013,-122.075906,0.3799748214771971,4.1620407,0.1,30.315704,1615936774000
Fix,GT,37.3849307,-122.0758848,0.3549958146493882,3.446971,0.1,29.956207,1615936775000
Fix,GT,37.3849544,-122.0758681,0.331991618401371,2.5814793,0.1,29.584412,1615936776000
Fix,GT,37.3849701,-122.0758569,0.3429958001282067,1.2972085,0.1,29.39505,1615936777000
Fix,GT,37.3849748,-122.0758537,0.3330000046519563,0.05819557,0.1,29.321136,1615936778000
Fix,GT,37.3849748,-122.0758537,0.3299999975413084,0.010258377,0.1,29.320099,1615936779000
Fix,GT,37.3849748,-122.0758537,0.3309999902895651,0.0010017373,0.099,29.321106,1615936780000
Fix,GT,37.3849748,-122.0758537,0.3310000029285438,0.0,0.1,29.321228,1615936781000
Fix,GT,37.3849748,-122.0758537,0.3309999990751966,0.0,0.1,29.321014,1615936782000
Fix,GT,37.3849748,-122.0758537,0.3309999919850379,0.0009958065,0.099,29.321411,1615936783000
Fix,GT,37.3849748,-122.0758537,0.3309999978421256,4.19324e-06,0.1,29.321198,1615936784000
Fix,GT,37.3849748,-122.0758537,0.3309999907519668,0.0,0.099,29.321136,1615936785000
Fix,GT,37.3849748,-122.0758537,0.3310000066277571,4.19273e-06,0.1,29.321228,1615936786000
Fix,GT,37.3849748,-122.0758537,0.3309999961466529,0.0,0.099,29.320618,1615936787000
Fix,GT,37.3849748,-122.0758537,0.3310000021578744,0.0009958079,0.1,29.320526,1615936788000
Fix,GT,37.3849748,-122.0758537,0.3310000081690959,0.013469479,0.1,29.318207,1615936789000
Fix,GT,37.3849769,-122.0758522,0.3240041925450787,0.63884676,0.1,29.290863,1615936790000
Fix,GT,37.3849849,-122.0758465,0.3179999971864745,1.4473507,0.099,29.218506,1615936791000
Fix,GT,37.385,-122.0758363,0.2959832413084804,2.279166,0.1,28.724884,1615936792000
Fix,GT,37.3850218,-122.0758255,0.2719999967068434,2.918444,0.1,22.636871,1615936793000
Fix,GT,37.3850508,-122.0758203,0.2669664795873687,3.4489229,0.1,9.135681,1615936794000
Fix,GT,37.3850853,-122.0758281,0.2349874230809509,4.070982,0.1,349.79843,1615936795000
Fix,GT,37.3851168,-122.0758539,0.164016755733639,4.0622125,0.1,326.22726,1615936796000
Fix,GT,37.3851419,-122.0758906,0.0829748628418892,4.439359,0.1,310.64127,1615936797000
Fix,GT,37.385164,-122.0759352,0.0429874309189617,4.7704873,0.1,302.15356,1615936798000
Fix,GT,37.3851865,-122.0759828,0.0289916219594888,5.0371156,0.1,300.37643,1615936799000
Fix,GT,37.3852104,-122.0760331,-0.007020944898948,5.329959,0.1,300.88446,1615936800000
Fix,GT,37.385236,-122.0760857,-0.0430000010211952,5.5856533,0.1,301.33148,1615936801000
Fix,GT,37.3852628,-122.0761408,-0.0820209434432908,5.826491,0.1,301.28128,1615936802000
Fix,GT,37.3852902,-122.0761969,-0.1270209412593394,5.789477,0.1,301.29343,1615936803000
Fix,GT,37.3853171,-122.0762523,-0.1830209398306906,5.703262,0.1,301.3706,1615936804000
Fix,GT,37.385344,-122.0763066,-0.2490251284763217,5.6124725,0.1,301.74557,1615936805000
Fix,GT,37.3853707,-122.0763597,-0.2920125613366253,5.5097556,0.1,302.14667,1615936806000
Fix,GT,37.3853972,-122.0764118,-0.3310083658881485,5.434817,0.099,302.16034,1615936807000
Fix,GT,37.3854225,-122.0764635,-0.3530125652737915,5.308153,0.1,301.3127,1615936808000
Fix,GT,37.3854468,-122.0765141,-0.4050293034091592,5.1064463,0.099,301.00742,1615936809000
Fix,GT,37.3854707,-122.076563,-0.4051632753275335,5.0432925,0.1,301.51523,1615936810000
Fix,GT,37.3854947,-122.0766109,-0.4609958170000464,4.9421935,0.1,301.9257,1615936811000
Fix,GT,37.3855186,-122.0766578,-0.4880251087164506,5.0070915,0.1,302.5807,1615936812000
Fix,GT,37.3855435,-122.0767056,-0.521020914964378,5.0166225,0.1,303.0863,1615936813000
Fix,GT,37.3855681,-122.0767524,-0.5590125461081044,4.886215,0.1,303.05612,1615936814000
Fix,GT,37.3855875,-122.0767976,-0.5889958206098527,4.089041,0.1,296.58597,1615936815000
Fix,GT,37.3855937,-122.0768404,-0.5920041956710629,3.6303508,0.1,279.82336,1615936816000
Fix,GT,37.3855877,-122.0768804,-0.6009874560348689,3.4117992,0.1,260.4102,1615936817000
Fix,GT,37.3855704,-122.0769125,-0.6070167348543182,3.2789838,0.1,237.60785,1615936818000
Fix,GT,37.3855454,-122.0769371,-0.6219957993305287,3.621637,0.1,220.0649,1615936819000
Fix,GT,37.3855161,-122.0769592,-0.6149874554593115,3.900389,0.1,212.0652,1615936820000
Fix,GT,37.3854851,-122.0769825,-0.5700209297635591,4.1311584,0.1,211.20282,1615936821000
Fix,GT,37.3854518,-122.0770065,-0.548983265592251,4.3873534,0.1,209.68373,1615936822000
Fix,GT,37.3854162,-122.0770314,-0.5209999983017333,4.6693006,0.1,209.25294,1615936823000
Fix,GT,37.3853787,-122.0770582,-0.4839916318859905,4.9101496,0.1,209.67967,1615936824000
Fix,GT,37.3853396,-122.0770868,-0.4549999970337376,5.1155176,0.1,210.28435,1615936825000
Fix,GT,37.3853003,-122.0771163,-0.4159749020067975,4.9842963,0.1,210.91637,1615936826000
Fix,GT,37.3852632,-122.0771454,-0.3689832677226514,4.764826,0.1,211.96503,1615936827000
Fix,GT,37.3852273,-122.0771738,-0.3359958142749965,4.6793165,0.1,212.39592,1615936828000
Fix,GT,37.385192,-122.0772028,-0.3089790997952222,4.6807714,0.1,213.03339,1615936829000
Fix,GT,37.3851567,-122.0772322,-0.2789916440760717,4.7638392,0.1,213.49478,1615936830000
Fix,GT,37.3851202,-122.0772621,-0.2690125368312002,4.9085484,0.099,212.69958,1615936831000
Fix,GT,37.3850831,-122.0772903,-0.2269707267638296,4.707237,0.099,211.00473,1615936832000
Fix,GT,37.3850465,-122.0773165,-0.1929916405868716,4.6801186,0.1,209.7656,1615936833000
Fix,GT,37.3850093,-122.077343,-0.1659916404690593,4.8211827,0.1,209.59705,1615936834000
Fix,GT,37.3849708,-122.0773708,-0.1410083601721562,5.0865946,0.1,209.74373,1615936835000
Fix,GT,37.38493,-122.0774005,-0.0969707395238801,5.3547063,0.1,210.11693,1615936836000
Fix,GT,37.384889,-122.0774305,-0.0529916406623087,5.159781,0.1,210.26822,1615936837000
Fix,GT,37.3848497,-122.0774594,-0.0239832817018032,5.001357,0.1,210.1227,1615936838000
Fix,GT,37.3848103,-122.0774877,0.0110125379096716,5.0707154,0.1,209.62039,1615936839000
Fix,GT,37.3847701,-122.0775158,0.0430250738607719,5.145654,0.1,209.02267,1615936840000
Fix,GT,37.3847292,-122.0775441,0.091012536291033,5.260259,0.1,208.82301,1615936841000
Fix,GT,37.384687,-122.0775734,0.1199916447559371,5.461398,0.1,208.85745,1615936842000
Fix,GT,37.3846432,-122.0776036,0.1580208941549062,5.601838,0.1,208.7918,1615936843000
Fix,GT,37.3845987,-122.0776341,0.199016715073958,5.6456685,0.1,208.59471,1615936844000
Fix,GT,37.3845537,-122.0776647,0.2450000028521753,5.734476,0.1,208.36409,1615936845000
Fix,GT,37.3845077,-122.0776958,0.278025060582906,5.8779607,0.1,208.42357,1615936846000
Fix,GT,37.3844604,-122.0777281,0.319020896160975,6.0835176,0.1,208.50714,1615936847000
Fix,GT,37.3844114,-122.0777617,0.3590292462073266,6.31328,0.1,208.53552,1615936848000
Fix,GT,37.3843606,-122.0777963,0.4180250680036843,6.521717,0.1,208.54074,1615936849000
Fix,GT,37.3843082,-122.077832,0.465012536348775,6.7303653,0.1,208.3823,1615936850000
Fix,GT,37.3842539,-122.0778686,0.5160459269932471,6.930649,0.1,208.23364,1615936851000
Fix,GT,37.3841984,-122.0779068,0.5690208647232502,7.1401434,0.1,208.80048,1615936852000
Fix,GT,37.3841416,-122.0779468,0.6179999933810905,7.3258147,0.1,209.22527,1615936853000
Fix,GT,37.3840825,-122.0779882,0.6630208639800549,7.654637,0.1,209.0925,1615936854000
Fix,GT,37.3840213,-122.0780309,0.708033422211185,7.894421,0.1,208.951,1615936855000
Fix,GT,37.3839583,-122.0780748,0.7790125062521548,8.083256,0.099,208.92287,1615936856000
Fix,GT,37.3838946,-122.0781192,0.8360417364872992,8.077014,0.1,209.0025,1615936857000
Fix,GT,37.383831,-122.0781636,0.8800208576582371,8.082404,0.1,209.01987,1615936858000
Fix,GT,37.3837674,-122.078208,0.951016698360443,8.070341,0.1,209.0531,1615936859000
Fix,GT,37.3837043,-122.0782528,1.0060417316891253,7.969658,0.1,209.58583,1615936860000
Fix,GT,37.383643,-122.0782974,1.0580375635414383,7.767232,0.1,210.218,1615936861000
Fix,GT,37.3835837,-122.0783416,1.094033407933079,7.56968,0.1,210.7381,1615936862000
Fix,GT,37.3835264,-122.0783853,1.1440167100485412,7.311742,0.1,211.61836,1615936863000
Fix,GT,37.3834719,-122.0784292,1.2000667890906334,7.0699396,0.1,212.92606,1615936864000
Fix,GT,37.383421,-122.0784723,1.2780333984512835,6.4921775,0.1,214.02101,1615936865000
Fix,GT,37.3833773,-122.0785107,1.3350292223216964,5.253291,0.1,215.22852,1615936866000
Fix,GT,37.3833465,-122.0785401,1.366995823500678,3.3690856,0.1,217.04733,1615936867000
Fix,GT,37.3833279,-122.0785584,1.3509999804976396,2.0535972,0.1,217.92627,1615936868000
Fix,GT,37.3833168,-122.0785697,1.3769999640919268,1.1099653,0.1,218.50407,1615936869000
Fix,GT,37.3833091,-122.0785781,1.4000124910762533,1.2588757,0.1,219.664,1615936870000
Fix,GT,37.3832997,-122.0785909,1.4290041444273665,1.8623327,0.099,224.29056,1615936871000
Fix,GT,37.3832892,-122.0786129,1.495025057243649,2.767437,0.1,234.91312,1615936872000
Fix,GT,37.3832799,-122.0786487,1.623050082481932,3.9595556,0.1,250.35565,1615936873000
Fix,GT,37.3832773,-122.0787011,1.657037581256591,5.3833885,0.1,267.24817,1615936874000
Fix,GT,37.3832865,-122.0787681,1.7520458514378408,6.68944,0.1,281.7583,1615936875000
Fix,GT,37.3833087,-122.0788456,1.7979916463810952,7.8914905,0.1,291.8971,1615936876000
Fix,GT,37.3833433,-122.0789299,1.7600000024586917,8.945694,0.1,298.79977,1615936877000
Fix,GT,37.3833861,-122.0790217,1.7089708262225616,9.884404,0.1,300.48288,1615936878000
Fix,GT,37.3834342,-122.0791213,1.6609999644206836,10.737135,0.1,301.26245,1615936879000
Fix,GT,37.3834865,-122.0792285,1.5839707765164786,11.477825,0.1,301.3445,1615936880000
Fix,GT,37.3835414,-122.0793419,1.495970792673994,12.011851,0.1,300.9623,1615936881000
Fix,GT,37.3835985,-122.0794609,1.480004174683243,12.510669,0.1,301.04004,1615936882000
Fix,GT,37.3836583,-122.0795832,1.4489791728444397,12.871113,0.1,301.49512,1615936883000
Fix,GT,37.3837196,-122.0797081,1.3509583412078208,13.083969,0.1,301.63187,1615936884000
Fix,GT,37.3837819,-122.0798348,1.2929041498778389,13.233252,0.1,301.597,1615936885000
Fix,GT,37.383845,-122.079963,1.212974975754507,13.429413,0.1,301.60764,1615936886000
Fix,GT,37.3839091,-122.0800925,1.1489874804234133,13.527946,0.1,301.8109,1615936887000
Fix,GT,37.3839738,-122.0802224,1.1109624841986223,13.563528,0.1,302.0195,1615936888000
Fix,GT,37.3840387,-122.0803521,1.038975018710829,13.548279,0.1,301.9545,1615936889000
Fix,GT,37.3841031,-122.0804822,0.978012474725023,13.546912,0.099,301.6914,1615936890000
Fix,GT,37.3841671,-122.0806125,0.9229958148282024,13.561725,0.099,301.5876,1615936891000
Fix,GT,37.3842313,-122.0807426,0.8649499793122523,13.528018,0.1,301.66223,1615936892000
Fix,GT,37.3842951,-122.0808714,0.5289333319636063,13.504367,0.1,301.87207,1615936893000
Fix,GT,37.3843594,-122.0810007,0.4519625046569854,13.47826,0.1,301.89258,1615936894000
Fix,GT,37.3844239,-122.0811298,0.5469416756317951,13.477411,0.1,302.01135,1615936895000
Fix,GT,37.3844884,-122.0812592,0.5049583265604451,13.519444,0.099,301.7694,1615936896000
Fix,GT,37.3845525,-122.0813892,0.4839416798958554,13.565951,0.1,301.52344,1615936897000
Fix,GT,37.3846169,-122.0815198,0.40999583846936,13.606611,0.1,301.73203,1615936898000
Fix,GT,37.3846819,-122.0816506,0.3219875035304576,13.679184,0.1,301.73404,1615936899000
Fix,GT,37.3847468,-122.0817822,0.2889958340078592,13.737286,0.1,301.64938,1615936900000
Fix,GT,37.3848125,-122.0819147,0.277987512470223,13.8663645,0.1,301.75546,1615936901000
Fix,GT,37.3848784,-122.0820478,0.2409999937154352,13.853753,0.099,301.78055,1615936902000
Fix,GT,37.3849443,-122.0821805,0.2279750118562951,13.82,0.099,301.76855,1615936903000
Fix,GT,37.3850096,-122.0823129,0.2209958403483033,13.762215,0.1,301.65427,1615936904000
Fix,GT,37.3850747,-122.082445,0.1910000056033022,13.741495,0.1,301.54657,1615936905000
Fix,GT,37.3851396,-122.0825771,0.1959958358947187,13.706655,0.1,301.52808,1615936906000
Fix,GT,37.385204,-122.0827077,0.1959542063702829,13.472162,0.1,301.57773,1615936907000
Fix,GT,37.3852671,-122.0828358,0.1609791810512542,13.177714,0.099,301.42056,1615936908000
Fix,GT,37.3853285,-122.082961,0.1279833456333726,12.880294,0.1,301.56622,1615936909000
Fix,GT,37.3853891,-122.0830829,0.1399833488613367,12.560859,0.1,301.96997,1615936910000
Fix,GT,37.3854484,-122.0832016,0.0829750217259861,12.206937,0.1,302.0228,1615936911000
Fix,GT,37.3855053,-122.0833155,0.0389958375338465,11.503129,0.1,301.8415,1615936912000
Fix,GT,37.3855572,-122.0834196,0.0069750268533825,10.243517,0.1,301.84842,1615936913000
Fix,GT,37.3856029,-122.0835111,-0.0320249727144837,8.786327,0.1,302.09012,1615936914000
Fix,GT,37.3856409,-122.0835868,-0.0479999987930059,7.029872,0.1,302.07217,1615936915000
Fix,GT,37.3856698,-122.0836444,-0.0530041617127135,4.9406934,0.1,302.0055,1615936916000
Fix,GT,37.3856882,-122.0836814,-0.0639958375273272,2.9317265,0.1,301.88803,1615936917000
Fix,GT,37.3856985,-122.0837022,-0.0579999994598329,1.3734596,0.1,301.81833,1615936918000
Fix,GT,37.385702,-122.0837092,-0.0579958402072079,0.17448922,0.1,301.80624,1615936919000
Fix,GT,37.385702,-122.0837093,-0.0599958379790186,0.0086048925,0.1,301.80685,1615936920000
Fix,GT,37.385702,-122.0837093,-0.0580000009452924,0.0010017235,0.1,301.80798,1615936921000
Fix,GT,37.385702,-122.0837093,-0.0579999997029081,0.0009958397,0.1,301.80762,1615936922000
Fix,GT,37.385702,-122.0837093,-0.0579999990547075,0.0010017232,0.1,301.8076,1615936923000
Fix,GT,37.385702,-122.0837093,-0.058000001296401,0.001,0.1,301.80685,1615936924000
Fix,GT,37.385702,-122.0837093,-0.0580000006482005,0.0,0.1,301.8078,1615936925000
Fix,GT,37.385702,-122.0837093,-0.0580000005671754,4.15952e-06,0.1,301.80783,1615936926000
Fix,GT,37.385702,-122.0837093,-0.0579999999189749,0.0,0.1,301.8077,1615936927000
Fix,GT,37.385702,-122.0837093,-0.0579999987035989,0.0,0.1,301.8078,1615936928000
Fix,GT,37.385702,-122.0837093,-0.058,0.0,0.1,-58.19207,1615936929000
Fix,GT,37.385702,-122.0837093,-0.0579999991087243,0.0,0.1,301.8081,1615936930000
Fix,GT,37.385702,-122.0837093,-0.0579999984605237,0.0,0.1,301.808,1615936931000
Fix,GT,37.385702,-122.0837093,-0.0580000012693926,0.0009958417,0.1,301.80798,1615936932000
Fix,GT,37.385702,-122.0837093,-0.0579999994598329,0.001,0.099,301.80792,1615936933000
Fix,GT,37.385702,-122.0837093,-0.0579999994058162,0.000995842,0.1,301.80844,1615936934000
Fix,GT,37.385702,-122.0837093,-0.0580000016205012,0.0010017222,0.1,301.80807,1615936935000
Fix,GT,37.385702,-122.0837093,-0.0580000015664845,4.1575704e-06,0.1,301.8081,1615936936000
Fix,GT,37.385702,-122.0837093,-0.058000000918284,0.0010017222,0.1,301.80792,1615936937000
Fix,GT,37.385702,-122.0837093,-0.0579999991087243,0.001,0.1,301.80786,1615936938000
Fix,GT,37.385702,-122.0837093,-0.0579999990276992,0.0,0.1,301.80777,1615936939000
Fix,GT,37.385702,-122.0837093,-0.0580000012693926,0.0009958433,0.1,301.8076,1615936940000
Fix,GT,37.385702,-122.0837093,-0.0580000006211921,0.0,0.1,301.80795,1615936941000
Fix,GT,37.385702,-122.0837093,-0.0580000005401671,0.0,0.1,301.80832,1615936942000
Fix,GT,37.385702,-122.0837093,-0.0579999998919665,0.0,0.1,301.80823,1615936943000
Fix,GT,37.385702,-122.0837093,-0.0579999998109415,0.0,0.1,301.80814,1615936944000
Fix,GT,37.385702,-122.0837093,-0.057999999162741,0.0,0.1,301.80795,1615936945000
Fix,GT,37.385702,-122.0837093,-0.0580000002700835,0.0,0.1,301.80795,1615936946000
Fix,GT,37.385702,-122.0837093,-0.0580000001890584,0.0,0.1,301.80817,1615936947000
Fix,GT,37.385702,-122.0837093,-0.0580000001350417,0.0,0.1,301.80807,1615936948000
Fix,GT,37.385702,-122.0837093,-0.0580000006482005,0.0,0.1,301.80798,1615936949000
Fix,GT,37.385702,-122.0837093,-0.0580000005671754,0.0009958451,0.1,301.80844,1615936950000
Fix,GT,37.385702,-122.0837093,-0.0580000010803341,0.0009958453,0.1,301.80853,1615936951000
Fix,GT,37.385702,-122.0837093,-0.0579999987035989,0.0,0.1,301.8083,1615936952000
Fix,GT,37.385702,-122.0837093,-0.0579999992167577,0.0009958455,0.1,301.80844,1615936953000
Fix,GT,37.385702,-122.0837093,-0.057999999162741,0.0,0.099,301.8082,1615936954000
Fix,GT,37.385702,-122.0837093,-0.0579999985145404,0.0,0.1,301.8082,1615936955000
Fix,GT,37.385702,-122.0837093,-0.0579999990276992,0.0,0.1,301.8082,1615936956000
Fix,GT,37.385702,-122.0837093,-0.0580000001080334,0.0,0.1,301.80826,1615936957000
Fix,GT,37.385702,-122.0837093,-0.0580000000540167,0.0,0.1,301.80817,1615936958000
Fix,GT,37.385702,-122.0837093,-0.0580000017015263,0.0,0.1,301.80835,1615936959000
Fix,GT,37.385702,-122.0837093,-0.0580000010533258,0.0,0.1,301.80835,1615936960000
Fix,GT,37.385702,-122.0837093,-0.0579999992707744,0.0009958469,0.1,301.8083,1615936961000
Fix,GT,37.385702,-122.0837093,-0.0580000003781169,4.15296e-06,0.1,301.8083,1615936962000
Fix,GT,37.385702,-122.0837093,-0.0580000008912757,0.0,0.1,301.80804,1615936963000
Fix,GT,37.385702,-122.0837093,-0.0579999985145405,0.0,0.099,301.80823,1615936964000
Fix,GT,37.385702,-122.0837093,-0.0579999995948746,0.0,0.1,301.80817,1615936965000
Fix,GT,37.385702,-122.0837093,-0.0579999995408579,0.001,0.1,301.8082,1615936966000
Fix,GT,37.385702,-122.0837093,-0.0580000006211921,0.0,0.1,301.80817,1615936967000
Fix,GT,37.385702,-122.0837093,-0.0579999988386407,0.0009958481,0.1,301.80814,1615936968000
Fix,GT,37.385702,-122.0837093,-0.0570041534090414,0.011656231,0.1,301.80975,1615936969000
Fix,GT,37.3857028,-122.0837109,-0.0669999998440034,0.60700595,0.1,301.80063,1615936970000
Fix,GT,37.3857091,-122.0837237,-0.0690000004498288,2.1517153,0.1,301.7636,1615936971000
Fix,GT,37.3857234,-122.0837521,-0.0739958468880504,3.8896646,0.1,302.05927,1615936972000
Fix,GT,37.3857461,-122.0837976,-0.0900166041366755,5.590676,0.1,301.8749,1615936973000
Fix,GT,37.3857768,-122.0838598,-0.0690041512148454,7.3130827,0.1,301.69498,1615936974000
Fix,GT,37.3858151,-122.0839372,-0.0719999980218708,8.683251,0.1,301.6144,1615936975000
Fix,GT,37.3858592,-122.0840269,-0.0719750959603115,10.003583,0.1,301.4899,1615936976000
Fix,GT,37.3859091,-122.0841293,-0.0719958473476581,11.221622,0.1,301.35443,1615936977000
Fix,GT,37.3859647,-122.084243,-0.0719999992288649,12.386376,0.1,301.2528,1615936978000
Fix,GT,37.3860247,-122.0843669,-0.053012450531125,13.090277,0.1,301.2788,1615936979000
Fix,GT,37.3860869,-122.084494,-0.053991700829938,13.326649,0.1,301.6656,1615936980000
Fix,GT,37.3861509,-122.0846236,-0.0579916993901133,13.650115,0.1,301.6672,1615936981000
Fix,GT,37.3862169,-122.0847564,-0.0319751019775867,14.084329,0.1,301.8144,1615936982000
Fix,GT,37.386285,-122.0848933,-0.0240082990862429,14.471936,0.1,301.91074,1615936983000
Fix,GT,37.3863546,-122.0850335,-0.0210207467926666,14.815926,0.1,301.62683,1615936984000
Fix,GT,37.3864257,-122.0851783,-0.0109751041540876,15.30323,0.1,301.5095,1615936985000
Fix,GT,37.386499,-122.0853272,0.0109999996875412,15.664438,0.1,301.5903,1615936986000
Fix,GT,37.386574,-122.0854792,-0.0020082980804145,15.981876,0.1,301.72754,1615936987000
Fix,GT,37.3866505,-122.085634,-0.0290041494136676,16.190916,0.1,301.65503,1615936988000
Fix,GT,37.386727,-122.085788,-0.0219958508186973,15.925468,0.1,301.82547,1615936989000
Fix,GT,37.386802,-122.085939,-0.0529917022492736,15.556166,0.1,301.82077,1615936990000
Fix,GT,37.3868755,-122.0860861,-0.0470000012256205,15.192696,0.1,302.00516,1615936991000
Fix,GT,37.3869471,-122.0862298,-0.0639834073279052,14.830899,0.1,301.87018,1615936992000
Fix,GT,37.3870171,-122.0863701,-0.0720165912993252,14.460996,0.1,301.77817,1615936993000
Fix,GT,37.3870851,-122.0865071,-0.0889958514384925,14.107807,0.1,301.7552,1615936994000
Fix,GT,37.3871513,-122.0866408,-0.1000331834517419,13.772649,0.1,301.6651,1615936995000
