MessageType,Provider,LatitudeDegrees,LongitudeDegrees,AltitudeMeters,SpeedMps,AccuracyMeters,BearingDegrees,UnixTimeMillis
Fix,GT,34.1759677,-118.4652901,177.81400451265975,0.0022347244,0.1,182.21245,1638984171000
Fix,GT,34.1759677,-118.4652901,177.81400175952328,0.001,0.1,182.21228,1638984172000
Fix,GT,34.1759677,-118.4652901,177.81400078661042,0.001,0.1,182.21233,1638984173000
Fix,GT,34.1759677,-118.4652901,177.81399981369754,0.002234741,0.1,182.21288,1638984174000
Fix,GT,34.1759677,-118.4652901,177.81399884078465,0.0010019871,0.1,182.21278,1638984175000
Fix,GT,34.1759677,-118.4652901,177.81399786787176,0.0028289615,0.1,182.21255,1638984176000
Fix,GT,34.1759677,-118.4652901,177.8139968949589,0.0010006602,0.1,182.21312,1638984177000
Fix,GT,34.1759677,-118.4652901,177.81400476106302,0.003158846,0.1,182.21263,1638984178000
Fix,GT,34.1759677,-118.4652901,177.81400378815013,0.003160441,0.1,182.21257,1638984179000
Fix,GT,34.1759677,-118.4652901,177.8140010350137,0.0022341232,0.1,182.21251,1638984180000
Fix,GT,34.1759677,-118.4652901,177.81399650165366,4.9535497e-06,0.1,182.21324,1638984181000
Fix,GT,34.1759677,-118.4652901,177.81400434705753,0.0014142137,0.1,182.21284,1638984182000
Fix,GT,34.1759677,-118.4652901,177.81399981369754,0.0014151231,0.1,182.21304,1638984183000
Fix,GT,34.1759677,-118.4652901,177.81399708126133,0.003,0.1,182.21297,1638984184000
Fix,GT,34.1759677,-118.4652901,177.81399610834848,0.0030015388,0.1,182.21304,1638984185000
Fix,GT,34.1759677,-118.4652901,177.81400217352876,0.0031635612,0.1,182.21297,1638984186000
Fix,GT,34.1759677,-118.4652901,177.81399764016874,0.0049986625,0.1,182.2132,1638984187000
Fix,GT,34.1759677,-118.4652901,177.81399488703232,0.0049986686,0.099,182.21317,1638984188000
Fix,GT,34.1759677,-118.4652901,177.81400273243617,0.004,0.1,182.21303,1638984189000
Fix,GT,34.1759677,-118.4652901,177.814,0.003,0.1,182.21304,1638984190000
Fix,GT,34.1759677,-118.4652901,177.81399724686355,0.0014142134,0.1,182.21324,1638984191000
Fix,GT,34.1759677,-118.4652901,177.81400331204384,0.002237449,0.1,182.21341,1638984192000
Fix,GT,34.1759677,-118.4652901,177.8160005589137,0.006000123,0.1,182.21324,1638984193000
Fix,GT,34.1759676,-118.4652901,177.81799928283155,0.010999999,0.1,182.21326,1638984194000
Fix,GT,34.1759675,-118.4652901,177.82100536203478,0.017030856,0.1,182.21333,1638984195000
Fix,GT,34.1759673,-118.4652901,177.82400260193913,0.024020825,0.1,182.21307,1638984196000
Fix,GT,34.175967,-118.4652901,177.8269998417506,0.031062994,0.1,182.21317,1638984197000
Fix,GT,34.1759666,-118.4652901,177.8299956318492,0.039051343,0.099,182.21394,1638984198000
Fix,GT,34.1759662,-118.4652901,177.83300169760386,0.042296574,0.1,182.2144,1638984199000
Fix,GT,34.175964,-118.46529,177.8309989441851,0.56606615,0.1,181.75943,1638984200000
Fix,GT,34.1759561,-118.4652876,177.83299654214642,1.1790733,0.1,176.07849,1638984201000
Fix,GT,34.1759439,-118.4652813,177.82099979102333,1.7196355,0.1,165.789,1638984202000
Fix,GT,34.1759277,-118.4652714,177.8050023544178,2.3545308,0.1,157.6806,1638984203000
Fix,GT,34.1759081,-118.4652588,177.80699076562092,2.5267859,0.1,153.89655,1638984204000
Fix,GT,34.175887,-118.4652462,177.7539958274808,2.8089743,0.1,153.919,1638984205000
Fix,GT,34.1758604,-118.4652331,177.74096002306115,3.355883,0.1,158.2312,1638984206000
Fix,GT,34.1758326,-118.4652256,177.6739866413425,2.8069122,0.1,167.55505,1638984207000
Fix,GT,34.1758106,-118.4652249,177.60898447642825,1.9858785,0.1,177.1853,1638984208000
Fix,GT,34.1757932,-118.4652339,177.38189526313732,2.1800246,0.1,195.95985,1638984209000
Fix,GT,34.1757824,-118.4652578,176.94503756654936,2.9868932,0.099,224.02158,1638984210000
Fix,GT,34.1757776,-118.4652935,177.05700552349677,4.41214,0.1,254.60953,1638984211000
Fix,GT,34.1757771,-118.4653503,177.14103336169546,6.3511767,0.1,267.90518,1638984212000
Fix,GT,34.1757731,-118.4654335,177.44202456913143,8.386697,0.1,268.82907,1638984213000
Fix,GT,34.1757724,-118.4655353,177.63602571461195,10.030277,0.1,269.83307,1638984214000
Fix,GT,34.1757725,-118.4656478,177.83602326193454,10.349268,0.1,269.97983,1638984215000
Fix,GT,34.1757728,-118.4657584,178.06004954037465,9.951903,0.1,269.91473,1638984216000
Fix,GT,34.1757725,-118.4658609,178.3460307439044,8.827925,0.1,269.79904,1638984217000
Fix,GT,34.1757715,-118.4659526,178.45600289799947,7.8923483,0.1,269.255,1638984218000
Fix,GT,34.1757684,-118.4660292,178.42197187740703,6.4191556,0.1,266.10654,1638984219000
Fix,GT,34.1757563,-118.4660951,178.3430391290942,5.983601,0.1,255.40027,1638984220000
Fix,GT,34.1757287,-118.4661566,178.4790400581941,7.2990313,0.1,237.72195,1638984221000
Fix,GT,34.1756752,-118.466215,178.53798798733507,8.781204,0.1,216.18488,1638984222000
Fix,GT,34.1755979,-118.4662554,178.45198913262922,10.073945,0.1,197.88408,1638984223000
Fix,GT,34.1755017,-118.4662744,178.3529859119649,11.446919,0.1,185.62173,1638984224000
Fix,GT,34.1753945,-118.4662828,178.28099964904413,12.328456,0.1,181.73097,1638984225000
Fix,GT,34.1752804,-118.4662828,178.25099060940778,13.085129,0.1,179.08173,1638984226000
Fix,GT,34.1751575,-118.4662858,178.2049878919141,14.139968,0.1,181.96393,1638984227000
Fix,GT,34.1750268,-118.4662931,178.14398957692472,14.879097,0.1,182.04549,1638984228000
Fix,GT,34.1748903,-118.4662973,178.09399802422897,15.296078,0.1,180.46327,1638984229000
Fix,GT,34.1747531,-118.4662983,178.0249910601813,15.14837,0.099,180.14586,1638984230000
Fix,GT,34.1746176,-118.4662998,177.9119964940811,14.914605,0.1,180.11882,1638984231000
Fix,GT,34.1744807,-118.4662999,177.82498704790416,15.61614,0.1,179.55096,1638984232000
Fix,GT,34.1743358,-118.4662984,177.70199099964822,16.443794,0.1,179.27997,1638984233000
Fix,GT,34.1741853,-118.4662972,177.58898533041776,16.851173,0.1,179.54895,1638984234000
Fix,GT,34.1740339,-118.4662971,177.45998366714525,16.737007,0.1,179.91199,1638984235000
Fix,GT,34.1738843,-118.4662979,177.3279911519587,16.410194,0.1,180.0597,1638984236000
Fix,GT,34.173739,-118.4662988,177.199987283885,15.771058,0.1,180.04332,1638984237000
Fix,GT,34.1736005,-118.4662996,177.08098287140308,14.949184,0.1,180.0863,1638984238000
Fix,GT,34.1734708,-118.4662997,176.9749860921232,13.773878,0.1,179.67352,1638984239000
Fix,GT,34.1733525,-118.4663004,176.88397994263573,12.4616,0.099,180.35042,1638984240000
Fix,GT,34.1732461,-118.4663031,176.77297737454413,11.163861,0.099,181.36565,1638984241000
Fix,GT,34.173151,-118.4663079,176.67597996215903,9.897048,0.099,182.46135,1638984242000
Fix,GT,34.1730686,-118.466313,176.57899531572406,8.367755,0.1,182.98878,1638984243000
Fix,GT,34.1730009,-118.4663185,176.4999840154905,6.6082177,0.1,183.77956,1638984244000
Fix,GT,34.1729513,-118.4663231,176.42999678089984,4.3748903,0.1,184.04852,1638984245000
Fix,GT,34.172922,-118.4663253,176.3889924902022,2.3226318,0.1,183.24553,1638984246000
Fix,GT,34.1729061,-118.4663262,176.364993133561,1.3051771,0.099,182.59157,1638984247000
Fix,GT,34.1728985,-118.4663266,176.35100380037002,0.33354625,0.1,182.5354,1638984248000
Fix,GT,34.1728981,-118.4663266,176.34099519626216,0.0058301473,0.1,182.54836,1638984249000
Fix,GT,34.172898,-118.4663266,176.33700297660764,0.002827522,0.1,182.5458,1638984250000
Fix,GT,34.172898,-118.4663266,176.3370020117762,0.0030001763,0.1,182.54196,1638984251000
Fix,GT,34.172898,-118.4663266,176.3369992815085,0.001,0.1,182.54112,1638984252000
Fix,GT,34.172898,-118.4663266,176.33700184754954,0.001,0.1,182.54146,1638984253000
Fix,GT,34.172898,-118.4663266,176.33700441359065,0.0010000002,0.1,182.54205,1638984254000
Fix,GT,34.172898,-118.4663266,176.33700521419547,0.001,0.1,182.54204,1638984255000
Fix,GT,34.172898,-118.4663266,176.337004249364,0.0019993843,0.1,182.5424,1638984256000
Fix,GT,34.172898,-118.4663266,176.33700328453256,0.0014142137,0.1,182.5428,1638984257000
Fix,GT,34.172898,-118.4663266,176.33700055426485,0.0010027039,0.1,182.54283,1638984258000
Fix,GT,34.172898,-118.4663266,176.33699782399717,0.0028278164,0.1,182.54298,1638984259000
Fix,GT,34.172898,-118.4663266,176.3369968591657,0.0031622776,0.1,182.54317,1638984260000
Fix,GT,34.172898,-118.4663266,176.33699487720426,0.0042415415,0.1,182.5438,1638984261000
Fix,GT,34.172898,-118.4663266,176.33400266424837,0.004123458,0.1,182.54413,1638984262000
Fix,GT,34.1728981,-118.4663266,176.3280009442549,0.0056553152,0.1,182.54488,1638984263000
Fix,GT,34.1728981,-118.4663266,176.32799823465385,0.003,0.1,182.54527,1638984264000
Fix,GT,34.1728981,-118.4663266,176.3169952907219,0.002999244,0.1,182.5456,1638984265000
Fix,GT,34.172898,-118.4663266,176.30100504893784,0.001,0.1,182.54623,1638984266000
Fix,GT,34.1728972,-118.4663267,176.28899436539783,0.36874893,0.1,182.43404,1638984267000
Fix,GT,34.1728879,-118.4663268,176.2699941937004,1.7329781,0.1,181.64217,1638984268000
Fix,GT,34.1728661,-118.466327,176.24599926773217,3.0826159,0.1,180.64456,1638984269000
Fix,GT,34.172833,-118.4663277,176.2029973683383,4.150042,0.1,180.73177,1638984270000
Fix,GT,34.172796,-118.4663278,176.1790000924637,3.6448984,0.1,180.04478,1638984271000
Fix,GT,34.1727674,-118.4663278,176.14399537545302,2.8449652,0.1,179.7528,1638984272000
Fix,GT,34.1727439,-118.4663278,176.11399912672712,2.3709836,0.1,179.58972,1638984273000
Fix,GT,34.1727245,-118.4663276,176.10299993311568,1.8869528,0.1,179.35345,1638984274000
Fix,GT,34.1727099,-118.4663275,176.08599638190736,1.4790001,0.099,179.36963,1638984275000
Fix,GT,34.1726968,-118.4663275,176.07199267624347,1.4350338,0.099,179.21173,1638984276000
Fix,GT,34.172682,-118.4663274,176.05600227974827,1.9142187,0.1,178.98975,1638984277000
Fix,GT,34.1726611,-118.4663271,176.04099959907924,2.7432044,0.1,179.14594,1638984278000
Fix,GT,34.1726315,-118.4663268,176.02199595875757,3.8713427,0.1,179.04791,1638984279000
Fix,GT,34.1725914,-118.4663261,175.98999500995455,5.0225506,0.099,179.12274,1638984280000
Fix,GT,34.1725411,-118.4663254,175.94400102595054,6.120507,0.1,179.33325,1638984281000
Fix,GT,34.1724813,-118.4663246,175.91299920368826,7.0297103,0.1,179.32501,1638984282000
Fix,GT,34.1724176,-118.4663236,175.89199739553408,7.049397,0.1,179.45087,1638984283000
Fix,GT,34.1723579,-118.4663246,175.85999385096162,6.1781154,0.1,182.16658,1638984284000
Fix,GT,34.1723082,-118.4663359,175.83698263922787,5.3457384,0.099,194.35634,1638984285000
Fix,GT,34.1722705,-118.4663671,175.79800487341777,5.1061134,0.1,218.82617,1638984286000
Fix,GT,34.1722499,-118.4664162,175.76399970413613,5.3147583,0.1,245.71611,1638984287000
Fix,GT,34.1722449,-118.4664778,175.76801198561023,6.323139,0.1,265.3285,1638984288000
Fix,GT,34.1722484,-118.4665542,176.15304462519578,7.7531567,0.1,272.7283,1638984289000
Fix,GT,34.1722519,-118.4666434,176.87208064883458,8.617137,0.1,271.6065,1638984290000
Fix,GT,34.1722538,-118.4667389,177.75507484701055,8.706037,0.1,270.33655,1638984291000
Fix,GT,34.172254,-118.4668283,178.58706120683797,7.7200007,0.1,269.9981,1638984292000
Fix,GT,34.1722548,-118.4669067,179.29305033572695,6.6833415,0.1,270.3735,1638984293000
Fix,GT,34.1722556,-118.4669727,179.88204362464137,5.5067034,0.1,270.64185,1638984294000
Fix,GT,34.1722564,-118.467027,180.38003860803963,4.498566,0.1,270.99344,1638984295000
Fix,GT,34.1722576,-118.4670699,180.78502954866727,3.2884214,0.1,272.36118,1638984296000
Fix,GT,34.1722596,-118.4670967,181.0330136905155,1.7944372,0.1,275.07486,1638984297000
Fix,GT,34.172262,-118.467113,181.18801107474195,1.541573,0.1,278.64624,1638984298000
Fix,GT,34.172268,-118.4671356,181.42301754974852,3.0048292,0.1,286.0223,1638984299000
Fix,GT,34.1722842,-118.4671685,181.8090243114455,4.0773153,0.1,300.57748,1638984300000
Fix,GT,34.1723169,-118.4671989,182.2230350597264,5.4666524,0.1,324.53384,1638984301000
Fix,GT,34.1723729,-118.4672171,182.4860095078902,7.6765976,0.1,345.80292,1638984302000
Fix,GT,34.1724521,-118.4672297,182.6280110118068,10.13883,0.1,353.87363,1638984303000
Fix,GT,34.1725535,-118.4672393,182.63498893196635,12.337471,0.1,355.02896,1638984304000
Fix,GT,34.1726724,-118.4672535,182.4759870437151,14.289172,0.1,353.31668,1638984305000
Fix,GT,34.1728103,-118.4672747,182.2389822673991,16.507208,0.1,351.86905,1638984306000
Fix,GT,34.1729668,-118.4673026,181.9339785137849,18.541464,0.1,350.94128,1638984307000
Fix,GT,34.1731402,-118.467333,181.6659776948865,20.191591,0.1,351.8494,1638984308000
Fix,GT,34.1733278,-118.4673614,181.30897927183423,21.70511,0.1,352.95456,1638984309000
Fix,GT,34.1735293,-118.467387,180.83398531113497,23.157936,0.1,353.9686,1638984310000
Fix,GT,34.1737422,-118.4674123,180.53598671554764,24.174587,0.1,353.8376,1638984311000
Fix,GT,34.1739623,-118.467439,180.60100472321355,24.824394,0.1,353.92563,1638984312000
Fix,GT,34.1741876,-118.4674667,180.8980315760587,25.490648,0.1,353.6731,1638984313000
Fix,GT,34.1744201,-118.467495,181.1870081066893,26.398108,0.1,354.08792,1638984314000
Fix,GT,34.1746614,-118.4675251,181.23700086029527,27.407381,0.1,353.74155,1638984315000
Fix,GT,34.1749097,-118.4675587,181.2809966568377,27.9142,0.1,352.7328,1638984316000
Fix,GT,34.1751597,-118.4676017,181.28299568550847,28.089108,0.1,350.86432,1638984317000
Fix,GT,34.1754113,-118.4676531,181.26099347349907,28.529726,0.1,349.60638,1638984318000
Fix,GT,34.1756668,-118.4677113,181.26799555801944,29.18124,0.1,348.64594,1638984319000
Fix,GT,34.1759289,-118.4677761,181.29099645454227,30.178442,0.1,347.69604,1638984320000
Fix,GT,34.1761941,-118.4678486,181.34400624929623,30.079054,0.1,346.3173,1638984321000
Fix,GT,34.176455,-118.4679305,181.451008208703,29.75565,0.1,344.0538,1638984322000
Fix,GT,34.1767104,-118.468023,181.46600299984263,29.46375,0.1,342.26282,1638984323000
Fix,GT,34.1769627,-118.4681228,181.59500782585224,29.406961,0.1,341.04407,1638984324000
Fix,GT,34.1772112,-118.4682282,181.73201375507028,29.09476,0.1,339.90128,1638984325000
Fix,GT,34.1774549,-118.4683392,181.893007001283,28.718008,0.1,338.0605,1638984326000
Fix,GT,34.1776922,-118.4684586,182.05400988641404,28.343157,0.1,336.30673,1638984327000
Fix,GT,34.177924,-118.4685832,182.1730068486943,27.982578,0.1,335.15717,1638984328000
Fix,GT,34.1781505,-118.4687122,182.34900873231285,27.6109,0.1,333.68665,1638984329000
Fix,GT,34.1783712,-118.4688473,182.4720047903781,27.419039,0.1,332.09888,1638984330000
Fix,GT,34.1785893,-118.46899,182.61100271558809,27.615135,0.1,330.44678,1638984331000
Fix,GT,34.1788037,-118.4691405,182.63600374939608,27.412022,0.1,328.9237,1638984332000
Fix,GT,34.1790139,-118.4692939,182.62798895639807,27.138962,0.1,328.36423,1638984333000
Fix,GT,34.179222,-118.4694459,182.5810002489481,26.857,0.1,328.6041,1638984334000
Fix,GT,34.1794297,-118.4695959,182.49301483751427,26.976242,0.1,328.81546,1638984335000
Fix,GT,34.1796399,-118.4697478,182.5920127840228,27.296764,0.1,328.66733,1638984336000
Fix,GT,34.1798499,-118.4699009,182.74299948107904,27.29476,0.099,328.306,1638984337000
Fix,GT,34.1800618,-118.4700574,182.8670078228356,27.907042,0.1,328.1529,1638984338000
Fix,GT,34.1802787,-118.4702179,183.0200071106793,28.5927,0.1,328.16943,1638984339000
Fix,GT,34.1804984,-118.4703804,183.20300535709515,28.493223,0.1,328.18457,1638984340000
Fix,GT,34.1807156,-118.4705415,183.42001625810096,28.118486,0.1,328.21155,1638984341000
Fix,GT,34.1809322,-118.4707014,183.7680228274379,28.378588,0.1,328.05157,1638984342000
Fix,GT,34.1811514,-118.4708655,184.13802474918165,29.02216,0.1,327.73453,1638984343000
Fix,GT,34.1813753,-118.471034,184.6810269430634,29.419611,0.1,327.7492,1638984344000
Fix,GT,34.1815992,-118.471206,185.2960336061886,29.553352,0.1,326.44626,1638984345000
Fix,GT,34.1818225,-118.471384,186.1010384120346,29.832544,0.1,326.46948,1638984346000
Fix,GT,34.1820498,-118.4715612,186.8330304731452,30.17613,0.099,327.21695,1638984347000
Fix,GT,34.1822797,-118.4717356,187.5590326578552,30.12314,0.1,327.89212,1638984348000
Fix,GT,34.1825105,-118.4719058,188.274035089068,29.880646,0.1,328.3228,1638984349000
Fix,GT,34.1827383,-118.4720743,188.94502119879505,29.403059,0.1,328.0836,1638984350000
Fix,GT,34.1829627,-118.4722409,189.5930281119174,29.20649,0.1,328.05237,1638984351000
Fix,GT,34.1831876,-118.4724077,190.18901826040943,29.452715,0.1,328.2362,1638984352000
Fix,GT,34.1834144,-118.4725746,190.7050232618123,29.496002,0.1,328.29047,1638984353000
Fix,GT,34.1836401,-118.4727401,191.1340185218556,29.10483,0.1,328.52216,1638984354000
Fix,GT,34.1838633,-118.472901,191.74202162599303,28.631853,0.1,329.2669,1638984355000
Fix,GT,34.1840853,-118.4730538,192.3550198196406,28.147093,0.1,330.9802,1638984356000
Fix,GT,34.1843086,-118.4731937,192.94001668431625,27.718283,0.1,333.37958,1638984357000
Fix,GT,34.1845324,-118.4733217,193.3700253034868,27.259962,0.1,335.25256,1638984358000
Fix,GT,34.1847559,-118.4734385,193.8590160473913,26.799368,0.1,337.4268,1638984359000
Fix,GT,34.184979,-118.4735436,194.2680183374258,26.384478,0.1,339.38687,1638984360000
Fix,GT,34.1852017,-118.4736383,194.55901083748105,26.099785,0.1,341.21597,1638984361000
Fix,GT,34.1854276,-118.473724,194.6420015521112,26.481987,0.1,343.3751,1638984362000
Fix,GT,34.1856578,-118.4737987,194.59899502957944,26.358337,0.099,345.75534,1638984363000
Fix,GT,34.1858883,-118.4738632,194.4009986230693,26.179674,0.1,347.49408,1638984364000
Fix,GT,34.186119,-118.4739179,194.2119969670875,25.99897,0.1,349.8425,1638984365000
Fix,GT,34.1863488,-118.4739616,193.94899506054423,25.418833,0.1,351.41513,1638984366000
Fix,GT,34.1865716,-118.4739971,193.60098217281643,24.569126,0.1,353.04596,1638984367000
Fix,GT,34.1867908,-118.4740225,193.1359887574531,24.334095,0.1,355.2326,1638984368000
Fix,GT,34.18701,-118.4740404,192.4229778240449,24.451752,0.1,356.47083,1638984369000
Fix,GT,34.1872305,-118.4740515,191.82998165846456,24.506786,0.1,358.1694,1638984370000
Fix,GT,34.1874516,-118.4740562,191.26698703858509,24.584276,0.1,359.00497,1638984371000
Fix,GT,34.1876738,-118.47406,190.76198248368195,24.664526,0.1,358.89096,1638984372000
Fix,GT,34.1878967,-118.4740643,190.3109942441581,24.87236,0.1,358.7831,1638984373000
Fix,GT,34.1881223,-118.474069,189.848992115418,25.085125,0.1,358.883,1638984374000
Fix,GT,34.1883482,-118.4740727,189.32299172743217,25.026085,0.1,359.00262,1638984375000
Fix,GT,34.1885743,-118.4740764,188.9599916883569,25.191051,0.1,359.03555,1638984376000
Fix,GT,34.1888026,-118.4740791,188.7219928451345,25.485838,0.1,359.25827,1638984377000
Fix,GT,34.1890337,-118.4740816,188.60100264053315,25.767582,0.1,359.0542,1638984378000
Fix,GT,34.1892666,-118.4740853,188.571005713068,25.772398,0.1,358.92798,1638984379000
Fix,GT,34.1894977,-118.4740885,188.7150044183224,25.540556,0.1,359.04257,1638984380000
Fix,GT,34.1897278,-118.4740916,188.9500013128597,25.525625,0.1,359.0393,1638984381000
Fix,GT,34.1899582,-118.4740946,189.29501010589087,25.59488,0.1,359.0107,1638984382000
Fix,GT,34.1901895,-118.474098,189.71500978180572,25.754116,0.1,358.9253,1638984383000
Fix,GT,34.1904218,-118.4741016,190.12800502821187,25.765629,0.1,358.8816,1638984384000
Fix,GT,34.1906541,-118.4741054,190.5440113524949,25.788614,0.1,358.882,1638984385000
Fix,GT,34.1908869,-118.4741093,190.9480066465636,25.880314,0.1,358.92007,1638984386000
Fix,GT,34.1911202,-118.4741124,191.40600535635025,25.876337,0.1,359.1713,1638984387000
Fix,GT,34.1913533,-118.474115,191.8030003365564,25.80616,0.099,359.1147,1638984388000
Fix,GT,34.1915851,-118.4741181,192.2050093240461,25.693134,0.1,358.9833,1638984389000
Fix,GT,34.1918169,-118.4741227,192.66000832529264,25.771187,0.1,358.65527,1638984390000
Fix,GT,34.1920482,-118.4741277,193.08400459565976,25.496887,0.1,358.96066,1638984391000
Fix,GT,34.1922764,-118.4741309,193.46800308731085,25.110611,0.1,359.07742,1638984392000
Fix,GT,34.1925008,-118.4741342,193.8680010308868,24.693005,0.1,359.05658,1638984393000
Fix,GT,34.1927222,-118.4741376,194.26999872884423,24.558048,0.099,359.04172,1638984394000
Fix,GT,34.1929456,-118.4741418,194.6700082530769,25.033768,0.1,358.82358,1638984395000
Fix,GT,34.1931739,-118.4741466,195.02900593901512,25.452236,0.1,358.93967,1638984396000
Fix,GT,34.1934021,-118.47415,195.4450030590996,25.274443,0.1,359.20886,1638984397000
Fix,GT,34.1936288,-118.4741524,195.923999871188,24.962523,0.099,359.41537,1638984398000
Fix,GT,34.193852,-118.4741545,196.34300514244043,24.572733,0.1,359.32535,1638984399000
Fix,GT,34.1940718,-118.4741573,196.59700677793452,24.226631,0.1,358.98532,1638984400000
Fix,GT,34.1942896,-118.4741605,196.74800346020749,24.177086,0.1,359.34256,1638984401000
Fix,GT,34.1945085,-118.4741626,196.87700058541344,24.374416,0.1,359.47006,1638984402000
Fix,GT,34.194729,-118.4741652,197.00199569559567,24.572931,0.099,359.03912,1638984403000
Fix,GT,34.194952,-118.4741711,197.15000428431264,24.926714,0.1,358.47888,1638984404000
Fix,GT,34.1951779,-118.4741769,197.2710012502191,25.054502,0.1,358.9905,1638984405000
Fix,GT,34.1954033,-118.4741809,197.4139961485816,25.075237,0.099,359.0698,1638984406000
Fix,GT,34.1956305,-118.4741846,197.4649948158577,25.312536,0.099,359.25964,1638984407000
Fix,GT,34.1958594,-118.474187,197.4949997547373,25.43774,0.1,359.3987,1638984408000
Fix,GT,34.1960888,-118.4741894,197.55299672296923,25.467693,0.099,359.4757,1638984409000
Fix,GT,34.1963179,-118.4741882,197.68399997597933,25.399843,0.1,0.8300781,1638984409999
Fix,GT,34.1965485,-118.4741804,197.80599986171725,25.898586,0.1,2.1366577,1638984410999
Fix,GT,34.1967838,-118.4741652,197.9599997993112,26.18328,0.1,3.7131348,1638984411999
Fix,GT,34.1970181,-118.4741437,198.10799966651203,25.999712,0.1,4.681885,1638984412999
Fix,GT,34.1972525,-118.4741174,198.2799992162585,26.227207,0.1,5.8769836,1638984413999
Fix,GT,34.197486,-118.4740828,198.46699939101936,25.913607,0.1,7.4920654,1638984414999
Fix,GT,34.197715,-118.4740426,198.59099995738268,25.490335,0.1,8.610535,1638984415999
Fix,GT,34.1979411,-118.4739989,198.7559987152815,25.301197,0.1,9.254639,1638984416999
Fix,GT,34.1981643,-118.4739526,199.0489987621308,24.951296,0.1,9.722076,1638984417999
Fix,GT,34.1983843,-118.473906,199.29399886488915,24.649725,0.1,9.739716,1638984418999
Fix,GT,34.1986043,-118.4738603,199.4909988813401,24.95494,0.1,9.497345,1638984419999
Fix,GT,34.1988274,-118.4738144,199.6659985424876,25.126245,0.1,9.592407,1638984420999
Fix,GT,34.1990499,-118.4737675,199.8219989979267,25.037384,0.1,9.8776245,1638984421999
Fix,GT,34.1992712,-118.4737203,199.9419988245368,24.790482,0.1,9.773499,1638984422999
Fix,GT,34.1994906,-118.473674,200.06399825012684,24.69752,0.1,9.721649,1638984423999
Fix,GT,34.1997108,-118.4736281,200.24499750375747,24.883207,0.1,9.645386,1638984424999
Fix,GT,34.1999325,-118.4735812,200.499997228384,25.03257,0.1,9.878387,1638984425999
Fix,GT,34.2001553,-118.4735343,200.7219971761704,25.1531,0.1,9.718018,1638984426999
Fix,GT,34.2003782,-118.4734878,200.974997262001,24.950975,0.1,9.665894,1638984427999
Fix,GT,34.200598,-118.4734438,201.1769978981018,24.502567,0.1,8.84848,1638984428999
Fix,GT,34.2008149,-118.4734055,201.3869964077473,24.14232,0.1,7.6832886,1638984429999
Fix,GT,34.2010312,-118.4733724,201.605000579834,24.29475,0.1,6.602356,1638984430999
Fix,GT,34.2012509,-118.4733424,201.77,24.818747,0.1,6.0572205,1638984431999
Fix,GT,34.2014766,-118.4733154,201.91999761998653,25.456905,0.1,5.0486145,1638984432999
Fix,GT,34.2017057,-118.4732932,201.9739973526001,25.633114,0.1,3.9907227,1638984433999
Fix,GT,34.2019369,-118.4732757,202.09999724388123,25.704649,0.1,3.0675964,1638984434999
Fix,GT,34.2021673,-118.4732617,202.21499713516235,25.485737,0.1,2.5040894,1638984435999
Fix,GT,34.202396,-118.4732516,202.34599758321048,25.256643,0.1,1.4182739,1638984436999
Fix,GT,34.2026225,-118.4732467,202.43499865108728,25.055832,0.1,0.49142456,1638984437999
Fix,GT,34.2028495,-118.4732438,202.5369974065423,25.45258,0.1,0.808197,1638984438999
Fix,GT,34.2030857,-118.4732351,202.62799855595827,27.066647,0.1,2.0308838,1638984439999
Fix,GT,34.2033366,-118.4732223,202.8439955226779,28.649858,0.1,2.2566528,1638984440999
Fix,GT,34.2036017,-118.4732101,203.0279960399866,30.16052,0.1,1.6513367,1638984441999
Fix,GT,34.2038778,-118.4732012,203.1449956908822,31.070465,0.1,1.1042175,1638984442999
Fix,GT,34.204162,-118.4731951,203.3659946274161,32.024265,0.1,0.5993347,1638984443999
Fix,GT,34.2044538,-118.4731913,203.546993506372,32.486614,0.1,0.4477234,1638984444999
Fix,GT,34.2047457,-118.4731873,203.77699455940723,32.199738,0.1,0.57492065,1638984445999
Fix,GT,34.2050353,-118.4731834,203.9589984750748,32.03746,0.1,0.3959961,1638984446999
Fix,GT,34.2053231,-118.473181,204.1469945200681,31.802288,0.1,359.971,1638984447999
Fix,GT,34.2056081,-118.4731835,204.40799357414244,31.405787,0.1,358.90503,1638984448999
Fix,GT,34.2058906,-118.4731892,204.6359936828613,31.414476,0.1,359.08194,1638984449999
Fix,GT,34.2061756,-118.4731921,204.8469932451248,31.913675,0.1,359.4244,1638984450999
Fix,GT,34.2064665,-118.4731964,205.03799538803105,32.745728,0.1,358.71887,1638984451999
Fix,GT,34.2067663,-118.4732039,205.2639932126403,33.78734,0.1,358.74078,1638984452999
Fix,GT,34.2070741,-118.4732101,205.48899607533212,34.35295,0.1,359.1905,1638984453999
Fix,GT,34.2073844,-118.473212,205.72899351745843,34.50202,0.1,359.78775,1638984454999
Fix,GT,34.2076962,-118.4732116,205.9689886403084,34.678104,0.1,0.008300781,1638984455999
Fix,GT,34.2080094,-118.4732106,206.2339903279543,34.6902,0.1,0.09411621,1638984456999
Fix,GT,34.2083204,-118.473208,206.65999177008868,34.39426,0.1,0.5124512,1638984457999
Fix,GT,34.2086317,-118.4732038,206.9059892482757,34.730324,0.1,0.4934082,1638984458999
Fix,GT,34.208946,-118.4731998,206.9029975996613,34.96204,0.1,0.52008057,1638984459999
Fix,GT,34.2092603,-118.4731948,207.10899335569147,34.808907,0.1,0.57403564,1638984460999
Fix,GT,34.2095755,-118.4731914,207.2839889486432,35.14917,0.1,0.1628418,1638984461999
Fix,GT,34.2098941,-118.4731892,207.61698801141972,35.583645,0.1,0.22805786,1638984462999
Fix,GT,34.2102172,-118.4731862,207.7599955589771,36.05147,0.1,0.4008789,1638984463999
Fix,GT,34.2105423,-118.473182,208.1319886918068,36.036438,0.1,0.54592896,1638984464999
Fix,GT,34.2108667,-118.4731778,208.41398963916305,35.953167,0.1,0.3184204,1638984465999
Fix,GT,34.2111903,-118.4731747,208.6429925788045,35.769043,0.1,0.31680298,1638984466999
Fix,GT,34.211511,-118.4731712,208.81299284708496,35.39786,0.1,0.48171997,1638984467999
Fix,GT,34.2118299,-118.473168,209.12198504537344,35.414642,0.1,0.1593628,1638984468999
Fix,GT,34.2121479,-118.4731663,209.4529790403247,35.07143,0.1,0.14538574,1638984469999
Fix,GT,34.2124625,-118.4731638,209.85998203337195,34.82866,0.1,0.18209839,1638984470999
Fix,GT,34.2127757,-118.4731621,210.35897919344904,34.573326,0.1,0.1416626,1638984471999
Fix,GT,34.2130856,-118.4731596,210.8659745463133,34.141148,0.1,0.3180542,1638984472999
Fix,GT,34.2133915,-118.4731562,211.4869728307724,33.7802,0.1,0.3106079,1638984473999
Fix,GT,34.2136958,-118.4731533,212.14297551798825,33.791035,0.1,0.2112732,1638984474999
Fix,GT,34.2140016,-118.4731524,212.71997469234464,34.10999,0.1,359.76996,1638984475999
Fix,GT,34.2143095,-118.473153,213.34497385311127,34.10801,0.1,359.8898,1638984476999
Fix,GT,34.2146154,-118.4731522,213.9309725347757,33.73532,0.1,0.15109253,1638984477999
Fix,GT,34.2149176,-118.473151,214.5079740231037,33.313053,0.1,359.9739,1638984478999
Fix,GT,34.2152168,-118.4731508,215.05397891426088,33.001026,0.1,359.94394,1638984479999
Fix,GT,34.2155121,-118.4731506,215.4569854195118,32.530025,0.1,359.96585,1638984480999
Fix,GT,34.2158037,-118.473149,215.84998127317428,32.24677,0.1,0.27227783,1638984481999
Fix,GT,34.2160953,-118.473148,216.1469875098467,32.49899,0.1,359.9072,1638984482999
Fix,GT,34.2163904,-118.4731474,216.5169959487915,33.05617,0.1,0.1529541,1638984483999
Fix,GT,34.2166896,-118.4731448,216.6189989734888,33.21738,0.1,0.65597534,1638984484999
Fix,GT,34.2169889,-118.4731399,216.68900156015155,33.20607,0.1,0.5699158,1638984485999
Fix,GT,34.2172883,-118.4731361,216.69599051570893,33.175705,0.1,0.44589233,1638984486999
Fix,GT,34.2175861,-118.4731328,216.6930026685,32.877087,0.1,0.3432312,1638984487999
Fix,GT,34.2178808,-118.4731311,216.77899351406097,32.512123,0.1,0.020233154,1638984488999
Fix,GT,34.2181719,-118.4731309,216.9119950738549,31.91315,0.1,0.1487732,1638984489999
Fix,GT,34.2184544,-118.4731289,217.03299057954547,30.759224,0.1,0.46551514,1638984490999
Fix,GT,34.218727,-118.4731256,217.16299214684963,29.814442,0.1,0.47323608,1638984491999
Fix,GT,34.2189935,-118.4731232,217.24999545812608,29.333645,0.1,0.33276367,1638984492999
Fix,GT,34.2192564,-118.4731204,217.3309971270561,28.994417,0.1,0.5013428,1638984493999
Fix,GT,34.2195164,-118.4731177,217.41299360477925,28.747705,0.1,0.31900024,1638984494999
Fix,GT,34.2197765,-118.4731158,217.5379929418564,29.02053,0.1,0.30578613,1638984495999
Fix,GT,34.2200397,-118.4731131,217.62899523973465,29.355253,0.1,0.4779663,1638984496999
Fix,GT,34.2203052,-118.4731103,217.7559861579537,29.511276,0.1,0.3809204,1638984497999
Fix,GT,34.2205715,-118.4731076,217.95398782753944,29.511961,0.1,0.4414673,1638984498999
Fix,GT,34.2208362,-118.473104,218.1889766141176,29.272768,0.1,0.6399231,1638984499999
Fix,GT,34.2210997,-118.4731005,218.4839825780392,29.184645,0.1,0.4801941,1638984500999
Fix,GT,34.2213625,-118.4730973,218.5470119534135,29.11031,0.1,0.5229187,1638984501999
Fix,GT,34.2216235,-118.4730941,218.7090127184391,28.708183,0.1,0.4810791,1638984502999
Fix,GT,34.2218811,-118.4730918,218.6050115689039,28.539362,0.1,0.18963623,1638984503999
Fix,GT,34.2221399,-118.4730912,218.5579961029291,28.938969,0.1,359.92633,1638984504999
Fix,GT,34.2224028,-118.47309,218.6109868738651,29.248148,0.1,0.42700195,1638984505999
Fix,GT,34.222666,-118.473087,218.77498342245812,29.123308,0.1,0.45718384,1638984506999
Fix,GT,34.2229282,-118.4730847,218.9729912897945,29.158428,0.1,0.21948242,1638984507999
Fix,GT,34.2231918,-118.4730835,219.09499255508183,29.194574,0.1,0.3671875,1638984508999
Fix,GT,34.2234546,-118.4730804,219.185991796732,29.245724,0.1,0.55651855,1638984509999
Fix,GT,34.2237191,-118.4730769,219.2889875727892,29.295511,0.1,0.539917,1638984510999
Fix,GT,34.2239819,-118.4730738,219.4639874504805,28.984446,0.1,0.49145508,1638984511999
Fix,GT,34.2242416,-118.4730711,219.6089859201908,28.633007,0.1,0.4302063,1638984512999
Fix,GT,34.2244982,-118.4730686,219.74098578190805,28.296062,0.1,0.44082642,1638984513999
Fix,GT,34.2247529,-118.4730662,219.92100215309856,28.308846,0.1,0.36627197,1638984514999
Fix,GT,34.2250095,-118.4730646,219.86999275505545,28.645287,0.1,0.2472229,1638984515999
Fix,GT,34.2252691,-118.473061,220.0279890297652,28.94588,0.1,0.73825073,1638984516999
Fix,GT,34.2255315,-118.4730577,220.18099040412903,29.30138,0.1,0.21697998,1638984517999
Fix,GT,34.2257977,-118.4730563,220.3519903157949,29.928423,0.1,0.2778015,1638984518999
Fix,GT,34.2260688,-118.4730537,220.4749924826622,30.143238,0.1,0.4758911,1638984519999
Fix,GT,34.2263417,-118.473051,220.58298710399865,30.308868,0.1,0.36697388,1638984520999
Fix,GT,34.2266156,-118.4730492,220.74198469114305,30.37928,0.1,0.28405762,1638984521999
Fix,GT,34.2268895,-118.4730467,220.9269745161533,30.314594,0.1,0.5683899,1638984522999
Fix,GT,34.2271612,-118.4730426,221.2019875354767,29.944445,0.1,0.96292114,1638984523999
Fix,GT,34.227429,-118.4730343,221.418982711792,29.420649,0.1,2.094818,1638984524999
Fix,GT,34.2276907,-118.4730195,221.62398414754867,28.746847,0.1,3.0133667,1638984525999
Fix,GT,34.2279472,-118.4730046,221.9129680185318,28.25021,0.1,2.099945,1638984526999
Fix,GT,34.2282005,-118.4729948,222.32099596834183,28.112017,0.1,1.273346,1638984527999
Fix,GT,34.2284563,-118.4729884,222.55096259617804,28.68242,0.1,1.4772339,1638984528999
Fix,GT,34.2287182,-118.4729765,222.69898688125613,29.603683,0.1,2.289795,1638984529999
Fix,GT,34.22899,-118.472964,222.8739867725372,30.718716,0.1,1.6680908,1638984530999
Fix,GT,34.2292717,-118.472956,223.0849824950099,31.77619,0.1,0.91018677,1638984531999
Fix,GT,34.2295627,-118.4729504,223.4079756276608,32.799152,0.1,0.83465576,1638984532999
Fix,GT,34.2298607,-118.4729446,223.7629711945057,33.209152,0.1,0.8401184,1638984533999
Fix,GT,34.2301609,-118.4729397,224.0819735255241,33.410862,0.1,0.48632812,1638984534999
Fix,GT,34.2304633,-118.472936,224.32397589731207,33.62524,0.1,0.5583191,1638984535999
Fix,GT,34.2307675,-118.4729316,224.6379696317315,33.900913,0.1,0.4475708,1638984536999
Fix,GT,34.2310745,-118.4729287,224.8409938787818,34.213234,0.1,0.40325928,1638984537999
Fix,GT,34.2313823,-118.4729251,225.1159638685584,33.97613,0.1,0.50790405,1638984538999
Fix,GT,34.2316874,-118.4729221,225.4989653614164,33.853725,0.1,0.28692627,1638984539999
Fix,GT,34.2319946,-118.4729199,225.83196420145035,34.390594,0.1,0.29904175,1638984540999
Fix,GT,34.2323073,-118.4729169,226.08496753454207,34.95126,0.1,0.41210938,1638984541999
Fix,GT,34.232624,-118.4729133,226.41897546744343,35.237747,0.1,0.44766235,1638984542999
Fix,GT,34.2329406,-118.4729095,226.6869716205001,34.938488,0.1,0.621521,1638984543999
Fix,GT,34.2332552,-118.4729049,226.9659815535545,34.853504,0.1,0.5310669,1638984544999
Fix,GT,34.2335692,-118.4729007,227.24197863030432,34.736336,0.1,0.6247864,1638984545999
Fix,GT,34.2338804,-118.4728954,227.5219728568196,34.319466,0.1,0.8357239,1638984546999
Fix,GT,34.2341877,-118.4728916,227.8699745436907,33.90973,0.1,0.21447754,1638984547999
Fix,GT,34.2344938,-118.4728906,228.134971511364,34.07901,0.1,0.022155762,1638984548999
Fix,GT,34.2348034,-118.4728901,228.4359607869387,34.542034,0.1,0.0423584,1638984549999
Fix,GT,34.2351133,-118.4728888,228.7449653222561,34.160606,0.1,0.25820923,1638984550999
Fix,GT,34.2354189,-118.4728857,229.2339592572451,33.626,0.1,0.44595337,1638984551999
Fix,GT,34.2357198,-118.4728827,229.5409677636028,33.136326,0.1,0.44033813,1638984552999
Fix,GT,34.2360167,-118.4728797,229.6229990163445,32.735027,0.1,0.40875244,1638984553999
Fix,GT,34.236309,-118.4728771,229.83597226405143,32.151962,0.1,0.36587524,1638984554999
Fix,GT,34.2365976,-118.4728745,230.1479710764289,32.011944,0.1,0.36083984,1638984555999
Fix,GT,34.2368881,-118.4728723,230.43797288769483,32.33639,0.1,0.22433472,1638984556999
Fix,GT,34.2371783,-118.4728698,230.6959747261405,32.04442,0.1,0.46673584,1638984557999
Fix,GT,34.2374655,-118.4728663,230.9689674282074,31.671293,0.1,0.47558594,1638984558999
Fix,GT,34.2377494,-118.4728636,231.2659682354331,31.243671,0.1,0.29058838,1638984559999
Fix,GT,34.2380267,-118.4728615,231.5249721506238,30.198166,0.1,0.45318604,1638984560999
Fix,GT,34.238292,-118.4728582,231.8219740421772,28.816185,0.1,0.6390991,1638984561999
Fix,GT,34.23855,-118.472855,232.1019696918726,28.501442,0.1,0.54470825,1638984562999
Fix,GT,34.2388038,-118.4728516,232.4189747543335,27.435987,0.1,0.56427,1638984563999
Fix,GT,34.2390425,-118.4728484,232.58999258828163,25.738756,0.1,0.54803467,1638984564999
Fix,GT,34.23927,-118.4728453,232.87095950675013,24.786572,0.1,0.50097656,1638984565999
Fix,GT,34.239489,-118.4728435,233.1219678277969,23.731335,0.1,0.12561035,1638984566999
Fix,GT,34.2396978,-118.4728427,233.2469956831932,22.721212,0.1,0.15118408,1638984567999
Fix,GT,34.2399011,-118.4728418,233.4099782788753,22.405188,0.1,0.16726685,1638984568999
Fix,GT,34.2401,-118.4728404,233.6289781429768,21.526531,0.1,0.292511,1638984569999
Fix,GT,34.2402877,-118.4728391,233.83497910559177,20.137545,0.1,0.26113892,1638984570999
Fix,GT,34.2404643,-118.4728377,234.0489811884761,19.130632,0.1,0.35928345,1638984571999
Fix,GT,34.2406345,-118.4728361,234.19398663973809,18.639656,0.1,0.39682007,1638984572999
Fix,GT,34.2408016,-118.4728346,234.40798431789872,18.546524,0.1,0.36669922,1638984573999
Fix,GT,34.2409706,-118.472833,234.58997745871545,18.961615,0.1,0.37783813,1638984574999
Fix,GT,34.2411442,-118.4728313,234.75298866140844,19.636768,0.1,0.4758606,1638984575999
Fix,GT,34.241325,-118.4728292,234.93097946822644,20.251898,0.1,0.47979736,1638984576999
Fix,GT,34.2415088,-118.4728271,235.03398967295885,20.579758,0.1,0.45922852,1638984577999
Fix,GT,34.2416937,-118.4728249,235.2699688354135,20.375168,0.1,0.5807495,1638984578999
Fix,GT,34.2418759,-118.4728227,235.4849767780304,20.081917,0.1,0.4859619,1638984579999
Fix,GT,34.2420579,-118.4728209,235.66797781002523,20.415306,0.1,0.34487915,1638984580999
Fix,GT,34.2422456,-118.4728194,235.8259729807973,21.196411,0.1,0.35546875,1638984581999
Fix,GT,34.2424368,-118.4728171,236.06397636914247,21.272354,0.1,0.61849976,1638984582999
Fix,GT,34.2426303,-118.4728141,236.30297623324395,21.665148,0.1,0.8253174,1638984583999
Fix,GT,34.2428284,-118.4728109,236.5069796817303,22.28849,0.1,0.59432983,1638984584999
Fix,GT,34.2430298,-118.4728084,236.74599399006368,22.471828,0.1,0.4534607,1638984585999
Fix,GT,34.2432329,-118.4728069,236.82399395608903,22.56623,0.1,0.22723389,1638984586999
Fix,GT,34.2434378,-118.4728062,237.03096474480628,22.779022,0.1,359.9819,1638984587999
Fix,GT,34.2436434,-118.4728054,237.2039755501748,23.006372,0.1,0.35247803,1638984588999
Fix,GT,34.2438543,-118.4728039,237.34899139499663,23.863249,0.1,0.28094482,1638984589999
Fix,GT,34.2440703,-118.4728018,237.5199789866209,23.897041,0.1,0.516449,1638984590999
Fix,GT,34.2442852,-118.4727989,237.6729825997353,23.893484,0.1,0.6044922,1638984591999
Fix,GT,34.2445026,-118.4727959,237.82697625511884,24.352499,0.1,0.5841675,1638984592999
Fix,GT,34.2447249,-118.4727932,237.95998869073392,25.02127,0.1,0.5372925,1638984593999
Fix,GT,34.2449539,-118.47279,238.01199494647977,25.757866,0.1,0.6503601,1638984594999
Fix,GT,34.2451865,-118.4727859,238.0380063508749,25.86464,0.1,0.88793945,1638984595999
Fix,GT,34.2454203,-118.4727791,238.03400127702952,26.010721,0.1,1.892456,1638984596999
Fix,GT,34.2456557,-118.4727651,238.12897945880889,26.182674,0.1,3.5602112,1638984597999
Fix,GT,34.2458912,-118.4727423,238.3169716063738,26.310892,0.1,5.470398,1638984598999
Fix,GT,34.246126,-118.4727098,238.48597794395684,26.108276,0.1,7.4622498,1638984599999
Fix,GT,34.2463575,-118.4726691,238.6909595658184,25.809374,0.1,8.816406,1638984600999
Fix,GT,34.2465871,-118.472623,238.95295017731192,25.950994,0.1,9.875519,1638984601999
Fix,GT,34.2468179,-118.4725723,239.286947283268,25.94891,0.1,10.584808,1638984602999
Fix,GT,34.2470474,-118.4725205,239.58896158331632,25.99165,0.1,10.495178,1638984603999
Fix,GT,34.2472787,-118.4724687,239.8729640492797,26.108767,0.1,10.613312,1638984604999
Fix,GT,34.2475104,-118.4724155,240.242937094152,26.149559,0.1,10.777466,1638984605999
Fix,GT,34.2477411,-118.4723624,240.83091256088017,26.063622,0.1,10.750763,1638984606999
Fix,GT,34.2479734,-118.4723111,241.43591887927056,26.364435,0.1,10.059937,1638984607999
Fix,GT,34.2482093,-118.4722635,242.02192662119865,26.69171,0.1,8.909729,1638984608999
Fix,GT,34.2484482,-118.4722223,242.51493308258057,26.700579,0.1,7.3937683,1638984609999
Fix,GT,34.2486874,-118.472189,242.96394784665108,26.807695,0.1,5.81015,1638984610999
Fix,GT,34.2489275,-118.4721645,243.4279324108362,26.611414,0.1,4.0964966,1638984611999
Fix,GT,34.249166,-118.4721475,243.7989681181908,26.345064,0.1,3.1021729,1638984612999
Fix,GT,34.2494017,-118.4721316,244.032969354868,26.09039,0.1,2.960785,1638984613999
Fix,GT,34.2496383,-118.4721178,244.2259776039124,26.572046,0.1,2.638855,1638984614999
Fix,GT,34.2498802,-118.4721045,244.5419324798584,26.947363,0.1,2.1768188,1638984615999
Fix,GT,34.2501217,-118.4720943,244.9619420479536,26.655138,0.1,1.9478455,1638984616999
Fix,GT,34.2503637,-118.4720834,245.273029825449,27.267662,0.1,2.368164,1638984617999
Fix,GT,34.2506139,-118.4720703,245.3250042811632,28.28581,0.1,2.4642944,1638984618999
Fix,GT,34.2508711,-118.4720574,245.4289885287285,28.79962,0.1,2.077301,1638984619999
Fix,GT,34.251131,-118.472048,245.5949740673304,28.712284,0.1,1.3300476,1638984620999
Fix,GT,34.2513861,-118.4720424,245.7649768400192,27.847536,0.1,0.6680298,1638984621999
Fix,GT,34.2516341,-118.47204,245.86898981994392,27.28938,0.1,0.19174194,1638984622999
Fix,GT,34.2518786,-118.4720388,245.98898538851736,27.0154,0.1,0.27172852,1638984623999
Fix,GT,34.2521214,-118.4720367,246.13897798085216,26.811857,0.1,0.4321289,1638984624999
Fix,GT,34.2523618,-118.4720341,246.2519808284044,26.527243,0.1,0.55792236,1638984625999
Fix,GT,34.2525995,-118.4720308,246.3699674049616,26.210127,0.1,0.6635437,1638984626999
Fix,GT,34.2528342,-118.4720268,246.5679732090235,25.87979,0.1,0.8034363,1638984627999
Fix,GT,34.253066,-118.4720231,246.72697757226229,25.552706,0.1,0.5604248,1638984628999
Fix,GT,34.2532946,-118.472019,246.86399399209023,25.177727,0.1,1.4406738,1638984629999
Fix,GT,34.2535201,-118.4720087,246.92496982216835,24.86565,0.1,2.6416016,1638984630999
Fix,GT,34.2537423,-118.4719953,247.08998484313489,24.516895,0.1,3.0802307,1638984631999
Fix,GT,34.2539616,-118.4719808,247.10796041548247,24.199778,0.1,3.1654053,1638984632999
Fix,GT,34.2541783,-118.4719663,247.18398776578903,24.048838,0.1,3.112732,1638984633999
Fix,GT,34.2543964,-118.4719515,247.3269769589305,24.440231,0.1,3.168457,1638984634999
Fix,GT,34.2546149,-118.4719364,247.46398302716017,23.87088,0.1,3.2833252,1638984635999
Fix,GT,34.2548242,-118.4719226,247.5909798528552,22.63223,0.1,3.0758057,1638984636999
Fix,GT,34.255023,-118.4719094,247.6819906605482,21.57588,0.1,3.2370605,1638984637999
Fix,GT,34.2552117,-118.4718944,247.7009937465191,20.345142,0.1,4.459198,1638984638999
Fix,GT,34.2553895,-118.4718713,247.67100628066063,19.510876,0.1,7.9516296,1638984639999
Fix,GT,34.2555581,-118.4718299,247.5250488857627,18.66591,0.1,14.509369,1638984640999
Fix,GT,34.2557133,-118.4717616,247.30302217340468,18.099386,0.1,24.493073,1638984641999
Fix,GT,34.2558506,-118.4716629,247.1040286320448,17.522608,0.1,35.424225,1638984642999
Fix,GT,34.2559675,-118.47154,247.03499680507184,16.993364,0.1,44.670837,1638984643999
Fix,GT,34.25607,-118.4714084,246.9330224596262,16.151447,0.1,47.921356,1638984644999
Fix,GT,34.2561637,-118.4712857,246.7980193326473,14.634686,0.1,46.99225,1638984645999
Fix,GT,34.2562581,-118.4711803,246.62903882980345,14.005934,0.1,39.54605,1638984646999
Fix,GT,34.2563647,-118.4711019,246.3800373681784,13.742596,0.1,26.129883,1638984647999
Fix,GT,34.256483,-118.471063,246.11705057644843,13.30398,0.1,7.8586426,1638984648999
Fix,GT,34.2565993,-118.4710725,245.73705570197103,12.605898,0.1,348.9643,1638984649999
Fix,GT,34.2567032,-118.471117,245.30506416076423,11.76655,0.1,336.5666,1638984650999
Fix,GT,34.2567963,-118.4711699,244.9090578179956,11.027491,0.1,334.2691,1638984651999
Fix,GT,34.2568809,-118.4712184,244.5740447859168,9.756947,0.1,334.45508,1638984652999
Fix,GT,34.2569554,-118.4712612,244.32703164625167,8.43973,0.1,334.29498,1638984653999
Fix,GT,34.2570186,-118.4712976,244.14202174103252,7.1918254,0.1,334.28183,1638984654999
Fix,GT,34.2570726,-118.4713287,244.0219748122692,6.0516167,0.1,334.40353,1638984655999
Fix,GT,34.2571158,-118.4713534,243.9780185470581,4.489333,0.1,335.1416,1638984656999
Fix,GT,34.2571458,-118.4713698,243.9510084644556,2.9400842,0.1,335.82114,1638984657999
Fix,GT,34.2571648,-118.4713799,243.93200679874417,1.634932,0.1,336.19635,1638984658999
Fix,GT,34.2571728,-118.4713842,243.9130034130812,0.37391284,0.1,336.2188,1638984659999
Fix,GT,34.2571733,-118.4713846,243.911,0.011712112,0.1,336.21136,1638984660999
Fix,GT,34.2571732,-118.4713847,243.913,0.009848145,0.1,336.21207,1638984661999
Fix,GT,34.2571732,-118.4713847,243.915,0.008943581,0.1,336.2115,1638984662999
Fix,GT,34.2571732,-118.4713847,243.916,0.006707675,0.1,336.2115,1638984663999
Fix,GT,34.2571732,-118.4713847,243.916,0.0044730552,0.1,336.21127,1638984664999
Fix,GT,34.2571732,-118.4713847,243.916,0.0036055513,0.1,336.21094,1638984665999
Fix,GT,34.2571732,-118.4713847,243.916,0.0028287282,0.1,336.21063,1638984666999
Fix,GT,34.2571732,-118.4713847,243.916,0.0014142136,0.1,336.21017,1638984667999
Fix,GT,34.2571732,-118.4713847,243.916,0.001,0.1,336.20953,1638984668999
Fix,GT,34.2571732,-118.4713847,243.916,0.0022346093,0.1,336.20898,1638984669999
Fix,GT,34.2571732,-118.4713847,243.916,0.0028284271,0.1,336.20853,1638984670999
Fix,GT,34.2571732,-118.4713847,243.916,0.004471512,0.1,336.20813,1638984671999
Fix,GT,34.2571732,-118.4713847,243.916,0.0050011794,0.1,336.20764,1638984672999
Fix,GT,34.2571732,-118.4713847,243.916,0.007210196,0.1,336.20682,1638984673999
Fix,GT,34.2571731,-118.4713847,243.916,0.008060717,0.1,336.2063,1638984674999
Fix,GT,34.2571731,-118.4713847,243.916,0.0078091617,0.1,336.20615,1638984675999
Fix,GT,34.2571731,-118.4713846,243.916,0.005830635,0.1,336.2059,1638984676999
Fix,GT,34.257173,-118.4713846,243.916,0.0010022613,0.1,336.20554,1638984677999
Fix,GT,34.257173,-118.4713845,243.916,0.0042400435,0.1,336.2055,1638984678999
Fix,GT,34.257173,-118.4713846,243.915,0.014142266,0.1,336.2055,1638984679999
Fix,GT,34.2571731,-118.4713846,243.914,0.035366714,0.1,336.20703,1638984680999
Fix,GT,34.2571765,-118.4713867,243.88301671123503,1.2699988,0.1,336.12845,1638984681999
Fix,GT,34.2571997,-118.4713995,243.8260111815929,4.2454987,0.1,335.69992,1638984682999
Fix,GT,34.2572415,-118.4714235,243.73601683354377,6.025946,0.1,334.2117,1638984683999
Fix,GT,34.2572935,-118.4714612,243.89997184216972,7.3023586,0.1,327.02438,1638984684999
Fix,GT,34.2573442,-118.4715207,243.9520094205141,8.316243,0.1,311.02765,1638984685999
Fix,GT,34.2573828,-118.4716074,243.9080094544888,9.84056,0.1,292.6207,1638984686999
Fix,GT,34.2574037,-118.4717207,243.77901518154144,11.493713,0.1,278.42053,1638984687999
Fix,GT,34.2574145,-118.4718553,243.72101523637767,13.361985,0.1,274.25522,1638984688999
Fix,GT,34.2574228,-118.4720078,243.71498662060492,14.600626,0.1,273.0989,1638984689999
Fix,GT,34.257429,-118.472169,243.7680038362741,14.900754,0.1,272.1253,1638984690999
Fix,GT,34.2574331,-118.4723296,243.778986525476,14.58758,0.1,271.40527,1638984691999
Fix,GT,34.2574353,-118.472484,243.83698261338472,13.787466,0.1,270.8458,1638984692999
Fix,GT,34.2574362,-118.4726273,243.8360077545643,12.414437,0.1,270.3742,1638984693999
Fix,GT,34.2574363,-118.4727537,243.876996109128,10.838335,0.1,270.28873,1638984694999
Fix,GT,34.2574367,-118.472861,243.92199023884527,9.159339,0.1,270.87354,1638984695999
Fix,GT,34.2574417,-118.4729562,243.9339882458449,8.331587,0.1,276.63025,1638984696999
Fix,GT,34.2574625,-118.4730387,243.88600196594,7.8301315,0.1,293.11462,1638984697999
Fix,GT,34.257506,-118.4731069,243.92301972734927,8.379258,0.1,312.21194,1638984698999
Fix,GT,34.2575676,-118.4731691,243.99897426611184,9.554614,0.1,321.6928,1638984699999
Fix,GT,34.2576406,-118.4732373,244.1109801367521,10.86998,0.1,322.23123,1638984700999
Fix,GT,34.2577221,-118.47331,244.1899740894437,11.465887,0.1,324.94324,1638984701999
Fix,GT,34.2578113,-118.4733718,244.40892800092692,11.410625,0.1,334.1174,1638984702999
Fix,GT,34.2579103,-118.4734071,244.8598936380744,11.702164,0.1,349.85257,1638984703999
Fix,GT,34.2580155,-118.4734023,245.4678751553297,11.841071,0.1,9.453064,1638984704999
Fix,GT,34.2581147,-118.4733545,246.07987473404407,12.200769,0.1,28.841888,1638984705999
Fix,GT,34.2581982,-118.473266,246.67489053046705,12.611093,0.1,48.857666,1638984706999
Fix,GT,34.2582521,-118.4731472,247.21289016354083,12.420339,0.1,68.55975,1638984707999
Fix,GT,34.2582701,-118.4730184,247.72091428625583,11.823791,0.1,87.345825,1638984708999
Fix,GT,34.2582517,-118.4728972,248.103940617919,11.170623,0.1,107.24249,1638984709999
Fix,GT,34.2582005,-118.4727918,248.36796918320653,11.813902,0.1,126.75049,1638984710999
Fix,GT,34.2581128,-118.4727042,248.6269319768548,13.650837,0.1,147.59943,1638984711999
Fix,GT,34.2579908,-118.4726493,248.97792554831503,15.471015,0.1,165.19708,1638984712999
Fix,GT,34.2578446,-118.4726232,249.2799751012325,17.401657,0.1,174.04431,1638984713999
Fix,GT,34.2576799,-118.4726086,249.36998126477005,19.316753,0.1,176.0918,1638984714999
Fix,GT,34.2574971,-118.4725962,249.4969979115129,21.268885,0.1,176.88428,1638984715999
Fix,GT,34.2572983,-118.4725865,249.401027238667,22.919199,0.1,177.78699,1638984716999
Fix,GT,34.2570845,-118.4725785,249.24106726646423,24.566757,0.1,178.12634,1638984717999
Fix,GT,34.2568552,-118.4725714,248.953050614357,26.324436,0.1,178.34918,1638984718999
Fix,GT,34.2566121,-118.4725643,248.7540105789304,27.568886,0.1,178.53027,1638984719999
Fix,GT,34.2563596,-118.4725594,248.6080530645252,28.489676,0.1,179.02808,1638984720999
Fix,GT,34.2560986,-118.4725525,248.44404897564647,29.314655,0.1,178.06354,1638984721999
Fix,GT,34.2558322,-118.4725416,248.2610363149047,29.819109,0.1,177.54022,1638984722999
Fix,GT,34.25556,-118.4725279,248.1150471465588,30.636147,0.1,177.26782,1638984723999
Fix,GT,34.2552803,-118.4725144,247.99602794766423,31.481276,0.1,177.86206,1638984724999
Fix,GT,34.2549934,-118.4725059,247.86503234922887,32.062378,0.1,178.9679,1638984725999
Fix,GT,34.2547034,-118.4725018,247.80703028857707,32.32777,0.1,178.7597,1638984726999
Fix,GT,34.2544097,-118.4724927,247.6480347251892,32.96109,0.1,178.02887,1638984727999
Fix,GT,34.2541095,-118.4724833,247.46005660510065,33.574017,0.1,178.77667,1638984728999
Fix,GT,34.2538073,-118.4724789,247.27203494262696,33.443604,0.1,179.49933,1638984729999
Fix,GT,34.2535044,-118.4724791,247.08105695843696,33.823322,0.1,180.09317,1638984730999
Fix,GT,34.2531996,-118.4724821,246.93406153345109,33.68978,0.1,180.30182,1638984731999
Fix,GT,34.2528975,-118.4724845,246.78003306627275,33.331627,0.1,180.10463,1638984732999
Fix,GT,34.2525985,-118.4724864,246.5800707588196,33.01753,0.1,180.10358,1638984733999
Fix,GT,34.2523023,-118.4724894,246.3760443613529,32.69368,0.1,180.38493,1638984734999
Fix,GT,34.2520091,-118.4724929,246.2480444972515,32.374493,0.1,180.27208,1638984735999
Fix,GT,34.2517186,-118.4724949,246.1390312432051,32.062355,0.1,180.03174,1638984736999
Fix,GT,34.2514309,-118.4724962,245.9550447690487,31.785324,0.1,180.05565,1638984737999
Fix,GT,34.2511452,-118.4724981,245.81802918976547,31.650618,0.1,180.14801,1638984738999
Fix,GT,34.2508609,-118.4725006,245.708018017292,31.399712,0.1,180.07574,1638984739999
Fix,GT,34.2505783,-118.4724993,245.6490090358257,31.43216,0.1,179.03284,1638984740999
Fix,GT,34.2502908,-118.4724922,245.41005664527412,32.387302,0.1,178.51971,1638984741999
Fix,GT,34.2499922,-118.4724856,244.90609772461653,33.75281,0.1,179.0014,1638984742999
Fix,GT,34.249685,-118.4724831,244.27320059776304,34.318985,0.1,179.72302,1638984743999
Fix,GT,34.2493748,-118.4724863,243.48317147362232,34.394066,0.1,180.75053,1638984744999
Fix,GT,34.2490655,-118.4724971,242.6791651039124,34.29039,0.1,182.4012,1638984745999
Fix,GT,34.2487562,-118.4725211,242.0571265013218,34.459816,0.1,184.6151,1638984746999
Fix,GT,34.2484469,-118.4725606,241.4551291818619,34.591713,0.1,187.33437,1638984747999
Fix,GT,34.248139,-118.4726183,240.9480902309418,34.510532,0.1,189.82074,1638984748999
Fix,GT,34.247833,-118.4726866,240.5810858573317,34.62233,0.1,190.48975,1638984749999
Fix,GT,34.2475256,-118.4727567,240.21109076327087,34.78402,0.1,190.59485,1638984750999
Fix,GT,34.247218,-118.472827,239.85306535696984,34.62485,0.1,190.53838,1638984751999
Fix,GT,34.2469127,-118.4728971,239.7070046819448,34.3022,0.1,190.58168,1638984752999
Fix,GT,34.2466115,-118.4729648,239.6510375642777,33.72683,0.1,190.046,1638984753999
Fix,GT,34.2463131,-118.4730241,239.65402354621887,33.463974,0.1,188.13824,1638984754999
Fix,GT,34.2460142,-118.4730693,239.4470495897532,33.299618,0.1,185.84026,1638984755999
Fix,GT,34.2457164,-118.4731006,239.2180426299572,33.023144,0.1,183.71239,1638984756999
Fix,GT,34.2454203,-118.4731187,238.94105462789537,32.761864,0.1,181.81425,1638984757999
Fix,GT,34.2451251,-118.4731264,238.60107860535385,32.86805,0.1,180.477,1638984758999
Fix,GT,34.2448278,-118.4731289,238.21111943876744,32.942543,0.1,180.11372,1638984759999
Fix,GT,34.2445319,-118.4731316,237.86806228792665,32.6987,0.1,180.41301,1638984760999
Fix,GT,34.2442385,-118.4731353,237.6680408422351,32.41401,0.1,180.45332,1638984761999
Fix,GT,34.2439474,-118.473139,237.4170554134249,32.167507,0.1,180.34746,1638984762999
Fix,GT,34.2436585,-118.4731425,237.2610386581421,31.932526,0.1,180.38577,1638984763999
Fix,GT,34.2433728,-118.4731459,236.980099342525,31.527569,0.1,180.33536,1638984764999
Fix,GT,34.2430895,-118.4731485,236.7670097193718,31.30469,0.1,180.14964,1638984765999
Fix,GT,34.2428085,-118.4731511,236.56806091594697,31.027454,0.1,180.37474,1638984766999
Fix,GT,34.2425322,-118.4731538,236.225153940022,30.329763,0.1,180.20831,1638984767999
Fix,GT,34.2422614,-118.4731561,235.90307841300964,29.735327,0.1,180.30751,1638984768999
Fix,GT,34.2419957,-118.4731588,235.6070712588429,29.303255,0.1,180.34547,1638984769999
Fix,GT,34.2417324,-118.4731617,235.37305913591385,29.155931,0.1,180.27336,1638984770999
Fix,GT,34.2414691,-118.4731637,235.10406424212456,29.30832,0.1,180.08987,1638984771999
Fix,GT,34.241205,-118.4731651,234.8750545095205,29.227312,0.1,180.1612,1638984772999
Fix,GT,34.2409425,-118.473168,234.6090795059204,29.020365,0.1,180.28773,1638984773999
Fix,GT,34.2406815,-118.4731705,234.33209467148785,28.952007,0.1,180.33325,1638984774999
Fix,GT,34.2404204,-118.4731738,234.05506995153428,28.892616,0.1,180.42668,1638984775999
Fix,GT,34.2401627,-118.4731773,233.77708016204832,28.406836,0.1,180.42316,1638984776999
Fix,GT,34.2399076,-118.4731801,233.47407284563772,28.19992,0.1,180.23994,1638984777999
Fix,GT,34.239654,-118.4731819,233.17905793040995,28.119286,0.1,180.09885,1638984778999
Fix,GT,34.2393991,-118.4731841,232.941065666318,28.469593,0.1,180.43877,1638984779999
Fix,GT,34.2391425,-118.4731872,232.69006837540863,28.465296,0.1,180.41103,1638984780999
Fix,GT,34.2388844,-118.4731901,232.41204570698736,28.81222,0.1,180.25624,1638984781999
Fix,GT,34.2386248,-118.4731915,232.15406619942183,28.74714,0.1,179.99792,1638984782999
Fix,GT,34.2383665,-118.4731932,231.9320612716675,28.55175,0.1,180.47542,1638984783999
Fix,GT,34.2381088,-118.473197,231.67906911569835,28.697035,0.1,180.49898,1638984784999
Fix,GT,34.2378487,-118.4732004,231.4310693007708,29.00543,0.1,180.38223,1638984785999
Fix,GT,34.237587,-118.4732034,231.1820643387437,29.106052,0.1,180.28983,1638984786999
Fix,GT,34.2373244,-118.4732055,230.90506451010705,29.117476,0.1,180.17108,1638984787999
Fix,GT,34.2370611,-118.4732076,230.62307244324683,29.234713,0.1,180.22238,1638984788999
Fix,GT,34.2367976,-118.4732099,230.3690518810749,29.200079,0.1,180.33446,1638984789999
Fix,GT,34.2365351,-118.4732132,230.1500546203256,29.119432,0.1,180.37141,1638984790999
Fix,GT,34.2362717,-118.4732151,229.9050391173363,29.30022,0.1,180.05525,1638984791999
Fix,GT,34.2360075,-118.4732172,229.7140549094677,29.247551,0.1,180.41023,1638984792999
Fix,GT,34.2357449,-118.4732205,229.58802097225188,29.000849,0.1,180.5097,1638984793999
Fix,GT,34.2354838,-118.4732243,229.3371051354408,28.907299,0.1,180.38103,1638984794999
Fix,GT,34.2352233,-118.4732268,229.0071080424189,28.884682,0.1,180.26457,1638984795999
Fix,GT,34.2349633,-118.4732289,228.69608983123305,28.829613,0.1,180.16748,1638984796999
Fix,GT,34.2347034,-118.4732311,228.38508741533755,28.764801,0.1,180.24538,1638984797999
Fix,GT,34.2344442,-118.4732337,228.1290690524578,28.765938,0.1,180.28319,1638984798999
Fix,GT,34.2341856,-118.4732361,227.9020585784912,28.573912,0.1,180.2545,1638984799999
Fix,GT,34.2339292,-118.4732382,227.68306940734385,28.321493,0.1,180.17609,1638984800999
Fix,GT,34.2336748,-118.4732401,227.4280776129365,28.187714,0.1,180.28336,1638984801999
Fix,GT,34.2334201,-118.4732425,227.16506439733504,28.335999,0.1,180.35287,1638984802999
Fix,GT,34.2331643,-118.4732459,226.90206187176705,28.333076,0.1,180.54028,1638984803999
Fix,GT,34.232909,-118.4732495,226.6750539374352,28.387281,0.1,180.33247,1638984804999
Fix,GT,34.2326532,-118.4732518,226.3770892249346,28.313728,0.1,180.25235,1638984805999
Fix,GT,34.2323988,-118.4732543,226.10207047510147,28.10222,0.1,180.34532,1638984806999
Fix,GT,34.2321499,-118.4732566,225.81709239280224,26.986153,0.1,180.23387,1638984807999
Fix,GT,34.2319138,-118.4732588,225.55005993568892,25.35547,0.1,180.36427,1638984808999
Fix,GT,34.2316901,-118.4732613,225.4480382368565,24.49719,0.1,180.36469,1638984809999
Fix,GT,34.2314703,-118.4732635,225.2800574992299,24.270699,0.1,180.24014,1638984810999
Fix,GT,34.2312511,-118.4732649,225.02506587648392,24.495094,0.1,180.06374,1638984811999
Fix,GT,34.2310273,-118.4732654,224.8890275176764,25.151945,0.1,179.94696,1638984812999
Fix,GT,34.2308006,-118.4732672,224.7130441379547,25.099203,0.1,180.42337,1638984813999
Fix,GT,34.2305774,-118.47327,224.515055308342,24.159794,0.1,180.49072,1638984814999
Fix,GT,34.2303657,-118.4732728,224.31407208061216,22.97256,0.1,180.50157,1638984815999
Fix,GT,34.2301607,-118.4732757,224.08606670045853,22.62845,0.1,180.50906,1638984816999
Fix,GT,34.2299571,-118.4732781,223.8450640775561,22.45403,0.1,180.33469,1638984817999
Fix,GT,34.2297569,-118.4732799,223.61605865079164,22.05141,0.1,180.17479,1638984818999
Fix,GT,34.2295581,-118.4732809,223.3780615931749,22.107086,0.1,180.0701,1638984819999
Fix,GT,34.2293591,-118.4732823,223.1440617439747,22.038576,0.1,180.2859,1638984820999
Fix,GT,34.2291603,-118.4732843,222.91005064225195,22.09691,0.1,180.38834,1638984821999
Fix,GT,34.2289615,-118.4732866,222.73005358481407,22.003084,0.1,180.4219,1638984822999
Fix,GT,34.2287641,-118.473289,222.54703957951068,21.736506,0.1,180.47157,1638984823999
Fix,GT,34.2285694,-118.4732916,222.52399433195592,21.467394,0.1,180.42522,1638984824999
Fix,GT,34.2283775,-118.4732937,222.4491249959469,21.079826,0.1,180.34195,1638984825999
Fix,GT,34.2281892,-118.4732954,222.277005695343,20.808453,0.1,180.18135,1638984826999
Fix,GT,34.2280004,-118.4732968,222.0840542371273,21.159248,0.1,180.2308,1638984827999
Fix,GT,34.2278068,-118.4732983,221.8900343365669,21.77236,0.1,180.17818,1638984828999
Fix,GT,34.2276095,-118.4732996,221.62808891528843,21.896004,0.1,180.2922,1638984829999
Fix,GT,34.2274125,-118.4733017,221.30610925567152,21.832579,0.1,180.30222,1638984830999
Fix,GT,34.2272138,-118.4733032,221.04607781410212,22.377144,0.1,180.14026,1638984831999
Fix,GT,34.2270106,-118.4733046,220.92204910957813,22.550568,0.1,180.24458,1638984832999
Fix,GT,34.226808,-118.4733063,220.74306080871816,22.4356,0.1,180.25816,1638984833999
Fix,GT,34.2266044,-118.4733082,220.57503192824123,22.815609,0.1,180.37279,1638984834999
Fix,GT,34.2263975,-118.4733108,220.4990232753753,22.91749,0.1,180.5362,1638984835999
Fix,GT,34.2261926,-118.473313,220.42002916336057,22.464602,0.1,180.19063,1638984836999
Fix,GT,34.2259928,-118.4733147,220.31302923130988,21.8439,0.1,180.2774,1638984837999
Fix,GT,34.2257981,-118.4733167,220.27201757991315,21.435993,0.1,180.39116,1638984838999
Fix,GT,34.2256055,-118.4733184,220.16204111659528,21.33837,0.1,180.22443,1638984839999
Fix,GT,34.2254137,-118.4733204,220.04903238129617,21.209183,0.1,180.47911,1638984840999
Fix,GT,34.2252225,-118.473323,219.953023604393,21.334894,0.1,180.39864,1638984841999
Fix,GT,34.2250278,-118.4733244,219.8510414044857,21.842077,0.1,180.0668,1638984842999
Fix,GT,34.224829,-118.4733256,219.8249911070466,22.229416,0.1,180.29553,1638984843999
Fix,GT,34.2246276,-118.473328,219.77908913517,22.384619,0.1,180.6106,1638984844999
Fix,GT,34.2244254,-118.4733312,219.61302084618808,22.580214,0.1,180.4571,1638984845999
Fix,GT,34.224221,-118.4733329,219.528044773221,22.665361,0.1,180.15878,1638984846999
Fix,GT,34.2240171,-118.4733341,219.32706282645464,22.554346,0.1,180.13419,1638984847999
Fix,GT,34.2238142,-118.4733366,219.18902998530865,22.43612,0.1,180.68108,1638984848999
Fix,GT,34.2236125,-118.4733399,219.121015027225,22.303642,0.1,180.56596,1638984849999
Fix,GT,34.2234133,-118.4733425,219.07501506149768,21.895267,0.1,180.45638,1638984850999
Fix,GT,34.2232166,-118.4733446,219.02102415275573,21.834639,0.1,180.2858,1638984851999
Fix,GT,34.2230185,-118.4733467,218.92803328609463,22.150898,0.1,180.42236,1638984852999
Fix,GT,34.2228165,-118.473349,218.79404852581024,22.552881,0.1,180.33925,1638984853999
Fix,GT,34.2226132,-118.4733505,218.62104863643648,22.531134,0.1,180.01869,1638984854999
Fix,GT,34.2224097,-118.4733513,218.49203351229428,22.704288,0.1,180.0586,1638984855999
Fix,GT,34.2222043,-118.4733525,218.4820213739872,22.750555,0.1,180.31142,1638984856999
Fix,GT,34.2219986,-118.4733549,218.4769969396592,22.892418,0.1,180.51366,1638984857999
Fix,GT,34.221793,-118.4733583,218.5129815968275,22.701473,0.1,180.65292,1638984858999
Fix,GT,34.2215896,-118.4733618,218.6090799268484,22.482988,0.1,180.66418,1638984859999
