MessageType,Provider,LatitudeDegrees,LongitudeDegrees,AltitudeMeters,SpeedMps,AccuracyMeters,BearingDegrees,UnixTimeMillis
Fix,GT,37.3795036,-122.0719478,,0.00055977947,0.1,44.50891,1609883563440
Fix,GT,37.3795036,-122.0719478,,0.000984363,0.1,44.50946,1609883564440
Fix,GT,37.3795036,-122.0719478,,0.0016919256,0.1,44.509766,1609883565440
Fix,GT,37.3795036,-122.0719478,,0.001,0.1,44.501648,1609883566440
Fix,GT,37.3795036,-122.0719478,,0.001,0.1,44.49298,1609883567440
Fix,GT,37.3795037,-122.0719478,,0.054755203,0.1,44.454315,1609883568440
Fix,GT,37.3795056,-122.0719462,,0.4542871,0.1,43.386475,1609883569440
Fix,GT,37.3795114,-122.0719412,,1.023586,0.1,40.649353,1609883570440
Fix,GT,37.3795198,-122.0719327,,1.2988605,0.1,40.11566,1609883571440
Fix,GT,37.379528,-122.0719211,,1.4217404,0.1,44.158478,1609883572440
Fix,GT,37.3795347,-122.0719078,,1.3751526,0.1,51.442993,1609883573440
Fix,GT,37.3795383,-122.0718932,,1.2594776,0.1,62.08896,1609883574440
Fix,GT,37.3795389,-122.0718789,,1.1206636,0.1,73.91095,1609883575440
Fix,GT,37.3795373,-122.0718677,,0.7452443,0.1,84.48938,1609883576440
Fix,GT,37.3795351,-122.0718614,,0.39422095,0.1,91.6124,1609883577440
Fix,GT,37.3795336,-122.071857,,0.4973162,0.1,95.87665,1609883578440
Fix,GT,37.3795315,-122.0718494,,1.1102867,0.1,99.619385,1609883579440
Fix,GT,37.3795288,-122.0718317,,2.147698,0.1,99.85739,1609883580440
Fix,GT,37.3795291,-122.0718012,,3.1695514,0.1,91.27573,1609883581440
Fix,GT,37.3795386,-122.0717635,,3.801729,0.1,74.000885,1609883582440
Fix,GT,37.3795586,-122.0717286,,3.8041043,0.1,55.615265,1609883583440
Fix,GT,37.3795806,-122.0717017,,2.9508708,0.1,45.192078,1609883584440
Fix,GT,37.3795956,-122.0716854,,1.4909936,0.1,42.23291,1609883585440
Fix,GT,37.3796032,-122.0716775,,0.86378956,0.1,41.14032,1609883586440
Fix,GT,37.3796101,-122.0716705,,1.2287894,0.1,40.337128,1609883587440
Fix,GT,37.3796201,-122.0716588,,1.7581124,0.1,41.795044,1609883588440
Fix,GT,37.3796307,-122.07164,,2.3624415,0.1,50.63858,1609883589440
Fix,GT,37.3796364,-122.0716072,,3.5923128,0.1,71.050476,1609883590440
Fix,GT,37.3796301,-122.0715573,,5.2519255,0.1,96.94833,1609883591440
Fix,GT,37.3796091,-122.0714961,,6.6475935,0.1,113.77658,1609883592440
Fix,GT,37.3795773,-122.0714233,,8.009039,0.1,118.74426,1609883593440
Fix,GT,37.3795387,-122.071338,,9.374174,0.1,119.35019,1609883594440
Fix,GT,37.3794945,-122.0712388,,10.75265,0.1,118.94537,1609883595440
Fix,GT,37.3794449,-122.0711257,,11.895664,0.1,118.51318,1609883596440
Fix,GT,37.3793931,-122.0710058,,11.975636,0.1,118.27252,1609883597440
Fix,GT,37.3793441,-122.0708922,,10.752184,0.1,118.31781,1609883598440
Fix,GT,37.379301,-122.0707925,,9.3622055,0.1,118.29077,1609883599440
Fix,GT,37.3792635,-122.0707055,,8.277981,0.1,118.31738,1609883600440
Fix,GT,37.3792294,-122.0706268,,7.8227177,0.1,118.461945,1609883601440
Fix,GT,37.3791947,-122.0705473,,8.333085,0.1,118.54425,1609883602440
Fix,GT,37.3791572,-122.0704603,,9.14615,0.1,118.26816,1609883603440
Fix,GT,37.3791089,-122.0703465,,9.774269,0.1,117.719025,1609883604652
Fix,GT,37.3790665,-122.0702438,,10.491647,0.1,117.20233,1609883605664
Fix,GT,37.3790226,-122.0701355,,11.204534,0.1,116.90744,1609883606657
Fix,GT,37.3789748,-122.0700184,,12.19066,0.1,117.05817,1609883607652
Fix,GT,37.3789219,-122.0698896,,13.277519,0.1,117.3136,1609883608662
Fix,GT,37.3788653,-122.069753,,14.203885,0.1,117.42917,1609883609654
Fix,GT,37.3788039,-122.0696048,,14.884405,0.1,117.41,1609883610665
Fix,GT,37.3787421,-122.0694568,,14.844149,0.1,117.855865,1609883611657
Fix,GT,37.3786799,-122.0693127,,14.395285,0.1,118.75726,1609883612648
Fix,GT,37.3786171,-122.0691729,,13.565809,0.1,119.60339,1609883613661
Fix,GT,37.3785601,-122.0690471,,12.222006,0.1,119.32568,1609883614654
Fix,GT,37.3785098,-122.0689366,,10.337276,0.1,120.22412,1609883615646
Fix,GT,37.3784623,-122.0688492,,8.259392,0.1,127.85474,1609883616660
Fix,GT,37.3784114,-122.0687963,,6.9576483,0.1,147.26544,1609883617652
Fix,GT,37.378354,-122.0687813,,6.468444,0.1,175.06592,1609883618661
Fix,GT,37.3783002,-122.0688014,,6.550993,0.1,200.1671,1609883619653
Fix,GT,37.3782459,-122.0688417,,7.621873,0.1,211.25235,1609883620667
Fix,GT,37.3781822,-122.0688916,,9.149206,0.1,211.17213,1609883621658
Fix,GT,37.3781046,-122.0689434,,10.413135,0.1,206.26756,1609883622652
Fix,GT,37.3780115,-122.0689866,,11.423606,0.1,197.11185,1609883623662
Fix,GT,37.3779084,-122.0690092,,12.112092,0.1,186.3125,1609883624654
Fix,GT,37.3777959,-122.0690073,,12.666769,0.1,175.59695,1609883625665
Fix,GT,37.3776827,-122.06898,,13.28356,0.1,165.52002,1609883626656
Fix,GT,37.3775688,-122.068925,,14.122054,0.1,155.43048,1609883627651
Fix,GT,37.3774547,-122.0688414,,14.937925,0.1,146.68274,1609883628663
Fix,GT,37.3773456,-122.0687378,,15.707609,0.1,140.87744,1609883629656
Fix,GT,37.3772345,-122.0686181,,16.349915,0.1,138.47626,1609883630669
Fix,GT,37.3771238,-122.0684966,,16.683119,0.1,138.98523,1609883631657
Fix,GT,37.3770088,-122.0683763,,16.855404,0.1,140.92365,1609883632649
Fix,GT,37.3768834,-122.0682625,,17.134052,0.1,146.44144,1609883633661
Fix,GT,37.3767488,-122.0681703,,17.260141,0.1,154.66736,1609883634653
Fix,GT,37.3766013,-122.0681028,,17.33738,0.1,163.52588,1609883635666
Fix,GT,37.3764499,-122.0680626,,17.429995,0.1,171.16528,1609883636656
Fix,GT,37.3762939,-122.0680455,,17.50066,0.1,177.43823,1609883637653
Fix,GT,37.3761342,-122.0680451,,17.614307,0.1,181.33203,1609883638664
Fix,GT,37.3759768,-122.0680537,,17.701717,0.1,183.093,1609883639654
Fix,GT,37.3758154,-122.068065,,17.810127,0.1,183.05045,1609883640665
Fix,GT,37.3756562,-122.0680741,,17.938162,0.1,182.12448,1609883641655
Fix,GT,37.375495,-122.0680801,,17.989414,0.1,181.62991,1609883642650
Fix,GT,37.3753311,-122.0680856,,18.042854,0.1,181.57324,1609883643661
Fix,GT,37.3751686,-122.0680902,,18.369413,0.1,181.01286,1609883644654
Fix,GT,37.3749982,-122.0680914,,18.960693,0.1,179.71791,1609883645666
Fix,GT,37.3748257,-122.068087,,19.617981,0.1,178.1983,1609883646660
Fix,GT,37.3746477,-122.0680765,,20.183464,0.1,176.72961,1609883647653
Fix,GT,37.3744622,-122.0680598,,20.790596,0.1,175.26251,1609883648663
Fix,GT,37.374274,-122.0680361,,21.568594,0.1,173.5138,1609883649654
Fix,GT,37.3740762,-122.0680032,,22.409023,0.1,171.52014,1609883650662
Fix,GT,37.3738754,-122.0679604,,23.084915,0.1,169.35486,1609883651654
Fix,GT,37.3736706,-122.0679066,,23.711487,0.1,167.1488,1609883652647
Fix,GT,37.3734582,-122.0678401,,24.208603,0.1,165.03918,1609883653661
Fix,GT,37.373248,-122.0677644,,24.673176,0.1,162.99457,1609883654653
Fix,GT,37.3730323,-122.0676754,,25.09491,0.1,160.72455,1609883655666
Fix,GT,37.3728215,-122.067576,,25.424994,0.1,158.14197,1609883656656
Fix,GT,37.372611,-122.0674637,,25.699005,0.1,155.93817,1609883657649
Fix,GT,37.3723975,-122.0673397,,25.93183,0.1,154.47571,1609883658661
Fix,GT,37.3721881,-122.0672131,,26.058487,0.1,154.04102,1609883659653
Fix,GT,37.3719737,-122.0670823,,26.156265,0.1,153.96613,1609883660667
Fix,GT,37.3717637,-122.0669546,,26.223507,0.1,154.0747,1609883661656
Fix,GT,37.3715523,-122.0668266,,26.256962,0.1,154.18402,1609883662648
Fix,GT,37.3713146,-122.0666832,,26.28038,0.1,154.22943,1609883663763
Fix,GT,37.3711682,-122.0665949,,26.324364,0.1,154.13715,1609883664449
Fix,GT,37.3709123,-122.0664392,,26.408693,0.1,153.92267,1609883665646
Fix,GT,37.3707089,-122.0663146,,26.504578,0.1,153.8725,1609883666596
Fix,GT,37.3704561,-122.0661604,,26.655472,0.1,154.07202,1609883667770
Fix,GT,37.3702402,-122.0660291,,26.965448,0.1,153.96246,1609883668764
Fix,GT,37.3700888,-122.0659369,,27.105223,0.1,153.99573,1609883669455
Fix,GT,37.3698222,-122.0657753,,27.192497,0.1,154.20251,1609883670665
Fix,GT,37.3696033,-122.0656436,,27.22876,0.1,154.28558,1609883671656
Fix,GT,37.3693843,-122.0655112,,27.229519,0.1,154.04712,1609883672647
Fix,GT,37.369161,-122.0653752,,27.20523,0.1,153.98541,1609883673660
Fix,GT,37.368942,-122.0652418,,27.316568,0.1,154.00635,1609883674652
Fix,GT,37.3687176,-122.0651051,,27.490818,0.1,153.97217,1609883675663
Fix,GT,37.3684959,-122.0649699,,27.701286,0.1,153.97998,1609883676655
Fix,GT,37.3682493,-122.0648194,,27.838697,0.1,153.94861,1609883677751
Fix,GT,37.3680888,-122.0647214,,27.8955,0.1,153.9093,1609883678462
Fix,GT,37.3678194,-122.0645569,,27.941921,0.1,154.03552,1609883679653
Fix,GT,37.3675665,-122.0644038,,27.909336,0.1,154.20282,1609883680769
Fix,GT,37.3674105,-122.0643096,,27.832176,0.1,154.2417,1609883681459
Fix,GT,37.367143,-122.0641487,,27.573452,0.1,154.37817,1609883682647
Fix,GT,37.3669175,-122.0640137,,27.389196,0.1,154.49792,1609883683657
Fix,GT,37.3666974,-122.0638839,,27.286,0.1,155.07812,1609883684644
Fix,GT,37.366469,-122.0637563,,27.215008,0.1,156.69617,1609883685663
Fix,GT,37.3662434,-122.063641,,27.267529,0.1,158.63104,1609883686656
Fix,GT,37.3660143,-122.0635345,,27.409897,0.1,160.38617,1609883687648
Fix,GT,37.3657766,-122.0634354,,27.492931,0.1,162.52716,1609883688662
Fix,GT,37.3655425,-122.0633495,,27.572037,0.1,164.55011,1609883689646
Fix,GT,37.3652959,-122.0632707,,27.852247,0.1,166.60461,1609883690665
Fix,GT,37.3650517,-122.063204,,28.21038,0.1,168.56787,1609883691655
Fix,GT,37.364803,-122.0631475,,28.477058,0.1,170.63007,1609883692645
Fix,GT,37.3645439,-122.0631017,,28.668556,0.1,173.11078,1609883693661
Fix,GT,37.3642907,-122.0630704,,28.76543,0.1,175.3811,1609883694644
Fix,GT,37.3640321,-122.0630511,,28.781212,0.1,177.54077,1609883695644
Fix,GT,37.3637704,-122.0630431,,28.654781,0.1,179.38641,1609883696655
Fix,GT,37.3635153,-122.0630436,,28.390764,0.1,180.48749,1609883697648
Fix,GT,37.3632332,-122.0630485,,28.180542,0.1,180.8407,1609883698756
Fix,GT,37.3630586,-122.0630521,,28.109566,0.1,180.89404,1609883699445
Fix,GT,37.3627502,-122.0630587,,27.976608,0.1,180.95529,1609883700665
Fix,GT,37.3625005,-122.0630645,,27.976807,0.1,181.0163,1609883701657
Fix,GT,37.36225,-122.0630708,,28.091293,0.1,181.16307,1609883702648
Fix,GT,37.3619935,-122.0630778,,28.17504,0.1,181.15598,1609883703660
Fix,GT,37.3617411,-122.0630841,,28.304863,0.1,181.006,1609883704653
Fix,GT,37.3614878,-122.0630898,,28.404446,0.1,180.88048,1609883705644
Fix,GT,37.3612283,-122.0630952,,28.387432,0.1,180.93764,1609883706658
Fix,GT,37.3609753,-122.0631013,,28.262184,0.1,181.07355,1609883707649
Fix,GT,37.3607186,-122.063108,,28.169271,0.1,181.04782,1609883708660
Fix,GT,37.3604668,-122.0631139,,28.125809,0.1,180.9149,1609883709653
Fix,GT,37.3602156,-122.0631187,,28.024391,0.1,180.7003,1609883710646
Fix,GT,37.359961,-122.0631221,,27.920097,0.1,180.43886,1609883711656
Fix,GT,37.3597108,-122.0631237,,27.852444,0.1,180.04803,1609883712652
Fix,GT,37.3594578,-122.0631221,,27.784348,0.1,179.25958,1609883713661
Fix,GT,37.3592103,-122.0631156,,27.669144,0.1,178.20471,1609883714652
Fix,GT,37.3589592,-122.0631025,,27.541447,0.1,176.98035,1609883715662
Fix,GT,37.3587128,-122.0630834,,27.400276,0.1,175.87073,1609883716660
Fix,GT,37.3584696,-122.0630586,,27.332087,0.1,174.81201,1609883717649
Fix,GT,37.3582218,-122.0630276,,27.2715,0.1,173.76465,1609883718661
Fix,GT,37.3579799,-122.0629921,,27.157612,0.1,172.91486,1609883719655
Fix,GT,37.3577398,-122.0629527,,27.03614,0.1,172.12042,1609883720646
Fix,GT,37.3574965,-122.0629081,,27.015202,0.1,171.18799,1609883721656
Fix,GT,37.3572583,-122.0628592,,26.95005,0.1,170.1919,1609883722649
Fix,GT,37.357018,-122.0628043,,26.802185,0.1,169.09113,1609883723658
Fix,GT,37.3567838,-122.062745,,26.642422,0.1,168.04675,1609883724650
Fix,GT,37.3565518,-122.0626809,,26.472824,0.1,167.02307,1609883725643
Fix,GT,37.3563169,-122.0626103,,26.346638,0.1,165.97205,1609883726659
Fix,GT,37.356091,-122.0625367,,26.317928,0.1,164.87817,1609883727642
Fix,GT,37.3558607,-122.0624565,,26.271502,0.1,164.07715,1609883728651
Fix,GT,37.3556348,-122.0623751,,26.05657,0.1,163.78589,1609883729647
Fix,GT,37.3554073,-122.0622914,,25.840435,0.1,163.41418,1609883730662
Fix,GT,37.3551885,-122.0622089,,25.660072,0.1,163.06512,1609883731646
Fix,GT,37.3549653,-122.0621232,,25.23236,0.1,162.85553,1609883732664
Fix,GT,37.3547525,-122.0620415,,24.62505,0.1,162.93103,1609883733654
Fix,GT,37.3545408,-122.0619612,,23.466887,0.1,163.19128,1609883734674
Fix,GT,37.354346,-122.0618882,,22.498425,0.1,163.16687,1609883735656
Fix,GT,37.354156,-122.0618165,,21.611944,0.1,163.12616,1609883736655
Fix,GT,37.3539755,-122.0617479,,20.51582,0.1,162.94366,1609883737648
Fix,GT,37.353802,-122.0616809,,19.214066,0.1,162.67737,1609883738661
Fix,GT,37.3536434,-122.0616185,,17.965744,0.1,162.47437,1609883739654
Fix,GT,37.3534931,-122.0615595,,16.648571,0.1,162.69873,1609883740662
Fix,GT,37.3533582,-122.0615078,,14.841756,0.1,163.01428,1609883741657
Fix,GT,37.3532261,-122.061458,,13.2102785,0.1,163.34332,1609883742751
Fix,GT,37.3531475,-122.0614291,,12.408335,0.1,163.70514,1609883743462
Fix,GT,37.3530266,-122.0613869,,10.876459,0.1,164.88196,1609883744655
Fix,GT,37.3529382,-122.0613588,,9.512604,0.1,165.95306,1609883745646
Fix,GT,37.3528609,-122.0613358,,7.954134,0.1,166.71204,1609883746654
Fix,GT,37.352798,-122.0613179,,6.4920807,0.1,167.30933,1609883747648
Fix,GT,37.3527452,-122.0613036,,5.4089103,0.1,167.82263,1609883748663
Fix,GT,37.3527013,-122.0612922,,4.67379,0.1,168.20502,1609883749653
Fix,GT,37.3526628,-122.0612826,,4.028486,0.1,168.47992,1609883750661
Fix,GT,37.3526288,-122.0612741,,3.7216516,0.1,168.61261,1609883751658
Fix,GT,37.3525971,-122.0612664,,3.4744782,0.1,168.8111,1609883752650
Fix,GT,37.3525683,-122.0612596,,2.8967733,0.1,169.06909,1609883753662
Fix,GT,37.3525442,-122.0612539,,2.0363548,0.1,169.30725,1609883754757
Fix,GT,37.352534,-122.0612515,,1.4150475,0.1,169.40973,1609883755444
Fix,GT,37.3525246,-122.0612493,,0.33023062,0.1,169.49817,1609883756658
Fix,GT,37.3525233,-122.061249,,0.015397952,0.1,169.51666,1609883757648
Fix,GT,37.3525233,-122.061249,,0.0017862299,0.1,169.51947,1609883758635
Fix,GT,37.3525233,-122.061249,,0.0016221983,0.1,169.51874,1609883759644
Fix,GT,37.3525233,-122.061249,,0.0014142136,0.1,169.51868,1609883760637
Fix,GT,37.3525233,-122.061249,,0.0014142136,0.1,169.51868,1609883761656
Fix,GT,37.3525233,-122.061249,,0.00049614825,0.1,169.51855,1609883762649
Fix,GT,37.3525233,-122.061249,,0.0,0.1,169.51855,1609883763661
Fix,GT,37.3525233,-122.061249,,0.0006550148,0.1,169.51837,1609883764655
Fix,GT,37.3525233,-122.061249,,0.001,0.1,169.51825,1609883765667
Fix,GT,37.3525233,-122.061249,,0.001,0.1,169.51837,1609883766657
Fix,GT,37.3525233,-122.061249,,0.001,0.1,169.51855,1609883767651
Fix,GT,37.3525219,-122.0612487,,0.43413168,0.1,169.53418,1609883768663
Fix,GT,37.3525153,-122.0612471,,1.1176882,0.1,169.55743,1609883769653
Fix,GT,37.3525029,-122.0612443,,1.6414545,0.1,169.56824,1609883770646
Fix,GT,37.3524867,-122.0612406,,2.0565677,0.1,169.62494,1609883771658
Fix,GT,37.3524651,-122.0612358,,2.9282744,0.1,169.67114,1609883772648
Fix,GT,37.3524294,-122.0612277,,4.386153,0.1,169.776,1609883773763
Fix,GT,37.3523989,-122.061221,,5.3687534,0.1,169.91028,1609883774453
Fix,GT,37.3523355,-122.0612065,,6.439643,0.1,169.44403,1609883775644
Fix,GT,37.3522775,-122.0611873,,6.708436,0.1,163.45703,1609883776655
Fix,GT,37.3522212,-122.0611536,,7.055691,0.1,151.29102,1609883777668
Fix,GT,37.3521719,-122.0611003,,7.65787,0.1,135.62354,1609883778661
Fix,GT,37.3521316,-122.0610238,,8.584667,0.1,119.30704,1609883779673
Fix,GT,37.3521074,-122.0609279,,9.500141,0.1,103.3707,1609883780664
Fix,GT,37.3520999,-122.0608199,,9.992149,0.1,92.55261,1609883781651
Fix,GT,37.3521006,-122.0606936,,10.035532,0.1,88.97662,1609883782765
Fix,GT,37.3521021,-122.0605158,,8.556605,0.1,89.81784,1609883784429
Fix,GT,37.3521021,-122.0604293,,6.686633,0.1,89.93411,1609883785429
Fix,GT,37.3521022,-122.0603662,,4.4815598,0.1,89.67584,1609883786429
Fix,GT,37.3521025,-122.0603286,,2.25431,0.1,89.43524,1609883787429
Fix,GT,37.3521027,-122.0603128,,0.64695954,0.1,89.33362,1609883788429
Fix,GT,37.3521027,-122.0603092,,0.027284492,0.1,89.30905,1609883789429
Fix,GT,37.3521027,-122.0603093,,0.001,0.1,89.31094,1609883790429
Fix,GT,37.3521027,-122.0603093,,0.001,0.1,89.31015,1609883791429
Fix,GT,37.3521026,-122.0603093,,0.00057021645,0.1,89.30997,1609883792429
Fix,GT,37.3521026,-122.0603093,,0.00042978363,0.1,89.30994,1609883793429
Fix,GT,37.3521026,-122.0603093,,0.00057021645,0.1,89.309875,1609883794429
Fix,GT,37.3521026,-122.0603093,,0.00042978363,0.1,89.309875,1609883795429
Fix,GT,37.3521026,-122.0603093,,0.001,0.1,89.309784,1609883796429
Fix,GT,37.3521026,-122.0603093,,0.00057021645,0.1,89.30975,1609883797429
Fix,GT,37.3521026,-122.0603093,,0.0004297836,0.1,89.31033,1609883798429
Fix,GT,37.3521027,-122.0603093,,0.001,0.1,89.31076,1609883799429
Fix,GT,37.3521028,-122.0603093,,0.00057021645,0.1,89.310394,1609883800429
Fix,GT,37.3521028,-122.0603093,,0.0,0.1,89.31036,1609883801429
Fix,GT,37.3521028,-122.0603093,,0.00042978357,0.1,89.31033,1609883802429
Fix,GT,37.3521028,-122.0603093,,0.00057021645,0.1,89.31033,1609883803429
Fix,GT,37.3521028,-122.0603093,,0.0,0.1,89.31036,1609883804429
Fix,GT,37.3521028,-122.0603093,,0.0,0.1,89.31036,1609883805429
Fix,GT,37.3521028,-122.0603093,,0.0,0.1,89.31036,1609883806429
Fix,GT,37.3521028,-122.0603093,,0.0,0.1,89.31027,1609883807429
Fix,GT,37.3521028,-122.0603093,,0.00042978354,0.1,89.3103,1609883808429
Fix,GT,37.3521028,-122.0603093,,0.001,0.1,89.310425,1609883809429
Fix,GT,37.3521028,-122.0603093,,0.001,0.1,89.310455,1609883810429
Fix,GT,37.3521028,-122.0603093,,0.001,0.1,89.310486,1609883811429
Fix,GT,37.3521028,-122.0603093,,0.00057021657,0.1,89.310425,1609883812429
Fix,GT,37.3521028,-122.0603093,,0.0,0.1,89.31033,1609883813429
Fix,GT,37.3521028,-122.0603093,,0.0,0.1,89.3103,1609883814429
Fix,GT,37.3521028,-122.0603093,,0.0,0.1,89.3103,1609883815429
Fix,GT,37.3521028,-122.060309,,0.11089164,0.1,89.30725,1609883816429
Fix,GT,37.3521029,-122.0603058,,0.55413437,0.1,89.0296,1609883817429
Fix,GT,37.3521039,-122.0602944,,1.4925549,0.1,87.0607,1609883818429
Fix,GT,37.3521083,-122.0602704,,2.857266,0.1,80.46362,1609883819429
Fix,GT,37.3521226,-122.0602341,,4.269099,0.1,65.73816,1609883820429
Fix,GT,37.3521546,-122.060196,,5.6075916,0.1,42.938812,1609883821429
Fix,GT,37.3522067,-122.060171,,7.0124245,0.1,18.051025,1609883822429
Fix,GT,37.3522745,-122.0601708,,8.384787,0.1,356.10858,1609883823429
Fix,GT,37.3523528,-122.0601989,,9.905159,0.1,341.03528,1609883824429
Fix,GT,37.3524418,-122.0602473,,11.625819,0.1,335.5343,1609883825429
Fix,GT,37.3525434,-122.0603066,,13.201521,0.1,334.93616,1609883826429
Fix,GT,37.3526574,-122.0603731,,14.646141,0.1,334.93854,1609883827429
Fix,GT,37.3528093,-122.0604612,,15.968579,0.1,335.26364,1609883828641
Fix,GT,37.352947,-122.0605391,,16.880926,0.1,335.87952,1609883829660
Fix,GT,37.3530886,-122.0606178,,17.763504,0.1,336.09598,1609883830653
Fix,GT,37.3532396,-122.0607019,,18.521646,0.1,335.84494,1609883831662
Fix,GT,37.3533921,-122.0607893,,18.966982,0.1,334.87338,1609883832653
Fix,GT,37.3535459,-122.0608821,,19.252846,0.1,333.77615,1609883833645
Fix,GT,37.353704,-122.0609817,,19.616264,0.1,333.07605,1609883834656
Fix,GT,37.353864,-122.0610842,,19.850906,0.1,332.77454,1609883835666
Fix,GT,37.3540227,-122.0611861,,20.205448,0.1,332.77664,1609883836655
Fix,GT,37.3541903,-122.061293,,20.78149,0.1,333.1296,1609883837673
Fix,GT,37.3543592,-122.0613989,,21.56083,0.1,333.46967,1609883838664
Fix,GT,37.3545346,-122.0615064,,22.300983,0.1,334.17435,1609883839652
Fix,GT,37.3547211,-122.0616158,,23.045795,0.1,335.35706,1609883840660
Fix,GT,37.3549112,-122.0617219,,23.636278,0.1,336.42374,1609883841649
Fix,GT,37.3551132,-122.0618282,,24.173597,0.1,337.91205,1609883842667
Fix,GT,37.3553114,-122.0619244,,24.660263,0.1,339.38165,1609883843634
Fix,GT,37.3555267,-122.0620204,,25.112926,0.1,341.0843,1609883844653
Fix,GT,37.355743,-122.0621085,,25.750782,0.1,342.67462,1609883845646
Fix,GT,37.3559711,-122.0621934,,26.402996,0.1,343.91547,1609883846659
Fix,GT,37.3562015,-122.0622727,,26.970432,0.1,345.1324,1609883847653
Fix,GT,37.3564369,-122.0623477,,27.592285,0.1,346.12103,1609883848641
Fix,GT,37.3566838,-122.0624207,,28.13799,0.1,347.115,1609883849652
Fix,GT,37.3569329,-122.0624887,,28.754692,0.1,348.08493,1609883850647
Fix,GT,37.3571929,-122.0625536,,29.258,0.1,349.20776,1609883851661
Fix,GT,37.3574526,-122.0626113,,29.588753,0.1,350.4342,1609883852655
Fix,GT,37.3577211,-122.0626634,,29.813705,0.1,351.78296,1609883853670
Fix,GT,37.3579849,-122.0627074,,29.958065,0.1,352.92996,1609883854659
Fix,GT,37.3582522,-122.0627456,,30.195137,0.1,353.85056,1609883855652
Fix,GT,37.3585264,-122.0627792,,30.411974,0.1,354.86005,1609883856661
Fix,GT,37.3587976,-122.0628058,,30.537266,0.1,356.09772,1609883857652
Fix,GT,37.3590712,-122.0628243,,30.653381,0.1,357.55237,1609883858645
Fix,GT,37.3593524,-122.062835,,30.892517,0.1,358.7815,1609883859660
Fix,GT,37.3596293,-122.0628388,,31.109737,0.1,359.73828,1609883860652
Fix,GT,37.3599135,-122.0628377,,31.253895,0.1,0.41931152,1609883861663
Fix,GT,37.3601934,-122.0628331,,31.383327,0.1,0.87319946,1609883862655
Fix,GT,37.3604796,-122.0628267,,31.467257,0.1,0.92422485,1609883863666
Fix,GT,37.36076,-122.0628206,,31.48678,0.1,0.90704346,1609883864655
Fix,GT,37.3610417,-122.0628145,,31.498827,0.1,0.93377686,1609883865648
Fix,GT,37.3613291,-122.0628081,,31.516056,0.1,0.92022705,1609883866660
Fix,GT,37.3616108,-122.062802,,31.527948,0.1,0.91793823,1609883867652
Fix,GT,37.3618915,-122.0627959,,31.48807,0.1,0.97906494,1609883868641
Fix,GT,37.3621795,-122.0627889,,31.365374,0.1,1.084259,1609883869657
Fix,GT,37.3624589,-122.0627814,,31.21022,0.1,1.2176208,1609883870649
Fix,GT,37.3627435,-122.0627736,,31.132689,0.1,1.1690369,1609883871663
Fix,GT,37.3630214,-122.062766,,31.189621,0.1,1.1463928,1609883872653
Fix,GT,37.3633049,-122.0627594,,31.22779,0.1,0.7569275,1609883873662
Fix,GT,37.3635837,-122.0627575,,31.143482,0.1,359.79205,1609883874653
Fix,GT,37.3638613,-122.0627625,,30.944584,0.1,358.52444,1609883875646
Fix,GT,37.364144,-122.0627762,,30.783325,0.1,356.91873,1609883876663
Fix,GT,37.3644173,-122.0628009,,30.641596,0.1,354.6975,1609883877654
Fix,GT,37.3646951,-122.0628404,,30.572996,0.1,352.34167,1609883878668
Fix,GT,37.364964,-122.0628921,,30.54772,0.1,350.20477,1609883879656
Fix,GT,37.3652319,-122.0629564,,30.51843,0.1,348.0336,1609883880648
Fix,GT,37.3655028,-122.0630356,,30.471855,0.1,345.63007,1609883881661
Fix,GT,37.365765,-122.0631271,,30.385382,0.1,343.1908,1609883882654
Fix,GT,37.3660279,-122.0632337,,30.277294,0.1,340.835,1609883883665
Fix,GT,37.3662812,-122.0633508,,30.171291,0.1,338.63037,1609883884656
Fix,GT,37.3665304,-122.0634798,,30.059135,0.1,336.51602,1609883885650
Fix,GT,37.3667792,-122.0636211,,29.954948,0.1,334.865,1609883886661
Fix,GT,37.3670203,-122.0637651,,29.883812,0.1,334.19446,1609883887652
Fix,GT,37.367266,-122.0639137,,29.904514,0.1,334.12997,1609883888665
Fix,GT,37.367507,-122.0640598,,29.85619,0.1,334.11868,1609883889659
Fix,GT,37.3677464,-122.0642047,,29.772915,0.1,334.14536,1609883890649
Fix,GT,37.3679905,-122.0643524,,29.742899,0.1,334.08984,1609883891660
Fix,GT,37.3682297,-122.0644975,,29.723707,0.1,334.05246,1609883892652
Fix,GT,37.3684739,-122.0646458,,29.686869,0.1,334.07538,1609883893665
Fix,GT,37.3687118,-122.06479,,29.588495,0.1,334.07614,1609883894655
Fix,GT,37.3689498,-122.0649344,,29.494316,0.1,334.07242,1609883895649
Fix,GT,37.3691918,-122.0650816,,29.352928,0.1,333.93372,1609883896663
Fix,GT,37.3694268,-122.065225,,29.16487,0.1,333.92947,1609883897654
Fix,GT,37.3696652,-122.0653703,,28.95728,0.1,334.02704,1609883898667
Fix,GT,37.369897,-122.0655111,,28.719425,0.1,333.99567,1609883899658
Fix,GT,37.3701271,-122.0656511,,28.447758,0.1,333.97168,1609883900651
Fix,GT,37.3703589,-122.0657924,,28.166313,0.1,334.01553,1609883901662
Fix,GT,37.3705842,-122.0659295,,27.944267,0.1,334.00638,1609883902653
Fix,GT,37.3708074,-122.0660652,,27.731747,0.1,334.0458,1609883903642
Fix,GT,37.3710351,-122.0662032,,27.505527,0.1,334.17737,1609883904658
Fix,GT,37.3712554,-122.0663359,,27.27195,0.1,334.27844,1609883905649
Fix,GT,37.3714779,-122.0664699,,27.038786,0.1,334.19772,1609883906658
Fix,GT,37.3716944,-122.0666006,,26.853748,0.1,334.22473,1609883907647
Fix,GT,37.3719157,-122.066734,,26.65938,0.1,334.24524,1609883908666
Fix,GT,37.3721294,-122.0668627,,26.40342,0.1,334.24908,1609883909657
Fix,GT,37.3723408,-122.0669898,,26.138062,0.1,334.3123,1609883910648
Fix,GT,37.3725566,-122.0671176,,26.288076,0.1,334.98557,1609883911661
Fix,GT,37.3727737,-122.0672395,,26.833849,0.1,336.5522,1609883912655
Fix,GT,37.373002,-122.0673557,,27.096416,0.1,338.9875,1609883913668
Fix,GT,37.3732293,-122.0674571,,26.95171,0.1,341.54105,1609883914658
Fix,GT,37.3734589,-122.0675449,,26.655376,0.1,344.19696,1609883915652
Fix,GT,37.3736924,-122.0676198,,26.36288,0.1,346.80124,1609883916662
Fix,GT,37.3739224,-122.0676799,,26.263315,0.1,349.29565,1609883917654
Fix,GT,37.3741537,-122.0677273,,26.268578,0.1,351.8671,1609883918644
Fix,GT,37.3743912,-122.0677617,,26.225431,0.1,354.5995,1609883919656
Fix,GT,37.3746248,-122.0677822,,26.08683,0.1,357.07846,1609883920650
Fix,GT,37.3748626,-122.0677911,,26.18105,0.1,359.26025,1609883921662
Fix,GT,37.3750992,-122.0677877,,26.785336,0.1,1.7401733,1609883922655
Fix,GT,37.3753456,-122.0677707,,27.246147,0.1,4.140869,1609883923667
Fix,GT,37.3755861,-122.0677446,,27.43104,0.1,5.4624023,1609883924647
Fix,GT,37.3758329,-122.0677127,,27.605225,0.1,6.104828,1609883925647
Fix,GT,37.3760841,-122.0676786,,27.71243,0.1,6.002228,1609883926661
Fix,GT,37.3763311,-122.0676463,,27.844479,0.1,5.731201,1609883927653
Fix,GT,37.3765784,-122.0676149,,27.997417,0.1,5.7291565,1609883928642
Fix,GT,37.3768308,-122.0675841,,27.91063,0.1,5.299774,1609883929648
Fix,GT,37.3770803,-122.0675576,,27.673277,0.1,4.409729,1609883930648
Fix,GT,37.3773317,-122.0675359,,27.411787,0.1,3.3961182,1609883931664
Fix,GT,37.3775743,-122.0675219,,27.0252,0.1,1.9993591,1609883932653
Fix,GT,37.3778149,-122.0675144,,25.603355,0.1,0.8794861,1609883933664
Fix,GT,37.378053,-122.0675123,,22.753769,0.1,0.0335083,1609883934749
Fix,GT,37.3783588,-122.0675083,,17.939272,0.1,2.1259766,1609883936435
Fix,GT,37.3785109,-122.0674908,,16.180525,0.1,8.826111,1609883937435
Fix,GT,37.3786444,-122.0674454,,14.885311,0.1,20.6232,1609883938435
Fix,GT,37.378757,-122.0673654,,14.24144,0.1,36.118835,1609883939435
Fix,GT,37.3788406,-122.0672519,,13.640822,0.1,55.02478,1609883940435
Fix,GT,37.3788873,-122.0671149,,13.310823,0.1,73.9982,1609883941435
Fix,GT,37.3788973,-122.0669664,,13.558769,0.1,91.77786,1609883942435
Fix,GT,37.3788702,-122.0668167,,13.988747,0.1,109.50427,1609883943435
Fix,GT,37.3788064,-122.0666828,,14.060238,0.1,128.0263,1609883944435
Fix,GT,37.3787126,-122.0665823,,13.861145,0.1,146.96027,1609883945435
Fix,GT,37.3785991,-122.0665247,,13.808968,0.1,164.79535,1609883946435
Fix,GT,37.3784764,-122.0665134,,13.94014,0.1,182.88525,1609883947435
Fix,GT,37.3783561,-122.0665514,,14.077445,0.1,201.4981,1609883948435
Fix,GT,37.3782513,-122.0666355,,14.006854,0.1,220.13283,1609883949435
Fix,GT,37.3781746,-122.0667554,,13.712129,0.1,238.69125,1609883950435
Fix,GT,37.3781315,-122.0668971,,13.565709,0.1,256.22162,1609883951435
Fix,GT,37.378124,-122.0670467,,13.396428,0.1,273.29077,1609883952435
Fix,GT,37.3781499,-122.0671921,,13.403045,0.1,287.56448,1609883953435
Fix,GT,37.3781972,-122.0673341,,14.021703,0.1,294.31693,1609883954435
Fix,GT,37.3782535,-122.0674815,,14.980351,0.1,295.90256,1609883955435
Fix,GT,37.3783141,-122.067639,,15.986723,0.1,295.39148,1609883956435
Fix,GT,37.378377,-122.0678075,,16.908691,0.1,294.78806,1609883957435
Fix,GT,37.3784418,-122.0679831,,17.312004,0.1,294.80908,1609883958435
Fix,GT,37.3785078,-122.0681599,,17.199558,0.1,295.03583,1609883959435
Fix,GT,37.378572,-122.0683318,,16.292482,0.1,294.64508,1609883960435
Fix,GT,37.3786301,-122.0684907,,14.658075,0.1,294.5446,1609883961435
Fix,GT,37.3786836,-122.0686318,,13.079779,0.1,296.28937,1609883962435
Fix,GT,37.3787373,-122.0687523,,11.442638,0.1,301.95044,1609883963435
Fix,GT,37.3787982,-122.0688468,,10.399757,0.1,313.6662,1609883964435
Fix,GT,37.3788722,-122.0689142,,10.295155,0.1,328.82193,1609883965435
Fix,GT,37.378959,-122.0689563,,10.563816,0.1,343.04837,1609883966435
Fix,GT,37.3790539,-122.0689725,,10.850645,0.1,356.33984,1609883967435
Fix,GT,37.3791523,-122.0689597,,11.367812,0.1,10.468689,1609883968435
Fix,GT,37.3792503,-122.0689131,,12.200075,0.1,25.797913,1609883969435
Fix,GT,37.3793394,-122.0688297,,12.759732,0.1,42.577606,1609883970435
Fix,GT,37.3794074,-122.0687146,,12.942574,0.1,59.814545,1609883971435
Fix,GT,37.3794462,-122.0685783,,13.053239,0.1,76.69794,1609883972435
Fix,GT,37.379451,-122.0684324,,13.175682,0.1,94.26138,1609883973435
Fix,GT,37.3794101,-122.0682616,,13.197787,0.1,115.59042,1609883974652
Fix,GT,37.3793415,-122.068144,,13.246448,0.1,132.771,1609883975641
Fix,GT,37.3792454,-122.0680541,,13.467602,0.1,149.84137,1609883976653
Fix,GT,37.379134,-122.0679994,,13.785995,0.1,163.02887,1609883977638
Fix,GT,37.3790076,-122.0679665,,14.41759,0.1,170.36243,1609883978660
Fix,GT,37.3788781,-122.067943,,15.057554,0.1,171.87396,1609883979648
Fix,GT,37.3787409,-122.0679185,,15.970425,0.1,171.65369,1609883980641
Fix,GT,37.3785913,-122.0678922,,17.09216,0.1,172.13184,1609883981657
Fix,GT,37.3784187,-122.0678626,,18.37255,0.1,171.94647,1609883982750
Fix,GT,37.3782833,-122.0678414,,19.101656,0.1,173.28723,1609883983556
Fix,GT,37.3779489,-122.0678012,,20.506062,0.1,174.77466,1609883985441
Fix,GT,37.3777602,-122.0677835,,21.527493,0.1,176.35999,1609883986441
Fix,GT,37.377561,-122.0677752,,22.739372,0.1,179.23053,1609883987441
Fix,GT,37.3773506,-122.0677778,,23.98357,0.1,181.51183,1609883988441
Fix,GT,37.3771299,-122.0677911,,25.070383,0.1,183.6716,1609883989441
Fix,GT,37.3769007,-122.0678142,,25.93039,0.1,185.0738,1609883990441
Fix,GT,37.376665,-122.0678423,,26.596931,0.1,185.57538,1609883991441
Fix,GT,37.3764249,-122.0678729,,26.933393,0.1,185.85808,1609883992441
Fix,GT,37.3761823,-122.0679049,,27.208694,0.1,186.01201,1609883993441
Fix,GT,37.3759371,-122.0679377,,27.558264,0.1,185.97176,1609883994441
Fix,GT,37.3756891,-122.0679693,,27.772127,0.1,185.50757,1609883995441
Fix,GT,37.3754392,-122.0679969,,27.886276,0.1,184.5958,1609883996441
Fix,GT,37.375188,-122.068018,,27.996765,0.1,183.02762,1609883997441
Fix,GT,37.3749358,-122.068028,,28.05317,0.1,180.62105,1609883998441
Fix,GT,37.374683,-122.0680239,,28.090477,0.1,177.97095,1609883999441
Fix,GT,37.3744305,-122.068005,,28.055004,0.1,175.23853,1609884000441
Fix,GT,37.3741797,-122.0679711,,27.9633,0.1,172.42853,1609884001441
Fix,GT,37.3739313,-122.0679222,,27.885372,0.1,169.78998,1609884002441
Fix,GT,37.3736854,-122.0678599,,27.823439,0.1,167.33386,1609884003441
Fix,GT,37.3734423,-122.0677841,,27.791893,0.1,164.84259,1609884004441
Fix,GT,37.373202,-122.0676952,,27.854408,0.1,162.33777,1609884005441
Fix,GT,37.3729641,-122.0675927,,27.987263,0.1,159.70435,1609884006441
Fix,GT,37.3727288,-122.067476,,28.217937,0.1,157.21313,1609884007441
Fix,GT,37.3724952,-122.0673465,,28.465336,0.1,155.22198,1609884008441
Fix,GT,37.3722624,-122.0672081,,28.718384,0.1,154.18152,1609884009441
Fix,GT,37.3720286,-122.067066,,28.931705,0.1,154.05554,1609884010441
Fix,GT,37.3717933,-122.0669236,,29.037178,0.1,154.21289,1609884011441
Fix,GT,37.371557,-122.0667813,,29.156923,0.1,154.27997,1609884012441
Fix,GT,37.3713198,-122.0666381,,29.264347,0.1,154.09277,1609884013441
Fix,GT,37.3710824,-122.0664933,,29.35334,0.1,153.87549,1609884014441
Fix,GT,37.3708446,-122.0663477,,29.386143,0.1,153.90668,1609884015441
Fix,GT,37.370607,-122.0662024,,29.28661,0.1,153.93658,1609884016441
Fix,GT,37.3703701,-122.0660579,,29.214602,0.1,153.98181,1609884017441
Fix,GT,37.3701333,-122.065914,,29.23039,0.1,154.05615,1609884018441
Fix,GT,37.3698963,-122.06577,,29.252087,0.1,154.04376,1609884019441
Fix,GT,37.3696589,-122.0656255,,29.36507,0.1,154.01825,1609884020441
Fix,GT,37.3694197,-122.0654799,,29.70937,0.1,154.03522,1609884021441
Fix,GT,37.369177,-122.0653325,,30.139301,0.1,154.07526,1609884022441
Fix,GT,37.3689309,-122.0651835,,30.521194,0.1,154.16284,1609884023441
Fix,GT,37.3686818,-122.065033,,30.841488,0.1,154.18994,1609884024441
Fix,GT,37.3683767,-122.0648482,,31.057674,0.1,154.08118,1609884025655
Fix,GT,37.3681244,-122.064695,,30.912792,0.1,154.06812,1609884026659
Fix,GT,37.3678762,-122.0645443,,30.622742,0.1,154.09753,1609884027654
Fix,GT,37.3676246,-122.0643914,,30.31458,0.1,154.00403,1609884028673
Fix,GT,37.3673816,-122.064243,,30.107613,0.1,153.92108,1609884029667
Fix,GT,37.3671351,-122.0640935,,29.929901,0.1,154.302,1609884030679
Fix,GT,37.3668958,-122.0639511,,29.672352,0.1,154.71613,1609884031665
Fix,GT,37.3666563,-122.063811,,29.390205,0.1,155.24353,1609884032659
Fix,GT,37.3664126,-122.0636754,,29.096737,0.1,156.78113,1609884033671
Fix,GT,37.3661734,-122.063554,,28.888805,0.1,158.94482,1609884034660
Fix,GT,37.3659309,-122.0634449,,28.836391,0.1,161.38281,1609884035651
Fix,GT,37.3656832,-122.0633478,,28.917664,0.1,163.60138,1609884036649
Fix,GT,37.3654284,-122.0632608,,29.04069,0.1,165.68176,1609884037661
Fix,GT,37.3651752,-122.0631866,,29.132683,0.1,167.78876,1609884038653
Fix,GT,37.3649188,-122.0631238,,29.389713,0.1,169.92365,1609884039645
Fix,GT,37.3646527,-122.0630713,,29.718475,0.1,172.00311,1609884040656
Fix,GT,37.3643876,-122.0630323,,30.06205,0.1,174.62134,1609884041648
Fix,GT,37.3641121,-122.0630081,,30.499388,0.1,177.15869,1609884042661
Fix,GT,37.3638379,-122.0629973,,30.935875,0.1,179.06073,1609884043652
Fix,GT,37.3635614,-122.0629962,,31.344107,0.1,180.34418,1609884044638
Fix,GT,37.3632725,-122.0630008,,31.614672,0.1,180.88065,1609884045656
Fix,GT,37.3629893,-122.063007,,31.604385,0.1,180.96857,1609884046650
Fix,GT,37.3627032,-122.063013,,31.411673,0.1,180.83209,1609884047657
Fix,GT,37.3624224,-122.0630185,,31.177069,0.1,180.8235,1609884048653
Fix,GT,37.3621477,-122.0630239,,30.930414,0.1,180.80595,1609884049635
Fix,GT,37.3618647,-122.0630297,,30.693323,0.1,180.89552,1609884050654
Fix,GT,37.3615905,-122.0630359,,30.472603,0.1,181.0338,1609884051650
Fix,GT,37.3613137,-122.063043,,30.249454,0.1,181.13171,1609884052661
Fix,GT,37.3610455,-122.0630499,,30.014526,0.1,181.05069,1609884053650
Fix,GT,37.3607795,-122.0630559,,29.719105,0.1,180.97554,1609884054638
Fix,GT,37.3605091,-122.0630621,,29.403887,0.1,180.96767,1609884055653
Fix,GT,37.3602469,-122.0630675,,29.102684,0.1,180.75908,1609884056649
Fix,GT,37.3599825,-122.0630711,,28.829357,0.1,180.40672,1609884057662
Fix,GT,37.3597259,-122.0630726,,28.59549,0.1,180.0259,1609884058654
Fix,GT,37.3594737,-122.0630712,,28.505852,0.1,179.28967,1609884059635
Fix,GT,37.3592119,-122.0630644,,28.478186,0.1,178.22485,1609884060655
Fix,GT,37.3589571,-122.0630523,,28.442097,0.1,177.53754,1609884061650
Fix,GT,37.3586978,-122.0630381,,28.55891,0.1,177.39111,1609884062661
Fix,GT,37.3584419,-122.0630225,,28.789833,0.1,176.80804,1609884063652
Fix,GT,37.3581842,-122.0630012,,29.011145,0.1,175.53082,1609884064644
Fix,GT,37.3579201,-122.0629707,,29.22001,0.1,173.88824,1609884065655
Fix,GT,37.3576607,-122.0629309,,29.344568,0.1,172.14587,1609884066645
Fix,GT,37.3573952,-122.0628806,,29.534798,0.1,170.60693,1609884067658
Fix,GT,37.3571336,-122.062823,,29.70168,0.1,169.36877,1609884068653
Fix,GT,37.3568731,-122.0627593,,29.768314,0.1,168.40027,1609884069643
Fix,GT,37.3566082,-122.0626879,,29.572233,0.1,167.20099,1609884070656
Fix,GT,37.3563525,-122.0626117,,29.155355,0.1,166.04279,1609884071649
Fix,GT,37.3560976,-122.0625298,,28.63777,0.1,165.19873,1609884072659
Fix,GT,37.3558524,-122.062447,,28.098383,0.1,164.58368,1609884073652
Fix,GT,37.3556134,-122.0623629,,27.523804,0.1,164.03625,1609884074643
Fix,GT,37.355375,-122.0622762,,26.894293,0.1,163.57428,1609884075656
Fix,GT,37.3551476,-122.0621915,,26.249924,0.1,163.36255,1609884076647
Fix,GT,37.3549211,-122.062106,,25.580832,0.1,163.18005,1609884077660
Fix,GT,37.3547044,-122.0620238,,24.91518,0.1,163.04541,1609884078655
Fix,GT,37.3544915,-122.0619431,,24.287687,0.1,163.11676,1609884079659
Fix,GT,37.3542854,-122.0618648,,23.703098,0.1,163.03003,1609884080655
Fix,GT,37.3540857,-122.0617889,,22.716904,0.1,163.07281,1609884081649
Fix,GT,37.3538943,-122.0617163,,20.968903,0.1,163.01935,1609884082662
Fix,GT,37.3537231,-122.0616504,,19.279299,0.1,162.61035,1609884083653
Fix,GT,37.3535647,-122.0615881,,17.964346,0.1,162.41156,1609884084645
Fix,GT,37.3534143,-122.061529,,16.572336,0.1,162.68347,1609884085657
Fix,GT,37.3532787,-122.0614774,,15.140581,0.1,163.25671,1609884086649
Fix,GT,37.3531523,-122.0614311,,13.738647,0.1,163.82568,1609884087661
Fix,GT,37.3530408,-122.0613922,,12.0413,0.1,164.7785,1609884088653
Fix,GT,37.3529446,-122.0613612,,10.208103,0.1,165.85852,1609884089644
Fix,GT,37.3528629,-122.0613365,,8.200633,0.1,166.38855,1609884090657
Fix,GT,37.3528002,-122.061318,,6.248563,0.1,166.71906,1609884091649
Fix,GT,37.3527527,-122.0613045,,4.5397277,0.1,167.41211,1609884092661
Fix,GT,37.3527184,-122.0612956,,3.3450122,0.1,168.15442,1609884093653
Fix,GT,37.3526929,-122.0612892,,2.3380466,0.1,168.42169,1609884094667
Fix,GT,37.3526776,-122.0612853,,1.1424832,0.1,168.44678,1609884095656
Fix,GT,37.352672,-122.0612839,,0.25464103,0.1,168.46106,1609884096650
Fix,GT,37.3526713,-122.0612838,,0.010389168,0.1,168.47015,1609884097662
Fix,GT,37.3526713,-122.0612838,,0.003620408,0.1,168.47107,1609884098650
Fix,GT,37.3526713,-122.0612838,,0.0030547953,0.1,168.47003,1609884099662
Fix,GT,37.3526713,-122.0612838,,0.0023395412,0.1,168.46997,1609884100660
Fix,GT,37.3526713,-122.0612838,,0.0021531484,0.1,168.46991,1609884101648
Fix,GT,37.3526713,-122.0612838,,0.0020800515,0.1,168.47003,1609884102660
Fix,GT,37.3526713,-122.0612838,,0.0013474915,0.1,168.47021,1609884103652
Fix,GT,37.3526713,-122.0612838,,0.001,0.1,168.47023,1609884104666
Fix,GT,37.3526713,-122.0612838,,0.001,0.1,168.47021,1609884105658
Fix,GT,37.3526713,-122.0612838,,0.001,0.1,168.4701,1609884106649
Fix,GT,37.3526713,-122.0612838,,0.001,0.1,168.47003,1609884107659
Fix,GT,37.3526713,-122.0612838,,0.0011802888,0.1,168.46997,1609884108435
Fix,GT,37.3526713,-122.0612838,,0.0012339249,0.1,168.46997,1609884109435
Fix,GT,37.3526713,-122.0612838,,0.0005647445,0.1,168.46985,1609884110435
Fix,GT,37.3526713,-122.0612837,,0.0,0.1,168.46979,1609884111435
Fix,GT,37.3526713,-122.0612837,,0.00043525558,0.1,168.46985,1609884112435
Fix,GT,37.3526713,-122.0612837,,0.0010000002,0.1,168.46985,1609884113435
Fix,GT,37.3526712,-122.0612837,,0.05519582,0.1,168.4726,1609884114435
Fix,GT,37.3526689,-122.0612831,,0.4968343,0.1,168.50024,1609884115435
Fix,GT,37.3526616,-122.0612813,,1.0703013,0.1,168.56287,1609884116435
Fix,GT,37.3526515,-122.0612789,,1.1225919,0.1,168.60889,1609884117435
Fix,GT,37.3526412,-122.0612763,,1.2487373,0.1,168.64392,1609884118435
Fix,GT,37.3526282,-122.0612732,,1.7002189,0.1,168.7171,1609884119435
Fix,GT,37.352611,-122.061269,,2.227929,0.1,168.81958,1609884120435
Fix,GT,37.3525879,-122.0612635,,3.0423872,0.1,168.97748,1609884121435
Fix,GT,37.3525563,-122.0612562,,4.089651,0.1,169.27277,1609884122435
Fix,GT,37.352515,-122.0612468,,5.146537,0.1,169.77728,1609884123435
Fix,GT,37.3524657,-122.0612364,,5.8570523,0.1,170.36646,1609884124435
Fix,GT,37.3524121,-122.0612254,,6.1762295,0.1,170.61298,1609884125435
Fix,GT,37.3523561,-122.0612131,,6.4190354,0.1,169.86963,1609884126435
Fix,GT,37.3522987,-122.0611956,,6.701948,0.1,165.0686,1609884127435
Fix,GT,37.3522418,-122.0611647,,7.150692,0.1,153.63104,1609884128435
Fix,GT,37.3521891,-122.0611129,,7.8939505,0.1,138.65173,1609884129435
Fix,GT,37.352144,-122.0610386,,8.817956,0.1,123.37677,1609884130435
Fix,GT,37.3521128,-122.0609422,,9.78186,0.1,107.5766,1609884131435
Fix,GT,37.3521007,-122.06083,,10.422768,0.1,93.95572,1609884132435
Fix,GT,37.3521012,-122.0607116,,10.47352,0.1,88.58856,1609884133435
Fix,GT,37.3521032,-122.0605965,,9.754467,0.1,88.823364,1609884134435
Fix,GT,37.3521039,-122.0604955,,8.061481,0.1,89.76303,1609884135435
Fix,GT,37.3521038,-122.0604164,,5.968006,0.1,90.197754,1609884136435
Fix,GT,37.3521037,-122.0603602,,3.9302316,0.1,90.1423,1609884137435
Fix,GT,37.3521036,-122.0603269,,2.0299933,0.1,89.99536,1609884138435
Fix,GT,37.3521037,-122.0603125,,0.6459934,0.1,89.89249,1609884139435
Fix,GT,37.3521037,-122.0603094,,0.015905427,0.1,89.854126,1609884140435
Fix,GT,37.3521036,-122.0603095,,0.0017719301,0.1,89.85504,1609884141435
Fix,GT,37.3521037,-122.0603094,,0.0021333182,0.1,89.85382,1609884142435
Fix,GT,37.3521037,-122.0603094,,0.0017450334,0.1,89.85321,1609884143435
Fix,GT,37.3521037,-122.0603094,,0.00177193,0.1,89.85364,1609884144435
Fix,GT,37.3521037,-122.0603094,,0.0018783517,0.1,89.85358,1609884145435
Fix,GT,37.3521037,-122.0603094,,0.00177193,0.1,89.853424,1609884146435
Fix,GT,37.3521037,-122.0603094,,0.0018783517,0.1,89.85333,1609884147435
Fix,GT,37.3521037,-122.0603094,,0.001233925,0.1,89.85327,1609884148435
Fix,GT,37.3521037,-122.0603094,,0.0011802886,0.1,89.85318,1609884149435
Fix,GT,37.3521037,-122.0603094,,0.001233925,0.1,89.85315,1609884150435
Fix,GT,37.3521037,-122.0603094,,0.001,0.1,89.85309,1609884151435
Fix,GT,37.3521037,-122.0603094,,0.001,0.1,89.85306,1609884152435
Fix,GT,37.3521037,-122.0603094,,0.001,0.1,89.85318,1609884153435
Fix,GT,37.3521037,-122.0603094,,0.0011802886,0.1,89.85321,1609884154435
Fix,GT,37.3521037,-122.0603094,,0.0012339251,0.1,89.85321,1609884155435
Fix,GT,37.3521037,-122.0603094,,0.001,0.1,89.85321,1609884156435
Fix,GT,37.3521037,-122.0603094,,0.001,0.1,89.85333,1609884157435
Fix,GT,37.3521037,-122.0603094,,0.001,0.1,89.85333,1609884158435
Fix,GT,37.3521037,-122.0603094,,0.0011802886,0.1,89.85333,1609884159435
Fix,GT,37.3521037,-122.0603094,,0.0017719298,0.1,89.85327,1609884160435
Fix,GT,37.3521037,-122.0603094,,0.0016980633,0.1,89.85333,1609884161435
Fix,GT,37.3521037,-122.0603094,,0.0015380047,0.1,89.853424,1609884162435
Fix,GT,37.3521037,-122.0603094,,0.0012628083,0.1,89.85309,1609884163435
Fix,GT,37.3521037,-122.0603094,,0.00061554345,0.1,89.852936,1609884164435
Fix,GT,37.3521037,-122.0603094,,0.0014142136,0.1,89.852844,1609884165435
Fix,GT,37.3521037,-122.0603094,,0.001233925,0.1,89.85275,1609884166435
Fix,GT,37.3521037,-122.0603094,,0.001,0.1,89.852844,1609884167435
Fix,GT,37.3521037,-122.0603094,,0.0011802885,0.1,89.852844,1609884168435
Fix,GT,37.3521037,-122.0603094,,0.0014142136,0.1,89.85263,1609884169435
Fix,GT,37.3521037,-122.0603094,,0.0014142136,0.1,89.85269,1609884170435
Fix,GT,37.3521037,-122.0603094,,0.0012339251,0.1,89.852905,1609884171435
Fix,GT,37.3521037,-122.0603093,,0.080216385,0.1,89.85095,1609884172435
Fix,GT,37.3521037,-122.060306,,0.6321858,0.1,89.73938,1609884173435
Fix,GT,37.3521045,-122.0602932,,1.7360908,0.1,88.18924,1609884174435
Fix,GT,37.3521084,-122.0602675,,2.8816252,0.1,81.79288,1609884175435
Fix,GT,37.3521217,-122.0602325,,3.9758468,0.1,66.29962,1609884176435
Fix,GT,37.3521522,-122.0601978,,5.2387323,0.1,42.619873,1609884177435
Fix,GT,37.3522017,-122.0601751,,6.6764517,0.1,18.409637,1609884178435
Fix,GT,37.3522671,-122.060173,,8.062531,0.1,358.1838,1609884179435
Fix,GT,37.3523431,-122.060196,,9.473322,0.1,343.3079,1609884180435
Fix,GT,37.3524277,-122.0602393,,10.847855,0.1,336.19504,1609884181435
Fix,GT,37.3525217,-122.0602937,,12.097599,0.1,334.91846,1609884182435
Fix,GT,37.3526255,-122.0603544,,13.328303,0.1,334.90207,1609884183435
Fix,GT,37.3527388,-122.0604199,,14.349363,0.1,335.50708,1609884184435
Fix,GT,37.352861,-122.0604878,,15.26918,0.1,336.18042,1609884185435
Fix,GT,37.352991,-122.0605596,,16.252174,0.1,336.04855,1609884186435
Fix,GT,37.3531281,-122.0606367,,17.116905,0.1,335.67947,1609884187435
Fix,GT,37.3532715,-122.0607188,,17.84904,0.1,335.22537,1609884188435
Fix,GT,37.3534196,-122.0608063,,18.480354,0.1,334.3524,1609884189435
Fix,GT,37.3535713,-122.0608995,,19.02961,0.1,333.5001,1609884190435
Fix,GT,37.3537265,-122.0609977,,19.540688,0.1,332.94104,1609884191435
Fix,GT,37.353885,-122.0610994,,19.968151,0.1,332.67157,1609884192435
Fix,GT,37.3540811,-122.0612253,,20.450169,0.1,332.89355,1609884193647
Fix,GT,37.3542499,-122.061332,,20.989853,0.1,333.27234,1609884194660
Fix,GT,37.3544203,-122.0614379,,21.605207,0.1,333.72946,1609884195652
Fix,GT,37.3545962,-122.0615445,,22.125534,0.1,334.60074,1609884196645
Fix,GT,37.3547815,-122.0616514,,22.624447,0.1,335.61295,1609884197656
Fix,GT,37.3549686,-122.0617543,,23.060352,0.1,336.69937,1609884198648
Fix,GT,37.3551646,-122.0618564,,23.415615,0.1,338.06732,1609884199662
Fix,GT,37.3553608,-122.0619529,,23.912172,0.1,338.57745,1609884200651
Fix,GT,37.3555627,-122.0620525,,24.699482,0.1,338.60382,1609884201643
Fix,GT,37.3558001,-122.0621634,,25.689243,0.1,340.63007,1609884202760
Fix,GT,37.3559538,-122.0622267,,26.290558,0.1,342.50723,1609884203450
Fix,GT,37.3562344,-122.0623277,,27.345549,0.1,344.96713,1609884204659
Fix,GT,37.3564753,-122.0624046,,28.18667,0.1,346.18958,1609884205653
Fix,GT,37.3567298,-122.0624792,,29.002354,0.1,347.37537,1609884206667
Fix,GT,37.3570116,-122.0625536,,29.571163,0.1,348.63107,1609884207758
Fix,GT,37.3571931,-122.0625974,,29.879646,0.1,349.34146,1609884208448
Fix,GT,37.357518,-122.0626688,,30.46902,0.1,350.6245,1609884209661
Fix,GT,37.3577899,-122.0627209,,31.000315,0.1,351.85574,1609884210654
Fix,GT,37.3580724,-122.0627674,,31.494364,0.1,353.11786,1609884211666
Fix,GT,37.3583542,-122.0628058,,31.811092,0.1,354.36813,1609884212660
Fix,GT,37.3586373,-122.0628365,,32.009216,0.1,355.64838,1609884213648
Fix,GT,37.3589295,-122.0628601,,32.1495,0.1,356.93912,1609884214661
Fix,GT,37.3592179,-122.062875,,32.228508,0.1,358.22086,1609884215656
Fix,GT,37.3595119,-122.0628821,,32.279778,0.1,359.40857,1609884216668
Fix,GT,37.3597995,-122.062883,,32.310028,0.1,0.15548706,1609884217656
Fix,GT,37.3600888,-122.0628798,,32.423183,0.1,0.68362427,1609884218649
Fix,GT,37.3603854,-122.0628738,,32.63016,0.1,1.0515137,1609884219661
Fix,GT,37.3606786,-122.0628664,,32.76184,0.1,1.0822754,1609884220656
Fix,GT,37.3609768,-122.062859,,32.73636,0.1,1.0258484,1609884221666
Fix,GT,37.3612693,-122.0628522,,32.630947,0.1,0.91986084,1609884222660
Fix,GT,37.3615603,-122.0628464,,32.62674,0.1,0.78167725,1609884223650
Fix,GT,37.3618584,-122.0628412,,32.6937,0.1,0.71255493,1609884224662
Fix,GT,37.3621497,-122.0628359,,32.64788,0.1,0.8255005,1609884225652
Fix,GT,37.3624407,-122.0628297,,32.59224,0.1,0.99453735,1609884226642
Fix,GT,37.3627368,-122.0628221,,32.490864,0.1,1.1498413,1609884227652
Fix,GT,37.3630279,-122.0628143,,32.33594,0.1,1.1543579,1609884228649
Fix,GT,37.3633225,-122.0628071,,32.212193,0.1,0.9040222,1609884229663
Fix,GT,37.3636098,-122.0628039,,32.091312,0.1,0.08148193,1609884230654
Fix,GT,37.3639318,-122.0628084,,31.945412,0.1,358.38174,1609884231770
Fix,GT,37.3641579,-122.0628204,,31.761335,0.1,356.78708,1609884232559
Fix,GT,37.3644108,-122.062844,,31.505772,0.1,354.56967,1609884233449
Fix,GT,37.3647781,-122.0629005,,31.123795,0.1,351.4759,1609884234761
Fix,GT,37.3649689,-122.0629397,,30.914227,0.1,350.01505,1609884235453
Fix,GT,37.3652909,-122.0630207,,30.507126,0.1,347.1242,1609884236640
Fix,GT,37.3655868,-122.0631137,,30.07787,0.1,344.63815,1609884237757
Fix,GT,37.3657654,-122.0631785,,29.74806,0.1,343.2373,1609884238448
Fix,GT,37.3660709,-122.0633033,,29.103691,0.1,340.67255,1609884239660
Fix,GT,37.3663122,-122.0634158,,28.43396,0.1,338.47638,1609884240653
Fix,GT,37.3665485,-122.063539,,27.596432,0.1,336.42685,1609884241667
Fix,GT,37.3667697,-122.0636643,,27.009697,0.1,334.9995,1609884242654
Fix,GT,37.3669866,-122.0637929,,26.540257,0.1,334.37015,1609884243649
Fix,GT,37.3672027,-122.0639231,,26.0974,0.1,334.19305,1609884244661
Fix,GT,37.3674111,-122.0640493,,25.790009,0.1,334.05743,1609884245652
Fix,GT,37.3676221,-122.0641774,,25.536842,0.1,334.07407,1609884246666
Fix,GT,37.3678265,-122.0643018,,25.374233,0.1,333.89795,1609884247657
Fix,GT,37.36803,-122.0644267,,25.2665,0.1,333.80685,1609884248650
Fix,GT,37.3682579,-122.0645664,,25.357035,0.1,333.92062,1609884249764
Fix,GT,37.3683995,-122.064653,,25.454868,0.1,333.97964,1609884250452
Fix,GT,37.3686503,-122.0648057,,25.503904,0.1,334.01825,1609884251666
Fix,GT,37.3688556,-122.0649303,,25.503061,0.1,334.06763,1609884252659
Fix,GT,37.3690614,-122.0650552,,25.615025,0.1,334.1073,1609884253651
Fix,GT,37.3692712,-122.065182,,25.553944,0.1,334.2503,1609884254661
Fix,GT,37.3694765,-122.0653055,,25.363216,0.1,334.30392,1609884255654
Fix,GT,37.36968,-122.0654278,,25.219492,0.1,334.25378,1609884256645
Fix,GT,37.3698875,-122.0655531,,25.295063,0.1,334.12552,1609884257658
Fix,GT,37.3700908,-122.0656768,,25.414043,0.1,333.98026,1609884258646
Fix,GT,37.3702986,-122.0658037,,25.4534,0.1,333.89185,1609884259656
Fix,GT,37.370505,-122.0659301,,25.7218,0.1,333.9031,1609884260653
Fix,GT,37.3707173,-122.0660588,,26.043114,0.1,334.13794,1609884261665
Fix,GT,37.3709287,-122.0661865,,26.479458,0.1,334.18713,1609884262657
Fix,GT,37.3711438,-122.0663169,,26.95757,0.1,334.04144,1609884263649
Fix,GT,37.3713892,-122.0664663,,27.492233,0.1,333.9201,1609884264762
Fix,GT,37.3715433,-122.0665606,,27.668827,0.1,333.9825,1609884265452
Fix,GT,37.3718112,-122.0667235,,27.736526,0.1,334.21048,1609884266644
Fix,GT,37.3720383,-122.0668604,,27.652924,0.1,334.23816,1609884267654
Fix,GT,37.3722605,-122.0669942,,27.511585,0.1,334.28867,1609884268645
Fix,GT,37.3724885,-122.0671293,,27.519766,0.1,335.02853,1609884269664
Fix,GT,37.3727123,-122.0672556,,27.601288,0.1,336.28616,1609884270652
Fix,GT,37.3729636,-122.0673873,,27.62063,0.1,338.27423,1609884271746
Fix,GT,37.3731525,-122.0674753,,27.534107,0.1,340.63187,1609884272557
Fix,GT,37.3733627,-122.0675608,,27.609352,0.1,343.31583,1609884273448
Fix,GT,37.3736566,-122.0676583,,28.20205,0.1,346.69296,1609884274660
Fix,GT,37.3739058,-122.0677239,,28.641052,0.1,349.3354,1609884275654
Fix,GT,37.3741635,-122.0677764,,28.71647,0.1,352.07162,1609884276664
Fix,GT,37.3744445,-122.067816,,28.709942,0.1,354.99475,1609884277758
Fix,GT,37.3746237,-122.067831,,28.861643,0.1,356.85477,1609884278450
Fix,GT,37.3749412,-122.0678403,,29.277946,0.1,0.3428955,1609884279663
Fix,GT,37.3752034,-122.0678295,,29.482273,0.1,3.232788,1609884280654
Fix,GT,37.3754723,-122.0678031,,29.606615,0.1,5.445343,1609884281668
Fix,GT,37.3757332,-122.0677689,,29.692581,0.1,6.0787354,1609884282649
Fix,GT,37.3759973,-122.0677324,,29.763058,0.1,6.438324,1609884283641
Fix,GT,37.3762612,-122.0676916,,29.901537,0.1,7.3816223,1609884284631
Fix,GT,37.3765319,-122.0676453,,29.96562,0.1,7.7943115,1609884285643
Fix,GT,37.3767985,-122.0676008,,29.618162,0.1,7.0931396,1609884286644
Fix,GT,37.3770637,-122.0675645,,28.911942,0.1,5.168457,1609884287654
Fix,GT,37.3773164,-122.0675416,,28.080395,0.1,3.2217102,1609884288642
Fix,GT,37.3775616,-122.0675279,,27.041557,0.1,2.0361633,1609884289629
Fix,GT,37.3778021,-122.0675196,,25.4505,0.1,1.275177,1609884290644
Fix,GT,37.378046,-122.0675152,,22.792423,0.1,0.3715515,1609884291760
Fix,GT,37.3783531,-122.0675084,,17.759823,0.1,2.6980286,1609884293445
Fix,GT,37.3784999,-122.0674906,,15.222415,0.1,8.79953,1609884294445
Fix,GT,37.3786253,-122.0674504,,13.835304,0.1,19.023682,1609884295445
Fix,GT,37.3787324,-122.0673821,,13.125111,0.1,32.473083,1609884296445
Fix,GT,37.3788163,-122.0672858,,12.498365,0.1,48.826538,1609884297445
Fix,GT,37.3788709,-122.067168,,12.071415,0.1,66.36081,1609884298445
Fix,GT,37.3788944,-122.0670371,,12.136217,0.1,83.23306,1609884299445
Fix,GT,37.3788872,-122.0669002,,12.442014,0.1,99.439575,1609884300445
Fix,GT,37.3788495,-122.0667689,,12.6002445,0.1,115.73175,1609884301445
Fix,GT,37.3787834,-122.0666551,,12.638712,0.1,132.08783,1609884302445
Fix,GT,37.3786942,-122.0665704,,12.584782,0.1,149.18665,1609884303445
Fix,GT,37.3785892,-122.0665225,,12.6359215,0.1,166.13135,1609884304445
Fix,GT,37.3784762,-122.0665145,,12.8258705,0.1,182.96863,1609884305445
Fix,GT,37.3783649,-122.0665484,,12.956195,0.1,200.12056,1609884306445
Fix,GT,37.3782662,-122.0666222,,12.871176,0.1,217.59425,1609884307445
Fix,GT,37.3781906,-122.0667283,,12.703978,0.1,234.97043,1609884308445
Fix,GT,37.378143,-122.0668565,,12.699335,0.1,251.15854,1609884309445
Fix,GT,37.3781253,-122.0669959,,12.628352,0.1,267.09595,1609884310445
Fix,GT,37.3781388,-122.0671357,,12.6722355,0.1,282.60205,1609884311445
Fix,GT,37.3781773,-122.067272,,13.152912,0.1,292.51028,1609884312445
Fix,GT,37.3782281,-122.0674106,,13.900665,0.1,295.19678,1609884313445
Fix,GT,37.3782837,-122.0675574,,14.845585,0.1,295.19525,1609884314445
Fix,GT,37.3783421,-122.0677149,,15.929852,0.1,294.62778,1609884315445
Fix,GT,37.3784036,-122.0678841,,16.976595,0.1,294.37347,1609884316445
Fix,GT,37.378468,-122.068061,,17.220772,0.1,294.60297,1609884317445
Fix,GT,37.3785316,-122.0682318,,15.895814,0.1,294.93805,1609884318445
Fix,GT,37.3785892,-122.0683856,,14.185986,0.1,295.0907,1609884319445
Fix,GT,37.3786415,-122.0685237,,12.948742,0.1,295.45963,1609884320445
Fix,GT,37.3786906,-122.0686481,,11.634533,0.1,296.96777,1609884321445
Fix,GT,37.3787392,-122.0687548,,10.111928,0.1,301.7934,1609884322445
Fix,GT,37.3787915,-122.068838,,8.879293,0.1,312.1247,1609884323445
Fix,GT,37.3788522,-122.0688979,,8.637993,0.1,325.3451,1609884324445
Fix,GT,37.3789238,-122.0689409,,9.164665,0.1,336.79156,1609884325445
Fix,GT,37.3790061,-122.0689683,,9.896107,0.1,348.3976,1609884326445
Fix,GT,37.3791175,-122.0689694,,10.6238165,0.1,5.5967712,1609884327659
Fix,GT,37.3792107,-122.0689367,,11.179247,0.1,19.98114,1609884328653
Fix,GT,37.3793004,-122.0688724,,11.651235,0.1,34.663605,1609884329665
Fix,GT,37.3793747,-122.0687802,,11.961494,0.1,49.970703,1609884330657
Fix,GT,37.3794271,-122.068664,,12.161615,0.1,66.07269,1609884331649
Fix,GT,37.3794521,-122.0685296,,12.259752,0.1,83.1037,1609884332661
Fix,GT,37.3794456,-122.0683943,,12.259495,0.1,99.34442,1609884333652
Fix,GT,37.3794098,-122.0682662,,12.294073,0.1,115.0509,1609884334644
Fix,GT,37.3793455,-122.0681521,,12.445273,0.1,131.28973,1609884335657
Fix,GT,37.3792587,-122.0680658,,12.643582,0.1,147.53009,1609884336651
Fix,GT,37.3791526,-122.0680089,,12.987204,0.1,161.56177,1609884337661
Fix,GT,37.3790376,-122.0679741,,13.606848,0.1,168.25702,1609884338654
Fix,GT,37.378911,-122.0679443,,14.805007,0.1,169.46729,1609884339665
Fix,GT,37.3787749,-122.0679142,,16.019629,0.1,170.46619,1609884340656
Fix,GT,37.3786288,-122.0678879,,16.919783,0.1,172.6925,1609884341649
Fix,GT,37.378473,-122.0678667,,17.442415,0.1,174.24377,1609884342659
Fix,GT,37.3783011,-122.0678475,,17.521898,0.1,175.18292,1609884343753
Fix,GT,37.3780381,-122.0678241,,17.32228,0.1,176.32288,1609884345432
Fix,GT,37.3778829,-122.0678138,,17.183117,0.1,177.24988,1609884346432
Fix,GT,37.3777287,-122.0678064,,17.085997,0.1,178.14636,1609884347432
Fix,GT,37.377575,-122.0678032,,17.036238,0.1,179.73102,1609884348432
Fix,GT,37.3774217,-122.0678063,,17.035378,0.1,181.85153,1609884349432
Fix,GT,37.3772679,-122.0678156,,17.190695,0.1,183.08144,1609884350432
Fix,GT,37.3771116,-122.0678269,,17.607542,0.1,183.06456,1609884351432
Fix,GT,37.3769504,-122.0678367,,18.284756,0.1,182.34515,1609884352432
Fix,GT,37.3767827,-122.0678455,,18.98567,0.1,182.57433,1609884353432
Fix,GT,37.3766096,-122.0678578,,19.404865,0.1,183.80841,1609884354432
Fix,GT,37.3764347,-122.0678757,,19.510918,0.1,185.10399,1609884355432
Fix,GT,37.3762596,-122.0678972,,19.55303,0.1,185.92511,1609884356432
Fix,GT,37.3760843,-122.0679208,,19.63157,0.1,186.14194,1609884357432
Fix,GT,37.3759078,-122.0679445,,19.77277,0.1,186.00522,1609884358432
Fix,GT,37.3757297,-122.0679675,,19.97778,0.1,185.80383,1609884359432
Fix,GT,37.3755496,-122.0679893,,20.22356,0.1,185.27574,1609884360432
Fix,GT,37.3753667,-122.068007,,20.566868,0.1,183.50423,1609884361432
Fix,GT,37.3751789,-122.0680148,,21.229862,0.1,180.38084,1609884362432
Fix,GT,37.3749836,-122.0680105,,22.147968,0.1,178.09619,1609884363432
Fix,GT,37.3747803,-122.067998,,22.999603,0.1,176.60022,1609884364432
Fix,GT,37.3745704,-122.0679789,,23.70213,0.1,175.31873,1609884365432
Fix,GT,37.3743549,-122.0679536,,24.346731,0.1,174.03857,1609884366432
Fix,GT,37.3741347,-122.0679202,,24.884941,0.1,172.20721,1609884367432
Fix,GT,37.3739115,-122.0678754,,25.289713,0.1,169.78162,1609884368432
Fix,GT,37.3736868,-122.0678174,,25.645283,0.1,167.14948,1609884369432
Fix,GT,37.3734611,-122.0677461,,26.043839,0.1,164.74536,1609884370432
Fix,GT,37.3732345,-122.0676618,,26.413683,0.1,162.35901,1609884371432
Fix,GT,37.3730079,-122.0675644,,26.763618,0.1,159.99982,1609884372432
Fix,GT,37.3727818,-122.0674541,,27.099697,0.1,157.6665,1609884373432
Fix,GT,37.3725565,-122.0673317,,27.42773,0.1,155.70667,1609884374432
Fix,GT,37.372331,-122.0672001,,27.817848,0.1,154.4942,1609884375432
Fix,GT,37.3721036,-122.0670626,,28.200684,0.1,154.08813,1609884376432
Fix,GT,37.3718733,-122.066923,,28.572384,0.1,154.24072,1609884377432
Fix,GT,37.37164,-122.0667823,,28.916403,0.1,154.15643,1609884378432
Fix,GT,37.3714047,-122.0666392,,29.136274,0.1,153.96472,1609884379432
Fix,GT,37.3711679,-122.0664948,,29.323757,0.1,153.96094,1609884380432
Fix,GT,37.3709294,-122.0663496,,29.521568,0.1,154.08429,1609884381432
Fix,GT,37.3706893,-122.066204,,29.689644,0.1,154.14459,1609884382432
Fix,GT,37.3704478,-122.0660575,,29.903816,0.1,154.07281,1609884383432
Fix,GT,37.3702048,-122.0659095,,30.105827,0.1,154.00543,1609884384432
Fix,GT,37.3699599,-122.0657606,,30.316452,0.1,154.06079,1609884385432
Fix,GT,37.3697131,-122.0656109,,30.50431,0.1,154.16382,1609884386432
Fix,GT,37.3694118,-122.065429,,30.70509,0.1,154.22144,1609884387646
Fix,GT,37.3691579,-122.0652757,,30.990313,0.1,154.15582,1609884388660
Fix,GT,37.3689077,-122.0651242,,31.202412,0.1,154.1449,1609884389652
Fix,GT,37.3686558,-122.0649717,,31.319324,0.1,154.17395,1609884390645
Fix,GT,37.3683984,-122.0648162,,31.341034,0.1,154.17792,1609884391657
Fix,GT,37.3681465,-122.0646639,,31.262379,0.1,154.15576,1609884392648
Fix,GT,37.3678903,-122.0645083,,31.066751,0.1,154.02301,1609884393662
Fix,GT,37.3676431,-122.0643573,,30.772663,0.1,153.91357,1609884394649
Fix,GT,37.367392,-122.0642044,,30.434772,0.1,154.09167,1609884395661
Fix,GT,37.3671427,-122.0640535,,30.08813,0.1,154.15625,1609884396676
Fix,GT,37.366903,-122.0639095,,29.739464,0.1,154.59076,1609884397663
Fix,GT,37.3666631,-122.0637701,,29.374249,0.1,155.63177,1609884398656
Fix,GT,37.3664228,-122.0636387,,29.123638,0.1,157.15472,1609884399652
Fix,GT,37.3661814,-122.0635173,,29.120365,0.1,158.94995,1609884400644
Fix,GT,37.3659323,-122.0634037,,29.148407,0.1,161.02087,1609884401654
Fix,GT,37.3656847,-122.0633044,,29.098038,0.1,163.40283,1609884402644
Fix,GT,37.3654305,-122.0632168,,28.981194,0.1,165.75726,1609884403652
Fix,GT,37.3651791,-122.0631438,,28.787025,0.1,168.06665,1609884404644
Fix,GT,37.3649276,-122.0630835,,28.625301,0.1,170.17487,1609884405634
Fix,GT,37.3646688,-122.0630342,,28.624958,0.1,172.35358,1609884406650
Fix,GT,37.364413,-122.062998,,28.679203,0.1,174.56055,1609884407648
Fix,GT,37.3641519,-122.062974,,28.689632,0.1,176.85248,1609884408660
Fix,GT,37.3638977,-122.0629629,,28.677164,0.1,178.92786,1609884409645
Fix,GT,37.3636418,-122.0629614,,28.691872,0.1,180.21228,1609884410635
Fix,GT,37.3633511,-122.0629648,,28.699982,0.1,180.5665,1609884411759
Fix,GT,37.3631726,-122.0629672,,28.720814,0.1,180.55995,1609884412449
Fix,GT,37.3628585,-122.0629714,,28.833841,0.1,180.63435,1609884413661
Fix,GT,37.3626024,-122.0629761,,28.868519,0.1,180.95363,1609884414646
Fix,GT,37.3623454,-122.0629825,,28.802444,0.1,181.18999,1609884415635
Fix,GT,37.3620814,-122.0629898,,28.604134,0.1,181.19972,1609884416656
Fix,GT,37.3618266,-122.0629966,,28.363186,0.1,181.06993,1609884417649
Fix,GT,37.3615447,-122.063003,,28.030872,0.1,180.92357,1609884418758
Fix,GT,37.3613719,-122.0630068,,27.815983,0.1,180.91655,1609884419446
Fix,GT,37.3610757,-122.0630129,,27.46806,0.1,180.8708,1609884420635
Fix,GT,37.3608243,-122.0630177,,27.163784,0.1,180.74533,1609884421656
Fix,GT,37.360583,-122.0630218,,26.827896,0.1,180.65567,1609884422648
Fix,GT,37.3603404,-122.0630252,,26.419762,0.1,180.64415,1609884423660
Fix,GT,37.3601062,-122.0630292,,25.963135,0.1,180.88298,1609884424652
Fix,GT,37.3598718,-122.0630341,,25.439915,0.1,180.90808,1609884425664
Fix,GT,37.359646,-122.063037,,24.999767,0.1,180.19806,1609884426658
Fix,GT,37.3594246,-122.0630351,,24.616447,0.1,178.9917,1609884427648
Fix,GT,37.3592021,-122.063027,,24.228384,0.1,177.74475,1609884428660
Fix,GT,37.3589869,-122.0630144,,23.865402,0.1,176.93701,1609884429654
