MessageType,Provider,LatitudeDegrees,LongitudeDegrees,AltitudeMeters,SpeedMps,AccuracyMeters,BearingDegrees,UnixTimeMillis
Fix,GT,37.4843904,-122.1771769,-30.412,0.0010000974,0.1,203.06683,1627415390999
Fix,GT,37.4843904,-122.1771769,-30.412,0.0010000978,0.1,203.06677,1627415391999
Fix,GT,37.4843904,-122.1771769,-30.412,0.0019997628,0.1,203.0669,1627415392999
Fix,GT,37.4843904,-122.1771769,-30.412,0.0020000562,0.1,203.06715,1627415393999
Fix,GT,37.4843904,-122.1771769,-30.412,0.0010002392,0.1,203.067,1627415394999
Fix,GT,37.4843904,-122.1771769,-30.412,0.002000057,0.1,203.06677,1627415395999
Fix,GT,37.4843904,-122.1771769,-30.412,0.0019997589,0.1,203.06668,1627415396999
Fix,GT,37.4843904,-122.1771769,-30.411,0.001,0.1,203.06673,1627415397999
Fix,GT,37.4843904,-122.1771769,-30.412,0.002,0.1,203.03568,1627415398999
Fix,GT,37.4843904,-122.177177,-30.413,0.0014141123,0.1,203.034,1627415399999
Fix,GT,37.4843892,-122.1771774,-30.420999754428863,0.46542692,0.1,202.6877,1627415400999
Fix,GT,37.4843819,-122.1771802,-30.42999950659275,1.1650805,0.1,200.53052,1627415401999
Fix,GT,37.484369,-122.1771841,-30.44,1.7010947,0.1,196.873,1627415402999
Fix,GT,37.4843522,-122.1771876,-30.45299925363064,1.9943712,0.1,192.244,1627415403999
Fix,GT,37.4843304,-122.1771902,-30.48000049984456,3.0937405,0.1,187.14972,1627415404999
Fix,GT,37.4842965,-122.1771933,-30.49899874472618,4.4096107,0.1,184.46616,1627415405999
Fix,GT,37.4842522,-122.1771981,-30.54699924379587,5.2827735,0.1,185.79384,1627415406999
Fix,GT,37.4842114,-122.177215,-30.48100101256371,4.2322783,0.1,201.31064,1627415407999
Fix,GT,37.4841893,-122.1772495,-30.48699974578619,3.7406867,0.1,231.93053,1627415408999
Fix,GT,37.484186,-122.1772933,-30.448002808153632,4.0842137,0.1,264.21365,1627415409999
Fix,GT,37.4842016,-122.1773383,-30.36200153779983,4.599546,0.1,294.48746,1627415410999
Fix,GT,37.4842341,-122.1773729,-30.289002316892148,4.912137,0.1,321.76202,1627415411999
Fix,GT,37.4842785,-122.177385,-30.23399974149466,5.305253,0.1,350.74908,1627415412999
Fix,GT,37.4843283,-122.1773716,-30.229001817047592,6.0673656,0.1,15.020233,1627415413999
Fix,GT,37.4843817,-122.1773411,-30.09000156390667,6.9772735,0.1,24.309021,1627415414999
Fix,GT,37.4844425,-122.1773052,-30.0849965968132,7.937966,0.1,25.183655,1627415415999
Fix,GT,37.4845094,-122.1772665,-30.21099632084369,8.296095,0.1,24.354187,1627415416999
Fix,GT,37.4845753,-122.1772312,-30.17700343030691,7.479054,0.1,22.781982,1627415417999
Fix,GT,37.4846297,-122.1771983,-30.0310045030117,5.867983,0.1,28.708466,1627415418999
Fix,GT,37.4846609,-122.1771564,-29.85600638151169,4.6064463,0.1,51.851105,1627415419999
Fix,GT,37.4846689,-122.1771091,-29.720004272460933,3.9791749,0.1,78.88611,1627415420999
Fix,GT,37.4846636,-122.177068,-29.52100482368469,3.383854,0.1,97.2785,1627415421999
Fix,GT,37.4846597,-122.1770321,-29.343005920529368,3.216922,0.1,95.801575,1627415422999
Fix,GT,37.4846667,-122.1769939,-29.13300513356924,3.654211,0.1,77.38278,1627415423999
Fix,GT,37.48469,-122.1769552,-29.22999186396599,4.594608,0.1,53.31418,1627415424999
Fix,GT,37.4847252,-122.176925,-29.6199912853241,4.3024898,0.1,33.7919,1627415425999
Fix,GT,37.4847537,-122.1769058,-29.940990159511564,3.0863523,0.1,29.101166,1627415426999
Fix,GT,37.484777,-122.176884,-30.132997529685497,3.2505882,0.1,37.31778,1627415427999
Fix,GT,37.4847906,-122.1768494,-30.22800358140469,3.6385036,0.1,61.078125,1627415428999
Fix,GT,37.4847926,-122.1768063,-30.09200165975093,4.097507,0.1,86.39053,1627415429999
Fix,GT,37.4847834,-122.1767571,-30.0490013884902,4.8640685,0.1,102.22589,1627415430999
Fix,GT,37.4847715,-122.1766997,-30.01400055742264,5.6390176,0.1,104.25037,1627415431999
Fix,GT,37.4847581,-122.1766338,-30.001999440312385,6.3835225,0.1,104.09973,1627415432999
Fix,GT,37.4847435,-122.1765599,-29.951003931999207,7.0796857,0.1,103.97797,1627415433999
Fix,GT,37.4847243,-122.1764797,-29.95899943602085,7.7681885,0.1,107.75238,1627415434999
Fix,GT,37.4847015,-122.1763928,-29.95000113224983,8.400941,0.1,108.18619,1627415435999
Fix,GT,37.4846769,-122.1763001,-29.927999431848527,8.873655,0.1,108.29932,1627415436999
Fix,GT,37.4846524,-122.1762019,-29.93399771881104,9.292541,0.1,106.183655,1627415437999
Fix,GT,37.4846304,-122.1760981,-29.90499570757151,9.6796055,0.1,104.71457,1627415438999
Fix,GT,37.484608,-122.1759902,-29.88000057458877,10.012548,0.1,104.388794,1627415439999
Fix,GT,37.4845854,-122.1758788,-29.878000288307668,10.339129,0.1,104.082855,1627415440999
Fix,GT,37.4845624,-122.1757636,-29.8690023150444,10.639063,0.1,103.892334,1627415441999
Fix,GT,37.4845392,-122.1756453,-29.864,10.927003,0.1,103.8056,1627415442999
Fix,GT,37.4845146,-122.1755242,-29.86399795931578,11.1947775,0.1,104.54645,1627415443999
Fix,GT,37.4844871,-122.175401,-29.90599882984161,11.422233,0.1,106.18164,1627415444999
Fix,GT,37.4844573,-122.1752772,-29.89599882555008,11.412153,0.1,106.983154,1627415445999
Fix,GT,37.4844268,-122.1751548,-29.954997642993927,11.264792,0.1,107.115234,1627415446999
Fix,GT,37.4843983,-122.1750339,-29.98999970430136,10.951631,0.1,106.24481,1627415447999
Fix,GT,37.4843718,-122.1749209,-30.038998813152315,9.840821,0.1,106.38092,1627415448999
Fix,GT,37.4843497,-122.1748284,-30.078997915506363,6.964772,0.1,106.63089,1627415449999
Fix,GT,37.484336,-122.174771,-30.124999701201915,3.6302867,0.1,106.625916,1627415450999
Fix,GT,37.4843299,-122.174746,-30.146999100565907,1.3134944,0.1,106.6373,1627415451999
Fix,GT,37.4843284,-122.17474,-30.15499939811229,0.071505085,0.1,106.64377,1627415452999
Fix,GT,37.4843284,-122.17474,-30.159000302016736,0.0036053683,0.1,106.64795,1627415453999
Fix,GT,37.4843284,-122.17474,-30.159,0.002236068,0.1,106.64697,1627415454999
Fix,GT,37.4843284,-122.17474,-30.159,0.0020003535,0.1,106.64725,1627415455999
Fix,GT,37.4843284,-122.17474,-30.159,0.002236068,0.1,106.64697,1627415456999
Fix,GT,37.4843285,-122.17474,-30.15300030624866,0.002236068,0.1,106.64682,1627415457999
Fix,GT,37.4843285,-122.17474,-30.145,0.002236068,0.1,106.64682,1627415458999
Fix,GT,37.4843285,-122.17474,-30.145,0.0022362508,0.1,106.64685,1627415459999
Fix,GT,37.4843285,-122.17474,-30.145,0.002236068,0.1,106.64691,1627415460999
Fix,GT,37.4843285,-122.17474,-30.145,0.002236068,0.1,106.64679,1627415461999
Fix,GT,37.4843285,-122.17474,-30.146,0.0028282427,0.1,106.64661,1627415462999
Fix,GT,37.4843285,-122.17474,-30.146,0.002236253,0.1,106.646576,1627415463999
Fix,GT,37.4843285,-122.17474,-30.146,0.002236068,0.1,106.646866,1627415464999
Fix,GT,37.4843285,-122.17474,-30.146,0.002236068,0.1,106.64667,1627415465999
Fix,GT,37.4843285,-122.17474,-30.146,0.0028284271,0.1,106.646484,1627415466999
Fix,GT,37.4843285,-122.17474,-30.146,0.002236068,0.1,106.646545,1627415467999
Fix,GT,37.4843285,-122.17474,-30.146,0.002236068,0.1,106.64667,1627415468999
Fix,GT,37.4843285,-122.17474,-30.145,0.002,0.1,106.64664,1627415469999
Fix,GT,37.4843285,-122.17474,-30.145,0.002,0.1,106.646484,1627415470999
Fix,GT,37.4843285,-122.17474,-30.145,0.002,0.1,106.64633,1627415471999
Fix,GT,37.4843285,-122.17474,-30.143,0.002236068,0.1,106.64642,1627415472999
Fix,GT,37.4843286,-122.17474,-30.14,0.019020872,0.1,106.645935,1627415473999
Fix,GT,37.4843276,-122.1747355,-30.148999675810337,1.0062509,0.1,106.61615,1627415474999
Fix,GT,37.4843235,-122.1747173,-30.15899967473745,2.308331,0.1,105.96954,1627415475999
Fix,GT,37.484319,-122.1746845,-30.161000652790072,3.5007763,0.1,100.30908,1627415476999
Fix,GT,37.4843205,-122.1746385,-30.099002947747707,4.5041747,0.1,87.2937,1627415477999
Fix,GT,37.4843365,-122.1745849,-30.033999014377592,5.4704285,0.1,67.01822,1627415478999
Fix,GT,37.4843745,-122.1745367,-30.100994726181032,6.3859777,0.1,40.332733,1627415479999
Fix,GT,37.4844307,-122.1745028,-30.165998016238213,7.351142,0.1,24.437744,1627415480999
Fix,GT,37.4844961,-122.1744706,-30.18500232189894,8.161751,0.1,20.822754,1627415481999
Fix,GT,37.4845685,-122.1744363,-30.12200166386366,8.993267,0.1,20.760712,1627415482999
Fix,GT,37.4846454,-122.1743987,-30.10400166922808,9.154245,0.1,21.436432,1627415483999
Fix,GT,37.484721,-122.1743608,-30.05100100457668,8.887213,0.1,21.881042,1627415484999
Fix,GT,37.4847928,-122.1743243,-30.03100134372711,8.188203,0.1,21.95932,1627415485999
Fix,GT,37.4848568,-122.1742923,-29.9340023586154,7.0778227,0.1,21.718689,1627415486999
Fix,GT,37.484911,-122.1742651,-29.92999898594618,5.8594294,0.1,21.841797,1627415487999
Fix,GT,37.4849548,-122.1742429,-29.90800203418732,4.616684,0.1,21.935638,1627415488999
Fix,GT,37.4849883,-122.1742258,-29.87500136041641,3.367082,0.1,21.931763,1627415489999
Fix,GT,37.4850098,-122.174215,-29.837001023352144,1.7705085,0.1,21.940857,1627415490999
Fix,GT,37.4850185,-122.1742107,-29.826,0.3410024,0.1,21.957275,1627415491999
Fix,GT,37.4850191,-122.1742104,-29.83399965673685,0.001414699,0.1,21.956451,1627415492999
Fix,GT,37.4850191,-122.1742104,-29.835,0.001,0.1,21.956451,1627415493999
Fix,GT,37.4850191,-122.1742104,-29.836,0.001,0.1,21.956635,1627415494999
Fix,GT,37.4850191,-122.1742104,-29.836,0.001,0.1,21.95691,1627415495999
Fix,GT,37.4850191,-122.1742104,-29.836,0.0014140697,0.1,21.956879,1627415496999
Fix,GT,37.4850191,-122.1742104,-29.836,0.0009996514,0.1,21.957,1627415497999
Fix,GT,37.4850191,-122.1742104,-29.836,0.0009996503,0.1,21.95691,1627415498999
Fix,GT,37.4850191,-122.1742104,-29.836,3.5071375e-07,0.1,21.95694,1627415499999
Fix,GT,37.4850191,-122.1742104,-29.836,0.0,0.1,21.956665,1627415500999
Fix,GT,37.4850191,-122.1742104,-29.836,0.0009996472,0.1,21.956604,1627415501999
Fix,GT,37.4850191,-122.1742104,-29.836,0.0009996461,0.1,21.956726,1627415502999
Fix,GT,37.4850191,-122.1742104,-29.836,0.001,0.1,21.956665,1627415503999
Fix,GT,37.4850191,-122.1742104,-29.836,0.001,0.1,21.956787,1627415504999
Fix,GT,37.4850191,-122.1742104,-29.836,0.001,0.1,21.956696,1627415505999
Fix,GT,37.4850191,-122.1742104,-29.837,0.0014140652,0.1,21.956726,1627415506999
Fix,GT,37.4850191,-122.1742104,-29.837,0.0014142136,0.1,21.956604,1627415507999
Fix,GT,37.4850191,-122.1742104,-29.838,0.0014142136,0.1,21.956696,1627415508999
Fix,GT,37.4850194,-122.1742102,-29.84499927723408,0.24974796,0.1,21.953918,1627415509999
Fix,GT,37.4850271,-122.1742064,-29.83900108736753,1.7586904,0.1,21.885895,1627415510999
Fix,GT,37.4850482,-122.1741965,-29.808001817643643,3.2060583,0.1,20.81894,1627415511999
Fix,GT,37.4850815,-122.1741833,-29.75800218725205,4.49079,0.1,17.53955,1627415512999
Fix,GT,37.4851273,-122.1741698,-29.655004752993587,5.9673543,0.1,12.425873,1627415513999
Fix,GT,37.4851868,-122.1741612,-29.490007701694964,7.2519164,0.1,4.7644043,1627415514999
Fix,GT,37.4852556,-122.1741662,-29.26400956332684,7.8687186,0.1,353.44522,1627415515999
Fix,GT,37.4853258,-122.174194,-29.113007008969785,8.393044,0.1,337.7093,1627415516999
Fix,GT,37.4853883,-122.1742521,-29.00500258934498,8.88505,0.1,317.10437,1627415517999
Fix,GT,37.4854363,-122.1743387,-29.05399814480543,9.82812,0.1,299.4746,1627415518999
Fix,GT,37.4854715,-122.1744483,-29.08299925589561,11.0112705,0.1,289.07828,1627415519999
Fix,GT,37.4855031,-122.1745738,-29.11999813437462,12.274992,0.1,287.34027,1627415520999
Fix,GT,37.485539,-122.1747122,-29.13200074827671,13.435162,0.1,288.93158,1627415521999
Fix,GT,37.4855821,-122.1748606,-29.162999624788764,14.521123,0.1,290.01898,1627415522999
Fix,GT,37.4856281,-122.1750205,-29.20400188171864,15.552764,0.1,289.2254,1627415523999
Fix,GT,37.4856737,-122.1751928,-29.20500113207101,16.537144,0.1,287.60605,1627415524999
Fix,GT,37.485718,-122.1753764,-29.21200075674057,17.372541,0.1,286.3689,1627415525999
Fix,GT,37.4857632,-122.1755688,-29.218998482227327,18.048136,0.1,286.3268,1627415526999
Fix,GT,37.4858093,-122.1757657,-29.23400038045645,18.22504,0.1,286.19348,1627415527999
Fix,GT,37.4858548,-122.1759642,-29.23500152635574,18.310305,0.1,285.8696,1627415528999
Fix,GT,37.4859004,-122.1761636,-29.2409980866909,18.388815,0.1,286.04797,1627415529999
Fix,GT,37.4859466,-122.1763638,-29.279001534700395,18.48623,0.1,286.11652,1627415530999
Fix,GT,37.4859931,-122.1765652,-29.29499807626009,18.596846,0.1,285.888,1627415531999
Fix,GT,37.4860385,-122.1767682,-29.274000385761266,18.700436,0.1,285.37396,1627415532999
Fix,GT,37.486083,-122.1769728,-29.28499883967638,18.807377,0.1,285.07056,1627415533999
Fix,GT,37.486127,-122.1771786,-29.30700077569485,18.853506,0.1,284.78793,1627415534999
Fix,GT,37.4861701,-122.1773835,-29.30500233387947,18.58765,0.1,284.65442,1627415535999
Fix,GT,37.4862123,-122.1775848,-29.288001559972763,18.22434,0.1,284.61746,1627415536999
Fix,GT,37.4862535,-122.177782,-29.26300078213216,17.84069,0.1,284.5962,1627415537999
Fix,GT,37.4862936,-122.1779752,-29.27399960786104,17.491085,0.1,284.52893,1627415538999
Fix,GT,37.4863334,-122.1781644,-29.303000393211843,17.041975,0.1,284.86172,1627415539999
Fix,GT,37.4863728,-122.1783448,-29.27999881732464,15.906625,0.1,285.49246,1627415540999
Fix,GT,37.4864094,-122.1785087,-29.380995651066304,14.11898,0.1,285.2563,1627415541999
Fix,GT,37.4864398,-122.1786537,-29.31099841451645,12.376195,0.1,284.3389,1627415542999
Fix,GT,37.4864647,-122.1787803,-29.329,10.763583,0.1,283.35236,1627415543999
Fix,GT,37.4864799,-122.1788942,-29.297,9.79858,0.1,275.96872,1627415544999
Fix,GT,37.4864715,-122.1790023,-29.271002397537234,9.440244,0.1,257.6834,1627415545999
Fix,GT,37.4864342,-122.1790976,-29.294001201987268,9.48273,0.1,237.26367,1627415546999
Fix,GT,37.4863712,-122.179175,-29.444990358352666,10.054141,0.1,218.05684,1627415547999
Fix,GT,37.4862877,-122.1792299,-29.4519963747263,10.961905,0.1,204.12375,1627415548999
Fix,GT,37.486191,-122.1792797,-29.54799838423729,12.1935005,0.1,201.4738,1627415549999
Fix,GT,37.4860836,-122.179331,-29.501002024769782,13.268332,0.1,200.6116,1627415550999
Fix,GT,37.4859685,-122.1793869,-29.41800324821472,14.080623,0.1,201.48218,1627415551999
Fix,GT,37.4858485,-122.179448,-29.383006512641906,14.653493,0.1,202.21353,1627415552999
Fix,GT,37.4857244,-122.1795123,-29.321997550964355,15.137002,0.1,202.44902,1627415553999
Fix,GT,37.4855966,-122.1795795,-29.243006137788296,15.600329,0.1,202.75917,1627415554999
Fix,GT,37.4854663,-122.1796485,-29.13500861668587,15.642743,0.1,203.01167,1627415555999
Fix,GT,37.4853389,-122.1797194,-28.8360115172863,15.340463,0.1,204.44264,1627415556999
Fix,GT,37.485217,-122.1797981,-28.53301649856568,15.129739,0.1,209.36586,1627415557999
Fix,GT,37.4851029,-122.1798902,-28.30701447379589,15.051874,0.1,214.89305,1627415558999
Fix,GT,37.484997,-122.1799964,-28.049011607408524,15.095846,0.1,221.06462,1627415559999
Fix,GT,37.4849006,-122.1801177,-27.858000415623188,15.275002,0.1,227.37885,1627415560999
Fix,GT,37.4848136,-122.1802533,-27.76099958336353,15.611043,0.1,233.42218,1627415561999
Fix,GT,37.4847377,-122.1804045,-27.75900083553791,16.037912,0.1,240.2812,1627415562999
Fix,GT,37.4846718,-122.1805677,-27.723004187822344,16.256948,0.1,244.3494,1627415563999
Fix,GT,37.4846104,-122.1807333,-27.81199370217324,16.080128,0.1,245.34805,1627415564999
Fix,GT,37.4845509,-122.1808978,-28.00999116176367,15.856302,0.1,245.66342,1627415565999
Fix,GT,37.4844917,-122.1810605,-28.339984388172624,15.873494,0.1,245.09111,1627415566999
Fix,GT,37.4844305,-122.1812252,-28.67398688840866,16.325573,0.1,244.62918,1627415567999
Fix,GT,37.4843675,-122.1813958,-28.9349970318079,16.911503,0.1,245.31306,1627415568999
Fix,GT,37.4843085,-122.1815748,-28.93900595140457,17.351551,0.1,249.53082,1627415569999
Fix,GT,37.4842625,-122.181764,-28.805012355566024,17.670994,0.1,255.60094,1627415570999
Fix,GT,37.4842334,-122.1819621,-28.54901324278116,18.059204,0.1,262.36203,1627415571999
Fix,GT,37.4842221,-122.1821683,-28.246012844204905,18.540585,0.1,268.69263,1627415572999
Fix,GT,37.4842282,-122.1823807,-28.02900257563591,19.153748,0.1,274.3623,1627415573999
Fix,GT,37.4842513,-122.1825983,-27.67900258135796,19.768793,0.1,279.93,1627415574999
Fix,GT,37.4842908,-122.18282,-27.554003882229328,20.461044,0.1,284.5009,1627415575999
Fix,GT,37.4843416,-122.1830467,-27.514999135255813,21.149883,0.1,286.36902,1627415576999
Fix,GT,37.4843969,-122.1832781,-27.554998266220093,21.517931,0.1,286.78912,1627415577999
Fix,GT,37.4844538,-122.1835111,-27.59999695879221,21.597004,0.1,287.1474,1627415578999
Fix,GT,37.484512,-122.1837452,-27.66399390256405,21.80915,0.1,287.30353,1627415579999
Fix,GT,37.4845677,-122.1839837,-27.76699650764465,22.142649,0.1,285.4995,1627415580999
Fix,GT,37.48462,-122.1842273,-27.838997374296184,22.497087,0.1,285.12537,1627415581999
Fix,GT,37.4846766,-122.184474,-27.90999824500084,22.91786,0.1,286.60873,1627415582999
Fix,GT,37.4847369,-122.1847235,-27.94200087952614,23.206686,0.1,287.03333,1627415583999
Fix,GT,37.4847986,-122.1849766,-27.98299867767096,23.647127,0.1,286.752,1627415584999
Fix,GT,37.4848598,-122.1852363,-28.00500044190884,24.274021,0.1,286.15012,1627415585999
Fix,GT,37.4849207,-122.1855034,-28.03899601316452,24.848133,0.1,285.7492,1627415586999
Fix,GT,37.4849821,-122.1857772,-28.07099689203501,25.487936,0.1,285.578,1627415587999
Fix,GT,37.4850441,-122.1860587,-28.112997774660585,26.146301,0.1,285.1518,1627415588999
Fix,GT,37.4851057,-122.1863474,-28.2049884018898,26.667477,0.1,284.64902,1627415589999
Fix,GT,37.4851656,-122.1866417,-28.14199910581112,27.050499,0.1,284.049,1627415590999
Fix,GT,37.4852248,-122.186941,-28.187,27.483295,0.1,283.63824,1627415591999
Fix,GT,37.4852825,-122.1872458,-28.20799685573578,27.91329,0.1,283.00943,1627415592999
Fix,GT,37.4853381,-122.1875553,-28.221002251267432,28.174644,0.1,282.31067,1627415593999
Fix,GT,37.4853916,-122.187868,-28.24499638986588,28.405544,0.1,281.8066,1627415594999
Fix,GT,37.4854428,-122.188184,-28.26099773830176,28.616348,0.1,281.05463,1627415595999
Fix,GT,37.4854913,-122.1885029,-28.315996826529503,28.791702,0.1,280.51892,1627415596999
Fix,GT,37.4855382,-122.1888236,-28.33399818229676,28.863798,0.1,280.20587,1627415597999
Fix,GT,37.4855834,-122.1891451,-28.35099954456091,28.875927,0.1,279.6596,1627415598999
Fix,GT,37.4856259,-122.1894661,-28.40299817419052,28.649593,0.1,279.2248,1627415599999
Fix,GT,37.4856665,-122.1897846,-28.45399816966057,28.42149,0.1,278.92703,1627415600999
Fix,GT,37.4857064,-122.1901011,-28.553995413422584,28.27948,0.1,278.9414,1627415601999
Fix,GT,37.4857463,-122.1904165,-28.69099586296081,28.222002,0.1,278.8945,1627415602999
Fix,GT,37.4857859,-122.1907313,-28.759000460743906,28.150076,0.1,278.7741,1627415603999
Fix,GT,37.485825,-122.1910453,-28.80299584418535,28.069302,0.1,278.74173,1627415604999
Fix,GT,37.4858627,-122.1913589,-28.84699814891816,28.029596,0.1,278.32108,1627415605999
Fix,GT,37.4859,-122.1916722,-28.87899675309658,27.992792,0.1,278.5099,1627415606999
Fix,GT,37.4859377,-122.1919849,-28.91499907040596,27.96363,0.1,278.50046,1627415607999
Fix,GT,37.4859756,-122.1922975,-28.9520004658103,27.957766,0.1,278.68097,1627415608999
Fix,GT,37.4860142,-122.1926101,-28.996996732234955,28.01872,0.1,278.76636,1627415609999
Fix,GT,37.4860529,-122.1929235,-29.032996257305147,28.078009,0.1,278.77234,1627415610999
Fix,GT,37.4860921,-122.1932374,-29.083994373083115,28.12472,0.1,278.83804,1627415611999
Fix,GT,37.4861315,-122.1935518,-29.10400187969208,28.178434,0.1,278.8425,1627415612999
Fix,GT,37.486171,-122.1938669,-29.152999529063703,28.237179,0.1,278.88806,1627415613999
Fix,GT,37.4862104,-122.1941826,-29.19200047200918,28.269278,0.1,278.8079,1627415614999
Fix,GT,37.4862497,-122.1944984,-29.224999526977538,28.240046,0.1,278.79877,1627415615999
Fix,GT,37.486289,-122.1948131,-29.2249990516901,28.104128,0.1,278.83594,1627415616999
Fix,GT,37.4863282,-122.1951263,-29.22500332659483,27.971481,0.1,278.83057,1627415617999
Fix,GT,37.4863675,-122.195438,-29.238001428723333,27.85837,0.1,278.97745,1627415618999
Fix,GT,37.4864067,-122.1957487,-29.24699761372805,27.782877,0.1,278.84653,1627415619999
Fix,GT,37.486445,-122.1960588,-29.24500047838688,27.723299,0.1,278.62344,1627415620999
Fix,GT,37.4864827,-122.1963684,-29.23400191736221,27.683615,0.1,278.60944,1627415621999
Fix,GT,37.4865205,-122.1966778,-29.22200048047304,27.69152,0.1,278.61346,1627415622999
Fix,GT,37.4865582,-122.1969878,-29.22799951845408,27.773705,0.1,278.6978,1627415623999
Fix,GT,37.4865967,-122.1972985,-29.2409995174408,27.870642,0.1,278.85294,1627415624999
Fix,GT,37.4866358,-122.1976103,-29.21500290107727,27.945475,0.1,278.91345,1627415625999
Fix,GT,37.4866755,-122.1979228,-29.212000484645365,28.032618,0.1,279.03043,1627415626999
Fix,GT,37.4867157,-122.1982363,-29.207002913594245,28.127771,0.1,279.0281,1627415627999
Fix,GT,37.4867559,-122.1985509,-29.203999026775364,28.235462,0.1,278.88162,1627415628999
Fix,GT,37.4867949,-122.198867,-29.19300097537041,28.342642,0.1,278.54065,1627415629999
Fix,GT,37.4868335,-122.1991845,-29.19000293290616,28.471575,0.1,278.61554,1627415630999
Fix,GT,37.4868727,-122.1995035,-29.19099902033805,28.647873,0.1,278.7042,1627415631999
Fix,GT,37.4869122,-122.1998247,-29.20100049090385,28.830345,0.1,278.7231,1627415632999
Fix,GT,37.4869521,-122.2001479,-29.173005411088464,29.01983,0.1,278.72018,1627415633999
Fix,GT,37.4869918,-122.2004733,-29.18299901413917,29.184628,0.1,278.53918,1627415634999
Fix,GT,37.4870311,-122.2008002,-29.16900296401977,29.290075,0.1,278.41125,1627415635999
Fix,GT,37.4870713,-122.2011283,-29.19200049501657,29.451393,0.1,278.9829,1627415636999
Fix,GT,37.4871143,-122.2014576,-29.18300446373225,29.54118,0.1,279.39685,1627415637999
Fix,GT,37.4871573,-122.2017872,-29.177997017741205,29.555681,0.1,279.0024,1627415638999
Fix,GT,37.4871986,-122.2021175,-29.181998506009577,29.592539,0.1,278.70502,1627415639999
Fix,GT,37.4872391,-122.2024485,-29.16899600744248,29.624619,0.1,278.62393,1627415640999
Fix,GT,37.4872799,-122.2027797,-29.20299849975109,29.666922,0.1,278.75574,1627415641999
Fix,GT,37.487321,-122.2031114,-29.182998997807506,29.715857,0.1,278.74146,1627415642999
Fix,GT,37.4873616,-122.2034432,-29.190998995661733,29.582664,0.1,278.69128,1627415643999
Fix,GT,37.4874025,-122.203772,-29.19099949669837,29.297626,0.1,278.8351,1627415644999
Fix,GT,37.4874434,-122.2040978,-29.192997478425504,29.067694,0.1,278.86786,1627415645999
Fix,GT,37.4874833,-122.2044221,-29.195995451509955,28.983513,0.1,278.56723,1627415646999
Fix,GT,37.4875227,-122.2047462,-29.19400253200531,29.016817,0.1,278.52615,1627415647999
Fix,GT,37.4875624,-122.2050709,-29.173004059314724,29.099411,0.1,278.69385,1627415648999
Fix,GT,37.4876024,-122.2053963,-29.118996949076653,29.166477,0.1,278.74774,1627415649999
Fix,GT,37.4876434,-122.2057224,-29.05500254750252,29.23545,0.1,278.9015,1627415650999
Fix,GT,37.4876851,-122.2060494,-29.04599693727493,29.329912,0.1,279.06604,1627415651999
Fix,GT,37.4877272,-122.2063772,-29.044997442364693,29.411587,0.1,278.9548,1627415652999
Fix,GT,37.4877694,-122.2067059,-28.98300307524205,29.464401,0.1,279.11227,1627415653999
Fix,GT,37.4878129,-122.2070348,-28.99199948638677,29.52677,0.1,279.6856,1627415654999
Fix,GT,37.48786,-122.2073637,-28.92000463163853,29.589424,0.1,280.45605,1627415655999
Fix,GT,37.4879104,-122.2076927,-28.87600103139877,29.659994,0.1,281.07007,1627415656999
Fix,GT,37.4879631,-122.2080218,-28.88899689972401,29.710194,0.1,281.50592,1627415657999
Fix,GT,37.4880184,-122.2083507,-28.862003624498843,29.762657,0.1,282.15417,1627415658999
Fix,GT,37.4880769,-122.2086797,-28.846001037597656,29.871555,0.1,282.84195,1627415659999
Fix,GT,37.4881382,-122.2090092,-28.822,29.990023,0.1,283.29092,1627415660999
Fix,GT,37.4882018,-122.2093396,-28.781002083539963,30.12353,0.1,283.67328,1627415661999
Fix,GT,37.4882677,-122.2096706,-28.76899947810173,30.238905,0.1,284.14658,1627415662999
Fix,GT,37.4883352,-122.2100025,-28.718004705667497,30.333887,0.1,284.41113,1627415663999
Fix,GT,37.4884062,-122.2103342,-28.68700576382876,30.43389,0.1,285.62247,1627415664999
Fix,GT,37.4884827,-122.2106649,-28.446021002292635,30.474047,0.1,286.4892,1627415665999
Fix,GT,37.4885628,-122.2109945,-27.895031038165094,30.44956,0.1,287.21008,1627415666999
Fix,GT,37.4886456,-122.2113219,-27.044045334339145,30.310822,0.1,287.8438,1627415667999
Fix,GT,37.4887313,-122.2116467,-26.154049646735192,30.209425,0.1,288.61047,1627415668999
Fix,GT,37.4888201,-122.2119689,-25.30404761993885,30.103426,0.1,289.3275,1627415669999
Fix,GT,37.4889111,-122.2122891,-24.52504135429859,30.03197,0.1,289.76514,1627415670999
Fix,GT,37.4890033,-122.2126063,-23.68605630683899,29.596703,0.1,290.19437,1627415671999
Fix,GT,37.4890957,-122.2129165,-22.98002235531807,29.007399,0.1,290.67554,1627415672999
Fix,GT,37.4891884,-122.2132199,-22.632022397875787,28.471848,0.1,291.14133,1627415673999
Fix,GT,37.4892821,-122.2135175,-22.29200961625576,28.194883,0.1,291.8402,1627415674999
Fix,GT,37.4893779,-122.2138123,-22.116005353093147,28.139423,0.1,292.36942,1627415675999
Fix,GT,37.4894758,-122.214106,-22.06999678206444,28.178482,0.1,292.87784,1627415676999
Fix,GT,37.4895764,-122.2143988,-22.075000537276267,28.226196,0.1,293.54886,1627415677999
Fix,GT,37.4896791,-122.2146894,-22.12999084806442,27.985428,0.1,294.18643,1627415678999
Fix,GT,37.4897835,-122.2149761,-22.570966559529307,27.776932,0.1,294.77417,1627415679999
Fix,GT,37.4898898,-122.2152592,-23.102971363246443,27.575441,0.1,295.53372,1627415680999
Fix,GT,37.4899979,-122.2155388,-23.71595668888092,27.412672,0.1,296.1357,1627415681999
Fix,GT,37.4901082,-122.2158155,-24.47596203184128,27.300398,0.1,296.81772,1627415682999
Fix,GT,37.4902203,-122.2160894,-25.23196033066511,27.179575,0.1,297.3858,1627415683999
Fix,GT,37.490334,-122.2163607,-25.994957534551624,27.044874,0.1,297.94977,1627415684999
Fix,GT,37.4904498,-122.2166291,-26.783952001094818,26.94956,0.1,299.0153,1627415685999
Fix,GT,37.4905706,-122.2168928,-27.52096284103393,26.83289,0.1,300.43866,1627415686999
Fix,GT,37.490695,-122.2171519,-28.16896988594532,26.695454,0.1,301.35928,1627415687999
Fix,GT,37.4908192,-122.2174091,-28.59398080104589,26.504799,0.1,300.69012,1627415688999
Fix,GT,37.4909402,-122.2176671,-28.7749906565547,26.434317,0.1,300.10187,1627415689999
Fix,GT,37.4910589,-122.2179258,-28.80700275284052,26.357054,0.1,299.48428,1627415690999
Fix,GT,37.4911755,-122.2181854,-28.82199779367447,26.372583,0.1,299.32056,1627415691999
Fix,GT,37.491292,-122.218446,-28.79899778938293,26.479658,0.1,299.06088,1627415692999
Fix,GT,37.4914084,-122.2187084,-28.84499612432718,26.641203,0.1,298.88705,1627415693999
Fix,GT,37.4915249,-122.2189726,-28.843,26.774622,0.1,298.83694,1627415694999
Fix,GT,37.4916421,-122.2192381,-28.85800333416462,26.914837,0.1,298.99567,1627415695999
Fix,GT,37.4917608,-122.219504,-28.84499276280403,26.978107,0.1,299.2295,1627415696999
Fix,GT,37.4918802,-122.2197703,-28.86,27.078587,0.1,299.28113,1627415697999
Fix,GT,37.4920002,-122.2200378,-28.87599329519272,27.220297,0.1,299.18384,1627415698999
Fix,GT,37.4921203,-122.2203077,-28.96501511317492,27.45421,0.1,299.10535,1627415699999
Fix,GT,37.4922414,-122.2205795,-29.03199831753969,27.620916,0.1,299.12247,1627415700999
Fix,GT,37.4923634,-122.2208527,-29.06600337064266,27.777555,0.1,299.21664,1627415701999
Fix,GT,37.4924859,-122.2211278,-28.91701125574112,27.974491,0.1,299.05725,1627415702999
Fix,GT,37.4926085,-122.2214057,-28.84599943614006,28.199476,0.1,298.794,1627415703999
Fix,GT,37.4927315,-122.2216862,-28.756007343351843,28.421148,0.1,298.75876,1627415704999
Fix,GT,37.4928558,-122.2219684,-28.655006225407124,28.616306,0.1,299.05713,1627415705999
Fix,GT,37.4929824,-122.2222519,-28.500992630302907,28.86898,0.1,299.30002,1627415706999
Fix,GT,37.4931101,-122.2225376,-28.40401135826111,29.054674,0.1,299.19055,1627415707999
Fix,GT,37.493237,-122.2228262,-28.406993741154672,29.257544,0.1,298.48947,1627415708999
Fix,GT,37.4933617,-122.2231189,-28.49999031102657,29.428106,0.1,297.71545,1627415709999
Fix,GT,37.4934847,-122.2234147,-28.50499885809421,29.573498,0.1,297.36475,1627415710999
Fix,GT,37.4936073,-122.2237127,-28.498000572025777,29.710548,0.1,297.1248,1627415711999
Fix,GT,37.4937285,-122.2240127,-28.3300022919178,29.775087,0.1,296.5594,1627415712999
Fix,GT,37.4938474,-122.224315,-28.19301607179642,29.869051,0.1,295.92508,1627415713999
Fix,GT,37.493964,-122.2246198,-27.722030472159386,29.90526,0.1,295.26263,1627415714999
Fix,GT,37.4940783,-122.2249266,-27.39501900863648,29.99513,0.1,294.7182,1627415715999
Fix,GT,37.4941906,-122.2252356,-27.12401384735108,30.071112,0.1,294.26138,1627415716999
Fix,GT,37.4943014,-122.2255467,-27.04000462341309,30.192993,0.1,293.78735,1627415717999
Fix,GT,37.4944097,-122.2258603,-26.985016789257525,30.2169,0.1,293.10547,1627415718999
Fix,GT,37.4945146,-122.2261737,-26.9580011600256,29.888828,0.1,292.3308,1627415719999
Fix,GT,37.4946153,-122.2264851,-26.96499709516764,29.538073,0.1,291.89056,1627415720999
Fix,GT,37.4947129,-122.2267934,-26.9870011639595,29.139803,0.1,291.25827,1627415721999
Fix,GT,37.4948068,-122.2270987,-26.944995336532592,28.741135,0.1,290.75427,1627415722999
Fix,GT,37.4948957,-122.2274017,-27.1299818958044,28.349108,0.1,289.41998,1627415723999
Fix,GT,37.4949805,-122.2277019,-27.53797192192078,27.982752,0.1,289.6115,1627415724999
Fix,GT,37.4950655,-122.2279979,-28.08195663797856,27.678053,0.1,289.7572,1627415725999
Fix,GT,37.4951493,-122.2282912,-28.59797534406185,27.406322,0.1,289.5514,1627415726999
Fix,GT,37.4952322,-122.2285812,-28.88799118000269,27.112574,0.1,289.5404,1627415727999
Fix,GT,37.4953139,-122.2288699,-28.90800058895349,27.093765,0.1,289.79703,1627415728999
Fix,GT,37.4953995,-122.2291604,-28.912005900263782,27.689234,0.1,290.44763,1627415729999
Fix,GT,37.4954902,-122.2294556,-29.01398640745878,27.910088,0.1,291.9923,1627415730999
Fix,GT,37.495588,-122.2297412,-29.10299171209336,26.932116,0.1,293.8979,1627415731999
Fix,GT,37.495683,-122.2300101,-29.145997628211976,25.053848,0.1,293.68115,1627415732999
Fix,GT,37.4957711,-122.2302586,-29.139002970099448,23.056524,0.1,293.77457,1627415733999
Fix,GT,37.4958506,-122.2304866,-29.085002380132675,20.959333,0.1,293.49554,1627415734999
Fix,GT,37.4959235,-122.2306937,-29.21898808026313,19.209108,0.1,293.7886,1627415735999
Fix,GT,37.4959909,-122.2308858,-29.32999283528328,17.940258,0.1,293.7155,1627415736999
Fix,GT,37.496056,-122.2310622,-29.33799342185259,16.40095,0.1,296.12738,1627415737999
Fix,GT,37.4961257,-122.2312164,-29.37200119805336,15.114392,0.1,302.42282,1627415738999
Fix,GT,37.4962067,-122.2313476,-29.21001560258865,14.411705,0.1,311.31586,1627415739999
Fix,GT,37.4962991,-122.231457,-29.00401082003117,13.889502,0.1,320.30804,1627415740999
Fix,GT,37.4964008,-122.2315436,-28.895011439263826,13.439886,0.1,328.86572,1627415741999
Fix,GT,37.4965069,-122.2316097,-28.641016887903213,12.922963,0.1,336.42667,1627415742999
Fix,GT,37.4966146,-122.2316564,-28.4140144982338,12.42112,0.1,344.07767,1627415743999
Fix,GT,37.4967219,-122.2316837,-28.22300060504675,11.950507,0.1,350.79538,1627415744999
Fix,GT,37.4968237,-122.2317026,-28.0880042424202,10.899653,0.1,350.93973,1627415745999
Fix,GT,37.4969175,-122.2317283,-28.032001214027403,10.395601,0.1,345.67123,1627415746999
Fix,GT,37.4970039,-122.2317661,-28.00500364851952,9.857645,0.1,337.86896,1627415747999
Fix,GT,37.4970784,-122.2318212,-27.97900182712078,9.277143,0.1,325.28745,1627415748999
Fix,GT,37.4971384,-122.2318917,-28.008995119571686,9.017029,0.1,314.1988,1627415749999
Fix,GT,37.4971934,-122.231966,-28.08199694466591,8.868694,0.1,312.33005,1627415750999
Fix,GT,37.4972429,-122.2320427,-28.01800367248058,8.497869,0.1,307.07605,1627415751999
Fix,GT,37.4972807,-122.2321205,-27.92300183910132,7.4632916,0.1,299.07983,1627415752999
Fix,GT,37.4973055,-122.2321904,-27.873003684639933,5.971291,0.1,292.83325,1627415753999
Fix,GT,37.4973213,-122.2322409,-27.82300246024132,3.644133,0.1,291.20764,1627415754999
Fix,GT,37.4973296,-122.2322694,-27.797000616014003,1.9100683,0.1,290.5059,1627415755999
Fix,GT,37.4973342,-122.2322846,-27.778001234054564,1.089354,0.1,290.36407,1627415756999
Fix,GT,37.4973373,-122.232295,-27.76700061798096,1.0450485,0.1,290.30984,1627415757999
Fix,GT,37.4973409,-122.2323077,-27.754001237869264,1.3286383,0.1,290.24933,1627415758999
Fix,GT,37.4973456,-122.2323235,-27.74300062000752,1.7613174,0.1,290.19385,1627415759999
Fix,GT,37.4973531,-122.2323492,-27.72800186288357,3.2421708,0.1,290.12988,1627415760999
Fix,GT,37.4973661,-122.2323938,-27.679002487659453,5.126749,0.1,290.00452,1627415761999
Fix,GT,37.4973844,-122.2324565,-27.58001245737076,6.5668583,0.1,289.82266,1627415762999
Fix,GT,37.4974016,-122.2325305,-27.33101622247696,6.8533554,0.1,283.3624,1627415763999
Fix,GT,37.4973999,-122.232606,-27.16201187300682,6.4577746,0.1,263.24368,1627415764999
Fix,GT,37.4973738,-122.2326742,-27.043001877725125,6.925151,0.1,238.58553,1627415765999
Fix,GT,37.4973229,-122.2327263,-26.92200814920664,7.6036005,0.1,213.52824,1627415766999
Fix,GT,37.4972557,-122.2327645,-26.65302197772264,8.782376,0.1,202.64546,1627415767999
Fix,GT,37.4971768,-122.2328017,-26.164032705307008,9.825917,0.1,200.28632,1627415768999
Fix,GT,37.4970902,-122.2328414,-25.63703464460373,10.638496,0.1,199.85292,1627415769999
Fix,GT,37.4969966,-122.2328838,-25.05103532791137,11.467026,0.1,199.66139,1627415770999
Fix,GT,37.4968959,-122.2329299,-24.551033492207523,12.349969,0.1,200.12985,1627415771999
Fix,GT,37.4967874,-122.2329804,-24.11102404952049,13.300678,0.1,200.29799,1627415772999
Fix,GT,37.4966718,-122.2330347,-23.71902725493908,14.103887,0.1,200.45203,1627415773999
Fix,GT,37.4965524,-122.233091,-23.28001968216896,14.081352,0.1,200.52887,1627415774999
Fix,GT,37.4964346,-122.2331458,-23.09201208138466,13.791708,0.1,199.99254,1627415775999
Fix,GT,37.4963191,-122.2331982,-23.02299936312437,13.403655,0.1,199.74292,1627415776999
Fix,GT,37.4962074,-122.2332492,-23.09599298256636,13.024021,0.1,200.0003,1627415777999
Fix,GT,37.4960987,-122.2333009,-23.334967415988444,12.811027,0.1,201.70369,1627415778999
Fix,GT,37.4959937,-122.2333553,-23.673977605044843,12.279375,0.1,202.45366,1627415779999
Fix,GT,37.4958947,-122.2334074,-24.14296859741211,11.488312,0.1,202.7054,1627415780999
Fix,GT,37.495805,-122.2334556,-24.64996534156799,10.225177,0.1,203.394,1627415781999
Fix,GT,37.4957258,-122.2335032,-25.242961426258084,9.535041,0.1,206.90565,1627415782999
Fix,GT,37.4956527,-122.2335628,-25.9529478482008,9.896916,0.1,215.89255,1627415783999
Fix,GT,37.4955875,-122.2336424,-26.734949055850507,10.39056,0.1,227.84334,1627415784999
Fix,GT,37.4955344,-122.2337425,-27.61794510561228,10.963049,0.1,240.17046,1627415785999
Fix,GT,37.495498,-122.2338593,-28.333959892869,11.293465,0.1,252.90654,1627415786999
Fix,GT,37.4954835,-122.2339861,-28.85196955138445,11.435816,0.1,266.42615,1627415787999
Fix,GT,37.4954937,-122.2341144,-29.259974696934226,11.480895,0.1,280.7079,1627415788999
Fix,GT,37.4955287,-122.2342358,-29.54298310649395,11.444757,0.1,294.71857,1627415789999
Fix,GT,37.4955849,-122.2343426,-29.66599804753065,11.281023,0.1,308.0562,1627415790999
Fix,GT,37.4956579,-122.2344281,-29.66800260710716,11.008113,0.1,321.57507,1627415791999
Fix,GT,37.4957429,-122.2344883,-29.685001305580137,10.734601,0.1,334.9306,1627415792999
Fix,GT,37.4958341,-122.2345217,-29.660000653743744,10.480937,0.1,347.8927,1627415793999
Fix,GT,37.4959284,-122.234529,-29.615003273487087,10.709208,0.1,0.5343933,1627415794999
Fix,GT,37.4960256,-122.234509,-29.55900196731091,11.245748,0.1,13.643188,1627415795999
Fix,GT,37.4961208,-122.2344588,-29.51900656723976,11.79704,0.1,27.743134,1627415796999
Fix,GT,37.496206,-122.234377,-29.49200328838825,12.070583,0.1,42.91394,1627415797999
Fix,GT,37.4962709,-122.2342691,-29.507995389163494,12.018748,0.1,58.573914,1627415798999
Fix,GT,37.4963108,-122.234142,-29.51699670147896,12.361871,0.1,74.03876,1627415799999
Fix,GT,37.496323,-122.2340001,-29.49600726789236,13.11044,0.1,89.56506,1627415800999
Fix,GT,37.4963062,-122.2338473,-29.34302183514833,14.341487,0.1,101.75568,1627415801999
Fix,GT,37.4962708,-122.2336831,-29.28101391762495,15.779204,0.1,105.86542,1627415802999
Fix,GT,37.4962286,-122.2335046,-29.19500265479088,17.224115,0.1,106.81888,1627415803999
Fix,GT,37.4961807,-122.2333066,-29.18200465297699,19.378365,0.1,106.57892,1627415804999
Fix,GT,37.4961281,-122.2330861,-29.112009986758228,21.172678,0.1,106.71985,1627415805999
Fix,GT,37.4960687,-122.2328498,-29.10400133359432,22.701033,0.1,107.925934,1627415806999
Fix,GT,37.4960017,-122.2325985,-29.06900200343132,24.02478,0.1,108.461334,1627415807999
Fix,GT,37.4959311,-122.2323353,-28.999998662352564,25.019451,0.1,108.54364,1627415808999
Fix,GT,37.4958566,-122.2320645,-28.931003349483014,25.577929,0.1,109.20343,1627415809999
Fix,GT,37.4957792,-122.2317895,-28.879001341700555,25.958296,0.1,109.21765,1627415810999
Fix,GT,37.4957017,-122.2315122,-28.86100067192316,25.912523,0.1,108.990234,1627415811999
Fix,GT,37.4956262,-122.231237,-28.8220033646822,25.567696,0.1,108.933044,1627415812999
Fix,GT,37.4955515,-122.2309653,-28.867995956301687,25.251108,0.1,109.01102,1627415813999
Fix,GT,37.4954774,-122.2306973,-28.82200269961357,24.938637,0.1,109.18179,1627415814999
Fix,GT,37.495403,-122.230433,-28.831002027750014,24.631231,0.1,109.568665,1627415815999
Fix,GT,37.4953282,-122.2301727,-28.818998646259303,24.324022,0.1,109.999664,1627415816999
Fix,GT,37.4952528,-122.2299155,-28.83199728870392,24.16234,0.1,110.0726,1627415817999
Fix,GT,37.4951781,-122.2296589,-28.86199456882477,24.192875,0.1,109.97861,1627415818999
Fix,GT,37.4951031,-122.2294006,-28.86499660074711,24.478004,0.1,109.81079,1627415819999
Fix,GT,37.4950276,-122.2291377,-28.85300272345543,24.925411,0.1,109.64621,1627415820999
Fix,GT,37.4949513,-122.2288698,-28.836999318182468,25.435272,0.1,109.49567,1627415821999
Fix,GT,37.4948738,-122.2285957,-28.75500956046581,25.984135,0.1,109.275635,1627415822999
Fix,GT,37.4947957,-122.228316,-28.56701230919361,26.38182,0.1,109.17563,1627415823999
Fix,GT,37.4947166,-122.2280336,-28.15603561258316,26.531954,0.1,109.28137,1627415824999
Fix,GT,37.4946368,-122.22775,-27.77802126383781,26.65162,0.1,109.456665,1627415825999
Fix,GT,37.4945557,-122.2274658,-27.517021980285644,26.760351,0.1,109.75305,1627415826999
Fix,GT,37.494473,-122.2271816,-27.37999449682236,26.664778,0.1,110.22153,1627415827999
Fix,GT,37.4943889,-122.2268998,-27.33501239931584,26.599413,0.1,110.75214,1627415828999
Fix,GT,37.4943022,-122.2266187,-27.32999448060989,26.715326,0.1,111.26358,1627415829999
Fix,GT,37.4942136,-122.2263367,-27.33699516385793,26.895374,0.1,111.62738,1627415830999
Fix,GT,37.4941219,-122.2260542,-27.34900345915556,27.062143,0.1,112.61224,1627415831999
Fix,GT,37.4940259,-122.2257723,-27.368000692904,27.127237,0.1,113.31845,1627415832999
Fix,GT,37.4939276,-122.2254912,-27.432986816704275,27.184666,0.1,113.95804,1627415833999
Fix,GT,37.4938269,-122.2252102,-27.89795691800117,27.324383,0.1,114.2681,1627415834999
Fix,GT,37.4937245,-122.2249286,-28.19899234592915,27.39753,0.1,114.75983,1627415835999
Fix,GT,37.4936191,-122.2246483,-28.458980490207672,27.439388,0.1,115.6568,1627415836999
Fix,GT,37.4935104,-122.2243692,-28.798974877357484,27.507978,0.1,116.11157,1627415837999
Fix,GT,37.4934027,-122.224088,-28.98198392748833,27.708302,0.1,115.073425,1627415838999
Fix,GT,37.4932962,-122.2238031,-28.97900349909067,27.927544,0.1,115.25534,1627415839999
Fix,GT,37.4931858,-122.2235179,-28.94899929922819,28.160204,0.1,116.4899,1627415840999
Fix,GT,37.4930698,-122.2232334,-28.932997894465924,28.394192,0.1,117.34143,1627415841999
Fix,GT,37.4929503,-122.2229482,-28.882003514289856,28.59762,0.1,117.8963,1627415842999
Fix,GT,37.4928279,-122.2226625,-28.81501126098633,28.773872,0.1,118.44617,1627415843999
Fix,GT,37.4927031,-122.2223779,-28.75003806376457,28.545639,0.1,119.05545,1627415844999
Fix,GT,37.4925787,-122.222099,-28.78999435329437,27.966547,0.1,119.1333,1627415845999
Fix,GT,37.4924577,-122.2218274,-28.837996465742588,27.092787,0.1,119.13974,1627415846999
Fix,GT,37.4923395,-122.2215622,-28.876997876226906,26.688066,0.1,119.121216,1627415847999
Fix,GT,37.4922227,-122.2213003,-28.943992911219595,26.404842,0.1,119.137146,1627415848999
Fix,GT,37.4921069,-122.2210409,-28.935003549456592,26.217073,0.1,119.11099,1627415849999
Fix,GT,37.4919926,-122.2207833,-28.95798720371723,25.84864,0.1,118.80524,1627415850999
Fix,GT,37.4918808,-122.2205304,-28.935013526439665,25.314919,0.1,119.04532,1627415851999
Fix,GT,37.4917704,-122.2202823,-28.86900071293116,24.93825,0.1,119.0777,1627415852999
Fix,GT,37.4916617,-122.2200375,-28.816998572111128,24.711264,0.1,118.97992,1627415853999
Fix,GT,37.4915531,-122.2197924,-28.790003574788567,24.944275,0.1,118.877106,1627415854999
Fix,GT,37.4914441,-122.2195439,-28.74199928402901,25.233566,0.1,118.62012,1627415855999
Fix,GT,37.4913334,-122.2192925,-28.708006452858445,25.5752,0.1,119.01663,1627415856999
Fix,GT,37.4912199,-122.2190382,-28.683,25.958248,0.1,119.168976,1627415857999
Fix,GT,37.4911047,-122.2187802,-28.699002875804904,26.364431,0.1,119.1832,1627415858999
Fix,GT,37.4909874,-122.2185184,-28.656003600120545,26.743948,0.1,119.365295,1627415859999
Fix,GT,37.4908676,-122.2182529,-28.636005767822265,27.268087,0.1,119.45325,1627415860999
Fix,GT,37.4907451,-122.2179816,-28.609004331946377,27.883354,0.1,119.47977,1627415861999
Fix,GT,37.4906197,-122.2177046,-28.477009399831296,28.44548,0.1,119.4451,1627415862999
Fix,GT,37.4904933,-122.2174222,-28.13703330481053,28.829372,0.1,119.107544,1627415863999
Fix,GT,37.490367,-122.217136,-27.56004930210113,28.992367,0.1,118.74875,1627415864999
Fix,GT,37.4902417,-122.2168478,-26.710057362198828,29.073677,0.1,118.31036,1627415865999
Fix,GT,37.4901183,-122.2165572,-25.91906035071612,29.170269,0.1,117.73587,1627415866999
Fix,GT,37.489997,-122.2162639,-25.127061157941817,29.270525,0.1,117.10443,1627415867999
Fix,GT,37.4898774,-122.2159681,-24.307063435494896,29.40307,0.1,116.63608,1627415868999
Fix,GT,37.4897594,-122.2156694,-23.52105330145359,29.550726,0.1,116.03165,1627415869999
Fix,GT,37.4896439,-122.2153672,-22.786049723625183,29.722338,0.1,115.185486,1627415870999
Fix,GT,37.4895301,-122.2150618,-22.197056378126145,29.87454,0.1,114.903625,1627415871999
Fix,GT,37.4894175,-122.2147542,-21.882005865573884,30.020164,0.1,114.45151,1627415872999
Fix,GT,37.4893064,-122.2144438,-21.70000367075205,30.1644,0.1,113.86969,1627415873999
Fix,GT,37.4891976,-122.2141302,-21.72998750120401,30.33029,0.1,113.213776,1627415874999
Fix,GT,37.4890909,-122.2138135,-21.76099337440729,30.481766,0.1,112.458405,1627415875999
Fix,GT,37.4889878,-122.2134949,-21.92198083305359,30.295494,0.1,111.769684,1627415876999
Fix,GT,37.4888878,-122.2131777,-22.3609328289032,30.010788,0.1,111.31955,1627415877999
Fix,GT,37.4887913,-122.212862,-22.85895048046112,29.807432,0.1,110.61197,1627415878999
Fix,GT,37.4886983,-122.2125458,-23.639954849600795,29.809263,0.1,109.8136,1627415879999
Fix,GT,37.4886081,-122.212228,-24.476949599504472,29.89425,0.1,109.1633,1627415880999
Fix,GT,37.4885211,-122.2119072,-25.281932454645634,30.03246,0.1,108.293335,1627415881999
Fix,GT,37.4884376,-122.211583,-26.19293087589741,30.205456,0.1,107.52371,1627415882999
Fix,GT,37.4883564,-122.2112559,-27.04393897366524,30.413385,0.1,107.047424,1627415883999
Fix,GT,37.4882768,-122.2109258,-27.808953799009327,30.5899,0.1,106.63208,1627415884999
Fix,GT,37.4881987,-122.2105933,-28.28497686624527,30.694529,0.1,106.12906,1627415885999
Fix,GT,37.4881228,-122.2102592,-28.444994769573213,30.742443,0.1,105.62042,1627415886999
Fix,GT,37.4880494,-122.2099245,-28.518997755527497,30.58376,0.1,105.157715,1627415887999
Fix,GT,37.4879791,-122.2095922,-28.548,30.22083,0.1,104.43591,1627415888999
Fix,GT,37.4879134,-122.209263,-28.59199924975633,29.815178,0.1,103.568665,1627415889999
Fix,GT,37.4878527,-122.2089368,-28.624996243715287,29.429321,0.1,102.736084,1627415890999
Fix,GT,37.4877957,-122.208614,-28.73498946738243,29.04405,0.1,102.24274,1627415891999
Fix,GT,37.4877413,-122.2082948,-28.801993219912053,28.681734,0.1,101.84082,1627415892999
Fix,GT,37.4876893,-122.2079794,-28.816001508831977,28.28743,0.1,101.44275,1627415893999
Fix,GT,37.4876402,-122.2076677,-28.849995467782023,27.909517,0.1,100.78201,1627415894999
Fix,GT,37.4875943,-122.2073595,-28.92299848723412,27.546144,0.1,100.0968,1627415895999
Fix,GT,37.487553,-122.2070544,-28.970992425441743,27.207571,0.1,99.085144,1627415896999
Fix,GT,37.4875152,-122.2067523,-29.0309977247715,26.88219,0.1,98.78995,1627415897999
Fix,GT,37.4874785,-122.2064524,-29.11099012750387,26.822117,0.1,98.48755,1627415898999
Fix,GT,37.4874432,-122.2061522,-29.127999239504337,26.855593,0.1,98.180725,1627415899999
Fix,GT,37.4874087,-122.2058513,-29.14699619275332,26.927893,0.1,98.04706,1627415900999
Fix,GT,37.4873742,-122.2055489,-29.235995425224303,27.172102,0.1,98.066986,1627415901999
Fix,GT,37.4873388,-122.2052423,-29.268994655251504,27.619444,0.1,98.345856,1627415902999
Fix,GT,37.4873011,-122.2049313,-29.32800076454878,28.037462,0.1,98.78143,1627415903999
Fix,GT,37.4872615,-122.204616,-29.30599923437834,28.434805,0.1,98.96454,1627415904999
Fix,GT,37.4872208,-122.2042959,-29.355,28.911089,0.1,98.94623,1627415905999
Fix,GT,37.4871801,-122.2039704,-29.30300153517724,29.287027,0.1,98.72177,1627415906999
Fix,GT,37.4871394,-122.2036445,-29.2750007686615,29.032255,0.1,98.93805,1627415907999
Fix,GT,37.4870985,-122.2033218,-29.26299692130089,28.803778,0.1,98.94293,1627415908999
Fix,GT,37.487058,-122.2030001,-29.24900077062845,28.793972,0.1,98.67166,1627415909999
Fix,GT,37.4870188,-122.2026781,-29.23000077170133,28.850801,0.1,98.50198,1627415910999
Fix,GT,37.4869802,-122.2023548,-29.18800463593006,28.980183,0.1,98.44351,1627415911999
Fix,GT,37.4869407,-122.20203,-29.17600541526079,29.129581,0.1,98.69025,1627415912999
Fix,GT,37.4869005,-122.2017037,-29.147006196975703,29.323502,0.1,98.809265,1627415913999
Fix,GT,37.4868593,-122.2013746,-29.15899767291545,29.606321,0.1,98.83212,1627415914999
Fix,GT,37.4868178,-122.2010425,-29.16200077664852,29.816309,0.1,98.83023,1627415915999
Fix,GT,37.4867759,-122.2007084,-29.1780015553236,30.026785,0.1,98.95352,1627415916999
Fix,GT,37.4867334,-122.2003717,-29.192000778734684,30.241861,0.1,98.83386,1627415917999
Fix,GT,37.486691,-122.200034,-29.19300389844179,30.205276,0.1,98.861145,1627415918999
Fix,GT,37.4866489,-122.1996978,-29.21599765789509,29.945946,0.1,98.81433,1627415919999
Fix,GT,37.4866075,-122.1993652,-29.227003127098083,29.58213,0.1,98.76172,1627415920999
Fix,GT,37.4865666,-122.1990367,-29.240996086359026,29.220251,0.1,98.603455,1627415921999
Fix,GT,37.4865277,-122.1987122,-29.21600470244885,28.815474,0.1,98.37503,1627415922999
Fix,GT,37.4864894,-122.1983923,-29.206996075928213,28.44026,0.1,98.461945,1627415923999
Fix,GT,37.4864515,-122.1980761,-29.217996856689453,28.095808,0.1,98.4527,1627415924999
Fix,GT,37.4864137,-122.197764,-29.24799449169636,27.74621,0.1,98.650116,1627415925999
Fix,GT,37.4863757,-122.197456,-29.243004727482795,27.355612,0.1,98.804565,1627415926999
Fix,GT,37.4863384,-122.1971565,-29.275996844053267,26.150042,0.1,98.81131,1627415927999
Fix,GT,37.4863029,-122.1968716,-29.276996839761736,24.93717,0.1,98.84885,1627415928999
Fix,GT,37.4862684,-122.1965987,-29.3170015822649,23.987911,0.1,99.09396,1627415929999
Fix,GT,37.4862326,-122.1963354,-29.341,23.373186,0.1,100.212585,1627415930999
Fix,GT,37.4861929,-122.1960776,-29.35200079321861,23.094849,0.1,101.25131,1627415931999
Fix,GT,37.4861517,-122.1958213,-29.36599920576811,23.26526,0.1,101.26544,1627415932999
Fix,GT,37.4861121,-122.1955602,-29.36899443286657,23.72072,0.1,100.104065,1627415933999
Fix,GT,37.4860751,-122.1952935,-29.376000796318056,24.116503,0.1,99.54053,1627415934999
Fix,GT,37.4860389,-122.1950248,-29.388,24.02187,0.1,99.49054,1627415935999
Fix,GT,37.4860033,-122.1947583,-29.36799600797892,23.771635,0.1,99.19827,1627415936999
Fix,GT,37.4859693,-122.1944945,-29.367003197431565,23.47951,0.1,98.97711,1627415937999
Fix,GT,37.4859363,-122.1942331,-29.37799839925766,23.408049,0.1,98.6496,1627415938999
Fix,GT,37.4859045,-122.19397,-29.365999198555947,23.69697,0.1,98.48074,1627415939999
Fix,GT,37.485872,-122.1937028,-29.34100160479546,24.108412,0.1,98.63623,1627415940999
Fix,GT,37.4858388,-122.1934312,-29.318007230699063,24.506458,0.1,98.60272,1627415941999
Fix,GT,37.4858054,-122.1931549,-29.29000321793556,24.925127,0.1,98.479126,1627415942999
Fix,GT,37.4857718,-122.1928742,-29.256,25.258125,0.1,98.38483,1627415943999
Fix,GT,37.4857379,-122.1925901,-29.218004032254218,25.550508,0.1,98.41626,1627415944999
Fix,GT,37.4857028,-122.1923026,-29.18500242257118,25.92178,0.1,98.71625,1627415945999
Fix,GT,37.4856669,-122.1920112,-29.15100242561102,26.217615,0.1,98.70151,1627415946999
Fix,GT,37.4856302,-122.191717,-29.09600485765934,26.452013,0.1,98.85715,1627415947999
Fix,GT,37.4855928,-122.1914203,-29.058006484985352,26.668806,0.1,99.000854,1627415948999
Fix,GT,37.4855544,-122.1911213,-29.03400811696052,26.897491,0.1,99.059814,1627415949999
Fix,GT,37.4855156,-122.1908215,-29.039999187350272,26.749996,0.1,99.09271,1627415950999
Fix,GT,37.4854777,-122.1905245,-29.006000813663004,26.457308,0.1,98.90506,1627415951999
Fix,GT,37.485441,-122.1902306,-29.02800733155012,26.15417,0.1,98.663574,1627415952999
Fix,GT,37.4854054,-122.1899394,-28.94401305103302,26.026258,0.1,98.653015,1627415953999
Fix,GT,37.4853695,-122.1896477,-29.004995916485782,26.23513,0.1,98.72516,1627415954999
Fix,GT,37.4853326,-122.1893528,-28.99899509334564,26.58634,0.1,98.95502,1627415955999
Fix,GT,37.4852934,-122.1890543,-28.947009006023407,26.930243,0.1,99.74411,1627415956999
Fix,GT,37.4852498,-122.1887531,-28.938006557941435,27.170446,0.1,100.571594,1627415957999
Fix,GT,37.4852031,-122.1884517,-28.921009028971195,27.07327,0.1,101.31549,1627415958999
Fix,GT,37.4851537,-122.1881536,-28.88699589085579,26.786308,0.1,102.03943,1627415959999
Fix,GT,37.485102,-122.1878594,-28.900002468347548,26.489635,0.1,102.606964,1627415960999
Fix,GT,37.4850489,-122.1875693,-28.852006590843203,26.127447,0.1,102.98154,1627415961999
Fix,GT,37.4849958,-122.1872866,-28.840997525393966,25.249653,0.1,103.12784,1627415962999
Fix,GT,37.4849436,-122.1870137,-28.826001651883125,24.444218,0.1,103.674835,1627415963999
Fix,GT,37.484891,-122.1867484,-28.815998346209525,23.997484,0.1,104.0473,1627415964999
Fix,GT,37.4848381,-122.1864867,-28.79600165581704,23.771196,0.1,104.237915,1627415965999
Fix,GT,37.4847844,-122.1862265,-28.734,23.870327,0.1,104.54596,1627415966999
Fix,GT,37.4847292,-122.1859638,-28.717006639957425,24.211645,0.1,104.77765,1627415967999
Fix,GT,37.4846714,-122.1856993,-28.691,24.19063,0.1,105.62518,1627415968999
Fix,GT,37.4846116,-122.1854379,-28.667,23.880976,0.1,106.27304,1627415969999
Fix,GT,37.4845507,-122.185182,-28.654,23.403605,0.1,106.90704,1627415970999
Fix,GT,37.4844887,-122.184931,-28.625000834167004,23.099518,0.1,107.38974,1627415971999
Fix,GT,37.4844258,-122.1846838,-28.591006681442263,22.806189,0.1,107.82349,1627415972999
Fix,GT,37.4843622,-122.1844409,-28.526008362531662,22.399464,0.1,108.80588,1627415973999
Fix,GT,37.4842932,-122.184205,-28.462002511799337,22.065563,0.1,111.30435,1627415974999
Fix,GT,37.4842188,-122.1839776,-28.39700083822012,21.295578,0.1,113.02185,1627415975999
Fix,GT,37.4841441,-122.1837627,-28.344999160707,20.179712,0.1,114.03589,1627415976999
Fix,GT,37.4840703,-122.18356,-28.29399747908116,19.260286,0.1,114.73425,1627415977999
Fix,GT,37.4839986,-122.1833678,-28.26600168251991,18.285498,0.1,115.35986,1627415978999
Fix,GT,37.4839282,-122.1831868,-28.2549915766716,17.278666,0.1,116.81201,1627415979999
Fix,GT,37.4838544,-122.1830205,-28.24999831342697,16.588417,0.1,121.07291,1627415980999
Fix,GT,37.4837698,-122.1828689,-28.114016885995863,16.238802,0.1,127.90726,1627415981999
Fix,GT,37.4836731,-122.1827326,-27.947004227161404,16.107792,0.1,134.3078,1627415982999
Fix,GT,37.4835647,-122.18261,-27.82501354217529,16.307295,0.1,140.66022,1627415983999
Fix,GT,37.4834452,-122.1825053,-27.694022881388666,16.047762,0.1,148.71014,1627415984999
Fix,GT,37.4833174,-122.1824263,-27.4730229087472,15.62351,0.1,157.32214,1627415985999
Fix,GT,37.4831879,-122.1823686,-27.204027185440065,14.761977,0.1,162.03601,1627415986999
Fix,GT,37.4830663,-122.1823188,-26.85303232121468,13.548632,0.1,161.56726,1627415987999
Fix,GT,37.4829591,-122.1822695,-26.37504342710972,11.693812,0.1,158.474,1627415988999
Fix,GT,37.4828667,-122.1822177,-25.889040924072265,10.856011,0.1,154.2096,1627415989999
Fix,GT,37.4827837,-122.1821597,-25.412037558317184,10.214496,0.1,149.10455,1627415990999
Fix,GT,37.4827088,-122.1820984,-25.101019656062125,9.620791,0.1,145.83847,1627415991999
Fix,GT,37.4826409,-122.182037,-24.905014546632767,8.834483,0.1,142.80414,1627415992999
Fix,GT,37.4825867,-122.1819721,-24.7940128504634,7.9127603,0.1,132.07062,1627415993999
Fix,GT,37.4825526,-122.1818952,-24.638014582097533,7.733178,0.1,113.29901,1627415994999
Fix,GT,37.4825442,-122.1818061,-24.38902833789587,8.082358,0.1,89.86005,1627415995999
Fix,GT,37.4825659,-122.1817163,-24.048045566082,8.532779,0.1,67.06796,1627415996999
Fix,GT,37.4826059,-122.1816289,-23.49604992699623,9.269471,0.1,58.581757,1627415997999
Fix,GT,37.4826543,-122.1815386,-22.91005170941353,9.974462,0.1,55.65454,1627415998999
Fix,GT,37.4827069,-122.1814437,-22.316049185097217,10.411029,0.1,55.00818,1627415999999
Fix,GT,37.4827618,-122.1813471,-21.761046647906305,10.568345,0.1,54.299988,1627416000999
Fix,GT,37.4828181,-122.1812509,-21.24804410803318,10.453519,0.1,53.420105,1627416001999
Fix,GT,37.4828741,-122.1811592,-20.80103290557861,9.960185,0.1,52.08481,1627416002999
Fix,GT,37.4829294,-122.1810748,-20.455029476284977,9.2708,0.1,49.850647,1627416003999
Fix,GT,37.4829816,-122.1810032,-20.21501736044884,7.8554645,0.1,46.67383,1627416004999
Fix,GT,37.4830289,-122.1809434,-20.034011297464367,7.225966,0.1,44.936676,1627416005999
Fix,GT,37.4830751,-122.1808874,-19.90201044130325,7.124413,0.1,43.69348,1627416006999
Fix,GT,37.4831231,-122.1808315,-19.774013066828253,7.3687725,0.1,42.681335,1627416007999
Fix,GT,37.483173,-122.1807761,-19.66300610494613,7.347249,0.1,41.18985,1627416008999
Fix,GT,37.4832231,-122.1807233,-19.60100349259376,7.162281,0.1,39.77643,1627416009999
Fix,GT,37.4832736,-122.1806723,-19.55200349664688,7.3804097,0.1,38.545715,1627416010999
Fix,GT,37.4833282,-122.1806194,-19.508006126224995,7.827886,0.1,37.427185,1627416011999
Fix,GT,37.4833856,-122.1805659,-19.50299824750424,8.015525,0.1,36.292297,1627416012999
Fix,GT,37.4834443,-122.1805136,-19.52799561369419,7.95333,0.1,35.146057,1627416013999
Fix,GT,37.4835045,-122.1804622,-19.597992973327635,8.346715,0.1,33.99768,1627416014999
Fix,GT,37.4835708,-122.1804079,-19.676993843734262,9.222247,0.1,32.85141,1627416015999
Fix,GT,37.4836433,-122.1803504,-19.82898150992394,9.644507,0.1,32.209137,1627416016999
Fix,GT,37.483716,-122.1802909,-19.99298237013817,9.644019,0.1,33.885254,1627416017999
Fix,GT,37.4837869,-122.1802273,-20.225974405586715,9.733428,0.1,36.1958,1627416018999
Fix,GT,37.4838543,-122.1801563,-20.602958471775057,9.860285,0.1,43.32602,1627416019999
Fix,GT,37.4839067,-122.1800665,-21.16294072830677,9.960389,0.1,58.720367,1627416020999
Fix,GT,37.4839386,-122.1799598,-21.90092915153503,10.345261,0.1,74.5148,1627416021999
Fix,GT,37.4839461,-122.1798412,-22.77491665780544,10.8744,0.1,90.83533,1627416022999
Fix,GT,37.4839257,-122.1797196,-23.769914781570435,11.192728,0.1,107.57358,1627416023999
Fix,GT,37.4838767,-122.1796094,-24.76590846335888,11.272083,0.1,125.62714,1627416024999
Fix,GT,37.4838013,-122.1795242,-25.81191814041138,11.466983,0.1,144.28009,1627416025999
Fix,GT,37.4837063,-122.1794724,-26.69792695510388,11.696307,0.1,162.93243,1627416026999
Fix,GT,37.4836015,-122.1794586,-27.424949163734915,11.838578,0.1,179.64459,1627416027999
Fix,GT,37.4834979,-122.1794834,-27.87897142791748,11.721105,0.1,197.12016,1627416028999
Fix,GT,37.4834068,-122.1795467,-28.0309919539094,11.599992,0.1,215.5536,1627416029999
Fix,GT,37.4833381,-122.1796436,-28.03300268507004,11.491362,0.1,235.76833,1627416030999
Fix,GT,37.4833008,-122.1797628,-27.97500089609624,11.3938,0.1,255.52347,1627416031999
Fix,GT,37.4832933,-122.1798925,-27.893004485547543,11.850934,0.1,271.2625,1627416032999
Fix,GT,37.4833108,-122.1800295,-27.66401436901093,12.890085,0.1,283.3946,1627416033999
Fix,GT,37.4833512,-122.1801735,-27.532013487935068,14.215597,0.1,292.20712,1627416034999
Fix,GT,37.4834076,-122.1803254,-27.48700450134277,15.336938,0.1,295.9789,1627416035999
Fix,GT,37.4834729,-122.1804948,-27.533994592309,18.252348,0.1,295.46204,1627416036999
Fix,GT,37.4835466,-122.1806949,-27.49499819540977,20.627176,0.1,294.19858,1627416037999
Fix,GT,37.4836253,-122.1809203,-27.440001806736,22.893461,0.1,293.28333,1627416038999
Fix,GT,37.4837098,-122.1811705,-27.47598824304342,25.156979,0.1,292.46335,1627416039999
Fix,GT,37.483796,-122.1814425,-27.3660099606514,26.383984,0.1,290.9932,1627416040999
Fix,GT,37.4838801,-122.1817249,-27.41299728024006,26.8503,0.1,290.1161,1627416041999
Fix,GT,37.4839632,-122.1820084,-27.43599001640081,26.588634,0.1,290.2721,1627416042999
Fix,GT,37.4840448,-122.18229,-27.474000908613203,26.392544,0.1,289.48,1627416043999
Fix,GT,37.4841219,-122.1825715,-27.52999545156956,26.348755,0.1,288.5075,1627416044999
Fix,GT,37.4841974,-122.182856,-27.565005464196208,26.775097,0.1,288.70938,1627416045999
Fix,GT,37.4842778,-122.1831436,-27.612989058732985,27.155247,0.1,289.67844,1627416046999
Fix,GT,37.4843608,-122.1834351,-27.672993609666825,27.614552,0.1,289.40067,1627416047999
Fix,GT,37.4844432,-122.1837326,-27.756989032983785,28.071663,0.1,288.80194,1627416048999
Fix,GT,37.4845239,-122.1840359,-27.865989934444425,28.478823,0.1,288.01685,1627416049999
Fix,GT,37.4846033,-122.1843442,-27.93399541968107,28.82437,0.1,287.7523,1627416050999
Fix,GT,37.4846827,-122.1846564,-27.97699358004332,29.131187,0.1,287.51935,1627416051999
Fix,GT,37.4847612,-122.1849725,-28.01999449110032,29.415554,0.1,286.9941,1627416052999
Fix,GT,37.484838,-122.1852914,-28.039990807771684,29.498438,0.1,286.50534,1627416053999
Fix,GT,37.4849126,-122.1856118,-28.06799631905556,29.544659,0.1,285.99243,1627416054999
Fix,GT,37.4849851,-122.1859339,-28.121994472146035,29.671633,0.1,285.45294,1627416055999
Fix,GT,37.4850555,-122.1862585,-28.144996310710905,29.831274,0.1,284.85513,1627416056999
Fix,GT,37.4851231,-122.1865854,-28.189006463348864,29.911251,0.1,284.20657,1627416057999
Fix,GT,37.4851883,-122.1869139,-28.22099445390701,29.9508,0.1,283.66455,1627416058999
Fix,GT,37.4852507,-122.1872435,-28.24699629855156,29.977976,0.1,282.90323,1627416059999
Fix,GT,37.4853095,-122.187574,-28.270000926375392,29.903822,0.1,282.21796,1627416060999
Fix,GT,37.4853652,-122.1879043,-28.29399536305666,29.807116,0.1,281.63318,1627416061999
Fix,GT,37.4854184,-122.1882343,-28.321992572784424,29.749838,0.1,281.2175,1627416062999
Fix,GT,37.48547,-122.1885647,-28.36300185883045,29.823772,0.1,280.8395,1627416063999
Fix,GT,37.4855194,-122.1888968,-28.37999906951189,29.925581,0.1,280.27606,1627416064999
Fix,GT,37.4855661,-122.1892305,-28.40299347949028,29.994236,0.1,279.5608,1627416065999
Fix,GT,37.48561,-122.1895654,-28.45199906742573,30.054258,0.1,279.03894,1627416066999
Fix,GT,37.4856518,-122.1899018,-28.504995332062244,30.16617,0.1,278.60364,1627416067999
Fix,GT,37.4856926,-122.1902405,-28.59199252271652,30.422674,0.1,278.48608,1627416068999
Fix,GT,37.4857338,-122.1905818,-28.69799438595772,30.637732,0.1,278.57294,1627416069999
Fix,GT,37.4857757,-122.1909253,-28.71199625301361,30.850863,0.1,278.708,1627416070999
Fix,GT,37.4858185,-122.1912713,-28.76599249792099,31.085594,0.1,278.7507,1627416071999
Fix,GT,37.4858614,-122.1916197,-28.80199718368053,31.238773,0.1,278.62094,1627416072999
Fix,GT,37.4859036,-122.1919692,-28.854995300769808,31.236519,0.1,278.52078,1627416073999
Fix,GT,37.4859464,-122.1923166,-28.893998118281363,30.957182,0.1,278.99973,1627416074999
Fix,GT,37.4859905,-122.1926614,-28.939001883864403,30.817799,0.1,279.0133,1627416075999
Fix,GT,37.4860343,-122.1930046,-28.9849915124178,30.666649,0.1,278.9865,1627416076999
Fix,GT,37.4860776,-122.1933456,-29.033000944077973,30.388672,0.1,279.00204,1627416077999
Fix,GT,37.4861204,-122.1936831,-29.07598582363129,30.049915,0.1,278.80014,1627416078999
Fix,GT,37.486161,-122.1940172,-29.116002838492392,29.7153,0.1,278.4897,1627416079999
Fix,GT,37.4862012,-122.1943473,-29.16299526411295,29.393593,0.1,278.73328,1627416080999
