MessageType,Provider,LatitudeDegrees,LongitudeDegrees,AltitudeMeters,SpeedMps,AccuracyMeters,BearingDegrees,UnixTimeMillis
Fix,GT,37.5240094,-122.3499203,147.275,0.001,0.1,83.476456,1626295844000
Fix,GT,37.5240094,-122.3499203,147.27499765112591,0.001,0.1,83.4765,1626295845000
Fix,GT,37.5240094,-122.3499203,147.27499941706776,0.001413655,0.1,83.47653,1626295846000
Fix,GT,37.5240094,-122.3499203,147.27500120015466,0.0010013477,0.1,83.47638,1626295847000
Fix,GT,37.5240094,-122.3499203,147.2750029832416,0.0010016643,0.1,83.47659,1626295848000
Fix,GT,37.5240094,-122.3499203,147.27500181737707,1.9023576e-06,0.1,83.476776,1626295849000
Fix,GT,37.5240094,-122.3499203,147.2750021259883,0.001412313,0.1,83.47662,1626295850000
Fix,GT,37.5240094,-122.3499203,147.274999485648,0.001,0.1,83.476166,1626295851000
Fix,GT,37.5240094,-122.3499203,147.27499686245284,0.001997317,0.1,83.47583,1626295852000
Fix,GT,37.5240094,-122.3499203,147.2750015259109,0.0010028983,0.1,83.476776,1626295853000
Fix,GT,37.5240094,-122.3499203,147.27499888557068,0.0014142136,0.1,83.4762,1626295854000
Fix,GT,37.5240094,-122.3499203,147.27499624523043,0.0014123215,0.099,83.475525,1626295855000
Fix,GT,37.5240094,-122.3499203,147.27500238316424,0.0010016523,0.1,83.47568,1626295856000
Fix,GT,37.5240094,-122.3499203,147.27499975996906,0.001,0.1,83.47565,1626295857000
Fix,GT,37.5240094,-122.3499203,147.27499711962884,0.0014142136,0.1,83.475586,1626295858000
Fix,GT,37.5240094,-122.3499203,147.2749959537643,0.0014136613,0.1,83.475525,1626295859000
Fix,GT,37.5240094,-122.3499203,147.27500356617384,0.0010005517,0.1,83.475494,1626295860000
Fix,GT,37.5240094,-122.3499203,147.2750009258336,0.0022349744,0.1,83.4754,1626295861000
Fix,GT,37.5240094,-122.3499203,147.27500413196103,1.3294501e-06,0.1,83.4754,1626295862000
Fix,GT,37.5240094,-122.3499203,147.27499706819364,0.0,0.1,83.47519,1626295863000
Fix,GT,37.5240094,-122.3499203,147.27500173165174,0.000998673,0.1,83.474945,1626295864000
Fix,GT,37.5240094,-122.3499203,147.27499909131149,0.0009986743,0.1,83.47507,1626295865000
Fix,GT,37.5240094,-122.3499203,147.2750022974389,0.001413665,0.1,83.47513,1626295866000
Fix,GT,37.5240094,-122.3499203,147.27499818262294,0.001,0.1,83.47504,1626295867000
Fix,GT,37.5240094,-122.3499203,147.27400138874097,0.0010005477,0.1,83.47528,1626295868000
Fix,GT,37.5240095,-122.3499203,147.27199595310992,0.023400905,0.1,83.47623,1626295869000
Fix,GT,37.5240099,-122.3499156,147.2550007720649,0.91810334,0.1,83.59973,1626295870000
Fix,GT,37.5240099,-122.3498998,147.21099402355787,1.893701,0.1,87.026794,1626295871000
Fix,GT,37.5240057,-122.3498739,147.18199064661863,2.7710135,0.1,97.69684,1626295872000
Fix,GT,37.5239942,-122.3498407,147.13099631768256,3.6854134,0.1,111.29056,1626295873000
Fix,GT,37.5239735,-122.3498006,147.03898327477833,4.754473,0.1,122.623505,1626295874000
Fix,GT,37.5239423,-122.3497579,147.01801170546958,5.517317,0.1,133.56818,1626295875000
Fix,GT,37.5239026,-122.3497155,147.125009319972,5.976048,0.1,141.0982,1626295876000
Fix,GT,37.5238571,-122.3496817,147.20900200505417,5.798234,0.1,150.88977,1626295877000
Fix,GT,37.5238092,-122.349658,147.14299187701195,5.664092,0.1,159.46344,1626295878000
Fix,GT,37.5237618,-122.3496394,147.18401389098565,5.3170447,0.1,161.92041,1626295879000
Fix,GT,37.5237199,-122.3496166,147.35303041781742,4.738189,0.1,155.40979,1626295880000
Fix,GT,37.5236875,-122.3495917,147.53402235599978,3.6212666,0.1,148.21503,1626295881000
Fix,GT,37.5236641,-122.3495698,147.73702371995873,2.845933,0.1,143.77545,1626295882000
Fix,GT,37.5236453,-122.3495515,147.9330205560031,2.443268,0.1,142.62122,1626295883000
Fix,GT,37.5236257,-122.3495393,147.942016243762,2.4571965,0.099,152.3775,1626295884000
Fix,GT,37.5236041,-122.349541,147.81397129218092,2.3813446,0.1,175.3595,1626295885000
Fix,GT,37.5235832,-122.3495553,147.89200932241965,2.8090627,0.1,200.62648,1626295886000
Fix,GT,37.5235629,-122.3495812,147.91699645571074,3.6556077,0.1,221.86746,1626295887000
Fix,GT,37.5235394,-122.3496181,147.84098119945463,4.706174,0.1,229.68398,1626295888000
Fix,GT,37.5235096,-122.3496637,147.6899781166448,5.7326894,0.1,230.83421,1626295889000
Fix,GT,37.5234755,-122.3497167,147.46797326338708,6.192223,0.1,230.65927,1626295890000
Fix,GT,37.5234397,-122.349771,147.2119653078669,6.1996818,0.1,230.14653,1626295891000
Fix,GT,37.5234047,-122.349823,146.95996787571397,5.7186522,0.1,229.66077,1626295892000
Fix,GT,37.5233747,-122.3498674,146.75497607267928,4.4452696,0.1,229.39603,1626295893000
Fix,GT,37.5233538,-122.3498979,146.6279894304442,2.6267087,0.1,229.32002,1626295894000
Fix,GT,37.5233432,-122.3499134,146.56899905909074,1.0460349,0.1,229.2921,1626295895000
Fix,GT,37.5233363,-122.3499236,146.52198947686517,1.5875616,0.1,229.28796,1626295896000
Fix,GT,37.5233229,-122.3499433,146.46499247685074,3.038844,0.1,229.43793,1626295897000
Fix,GT,37.5233015,-122.3499758,146.41799634564356,4.312203,0.1,230.0492,1626295898000
Fix,GT,37.5232767,-122.3500134,146.40199898847845,4.235168,0.1,230.3176,1626295899000
Fix,GT,37.5232534,-122.3500492,146.46101150157492,3.9232347,0.1,230.66019,1626295900000
Fix,GT,37.5232321,-122.3500822,146.53100851289415,3.5630739,0.1,231.02834,1626295901000
Fix,GT,37.5232133,-122.350112,146.6300131429081,3.162625,0.1,231.32965,1626295902000
Fix,GT,37.5231967,-122.3501383,146.73601484115176,2.8170762,0.1,231.48924,1626295903000
Fix,GT,37.5231816,-122.3501622,146.83401055451574,2.5776577,0.1,231.43118,1626295904000
Fix,GT,37.5231676,-122.3501842,146.94001480397768,2.4033456,0.1,231.36615,1626295905000
Fix,GT,37.5231546,-122.3502049,147.05001087754687,2.27764,0.1,231.30493,1626295906000
Fix,GT,37.5231418,-122.350225,147.14601171657463,2.4290693,0.1,231.21347,1626295907000
Fix,GT,37.5231256,-122.3502496,147.2690175738747,3.210074,0.099,230.56564,1626295908000
Fix,GT,37.5231043,-122.3502821,147.45402857490583,4.3142133,0.1,230.28941,1626295909000
Fix,GT,37.5230755,-122.3503249,147.69603917738516,5.5659504,0.1,229.62285,1626295910000
Fix,GT,37.5230396,-122.3503774,147.96304278563323,6.652199,0.1,229.18077,1626295911000
Fix,GT,37.5229982,-122.3504376,148.34004805513587,7.147519,0.1,229.13715,1626295912000
Fix,GT,37.5229574,-122.3504974,148.69204491228658,6.7022085,0.1,229.33955,1626295913000
Fix,GT,37.5229223,-122.3505495,148.97903499737663,5.107097,0.1,229.72168,1626295914000
Fix,GT,37.5228989,-122.3505846,149.17700887217245,2.9968882,0.099,230.00267,1626295915000
Fix,GT,37.5228852,-122.3506057,149.2630127146293,2.2798665,0.1,230.63704,1626295916000
Fix,GT,37.522872,-122.3506291,149.3490112398297,2.8463342,0.1,234.1619,1626295917000
Fix,GT,37.5228615,-122.3506617,149.4370119458423,3.2978084,0.1,247.11295,1626295918000
Fix,GT,37.5228621,-122.3506991,149.42098314765107,3.3401234,0.1,268.92773,1626295919000
Fix,GT,37.5228758,-122.3507365,149.40801071780197,4.064321,0.1,292.7959,1626295920000
Fix,GT,37.5229031,-122.3507769,149.41099792597467,5.449604,0.099,309.94217,1626295921000
Fix,GT,37.5229433,-122.3508266,149.39499237514954,7.090856,0.1,315.8382,1626295922000
Fix,GT,37.5229969,-122.3508876,149.29598194167588,8.929458,0.099,318.1266,1626295923000
Fix,GT,37.523063,-122.3509596,149.06195036503115,10.601645,0.1,319.33624,1626295924000
Fix,GT,37.523141,-122.3510435,148.53091810737993,11.955547,0.1,319.12433,1626295925000
Fix,GT,37.5232247,-122.3511328,147.82890343111904,12.399349,0.1,319.6225,1626295926000
Fix,GT,37.5233119,-122.3512253,147.047888159803,12.937438,0.1,319.85986,1626295927000
Fix,GT,37.5234028,-122.351322,146.183899959016,13.516378,0.1,319.7339,1626295928000
Fix,GT,37.5234981,-122.3514224,145.30989178859187,14.077662,0.1,319.76306,1626295929000
Fix,GT,37.5235957,-122.3515266,144.51591310827982,14.333808,0.1,319.54434,1626295930000
Fix,GT,37.5236947,-122.3516317,143.90294079615526,14.418342,0.1,319.8905,1626295931000
Fix,GT,37.5237945,-122.3517363,143.40694731621167,14.425656,0.1,320.07333,1626295932000
Fix,GT,37.523894,-122.3518409,142.9329387172032,14.421467,0.1,319.9996,1626295933000
Fix,GT,37.5239937,-122.3519457,142.43893102794627,14.427291,0.1,319.9101,1626295934000
Fix,GT,37.5240933,-122.3520508,141.90493890665076,14.448583,0.099,319.7995,1626295935000
Fix,GT,37.5241927,-122.3521564,141.40893951128737,14.466946,0.1,319.5518,1626295936000
Fix,GT,37.5242914,-122.3522611,140.9369490107787,13.992917,0.1,319.79968,1626295937000
Fix,GT,37.5243823,-122.3523565,140.50493635002107,12.188472,0.1,320.1248,1626295938000
Fix,GT,37.5244592,-122.3524377,140.06096643791116,10.068725,0.1,319.67288,1626295939000
Fix,GT,37.5245204,-122.3525034,139.75996299763744,7.7473817,0.1,319.29892,1626295940000
Fix,GT,37.5245657,-122.3525515,139.51697419414694,5.485128,0.1,319.74634,1626295941000
Fix,GT,37.5245965,-122.3525846,139.34998044945718,3.527613,0.1,319.61664,1626295942000
Fix,GT,37.5246146,-122.352604,139.26100175407902,1.8604683,0.1,319.49475,1626295943000
Fix,GT,37.5246253,-122.3526155,139.21899446527624,1.6880417,0.1,319.40506,1626295944000
Fix,GT,37.5246395,-122.3526322,139.1549910194117,2.7134812,0.1,317.48373,1626295945000
Fix,GT,37.5246572,-122.3526617,139.07599249754193,3.704248,0.1,307.43686,1626295946000
Fix,GT,37.5246689,-122.3527047,139.01199764499069,4.034602,0.1,288.40646,1626295947000
Fix,GT,37.524665,-122.3527519,138.87298042111365,4.288318,0.1,263.1761,1626295948000
Fix,GT,37.5246445,-122.3527981,138.70997807337622,4.8964953,0.1,239.8613,1626295949000
Fix,GT,37.5246148,-122.3528452,138.52797238764117,5.7055516,0.1,231.60345,1626295950000
Fix,GT,37.5245778,-122.3528988,138.28796534357048,6.8726583,0.1,229.09009,1626295951000
Fix,GT,37.5245339,-122.352962,137.95295100699926,7.8029566,0.1,228.85905,1626295952000
Fix,GT,37.5244841,-122.3530328,137.52294519738575,8.932856,0.1,228.21431,1626295953000
Fix,GT,37.5244254,-122.3531106,137.02692103055142,9.9101,0.1,225.34521,1626295954000
Fix,GT,37.5243588,-122.3531907,136.5239298475124,10.545721,0.1,223.53271,1626295955000
Fix,GT,37.5242878,-122.3532754,135.96892877988424,11.198598,0.099,223.5802,1626295956000
Fix,GT,37.5242133,-122.3533642,135.314918559434,11.57395,0.1,223.3949,1626295957000
Fix,GT,37.5241359,-122.3534547,134.57290164911467,11.822765,0.1,222.54077,1626295958000
Fix,GT,37.5240556,-122.353542,133.71388855321962,11.734827,0.1,219.50992,1626295959000
Fix,GT,37.5239713,-122.3536213,132.76987777660568,11.668729,0.1,215.4428,1626295960000
Fix,GT,37.5238819,-122.353693,131.74887091305757,11.872982,0.099,210.59824,1626295961000
Fix,GT,37.5237862,-122.3537549,130.66686414876975,11.998394,0.1,204.95381,1626295962000
Fix,GT,37.5236858,-122.3538064,129.5388643386323,12.137375,0.1,201.1977,1626295963000
Fix,GT,37.5235814,-122.3538562,128.4428659304101,12.612251,0.1,200.517,1626295964000
Fix,GT,37.5234767,-122.3539102,127.33486420690454,12.429052,0.1,204.25352,1626295965000
Fix,GT,37.5233815,-122.3539799,126.1758705400991,12.190692,0.1,214.15094,1626295966000
Fix,GT,37.5233008,-122.3540715,125.03386341067336,12.051444,0.1,226.22083,1626295967000
Fix,GT,37.5232377,-122.3541801,123.89886382510956,11.763338,0.1,238.09155,1626295968000
Fix,GT,37.5231954,-122.3543,122.86388091230452,11.591981,0.1,250.05806,1626295969000
Fix,GT,37.5231731,-122.3544278,121.84385855148732,11.792984,0.1,261.76694,1626295970000
Fix,GT,37.523172,-122.3545631,120.72889954150888,12.234503,0.1,273.59027,1626295971000
Fix,GT,37.523193,-122.3547002,119.72488195322546,12.574148,0.1,284.88574,1626295972000
Fix,GT,37.523231,-122.3548398,118.6738394157031,13.620232,0.1,291.00415,1626295973000
Fix,GT,37.5232846,-122.3549845,117.51984932838708,14.505173,0.1,297.19193,1626295974000
Fix,GT,37.5233537,-122.3551304,116.03181881783064,15.674987,0.1,302.93716,1626295975000
Fix,GT,37.52344,-122.3552802,114.5388261115381,17.03677,0.1,307.566,1626295976000
Fix,GT,37.5235423,-122.355434,113.07583718834236,18.424679,0.1,311.4652,1626295977000
Fix,GT,37.5236589,-122.3555922,111.62282114694956,19.717709,0.1,313.0612,1626295978000
Fix,GT,37.5237841,-122.3557597,110.25485001860068,20.895689,0.099,313.05096,1626295979000
Fix,GT,37.5239167,-122.3559368,108.9758347882526,22.086637,0.1,313.339,1626295980000
Fix,GT,37.5240591,-122.3561204,107.6238211831909,23.229574,0.1,314.85278,1626295981000
Fix,GT,37.5242123,-122.3563086,106.21284466311708,24.349375,0.1,316.15292,1626295982000
Fix,GT,37.5243757,-122.3565003,104.94385925376776,25.259987,0.1,317.90372,1626295983000
Fix,GT,37.5245478,-122.3566929,103.94891149932344,25.868729,0.1,318.732,1626295984000
Fix,GT,37.5247271,-122.3568834,103.22891087842451,26.267115,0.1,320.90833,1626295985000
Fix,GT,37.5249149,-122.3570679,102.42489603524211,26.702152,0.1,322.52032,1626295986000
Fix,GT,37.5251093,-122.3572527,101.57987637281558,27.525146,0.1,323.08212,1626295987000
Fix,GT,37.5253122,-122.357444,100.57287451581844,28.808811,0.1,322.7266,1626295988000
Fix,GT,37.5255201,-122.3576436,99.52686338746732,29.099184,0.1,322.35114,1626295989000
Fix,GT,37.5257281,-122.3578448,98.3028580004,29.144361,0.1,322.26834,1626295990000
Fix,GT,37.5259364,-122.3580444,97.12484877125593,29.031424,0.1,323.13345,1626295991000
Fix,GT,37.5261475,-122.3582372,95.90785080542182,28.955101,0.1,324.7205,1626295992000
Fix,GT,37.5263634,-122.358422,94.65085484550008,29.131044,0.1,326.5358,1626295993000
Fix,GT,37.5265867,-122.3585991,93.45187520152818,29.48545,0.1,328.71243,1626295994000
Fix,GT,37.5268181,-122.3587661,92.43089178788024,29.807302,0.1,331.2558,1626295995000
Fix,GT,37.5270577,-122.358922,91.61491764205158,30.092432,0.099,333.94437,1626295996000
Fix,GT,37.5273048,-122.3590652,91.02194715876738,30.328283,0.1,336.24817,1626295997000
Fix,GT,37.5275576,-122.3591974,90.6489708258554,30.458344,0.099,338.40762,1626295998000
Fix,GT,37.5278149,-122.3593174,90.65803831512991,30.459278,0.1,340.76596,1626295999000
Fix,GT,37.5280746,-122.3594279,90.97303496677824,30.402464,0.1,341.45456,1626296000000
Fix,GT,37.5283345,-122.3595353,91.2690422612509,30.323698,0.1,342.03262,1626296001000
Fix,GT,37.5285939,-122.3596413,91.7490698564425,30.217146,0.1,341.7451,1626296002000
Fix,GT,37.5288517,-122.3597483,92.403088204931,30.039083,0.1,341.3156,1626296003000
Fix,GT,37.5291067,-122.3598583,93.2411018628499,29.83132,0.1,340.92615,1626296004000
Fix,GT,37.5293603,-122.3599671,94.16810629485596,29.631676,0.1,341.161,1626296005000
Fix,GT,37.5296125,-122.3600732,95.06910060115344,29.406939,0.1,341.3419,1626296006000
Fix,GT,37.5298627,-122.3601785,95.91109835687186,29.158749,0.1,341.3292,1626296007000
Fix,GT,37.5301111,-122.3602836,96.67208157427702,29.04063,0.1,340.98148,1626296008000
Fix,GT,37.530358,-122.3603899,97.67910630281877,28.928648,0.1,341.02582,1626296009000
Fix,GT,37.530604,-122.3604964,98.55808952365024,28.85031,0.1,340.84503,1626296010000
Fix,GT,37.5308497,-122.3606031,99.3000956035702,28.852535,0.1,340.89404,1626296011000
Fix,GT,37.5310951,-122.3607095,100.26011232437428,28.781195,0.1,340.86047,1626296012000
Fix,GT,37.5313404,-122.3608145,101.1401045346692,28.734774,0.1,341.31628,1626296013000
Fix,GT,37.5315858,-122.3609174,101.98309572370351,28.697668,0.1,341.35727,1626296014000
Fix,GT,37.5318307,-122.3610207,102.83208905363082,28.67844,0.1,341.3178,1626296015000
Fix,GT,37.5320756,-122.3611246,103.704102317119,28.68196,0.1,341.10184,1626296016000
Fix,GT,37.5323199,-122.3612295,104.5571036321572,28.627188,0.1,340.98773,1626296017000
Fix,GT,37.5325637,-122.3613349,105.44810256901404,28.623045,0.1,340.94302,1626296018000
Fix,GT,37.5328077,-122.3614399,106.3060777925218,28.632826,0.1,340.95935,1626296019000
Fix,GT,37.5330515,-122.3615449,107.21810852317978,28.588394,0.099,341.05014,1626296020000
Fix,GT,37.533295,-122.3616492,108.25711542122532,28.520786,0.1,341.16562,1626296021000
Fix,GT,37.5335379,-122.3617529,109.3441323690681,28.414429,0.1,341.06787,1626296022000
Fix,GT,37.5337793,-122.3618588,110.4461234345776,28.345892,0.1,340.6464,1626296023000
Fix,GT,37.53402,-122.361964,111.55213239362337,28.235527,0.1,340.8324,1626296024000
Fix,GT,37.5342601,-122.3620679,112.69012682828588,28.1202,0.099,341.13943,1626296025000
Fix,GT,37.5344986,-122.3621717,113.813126848829,27.90723,0.1,340.48892,1626296026000
Fix,GT,37.5347338,-122.3622785,114.92912465589644,27.540524,0.1,339.7999,1626296027000
Fix,GT,37.5349634,-122.3623866,116.02112132512173,26.909582,0.1,339.12784,1626296028000
Fix,GT,37.5351878,-122.3624944,117.09711686082488,26.414848,0.1,338.9167,1626296029000
Fix,GT,37.5354076,-122.3626022,118.15511573088588,25.972986,0.1,337.96414,1626296030000
Fix,GT,37.5356221,-122.3627152,119.1781125899572,25.708609,0.1,336.71463,1626296031000
Fix,GT,37.5358342,-122.3628312,120.1861184266417,25.688503,0.1,336.10532,1626296032000
Fix,GT,37.5360452,-122.3629505,121.1931240173562,25.681885,0.1,335.45386,1626296033000
Fix,GT,37.536256,-122.3630708,122.21711618970149,25.703876,0.1,335.4635,1626296034000
Fix,GT,37.5364663,-122.3631932,123.22110602655984,25.733,0.1,334.75885,1626296035000
Fix,GT,37.5366752,-122.3633163,124.13909375483532,25.378922,0.1,334.914,1626296036000
Fix,GT,37.5368799,-122.3634363,125.00709036445676,24.768303,0.1,334.70728,1626296037000
Fix,GT,37.5370798,-122.3635556,125.8480915688814,24.389408,0.099,334.45874,1626296038000
Fix,GT,37.5372773,-122.3636734,126.7330972052276,24.191105,0.1,334.49905,1626296039000
Fix,GT,37.5374747,-122.3637909,127.6881085227452,24.361025,0.1,334.65955,1626296040000
Fix,GT,37.5376744,-122.3639098,128.66510972120332,24.711935,0.1,334.46497,1626296041000
Fix,GT,37.5378771,-122.3640307,129.666102980122,25.085634,0.1,334.44745,1626296042000
Fix,GT,37.5380825,-122.3641539,130.66811665689235,25.439478,0.1,334.32767,1626296043000
Fix,GT,37.5382908,-122.3642786,131.70211280340655,25.790567,0.1,334.34433,1626296044000
Fix,GT,37.5385017,-122.3644053,132.73511414317883,26.12474,0.1,334.39212,1626296045000
Fix,GT,37.5387155,-122.364533,133.79211660546764,26.430725,0.1,334.4831,1626296046000
Fix,GT,37.5389318,-122.3646621,134.8521157954545,26.717245,0.1,334.4956,1626296047000
Fix,GT,37.5391504,-122.3647922,135.93312143373512,26.995642,0.1,334.62576,1626296048000
Fix,GT,37.5393713,-122.3649237,137.02011760541146,27.261826,0.1,334.46747,1626296049000
Fix,GT,37.5395942,-122.3650572,138.10412616261283,27.534618,0.1,334.32132,1626296050000
Fix,GT,37.5398188,-122.3651928,139.2151199247822,27.806036,0.1,334.20868,1626296051000
Fix,GT,37.5400457,-122.3653287,140.35412594923193,27.983381,0.1,334.46994,1626296052000
Fix,GT,37.540274,-122.3654658,141.61114514098128,28.178719,0.1,334.32245,1626296053000
Fix,GT,37.5405035,-122.3656046,142.95215019402653,28.371382,0.1,334.20566,1626296054000
Fix,GT,37.5407346,-122.3657444,144.2861329181498,28.570738,0.1,334.1884,1626296055000
Fix,GT,37.5409665,-122.3658879,145.47113079128508,28.801512,0.1,333.19208,1626296056000
Fix,GT,37.5411977,-122.3660373,146.6221236518681,28.877504,0.1,332.24927,1626296057000
Fix,GT,37.5414272,-122.366192,147.76412296610246,28.934507,0.1,331.14725,1626296058000
Fix,GT,37.5416549,-122.3663526,148.9081222505348,29.024021,0.1,330.0529,1626296059000
Fix,GT,37.5418808,-122.3665192,150.04112178181578,29.142454,0.1,328.89572,1626296060000
Fix,GT,37.542105,-122.3666925,151.07210485218653,29.274273,0.1,327.91528,1626296061000
Fix,GT,37.542327,-122.3668701,151.9910889816622,29.147747,0.1,326.96863,1626296062000
Fix,GT,37.5425462,-122.3670524,152.8080848461456,29.254923,0.1,325.93903,1626296063000
Fix,GT,37.5427642,-122.3672403,153.5320698173046,29.437763,0.1,324.99292,1626296064000
Fix,GT,37.5429812,-122.3674339,154.14706487029022,29.654816,0.1,324.0055,1626296065000
Fix,GT,37.5431964,-122.3676333,154.65104586967595,29.614021,0.1,323.03418,1626296066000
Fix,GT,37.5434077,-122.367836,155.01001616947016,29.431725,0.1,322.0076,1626296067000
Fix,GT,37.5436154,-122.3680423,155.09800753999957,29.355026,0.1,321.1749,1626296068000
Fix,GT,37.5438201,-122.36825,155.09099137867406,29.015814,0.1,320.6094,1626296069000
Fix,GT,37.5440207,-122.3684574,155.1410176137957,28.635027,0.1,320.41116,1626296070000
Fix,GT,37.5442186,-122.3686621,155.29801738245925,28.33445,0.1,320.3727,1626296071000
Fix,GT,37.544415,-122.3688658,155.44901034470894,28.236746,0.099,320.39807,1626296072000
Fix,GT,37.5446106,-122.3690681,155.6200310875932,27.966003,0.1,320.4679,1626296073000
Fix,GT,37.5448043,-122.3692673,155.80002018209035,27.617256,0.1,320.75342,1626296074000
Fix,GT,37.5449956,-122.3694639,155.97401356301947,27.246603,0.1,320.5161,1626296075000
Fix,GT,37.545185,-122.3696567,156.11401493874564,26.88784,0.1,321.64343,1626296076000
Fix,GT,37.5453759,-122.3698409,156.25701572624874,26.535986,0.1,323.4365,1626296077000
Fix,GT,37.5455682,-122.3700158,156.3850053902919,26.169884,0.099,324.53162,1626296078000
Fix,GT,37.5457605,-122.3701837,156.54702045029285,25.811588,0.1,325.49802,1626296079000
Fix,GT,37.5459513,-122.3703469,156.78603810978078,25.416355,0.099,325.50647,1626296080000
Fix,GT,37.5461383,-122.3705079,157.19305519749005,24.929277,0.1,325.6371,1626296081000
Fix,GT,37.5463223,-122.3706651,157.67404589232092,24.468643,0.1,325.55902,1626296082000
Fix,GT,37.5465035,-122.3708191,157.95300507031683,24.099276,0.099,325.7614,1626296083000
Fix,GT,37.5466814,-122.3709723,158.03198957155286,23.805796,0.1,325.16754,1626296084000
Fix,GT,37.5468568,-122.3711252,157.87097094757414,23.553692,0.1,325.12103,1626296085000
Fix,GT,37.5470278,-122.3712739,157.69099590026215,22.333527,0.1,325.35547,1626296086000
Fix,GT,37.5471859,-122.3714109,157.50097468975514,20.222864,0.1,325.28253,1626296087000
Fix,GT,37.547327,-122.3715328,157.3209786490379,17.635529,0.099,325.58386,1626296088000
Fix,GT,37.5474476,-122.3716357,157.17898991790975,14.705116,0.1,325.8519,1626296089000
Fix,GT,37.5475458,-122.3717186,157.04000272532133,11.561276,0.1,325.8937,1626296090000
Fix,GT,37.5476177,-122.3717806,157.0270050641368,7.630577,0.1,325.32874,1626296091000
Fix,GT,37.54766,-122.3718178,157.11300741758362,3.9645844,0.1,325.09903,1626296092000
Fix,GT,37.5476781,-122.3718336,157.15199624954536,1.1238085,0.1,325.1755,1626296093000
Fix,GT,37.5476829,-122.3718379,157.14799652405736,0.6564482,0.1,325.01505,1626296094000
Fix,GT,37.5476926,-122.3718477,157.1520025021387,2.442871,0.099,322.9686,1626296095000
Fix,GT,37.5477144,-122.3718797,157.25499916544578,4.7666135,0.1,310.12775,1626296096000
Fix,GT,37.5477275,-122.3719376,157.37600978846592,5.6000686,0.1,280.65747,1626296097000
Fix,GT,37.5477109,-122.3720057,157.42000850972858,6.8281136,0.1,247.00607,1626296098000
Fix,GT,37.5476687,-122.3720734,157.43499791149142,8.367987,0.1,230.17867,1626296099000
Fix,GT,37.5476133,-122.3721543,157.43600739486564,10.434339,0.1,229.25711,1626296100000
Fix,GT,37.5475474,-122.3722512,157.5160049910224,11.963764,0.1,229.53188,1626296101000
Fix,GT,37.5474765,-122.3723566,157.5700073081616,12.18465,0.1,229.8362,1626296102000
Fix,GT,37.5474065,-122.372461,157.6560096863061,11.919291,0.1,229.61563,1626296103000
Fix,GT,37.5473377,-122.3725621,157.7170161105002,11.533822,0.1,229.22206,1626296104000
Fix,GT,37.5472731,-122.3726566,157.84101517524712,10.273545,0.1,229.44368,1626296105000
Fix,GT,37.5472183,-122.3727373,157.9810143862073,8.434501,0.1,229.33968,1626296106000
Fix,GT,37.547172,-122.3728009,158.16402182075288,7.0505757,0.1,225.47461,1626296107000
Fix,GT,37.5471196,-122.3728413,158.37002094403095,6.703207,0.1,206.45117,1626296108000
Fix,GT,37.5470567,-122.3728549,158.51501054541848,7.5725474,0.1,184.78319,1626296109000
Fix,GT,37.5469831,-122.3728335,158.41300863691328,9.089339,0.1,160.02026,1626296110000
Fix,GT,37.5469077,-122.3727769,158.480002797062,10.562,0.099,145.17139,1626296111000
Fix,GT,37.5468287,-122.3726926,158.57100452588207,12.402831,0.1,138.3172,1626296112000
Fix,GT,37.5467391,-122.3725913,158.6630222110271,14.386664,0.1,137.97314,1626296113000
Fix,GT,37.546636,-122.3724744,158.75600503764954,16.425337,0.1,137.66577,1626296114000
Fix,GT,37.5465201,-122.3723422,158.82001207964262,18.331802,0.1,137.75922,1626296115000
Fix,GT,37.5463914,-122.3721965,158.9090149290245,20.14314,0.1,137.84854,1626296116000
Fix,GT,37.5462515,-122.3720377,158.96800327270628,21.714844,0.1,137.8713,1626296117000
Fix,GT,37.5461007,-122.3718669,158.9249872262273,23.40997,0.1,137.80347,1626296118000
Fix,GT,37.5459386,-122.3716826,158.64396879153048,25.103828,0.1,137.7619,1626296119000
Fix,GT,37.5457653,-122.371488,158.1179417976723,26.456732,0.1,138.71344,1626296120000
Fix,GT,37.5455791,-122.3712893,157.3729129469744,27.756966,0.1,140.58044,1626296121000
Fix,GT,37.5453795,-122.3710887,156.52092040438274,28.957674,0.1,141.74396,1626296122000
Fix,GT,37.5451698,-122.3708827,155.65991975793986,30.109495,0.1,141.8736,1626296123000
Fix,GT,37.5449545,-122.37067,154.79491701364668,30.609812,0.1,141.57886,1626296124000
Fix,GT,37.5447382,-122.3704541,153.9458993756049,30.629915,0.1,141.68701,1626296125000
Fix,GT,37.5445221,-122.3702401,153.0519151988344,30.478209,0.1,141.50763,1626296126000
Fix,GT,37.5443058,-122.3700275,152.20490810438176,30.560486,0.1,142.20969,1626296127000
Fix,GT,37.5440869,-122.369815,151.37992488223222,30.861197,0.1,142.24951,1626296128000
Fix,GT,37.5438652,-122.3696014,150.65092971242314,31.13471,0.099,142.6847,1626296129000
Fix,GT,37.5436405,-122.3693888,149.93395441762078,31.310692,0.1,143.14978,1626296130000
Fix,GT,37.5434146,-122.3691762,149.37993389378187,31.357468,0.1,143.27536,1626296131000
Fix,GT,37.5431873,-122.3689645,148.76694068343065,31.436394,0.1,143.401,1626296132000
Fix,GT,37.5429593,-122.3687526,148.16694250197708,31.535828,0.1,143.52997,1626296133000
Fix,GT,37.5427303,-122.3685409,147.57194232941046,31.603022,0.099,143.8129,1626296134000
Fix,GT,37.5424991,-122.3683312,146.9679416597732,31.706388,0.1,144.32129,1626296135000
Fix,GT,37.5422651,-122.3681242,146.35393951938758,31.827044,0.1,145.24225,1626296136000
Fix,GT,37.542028,-122.3679207,145.74294032577612,31.952024,0.1,145.99927,1626296137000
Fix,GT,37.5417876,-122.3677203,145.12993578001462,32.087185,0.1,146.71893,1626296138000
Fix,GT,37.5415447,-122.3675229,144.51193858231372,32.129826,0.099,147.3601,1626296139000
Fix,GT,37.5412999,-122.3673287,143.8979446160984,32.171158,0.1,148.04169,1626296140000
Fix,GT,37.5410519,-122.3671392,143.29094198876757,32.281586,0.1,149.1824,1626296141000
Fix,GT,37.5408001,-122.3669536,142.67193599881162,32.53847,0.1,149.84106,1626296142000
Fix,GT,37.5405449,-122.3667698,142.05794834619795,32.789608,0.1,150.4433,1626296143000
Fix,GT,37.540286,-122.3665889,141.41893215960545,32.933426,0.1,151.33752,1626296144000
Fix,GT,37.5400248,-122.3664112,140.6979227367389,33.02149,0.1,151.578,1626296145000
Fix,GT,37.5397631,-122.3662339,139.8769172268596,32.93577,0.1,151.63605,1626296146000
Fix,GT,37.5395026,-122.3660577,138.94090492564504,32.728992,0.1,151.55438,1626296147000
Fix,GT,37.5392441,-122.365882,137.92389669392503,32.50553,0.099,151.40295,1626296148000
Fix,GT,37.5389874,-122.3657075,136.7898821242794,32.32967,0.1,151.71027,1626296149000
Fix,GT,37.5387311,-122.3655353,135.57186180305993,32.18799,0.099,151.74225,1626296150000
Fix,GT,37.5384761,-122.3653629,134.30087287095165,32.070553,0.1,151.49173,1626296151000
Fix,GT,37.5382223,-122.3651907,132.99886808846077,31.965525,0.1,151.49643,1626296152000
Fix,GT,37.5379694,-122.3650189,131.69887754177873,31.865053,0.099,151.4939,1626296153000
Fix,GT,37.5377175,-122.3648475,130.41987374387028,31.756838,0.1,151.67615,1626296154000
Fix,GT,37.537465,-122.3646772,129.13388921908904,31.911589,0.1,151.73267,1626296155000
Fix,GT,37.5372109,-122.3645051,127.86588000564296,32.166874,0.1,151.48138,1626296156000
Fix,GT,37.5369553,-122.3643308,126.56387709580292,32.401073,0.1,151.47653,1626296157000
Fix,GT,37.5366977,-122.3641559,125.2718867266234,32.538845,0.1,151.73459,1626296158000
Fix,GT,37.5364392,-122.3639827,123.96387655294193,32.489937,0.1,151.76761,1626296159000
Fix,GT,37.5361819,-122.3638086,122.67288168110512,32.38243,0.1,151.56168,1626296160000
Fix,GT,37.5359255,-122.3636347,121.37287577755232,32.315872,0.1,151.56125,1626296161000
Fix,GT,37.5356696,-122.3634608,120.08187780933018,32.280674,0.1,151.48828,1626296162000
Fix,GT,37.5354138,-122.3632876,118.8018778986502,32.247066,0.1,151.7048,1626296163000
Fix,GT,37.5351578,-122.363115,117.51087588268284,32.23851,0.1,151.57285,1626296164000
Fix,GT,37.5349018,-122.3629428,116.16686463736272,32.234657,0.1,152.13135,1626296165000
Fix,GT,37.5346439,-122.3627754,114.84987544770324,32.20408,0.1,153.1659,1626296166000
Fix,GT,37.5343836,-122.3626153,113.54987467207492,32.148525,0.1,154.51044,1626296167000
Fix,GT,37.5341207,-122.3624637,112.24388512576202,32.085278,0.1,156.00085,1626296168000
Fix,GT,37.5338556,-122.3623201,110.96587611444498,32.01505,0.1,157.05475,1626296169000
Fix,GT,37.5335892,-122.3621823,109.75488633801142,31.949999,0.1,158.32678,1626296170000
Fix,GT,37.5333209,-122.3620525,108.63389994660152,31.871357,0.1,159.52466,1626296171000
Fix,GT,37.533051,-122.3619313,107.59891904120336,31.751047,0.1,160.93951,1626296172000
Fix,GT,37.5327806,-122.3618167,106.67691248738916,31.625923,0.1,161.45612,1626296173000
Fix,GT,37.5325109,-122.3617034,105.7179004323259,31.492842,0.099,161.44519,1626296174000
Fix,GT,37.5322422,-122.3615899,104.76590841979416,31.413353,0.1,161.26538,1626296175000
Fix,GT,37.5319748,-122.3614759,103.82990933191684,31.260096,0.1,161.01276,1626296176000
Fix,GT,37.5317091,-122.3613615,102.872918286465,31.08642,0.1,160.97198,1626296177000
Fix,GT,37.5314451,-122.3612482,101.96491082920286,30.85941,0.1,161.10669,1626296178000
Fix,GT,37.531183,-122.3611359,101.0609100391124,30.621687,0.1,161.08313,1626296179000
Fix,GT,37.5309227,-122.3610243,100.12290866861352,30.443417,0.1,161.22046,1626296180000
Fix,GT,37.5306635,-122.3609141,99.13394039596244,30.279594,0.1,161.14044,1626296181000
Fix,GT,37.5304062,-122.3608035,98.32891179782791,30.048145,0.1,160.96753,1626296182000
Fix,GT,37.5301514,-122.3606938,97.40092059151768,29.687721,0.1,161.17188,1626296183000
Fix,GT,37.5299009,-122.3605884,96.49592174227436,28.967447,0.1,161.67053,1626296184000
Fix,GT,37.5296567,-122.3604853,95.69092659071508,28.186762,0.1,161.0647,1626296185000
Fix,GT,37.5294196,-122.3603834,94.86992591002397,27.506102,0.099,161.18707,1626296186000
Fix,GT,37.5291871,-122.3602838,94.04292069302186,27.066933,0.1,160.91351,1626296187000
Fix,GT,37.5289578,-122.3601849,93.21593103442504,26.768059,0.1,160.92493,1626296188000
Fix,GT,37.5287304,-122.360087,92.47893310149108,26.591688,0.099,161.17456,1626296189000
Fix,GT,37.5285037,-122.3599918,91.86895352957386,26.474026,0.1,161.65955,1626296190000
Fix,GT,37.5282775,-122.3598998,91.42996379340232,26.323849,0.1,162.50293,1626296191000
Fix,GT,37.5280509,-122.3598137,91.10598681798751,26.239876,0.1,163.6206,1626296192000
Fix,GT,37.5278241,-122.3597334,91.08101801482478,26.073305,0.099,164.71991,1626296193000
Fix,GT,37.5275981,-122.3596567,91.38605276024768,25.856768,0.1,165.0586,1626296194000
Fix,GT,37.5273742,-122.3595805,91.8890482655596,25.661592,0.1,164.60248,1626296195000
Fix,GT,37.5271525,-122.3595006,92.30803560356784,25.542938,0.1,163.44128,1626296196000
Fix,GT,37.5269339,-122.3594167,92.6960365641655,25.17187,0.1,162.65222,1626296197000
Fix,GT,37.52672,-122.359331,93.18703754741256,24.64945,0.1,161.96411,1626296198000
Fix,GT,37.5265126,-122.3592424,93.60303045700768,23.93582,0.1,159.98383,1626296199000
Fix,GT,37.526316,-122.3591467,93.9590268226742,22.747984,0.099,157.5586,1626296200000
Fix,GT,37.5261337,-122.3590483,94.15801622231258,21.330572,0.1,156.08606,1626296201000
Fix,GT,37.5259637,-122.3589539,94.30101078934072,19.898632,0.1,155.84119,1626296202000
Fix,GT,37.5258071,-122.3588669,94.33701188000664,17.83248,0.1,156.53351,1626296203000
Fix,GT,37.5256701,-122.3587917,94.31900124075996,15.385986,0.1,155.9281,1626296204000
Fix,GT,37.5255528,-122.3587264,94.27398147009312,13.100622,0.1,156.17712,1626296205000
Fix,GT,37.5254541,-122.3586725,94.17599600602,10.814867,0.1,156.2049,1626296206000
Fix,GT,37.5253741,-122.3586282,94.09998736193803,8.585654,0.1,156.08057,1626296207000
Fix,GT,37.5253125,-122.3585945,93.99698825029871,6.32844,0.1,156.29498,1626296208000
Fix,GT,37.5252698,-122.3585711,93.9269965634122,4.3465757,0.1,156.20154,1626296209000
Fix,GT,37.5252367,-122.3585521,93.85800545326072,3.887236,0.1,154.9784,1626296210000
Fix,GT,37.5252058,-122.3585336,93.8489977017708,3.7348797,0.1,154.36798,1626296211000
Fix,GT,37.5251756,-122.3585156,93.78900660664436,3.7152977,0.1,154.59686,1626296212000
Fix,GT,37.5251441,-122.3584972,93.7909926702971,3.9144745,0.1,154.66595,1626296213000
Fix,GT,37.5251157,-122.3584811,93.75798470764374,2.6561024,0.099,155.43494,1626296214000
Fix,GT,37.5250995,-122.3584722,93.70200088357625,1.6001328,0.1,155.64447,1626296215000
Fix,GT,37.525084,-122.3584631,93.66999111038352,2.4308925,0.1,155.16553,1626296216000
Fix,GT,37.5250584,-122.3584447,93.65098969613784,4.1257143,0.1,149.74805,1626296217000
Fix,GT,37.5250229,-122.3584087,93.54298530308158,5.896332,0.1,139.71387,1626296218000
Fix,GT,37.5249827,-122.3583526,93.42099792190182,7.3675976,0.1,129.74115,1626296219000
Fix,GT,37.524941,-122.3582787,93.50401123065316,8.533656,0.1,123.796814,1626296220000
Fix,GT,37.5248973,-122.3581909,93.77703306754108,9.718386,0.099,121.853516,1626296221000
Fix,GT,37.5248483,-122.3580929,94.34105589642353,10.71902,0.1,122.08725,1626296222000
Fix,GT,37.524791,-122.357987,95.02005424615191,11.892016,0.1,125.19675,1626296223000
Fix,GT,37.5247232,-122.3578764,95.64506309812934,12.7923565,0.1,129.10126,1626296224000
Fix,GT,37.5246459,-122.3577641,96.39106506050064,13.404036,0.1,131.44818,1626296225000
Fix,GT,37.5245628,-122.3576552,96.98003975979984,13.168506,0.1,134.7674,1626296226000
Fix,GT,37.5244776,-122.357558,97.6420651571838,12.418024,0.1,139.56082,1626296227000
Fix,GT,37.5243879,-122.3574753,98.30607602834596,12.422216,0.1,145.7388,1626296228000
Fix,GT,37.5242892,-122.3574029,99.1740825574036,13.017725,0.1,151.71747,1626296229000
Fix,GT,37.5241809,-122.3573415,99.98407589963531,13.215536,0.1,158.11597,1626296230000
Fix,GT,37.5240692,-122.3572948,100.90407315932214,12.836968,0.099,163.12256,1626296231000
Fix,GT,37.5239612,-122.3572573,101.75706122826134,12.039974,0.099,164.9433,1626296232000
Fix,GT,37.5238606,-122.3572207,102.52306502798407,11.264938,0.1,162.2248,1626296233000
Fix,GT,37.5237645,-122.3571796,103.23906334453449,11.384535,0.1,161.23212,1626296234000
Fix,GT,37.5236647,-122.3571402,103.90705534404388,11.864498,0.1,163.19775,1626296235000
Fix,GT,37.5235619,-122.3571047,104.47404990188744,11.659839,0.1,165.13354,1626296236000
Fix,GT,37.5234625,-122.3570733,104.94003717290948,11.080433,0.1,165.88312,1626296237000
Fix,GT,37.5233692,-122.3570445,105.30601810274132,10.09337,0.1,166.1789,1626296238000
Fix,GT,37.5232897,-122.3570197,105.46300845874234,7.949371,0.099,165.89575,1626296239000
Fix,GT,37.5232325,-122.3570014,105.5290040746613,5.139459,0.1,165.59045,1626296240000
Fix,GT,37.5231999,-122.3569908,105.53699909897372,2.4871054,0.1,165.36377,1626296241000
Fix,GT,37.5231856,-122.3569861,105.52400009383308,0.85759336,0.1,165.23376,1626296242000
Fix,GT,37.5231829,-122.3569851,105.51300213628916,0.009063803,0.1,165.21088,1626296243000
Fix,GT,37.5231829,-122.3569851,105.513,0.0029986564,0.1,165.21216,1626296244000
Fix,GT,37.5231829,-122.3569851,105.51299907875028,0.0041221557,0.1,165.2085,1626296245000
Fix,GT,37.523182,-122.3569849,105.5069973191066,0.37310082,0.1,165.2024,1626296246000
Fix,GT,37.5231754,-122.3569827,105.50399956810644,1.1094927,0.1,165.13586,1626296247000
Fix,GT,37.5231632,-122.3569784,105.49400181680204,1.7316507,0.1,164.8222,1626296248000
Fix,GT,37.523144,-122.356969,105.47900027130709,2.8882945,0.1,159.75812,1626296249000
Fix,GT,37.5231181,-122.3569436,105.45599769811984,4.2973948,0.1,142.23776,1626296250000
Fix,GT,37.523095,-122.3568932,105.4169915631754,5.8659506,0.1,117.485565,1626296251000
Fix,GT,37.523085,-122.356819,105.33001911546032,7.2631054,0.1,96.31769,1626296252000
Fix,GT,37.5230841,-122.3567313,105.6350397142442,8.096126,0.1,89.983826,1626296253000
Fix,GT,37.5230855,-122.3566358,106.27706922682712,8.800211,0.1,88.77371,1626296254000
Fix,GT,37.5230875,-122.356533,107.16408677175129,9.411809,0.1,88.57092,1626296255000
Fix,GT,37.5230894,-122.3564216,108.15702758841776,10.257947,0.1,89.13013,1626296256000
Fix,GT,37.5230911,-122.356302,109.08208719289092,10.912719,0.1,88.63754,1626296257000
Fix,GT,37.5230935,-122.356175,110.1630967813332,11.535679,0.1,88.588715,1626296258000
Fix,GT,37.523096,-122.3560429,111.30308880635462,11.540397,0.1,88.78592,1626296259000
Fix,GT,37.5230981,-122.3559177,112.38208164723508,10.585463,0.1,88.71869,1626296260000
Fix,GT,37.5231,-122.3558038,113.3380697918685,9.541877,0.1,88.82843,1626296261000
Fix,GT,37.5231018,-122.3557025,114.10105251916906,8.310896,0.1,88.696106,1626296262000
Fix,GT,37.5231037,-122.3556162,114.66504477850324,7.0142107,0.1,88.229095,1626296263000
Fix,GT,37.5231071,-122.3555426,115.08003013069276,6.0661483,0.1,85.60263,1626296264000
Fix,GT,37.523118,-122.3554799,115.43002297983308,5.3440323,0.1,74.92859,1626296265000
Fix,GT,37.5231452,-122.3554255,115.6360083621333,5.971509,0.1,54.543945,1626296266000
Fix,GT,37.5231921,-122.355382,115.74400176117028,6.902784,0.1,31.538513,1626296267000
Fix,GT,37.5232568,-122.3553636,115.71897416644929,7.5630236,0.1,6.565735,1626296268000
Fix,GT,37.5233265,-122.355383,115.26694375587256,8.513679,0.1,341.5695,1626296269000
Fix,GT,37.5234012,-122.3554363,114.54992300198283,10.586123,0.099,326.6753,1626296270000
Fix,GT,37.5234843,-122.3555194,113.51389407369535,12.948333,0.1,319.51413,1626296271000
Fix,GT,37.5235802,-122.3556251,112.2408971589941,15.380941,0.1,318.41266,1626296272000
Fix,GT,37.5236915,-122.3557503,110.94589667314408,17.685942,0.1,317.95493,1626296273000
Fix,GT,37.5238168,-122.3558911,109.7289010396991,19.67205,0.1,318.16324,1626296274000
Fix,GT,37.5239563,-122.356045,108.4768908647647,21.605333,0.1,318.83344,1626296275000
Fix,GT,37.5241087,-122.3562121,107.096886358927,23.282892,0.1,318.76962,1626296276000
Fix,GT,37.5242712,-122.3563913,105.70690005943958,24.675587,0.1,318.64957,1626296277000
Fix,GT,37.5244417,-122.3565793,104.50592788366956,25.594631,0.1,318.86346,1626296278000
Fix,GT,37.5246193,-122.3567696,103.6729326908291,26.224468,0.1,320.40707,1626296279000
Fix,GT,37.5248055,-122.3569598,102.95093795446108,27.100601,0.1,321.4717,1626296280000
Fix,GT,37.5250019,-122.3571511,102.07692911666538,28.060549,0.1,322.60083,1626296281000
Fix,GT,37.5252038,-122.3573439,101.16192299855176,28.199171,0.1,322.41327,1626296282000
Fix,GT,37.5254026,-122.3575426,100.13591392171055,28.194744,0.1,321.04004,1626296283000
Fix,GT,37.5255992,-122.3577444,99.06390882983536,28.162146,0.1,320.2919,1626296284000
Fix,GT,37.5257939,-122.3579485,97.9509301086124,28.134373,0.1,320.00385,1626296285000
Fix,GT,37.525991,-122.3581492,96.8689065060478,28.304316,0.1,322.11563,1626296286000
Fix,GT,37.5261984,-122.3583413,95.68690460667106,28.974745,0.1,324.94434,1626296287000
Fix,GT,37.526419,-122.3585247,94.48390253038228,29.787462,0.1,327.8035,1626296288000
Fix,GT,37.5266524,-122.3587005,93.308915437794,30.627218,0.099,330.13007,1626296289000
Fix,GT,37.5268976,-122.3588677,92.32392922191588,31.301357,0.1,332.7766,1626296290000
Fix,GT,37.5271534,-122.3590247,91.56395159378216,31.882668,0.1,334.95758,1626296291000
Fix,GT,37.5274186,-122.3591699,91.03597309383656,32.364212,0.1,337.69348,1626296292000
Fix,GT,37.5276925,-122.3593024,90.79599941965414,32.81478,0.099,339.87405,1626296293000
Fix,GT,37.5279729,-122.3594259,91.00902077199518,33.13355,0.1,341.31177,1626296294000
Fix,GT,37.5282571,-122.3595466,91.33702667986182,33.47064,0.1,341.31686,1626296295000
Fix,GT,37.5285441,-122.3596674,91.79504169842828,33.68811,0.1,341.4546,1626296296000
Fix,GT,37.5288324,-122.3597887,92.50906521572908,33.78755,0.1,341.2587,1626296297000
Fix,GT,37.529121,-122.3599112,93.4460823063486,33.795906,0.1,341.23227,1626296298000
Fix,GT,37.5294087,-122.3600328,94.50707840153228,33.600624,0.1,341.27838,1626296299000
Fix,GT,37.5296947,-122.3601542,95.50807733966428,33.42361,0.1,341.23666,1626296300000
Fix,GT,37.5299787,-122.3602735,96.4440758129097,32.947105,0.1,341.27512,1626296301000
Fix,GT,37.5302566,-122.3603924,97.4600757941883,32.21062,0.1,340.92685,1626296302000
Fix,GT,37.5305282,-122.3605087,98.4590694044684,31.470894,0.1,341.2249,1626296303000
Fix,GT,37.5307941,-122.3606213,99.29705356566596,30.886745,0.1,341.20096,1626296304000
Fix,GT,37.5310558,-122.3607325,100.2500825578568,30.50377,0.1,341.091,1626296305000
Fix,GT,37.5313147,-122.3608442,101.18807772997532,30.272402,0.1,340.84866,1626296306000
Fix,GT,37.5315717,-122.3609553,102.07906983404106,30.043709,0.1,341.04297,1626296307000
Fix,GT,37.5318265,-122.3610634,102.9630658047652,29.58373,0.1,341.3483,1626296308000
Fix,GT,37.5320765,-122.3611679,103.85606148868798,28.913065,0.1,341.61942,1626296309000
Fix,GT,37.5323213,-122.361271,104.70806504396872,28.4366,0.1,340.93155,1626296310000
Fix,GT,37.5325623,-122.361375,105.5800648526079,28.165485,0.1,340.83984,1626296311000
Fix,GT,37.5328011,-122.361479,106.4060615538701,27.92083,0.1,340.84314,1626296312000
Fix,GT,37.5330376,-122.3615814,107.28906809326487,27.626125,0.1,340.8796,1626296313000
Fix,GT,37.5332717,-122.3616842,108.24307642419868,27.448954,0.1,340.73465,1626296314000
Fix,GT,37.5335052,-122.3617845,109.2550824727197,27.33437,0.1,341.14023,1626296315000
Fix,GT,37.5337376,-122.3618851,110.30007946224885,27.24169,0.1,340.62088,1626296316000
Fix,GT,37.5339696,-122.3619862,111.3510847092564,27.279512,0.1,340.94818,1626296317000
Fix,GT,37.5342027,-122.3620859,112.44808623845852,27.424046,0.1,341.16724,1626296318000
Fix,GT,37.5344373,-122.3621876,113.55508627420234,27.661354,0.1,340.52823,1626296319000
Fix,GT,37.5346727,-122.3622937,114.67208555886884,27.850033,0.1,339.86597,1626296320000
Fix,GT,37.5349084,-122.3624048,115.79108243218155,28.033297,0.099,338.88882,1626296321000
Fix,GT,37.535144,-122.3625207,116.92008016304206,28.13836,0.099,338.31638,1626296322000
Fix,GT,37.5353792,-122.3626398,118.05808236673312,28.11927,0.1,337.73734,1626296323000
Fix,GT,37.5356144,-122.3627623,119.18608483350124,28.42917,0.1,337.123,1626296324000
Fix,GT,37.5358513,-122.36289,120.31208736348188,28.788498,0.1,336.44324,1626296325000
Fix,GT,37.5360902,-122.3630223,121.46708515279576,29.157946,0.1,335.67438,1626296326000
Fix,GT,37.5363296,-122.3631599,122.63008542348852,29.220592,0.1,335.02994,1626296327000
Fix,GT,37.5365677,-122.3632995,123.74207336535775,29.12632,0.099,334.7916,1626296328000
Fix,GT,37.5368049,-122.3634401,124.78107433308244,29.08409,0.099,334.5147,1626296329000
Fix,GT,37.5370413,-122.3635813,125.82607511164946,29.032766,0.1,334.5744,1626296330000
Fix,GT,37.5372775,-122.3637215,126.89907920469274,28.973755,0.1,334.64117,1626296331000
Fix,GT,37.5375134,-122.3638612,128.04608592112436,28.919388,0.1,334.72073,1626296332000
Fix,GT,37.5377487,-122.3640014,129.19508814317564,28.90327,0.1,334.39917,1626296333000
Fix,GT,37.5379837,-122.3641418,130.35808541606437,28.838083,0.1,334.52228,1626296334000
Fix,GT,37.5382185,-122.3642816,131.5070855777501,28.884382,0.1,334.47693,1626296335000
Fix,GT,37.5384539,-122.3644222,132.66708487156498,28.980835,0.1,334.44385,1626296336000
Fix,GT,37.5386899,-122.3645631,133.82808343809953,29.02811,0.1,334.54352,1626296337000
Fix,GT,37.5389263,-122.3647037,134.9900827367492,29.010782,0.1,334.56412,1626296338000
Fix,GT,37.5391619,-122.3648435,136.15408701826726,28.831848,0.1,334.60684,1626296339000
Fix,GT,37.5393956,-122.3649834,137.30308699551037,28.625177,0.1,334.08337,1626296340000
Fix,GT,37.539627,-122.3651239,138.44008776835153,28.440878,0.1,334.19434,1626296341000
Fix,GT,37.5398574,-122.3652628,139.5690807217676,28.300854,0.1,334.15857,1626296342000
Fix,GT,37.5400868,-122.3654009,140.73808512575903,28.196997,0.1,334.4217,1626296343000
Fix,GT,37.5403162,-122.365538,141.99509504806554,28.18312,0.1,334.55435,1626296344000
Fix,GT,37.5405455,-122.3656751,143.27708585601317,28.165104,0.1,334.31842,1626296345000
Fix,GT,37.5407732,-122.3658148,144.52908155909316,28.0753,0.099,333.47656,1626296346000
Fix,GT,37.5409985,-122.3659579,145.66008091978412,27.98676,0.1,332.72028,1626296347000
Fix,GT,37.5412217,-122.3661044,146.7700780846733,27.90457,0.1,331.97577,1626296348000
Fix,GT,37.5414426,-122.3662541,147.87507743506978,27.830256,0.1,331.1705,1626296349000
Fix,GT,37.5416619,-122.3664089,148.97907883025306,28.050732,0.1,330.0336,1626296350000
Fix,GT,37.5418808,-122.3665703,150.07407181304694,28.303308,0.1,328.9633,1626296351000
Fix,GT,37.5420995,-122.3667384,151.0720647137526,28.598673,0.1,327.92206,1626296352000
Fix,GT,37.5423178,-122.3669139,151.97306207310947,28.9373,0.1,326.78366,1626296353000
Fix,GT,37.5425367,-122.3670959,152.78305596187172,29.463299,0.1,325.9997,1626296354000
Fix,GT,37.5427575,-122.3672855,153.51904905085976,29.614698,0.1,325.22614,1626296355000
Fix,GT,37.5429743,-122.3674757,154.13504441016673,29.098791,0.1,324.69904,1626296356000
Fix,GT,37.5431859,-122.3676656,154.62502569317277,28.608393,0.099,324.29315,1626296357000
Fix,GT,37.5433942,-122.3678536,154.98701428119094,28.428146,0.1,323.96686,1626296358000
Fix,GT,37.5436008,-122.3680454,155.10600331928967,28.648024,0.1,322.88834,1626296359000
Fix,GT,37.5438062,-122.3682435,155.11199811375232,28.712015,0.1,321.80484,1626296360000
Fix,GT,37.5440076,-122.3684445,155.1470101130871,28.38262,0.1,320.99902,1626296361000
Fix,GT,37.5442047,-122.3686461,155.2980078895974,28.063938,0.1,320.43747,1626296362000
Fix,GT,37.5443986,-122.3688472,155.44900962699077,27.747505,0.1,320.29327,1626296363000
Fix,GT,37.54459,-122.3690457,155.6040130895274,27.315407,0.1,320.4369,1626296364000
Fix,GT,37.5447784,-122.3692406,155.78201137935395,26.891298,0.1,320.3874,1626296365000
Fix,GT,37.5449638,-122.3694327,155.94101568361023,26.463242,0.1,320.2721,1626296366000
Fix,GT,37.5451467,-122.3696212,156.08701193294206,26.05224,0.1,321.16077,1626296367000
Fix,GT,37.5453311,-122.3697999,156.2240011431405,25.654926,0.1,323.4553,1626296368000
Fix,GT,37.5455171,-122.3699685,156.35500612514932,25.258093,0.1,324.49704,1626296369000
Fix,GT,37.5457019,-122.370131,156.47500767033955,24.860847,0.1,325.0959,1626296370000
Fix,GT,37.545885,-122.3702898,156.6800157503778,24.511623,0.1,325.41467,1626296371000
Fix,GT,37.5460655,-122.3704456,157.01403108427675,24.110762,0.1,325.4766,1626296372000
Fix,GT,37.5462432,-122.3705982,157.40703043249,23.679728,0.1,325.60147,1626296373000
Fix,GT,37.5464179,-122.3707476,157.8100190578543,23.256248,0.1,325.64594,1626296374000
Fix,GT,37.5465897,-122.3708951,157.98600571753505,22.924786,0.1,325.3947,1626296375000
Fix,GT,37.5467589,-122.3710413,157.95697808459593,22.678085,0.099,325.25418,1626296376000
Fix,GT,37.5469263,-122.3711865,157.76798703829897,22.476377,0.1,325.29102,1626296377000
Fix,GT,37.5470895,-122.3713279,157.59898146521297,21.247784,0.1,325.38675,1626296378000
Fix,GT,37.5472374,-122.3714552,157.40399266405828,18.460108,0.1,325.5502,1626296379000
Fix,GT,37.5473636,-122.3715629,157.24499201122416,15.398368,0.1,326.0953,1626296380000
Fix,GT,37.5474674,-122.3716492,157.12499670712754,12.183446,0.1,326.4609,1626296381000
Fix,GT,37.547547,-122.371716,156.99999516911922,9.165091,0.1,325.59045,1626296382000
Fix,GT,37.5476052,-122.371768,156.96100807303844,6.754547,0.1,324.0818,1626296383000
Fix,GT,37.5476459,-122.3718059,157.0270049511306,4.5279713,0.099,323.48166,1626296384000
Fix,GT,37.5476707,-122.3718291,157.09800654583495,2.2206576,0.1,323.2287,1626296385000
Fix,GT,37.5476789,-122.3718368,157.1080010150827,0.17950913,0.1,323.2057,1626296386000
Fix,GT,37.5476789,-122.3718368,157.09800370180452,0.0010014273,0.1,323.21194,1626296387000
Fix,GT,37.5476789,-122.3718368,157.09599991770227,0.0014147549,0.1,323.21063,1626296388000
Fix,GT,37.5476789,-122.3718368,157.0950032644553,0.0010000002,0.1,323.21057,1626296389000
Fix,GT,37.5476789,-122.3718368,157.0959981642194,0.007818149,0.1,323.21017,1626296390000
Fix,GT,37.5476797,-122.3718375,157.08899528525023,0.4582973,0.1,323.1786,1626296391000
Fix,GT,37.5476894,-122.3718477,157.10399685862762,2.3979816,0.1,321.4183,1626296392000
Fix,GT,37.5477096,-122.3718762,157.19200895398274,4.198418,0.1,311.8264,1626296393000
Fix,GT,37.547724,-122.3719282,157.29900671563297,5.309899,0.1,286.10617,1626296394000
Fix,GT,37.5477143,-122.3719938,157.3709993776706,6.30805,0.1,253.58879,1626296395000
Fix,GT,37.5476765,-122.3720584,157.38699958052823,7.798244,0.1,230.79274,1626296396000
Fix,GT,37.5476252,-122.3721339,157.3790045949852,9.717148,0.1,229.76825,1626296397000
Fix,GT,37.5475645,-122.3722248,157.44800766957763,11.250007,0.1,229.8245,1626296398000
Fix,GT,37.5474965,-122.3723256,157.50200693236528,11.819679,0.1,229.78683,1626296399000
Fix,GT,37.5474284,-122.3724269,157.58200748743536,11.608944,0.1,229.40384,1626296400000
Fix,GT,37.5473612,-122.3725259,157.6470028354653,11.364614,0.1,229.54526,1626296401000
Fix,GT,37.5472964,-122.372622,157.74200816437337,10.693249,0.1,229.82054,1626296402000
Fix,GT,37.5472388,-122.3727082,157.86700820165424,9.163384,0.1,229.96767,1626296403000
Fix,GT,37.5471891,-122.3727806,158.04001336098415,8.019048,0.1,227.60628,1626296404000
Fix,GT,37.547132,-122.3728313,158.25601649012685,7.547369,0.1,208.5392,1626296405000
Fix,GT,37.5470627,-122.3728471,158.43200243052158,8.113137,0.1,183.93797,1626296406000
Fix,GT,37.5469863,-122.3728274,158.32700427805074,9.153407,0.1,162.56439,1626296407000
Fix,GT,37.5469083,-122.3727775,158.42099725797843,10.331243,0.1,148.48611,1626296408000
Fix,GT,37.5468303,-122.3726987,158.49700695468866,11.815487,0.1,138.38556,1626296409000
Fix,GT,37.5467463,-122.3726012,158.5820147820953,13.615853,0.1,137.56195,1626296410000
Fix,GT,37.546649,-122.372491,158.67700556922065,15.473965,0.1,138.0015,1626296411000
Fix,GT,37.5465399,-122.3723662,158.73900768508622,17.229115,0.1,137.39734,1626296412000
Fix,GT,37.5464196,-122.3722292,158.81600982752147,18.730297,0.1,137.9234,1626296413000
Fix,GT,37.5462892,-122.3720817,158.8900028670707,20.241695,0.1,137.64685,1626296414000
Fix,GT,37.5461487,-122.371922,158.86899400368893,21.86143,0.1,137.9259,1626296415000
Fix,GT,37.5459972,-122.3717499,158.70597836793294,23.47732,0.1,137.61267,1626296416000
Fix,GT,37.5458351,-122.371566,158.27097370467334,25.02568,0.1,138.33481,1626296417000
Fix,GT,37.5456598,-122.3713754,157.62495502711204,26.486717,0.1,139.8778,1626296418000
Fix,GT,37.5454699,-122.3711797,156.84195132470643,28.03517,0.1,141.02246,1626296419000
Fix,GT,37.5452666,-122.3709779,156.0249513332911,29.47935,0.1,141.99005,1626296420000
Fix,GT,37.5450533,-122.3707677,155.13495566515158,30.570328,0.1,141.48059,1626296421000
Fix,GT,37.5448386,-122.3705514,154.2989418291205,30.487701,0.1,141.2099,1626296422000
Fix,GT,37.544625,-122.3703353,153.4529458360119,30.356976,0.1,140.8888,1626296423000
Fix,GT,37.544413,-122.3701202,152.5879557045875,30.161911,0.1,141.03552,1626296424000
Fix,GT,37.5442017,-122.3699075,151.78895537274025,29.957108,0.1,141.19232,1626296425000
Fix,GT,37.5439914,-122.3696949,151.02195180208363,30.01308,0.099,140.97565,1626296426000
Fix,GT,37.5437789,-122.3694806,150.3569642112418,30.529774,0.1,141.69287,1626296427000
Fix,GT,37.5435589,-122.3692671,149.73396246620635,31.18102,0.1,142.5321,1626296428000
Fix,GT,37.5433333,-122.3690527,149.1449654007543,31.590626,0.1,143.09845,1626296429000
Fix,GT,37.5431039,-122.3688384,148.54195972263813,31.870808,0.099,143.30719,1626296430000
Fix,GT,37.5428723,-122.3686225,147.92496389893444,32.160305,0.1,143.6745,1626296431000
Fix,GT,37.5426368,-122.3684078,147.3199567371481,32.456387,0.1,144.18304,1626296432000
Fix,GT,37.5423982,-122.368193,146.69596649274823,32.69993,0.1,144.57755,1626296433000
Fix,GT,37.5421553,-122.3679811,146.0699585637173,32.947544,0.1,145.67859,1626296434000
Fix,GT,37.5419082,-122.3677729,145.4359632999166,33.121838,0.1,146.43646,1626296435000
Fix,GT,37.5416581,-122.3675669,144.796963224169,33.270897,0.1,147.0871,1626296436000
Fix,GT,37.5414045,-122.3673637,144.16896552486298,33.515537,0.1,147.94092,1626296437000
Fix,GT,37.5411456,-122.3671644,143.5189598480703,33.90275,0.1,148.77826,1626296438000
Fix,GT,37.5408817,-122.3669674,142.88196037189385,34.23993,0.1,149.77203,1626296439000
Fix,GT,37.5406134,-122.3667743,142.2269631413544,34.374252,0.1,150.51904,1626296440000
Fix,GT,37.5403429,-122.3665841,141.56495661313411,34.464233,0.099,151.09735,1626296441000
Fix,GT,37.54007,-122.3663968,140.83195323611457,34.55458,0.1,151.45367,1626296442000
Fix,GT,37.5397965,-122.3662114,139.97994809000824,34.407787,0.1,151.59879,1626296443000
Fix,GT,37.5395247,-122.3660266,139.0189369997424,34.212746,0.1,151.38727,1626296444000
Fix,GT,37.5392545,-122.3658423,137.9549293452455,34.052956,0.1,151.5636,1626296445000
Fix,GT,37.538985,-122.3656597,136.75992521220505,33.956043,0.1,151.68527,1626296446000
Fix,GT,37.5387156,-122.3654782,135.46592417985065,33.902214,0.1,151.65067,1626296447000
Fix,GT,37.5384471,-122.3652962,134.1229215101701,33.830517,0.1,151.52707,1626296448000
Fix,GT,37.5381793,-122.3651138,132.73891781741708,33.770004,0.1,151.318,1626296449000
Fix,GT,37.5379123,-122.3649321,131.38192254043858,33.683464,0.1,151.67963,1626296450000
Fix,GT,37.5376453,-122.3647515,130.028916668044,33.61152,0.1,151.50943,1626296451000
Fix,GT,37.5373789,-122.3645713,128.68991935417242,33.55328,0.1,151.66498,1626296452000
Fix,GT,37.5371129,-122.3643912,127.35291881669929,33.515133,0.1,151.47278,1626296453000
Fix,GT,37.5368478,-122.3642106,126.00292512133556,33.42266,0.1,151.56995,1626296454000
Fix,GT,37.5365827,-122.3640319,124.67292411977488,33.41257,0.1,151.73132,1626296455000
Fix,GT,37.5363169,-122.3638529,123.32692634004027,33.537155,0.1,151.66937,1626296456000
Fix,GT,37.5360507,-122.3636719,121.98392778232984,33.626198,0.1,151.2981,1626296457000
Fix,GT,37.5357848,-122.3634902,120.6399215190662,33.576015,0.099,151.48273,1626296458000
Fix,GT,37.5355191,-122.3633097,119.30792363314832,33.523735,0.1,151.4786,1626296459000
Fix,GT,37.5352533,-122.36313,117.98292288512224,33.479702,0.1,151.76572,1626296460000
Fix,GT,37.5349873,-122.3629518,116.62092042325472,33.423523,0.1,151.9231,1626296461000
Fix,GT,37.5347211,-122.3627769,115.24192922088358,33.30657,0.1,153.0069,1626296462000
Fix,GT,37.5344521,-122.3626107,113.90792498563684,33.232635,0.1,154.45807,1626296463000
Fix,GT,37.5341807,-122.3624531,112.56392364651592,33.15209,0.1,155.8407,1626296464000
Fix,GT,37.5339073,-122.3623034,111.23892398110108,33.061344,0.1,156.9574,1626296465000
Fix,GT,37.5336325,-122.3621608,109.98193370413838,32.917313,0.1,158.07703,1626296466000
Fix,GT,37.5333567,-122.3620272,108.82393628843354,32.70797,0.1,159.53033,1626296467000
Fix,GT,37.53308,-122.3619019,107.74394436414866,32.65898,0.1,160.55609,1626296468000
Fix,GT,37.5328015,-122.3617814,106.78294519048129,32.72256,0.1,161.2981,1626296469000
Fix,GT,37.5325216,-122.3616637,105.79594085812312,32.773388,0.1,161.27246,1626296470000
Fix,GT,37.5322422,-122.3615447,104.8079428828284,32.69633,0.1,161.12726,1626296471000
Fix,GT,37.5319643,-122.3614255,103.83094748519966,32.462383,0.1,160.96478,1626296472000
Fix,GT,37.5316873,-122.361307,102.83194724810728,32.561234,0.1,161.22449,1626296473000
Fix,GT,37.5314089,-122.3611883,101.87495031661771,32.69,0.1,161.05292,1626296474000
Fix,GT,37.53113,-122.361068,100.91694582006416,32.785122,0.099,161.06042,1626296475000
Fix,GT,37.5308498,-122.3609489,99.8889394629118,32.89823,0.1,161.41602,1626296476000
Fix,GT,37.5305688,-122.3608315,98.93994463122834,32.752975,0.1,161.60999,1626296477000
Fix,GT,37.5302893,-122.3607183,97.95294761048288,32.4495,0.1,162.60449,1626296478000
Fix,GT,37.5300112,-122.3606107,96.83694288250746,32.118797,0.1,162.89563,1626296479000
Fix,GT,37.5297363,-122.3605034,95.97094799526204,31.795618,0.1,162.35046,1626296480000
Fix,GT,37.5294645,-122.3603939,95.03994931896776,31.54821,0.1,162.04706,1626296481000
Fix,GT,37.5291951,-122.3602845,94.08194576408812,31.314463,0.1,161.76434,1626296482000
Fix,GT,37.5289281,-122.3601732,93.1239508568925,31.129192,0.1,161.33545,1626296483000
Fix,GT,37.5286632,-122.360061,92.28096171705094,30.909523,0.1,161.34271,1626296484000
Fix,GT,37.5284025,-122.3599526,91.667970752771,29.908468,0.1,162.00049,1626296485000
Fix,GT,37.5281505,-122.3598538,91.2269917207787,28.682161,0.1,163.10071,1626296486000
Fix,GT,37.5279064,-122.3597643,91.01500473380652,27.809172,0.1,164.2284,1626296487000
Fix,GT,37.5276687,-122.3596827,91.28401278699351,26.878273,0.1,165.02124,1626296488000
Fix,GT,37.5274391,-122.3596054,91.77801855401324,25.9231,0.1,164.67682,1626296489000
Fix,GT,37.5272182,-122.3595265,92.2160099912621,25.142061,0.1,163.6709,1626296490000
Fix,GT,37.5270033,-122.3594451,92.58201923827546,24.661732,0.1,162.78735,1626296491000
Fix,GT,37.5267939,-122.3593613,93.01202741098136,24.041048,0.1,161.87207,1626296492000
Fix,GT,37.5265939,-122.3592773,93.4280257947932,22.608904,0.1,161.19519,1626296493000
Fix,GT,37.5264098,-122.3591945,93.81701336079428,20.813688,0.1,158.99127,1626296494000
Fix,GT,37.5262446,-122.3591104,94.02500912016204,18.691713,0.1,156.78857,1626296495000
Fix,GT,37.5260982,-122.35903,94.17499781112424,16.682043,0.1,156.04669,1626296496000
Fix,GT,37.5259698,-122.3589589,94.28300518227611,14.5138035,0.1,156.03961,1626296497000
Fix,GT,37.5258582,-122.3588961,94.30499630804768,12.67378,0.1,155.58203,1626296498000
Fix,GT,37.525761,-122.3588422,94.32499584329176,10.974335,0.1,156.07709,1626296499000
Fix,GT,37.5256762,-122.3587948,94.3069956841966,9.66943,0.1,155.91199,1626296500000
Fix,GT,37.5255989,-122.3587514,94.28699846058676,9.200842,0.1,155.63684,1626296501000
Fix,GT,37.525527,-122.3587108,94.23799466098984,8.273516,0.099,155.69867,1626296502000
Fix,GT,37.5254636,-122.3586752,94.17499800954992,7.10068,0.1,155.75568,1626296503000
Fix,GT,37.5254102,-122.3586453,94.1169987248896,5.8361483,0.1,155.72522,1626296504000
Fix,GT,37.5253679,-122.3586214,94.07599798500222,4.737208,0.1,155.77844,1626296505000
Fix,GT,37.5253299,-122.3586003,94.0069952216684,4.388478,0.1,155.9502,1626296506000
Fix,GT,37.5252991,-122.3585831,93.95699705254556,3.013992,0.1,155.98938,1626296507000
Fix,GT,37.5252784,-122.3585714,93.9269968152257,2.2526338,0.1,155.80353,1626296508000
Fix,GT,37.5252608,-122.3585617,93.9030022300766,2.0013425,0.1,155.61316,1626296509000
Fix,GT,37.5252462,-122.3585533,93.87299985052506,1.5354851,0.1,155.46161,1626296510000
Fix,GT,37.5252337,-122.3585461,93.8629996557966,1.6611952,0.1,155.42987,1626296511000
Fix,GT,37.5252186,-122.3585373,93.85599591359497,2.0640106,0.1,155.34961,1626296512000
Fix,GT,37.5251979,-122.3585256,93.83299970682344,2.8688493,0.1,155.40625,1626296513000
Fix,GT,37.525172,-122.3585109,93.79300285067964,3.3986216,0.1,155.46838,1626296514000
Fix,GT,37.5251421,-122.3584941,93.771996656975,3.8292947,0.1,155.54224,1626296515000
Fix,GT,37.5251148,-122.3584786,93.73698852088016,2.428872,0.1,155.39093,1626296516000
Fix,GT,37.5250989,-122.3584697,93.6869983973637,1.856728,0.1,155.46307,1626296517000
Fix,GT,37.5250812,-122.3584595,93.65600471897407,2.6316378,0.1,155.1358,1626296518000
Fix,GT,37.5250551,-122.3584415,93.62299470783236,4.016443,0.1,150.65662,1626296519000
Fix,GT,37.5250213,-122.3584066,93.51599372044336,5.6100054,0.1,139.38107,1626296520000
Fix,GT,37.5249833,-122.3583534,93.3999969205932,6.9057255,0.099,130.07983,1626296521000
Fix,GT,37.5249432,-122.3582848,93.45701042235716,8.008703,0.1,124.89752,1626296522000
Fix,GT,37.5249028,-122.3582038,93.69001447319984,8.905722,0.1,121.301605,1626296523000
Fix,GT,37.5248576,-122.3581115,94.179029512448,10.259797,0.1,121.49963,1626296524000
Fix,GT,37.5248044,-122.3580087,94.84303618253442,11.423578,0.1,123.94647,1626296525000
Fix,GT,37.5247402,-122.3578992,95.51502613051366,12.588012,0.1,127.33966,1626296526000
Fix,GT,37.5246659,-122.3577861,96.21404427226598,13.157574,0.1,130.59653,1626296527000
Fix,GT,37.5245861,-122.3576788,96.86802568871975,12.799594,0.1,134.02802,1626296528000
Fix,GT,37.5245038,-122.357582,97.41903328427894,12.403687,0.1,138.54791,1626296529000
Fix,GT,37.5244133,-122.3574947,98.09103093558753,13.05886,0.1,144.62201,1626296530000
Fix,GT,37.5243104,-122.3574159,98.97404078386174,13.716212,0.1,150.81696,1626296531000
