MessageType,Provider,LatitudeDegrees,LongitudeDegrees,AltitudeMeters,SpeedMps,AccuracyMeters,BearingDegrees,UnixTimeMillis
Fix,GT,37.3713136,-122.0479784,9.097000271111726,0.0012459349,0.1,195.18962,1615417982440
Fix,GT,37.3713136,-122.0479784,9.097,0.0017620178,0.1,195.18977,1615417983440
Fix,GT,37.3713136,-122.0479784,9.097,0.0011682787,0.1,195.1898,1615417984440
Fix,GT,37.3713136,-122.0479784,9.097,0.0016521957,0.1,195.18979,1615417985440
Fix,GT,37.3713136,-122.0479784,9.097000271111726,0.0012459349,0.1,195.1899,1615417986440
Fix,GT,37.3713136,-122.0479784,9.097000271111726,0.0012459349,0.1,195.18997,1615417987440
Fix,GT,37.3713136,-122.0479784,9.097,0.0021874781,0.1,195.19,1615417988440
Fix,GT,37.3713136,-122.0479784,9.097000271111726,0.000406261,0.1,195.1901,1615417989440
Fix,GT,37.3713136,-122.0479784,9.097000271111726,0.001,0.1,195.19006,1615417990440
Fix,GT,37.3713136,-122.0479784,9.097,0.00059373904,0.1,195.19003,1615417991440
Fix,GT,37.3713136,-122.0479784,9.097,0.001406261,0.1,195.19011,1615417992440
Fix,GT,37.3713126,-122.0479786,9.091,0.40520933,0.1,195.07709,1615417993440
Fix,GT,37.3713061,-122.0479799,9.094406532138583,1.0209565,0.1,193.10551,1615417994440
Fix,GT,37.3712951,-122.0479812,9.106812522411346,1.4274966,0.1,189.61403,1615417995440
Fix,GT,37.3712809,-122.0479829,9.11921878361702,1.7253764,0.1,187.29517,1615417996440
Fix,GT,37.3712643,-122.0479863,9.14621878361702,1.9506674,0.1,188.90303,1615417997440
Fix,GT,37.3712489,-122.0479961,9.19243756723404,1.6461351,0.1,201.38887,1615417998440
Fix,GT,37.3712403,-122.0480121,9.232219058811664,1.5121393,0.1,221.03204,1615417999440
Fix,GT,37.3712362,-122.0480325,9.255844105243682,1.8187832,0.1,242.41231,1615418000440
Fix,GT,37.3712374,-122.0480568,9.276000276446345,2.192081,0.1,262.7725,1615418001440
Fix,GT,37.371241,-122.0480841,9.30021906119585,2.5572066,0.1,274.61487,1615418002440
Fix,GT,37.3712463,-122.0481149,9.338031028836966,3.0299654,0.1,280.2727,1615418003440
Fix,GT,37.3712533,-122.0481509,9.39743756866455,3.4214563,0.1,282.72528,1615418004440
Fix,GT,37.3712602,-122.0481889,9.455218784332276,3.3944588,0.1,282.96945,1615418005440
Fix,GT,37.3712669,-122.048226,9.57399898338318,3.2709017,0.1,282.8834,1615418006440
Fix,GT,37.3712736,-122.0482624,9.479562714457511,3.325325,0.1,282.91663,1615418007440
Fix,GT,37.371281,-122.048299,9.441593738555907,3.3555121,0.1,284.14175,1615418008440
Fix,GT,37.3712892,-122.0483356,9.38190635946393,3.3510718,0.1,285.75165,1615418009440
Fix,GT,37.3712976,-122.0483712,9.363406261324885,3.1068952,0.1,286.11115,1615418010440
Fix,GT,37.3713037,-122.0484011,9.392187477469443,2.3280547,0.1,284.61896,1615418011440
Fix,GT,37.3713076,-122.0484207,9.422,1.1896776,0.1,283.93405,1615418012440
Fix,GT,37.3713088,-122.0484273,9.422593738675118,0.1979925,0.1,283.7841,1615418013440
Fix,GT,37.3713092,-122.0484295,9.421,0.291485,0.1,283.7366,1615418014440
Fix,GT,37.3713101,-122.0484346,9.424000280857086,0.6689374,0.1,283.6157,1615418015440
Fix,GT,37.3713122,-122.0484459,9.44021878361702,1.4311829,0.1,283.36734,1615418016440
Fix,GT,37.3713159,-122.0484661,9.480218783438204,2.1764703,0.1,282.87396,1615418017440
Fix,GT,37.3713202,-122.0484905,9.498625044584273,2.157958,0.1,282.2726,1615418018440
Fix,GT,37.3713243,-122.0485132,9.531437566876413,2.0342188,0.1,282.62933,1615418019440
Fix,GT,37.3713321,-122.0485341,9.51490636700392,1.7393553,0.1,291.36713,1615418020440
Fix,GT,37.3713454,-122.0485462,9.324656272500754,1.8511658,0.1,311.37628,1615418021440
Fix,GT,37.371366,-122.0485529,9.319156527161596,2.43207,0.1,334.58765,1615418022440
Fix,GT,37.3713927,-122.0485518,9.44221878308058,3.342472,0.1,356.7863,1615418023440
Fix,GT,37.3714292,-122.0485425,9.476812522053718,4.855918,0.1,10.419525,1615418024440
Fix,GT,37.3714774,-122.0485249,9.449968976706266,6.0139656,0.1,15.97644,1615418025440
Fix,GT,37.3715291,-122.0485032,9.39315617364645,6.0195932,0.1,18.76294,1615418026440
Fix,GT,37.3715791,-122.0484785,9.329124868392944,5.8213286,0.1,22.207397,1615418027440
Fix,GT,37.3716225,-122.0484495,9.25018747806549,4.9928856,0.1,29.188293,1615418028440
Fix,GT,37.3716554,-122.0484177,9.198031304836274,4.398853,0.1,38.779297,1615418029440
Fix,GT,37.3716814,-122.0483803,9.180406260967256,4.4526024,0.1,49.187927,1615418030440
Fix,GT,37.3717043,-122.0483351,9.18743783900142,4.996294,0.1,58.21469,1615418031440
Fix,GT,37.371723,-122.0482794,9.212250361472368,5.7038755,0.1,68.465,1615418032440
Fix,GT,37.371735,-122.0482115,9.25462531927228,6.5703306,0.1,79.51318,1615418033440
Fix,GT,37.3717348,-122.0481318,9.2570002758801,7.513283,0.1,93.28644,1615418034440
Fix,GT,37.3717204,-122.0480431,9.242781492859123,8.526086,0.1,102.95163,1615418035440
Fix,GT,37.3716995,-122.0479442,9.219594013899563,9.585936,0.1,104.87213,1615418036440
Fix,GT,37.3716764,-122.0478344,9.20521905693412,10.466993,0.1,104.430176,1615418037440
Fix,GT,37.3716526,-122.0477171,9.173781217455865,10.952772,0.1,104.20923,1615418038440
Fix,GT,37.3716276,-122.0475946,9.130968695759773,11.487876,0.1,104.356384,1615418039440
Fix,GT,37.3716011,-122.0474659,9.092937662333249,12.041604,0.1,104.2702,1615418040440
Fix,GT,37.3715739,-122.0473319,9.02634365183115,12.382832,0.1,104.31485,1615418041440
Fix,GT,37.3715454,-122.0471961,8.974374956130982,12.531833,0.1,104.77704,1615418042440
Fix,GT,37.3715157,-122.0470575,8.903968960434199,12.893122,0.1,105.057434,1615418043440
Fix,GT,37.3714855,-122.0469153,8.83596895840764,13.150988,0.1,104.69104,1615418044440
Fix,GT,37.3714554,-122.0467706,8.760156172394751,13.346746,0.1,104.5459,1615418045440
Fix,GT,37.3714249,-122.0466237,8.691968694865704,13.534599,0.1,104.53711,1615418046440
Fix,GT,37.3713936,-122.0464747,8.616937389731408,13.757669,0.1,104.812744,1615418047440
Fix,GT,37.3713615,-122.0463234,8.499749911785125,13.972585,0.1,104.796326,1615418048440
Fix,GT,37.3713291,-122.0461699,8.44493764063716,14.15843,0.1,104.757965,1615418049440
Fix,GT,37.3712962,-122.0460145,8.357531376928092,14.308848,0.1,104.76758,1615418050440
Fix,GT,37.3712634,-122.045858,8.295343897283077,14.335148,0.1,104.64349,1615418051440
Fix,GT,37.3712307,-122.0457022,8.247374955415726,14.174966,0.1,104.72235,1615418052440
Fix,GT,37.3711983,-122.0455484,8.241812522411346,14.025545,0.1,104.6962,1615418053440
Fix,GT,37.3711662,-122.0453959,8.261843828439712,13.900982,0.1,104.84003,1615418054440
Fix,GT,37.3711334,-122.0452448,8.286,13.84355,0.1,105.32269,1615418055440
Fix,GT,37.3710997,-122.0450948,8.301406261205672,13.754121,0.1,105.67157,1615418056440
Fix,GT,37.371066,-122.0449458,8.307187725126743,13.679977,0.1,105.80701,1615418057440
Fix,GT,37.3710322,-122.0447975,8.279000246733426,13.632908,0.1,105.8992,1615418058440
Fix,GT,37.3709985,-122.0446501,8.237781461834908,13.538704,0.1,105.96774,1615418059440
Fix,GT,37.3709648,-122.0445034,8.169,13.504261,0.1,105.95395,1615418060440
Fix,GT,37.3709312,-122.0443575,8.105562673509121,13.380769,0.1,106.10358,1615418061440
Fix,GT,37.3708972,-122.0442139,8.01793762552738,13.179567,0.1,106.75955,1615418062440
Fix,GT,37.3708621,-122.0440715,7.918906080126762,13.216004,0.1,107.14923,1615418063440
Fix,GT,37.370827,-122.0439294,7.802343880444765,13.126379,0.1,107.20947,1615418064440
Fix,GT,37.3707916,-122.0437884,7.705155940383673,13.059323,0.1,107.427185,1615418065440
Fix,GT,37.370756,-122.043648,7.619125089526177,13.034788,0.1,107.67401,1615418066440
Fix,GT,37.3707201,-122.0435079,7.513749683707952,13.028694,0.1,107.743805,1615418067440
Fix,GT,37.3706844,-122.0433679,7.430375175595284,13.025265,0.1,107.61389,1615418068440
Fix,GT,37.3706487,-122.0432276,7.345530904084444,13.069279,0.1,107.661896,1615418069440
Fix,GT,37.3706127,-122.0430863,7.249749690622091,13.209284,0.1,107.729706,1615418070440
Fix,GT,37.3705759,-122.0429437,7.178156382858754,13.355582,0.1,107.88269,1615418071440
Fix,GT,37.3705385,-122.0427995,7.103593738317489,13.488529,0.1,107.86682,1615418072440
Fix,GT,37.3705015,-122.0426545,7.0521250697672375,13.451803,0.1,107.699554,1615418073440
Fix,GT,37.3704644,-122.0425103,6.960937589257956,13.368437,0.1,107.67685,1615418074440
Fix,GT,37.3704284,-122.0423674,6.888750110745431,13.162877,0.1,107.41614,1615418075440
Fix,GT,37.3703927,-122.0422272,6.819968894153833,12.908094,0.1,107.72266,1615418076440
Fix,GT,37.370357,-122.04209,6.749155965536833,12.6619835,0.1,108.09418,1615418077440
Fix,GT,37.3703218,-122.0419556,6.689968490511179,12.4060335,0.1,108.075134,1615418078440
Fix,GT,37.3702875,-122.0418238,6.641155967921018,12.142912,0.1,107.99817,1615418079440
Fix,GT,37.3702536,-122.0416947,6.585374755650759,11.94106,0.1,108.26337,1615418080440
Fix,GT,37.3702201,-122.041569,6.557187671303749,11.396351,0.1,108.48447,1615418081440
Fix,GT,37.3701884,-122.0414526,6.535406262159348,10.330665,0.1,108.87494,1615418082440
Fix,GT,37.3701601,-122.0413507,6.513593931943179,8.719344,0.1,109.29404,1615418083440
Fix,GT,37.370137,-122.0412687,6.4999998062849045,6.704365,0.1,109.30347,1615418084440
Fix,GT,37.3701198,-122.0412068,6.4850001932680605,4.8379593,0.1,108.84573,1615418085440
Fix,GT,37.3701088,-122.0411659,6.472187668055296,2.8385246,0.1,108.63611,1615418086440
Fix,GT,37.3701035,-122.0411462,6.4669998072683805,0.87364817,0.1,108.64984,1615418087440
Fix,GT,37.3701029,-122.0411441,6.4589998075068,0.005361406,0.1,108.66562,1615418088440
Fix,GT,37.3701029,-122.0411441,6.456999807566405,0.0018784523,0.1,108.6651,1615418089440
Fix,GT,37.3701029,-122.0411441,6.457000192433595,0.0,0.1,108.664185,1615418090440
Fix,GT,37.3701029,-122.0411441,6.456999807566405,0.0005937374,0.1,108.66431,1615418091440
Fix,GT,37.3701029,-122.0411441,6.457,0.0,0.1,108.66431,1615418092440
Fix,GT,37.3701029,-122.0411441,6.457,0.0,0.1,108.664154,1615418093440
Fix,GT,37.3701029,-122.0411441,6.456999807566405,0.0,0.1,108.66434,1615418094440
Fix,GT,37.3701029,-122.0411441,6.457,0.001245934,0.1,108.66449,1615418095440
Fix,GT,37.3701029,-122.0411441,6.457000192433595,0.0,0.1,108.66443,1615418096440
Fix,GT,37.3701029,-122.0411441,6.457,0.001,0.1,108.664474,1615418097440
Fix,GT,37.3701029,-122.0411441,6.457,0.00040626296,0.1,108.66434,1615418098440
Fix,GT,37.3701029,-122.0411441,6.456999807566405,0.0,0.1,108.66434,1615418099440
Fix,GT,37.3701029,-122.0411441,6.457,0.0,0.1,108.66446,1615418100440
Fix,GT,37.3701029,-122.0411441,6.457,0.0,0.1,108.66455,1615418101440
Fix,GT,37.3701029,-122.0411441,6.457,0.0,0.1,108.66431,1615418102440
Fix,GT,37.3701029,-122.0411441,6.456999807566405,0.00040626322,0.1,108.66461,1615418103440
Fix,GT,37.3701029,-122.0411441,6.457,0.0,0.1,108.6647,1615418104440
Fix,GT,37.3701029,-122.0411441,6.457,0.0,0.1,108.6647,1615418105440
Fix,GT,37.3701029,-122.0411441,6.457,0.00059373665,0.1,108.66467,1615418106440
Fix,GT,37.3701029,-122.0411441,6.456999807566405,0.0009999999,0.1,108.66467,1615418107440
Fix,GT,37.3701029,-122.0411441,6.457,0.0005745432,0.1,108.66455,1615418108440
Fix,GT,37.3701029,-122.0411441,6.457,0.00040626354,0.1,108.66452,1615418109440
Fix,GT,37.3701029,-122.0411441,6.456999807566405,0.0012459336,0.1,108.66461,1615418110440
Fix,GT,37.3701029,-122.0411441,6.457,0.001,0.1,108.66467,1615418111440
Fix,GT,37.3701029,-122.0411441,6.457,0.001,0.1,108.66461,1615418112440
Fix,GT,37.3701029,-122.0411441,6.456,0.0012459337,0.1,108.66446,1615418113440
Fix,GT,37.3701027,-122.0411433,6.447406263709069,0.35637417,0.1,108.67145,1615418114440
Fix,GT,37.3700996,-122.0411317,6.437593544334173,2.0131955,0.1,108.71811,1615418115440
Fix,GT,37.3700909,-122.0410998,6.428187472462654,3.9688916,0.1,108.80676,1615418116440
Fix,GT,37.3700766,-122.0410481,6.409562417030335,5.7616568,0.1,108.893555,1615418117440
Fix,GT,37.3700571,-122.040977,6.392593736171722,7.4025,0.1,108.86633,1615418118440
Fix,GT,37.3700338,-122.0408916,6.372374754369258,8.541848,0.1,108.86908,1615418119440
Fix,GT,37.3700074,-122.0407943,6.352593735992908,9.674495,0.1,108.71661,1615418120440
Fix,GT,37.3699779,-122.0406848,6.355,10.781506,0.1,108.408295,1615418121440
Fix,GT,37.369946,-122.0405634,6.332187471985817,11.867123,0.1,108.003174,1615418122440
Fix,GT,37.369912,-122.040431,6.304406264066696,12.69994,0.1,107.70526,1615418123440
Fix,GT,37.3698762,-122.0402905,6.288781207799911,13.419851,0.1,107.671875,1615418124440
Fix,GT,37.3698387,-122.0401435,6.255593735873699,13.789197,0.1,107.58136,1615418125440
Fix,GT,37.369801,-122.0399953,6.224781207442284,13.7665,0.1,107.79129,1615418126440
Fix,GT,37.3697629,-122.0398476,6.174968678474426,13.745567,0.1,107.84299,1615418127440
Fix,GT,37.3697247,-122.0396999,6.107749885559082,13.751228,0.1,107.861176,1615418128440
Fix,GT,37.3696868,-122.0395521,6.065,13.748153,0.1,107.78357,1615418129440
Fix,GT,37.3696486,-122.0394043,6.061062463432551,13.853506,0.1,107.892456,1615418130440
Fix,GT,37.3696095,-122.0392529,6.083187471032142,14.339201,0.1,107.77988,1615418131440
Fix,GT,37.3695693,-122.0390964,6.078406083375215,14.679445,0.1,107.66812,1615418132440
Fix,GT,37.3695293,-122.0389395,6.062562593311071,14.482922,0.1,107.72934,1615418133440
Fix,GT,37.3694898,-122.0387854,6.027781385958194,14.191611,0.1,107.71591,1615418134440
Fix,GT,37.3694507,-122.0386345,5.990999821454286,13.913197,0.1,107.92801,1615418135440
Fix,GT,37.3694123,-122.0384867,5.968374941587448,13.623357,0.1,107.91406,1615418136440
Fix,GT,37.369375,-122.0383419,5.965187470793724,13.332036,0.1,107.85101,1615418137440
Fix,GT,37.3693385,-122.0382002,5.938375118732452,13.050687,0.1,107.81488,1615418138440
Fix,GT,37.3693028,-122.0380611,5.910187647014856,12.924479,0.1,107.64969,1615418139440
Fix,GT,37.3692671,-122.0379207,5.907375117808581,13.1652,0.1,107.60828,1615418140440
Fix,GT,37.3692308,-122.0377781,5.897374766141176,13.290453,0.1,107.6582,1615418141440
Fix,GT,37.3691946,-122.0376353,5.868593735516072,13.250574,0.1,107.565094,1615418142440
Fix,GT,37.3691586,-122.0374919,5.843781380474567,13.449789,0.1,107.211426,1615418143440
Fix,GT,37.3691237,-122.037345,5.826374768257141,13.672127,0.1,106.06961,1615418144440
Fix,GT,37.3690907,-122.0371956,5.806812701940537,13.824512,0.1,105.15338,1615418145440
Fix,GT,37.3690581,-122.0370425,5.773593907624483,14.274144,0.1,104.66992,1615418146440
Fix,GT,37.369026,-122.0368838,5.70674988412857,14.73283,0.1,103.729004,1615418147440
Fix,GT,37.3689949,-122.0367196,5.654812528967858,15.143635,0.1,103.0802,1615418148440
Fix,GT,37.368964,-122.0365517,5.590562579959631,15.322176,0.1,102.886444,1615418149440
Fix,GT,37.3689326,-122.0363811,5.549593735516071,15.78772,0.1,102.83273,1615418150440
Fix,GT,37.3689006,-122.0362033,5.511593571215868,16.44014,0.1,102.62167,1615418151440
Fix,GT,37.3688676,-122.0360194,5.494593571722508,16.97305,0.1,102.643005,1615418152440
Fix,GT,37.3688332,-122.0358302,5.476593735516071,17.31997,0.1,102.91547,1615418153440
Fix,GT,37.3687978,-122.0356389,5.457312297224998,17.471184,0.1,102.974304,1615418154440
Fix,GT,37.3687617,-122.035446,5.416375103652477,17.61227,0.1,103.14368,1615418155440
Fix,GT,37.3687256,-122.0352528,5.380000160336494,17.568441,0.1,103.015625,1615418156440
Fix,GT,37.3686903,-122.0350593,5.344624898344279,17.573256,0.1,102.93967,1615418157440
Fix,GT,37.3686535,-122.0348666,5.343031321823597,17.536621,0.1,103.75311,1615418158440
Fix,GT,37.3686137,-122.0346757,5.310781207084656,17.36311,0.1,105.23511,1615418159440
Fix,GT,37.3685706,-122.0344887,5.256781207084655,17.174908,0.1,106.6355,1615418160440
Fix,GT,37.3685238,-122.0343041,5.231624901235104,17.12672,0.1,108.430664,1615418161440
Fix,GT,37.3684719,-122.0341224,5.219374943017959,17.0434,0.1,110.43207,1615418162440
Fix,GT,37.3684157,-122.0339439,5.179406109809875,16.936394,0.1,112.20261,1615418163440
Fix,GT,37.3683563,-122.0337683,5.140749886512756,16.811031,0.1,113.40427,1615418164440
Fix,GT,37.3682947,-122.0335965,5.133156151533127,16.550234,0.1,114.75311,1615418165440
Fix,GT,37.3682301,-122.0334299,5.066968528747559,16.275562,0.1,116.64691,1615418166440
Fix,GT,37.3681625,-122.0332688,5.02956241595745,15.921605,0.1,118.27475,1615418167440
Fix,GT,37.368094,-122.0331145,5.017968679964541,15.222559,0.1,119.47183,1615418168440
Fix,GT,37.3680278,-122.0329721,5.029406114041805,13.938139,0.1,120.69519,1615418169440
Fix,GT,37.3679655,-122.0328444,5.0247812083363534,12.564785,0.1,121.96579,1615418170440
Fix,GT,37.3679077,-122.0327318,5.013781208336352,11.158094,0.1,123.05603,1615418171440
Fix,GT,37.3678551,-122.0326337,5.000406263828278,9.662754,0.1,124.229126,1615418172440
Fix,GT,37.36781,-122.0325531,4.993999851167201,7.718029,0.1,125.32153,1615418173440
Fix,GT,37.3677748,-122.0324921,4.9831873238682745,5.615987,0.1,125.86444,1615418174440
Fix,GT,37.3677506,-122.0324506,4.9685935881137855,3.6021461,0.1,126.10974,1615418175440
Fix,GT,37.3677355,-122.0324248,4.9565937361717225,2.163342,0.1,126.19055,1615418176440
Fix,GT,37.367727,-122.0324102,4.949593736231327,0.98624825,0.1,126.1481,1615418177440
Fix,GT,37.3677241,-122.0324052,4.943,0.2527158,0.1,126.11777,1615418178440
Fix,GT,37.3677239,-122.0324048,4.937,0.0018784549,0.1,126.11774,1615418179440
Fix,GT,37.3677238,-122.0324048,4.936999852865935,0.0024062637,0.1,126.11615,1615418180440
Fix,GT,37.3677238,-122.0324048,4.937,0.002,0.1,126.11569,1615418181440
Fix,GT,37.3677239,-122.0324048,4.937,0.002095906,0.1,126.11572,1615418182440
Fix,GT,37.3677239,-122.0324048,4.937,0.00116828,0.1,126.11572,1615418183440
Fix,GT,37.3677239,-122.0324048,4.936999852865935,0.001,0.1,126.1156,1615418184440
Fix,GT,37.3677239,-122.0324048,4.936999852865935,0.00040626395,0.1,126.1156,1615418185440
Fix,GT,37.3677238,-122.0324048,4.936999852865935,0.001,0.1,126.11557,1615418186440
Fix,GT,37.3677238,-122.0324048,4.937,0.00059373607,0.1,126.11563,1615418187440
Fix,GT,37.3677238,-122.0324048,4.936999852865935,0.0,0.1,126.11572,1615418188440
Fix,GT,37.3677238,-122.0324048,4.937,0.0004062641,0.1,126.11551,1615418189440
Fix,GT,37.3677238,-122.0324048,4.937,0.001,0.1,126.115295,1615418190440
Fix,GT,37.3677238,-122.0324048,4.937,0.0014142136,0.1,126.11539,1615418191440
Fix,GT,37.3677238,-122.0324048,4.937,0.0004062642,0.1,126.11551,1615418192440
Fix,GT,37.3677238,-122.0324048,4.937,0.0,0.1,126.11557,1615418193440
Fix,GT,37.3677238,-122.0324048,4.937,0.00040626427,0.1,126.11542,1615418194440
Fix,GT,37.3677238,-122.0324048,4.937,0.0005937357,0.1,126.11548,1615418195440
Fix,GT,37.3677238,-122.0324048,4.936999852865935,0.00040626441,0.1,126.11557,1615418196440
Fix,GT,37.3677238,-122.0324048,4.937000147134066,0.00040626447,0.1,126.1156,1615418197440
Fix,GT,37.3677238,-122.0324048,4.937,0.0,0.1,126.11575,1615418198440
Fix,GT,37.3677238,-122.0324048,4.937,0.0,0.1,126.11575,1615418199440
Fix,GT,37.3677238,-122.0324048,4.937,0.0004062645,0.1,126.11578,1615418200440
Fix,GT,37.3677238,-122.0324048,4.937,0.0008396687,0.1,126.11578,1615418201440
Fix,GT,37.3677238,-122.0324048,4.936999852865935,0.00040626465,0.1,126.115906,1615418202440
Fix,GT,37.3677238,-122.0324048,4.937,0.0005937353,0.1,126.115814,1615418203440
Fix,GT,37.3677238,-122.0324048,4.937,0.0017338973,0.1,126.11615,1615418204440
Fix,GT,37.3677238,-122.0324048,4.937000147134066,0.001652198,0.1,126.115906,1615418205440
Fix,GT,37.3677238,-122.0324048,4.937000147134066,0.0012459332,0.1,126.11572,1615418206440
Fix,GT,37.3677238,-122.0324048,4.937000147134066,0.00040626482,0.1,126.11548,1615418207440
Fix,GT,37.3677238,-122.0324048,4.937,0.0012459331,0.1,126.1156,1615418208440
Fix,GT,37.3677238,-122.0324048,4.937000147134066,0.001,0.1,126.11569,1615418209440
Fix,GT,37.3677238,-122.0324048,4.936999852865935,0.001,0.1,126.11572,1615418210440
Fix,GT,37.3677238,-122.0324048,4.937000147134066,0.001,0.1,126.11578,1615418211440
Fix,GT,37.3677238,-122.0324048,4.936999852865935,0.002,0.1,126.11572,1615418212440
Fix,GT,37.3677239,-122.0324048,4.937000147134066,0.002,0.1,126.11575,1615418213440
Fix,GT,37.3677239,-122.0324048,4.936,0.003,0.1,126.11578,1615418214440
Fix,GT,37.3677235,-122.0324042,4.93,0.30970156,0.1,126.11459,1615418215440
Fix,GT,37.3677194,-122.032397,4.926,1.3444161,0.1,126.03674,1615418216440
Fix,GT,37.3677087,-122.0323785,4.917593881398439,2.7632837,0.1,125.88977,1615418217440
Fix,GT,37.3676894,-122.0323452,4.914406118661165,4.481625,0.1,125.9939,1615418218440
Fix,GT,37.3676606,-122.0322961,4.915593881338835,6.421647,0.1,126.31976,1615418219440
Fix,GT,37.3676206,-122.0322296,4.913625060796738,8.282589,0.1,127.08154,1615418220440
Fix,GT,37.3675713,-122.0321499,4.906593588531017,9.49589,0.1,128.09656,1615418221440
Fix,GT,37.3675139,-122.0320614,4.889187469601631,10.758823,0.1,129.33435,1615418222440
Fix,GT,37.3674479,-122.0319628,4.874406119972467,12.01976,0.1,130.2857,1615418223440
Fix,GT,37.3673735,-122.0318563,4.86081267541647,12.975622,0.1,131.70099,1615418224440
Fix,GT,37.3672915,-122.0317456,4.811968817025424,13.675193,0.1,133.43124,1615418225440
Fix,GT,37.3672032,-122.031633,4.804000143170358,14.34853,0.1,135.078,1615418226440
Fix,GT,37.3671081,-122.0315168,4.781781061768532,15.130283,0.1,135.7276,1615418227440
Fix,GT,37.3670086,-122.0313949,4.784624918371439,15.694925,0.1,135.50711,1615418228440
Fix,GT,37.3669062,-122.03127,4.772375081121922,15.971805,0.1,135.935,1615418229440
Fix,GT,37.3668016,-122.0311442,4.7373749387264255,16.227673,0.1,136.10245,1615418230440
Fix,GT,37.3666955,-122.0310162,4.700781344264746,16.458597,0.1,136.00919,1615418231440
Fix,GT,37.3665879,-122.030887,4.700593594670296,16.59277,0.1,136.2508,1615418232440
Fix,GT,37.3664795,-122.0307571,4.693375078767538,16.727322,0.1,136.15488,1615418233440
Fix,GT,37.3663706,-122.0306254,4.652593873381615,16.870605,0.1,135.80588,1615418234440
Fix,GT,37.3662613,-122.0304928,4.58940612846613,16.85234,0.1,135.75592,1615418235440
Fix,GT,37.3661527,-122.0303609,4.547406265199184,16.680979,0.1,135.91333,1615418236440
Fix,GT,37.3660453,-122.0302312,4.490374939203262,16.482395,0.1,136.06958,1615418237440
Fix,GT,37.3659383,-122.0301023,4.455593601971865,16.474092,0.1,135.98138,1615418238440
Fix,GT,37.3658315,-122.0299726,4.436374806821346,16.556854,0.1,135.77533,1615418239440
Fix,GT,37.3657243,-122.0298416,4.408562539726495,16.686962,0.1,135.50604,1615418240440
Fix,GT,37.365617,-122.0297097,4.381593865305185,16.653091,0.1,135.59128,1615418241440
Fix,GT,37.3655095,-122.0295792,4.36218759945035,16.56855,0.1,135.94504,1615418242440
Fix,GT,37.3654024,-122.0294499,4.360625191062689,16.46141,0.1,136.07819,1615418243440
Fix,GT,37.3652955,-122.0293216,4.340562279194593,16.3553,0.1,136.29797,1615418244440
Fix,GT,37.3651892,-122.029195,4.298593862831593,16.210672,0.1,136.34402,1615418245440
Fix,GT,37.3650843,-122.029069,4.280218668520451,16.04781,0.1,136.07312,1615418246440
Fix,GT,37.3649807,-122.0289441,4.305593606323003,15.885994,0.1,136.03638,1615418247440
Fix,GT,37.3648777,-122.02882,4.287781204044819,15.837644,0.1,136.1005,1615418248440
Fix,GT,37.3647747,-122.0286962,4.233718424141407,15.858171,0.1,136.07782,1615418249440
Fix,GT,37.3646723,-122.0285711,4.213031327188015,15.882496,0.1,135.48175,1615418250440
Fix,GT,37.3645697,-122.0284457,4.183374938249588,15.909121,0.1,135.72058,1615418251440
Fix,GT,37.3644668,-122.0283206,4.166374938249588,15.931572,0.1,135.81595,1615418252440
Fix,GT,37.3643635,-122.0281953,4.143812654525041,15.9595585,0.1,135.92896,1615418253440
Fix,GT,37.36426,-122.0280701,4.128187345772981,15.989475,0.1,135.97083,1615418254440
Fix,GT,37.3641561,-122.0279448,4.120781080394983,16.020844,0.1,136.00183,1615418255440
Fix,GT,37.3640521,-122.0278192,4.094968793869018,16.042505,0.1,136.094,1615418256440
Fix,GT,37.3639479,-122.0276934,4.074156018555165,16.078377,0.1,135.92004,1615418257440
Fix,GT,37.3638435,-122.0275672,4.039156139433384,16.12127,0.1,135.9635,1615418258440
Fix,GT,37.3637388,-122.0274407,4.026625063419342,16.141827,0.1,135.9585,1615418259440
Fix,GT,37.3636342,-122.0273148,4.047031449973582,16.053259,0.1,136.18536,1615418260440
Fix,GT,37.36353,-122.02719,4.047,15.966927,0.1,136.0485,1615418261440
Fix,GT,37.3634268,-122.0270648,4.046,15.916402,0.1,135.85107,1615418262440
Fix,GT,37.3633237,-122.0269399,4.029218798100947,15.943672,0.1,135.90625,1615418263440
Fix,GT,37.3632204,-122.0268152,3.9707812017202375,15.849403,0.1,136.03906,1615418264440
Fix,GT,37.3631183,-122.026692,3.939562403082848,15.59469,0.1,136.00098,1615418265440
Fix,GT,37.3630179,-122.0265711,3.890187467455864,15.320198,0.1,136.06818,1615418266440
Fix,GT,37.3629197,-122.0264518,3.88565651294589,15.034897,0.1,135.5889,1615418267440
Fix,GT,37.3628238,-122.0263343,3.8776251809597015,14.740103,0.1,135.53235,1615418268440
Fix,GT,37.3627296,-122.0262194,3.8738125327825546,14.446892,0.1,135.82642,1615418269440
Fix,GT,37.3626369,-122.0261072,3.8874062665700913,14.144225,0.1,135.99164,1615418270440
Fix,GT,37.3625469,-122.0259988,3.92003133314848,13.365305,0.1,135.98291,1615418271440
Fix,GT,37.362465,-122.0258997,3.9556251847147945,11.813393,0.1,135.98593,1615418272440
Fix,GT,37.3623944,-122.0258145,3.99321891912818,9.943124,0.1,135.91107,1615418273440
Fix,GT,37.3623371,-122.0257451,4.034,7.705488,0.1,135.92188,1615418274440
Fix,GT,37.3622946,-122.0256938,4.054812533736229,5.4116983,0.1,136.08173,1615418275440
Fix,GT,37.3622658,-122.0256592,4.06940626692772,3.5269632,0.1,136.17883,1615418276440
Fix,GT,37.3622481,-122.025638,4.076000121474266,2.0169313,0.1,136.24207,1615418277440
Fix,GT,37.3622371,-122.025625,4.079,1.4586093,0.1,136.25287,1615418278440
Fix,GT,37.362228,-122.025614,4.080406267106533,1.4879105,0.1,136.23816,1615418279440
Fix,GT,37.3622167,-122.0256004,4.087406267166138,2.108515,0.1,136.19528,1615418280440
Fix,GT,37.3621997,-122.02558,4.10021892374754,3.208527,0.1,136.15009,1615418281440
Fix,GT,37.3621738,-122.025549,4.116625069141388,4.8113723,0.1,136.06604,1615418282440
Fix,GT,37.3621376,-122.0255052,4.152437480568886,6.271448,0.1,135.92017,1615418283440
Fix,GT,37.3620929,-122.025451,4.19621867710352,7.5340395,0.1,136.0003,1615418284440
Fix,GT,37.3620402,-122.0253882,4.231625195801259,8.609308,0.1,136.53302,1615418285440
Fix,GT,37.3619804,-122.0253177,4.269218675285577,9.574401,0.1,136.52814,1615418286440
Fix,GT,37.361915,-122.0252395,4.315812535047531,10.485526,0.1,136.00476,1615418287440
Fix,GT,37.3618444,-122.0251534,4.329031466722489,11.385732,0.1,135.63458,1615418288440
Fix,GT,37.3617679,-122.0250609,4.410812666535378,12.179611,0.1,136.06891,1615418289440
Fix,GT,37.3616865,-122.0249631,4.478250007539987,12.844945,0.1,136.11243,1615418290440
Fix,GT,37.3616009,-122.0248603,4.551844009280205,13.467288,0.1,136.07382,1615418291440
Fix,GT,37.3615116,-122.0247536,4.608656408786774,13.875945,0.1,136.53021,1615418292440
Fix,GT,37.3614199,-122.0246454,4.69043774574995,14.086708,0.1,136.61151,1615418293440
Fix,GT,37.3613274,-122.0245353,4.74162492966652,14.235335,0.1,136.36584,1615418294440
Fix,GT,37.3612337,-122.0244238,4.807844017744064,14.465638,0.1,136.24982,1615418295440
Fix,GT,37.3611389,-122.0243089,4.867031194269657,14.836344,0.1,135.75739,1615418296440
Fix,GT,37.3610419,-122.0241904,4.95543760728836,15.231835,0.1,135.6181,1615418297440
Fix,GT,37.360943,-122.0240688,5.003218654841184,15.519263,0.1,135.37567,1615418298440
Fix,GT,37.3608426,-122.0239452,5.088843725055456,15.703991,0.1,135.36032,1615418299440
Fix,GT,37.3607415,-122.0238202,5.156437454938889,15.832605,0.1,135.41046,1615418300440
Fix,GT,37.3606395,-122.0236943,5.24306283763051,15.934811,0.1,135.31567,1615418301440
Fix,GT,37.3605365,-122.0235678,5.287031183540821,16.078918,0.1,135.57355,1615418302440
Fix,GT,37.3604325,-122.0234404,5.36946911084652,16.211018,0.1,135.54419,1615418303440
Fix,GT,37.3603276,-122.0233125,5.438875220298767,16.26965,0.1,135.89587,1615418304440
Fix,GT,37.3602217,-122.0231852,5.488812700331211,16.28275,0.1,136.22046,1615418305440
Fix,GT,37.3601161,-122.023058,5.564062684774399,16.251957,0.1,136.13965,1615418306440
Fix,GT,37.3600105,-122.0229312,5.618656417369842,16.194933,0.1,136.1301,1615418307440
Fix,GT,37.3599058,-122.0228047,5.675468785226345,16.097391,0.1,135.85474,1615418308440
Fix,GT,37.359802,-122.0226787,5.796062685966492,15.9935465,0.1,135.80865,1615418309440
Fix,GT,37.3596984,-122.0225537,5.856031168967485,15.93697,0.1,136.18768,1615418310440
Fix,GT,37.3595948,-122.0224296,5.905875224590302,15.873146,0.1,136.15472,1615418311440
Fix,GT,37.3594916,-122.0223054,5.998624896496534,15.907095,0.1,136.02954,1615418312440
Fix,GT,37.3593881,-122.0221807,6.053468776583672,15.970132,0.1,136.0581,1615418313440
Fix,GT,37.3592842,-122.0220555,6.110031344473362,16.013409,0.1,136.04156,1615418314440
Fix,GT,37.3591805,-122.0219306,6.184031345069409,15.9105835,0.1,135.9748,1615418315440
Fix,GT,37.3590774,-122.0218059,6.248031159073115,15.896404,0.1,135.93292,1615418316440
Fix,GT,37.3589742,-122.0216812,6.299031345665455,15.980411,0.1,136.01276,1615418317440
Fix,GT,37.3588699,-122.0215552,6.380625076770782,16.176231,0.1,135.81271,1615418318440
Fix,GT,37.3587645,-122.0214276,6.449624884963036,16.36531,0.1,135.94669,1615418319440
Fix,GT,37.3586577,-122.0212988,6.5036564243435855,16.524656,0.1,136.02817,1615418320440
Fix,GT,37.35855,-122.0211691,6.5584060739576815,16.620945,0.1,136.04166,1615418321440
Fix,GT,37.3584421,-122.0210391,6.5968752338886265,16.579422,0.1,136.02435,1615418322440
Fix,GT,37.3583353,-122.0209102,6.663624880015851,16.307785,0.1,135.92896,1615418323440
Fix,GT,37.3582309,-122.0207836,6.728031148344279,15.971198,0.1,135.87305,1615418324440
Fix,GT,37.3581276,-122.0206588,6.762625079393387,15.905212,0.1,136.00058,1615418325440
Fix,GT,37.3580248,-122.0205347,6.811625079631805,15.776248,0.1,135.9744,1615418326440
Fix,GT,37.357923,-122.0204114,6.85403114578128,15.671606,0.1,135.84613,1615418327440
Fix,GT,37.3578218,-122.0202883,6.85340627014637,15.636082,0.1,135.64554,1615418328440
Fix,GT,37.357721,-122.0201649,6.840593525886535,15.670451,0.1,135.65112,1615418329440
Fix,GT,37.3576195,-122.0200415,6.80837471562624,15.72989,0.1,135.85345,1615418330440
Fix,GT,37.3575175,-122.0199176,6.776780986577272,15.829256,0.1,135.87805,1615418331440
Fix,GT,37.3574143,-122.0197931,6.717562576353551,15.942261,0.1,136.03339,1615418332440
Fix,GT,37.3573107,-122.019668,6.618937293171882,15.994171,0.1,135.99304,1615418333440
Fix,GT,37.3572067,-122.0195426,6.522468508422374,16.054138,0.1,136.09763,1615418334440
Fix,GT,37.3571018,-122.0194172,6.392093394339085,16.100243,0.1,136.23969,1615418335440
Fix,GT,37.3569971,-122.0192914,6.298749643623829,16.120085,0.1,136.17383,1615418336440
Fix,GT,37.3568918,-122.0191657,6.20493728840351,16.166416,0.1,136.30588,1615418337440
Fix,GT,37.3567862,-122.0190396,6.091937287211419,16.200102,0.1,136.23688,1615418338440
Fix,GT,37.3566811,-122.0189126,5.979530837267637,16.240799,0.1,135.76324,1615418339440
Fix,GT,37.3565764,-122.0187844,5.892343732327223,16.240904,0.1,135.55188,1615418340440
Fix,GT,37.3564717,-122.0186564,5.760718640953302,16.211954,0.1,135.65015,1615418341440
Fix,GT,37.3563673,-122.0185291,5.655562538266182,16.134941,0.1,135.78601,1615418342440
Fix,GT,37.3562631,-122.018403,5.572156096458436,16.034367,0.1,136.02832,1615418343440
Fix,GT,37.3561592,-122.0182781,5.479499810159206,15.909953,0.1,136.10623,1615418344440
Fix,GT,37.3560566,-122.0181542,5.375124892473221,15.688455,0.1,135.99817,1615418345440
Fix,GT,37.3559555,-122.0180325,5.28353100347519,15.42406,0.1,136.04144,1615418346440
Fix,GT,37.3558562,-122.017913,5.253375066369772,15.209681,0.1,136.12836,1615418347440
Fix,GT,37.3557575,-122.0177945,5.232781181693078,15.125451,0.1,136.18005,1615418348440
Fix,GT,37.3556595,-122.0176764,5.221000155597926,15.027852,0.1,135.9231,1615418349440
Fix,GT,37.3555628,-122.0175589,5.206218819200993,14.889485,0.1,135.66943,1615418350440
Fix,GT,37.3554671,-122.0174416,5.239843912303448,14.845036,0.1,135.48706,1615418351440
Fix,GT,37.3553717,-122.017325,5.310625251799822,14.721678,0.1,135.75763,1615418352440
Fix,GT,37.3552765,-122.0172107,5.361187293052673,14.555016,0.1,136.29797,1615418353440
Fix,GT,37.3551823,-122.0170983,5.394218981981277,14.314323,0.1,136.3421,1615418354440
Fix,GT,37.3550899,-122.016988,5.435593564063311,14.067619,0.1,136.34967,1615418355440
Fix,GT,37.3549978,-122.016878,5.473218822240829,14.163542,0.1,136.26562,1615418356440
Fix,GT,37.3549053,-122.0167672,5.5322503586113445,14.273895,0.1,136.07513,1615418357440
Fix,GT,37.3548126,-122.0166548,5.575562187314034,14.276405,0.1,135.73245,1615418358440
Fix,GT,37.3547214,-122.0165429,5.6130315401554105,14.025163,0.1,135.33514,1615418359440
Fix,GT,37.3546322,-122.0164333,5.652437480211258,13.717743,0.1,135.66101,1615418360440
Fix,GT,37.3545437,-122.0163262,5.703218824744225,13.596329,0.1,136.01697,1615418361440
Fix,GT,37.3544555,-122.0162205,5.7410313751697535,13.501846,0.1,136.2326,1615418362440
Fix,GT,37.3543677,-122.0161159,5.793812377840281,13.4044,0.1,136.37909,1615418363440
Fix,GT,37.3542805,-122.0160116,5.839624927461147,13.366792,0.1,136.30273,1615418364440
Fix,GT,37.3541935,-122.0159075,5.88203137755394,13.349129,0.1,136.15039,1615418365440
Fix,GT,37.354107,-122.0158031,5.948843751996756,13.306463,0.1,135.8429,1615418366440
Fix,GT,37.3540213,-122.0156976,5.968062579452992,13.36508,0.1,135.0326,1615418367440
Fix,GT,37.3539374,-122.0155895,6.025624923825264,13.344444,0.1,133.67145,1615418368440
Fix,GT,37.353856,-122.0154789,6.074625103712082,13.327652,0.1,132.03781,1615418369440
Fix,GT,37.3537771,-122.0153658,6.103624922454357,13.28043,0.1,130.45328,1615418370440
Fix,GT,37.3537009,-122.0152507,6.158437656998634,13.226034,0.1,129.2135,1615418371440
Fix,GT,37.3536266,-122.0151342,6.190218828678131,13.203218,0.1,128.26312,1615418372440
Fix,GT,37.3535535,-122.0150161,6.206406276345254,13.33309,0.1,127.39929,1615418373440
Fix,GT,37.3534804,-122.0148947,6.235843934834003,13.612364,0.1,126.807465,1615418374440
Fix,GT,37.3534067,-122.0147701,6.282031382620335,13.852158,0.1,126.30798,1615418375440
Fix,GT,37.3533329,-122.0146432,6.296406464248896,13.971748,0.1,125.8367,1615418376440
Fix,GT,37.3532592,-122.0145149,6.341843747794629,14.030985,0.1,125.64691,1615418377440
Fix,GT,37.3531856,-122.0143859,6.403469234764576,14.083004,0.1,125.41586,1615418378440
Fix,GT,37.3531128,-122.0142557,6.46962491440773,14.080887,0.1,124.62671,1615418379440
Fix,GT,37.3530413,-122.0141241,6.490031384408475,14.13127,0.1,124.00006,1615418380440
Fix,GT,37.3529713,-122.0139906,6.529812359482049,14.187377,0.1,122.54208,1615418381440
Fix,GT,37.3529057,-122.013853,6.560593527436256,14.220045,0.1,119.69949,1615418382440
Fix,GT,37.3528452,-122.0137114,6.581406277120113,14.256687,0.1,117.05646,1615418383440
Fix,GT,37.3527887,-122.0135665,6.624437860608101,14.338774,0.1,115.5,1615418384440
Fix,GT,37.3527343,-122.0134193,6.623,14.349789,0.1,114.30969,1615418385440
Fix,GT,37.3526829,-122.0132721,6.636437664866447,14.107576,0.1,113.26013,1615418386440
Fix,GT,37.3526341,-122.0131269,6.666624911397696,13.8093605,0.1,112.52008,1615418387440
Fix,GT,37.3525879,-122.0129842,6.684218832790851,13.5091305,0.1,111.7135,1615418388440
Fix,GT,37.3525446,-122.0128434,6.695593522697687,13.2258415,0.1,110.5824,1615418389440
Fix,GT,37.3525045,-122.0127045,6.690219033122062,12.952128,0.1,109.374084,1615418390440
Fix,GT,37.3524678,-122.0125674,6.6725939208269125,12.68968,0.1,108.00833,1615418391440
Fix,GT,37.3524349,-122.0124318,6.637219032257796,12.42787,0.1,105.72211,1615418392440
Fix,GT,37.3524075,-122.0122973,6.601187443256379,12.179401,0.1,103.41568,1615418393440
Fix,GT,37.352384,-122.0121643,6.563343493580819,11.9872265,0.1,102.01172,1615418394440
Fix,GT,37.3523621,-122.0120328,6.496749964594841,11.804821,0.1,101.817535,1615418395440
Fix,GT,37.3523404,-122.0119031,6.43337507674098,11.681472,0.1,101.6315,1615418396440
Fix,GT,37.3523198,-122.0117744,6.359718373417854,11.592279,0.1,101.18051,1615418397440
Fix,GT,37.3522992,-122.0116458,6.233937394738197,11.713957,0.1,101.20407,1615418398440
Fix,GT,37.3522789,-122.0115147,6.126530928075313,11.934472,0.1,100.70642,1615418399440
Fix,GT,37.3522593,-122.011381,5.994093071103096,12.1526375,0.1,100.182465,1615418400440
Fix,GT,37.3522407,-122.0112449,5.868531099498272,12.310537,0.1,99.31415,1615418401440
Fix,GT,37.3522235,-122.0111065,5.727718192100525,12.55982,0.1,98.47772,1615418402440
Fix,GT,37.3522078,-122.0109637,5.546280681490899,13.0018425,0.1,97.42444,1615418403440
Fix,GT,37.3521939,-122.0108156,5.397937037706376,13.407619,0.1,96.02725,1615418404440
Fix,GT,37.352183,-122.0106631,5.242499515533448,13.729184,0.1,94.497345,1615418405440
Fix,GT,37.3521749,-122.0105068,5.063874392032624,13.990091,0.1,93.04489,1615418406440
Fix,GT,37.3521698,-122.0103486,4.894093376755714,14.018675,0.1,91.79837,1615418407440
Fix,GT,37.3521672,-122.0101914,4.716686806142331,13.854381,0.1,90.82013,1615418408440
Fix,GT,37.3521659,-122.010035,4.533655538499355,13.9461155,0.1,90.442566,1615418409440
Fix,GT,37.3521655,-122.0098763,4.381280657708645,14.174775,0.1,90.06381,1615418410440
Fix,GT,37.3521654,-122.0097149,4.197093218028545,14.428762,0.1,89.80713,1615418411440
Fix,GT,37.352166,-122.009552,4.050686810970307,14.379995,0.1,89.66043,1615418412440
Fix,GT,37.3521665,-122.0093908,3.924343464076519,14.180407,0.1,89.68506,1615418413440
Fix,GT,37.3521671,-122.0092321,3.838343462467194,13.950903,0.1,89.83411,1615418414440
Fix,GT,37.352167,-122.0090766,3.767968589663505,13.44498,0.1,89.97064,1615418415440
Fix,GT,37.3521668,-122.0089317,3.691968588769436,12.181969,0.1,90.0242,1615418416440
Fix,GT,37.3521663,-122.0088019,3.627374870061874,10.825342,0.1,90.24533,1615418417440
Fix,GT,37.3521656,-122.0086876,3.5825621966421606,9.359394,0.1,90.384674,1615418418440
Fix,GT,37.3521649,-122.0085919,3.516156124353409,7.579063,0.1,90.46576,1615418419440
Fix,GT,37.3521644,-122.0085155,3.4737810471057893,5.9927983,0.1,90.2742,1615418420440
Fix,GT,37.3521641,-122.0084587,3.438374866724014,4.025689,0.1,90.301636,1615418421440
Fix,GT,37.3521638,-122.0084242,3.413781251192093,2.1316535,0.1,90.53949,1615418422440
Fix,GT,37.3521636,-122.0084086,3.395593817442656,0.7138667,0.1,90.612854,1615418423440
Fix,GT,37.3521636,-122.0084062,3.383812567830086,0.010427833,0.1,90.62616,1615418424440
Fix,GT,37.3521636,-122.0084062,3.382,0.0017481201,0.1,90.624664,1615418425440
Fix,GT,37.3521636,-122.0084062,3.3820001007914544,0.001,0.1,90.6239,1615418426440
Fix,GT,37.3521636,-122.0084062,3.382000000000001,0.00040628464,0.1,90.62399,1615418427440
Fix,GT,37.3521636,-122.0084062,3.382,0.00083964,0.1,90.62375,1615418428440
Fix,GT,37.3521636,-122.0084062,3.3820001007914544,0.0017338721,0.1,90.62335,1615418429440
Fix,GT,37.3521636,-122.0084062,3.382000000000001,0.0019021606,0.1,90.62341,1615418430440
Fix,GT,37.3521636,-122.0084062,3.3820001007914544,0.0017620036,0.1,90.62384,1615418431440
Fix,GT,37.3521636,-122.0084062,3.382,0.0017620034,0.1,90.624084,1615418432440
Fix,GT,37.3521636,-122.0084062,3.382,0.001406286,0.1,90.6243,1615418433440
Fix,GT,37.3521636,-122.0084062,3.3820001007914544,0.002140157,0.1,90.62457,1615418434440
Fix,GT,37.3521636,-122.0084062,3.382000000000001,0.0014062866,0.1,90.62491,1615418435440
Fix,GT,37.3521635,-122.0084056,3.375,0.28616047,0.1,90.63101,1615418436440
Fix,GT,37.3521634,-122.0083964,3.3681875266730787,1.4445131,0.1,90.601715,1615418437440
Fix,GT,37.3521633,-122.0083728,3.353187425851822,2.7859871,0.1,90.44122,1615418438440
Fix,GT,37.3521632,-122.0083325,3.3317810388207434,4.336061,0.1,90.31824,1615418439440
Fix,GT,37.352163,-122.0082744,3.2947811375260354,6.075792,0.1,90.05505,1615418440440
Fix,GT,37.3521629,-122.0081971,3.2583748493194578,7.5848813,0.1,89.94412,1615418441440
Fix,GT,37.3521628,-122.0081045,3.224593712091446,8.797381,0.1,89.94641,1615418442440
Fix,GT,37.352163,-122.0079978,3.186781135559082,10.1270895,0.1,89.6676,1615418443440
Fix,GT,37.3521639,-122.0078764,3.140749599456787,11.388776,0.1,89.32242,1615418444440
Fix,GT,37.3521648,-122.0077409,3.0543120517134668,12.5636,0.1,89.43353,1615418445440
Fix,GT,37.3521654,-122.0075972,2.9717181580066683,12.805838,0.1,89.836334,1615418446440
Fix,GT,37.3521655,-122.0074534,2.87093702480197,12.660032,0.1,89.89545,1615418447440
Fix,GT,37.3521653,-122.007311,2.756124448865652,12.625284,0.1,89.953186,1615418448440
Fix,GT,37.3521653,-122.0071681,2.6499056608080864,12.688446,0.1,89.863556,1615418449440
Fix,GT,37.3521653,-122.0070243,2.538749608814716,12.764383,0.1,90.056915,1615418450440
Fix,GT,37.3521648,-122.0068809,2.4087181639373303,12.677988,0.1,90.16815,1615418451440
Fix,GT,37.3521642,-122.0067375,2.271937170565128,12.692745,0.1,90.11438,1615418452440
Fix,GT,37.3521639,-122.006595,2.1401245857775213,12.537968,0.1,90.03467,1615418453440
Fix,GT,37.352164,-122.0064549,2.034155970036984,12.29673,0.1,89.69037,1615418454440
Fix,GT,37.3521647,-122.0063174,1.937530865639448,12.060452,0.1,89.576294,1615418455440
Fix,GT,37.3521648,-122.0061827,1.8621559679508208,11.806654,0.1,89.88022,1615418456440
Fix,GT,37.3521644,-122.0060509,1.806562257528305,11.540438,0.1,90.216095,1615418457440
Fix,GT,37.3521641,-122.0059221,1.756968599617481,11.266378,0.1,89.97812,1615418458440
Fix,GT,37.3521637,-122.0057982,1.7107811280488967,10.57312,0.1,90.2388,1615418459440
Fix,GT,37.3521632,-122.0056845,1.6855622553825378,9.533227,0.1,90.3273,1615418460440
Fix,GT,37.3521628,-122.0055848,1.661187418222427,8.101734,0.1,90.11337,1615418461440
Fix,GT,37.3521629,-122.0055021,1.646781126976013,6.5682554,0.1,89.80487,1615418462440
Fix,GT,37.3521629,-122.0054366,1.6261874177455902,5.064534,0.1,89.88751,1615418463440
Fix,GT,37.3521628,-122.0053865,1.6185937569737434,3.8057816,0.1,90.10602,1615418464440
Fix,GT,37.3521628,-122.005351,1.6095937565863132,2.453438,0.1,90.06467,1615418465440
Fix,GT,37.3521628,-122.0053304,1.6030000477731228,1.1799674,0.1,90.033264,1615418466440
Fix,GT,37.3521628,-122.0053241,1.5985937560200691,0.032498103,0.1,90.01868,1615418467440
Fix,GT,37.3521629,-122.0053241,1.5910000474154948,0.0017481262,0.1,90.02371,1615418468440
Fix,GT,37.3521629,-122.0053241,1.590999952584505,0.0025877564,0.1,90.022095,1615418469440
Fix,GT,37.3521629,-122.0053241,1.590593660533428,0.002,0.1,90.02231,1615418470440
Fix,GT,37.3521629,-122.0053241,1.59,0.001,0.1,90.02222,1615418471440
Fix,GT,37.3521629,-122.0053241,1.59,0.0015937078,0.1,90.02203,1615418472440
Fix,GT,37.3521629,-122.0053241,1.5900000473856926,0.0020000003,0.1,90.022,1615418473440
Fix,GT,37.3521629,-122.0053241,1.5899999526143076,0.001,0.1,90.02191,1615418474440
Fix,GT,37.3521629,-122.0053241,1.5900000473856926,0.0010000002,0.1,90.02179,1615418475440
Fix,GT,37.3521629,-122.0053241,1.5900000473856926,0.0010000002,0.1,90.02179,1615418476440
Fix,GT,37.3521629,-122.0053241,1.59,0.001,0.1,90.02191,1615418477440
Fix,GT,37.3521629,-122.0053241,1.59,0.0014062931,0.1,90.02197,1615418478440
Fix,GT,37.3521629,-122.0053241,1.5899999526143076,0.0009999999,0.1,90.02188,1615418479440
Fix,GT,37.3521629,-122.0053241,1.59,0.001,0.1,90.02173,1615418480440
Fix,GT,37.3521629,-122.0053241,1.59,0.0014142136,0.1,90.02179,1615418481440
Fix,GT,37.3521629,-122.0053241,1.59,0.0014142136,0.1,90.02173,1615418482440
Fix,GT,37.3521629,-122.0053241,1.59,0.001,0.1,90.02167,1615418483440
Fix,GT,37.3521629,-122.0053241,1.59,0.002,0.1,90.02167,1615418484440
Fix,GT,37.3521629,-122.0053241,1.59,0.002,0.1,90.02173,1615418485440
Fix,GT,37.3521629,-122.0053241,1.5899999526143076,0.002,0.1,90.02197,1615418486440
Fix,GT,37.3521629,-122.0053241,1.5899999526143076,0.002,0.1,90.022064,1615418487440
Fix,GT,37.3521629,-122.0053241,1.59,0.002,0.1,90.022095,1615418488440
Fix,GT,37.3521629,-122.0053241,1.5899999526143076,0.002,0.1,90.022156,1615418489440
Fix,GT,37.3521629,-122.0053241,1.59,0.0026900508,0.1,90.022156,1615418490440
Fix,GT,37.3521629,-122.0053241,1.5900000473856928,0.0012459209,0.1,90.02188,1615418491440
Fix,GT,37.3521629,-122.0053241,1.59,0.0024062947,0.1,90.022095,1615418492440
Fix,GT,37.3521629,-122.0053241,1.59,0.0019021528,0.1,90.02182,1615418493440
Fix,GT,37.3521629,-122.0053241,1.5899999526143076,0.0017481287,0.1,90.021576,1615418494440
Fix,GT,37.3521629,-122.0053241,1.5899999526143076,0.0014142136,0.1,90.022,1615418495440
Fix,GT,37.3521629,-122.0053241,1.5900000473856926,0.0024520478,0.1,90.02197,1615418496440
Fix,GT,37.3521629,-122.0053241,1.590999952584505,0.002236068,0.1,90.0217,1615418497440
Fix,GT,37.3521629,-122.0053241,1.5910000474154948,0.0019021526,0.1,90.02173,1615418498440
Fix,GT,37.3521629,-122.0053241,1.5900000473856926,0.0024767409,0.1,90.02173,1615418499440
Fix,GT,37.3521629,-122.0053241,1.589,0.0011682932,0.1,90.02164,1615418500440
Fix,GT,37.3521629,-122.0053236,1.5789999529421328,0.28750604,0.1,90.02197,1615418501440
Fix,GT,37.3521629,-122.0053139,1.567593657642603,1.6190388,0.1,89.99744,1615418502440
Fix,GT,37.352163,-122.0052862,1.5565936578512192,3.3203294,0.1,89.80673,1615418503440
Fix,GT,37.3521632,-122.0052391,1.5490000461637974,5.0074663,0.1,89.546265,1615418504440
Fix,GT,37.3521638,-122.0051724,1.5271874079704284,6.7706156,0.1,89.33078,1615418505440
Fix,GT,37.3521645,-122.0050869,1.4990315254330635,8.274786,0.1,89.13043,1615418506440
Fix,GT,37.3521659,-122.0049874,1.4951874074935914,9.398689,0.1,89.04471,1615418507440
Fix,GT,37.3521672,-122.004874,1.4621874507963657,10.695172,0.1,88.96173,1615418508440
Fix,GT,37.3521693,-122.0047466,1.4545622214078904,11.851144,0.1,88.7189,1615418509440
Fix,GT,37.3521712,-122.0046072,1.427,12.786425,0.1,88.97876,1615418510440
Fix,GT,37.352173,-122.0044591,1.4163748135566712,13.462648,0.1,89.01172,1615418511440
Fix,GT,37.3521753,-122.0043034,1.3779685163497923,14.117479,0.1,88.67456,1615418512440
Fix,GT,37.3521781,-122.004141,1.3433748128414154,14.671039,0.1,88.67987,1615418513440
Fix,GT,37.3521808,-122.0039728,1.3055622192621232,15.101023,0.1,88.941315,1615418514440
Fix,GT,37.3521829,-122.0038005,1.25553073400259,15.4297085,0.1,88.970825,1615418515440
Fix,GT,37.3521856,-122.0036244,1.173124435663223,15.757762,0.1,88.76053,1615418516440
Fix,GT,37.3521887,-122.0034454,1.0849370297193528,15.933453,0.1,88.59784,1615418517440
Fix,GT,37.3521918,-122.0032654,1.0239370285272598,15.96488,0.1,88.73233,1615418518440
Fix,GT,37.352195,-122.0030851,0.9315307307243348,15.985979,0.1,88.61908,1615418519440
Fix,GT,37.3521983,-122.0029047,0.849187405347824,15.9939,0.1,88.616455,1615418520440
Fix,GT,37.3522012,-122.0027241,0.7983433476984501,16.009085,0.1,88.70364,1615418521440
Fix,GT,37.3522042,-122.0025434,0.7389370255470276,16.016998,0.1,88.74707,1615418522440
Fix,GT,37.3522076,-122.0023625,0.6353433406949043,16.04218,0.1,88.50421,1615418523440
Fix,GT,37.3522108,-122.0021814,0.5743433038890361,16.048855,0.1,88.69226,1615418524440
Fix,GT,37.3522137,-122.0020012,0.459530725479126,15.883541,0.1,88.872955,1615418525440
Fix,GT,37.352216,-122.0018233,0.3531559049785137,15.640078,0.1,89.094025,1615418526440
Fix,GT,37.3522169,-122.001648,0.209686639547348,15.414267,0.1,89.91208,1615418527440
Fix,GT,37.3522157,-122.0014755,0.0991244249343872,15.173439,0.1,90.68909,1615418528440
Fix,GT,37.352214,-122.0013054,-0.0329070646762847,14.955582,0.1,90.34421,1615418529440
Fix,GT,37.3522142,-122.0011379,-0.1672188937664032,14.725445,0.1,89.44983,1615418530440
Fix,GT,37.3522157,-122.0009731,-0.2672503914833068,14.482937,0.1,89.22464,1615418531440
Fix,GT,37.3522176,-122.000811,-0.3849070549309253,14.249053,0.1,88.92621,1615418532440
Fix,GT,37.35222,-122.0006515,-0.4832818745374679,14.011905,0.1,88.84735,1615418533440
Fix,GT,37.3522222,-122.0004946,-0.5826881725788116,13.786434,0.1,88.86304,1615418534440
Fix,GT,37.3522245,-122.0003403,-0.6714692986607551,13.555914,0.1,88.77118,1615418535440
Fix,GT,37.352227,-122.0001891,-0.77625036200881,13.150484,0.1,88.66669,1615418536440
Fix,GT,37.3522297,-122.0000449,-0.8670629555881023,12.358552,0.1,88.59039,1615418537440
Fix,GT,37.3522317,-121.9999113,-0.9512503567934036,11.203484,0.1,88.9653,1615418538440
Fix,GT,37.352233,-121.999794,-1.0390630127489566,9.581464,0.1,89.24417,1615418539440
Fix,GT,37.3522338,-121.9996955,-1.1044377566576005,7.8457403,0.1,89.34546,1615418540440
Fix,GT,37.3522343,-121.9996169,-1.1496251587867736,6.0148954,0.1,89.398254,1615418541440
Fix,GT,37.3522347,-121.9995634,-1.1852188948392868,3.5216532,0.1,89.49228,1615418542440
Fix,GT,37.3522349,-121.9995333,-1.210812632679939,2.0032957,0.1,89.50604,1615418543440
Fix,GT,37.352235,-121.9995182,-1.220406262010336,0.65981025,0.1,89.47687,1615418544440
Fix,GT,37.352235,-121.9995163,-1.2285937016010284,0.0030027684,0.1,89.47583,1615418545440
Fix,GT,37.352235,-121.9995162,-1.2289999633729458,0.0014142136,0.1,89.47479,1615418546440
Fix,GT,37.352235,-121.9995162,-1.229,0.0,0.1,89.47168,1615418547440
Fix,GT,37.352235,-121.9995162,-1.229,0.00040629852,0.1,89.472046,1615418548440
Fix,GT,37.352235,-121.9995162,-1.229,0.0,0.1,89.472046,1615418549440
Fix,GT,37.352235,-121.9995162,-1.2289999633729458,0.0005937014,0.1,89.47211,1615418550440
Fix,GT,37.352235,-121.9995162,-1.2289999633729458,0.001,0.1,89.47208,1615418551440
Fix,GT,37.352235,-121.9995162,-1.229,0.001,0.1,89.471924,1615418552440
Fix,GT,37.352235,-121.9995162,-1.2289999633729458,0.001,0.1,89.471985,1615418553440
Fix,GT,37.352235,-121.9995162,-1.229,0.001,0.1,89.471985,1615418554440
Fix,GT,37.352235,-121.9995162,-1.229,0.001,0.1,89.47211,1615418555440
Fix,GT,37.352235,-121.9995162,-1.229,0.0014062988,0.1,89.47223,1615418556440
Fix,GT,37.352235,-121.9995162,-1.229,0.0014142136,0.1,89.472206,1615418557440
Fix,GT,37.352235,-121.9995162,-1.229,0.0014142136,0.1,89.47217,1615418558440
Fix,GT,37.352235,-121.9995162,-1.2289999633729458,0.0019021494,0.1,89.47223,1615418559440
Fix,GT,37.352235,-121.9995162,-1.2289999633729458,0.0019021494,0.1,89.47226,1615418560440
Fix,GT,37.352235,-121.9995162,-1.229,0.0014142136,0.1,89.47235,1615418561440
Fix,GT,37.352235,-121.9995162,-1.229,0.002236068,0.1,89.47235,1615418562440
Fix,GT,37.352235,-121.9995162,-1.229,0.002236068,0.1,89.47229,1615418563440
Fix,GT,37.352235,-121.9995162,-1.2289999633729458,0.0022538335,0.1,89.47241,1615418564440
Fix,GT,37.352235,-121.9995162,-1.229,0.0019021493,0.1,89.47247,1615418565440
Fix,GT,37.352235,-121.9995162,-1.229,0.0014142136,0.1,89.47238,1615418566440
Fix,GT,37.352235,-121.9995162,-1.229,0.0014142136,0.1,89.47244,1615418567440
Fix,GT,37.352235,-121.9995162,-1.229,0.0014142136,0.1,89.47235,1615418568440
Fix,GT,37.352235,-121.9995162,-1.229,0.0014142136,0.1,89.47229,1615418569440
Fix,GT,37.352235,-121.9995162,-1.229,0.0011682946,0.1,89.47235,1615418570440
Fix,GT,37.352235,-121.9995162,-1.229,0.001,0.1,89.47241,1615418571440
Fix,GT,37.352235,-121.9995162,-1.229,0.001,0.1,89.472626,1615418572440
Fix,GT,37.352235,-121.9995162,-1.2289999633729458,0.001,0.1,89.472534,1615418573440
Fix,GT,37.352235,-121.9995162,-1.2289999633729458,0.00040629922,0.1,89.472534,1615418574440
Fix,GT,37.352235,-121.9995162,-1.229,0.0012459189,0.1,89.472595,1615418575440
Fix,GT,37.352235,-121.9995162,-1.2289999633729458,0.0014142136,0.1,89.472534,1615418576440
Fix,GT,37.352235,-121.9995162,-1.229,0.0019021491,0.1,89.472565,1615418577440
Fix,GT,37.352235,-121.9995162,-1.229,0.0017481325,0.1,89.47266,1615418578440
Fix,GT,37.352235,-121.9995162,-1.229,0.0014142136,0.1,89.47275,1615418579440
Fix,GT,37.352235,-121.9995162,-1.229,0.0014142136,0.1,89.47278,1615418580440
Fix,GT,37.352235,-121.9995162,-1.2289999633729458,0.0028284271,0.1,89.47272,1615418581440
Fix,GT,37.352235,-121.9995162,-1.2289999633729458,0.0028284271,0.1,89.47278,1615418582440
Fix,GT,37.352235,-121.9995162,-1.2289999633729458,0.0022538328,0.1,89.4729,1615418583440
Fix,GT,37.352235,-121.9995162,-1.229,0.002587752,0.1,89.47296,1615418584440
Fix,GT,37.352235,-121.9995162,-1.2289999633729458,0.0022360678,0.1,89.4729,1615418585440
Fix,GT,37.352235,-121.9995162,-1.229,0.0014142136,0.1,89.47302,1615418586440
Fix,GT,37.352235,-121.9995162,-1.229,0.0014142136,0.1,89.47309,1615418587440
Fix,GT,37.352235,-121.9995162,-1.229,0.0014142136,0.1,89.47308,1615418588440
Fix,GT,37.352235,-121.9995162,-1.2289999633729458,0.001,0.1,89.47308,1615418589440
Fix,GT,37.352235,-121.9995162,-1.229,0.001,0.1,89.47302,1615418590440
Fix,GT,37.3522351,-121.9995162,-1.229,0.0014062998,0.1,89.473114,1615418591440
Fix,GT,37.3522351,-121.9995162,-1.2294062997698785,0.001,0.1,89.473114,1615418592440
Fix,GT,37.3522351,-121.9995162,-1.23,0.0011682949,0.1,89.47299,1615418593440
Fix,GT,37.3522351,-121.9995162,-1.23,0.0031441725,0.1,89.4729,1615418594440
Fix,GT,37.3522351,-121.9995139,-1.2398125629127026,0.6375051,0.1,89.46567,1615418595440
Fix,GT,37.3522352,-121.9994967,-1.259406299829483,2.574953,0.1,89.36902,1615418596440
Fix,GT,37.3522357,-121.9994554,-1.2824062998890875,4.6512303,0.1,89.21002,1615418597440
Fix,GT,37.3522365,-121.9993913,-1.322625160306692,6.8115177,0.1,88.97986,1615418598440
Fix,GT,37.352238,-121.9993041,-1.384437799692154,8.506688,0.1,88.57498,1615418599440
Fix,GT,37.3522404,-121.9992013,-1.4510314570069314,9.742907,0.1,88.30881,1615418600440
Fix,GT,37.3522429,-121.9990839,-1.502218855381012,11.037415,0.1,88.33835,1615418601440
Fix,GT,37.3522457,-121.9989528,-1.581250354230404,12.19138,0.1,88.47711,1615418602440
Fix,GT,37.3522477,-121.9988103,-1.6534693014025688,13.006783,0.1,89.213135,1615418603440
Fix,GT,37.3522485,-121.9986593,-1.721844049870968,13.754654,0.1,89.61893,1615418604440
Fix,GT,37.3522491,-121.9984998,-1.7808441013097762,14.478613,0.1,89.59625,1615418605440
Fix,GT,37.3522494,-121.9983338,-1.827844102144241,14.925724,0.1,89.914246,1615418606440
Fix,GT,37.3522482,-121.9981625,-1.8758126006126403,15.413532,0.1,90.77554,1615418607440
Fix,GT,37.3522456,-121.9979868,-1.9641873993873595,15.686386,0.1,91.05783,1615418608440
Fix,GT,37.3522425,-121.997809,-2.0330314414501194,15.817219,0.1,91.240814,1615418609440
Fix,GT,37.3522391,-121.9976303,-2.101656704366208,15.805283,0.1,91.08609,1615418610440
Fix,GT,37.3522365,-121.9974531,-2.184625267356634,15.578209,0.1,90.870605,1615418611440
Fix,GT,37.3522351,-121.9972768,-2.25621890181303,15.686342,0.1,90.21918,1615418612440
Fix,GT,37.3522346,-121.9970989,-2.3452504753470422,15.857157,0.1,90.02762,1615418613440
Fix,GT,37.352235,-121.9969189,-2.441469381570816,16.009117,0.1,89.559814,1615418614440
Fix,GT,37.352236,-121.9967382,-2.5306566325426103,16.012356,0.1,89.456085,1615418615440
Fix,GT,37.3522375,-121.9965585,-2.597625281095505,15.817165,0.1,89.14551,1615418616440
Fix,GT,37.3522397,-121.9963817,-2.631593620568514,15.512936,0.1,88.911835,1615418617440
Fix,GT,37.3522419,-121.9962083,-2.618031505405903,15.208488,0.1,89.13959,1615418618440
Fix,GT,37.3522455,-121.9960385,-2.671844028234481,14.914167,0.1,87.37808,1615418619440
Fix,GT,37.3522562,-121.9958718,-2.71740630120039,14.806711,0.1,83.992004,1615418620440
Fix,GT,37.3522716,-121.9957054,-2.7641874798238275,14.83082,0.1,83.04822,1615418621440
Fix,GT,37.3522874,-121.9955398,-2.8194062173366543,14.805744,0.1,83.16589,1615418622440
Fix,GT,37.352303,-121.9953716,-2.8643748793005943,15.230139,0.1,83.32428,1615418623440
Fix,GT,37.3523167,-121.9951992,-2.831656630009413,15.294876,0.1,85.19672,1615418624440
Fix,GT,37.352324,-121.9950283,-2.834812603354454,15.018089,0.1,87.921265,1615418625440
Fix,GT,37.3523259,-121.9948606,-2.854593613088131,14.701204,0.1,89.69083,1615418626440
Fix,GT,37.3523256,-121.9946964,-2.8764377260208134,14.391546,0.1,90.22162,1615418627440
Fix,GT,37.3523248,-121.9945357,-2.8908126040697097,14.090226,0.1,90.14847,1615418628440
Fix,GT,37.3523248,-121.9943783,-2.989812604188919,13.81609,0.1,89.79224,1615418629440
Fix,GT,37.3523253,-121.9942238,-3.062250417709351,13.538967,0.1,89.57898,1615418630440
Fix,GT,37.3523262,-121.9940727,-3.079031603515148,13.235807,0.1,89.44281,1615418631440
Fix,GT,37.3523271,-121.993925,-3.106781092643738,12.948038,0.1,89.55072,1615418632440
Fix,GT,37.3523274,-121.9937805,-3.1328126051425933,12.658176,0.1,89.813354,1615418633440
Fix,GT,37.3523277,-121.9936406,-3.185625305771828,12.019068,0.1,89.77661,1615418634440
Fix,GT,37.3523278,-121.9935103,-3.21781260573864,10.99481,0.1,89.83255,1615418635440
Fix,GT,37.3523277,-121.9933936,-3.248812702715397,9.655114,0.1,90.07745,1615418636440
Fix,GT,37.3523274,-121.9932933,-3.274250522106886,8.05648,0.1,90.054504,1615418637440
Fix,GT,37.3523273,-121.9932127,-3.313625212907791,6.237054,0.1,89.976776,1615418638440
Fix,GT,37.3523272,-121.993153,-3.3398126066923144,4.321089,0.1,90.14896,1615418639440
Fix,GT,37.3523269,-121.9931126,-3.365593796879053,2.861856,0.1,90.36975,1615418640440
Fix,GT,37.3523268,-121.9930886,-3.374406303524971,1.4464087,0.1,90.46356,1615418641440
Fix,GT,37.3523267,-121.9930796,-3.378406202942133,0.16862048,0.1,90.50064,1615418642440
Fix,GT,37.3523268,-121.9930795,-3.385,0.0020959154,0.1,90.50534,1615418643440
Fix,GT,37.3523268,-121.9930795,-3.386,0.0,0.1,90.50406,1615418644440
Fix,GT,37.3523268,-121.9930794,-3.386,0.0012459169,0.1,90.50482,1615418645440
Fix,GT,37.3523268,-121.9930794,-3.386,0.001,0.1,90.504974,1615418646440
Fix,GT,37.3523268,-121.9930794,-3.386000100910664,0.001,0.1,90.50491,1615418647440
Fix,GT,37.3523268,-121.9930794,-3.386,0.0017481367,0.1,90.505005,1615418648440
Fix,GT,37.3523268,-121.9930794,-3.386,0.0014142136,0.1,90.505035,1615418649440
Fix,GT,37.3523268,-121.9930794,-3.386,0.0019021448,0.1,90.5051,1615418650440
Fix,GT,37.3523268,-121.9930794,-3.3859998990893367,0.002,0.1,90.50513,1615418651440
Fix,GT,37.3523268,-121.9930794,-3.386,0.002,0.1,90.50488,1615418652440
Fix,GT,37.3523268,-121.9930794,-3.386,0.0017481372,0.1,90.504944,1615418653440
Fix,GT,37.3523268,-121.9930794,-3.3859998990893367,0.002,0.1,90.50516,1615418654440
Fix,GT,37.3523268,-121.9930794,-3.386,0.002,0.1,90.50526,1615418655440
Fix,GT,37.3523268,-121.9930794,-3.3859998990893367,0.0021401523,0.1,90.50531,1615418656440
Fix,GT,37.3523268,-121.9930794,-3.3859998990893363,0.0019999999,0.1,90.50531,1615418657440
Fix,GT,37.3523268,-121.9930794,-3.386,0.002,0.1,90.50531,1615418658440
Fix,GT,37.3523268,-121.9930794,-3.3859998990893363,0.0019999999,0.1,90.50528,1615418659440
Fix,GT,37.3523268,-121.9930794,-3.3859998990893363,0.0019999999,0.1,90.50537,1615418660440
Fix,GT,37.3523268,-121.9930794,-3.386,0.0017619915,0.1,90.50537,1615418661440
Fix,GT,37.3523268,-121.9930794,-3.386,0.001,0.1,90.50531,1615418662440
Fix,GT,37.3523268,-121.9930794,-3.386,0.001,0.1,90.50525,1615418663440
Fix,GT,37.3523268,-121.9930794,-3.386,0.001,0.1,90.50519,1615418664440
Fix,GT,37.3523268,-121.9930794,-3.38559369367361,0.001,0.1,90.50531,1615418665440
Fix,GT,37.3523268,-121.9930794,-3.385,0.001,0.1,90.50531,1615418666440
Fix,GT,37.3523268,-121.9930791,-3.3918126130104067,0.22227357,0.1,90.51007,1615418667440
Fix,GT,37.3523267,-121.993069,-3.403,1.9124047,0.1,90.49786,1615418668440
Fix,GT,37.3523266,-121.993035,-3.413031634926796,4.046712,0.1,90.3056,1615418669440
Fix,GT,37.3523263,-121.9929785,-3.4562190232872965,6.13105,0.1,90.109436,1615418670440
Fix,GT,37.3523262,-121.9928959,-3.485625331401825,8.4415655,0.1,90.04904,1615418671440
Fix,GT,37.3523262,-121.9927892,-3.5316253332495684,10.335495,0.1,89.92743,1615418672440
Fix,GT,37.3523262,-121.9926634,-3.548187280088663,11.96274,0.1,89.951416,1615418673440
Fix,GT,37.3523261,-121.9925228,-3.5676252286434167,12.850459,0.1,89.88547,1615418674440
Fix,GT,37.3523262,-121.9923739,-3.622844258636236,13.538631,0.1,89.86212,1615418675440
Fix,GT,37.3523262,-121.992218,-3.677031536996364,14.0466585,0.1,89.89441,1615418676440
Fix,GT,37.3523264,-121.9920568,-3.7474377329647535,14.515586,0.1,89.718506,1615418677440
Fix,GT,37.3523272,-121.99189,-3.80903153759241,15.052265,0.1,89.52664,1615418678440
Fix,GT,37.3523277,-121.9917164,-3.875063191443682,15.74761,0.1,89.66751,1615418679440
Fix,GT,37.3523285,-121.9915351,-3.97862534943223,16.323986,0.1,89.703,1615418680440
Fix,GT,37.3523291,-121.9913489,-4.027218923270702,16.614803,0.1,89.62393,1615418681440
Fix,GT,37.3523297,-121.9911622,-4.063812615752219,16.425213,0.1,89.64703,1615418682440
Fix,GT,37.3523305,-121.9909785,-4.100688311934471,16.133116,0.1,89.78894,1615418683440
Fix,GT,37.352331,-121.990798,-4.181469389915466,15.889112,0.1,89.71341,1615418684440
Fix,GT,37.3523314,-121.9906185,-4.259625232934952,15.909627,0.1,89.80661,1615418685440
Fix,GT,37.3523319,-121.9904388,-4.314031670123339,15.945261,0.1,89.63788,1615418686440
Fix,GT,37.3523324,-121.9902586,-4.371625233411789,15.983471,0.1,89.757996,1615418687440
Fix,GT,37.3523332,-121.990078,-4.423250468254089,16.010492,0.1,89.523224,1615418688440
Fix,GT,37.3523341,-121.989897,-4.514469394505024,16.057013,0.1,89.618866,1615418689440
