MessageType,Provider,LatitudeDegrees,LongitudeDegrees,AltitudeMeters,SpeedMps,AccuracyMeters,BearingDegrees,UnixTimeMillis
Fix,GT,34.1759678,-118.4652916,177.81400529927015,0.0014887401,0.1,182.2124,1638984169448
Fix,GT,34.1759678,-118.4652916,177.814,0.001,0.1,182.21245,1638984170448
Fix,GT,34.1759678,-118.4652916,177.814,0.0012117709,0.1,182.21262,1638984171448
Fix,GT,34.1759678,-118.4652916,177.814,0.001,0.1,182.21251,1638984172448
Fix,GT,34.1759678,-118.4652916,177.814,0.001,0.1,182.21243,1638984173448
Fix,GT,34.1759678,-118.4652916,177.81400529927015,0.0016041156,0.1,182.21237,1638984174448
Fix,GT,34.1759678,-118.4652916,177.81400529927015,0.0011432128,0.1,182.21225,1638984175448
Fix,GT,34.1759678,-118.4652916,177.81400529927015,0.0051969197,0.1,182.21269,1638984176448
Fix,GT,34.1759678,-118.4652916,177.814,0.0017621766,0.1,182.21251,1638984177448
Fix,GT,34.1759678,-118.4652916,177.81400529927015,0.0025942265,0.1,182.21262,1638984178448
Fix,GT,34.1759678,-118.4652916,177.814,0.002709602,0.1,182.21297,1638984179448
Fix,GT,34.1759678,-118.4652916,177.814,0.0012117708,0.1,182.21301,1638984180448
Fix,GT,34.1759678,-118.4652916,177.814,0.002,0.1,182.21315,1638984181448
Fix,GT,34.1759678,-118.4652916,177.814,0.0018343949,0.1,182.21303,1638984182448
Fix,GT,34.1759678,-118.4652916,177.81400529927015,0.0021153758,0.1,182.21303,1638984183448
Fix,GT,34.1759678,-118.4652916,177.81400529927015,0.003,0.1,182.21297,1638984184448
Fix,GT,34.1759678,-118.4652916,177.814,0.004,0.1,182.21294,1638984185448
Fix,GT,34.1759678,-118.4652916,177.81400529927015,0.0040000007,0.1,182.213,1638984186448
Fix,GT,34.1759678,-118.4652916,177.814,0.0041231057,0.1,182.21301,1638984187448
Fix,GT,34.1759678,-118.4652916,177.81400529927015,0.0040000007,0.1,182.21315,1638984188448
Fix,GT,34.1759678,-118.4652916,177.81400529927015,0.0040000007,0.1,182.21318,1638984189448
Fix,GT,34.1759678,-118.4652916,177.81400529927015,0.0020000003,0.1,182.21329,1638984190448
Fix,GT,34.1759678,-118.4652916,177.814,0.001,0.1,182.21329,1638984191448
Fix,GT,34.1759678,-118.4652916,177.81548874008655,0.004062939,0.1,182.21321,1638984192448
Fix,GT,34.1759677,-118.4652916,177.81700529935955,0.0085476395,0.1,182.21318,1638984193448
Fix,GT,34.1759677,-118.4652916,177.82,0.013525808,0.1,182.21333,1638984194448
Fix,GT,34.1759675,-118.4652916,177.82248874014616,0.020024985,0.1,182.2133,1638984195448
Fix,GT,34.1759673,-118.4652916,177.82548874014614,0.027529433,0.1,182.2135,1638984196448
Fix,GT,34.1759669,-118.4652916,177.829,0.03306055,0.1,182.21341,1638984197448
Fix,GT,34.1759665,-118.4652917,177.8310052997768,0.04015494,0.1,182.21541,1638984198448
Fix,GT,34.175966,-118.4652917,177.8315112597346,0.1701959,0.1,182.19383,1638984199448
Fix,GT,34.1759611,-118.465291,177.8324834406078,0.851015,0.1,180.13406,1638984200448
Fix,GT,34.175951,-118.4652869,177.8320052998066,1.4080462,0.1,171.74414,1638984201448
Fix,GT,34.1759369,-118.4652787,177.8135112594366,1.9679147,0.1,161.68127,1638984202448
Fix,GT,34.1759186,-118.4652672,177.80750596025587,2.464597,0.1,155.23303,1638984203448
Fix,GT,34.1758984,-118.4652546,177.79137614750863,2.5651832,0.1,153.62067,1638984204448
Fix,GT,34.1758754,-118.4652413,177.72458411172033,3.2139518,0.1,155.19122,1638984205448
Fix,GT,34.1758471,-118.4652303,177.6914715180695,3.1853378,0.1,162.46295,1638984206448
Fix,GT,34.1758219,-118.465226,177.65105033066868,2.4561124,0.1,171.42126,1638984207448
Fix,GT,34.1758026,-118.4652289,177.58709536501766,2.0318882,0.1,184.39085,1638984208448
Fix,GT,34.1757887,-118.4652454,177.06705697113276,2.5416749,0.1,207.64944,1638984209448
Fix,GT,34.1757803,-118.4652723,177.02500527575614,3.443484,0.1,238.39487,1638984210448
Fix,GT,34.1757787,-118.4653158,177.08793244624138,5.244192,0.1,263.47183,1638984211448
Fix,GT,34.1757765,-118.4653849,177.29645956993102,7.249735,0.1,268.2054,1638984212448
Fix,GT,34.1757738,-118.465477,177.52930330866576,9.219846,0.1,269.4937,1638984213448
Fix,GT,34.1757738,-118.4655853,177.72379204401375,10.399792,0.1,269.96497,1638984214448
Fix,GT,34.1757739,-118.4656979,177.91680264347792,10.209589,0.1,269.94788,1638984215448
Fix,GT,34.175774,-118.4658059,178.1911788045764,9.497965,0.1,269.9088,1638984216448
Fix,GT,34.1757736,-118.4659032,178.4148702112734,8.481564,0.1,269.7035,1638984217448
Fix,GT,34.1757719,-118.4659892,178.4675734924078,7.1229076,0.1,268.3782,1638984218448
Fix,GT,34.1757657,-118.4660598,178.27656825432183,6.22871,0.1,261.9975,1638984219448
Fix,GT,34.1757479,-118.4661229,178.40471258741616,6.33676,0.1,248.51389,1638984220448
Fix,GT,34.1757091,-118.4661852,178.5514940624237,7.978621,0.1,228.2489,1638984221448
Fix,GT,34.1756436,-118.466237,178.48851657819748,9.364864,0.1,207.40463,1638984222448
Fix,GT,34.175557,-118.4662678,178.40859601056576,10.82552,0.1,191.08133,1638984223448
Fix,GT,34.1754549,-118.4662804,178.31555629301073,11.898167,0.1,183.88625,1638984224448
Fix,GT,34.1753442,-118.4662851,178.2661178986132,12.580229,0.1,179.93889,1638984225448
Fix,GT,34.1752265,-118.4662846,178.2485165708065,13.592023,0.1,180.17108,1638984226448
Fix,GT,34.1750997,-118.4662907,178.18311258482933,14.4861145,0.1,182.42838,1638984227448
Fix,GT,34.1749661,-118.466297,178.1180622419417,15.146596,0.1,181.45854,1638984228448
Fix,GT,34.1748286,-118.4662992,178.06860663199427,15.229818,0.1,180.01315,1638984229448
Fix,GT,34.1746921,-118.4663006,177.98311258244513,15.039175,0.1,180.32565,1638984230448
Fix,GT,34.1745571,-118.4663016,177.89867417523266,15.105821,0.1,179.76233,1638984231448
Fix,GT,34.1744166,-118.4663009,177.7596635744572,16.068989,0.1,179.3252,1638984232448
Fix,GT,34.1742688,-118.4662994,177.65319734990598,16.69091,0.1,179.38495,1638984233448
Fix,GT,34.1741173,-118.4662987,177.53870860907438,16.805283,0.1,179.69153,1638984234448
Fix,GT,34.1739665,-118.4662989,177.40212980782985,16.626104,0.1,180.02133,1638984235448
Fix,GT,34.1738185,-118.4662998,177.27271389985086,16.168365,0.1,180.05145,1638984236448
Fix,GT,34.173676,-118.4663006,177.1576238361001,15.407625,0.1,180.04857,1638984237448
Fix,GT,34.173541,-118.4663013,177.03115760791303,14.472879,0.1,179.85675,1638984238448
Fix,GT,34.1734163,-118.4663014,176.9296013188362,13.182513,0.1,179.89478,1638984239448
Fix,GT,34.1733035,-118.4663029,176.8365337727666,11.8696785,0.1,180.69939,1638984240448
Fix,GT,34.1732021,-118.4663066,176.7335788027048,10.636934,0.1,181.96753,1638984241448
Fix,GT,34.1731124,-118.4663116,176.63759605261686,9.239918,0.1,182.42502,1638984242448
Fix,GT,34.1730365,-118.4663169,176.54706228232385,7.6108108,0.1,183.41304,1638984243448
Fix,GT,34.1729764,-118.4663223,176.4615735421777,5.656846,0.1,184.01062,1638984244448
Fix,GT,34.1729359,-118.4663259,176.41355628615617,3.3250973,0.1,183.74298,1638984245448
Fix,GT,34.1729138,-118.4663273,176.37952851504087,1.7846677,0.1,182.91125,1638984246448
Fix,GT,34.1729017,-118.4663279,176.35701725852488,0.89480007,0.1,182.5576,1638984247448
Fix,GT,34.1728981,-118.4663282,176.3465337713361,0.03426543,0.1,182.53716,1638984248448
Fix,GT,34.1728981,-118.4663282,176.33951125711204,0.0036055513,0.1,182.54605,1638984249448
Fix,GT,34.1728981,-118.4663282,176.337,0.0016319485,0.1,182.5429,1638984250448
Fix,GT,34.1728981,-118.4663282,176.33699474474787,0.001511257,0.1,182.54144,1638984251448
Fix,GT,34.1728981,-118.4663282,176.337,0.0,0.1,182.54123,1638984252448
Fix,GT,34.1728981,-118.4663282,176.337,0.001,0.1,182.54172,1638984253448
Fix,GT,34.1728981,-118.4663282,176.33699474474787,0.001,0.1,182.54242,1638984254448
Fix,GT,34.1728981,-118.4663282,176.337,0.0012117694,0.1,182.54184,1638984255448
Fix,GT,34.1728981,-118.4663282,176.33699474474787,0.002236068,0.1,182.54324,1638984256448
Fix,GT,34.1728981,-118.4663282,176.3370052552521,0.0014142136,0.1,182.54268,1638984257448
Fix,GT,34.1728981,-118.4663282,176.3370052552521,0.0029053942,0.1,182.54288,1638984258448
Fix,GT,34.1728981,-118.4663282,176.337,0.0025255796,0.1,182.54294,1638984259448
Fix,GT,34.1728981,-118.4663282,176.33699474474787,0.0031622774,0.1,182.5433,1638984260448
Fix,GT,34.1728981,-118.4663282,176.3340052551627,0.003388904,0.1,182.54375,1638984261448
Fix,GT,34.1728982,-118.4663282,176.33099474492667,0.004655394,0.1,182.54419,1638984262448
Fix,GT,34.1728982,-118.4663282,176.3279947450161,0.0043548048,0.1,182.54433,1638984263448
Fix,GT,34.1728982,-118.4663282,176.32451651096346,0.0026266328,0.1,182.54523,1638984264448
Fix,GT,34.1728981,-118.4663282,176.30702251207828,0.002,0.1,182.54576,1638984265448
Fix,GT,34.1728981,-118.4663282,176.29951651009918,0.01425641,0.1,182.53468,1638984266448
Fix,GT,34.1728948,-118.4663282,176.27801725825668,0.96199554,0.1,182.14648,1638984267448
Fix,GT,34.1728797,-118.4663284,176.25851125591993,2.3301067,0.1,181.12825,1638984268448
Fix,GT,34.1728526,-118.4663287,176.2245337677598,3.662804,0.1,180.5897,1638984269448
Fix,GT,34.1728158,-118.4663292,176.19751650694013,4.2248936,0.1,180.22028,1638984270448
Fix,GT,34.1727825,-118.4663294,176.1620502734184,3.1712227,0.1,179.93896,1638984271448
Fix,GT,34.1727564,-118.4663293,176.1270450232029,2.6205466,0.1,179.65338,1638984272448
Fix,GT,34.1727348,-118.4663293,176.10753901559116,2.173512,0.1,179.4873,1638984273448
Fix,GT,34.1727176,-118.4663292,176.09702251136304,1.6004055,0.1,179.34515,1638984274448
Fix,GT,34.1727041,-118.4663291,176.08150600799917,1.4375579,0.1,179.31342,1638984275448
Fix,GT,34.1726908,-118.466329,176.0640277583301,1.61408,0.1,179.11798,1638984276448
Fix,GT,34.1726736,-118.4663288,176.05102775794268,2.2726946,0.1,179.00012,1638984277448
Fix,GT,34.1726492,-118.4663286,176.03404502224924,3.2094107,0.1,179.23737,1638984278448
Fix,GT,34.1726148,-118.4663281,176.00601726564764,4.384986,0.1,178.91895,1638984279448
Fix,GT,34.1725702,-118.4663274,175.97203977769612,5.5366945,0.1,179.25159,1638984280448
Fix,GT,34.1725154,-118.4663268,175.9370052433312,6.594296,0.1,179.31696,1638984281448
Fix,GT,34.1724529,-118.4663258,175.90405026429892,7.0867577,0.1,179.35065,1638984282448
Fix,GT,34.1723899,-118.466325,175.86957878810168,6.7038536,0.1,179.97095,1638984283448
Fix,GT,34.1723343,-118.4663292,175.86793246734143,5.7533345,0.1,185.99225,1638984284448
Fix,GT,34.1722901,-118.4663487,175.80998272857067,5.220392,0.1,203.99925,1638984285448
Fix,GT,34.1722602,-118.4663884,175.77550601688029,5.121521,0.1,231.106,1638984286448
Fix,GT,34.1722474,-118.4664426,175.74709004354477,5.6675262,0.1,255.97446,1638984287448
Fix,GT,34.1722472,-118.4665101,175.9114319874942,6.9610248,0.1,270.29376,1638984288448
Fix,GT,34.1722516,-118.4665928,176.43859357345104,8.177712,0.1,272.33368,1638984289448
Fix,GT,34.1722543,-118.4666858,177.26350355508924,8.839069,0.1,271.1637,1638984290448
Fix,GT,34.1722551,-118.4667802,178.1290995645523,8.294676,0.1,269.76978,1638984291448
Fix,GT,34.1722556,-118.4668647,178.92767835265397,7.261553,0.1,270.2951,1638984292448
Fix,GT,34.1722564,-118.4669377,179.56879625585674,6.13085,0.1,270.4428,1638984293448
Fix,GT,34.1722571,-118.4669983,180.1174425935447,5.0544558,0.1,270.7971,1638984294448
Fix,GT,34.172258,-118.4670477,180.57701063111423,4.0246763,0.1,271.2541,1638984295448
Fix,GT,34.1722597,-118.4670837,180.9132132204175,2.526839,0.1,273.5206,1638984296448
Fix,GT,34.1722618,-118.4671043,181.1053086554408,1.5138798,0.1,276.28073,1638984297448
Fix,GT,34.1722651,-118.467121,181.26621320989727,2.08103,0.1,281.26706,1638984298448
Fix,GT,34.172275,-118.4671491,181.59106103307008,3.529517,0.1,291.70752,1638984299448
Fix,GT,34.1722972,-118.4671822,181.99145431137083,4.5416784,0.1,309.9087,1638984300448
Fix,GT,34.1723398,-118.4672069,182.3866623331309,6.371749,0.1,337.0419,1638984301448
Fix,GT,34.1724057,-118.4672223,182.54181447154284,8.79888,0.1,349.69724,1638984302448
Fix,GT,34.1724952,-118.4672324,182.67346078935265,11.182541,0.1,354.83072,1638984303448
Fix,GT,34.1726048,-118.4672433,182.57667427352072,13.109367,0.1,354.1518,1638984304448
Fix,GT,34.172732,-118.4672606,182.37127013063431,15.2942505,0.1,352.5396,1638984305448
Fix,GT,34.1728784,-118.467285,182.1103772562444,17.459343,0.1,351.23364,1638984306448
Fix,GT,34.1730429,-118.4673148,181.80885433474185,19.374828,0.1,351.23767,1638984307448
Fix,GT,34.1732227,-118.4673445,181.50691103601457,20.880358,0.1,352.3215,1638984308448
Fix,GT,34.1734166,-118.4673717,181.1419785785675,22.40151,0.1,353.52893,1638984309448
Fix,GT,34.1736239,-118.4673966,180.72738806456329,23.694214,0.1,354.07397,1638984310448
Fix,GT,34.1738404,-118.4674227,180.51102251017093,24.508606,0.1,353.89856,1638984311448
Fix,GT,34.1740628,-118.4674496,180.68417360425,25.057344,0.1,353.82266,1638984312448
Fix,GT,34.174291,-118.4674781,181.0685723112821,25.866875,0.1,353.83514,1638984313448
Fix,GT,34.1745274,-118.4675066,181.2165166555643,26.854134,0.1,353.9291,1638984314448
Fix,GT,34.1747725,-118.4675379,181.2369324712753,27.736923,0.1,353.50754,1638984315448
Fix,GT,34.1750221,-118.4675752,181.28351665744185,28.003025,0.1,351.73825,1638984316448
Fix,GT,34.1752724,-118.4676224,181.26762380200623,28.29434,0.1,350.20764,1638984317448
Fix,GT,34.1755255,-118.4676769,181.2659774907828,28.821285,0.1,349.1441,1638984318448
Fix,GT,34.1757836,-118.4677379,181.2654041102529,29.636982,0.1,348.24564,1638984319448
Fix,GT,34.1760485,-118.4678063,181.3119603849053,30.206448,0.1,347.12204,1638984320448
Fix,GT,34.1763122,-118.4678822,181.39044372725488,29.929493,0.1,345.31723,1638984321448
Fix,GT,34.1765706,-118.4679693,181.496488745451,29.60461,0.1,343.05945,1638984322448
Fix,GT,34.1768242,-118.4680654,181.5089549818039,29.479675,0.1,341.71237,1638984323448
Fix,GT,34.1770753,-118.468168,181.6628199262619,29.262714,0.1,340.43863,1638984324448
Fix,GT,34.1773218,-118.4682755,181.8043365983963,28.932602,0.1,339.24863,1638984325448
Fix,GT,34.1775626,-118.4683904,181.9608874527216,28.547287,0.1,337.1594,1638984326448
Fix,GT,34.1777972,-118.4685127,182.10488745212555,28.179008,0.1,335.7714,1638984327448
Fix,GT,34.1780268,-118.4686391,182.25187037283183,27.822582,0.1,334.55603,1638984328448
Fix,GT,34.1782506,-118.4687706,182.4133987058401,27.453962,0.1,332.9357,1638984329448
Fix,GT,34.1784698,-118.4689088,182.5433761953712,27.533192,0.1,331.31384,1638984330448
Fix,GT,34.1786867,-118.4690554,182.63497748982903,27.540913,0.1,329.5531,1638984331448
Fix,GT,34.1788991,-118.4692078,182.6290395778716,27.295792,0.1,328.50937,1638984332448
Fix,GT,34.1791081,-118.4693612,182.59899455812567,27.021076,0.1,328.48102,1638984333448
Fix,GT,34.1793156,-118.4695118,182.56061836865544,26.851908,0.1,328.80743,1638984334448
Fix,GT,34.1795244,-118.4696623,182.5270054397285,27.208008,0.1,328.72833,1638984335448
Fix,GT,34.179735,-118.469815,182.66284786528348,27.199913,0.1,328.5363,1638984336448
Fix,GT,34.1799451,-118.4699692,182.78581990909572,27.540401,0.1,328.18018,1638984337448
Fix,GT,34.1801591,-118.4701276,182.9458369672,28.211578,0.1,328.16174,1638984338448
Fix,GT,34.1803781,-118.4702896,183.09722406059504,28.659332,0.1,328.12885,1638984339448
Fix,GT,34.1805968,-118.4704516,183.2803031879365,28.314135,0.1,328.0262,1638984340448
Fix,GT,34.1808132,-118.4706116,183.57913402426243,28.143314,0.1,328.2219,1638984341448
Fix,GT,34.1810307,-118.470773,183.934168094486,28.566654,0.1,327.8445,1638984342448
Fix,GT,34.1812521,-118.4709395,184.3447963606417,29.318138,0.1,327.74442,1638984343448
Fix,GT,34.1814767,-118.4711089,184.9170214942396,29.449095,0.1,327.28638,1638984344448
Fix,GT,34.1816998,-118.4712843,185.65810502728823,29.7027,0.1,326.1428,1638984345448
Fix,GT,34.1819245,-118.4714623,186.42759379389884,30.03954,0.1,326.82672,1638984346448
Fix,GT,34.1821534,-118.4716386,187.1807007958293,30.17026,0.1,327.47836,1638984347448
Fix,GT,34.182384,-118.4718112,187.8793190124631,30.05989,0.1,328.22977,1638984348448
Fix,GT,34.1826139,-118.4719803,188.5852739655376,29.690235,0.1,328.22214,1638984349448
Fix,GT,34.1828398,-118.4721478,189.25272893750667,29.227028,0.1,328.11935,1638984350448
Fix,GT,34.1830639,-118.4723143,189.86636397245528,29.262491,0.1,328.07803,1638984351448
Fix,GT,34.1832899,-118.4724813,190.4279202386737,29.499384,0.1,328.29102,1638984352448
Fix,GT,34.1835165,-118.472648,190.90803279027344,29.346043,0.1,328.367,1638984353448
Fix,GT,34.1837412,-118.4728117,191.367408954084,28.88874,0.1,328.76663,1638984354448
Fix,GT,34.1839635,-118.4729695,192.04479656007885,28.39704,0.1,329.80444,1638984355448
Fix,GT,34.1841859,-118.4731168,192.6243864034414,27.969807,0.1,332.19647,1638984356448
Fix,GT,34.1844096,-118.4732509,193.1449709381461,27.512096,0.1,334.23865,1638984357448
Fix,GT,34.1846332,-118.4733741,193.5804539144933,27.054592,0.1,336.1972,1638984358448
Fix,GT,34.1848565,-118.4734854,194.0631343170405,26.60671,0.1,338.26846,1638984359448
Fix,GT,34.1850794,-118.4735857,194.4615780461133,26.219551,0.1,340.13678,1638984360448
Fix,GT,34.1853027,-118.4736763,194.60905082604287,26.226961,0.1,342.06094,1638984361448
Fix,GT,34.185531,-118.4737573,194.67270807126164,26.472322,0.1,344.53723,1638984362448
Fix,GT,34.1857615,-118.4738271,194.5517363868356,26.273727,0.1,346.4839,1638984363448
Fix,GT,34.1859919,-118.4738876,194.29698982259632,26.09708,0.1,348.43765,1638984364448
Fix,GT,34.1862227,-118.4739371,194.1328547389805,25.911823,0.1,350.7345,1638984365448
Fix,GT,34.1864498,-118.4739772,193.8293544343412,24.94854,0.1,351.98224,1638984366448
Fix,GT,34.1866702,-118.4740082,193.35235444855687,24.454689,0.1,354.08908,1638984367448
Fix,GT,34.186889,-118.4740296,192.90112485972048,24.345945,0.1,355.79315,1638984368448
Fix,GT,34.1871089,-118.4740448,192.13572614595296,24.507874,0.1,357.2664,1638984369448
Fix,GT,34.1873296,-118.4740525,191.57916984656453,24.510372,0.1,358.78656,1638984370448
Fix,GT,34.1875512,-118.4740563,191.0325685212314,24.656563,0.1,358.9674,1638984371448
Fix,GT,34.1877736,-118.4740604,190.53877573329208,24.693336,0.1,358.84167,1638984372448
Fix,GT,34.1879976,-118.4740649,190.09351779973508,25.056879,0.1,358.7911,1638984373448
Fix,GT,34.1882237,-118.4740692,189.60714162141085,25.064068,0.1,358.98013,1638984374448
Fix,GT,34.1884494,-118.4740728,189.1404333861172,25.053137,0.1,358.97247,1638984375448
Fix,GT,34.1886763,-118.4740761,188.8392757852972,25.3136,0.1,359.14825,1638984376448
Fix,GT,34.188906,-118.4740785,188.65064633625747,25.632626,0.1,359.20767,1638984377448
Fix,GT,34.1891382,-118.4740817,188.5790450265408,25.85833,0.1,358.9343,1638984378448
Fix,GT,34.1893705,-118.4740853,188.6318198928833,25.64853,0.1,359.03244,1638984379448
Fix,GT,34.1896009,-118.4740884,188.80625798222425,25.534744,0.1,359.03458,1638984380448
Fix,GT,34.189831,-118.4740914,189.08612288942933,25.553728,0.1,359.02115,1638984381448
Fix,GT,34.1900618,-118.4740945,189.4790384657383,25.648638,0.1,358.96945,1638984382448
Fix,GT,34.1902937,-118.474098,189.9090328053832,25.775822,0.1,358.90012,1638984383448
Fix,GT,34.1905259,-118.4741018,190.3020159493089,25.757975,0.1,358.87625,1638984384448
Fix,GT,34.1907584,-118.4741057,190.716482170105,25.821552,0.1,358.87067,1638984385448
Fix,GT,34.1909915,-118.4741093,191.14243713843825,25.887043,0.1,359.01404,1638984386448
Fix,GT,34.1912248,-118.474112,191.61012850940227,25.876116,0.1,359.17865,1638984387448
Fix,GT,34.1914574,-118.4741148,191.9851227872968,25.697506,0.1,359.02487,1638984388448
Fix,GT,34.191689,-118.4741185,192.40999341923,25.715332,0.1,358.79764,1638984389448
Fix,GT,34.191921,-118.4741237,192.8415439558625,25.683142,0.1,358.66495,1638984390448
Fix,GT,34.1921509,-118.4741277,193.26901592624188,25.33052,0.1,359.14093,1638984391448
Fix,GT,34.1923775,-118.4741309,193.65054969644547,24.920465,0.1,359.06787,1638984392448
Fix,GT,34.1926003,-118.4741343,194.02807768395544,24.530977,0.1,359.08057,1638984393448
Fix,GT,34.1928218,-118.4741379,194.45406094706053,24.741564,0.1,358.92426,1638984394448
Fix,GT,34.1930473,-118.4741425,194.8181226871312,25.360203,0.1,358.79224,1638984395448
Fix,GT,34.1932765,-118.4741468,195.2195496845245,25.314894,0.1,359.12122,1638984396448
Fix,GT,34.1935041,-118.4741497,195.67006094008684,25.17649,0.1,359.3041,1638984397448
Fix,GT,34.1937293,-118.4741519,196.1450384217501,24.778255,0.1,359.31958,1638984398448
Fix,GT,34.193951,-118.474154,196.41815099996327,24.407753,0.1,359.1287,1638984399448
Fix,GT,34.1941696,-118.4741575,196.6915212962329,24.15976,0.1,359.17606,1638984400448
Fix,GT,34.1943876,-118.47416,196.7997973515988,24.29211,0.1,359.4091,1638984401448
Fix,GT,34.1946072,-118.4741621,196.93184825214743,24.439938,0.1,359.42084,1638984402448
Fix,GT,34.1948287,-118.4741661,197.0698365095556,24.716557,0.1,358.6589,1638984403448
Fix,GT,34.1950531,-118.4741726,197.20089329236745,25.099884,0.1,358.65186,1638984404448
Fix,GT,34.1952789,-118.4741773,197.3278590171933,24.967375,0.1,359.12558,1638984405448
Fix,GT,34.1955049,-118.4741812,197.45695496559145,25.200218,0.1,359.11212,1638984406448
Fix,GT,34.195733,-118.4741843,197.46849462631343,25.39338,0.1,359.37408,1638984407448
Fix,GT,34.1959622,-118.4741866,197.52893833386892,25.45336,0.1,359.371,1638984408448
Fix,GT,34.1961917,-118.4741883,197.61783648654816,25.413256,0.1,0.03326416,1638984409448
Fix,GT,34.1964207,-118.4741841,197.7343986693621,25.5569,0.1,1.4546509,1638984410448
Fix,GT,34.1966537,-118.4741731,197.8793252163232,26.192135,0.1,2.8325195,1638984411448
Fix,GT,34.196889,-118.4741545,198.02184827128053,26.071936,0.1,4.162567,1638984412448
Fix,GT,34.1971228,-118.474131,198.1638423678875,26.10019,0.1,5.0749207,1638984413448
Fix,GT,34.1973574,-118.4741012,198.36783645418285,26.135876,0.1,6.872711,1638984414448
Fix,GT,34.197589,-118.4740638,198.5322860639096,25.670269,0.1,8.05423,1638984415448
Fix,GT,34.1978163,-118.4740218,198.63286488032344,25.413273,0.1,8.897858,1638984416448
Fix,GT,34.1980413,-118.4739768,198.8875946345329,25.152775,0.1,9.619751,1638984417448
Fix,GT,34.1982631,-118.47393,199.17824101239444,24.788269,0.1,9.765686,1638984418448
Fix,GT,34.1984824,-118.473884,199.3827522687912,24.710953,0.1,9.616913,1638984419448
Fix,GT,34.198704,-118.4738383,199.5633085672856,25.159828,0.1,9.461761,1638984420448
Fix,GT,34.1989271,-118.473792,199.74082577720284,25.039042,0.1,9.68573,1638984421448
Fix,GT,34.1991492,-118.4737447,199.87087082210184,24.94136,0.1,9.861145,1638984422448
Fix,GT,34.1993695,-118.473698,199.985398647368,24.712349,0.1,9.779938,1638984423448
Fix,GT,34.199589,-118.4736519,200.1353085500598,24.77198,0.1,9.6267395,1638984424448
Fix,GT,34.1998098,-118.4736057,200.36222442016003,24.969738,0.1,9.763611,1638984425448
Fix,GT,34.200032,-118.4735585,200.60028601521253,25.086483,0.1,9.779358,1638984426448
Fix,GT,34.2002552,-118.4735118,200.84471315699813,25.11573,0.1,9.682678,1638984427448
Fix,GT,34.2004771,-118.4734659,201.0737522150278,24.740181,0.1,9.41391,1638984428448
Fix,GT,34.2006954,-118.4734243,201.24724094384908,24.344177,0.1,8.319702,1638984429448
Fix,GT,34.2009116,-118.4733884,201.50217335534097,24.131882,0.1,7.1252747,1638984430448
Fix,GT,34.2011289,-118.4733573,201.6508873603344,24.480791,0.1,6.461853,1638984431448
Fix,GT,34.2013512,-118.4733283,201.8306335299313,25.119873,0.1,5.6190186,1638984432448
Fix,GT,34.201579,-118.4733033,201.91939861893653,25.467457,0.1,4.5818787,1638984433448
Fix,GT,34.2018092,-118.4732832,202.03181976127624,25.689041,0.1,3.514801,1638984434448
Fix,GT,34.2020404,-118.4732675,202.1483370455504,25.608047,0.1,2.8015747,1638984435448
Fix,GT,34.2022701,-118.4732549,202.2743310172558,25.403316,0.1,2.0918274,1638984436448
Fix,GT,34.2024978,-118.4732473,202.3938933732212,25.133991,0.1,0.9526367,1638984437448
Fix,GT,34.202724,-118.473244,202.4739098711014,25.161095,0.1,0.34646606,1638984438448
Fix,GT,34.2029536,-118.4732392,202.59342717340587,26.105267,0.1,1.5508728,1638984439448
Fix,GT,34.2031965,-118.4732281,202.69020183992387,27.7907,0.1,2.2667236,1638984440448
Fix,GT,34.2034538,-118.473215,202.9187807088196,29.34566,0.1,2.0613098,1638984441448
Fix,GT,34.2037245,-118.4732043,203.0864661984444,30.628403,0.1,1.4058533,1638984442448
Fix,GT,34.2040042,-118.4731967,203.233269441247,31.459824,0.1,0.86169434,1638984443448
Fix,GT,34.2042924,-118.4731918,203.4472573180795,32.427803,0.1,0.4638672,1638984444448
Fix,GT,34.2045851,-118.473188,203.63321830695867,32.415894,0.1,0.4883728,1638984445448
Fix,GT,34.2048757,-118.4731839,203.874684497118,32.16213,0.1,0.4711609,1638984446448
Fix,GT,34.2051646,-118.4731805,204.0386619576216,31.92022,0.1,0.2807312,1638984447448
Fix,GT,34.2054513,-118.4731798,204.27216713228825,31.632248,0.1,359.459,1638984448448
Fix,GT,34.2057348,-118.4731846,204.48985868501663,31.318241,0.1,358.81467,1638984449448
Fix,GT,34.2060179,-118.4731893,204.72079716598984,31.560635,0.1,359.4158,1638984450448
Fix,GT,34.2063052,-118.4731919,204.9512797857225,32.1835,0.1,359.21582,1638984451448
Fix,GT,34.2065998,-118.4731982,205.1707746241093,33.21411,0.1,358.61145,1638984452448
Fix,GT,34.2069038,-118.4732055,205.41335350334649,34.16954,0.1,358.86096,1638984453448
Fix,GT,34.2072132,-118.4732099,205.5960769157708,34.410793,0.1,359.57782,1638984454448
Fix,GT,34.207524,-118.4732105,205.80430228969453,34.58743,0.1,359.93033,1638984455448
Fix,GT,34.2078366,-118.4732097,206.0753084203601,34.774483,0.1,0.015716553,1638984456448
Fix,GT,34.2081493,-118.4732084,206.41248159980773,34.489372,0.1,0.23394775,1638984457448
Fix,GT,34.2084596,-118.4732045,206.7168647637368,34.508568,0.1,0.5116272,1638984458448
Fix,GT,34.2087724,-118.4732005,206.87657888823747,34.87458,0.1,0.469635,1638984459448
Fix,GT,34.2090872,-118.4731962,206.97363936424256,34.859993,0.1,0.64682007,1638984460448
Fix,GT,34.2094013,-118.4731915,207.1602796972394,34.952232,0.1,0.3579712,1638984461448
Fix,GT,34.2097179,-118.4731889,207.43112808847428,35.307655,0.1,0.18231201,1638984462448
Fix,GT,34.2100385,-118.4731865,207.7123596768081,35.836285,0.1,0.28979492,1638984463448
Fix,GT,34.2103631,-118.4731828,207.91388633149865,36.071198,0.1,0.4835205,1638984464448
Fix,GT,34.2106879,-118.4731783,208.2576906356812,35.9924,0.1,0.49398804,1638984465448
Fix,GT,34.211012,-118.4731748,208.5148258861005,35.925694,0.1,0.28460693,1638984466448
Fix,GT,34.2113346,-118.4731717,208.72732471957804,35.593506,0.1,0.38867188,1638984467448
Fix,GT,34.211654,-118.4731678,208.92412806487084,35.357567,0.1,0.30529785,1638984468448
Fix,GT,34.2119729,-118.4731657,209.2622407724857,35.31667,0.1,0.10244751,1638984469448
Fix,GT,34.2122893,-118.4731637,209.63651032432915,34.888535,0.1,0.2388916,1638984470448
Fix,GT,34.2126033,-118.4731614,210.08685129106044,34.77228,0.1,0.1234436,1638984471448
Fix,GT,34.2129152,-118.4731596,210.594413895607,34.422234,0.1,0.24047852,1638984472448
Fix,GT,34.2132233,-118.4731566,211.13429488259555,33.939667,0.1,0.4411316,1638984473448
Fix,GT,34.213528,-118.4731534,211.79471595507863,33.735023,0.1,0.29067993,1638984474448
Fix,GT,34.2138327,-118.4731511,212.3893913241625,33.907036,0.1,0.022277832,1638984475448
Fix,GT,34.2141398,-118.4731511,212.9953011425733,34.180565,0.1,359.71695,1638984476448
Fix,GT,34.2144472,-118.4731513,213.60779621887207,33.9651,0.1,0.015197754,1638984477448
Fix,GT,34.2147515,-118.47315,214.19434620594976,33.54727,0.1,0.072143555,1638984478448
Fix,GT,34.2150521,-118.4731493,214.75437513825293,33.21631,0.1,359.94662,1638984479448
Fix,GT,34.2153498,-118.4731492,215.23259418177605,32.788647,0.1,0.008911133,1638984480448
Fix,GT,34.2156433,-118.4731486,215.66306678447123,32.34601,0.1,0.19216919,1638984481448
Fix,GT,34.2159342,-118.4731467,215.9837069013119,32.306866,0.1,0.09921265,1638984482448
Fix,GT,34.216227,-118.4731464,216.29154262280463,32.680756,0.1,359.9749,1638984483448
Fix,GT,34.2165245,-118.4731451,216.59519561702007,33.22342,0.1,0.24057007,1638984484448
Fix,GT,34.2168239,-118.473141,216.6680676420927,33.201263,0.1,0.7257385,1638984485448
Fix,GT,34.2171232,-118.4731367,216.67906764280795,33.2275,0.1,0.5532532,1638984486448
Fix,GT,34.2174222,-118.473133,216.7179613628388,33.03866,0.1,0.5108032,1638984487448
Fix,GT,34.2177187,-118.4731303,216.71580352512,32.719265,0.1,0.19100952,1638984488448
Fix,GT,34.2180119,-118.4731295,216.8438872584105,32.330967,0.1,359.93787,1638984489448
Fix,GT,34.2182998,-118.4731287,216.95290334042903,31.402164,0.1,0.2687683,1638984490448
Fix,GT,34.2185777,-118.4731259,217.0868582380712,30.26484,0.1,0.54296875,1638984491448
Fix,GT,34.218847,-118.4731229,217.2079258805812,29.600395,0.1,0.40179443,1638984492448
Fix,GT,34.2191118,-118.4731206,217.30096137830617,29.173367,0.1,0.46359253,1638984493448
Fix,GT,34.2193733,-118.4731175,217.3564146009684,28.850166,0.1,0.4826355,1638984494448
Fix,GT,34.2196327,-118.4731153,217.4623599115908,28.815731,0.1,0.25030518,1638984495448
Fix,GT,34.2198942,-118.4731132,217.57789373871685,29.195126,0.1,0.40090942,1638984496448
Fix,GT,34.2201586,-118.4731103,217.6813824672401,29.450947,0.1,0.41186523,1638984497448
Fix,GT,34.2204245,-118.4731076,217.8597359032632,29.570766,0.1,0.41711426,1638984498448
Fix,GT,34.2206905,-118.4731047,218.0672471840084,29.376154,0.1,0.5940552,1638984499448
Fix,GT,34.2209546,-118.4731008,218.3045264703036,29.236082,0.1,0.58847046,1638984500448
Fix,GT,34.2212177,-118.4730975,218.5248581937849,29.154129,0.1,0.5024414,1638984501448
Fix,GT,34.22148,-118.4730943,218.6103759816289,28.987755,0.1,0.49221802,1638984502448
Fix,GT,34.2217393,-118.4730914,218.66861533024905,28.55531,0.1,0.38180542,1638984503448
Fix,GT,34.2219967,-118.4730899,218.61306113022567,28.682777,0.1,0.038635254,1638984504448
Fix,GT,34.2222575,-118.4730897,218.5618937716186,29.18134,0.1,0.06842041,1638984505448
Fix,GT,34.222521,-118.4730872,218.67084216177463,29.197847,0.1,0.53082275,1638984506448
Fix,GT,34.2227836,-118.4730844,218.8762472190857,29.06247,0.1,0.35894775,1638984507448
Fix,GT,34.2230464,-118.4730827,219.03435996463887,29.2746,0.1,0.10687256,1638984508448
Fix,GT,34.2233097,-118.4730807,219.126392003566,29.121292,0.1,0.5253296,1638984509448
Fix,GT,34.2235733,-118.4730772,219.22288726079464,29.379192,0.1,0.5820923,1638984510448
Fix,GT,34.2238373,-118.473074,219.3817905321419,29.165215,0.1,0.5428467,1638984511448
Fix,GT,34.2240987,-118.4730711,219.5283599824608,28.829414,0.1,0.45288086,1638984512448
Fix,GT,34.224357,-118.4730685,219.6633985368609,28.484337,0.1,0.4267273,1638984513448
Fix,GT,34.2246124,-118.473066,219.8237970737219,28.231077,0.1,0.42797852,1638984514448
Fix,GT,34.2248676,-118.4730638,219.8690290998221,28.452927,0.1,0.19039917,1638984515448
Fix,GT,34.2251256,-118.4730619,219.94426325517887,28.784523,0.1,0.66519165,1638984516448
Fix,GT,34.2253864,-118.4730576,220.108887265563,29.08892,0.1,0.59817505,1638984517448
Fix,GT,34.2256503,-118.4730557,220.26330178785324,29.444843,0.1,0.21853638,1638984518448
Fix,GT,34.2259192,-118.4730537,220.41586472010613,30.09283,0.1,0.39212036,1638984519448
Fix,GT,34.226191,-118.4730509,220.5004276586771,30.3114,0.1,0.4500122,1638984520448
Fix,GT,34.2264645,-118.4730485,220.6538712984324,30.403687,0.1,0.25515747,1638984521448
Fix,GT,34.2267385,-118.4730467,220.7802858124972,30.428854,0.1,0.38165283,1638984522448
Fix,GT,34.2270118,-118.4730434,221.07419563150407,30.156425,0.1,0.6738281,1638984523448
Fix,GT,34.2272818,-118.473038,221.284240724504,29.760239,0.1,1.367279,1638984524448
Fix,GT,34.2275471,-118.4730268,221.52524072724583,29.086714,0.1,2.581604,1638984525448
Fix,GT,34.2278062,-118.4730104,221.72819564116003,28.5088,0.1,2.7193909,1638984526448
Fix,GT,34.228061,-118.4729982,222.11950401043893,28.084644,0.1,1.8330383,1638984527448
Fix,GT,34.2283146,-118.4729904,222.3643083707094,28.343407,0.1,0.946167,1638984528448
Fix,GT,34.2285728,-118.4729822,222.6419390021861,28.996302,0.1,2.1492615,1638984529448
Fix,GT,34.2288388,-118.4729691,222.7717811979652,30.105854,0.1,2.16745,1638984530448
Fix,GT,34.2291151,-118.4729583,222.96829247814412,31.199152,0.1,1.294281,1638984531448
Fix,GT,34.2294011,-118.472952,223.24815057313444,32.241547,0.1,0.7909851,1638984532448
Fix,GT,34.229696,-118.4729464,223.5690604031086,33.073997,0.1,0.8378296,1638984533448
Fix,GT,34.2299952,-118.4729406,223.9101280373335,33.29152,0.1,0.72576904,1638984534448
Fix,GT,34.2302963,-118.4729367,224.17476788923145,33.541695,0.1,0.4376831,1638984535448
Fix,GT,34.2305994,-118.4729325,224.4746618592739,33.72322,0.1,0.6208801,1638984536448
Fix,GT,34.2309048,-118.4729287,224.74059423542025,34.03238,0.1,0.31747437,1638984537448
Fix,GT,34.2312128,-118.4729256,224.91964602398872,34.188995,0.1,0.48065186,1638984538448
Fix,GT,34.2315193,-118.472922,225.2775875253677,33.81969,0.1,0.3857727,1638984539448
Fix,GT,34.2318246,-118.4729196,225.6481731375456,34.01826,0.1,0.24017334,1638984540448
Fix,GT,34.2321342,-118.4729171,225.9123602083624,34.67934,0.1,0.3496399,1638984541448
Fix,GT,34.232449,-118.4729139,226.2631213133335,35.142532,0.1,0.45248413,1638984542448
Fix,GT,34.2327664,-118.4729103,226.53624751865863,35.15171,0.1,0.46826172,1638984543448
Fix,GT,34.2330817,-118.4729059,226.8321663838923,34.912323,0.1,0.6567688,1638984544448
Fix,GT,34.2333961,-118.4729014,227.08663256743552,34.86849,0.1,0.5222168,1638984545448
Fix,GT,34.2337093,-118.472897,227.36016637161373,34.55165,0.1,0.72750854,1638984546448
Fix,GT,34.2340188,-118.4728916,227.68353341415525,34.103146,0.1,0.4734497,1638984547448
Fix,GT,34.2343249,-118.4728895,227.97524756976964,33.924866,0.1,0.026489258,1638984548448
Fix,GT,34.2346321,-118.4728889,228.2586686874032,34.336426,0.1,359.9604,1638984549448
Fix,GT,34.2349429,-118.4728881,228.58066870057584,34.411102,0.1,0.094818115,1638984550448
Fix,GT,34.235251,-118.4728862,228.95039822870493,33.932976,0.1,0.45837402,1638984551448
Fix,GT,34.2355544,-118.4728827,229.35390300327532,33.40529,0.1,0.33624268,1638984552448
Fix,GT,34.2358534,-118.4728799,229.60859458768368,32.949837,0.1,0.44119263,1638984553448
Fix,GT,34.2361485,-118.4728769,229.6957520589829,32.45678,0.1,0.32788086,1638984554448
Fix,GT,34.2364387,-118.4728744,229.98017317211628,31.971634,0.1,0.36090088,1638984555448
Fix,GT,34.2367274,-118.4728719,230.28267758199573,32.23137,0.1,0.26141357,1638984556448
Fix,GT,34.2370186,-118.4728698,230.55419571679832,32.21561,0.1,0.32080078,1638984557448
Fix,GT,34.2373076,-118.4728667,230.808706989646,31.882378,0.1,0.5588379,1638984558448
Fix,GT,34.2375933,-118.4728635,231.09917318421603,31.513062,0.1,0.42721558,1638984559448
Fix,GT,34.2378749,-118.4728611,231.384729534626,30.840199,0.1,0.2775879,1638984560448
Fix,GT,34.2381473,-118.4728586,231.6756393814087,29.456516,0.1,0.52505493,1638984561448
Fix,GT,34.238408,-118.4728551,231.9611506525874,28.633331,0.1,0.43170166,1638984562448
Fix,GT,34.238665,-118.4728519,232.2541731928587,28.340294,0.1,0.6139221,1638984563448
Fix,GT,34.2389129,-118.4728486,232.5387070020437,26.516497,0.1,0.5927429,1638984564448
Fix,GT,34.2391456,-118.4728455,232.6748647716045,25.268753,0.1,0.560791,1638984565448
Fix,GT,34.2393693,-118.4728427,232.99010558384657,24.364859,0.1,0.33032227,1638984566448
Fix,GT,34.2395837,-118.4728416,233.16541416820883,23.17317,0.1,0.150177,1638984567448
Fix,GT,34.2397893,-118.4728407,233.3158873102665,22.560455,0.1,0.109802246,1638984568448
Fix,GT,34.2399913,-118.4728397,233.50525639474392,22.188162,0.1,0.2774048,1638984569448
Fix,GT,34.2401857,-118.4728382,233.7201957409382,20.86859,0.1,0.3154297,1638984570448
Fix,GT,34.240368,-118.4728369,233.92672954893112,19.625248,0.1,0.2809143,1638984571448
Fix,GT,34.2405412,-118.4728355,234.1288717529476,18.9015,0.1,0.37704468,1638984572448
Fix,GT,34.2407096,-118.4728339,234.28970003321768,18.510845,0.1,0.4025879,1638984573448
Fix,GT,34.2408769,-118.4728324,234.48826336032155,18.714027,0.1,0.33816528,1638984574448
Fix,GT,34.2410477,-118.4728308,234.6718041611016,19.220335,0.1,0.41000366,1638984575448
Fix,GT,34.2412246,-118.4728288,234.8332338283956,20.083197,0.1,0.45394897,1638984576448
Fix,GT,34.241407,-118.4728267,234.9954281248748,20.36262,0.1,0.515625,1638984577448
Fix,GT,34.2415919,-118.4728246,235.1127140294909,20.531174,0.1,0.50619507,1638984578448
Fix,GT,34.2417757,-118.4728223,235.36929291793703,20.230091,0.1,0.573822,1638984579448
Fix,GT,34.2419571,-118.4728203,235.5703084406257,20.145866,0.1,0.4128723,1638984580448
Fix,GT,34.2421412,-118.4728187,235.73079717457296,20.781054,0.1,0.30285645,1638984581448
Fix,GT,34.2423313,-118.472817,235.94424786758424,21.203526,0.1,0.49816895,1638984582448
Fix,GT,34.2425231,-118.4728143,236.16179717671872,21.441841,0.1,0.6911926,1638984583448
Fix,GT,34.2427184,-118.472811,236.4404211242795,21.934326,0.1,0.69021606,1638984584448
Fix,GT,34.2429185,-118.4728082,236.6166774466336,22.311695,0.1,0.54537964,1638984585448
Fix,GT,34.2431209,-118.4728061,236.74454085919265,22.523134,0.1,0.3534851,1638984586448
Fix,GT,34.2433244,-118.4728049,236.906383114934,22.741676,0.1,0.10317993,1638984587448
Fix,GT,34.2435297,-118.4728045,237.11585771983863,22.750309,0.1,0.14712524,1638984588448
Fix,GT,34.243737,-118.4728031,237.3028197164536,23.33186,0.1,0.3279724,1638984589448
Fix,GT,34.2439512,-118.4728016,237.4233155257702,23.98909,0.1,0.38720703,1638984590448
Fix,GT,34.2441667,-118.472799,237.6023239055276,23.810013,0.1,0.60110474,1638984591448
Fix,GT,34.2443822,-118.4727961,237.740301368326,24.091492,0.1,0.5821228,1638984592448
Fix,GT,34.2446015,-118.4727932,237.9033760589957,24.622997,0.1,0.53015137,1638984593448
Fix,GT,34.2448268,-118.4727904,237.9969027685821,25.359665,0.1,0.5826111,1638984594448
Fix,GT,34.2450582,-118.4727868,238.03844366377592,25.814495,0.1,0.75527954,1638984595448
Fix,GT,34.2452913,-118.4727819,238.0284887327552,25.932573,0.1,1.151825,1638984596448
Fix,GT,34.2455256,-118.4727723,238.0664282247424,26.174038,0.1,2.6029358,1638984597448
Fix,GT,34.2457611,-118.4727546,238.211797192812,26.183954,0.1,4.3974915,1638984598448
Fix,GT,34.2459967,-118.4727274,238.387353528142,26.257862,0.1,6.3645935,1638984599448
Fix,GT,34.24623,-118.4726907,238.5622930357456,25.966675,0.1,8.174835,1638984600448
Fix,GT,34.2464602,-118.4726475,238.78321832633017,25.801437,0.1,9.313446,1638984601448
Fix,GT,34.2466905,-118.4725992,239.09419579565525,26.065632,0.1,10.226929,1638984602448
Fix,GT,34.2469206,-118.4725475,239.4256619987488,25.866829,0.1,10.564026,1638984603448
Fix,GT,34.2471508,-118.4724958,239.72169167685507,26.134808,0.1,10.400238,1638984604448
Fix,GT,34.2473823,-118.4724434,240.01763946723932,26.171906,0.1,10.801025,1638984605448
Fix,GT,34.2476138,-118.4723901,240.48632401180268,26.03738,0.1,10.817505,1638984606448
Fix,GT,34.2478447,-118.4723376,241.10427895355224,26.17309,0.1,10.486664,1638984607448
Fix,GT,34.2480785,-118.4722876,241.7068199569583,26.50795,0.1,9.64444,1638984608448
Fix,GT,34.2483161,-118.4722425,242.2574366884232,26.82019,0.1,8.221008,1638984609448
Fix,GT,34.2485551,-118.4722049,242.7210380869508,26.670609,0.1,6.726074,1638984610448
Fix,GT,34.2487951,-118.4721753,243.16594795757533,26.755608,0.1,4.912781,1638984611448
Fix,GT,34.2490346,-118.4721546,243.6345791491866,26.524712,0.1,3.409668,1638984612448
Fix,GT,34.249272,-118.4721388,243.91572961616515,26.187477,0.1,3.2991638,1638984613448
Fix,GT,34.2495072,-118.4721237,244.1142030937672,26.233692,0.1,2.7083435,1638984614448
Fix,GT,34.2497462,-118.4721102,244.33363949012755,26.862118,0.1,2.60495,1638984615448
Fix,GT,34.2499888,-118.4720983,244.7707972131968,26.82999,0.1,2.000763,1638984616448
Fix,GT,34.2502296,-118.4720881,245.1833465758562,26.775433,0.1,2.0124512,1638984617448
Fix,GT,34.2504748,-118.4720761,245.3164211384654,27.745773,0.1,2.4742126,1638984618448
Fix,GT,34.2507287,-118.4720628,245.3717143972218,28.519516,0.1,2.3354797,1638984619448
Fix,GT,34.2509878,-118.4720511,245.4853383263648,28.886648,0.1,1.6668091,1638984620448
Fix,GT,34.2512464,-118.4720435,245.6768270660937,28.345848,0.1,0.9907837,1638984621448
Fix,GT,34.2514979,-118.4720396,245.8168648095131,27.49819,0.1,0.43240356,1638984622448
Fix,GT,34.2517441,-118.472038,245.9163608727157,27.13762,0.1,0.199646,1638984623448
Fix,GT,34.2519877,-118.4720364,246.0493383449614,26.954807,0.1,0.36514282,1638984624448
Fix,GT,34.2522295,-118.4720341,246.1933760766983,26.69384,0.1,0.47644043,1638984625448
Fix,GT,34.2524687,-118.4720312,246.2974059496522,26.3905,0.1,0.5827637,1638984626448
Fix,GT,34.2527051,-118.4720275,246.4573310172558,26.060284,0.1,0.7411804,1638984627448
Fix,GT,34.2529385,-118.4720234,246.64080457144976,25.729942,0.1,0.7991333,1638984628448
Fix,GT,34.253169,-118.4720203,246.80081975173948,25.394978,0.1,0.631073,1638984629448
Fix,GT,34.2533961,-118.4720135,246.86249609157443,25.039997,0.1,2.0124512,1638984630448
Fix,GT,34.2536201,-118.4720014,247.00075952017303,24.70271,0.1,2.7969666,1638984631448
Fix,GT,34.253841,-118.4719873,247.0630827602446,24.3798,0.1,3.0813904,1638984632448
Fix,GT,34.254059,-118.4719728,247.1753760806322,24.055191,0.1,3.1645813,1638984633448
Fix,GT,34.2542756,-118.4719581,247.2242482640743,24.16462,0.1,3.114746,1638984634448
Fix,GT,34.254495,-118.4719432,247.4169098768234,24.36772,0.1,3.297058,1638984635448
Fix,GT,34.2547101,-118.4719284,247.54437608063225,23.322317,0.1,3.1604004,1638984636448
Fix,GT,34.2549145,-118.4719153,247.6269250283837,22.127846,0.1,3.0699158,1638984637448
Fix,GT,34.255109,-118.4719016,247.7020299128592,21.085585,0.1,3.518402,1638984638448
Fix,GT,34.2552925,-118.4718839,247.70954894474147,19.853376,0.1,5.559204,1638984639448
Fix,GT,34.2554665,-118.4718539,247.67060138857363,19.203892,0.1,10.651428,1638984640448
Fix,GT,34.2556291,-118.4718016,247.39924046599864,18.413855,0.1,18.685944,1638984641448
Fix,GT,34.2557766,-118.4717195,247.2086915117502,17.811768,0.1,29.473938,1638984642448
Fix,GT,34.2559045,-118.4716089,247.06487217852475,17.304302,0.1,40.198334,1638984643448
Fix,GT,34.2560138,-118.47148,247.0041052928269,16.685215,0.1,46.594604,1638984644448
Fix,GT,34.2561119,-118.4713504,246.8712179509104,15.416391,0.1,47.88028,1638984645448
Fix,GT,34.2562041,-118.4712349,246.74610530051592,14.277148,0.1,44.5141,1638984646448
Fix,GT,34.2563034,-118.4711399,246.5257816349268,13.833656,0.1,33.929962,1638984647448
Fix,GT,34.2564163,-118.4710771,246.2617816349268,13.661953,0.1,18.431152,1638984648448
Fix,GT,34.2565362,-118.47106,245.9464804758132,12.954424,0.1,359.1347,1638984649448
Fix,GT,34.2566481,-118.4710883,245.543495672226,12.272255,0.1,342.18555,1638984650448
Fix,GT,34.2567463,-118.4711395,245.1169618763924,11.451305,0.1,334.69608,1638984651448
Fix,GT,34.2568361,-118.471191,244.7478942847252,10.4613495,0.1,334.3141,1638984652448
Fix,GT,34.2569161,-118.4712369,244.4562027750016,9.284908,0.1,334.35187,1638984653448
Fix,GT,34.2569855,-118.4712768,244.2267365708351,7.8130836,0.1,334.2585,1638984654448
Fix,GT,34.2570445,-118.4713107,244.0502027750016,6.732464,0.1,334.40323,1638984655448
Fix,GT,34.257094,-118.4713394,243.9964509453476,5.41987,0.1,334.57034,1638984656448
Fix,GT,34.2571314,-118.4713602,243.9649701989293,3.7377362,0.1,335.51083,1638984657448
Fix,GT,34.2571562,-118.4713735,243.9450152602196,2.3817458,0.1,336.02753,1638984658448
Fix,GT,34.2571701,-118.4713811,243.9230377912224,1.0329324,0.1,336.23065,1638984659448
Fix,GT,34.2571738,-118.4713832,243.9129927308261,0.036462117,0.1,336.2148,1638984660448
Fix,GT,34.2571737,-118.4713833,243.91200726914408,0.0101172095,0.1,336.21317,1638984661448
Fix,GT,34.2571736,-118.4713833,243.91400726920364,0.009486834,0.1,336.2113,1638984662448
Fix,GT,34.2571736,-118.4713833,243.915,0.0076462682,0.1,336.21185,1638984663448
Fix,GT,34.2571736,-118.4713833,243.9169927307069,0.0054061147,0.1,336.2117,1638984664448
Fix,GT,34.2571736,-118.4713833,243.91599273073672,0.004472136,0.1,336.21124,1638984665448
Fix,GT,34.2571736,-118.4713833,243.916,0.0028284271,0.1,336.21066,1638984666448
Fix,GT,34.2571736,-118.4713833,243.91599273073672,0.0025255745,0.1,336.2101,1638984667448
Fix,GT,34.2571736,-118.4713833,243.91599273073672,0.0015112653,0.1,336.20978,1638984668448
Fix,GT,34.2571736,-118.4713833,243.916,0.0012024406,0.1,336.2093,1638984669448
Fix,GT,34.2571736,-118.4713833,243.91599273073672,0.0025255743,0.1,336.20892,1638984670448
Fix,GT,34.2571736,-118.4713833,243.91600726926328,0.0033889082,0.1,336.20828,1638984671448
Fix,GT,34.2571736,-118.4713833,243.916,0.005424837,0.1,336.20773,1638984672448
Fix,GT,34.2571736,-118.4713833,243.91599273073672,0.005830952,0.1,336.2071,1638984673448
Fix,GT,34.2571735,-118.4713833,243.91600726926328,0.006816216,0.1,336.2066,1638984674448
Fix,GT,34.2571735,-118.4713833,243.91600726926328,0.007211103,0.1,336.20645,1638984675448
Fix,GT,34.2571735,-118.4713832,243.916,0.006744621,0.1,336.2062,1638984676448
Fix,GT,34.2571735,-118.4713832,243.91600726926328,0.005051148,0.1,336.206,1638984677448
Fix,GT,34.2571734,-118.4713832,243.916,0.0016319595,0.1,336.20572,1638984678448
Fix,GT,34.2571734,-118.4713831,243.916,0.009624703,0.1,336.2054,1638984679448
Fix,GT,34.2571734,-118.4713832,243.915,0.020176323,0.1,336.20532,1638984680448
Fix,GT,34.2571738,-118.4713835,243.9035635993779,0.3192396,0.1,336.19614,1638984681448
Fix,GT,34.2571843,-118.4713892,243.8645410663784,2.7178798,0.1,336.01627,1638984682448
Fix,GT,34.2572174,-118.4714075,243.7965563311577,5.0554895,0.1,335.393,1638984683448
Fix,GT,34.2572648,-118.4714369,243.81470707643032,6.671916,0.1,332.08276,1638984684448
Fix,GT,34.2573181,-118.4714834,243.93246620094777,7.779887,0.1,320.61502,1638984685448
Fix,GT,34.2573644,-118.4715551,243.9335112664104,8.897621,0.1,302.8772,1638984686448
Fix,GT,34.2573956,-118.4716549,243.8431577297449,10.583479,0.1,285.11954,1638984687448
Fix,GT,34.2574104,-118.4717783,243.7425112664104,12.333843,0.1,275.7927,1638984688448
Fix,GT,34.2574198,-118.4719218,243.7014509305954,14.055773,0.1,273.77347,1638984689448
Fix,GT,34.2574271,-118.4720795,243.7459774671793,14.903719,0.1,272.6847,1638984690448
Fix,GT,34.2574323,-118.4722414,243.77648873353004,14.850953,0.1,271.75916,1638984691448
Fix,GT,34.2574356,-118.4723999,243.81293966674804,14.303333,0.1,271.13153,1638984692448
Fix,GT,34.2574371,-118.47255,243.851962200582,13.340477,0.1,270.6338,1638984693448
Fix,GT,34.2574375,-118.4726859,243.85449600073696,11.738648,0.1,270.2207,1638984694448
Fix,GT,34.2574376,-118.4728042,243.8999549334049,9.934347,0.1,270.33716,1638984695448
Fix,GT,34.257439,-118.4729048,243.929,8.900942,0.1,272.2423,1638984696448
Fix,GT,34.2574496,-118.4729945,243.91551853606103,8.0031185,0.1,282.56903,1638984697448
Fix,GT,34.2574805,-118.4730697,243.8947521297932,7.855616,0.1,302.89996,1638984698448
Fix,GT,34.2575326,-118.4731338,243.9087971949577,8.864405,0.1,318.00293,1638984699448
Fix,GT,34.2575998,-118.4731971,244.04840586975217,10.202057,0.1,322.07617,1638984700448
Fix,GT,34.2576768,-118.4732687,244.1379323972464,11.285368,0.1,322.82092,1638984701448
Fix,GT,34.2577617,-118.4733387,244.2417143325508,11.473459,0.1,328.26758,1638984702448
Fix,GT,34.2578547,-118.4733902,244.5844817094803,11.516675,0.1,340.18735,1638984703448
Fix,GT,34.2579574,-118.4734087,245.11832396888727,11.769108,0.1,358.54468,1638984704448
Fix,GT,34.2580608,-118.4733845,245.7413014345169,11.905853,0.1,18.243408,1638984705448
Fix,GT,34.2581541,-118.4733182,246.3597901673317,12.459534,0.1,37.602753,1638984706448
Fix,GT,34.2582255,-118.4732146,246.9188352360725,12.595125,0.1,57.83316,1638984707448
Fix,GT,34.2582633,-118.4730893,247.4559253705144,12.1613035,0.1,77.006134,1638984708448
Fix,GT,34.2582649,-118.4729624,247.9120081169009,11.462563,0.1,96.264465,1638984709448
Fix,GT,34.2582315,-118.4728487,248.25072218588,11.267551,0.1,115.88522,1638984710448
Fix,GT,34.258165,-118.4727507,248.46522572261097,12.68575,0.1,136.00757,1638984711448
Fix,GT,34.2580611,-118.4726765,248.78063944816583,14.441936,0.1,156.52509,1638984712448
Fix,GT,34.2579276,-118.4726364,249.140128182888,16.341629,0.1,170.22144,1638984713448
Fix,GT,34.2577728,-118.4726177,249.32238349020483,18.236868,0.1,175.13464,1638984714448
Fix,GT,34.2576,-118.4726045,249.41013520836827,20.2256,0.1,176.38037,1638984715448
Fix,GT,34.2574096,-118.4725931,249.42817284548283,21.97908,0.1,177.30737,1638984716448
Fix,GT,34.2572042,-118.4725844,249.30540602213145,23.624302,0.1,177.88184,1638984717448
Fix,GT,34.2569836,-118.472577,249.09005249357224,25.347055,0.1,178.31903,1638984718448
Fix,GT,34.2567474,-118.4725698,248.82436797642708,26.925135,0.1,178.36383,1638984719448
Fix,GT,34.2564997,-118.4725632,248.69455633801223,27.948517,0.1,178.84198,1638984720448
Fix,GT,34.2562433,-118.4725586,248.5371052685976,28.957096,0.1,178.50903,1638984721448
Fix,GT,34.2559794,-118.4725495,248.36166901403664,29.546968,0.1,177.88202,1638984722448
Fix,GT,34.2557108,-118.4725374,248.2171052781344,30.174698,0.1,177.38513,1638984723448
Fix,GT,34.2554353,-118.472523,248.058060212642,31.001514,0.1,177.46765,1638984724448
Fix,GT,34.2551522,-118.4725114,247.94669893735647,31.840916,0.1,178.38348,1638984725448
Fix,GT,34.2548635,-118.4725057,247.83003768384452,32.13241,0.1,179.25665,1638984726448
Fix,GT,34.2545722,-118.4724999,247.7251503613591,32.556206,0.1,178.26465,1638984727448
Fix,GT,34.2542756,-118.4724895,247.57321019160747,33.28713,0.1,178.28998,1638984728448
Fix,GT,34.2539737,-118.4724824,247.3712253472805,33.545677,0.1,179.02405,1638984729448
Fix,GT,34.2536718,-118.4724801,247.22423271363976,33.557076,0.1,179.79553,1638984730448
Fix,GT,34.2533674,-118.4724817,247.0291352062225,33.850677,0.1,180.2287,1638984731448
Fix,GT,34.2530636,-118.4724849,246.86211267125609,33.52509,0.1,180.13103,1638984732448
Fix,GT,34.252763,-118.4724869,246.68673660838604,33.18669,0.1,180.05492,1638984733448
Fix,GT,34.2524652,-118.472489,246.4806239364147,32.86986,0.1,180.25117,1638984734448
Fix,GT,34.2521703,-118.4724925,246.3295338006616,32.54799,0.1,180.36974,1638984735448
Fix,GT,34.2518784,-118.4724956,246.1930298707485,32.229828,0.1,180.07808,1638984736448
Fix,GT,34.2515891,-118.472497,246.07320280075072,31.937492,0.1,180.01224,1638984737448
Fix,GT,34.2513025,-118.4724986,245.8976915340424,31.674652,0.1,180.09975,1638984738448
Fix,GT,34.2510173,-118.4725007,245.75262393313648,31.562664,0.1,180.23564,1638984739448
Fix,GT,34.250734,-118.4725024,245.68602253329755,31.330564,0.1,179.62555,1638984740448
Fix,GT,34.2504502,-118.4724982,245.541721382618,31.88982,0.1,178.55096,1638984741448
Fix,GT,34.2501583,-118.4724906,245.24374358701704,33.06852,0.1,178.68866,1638984742448
Fix,GT,34.249855,-118.4724854,244.6604801828861,34.05629,0.1,179.45728,1638984743448
Fix,GT,34.2495458,-118.4724854,243.91876611995696,34.440216,0.1,180.30263,1638984744448
Fix,GT,34.2492358,-118.4724914,243.14599869433044,34.343666,0.1,181.32286,1638984745448
Fix,GT,34.2489268,-118.4725075,242.36005205118656,34.384773,0.1,183.40266,1638984746448
Fix,GT,34.2486174,-118.4725382,241.78214218199253,34.508446,0.1,185.77765,1638984747448
Fix,GT,34.2483084,-118.472586,241.1870817710459,34.585114,0.1,188.58813,1638984748448
Fix,GT,34.2480019,-118.4726499,240.78443529668448,34.47866,0.1,190.36882,1638984749448
Fix,GT,34.2476954,-118.4727194,240.4099393853545,34.685177,0.1,190.48671,1638984750448
Fix,GT,34.2473875,-118.4727898,240.0439393853545,34.76414,0.1,190.52794,1638984751448
Fix,GT,34.2470808,-118.4728599,239.7531802597046,34.495003,0.1,190.66,1638984752448
Fix,GT,34.2467771,-118.4729294,239.69811266291143,33.993244,0.1,190.50278,1638984753448
Fix,GT,34.2464775,-118.4729944,239.6779324026108,33.551956,0.1,189.35439,1638984754448
Fix,GT,34.246179,-118.4730476,239.56638305187224,33.43399,0.1,187.0493,1638984755448
Fix,GT,34.2458804,-118.4730865,239.35927752265337,33.173504,0.1,184.93073,1638984756448
Fix,GT,34.2455833,-118.4731117,239.10489431601763,32.906227,0.1,182.81163,1638984757448
Fix,GT,34.2452879,-118.4731246,238.7958717817068,32.717613,0.1,181.0508,1638984758448
Fix,GT,34.2449917,-118.4731293,238.41251823568345,33.006615,0.1,180.16298,1638984759448
Fix,GT,34.2446947,-118.4731314,238.02229291427136,32.850002,0.1,180.179,1638984760448
Fix,GT,34.2443999,-118.4731348,237.77915772140025,32.559296,0.1,180.41557,1638984761448
Fix,GT,34.2441076,-118.4731386,237.5518267068863,32.305737,0.1,180.4216,1638984762448
Fix,GT,34.2438175,-118.4731421,237.3252182401717,32.07044,0.1,180.37953,1638984763448
Fix,GT,34.2435297,-118.4731455,237.13770697784423,31.695866,0.1,180.40834,1638984764448
Fix,GT,34.2432454,-118.4731487,236.8342323682308,31.436642,0.1,180.22585,1638984765448
Fix,GT,34.2429631,-118.473151,236.7863984937668,31.185886,0.1,180.226,1638984766448
Fix,GT,34.2426837,-118.4731541,236.48164644706247,30.653168,0.1,180.2964,1638984767448
Fix,GT,34.24241,-118.4731563,236.06945060157776,30.079212,0.1,180.17162,1638984768448
Fix,GT,34.2421416,-118.4731589,235.7633675032556,29.459137,0.1,180.2869,1638984769448
Fix,GT,34.2418773,-118.4731617,235.50678162002563,29.216518,0.1,180.33601,1638984770448
Fix,GT,34.2416143,-118.4731643,235.24231541109089,29.174532,0.1,180.18143,1638984771448
Fix,GT,34.2413505,-118.4731659,235.00027034950256,29.312403,0.1,180.0491,1638984772448
Fix,GT,34.2410869,-118.4731678,234.7757816110849,29.139595,0.1,180.38943,1638984773448
Fix,GT,34.2408252,-118.4731707,234.49330840972067,28.932425,0.1,180.2795,1638984774448
Fix,GT,34.2405642,-118.4731734,234.19820275354385,28.983479,0.1,180.38942,1638984775448
Fix,GT,34.2403041,-118.4731769,233.947308419317,28.581322,0.1,180.49213,1638984776448
Fix,GT,34.2400479,-118.4731802,233.64787170696252,28.310661,0.1,180.36197,1638984777448
Fix,GT,34.2397936,-118.4731826,233.33931538271904,28.117722,0.1,180.15126,1638984778448
Fix,GT,34.23954,-118.4731842,233.07670706036689,28.252918,0.1,180.11653,1638984779448
Fix,GT,34.2392838,-118.473187,232.8253379029036,28.480585,0.1,180.4039,1638984780448
Fix,GT,34.239027,-118.4731901,232.49845053482056,28.593788,0.1,180.35239,1638984781448
Fix,GT,34.2387678,-118.4731925,232.29277465581896,28.816494,0.1,180.08035,1638984782448
Fix,GT,34.2385086,-118.4731934,232.05724778628348,28.669369,0.1,180.01791,1638984783448
Fix,GT,34.238251,-118.4731965,231.82580409652,28.556845,0.1,180.5584,1638984784448
Fix,GT,34.2379924,-118.4732001,231.56575904244184,28.837826,0.1,180.42563,1638984785448
Fix,GT,34.2377313,-118.4732033,231.3272859322429,29.011398,0.1,180.37823,1638984786448
Fix,GT,34.2374691,-118.4732059,231.07229970893263,29.153225,0.1,180.19084,1638984787448
Fix,GT,34.2372064,-118.4732079,230.76677468043565,29.223293,0.1,180.17783,1638984788448
Fix,GT,34.2369428,-118.4732101,230.51331533932685,29.23808,0.1,180.2358,1638984789448
Fix,GT,34.2366796,-118.4732128,230.26623210334776,29.118137,0.1,180.42719,1638984790448
Fix,GT,34.236417,-118.4732158,230.03832218956947,29.21541,0.1,180.14082,1638984791448
Fix,GT,34.236153,-118.4732172,229.82215766465663,29.324282,0.1,180.16629,1638984792448
Fix,GT,34.2358893,-118.4732201,229.6482771245241,29.15591,0.1,180.45015,1638984793448
Fix,GT,34.2356276,-118.4732239,229.48631525740024,28.974339,0.1,180.51501,1638984794448
Fix,GT,34.2353668,-118.4732271,229.25484017947315,28.889439,0.1,180.29977,1638984795448
Fix,GT,34.2351065,-118.4732294,228.8727972357571,28.828272,0.1,180.22057,1638984796448
Fix,GT,34.2348466,-118.4732313,228.557916667521,28.847712,0.1,180.22217,1638984797448
Fix,GT,34.2345871,-118.4732338,228.27282657206052,28.756,0.1,180.30829,1638984798448
Fix,GT,34.2343279,-118.4732364,228.01676579776404,28.689175,0.1,180.27696,1638984799448
Fix,GT,34.2340703,-118.4732387,227.8276982242763,28.452936,0.1,180.21696,1638984800448
Fix,GT,34.2338148,-118.4732405,227.5722477338314,28.215744,0.1,180.18022,1638984801448
Fix,GT,34.2335606,-118.4732427,227.3002702522278,28.252033,0.1,180.2823,1638984802448
Fix,GT,34.2333053,-118.4732454,227.04531529092787,28.396116,0.1,180.46594,1638984803448
Fix,GT,34.2330497,-118.4732492,226.7962544846833,28.309029,0.1,180.57214,1638984804448
Fix,GT,34.2327941,-118.4732521,226.5533828431368,28.38322,0.1,180.24936,1638984805448
Fix,GT,34.2325388,-118.4732544,226.2472927577496,28.245079,0.1,180.29868,1638984806448
Fix,GT,34.2322858,-118.473257,225.9833220086396,27.69813,0.1,180.30339,1638984807448
Fix,GT,34.2320421,-118.473259,225.69129274845125,26.275913,0.1,180.25137,1638984808448
Fix,GT,34.2318125,-118.4732614,225.5060383167267,24.826454,0.1,180.42558,1638984809448
Fix,GT,34.2315911,-118.4732639,225.3776621696353,24.385159,0.1,180.30952,1638984810448
Fix,GT,34.2313722,-118.4732657,225.16782650983333,24.272171,0.1,180.18994,1638984811448
Fix,GT,34.2311515,-118.4732668,224.95263965946435,24.764114,0.1,179.9466,1638984812448
Fix,GT,34.2309255,-118.4732675,224.80720935434104,25.156925,0.1,180.17699,1638984813448
Fix,GT,34.2306993,-118.47327,224.6272318613827,24.904171,0.1,180.46327,1638984814448
Fix,GT,34.230481,-118.4732728,224.43018013000489,23.492153,0.1,180.46458,1638984815448
Fix,GT,34.2302733,-118.4732756,224.19669138407707,22.730356,0.1,180.5416,1638984816448
Fix,GT,34.2300691,-118.4732784,223.9717297360599,22.603436,0.1,180.44101,1638984817448
Fix,GT,34.2298667,-118.4732805,223.7452476643324,22.191162,0.1,180.25902,1638984818448
Fix,GT,34.2296678,-118.4732819,223.49829268956185,22.031242,0.1,180.10138,1638984819448
Fix,GT,34.2294688,-118.4732829,223.2742701692581,22.084425,0.1,180.15111,1638984820448
Fix,GT,34.22927,-118.4732847,223.0357972874045,22.044632,0.1,180.33879,1638984821448
Fix,GT,34.2290709,-118.4732868,222.8256913638115,22.05811,0.1,180.38626,1638984822448
Fix,GT,34.2288726,-118.4732891,222.6422184941769,21.923847,0.1,180.44519,1638984823448
Fix,GT,34.2286764,-118.4732918,222.51856291317932,21.614746,0.1,180.49792,1638984824448
Fix,GT,34.2284828,-118.4732942,222.6001059271395,21.309301,0.1,180.357,1638984825448
Fix,GT,34.2282927,-118.4732961,222.343668838799,20.881454,0.1,180.23923,1638984826448
Fix,GT,34.2281049,-118.4732975,222.188662214607,20.900034,0.1,180.1813,1638984827448
Fix,GT,34.2279142,-118.4732989,221.99629926177852,21.452644,0.1,180.26376,1638984828448
Fix,GT,34.2277184,-118.4733003,221.78627673858404,21.908653,0.1,180.18903,1638984829448
Fix,GT,34.227521,-118.4733021,221.4883217445016,21.861134,0.1,180.42033,1638984830448
Fix,GT,34.2273239,-118.4733039,221.1942926291228,21.97604,0.1,180.20293,1638984831448
Fix,GT,34.2271227,-118.4733053,221.000646311462,22.576687,0.1,180.14203,1638984832448
Fix,GT,34.2269195,-118.4733069,220.8392025818825,22.479706,0.1,180.2576,1638984833448
Fix,GT,34.226717,-118.4733086,220.6652541734576,22.543678,0.1,180.25961,1638984834448
Fix,GT,34.2265117,-118.4733108,220.53009003400803,22.985548,0.1,180.45541,1638984835448
Fix,GT,34.2263051,-118.4733135,220.4726303652227,22.770493,0.1,180.41678,1638984836448
Fix,GT,34.2261023,-118.4733152,220.36962379217147,22.206556,0.1,180.26472,1638984837448
Fix,GT,34.225905,-118.4733171,220.28352719587087,21.60513,0.1,180.35773,1638984838448
Fix,GT,34.2257116,-118.4733192,220.23113504171369,21.345837,0.1,180.28511,1638984839448
Fix,GT,34.2255192,-118.4733207,220.1056462920904,21.287891,0.1,180.34952,1638984840448
Fix,GT,34.225328,-118.4733231,220.00108346757293,21.171926,0.1,180.55553,1638984841448
Fix,GT,34.2251357,-118.4733252,219.91711252880097,21.584862,0.1,180.21585,1638984842448
Fix,GT,34.224939,-118.4733263,219.8180290565789,22.030697,0.1,180.11246,1638984843448
Fix,GT,34.2247388,-118.4733281,219.8384662424326,22.374352,0.1,180.40508,1638984844448
Fix,GT,34.224537,-118.473331,219.6731865849793,22.390614,0.1,180.66478,1638984845448
Fix,GT,34.2243337,-118.4733337,219.58557876515388,22.699259,0.1,180.3071,1638984846448
Fix,GT,34.2241293,-118.4733351,219.4487072468102,22.61887,0.1,180.09431,1638984847448
Fix,GT,34.2239259,-118.4733365,219.2521350209713,22.524864,0.1,180.37181,1638984848448
Fix,GT,34.2237235,-118.4733398,219.1505787609816,22.394993,0.1,180.68051,1638984849448
Fix,GT,34.2235226,-118.4733427,219.0950159731508,22.120886,0.1,180.50098,1638984850448
Fix,GT,34.2233249,-118.4733451,219.05454972720145,21.79464,0.1,180.37656,1638984851448
Fix,GT,34.223128,-118.4733471,218.98660125768183,21.948431,0.1,180.32715,1638984852448
Fix,GT,34.2229284,-118.4733493,218.87463973522188,22.429447,0.1,180.42358,1638984853448
Fix,GT,34.2227252,-118.4733514,218.7167072391808,22.567036,0.1,180.22792,1638984854448
Fix,GT,34.222522,-118.4733522,218.56213500237465,22.536388,0.1,180.03975,1638984855448
Fix,GT,34.2223175,-118.4733533,218.4904372383058,22.806202,0.1,180.13799,1638984856448
Fix,GT,34.2221122,-118.473355,218.47901598840951,22.806751,0.1,180.43434,1638984857448
Fix,GT,34.221906,-118.4733578,218.47842125278711,22.827589,0.1,180.64735,1638984858448
Fix,GT,34.2217014,-118.4733614,218.53962374299763,22.567171,0.1,180.74115,1638984859448
