MessageType,Provider,LatitudeDegrees,LongitudeDegrees,AltitudeMeters,SpeedMps,AccuracyMeters,BearingDegrees,UnixTimeMillis
Fix,GT,37.3949547,-122.1023386,-5.072,0.0031613428,0.1,20.435638,1619023632999
Fix,GT,37.3949547,-122.1023386,-5.072,0.0022350717,0.1,20.43814,1619023633999
Fix,GT,37.3949546,-122.1023386,-5.072,0.0014148772,0.1,20.439728,1619023634999
Fix,GT,37.3949547,-122.1023387,-5.072,0.0022365472,0.1,20.441376,1619023635999
Fix,GT,37.3949547,-122.1023387,-5.072,0.0028295736,0.1,20.443054,1619023636999
Fix,GT,37.3949547,-122.1023387,-5.072,0.00720984,0.1,20.445587,1619023637999
Fix,GT,37.3949547,-122.1023387,-5.07,0.00860168,0.1,20.411865,1619023638999
Fix,GT,37.3949548,-122.1023389,-5.067,0.0128073385,0.1,20.410156,1619023639999
Fix,GT,37.3949546,-122.102338,-5.070999182879924,0.4856697,0.1,19.389923,1619023640999
Fix,GT,37.3949528,-122.1023298,-5.078,1.9587413,0.1,10.323608,1619023641999
Fix,GT,37.394951,-122.1023051,-5.099000820338726,3.2568333,0.1,1.6453247,1619023642999
Fix,GT,37.3949491,-122.1022588,-5.137,4.5432878,0.1,6.531494,1619023643999
Fix,GT,37.394938,-122.1021956,-5.033005765318871,5.783603,0.1,16.244507,1619023644999
Fix,GT,37.3949154,-122.1021231,-4.927014854073525,6.5982704,0.1,24.096863,1619023645999
Fix,GT,37.3948869,-122.1020514,-4.815013228416444,6.8887916,0.1,28.103943,1619023646999
Fix,GT,37.3948584,-122.101987,-4.604012427568436,5.9468307,0.1,28.61023,1619023647999
Fix,GT,37.394841,-122.101938,-4.478008300542831,5.0750785,0.1,16.999817,1619023648999
Fix,GT,37.3948394,-122.1019023,-4.392004158318043,4.56182,0.1,350.35846,1619023649999
Fix,GT,37.3948516,-122.1018709,-4.351996666908265,4.92448,0.1,322.74872,1619023650999
Fix,GT,37.3948811,-122.1018405,-4.364998330235481,5.84123,0.1,300.29694,1619023651999
Fix,GT,37.394931,-122.1018108,-4.40099832701683,6.8717184,0.1,294.45288,1619023652999
Fix,GT,37.3949917,-122.101777,-4.43199497139454,7.892606,0.1,293.8927,1619023653999
Fix,GT,37.395063,-122.1017367,-4.500992442071438,9.242508,0.1,296.4071,1619023654999
Fix,GT,37.3951413,-122.1016832,-4.56599411034584,9.812721,0.1,300.60538,1619023655999
Fix,GT,37.3952152,-122.1016276,-4.6399966278076175,8.948189,0.1,301.39474,1619023656999
Fix,GT,37.3952774,-122.1015803,-4.683004223287106,7.2277417,0.1,301.29132,1619023657999
Fix,GT,37.3953247,-122.1015442,-4.725994076132775,4.7015967,0.1,301.71674,1619023658999
Fix,GT,37.3953501,-122.1015238,-4.761998304128647,1.9878217,0.1,303.6335,1619023659999
Fix,GT,37.3953584,-122.1015169,-4.799994902729988,0.55121475,0.1,304.2241,1619023660999
Fix,GT,37.3953651,-122.1015111,-4.814998297810555,1.1725069,0.1,305.4643,1619023661999
Fix,GT,37.3953758,-122.1015012,-4.810000852823257,1.2390718,0.1,307.79364,1619023662999
Fix,GT,37.3953806,-122.1014963,-4.817,0.0042206193,0.1,309.0637,1619023663999
Fix,GT,37.3953806,-122.1014963,-4.822,0.00728177,0.1,309.06662,1619023664999
Fix,GT,37.3953806,-122.1014963,-4.822,0.0063243476,0.1,309.06567,1619023665999
Fix,GT,37.3953806,-122.1014963,-4.822,0.0067074504,0.1,309.06784,1619023666999
Fix,GT,37.3953806,-122.1014963,-4.822,0.005000715,0.1,309.06934,1619023667999
Fix,GT,37.3953806,-122.1014963,-4.822,0.0036061008,0.1,309.0712,1619023668999
Fix,GT,37.3953806,-122.1014963,-4.822,0.0028284271,0.1,309.07315,1619023669999
Fix,GT,37.3953806,-122.1014963,-4.822,0.00223687,0.1,309.07507,1619023670999
Fix,GT,37.3953806,-122.1014963,-4.822,0.0030001407,0.1,309.07657,1619023671999
Fix,GT,37.3953806,-122.1014963,-4.822,0.003,0.1,309.07828,1619023672999
Fix,GT,37.3953806,-122.1014963,-4.822,0.0031621363,0.1,309.08,1619023673999
Fix,GT,37.3953806,-122.1014963,-4.822,0.002,0.1,309.08173,1619023674999
Fix,GT,37.3953807,-122.1014963,-4.822,0.0022367358,0.1,309.0836,1619023675999
Fix,GT,37.3953807,-122.1014963,-4.822,0.0036043525,0.1,309.08545,1619023676999
Fix,GT,37.3953807,-122.1014963,-4.822,0.0028287198,0.1,309.0871,1619023677999
Fix,GT,37.3953807,-122.1014963,-4.822,0.0031622776,0.1,309.0887,1619023678999
Fix,GT,37.3953807,-122.1014963,-4.822,0.0022368834,0.1,309.09036,1619023679999
Fix,GT,37.3953807,-122.1014963,-4.822,0.0031622776,0.1,309.0922,1619023680999
Fix,GT,37.3953807,-122.1014963,-4.822,0.0029982328,0.1,309.09415,1619023681999
Fix,GT,37.3953807,-122.1014963,-4.822,0.0022358592,0.1,309.0958,1619023682999
Fix,GT,37.3953807,-122.1014963,-4.822,0.001414733,0.1,309.09775,1619023683999
Fix,GT,37.3953807,-122.1014963,-4.822,0.0028291177,0.1,309.09937,1619023684999
Fix,GT,37.3953807,-122.1014963,-4.823,0.0036055513,0.1,309.101,1619023685999
Fix,GT,37.3953807,-122.1014962,-4.825999108314514,0.004471363,0.1,309.10205,1619023686999
Fix,GT,37.3953821,-122.1014947,-4.840998213291168,0.61180395,0.1,309.49698,1619023687999
Fix,GT,37.3953853,-122.1014915,-4.850996420145035,0.062393013,0.1,310.29562,1619023688999
Fix,GT,37.3953855,-122.1014911,-4.858997310101985,0.123618126,0.1,310.3597,1619023689999
Fix,GT,37.395388,-122.1014883,-4.863999101758003,0.058276974,0.1,311.04337,1619023690999
Fix,GT,37.3953879,-122.1014883,-4.868999100148677,0.0020008998,0.1,311.04776,1619023691999
Fix,GT,37.3953879,-122.1014883,-4.869,1.8029214e-06,0.1,311.04932,1619023692999
Fix,GT,37.395388,-122.1014883,-4.869,9.030104e-07,0.1,311.05173,1619023693999
Fix,GT,37.395388,-122.1014883,-4.87,0.0014142136,0.1,311.05386,1619023694999
Fix,GT,37.395388,-122.1014883,-4.87,0.003001018,0.1,311.05563,1619023695999
Fix,GT,37.395388,-122.1014883,-4.870000908017159,0.0041231057,0.1,311.0569,1619023696999
Fix,GT,37.395388,-122.1014884,-4.87,0.005383546,0.1,311.059,1619023697999
Fix,GT,37.395388,-122.1014885,-4.87,0.005000757,0.1,311.06055,1619023698999
Fix,GT,37.3953886,-122.1014879,-4.8799990870952605,0.26656294,0.1,311.20526,1619023699999
Fix,GT,37.3953886,-122.1014878,-4.874000914454459,0.0067105005,0.1,311.23547,1619023700999
Fix,GT,37.3953885,-122.1014878,-4.872000916182995,0.011401552,0.1,311.23685,1619023701999
Fix,GT,37.3953883,-122.1014876,-4.87,0.01455934,0.1,311.2381,1619023702999
Fix,GT,37.3953881,-122.1014874,-4.867,0.021095023,0.1,311.2374,1619023703999
Fix,GT,37.3953879,-122.101487,-4.865,0.02983229,0.1,311.23892,1619023704999
Fix,GT,37.3953875,-122.1014865,-4.862,0.040310454,0.1,311.2456,1619023705999
Fix,GT,37.3953908,-122.1014814,-4.919987059116363,1.3884019,0.1,312.16586,1619023706999
Fix,GT,37.3954099,-122.1014565,-5.121000925898553,3.8293612,0.1,319.45914,1619023707999
Fix,GT,37.3954339,-122.1014013,-4.898004638135433,4.8090687,0.1,346.0833,1619023708999
Fix,GT,37.3954326,-122.1013206,-4.83300371670723,6.8948927,0.1,15.447693,1619023709999
Fix,GT,37.3954032,-122.1012337,-4.808000930786132,8.863711,0.1,25.928986,1619023710999
Fix,GT,37.3953635,-122.1011344,-4.809998135209083,10.614446,0.1,27.127136,1619023711999
Fix,GT,37.3953139,-122.1010179,-4.824998131871223,12.581913,0.1,28.565247,1619023712999
Fix,GT,37.3952547,-122.1008842,-4.826000935673714,14.459449,0.1,29.01593,1619023713999
Fix,GT,37.3951876,-122.1007326,-4.8689850025177,16.243778,0.1,28.786499,1619023714999
Fix,GT,37.3951137,-122.1005631,-4.946000938951969,17.96624,0.1,28.349182,1619023715999
Fix,GT,37.3950337,-122.1003774,-4.919001881241798,19.429274,0.1,28.04422,1619023716999
Fix,GT,37.3949482,-122.1001756,-4.8670084800720215,21.030825,0.1,27.769684,1619023717999
Fix,GT,37.3948556,-122.0999577,-4.809006607294083,22.59387,0.1,28.548859,1619023718999
Fix,GT,37.394755,-122.0997283,-4.777998108983039,23.612082,0.1,28.89563,1619023719999
Fix,GT,37.3946513,-122.0994936,-4.80399621129036,23.690666,0.1,29.068573,1619023720999
Fix,GT,37.3945479,-122.0992611,-4.820007590293884,23.465767,0.1,28.924347,1619023721999
Fix,GT,37.3944468,-122.0990313,-4.77701045435667,23.083704,0.1,28.876923,1619023722999
Fix,GT,37.3943471,-122.0988053,-4.768003808259964,22.650675,0.1,29.06482,1619023723999
Fix,GT,37.3942492,-122.0985835,-4.734005722045898,22.219048,0.1,28.902405,1619023724999
Fix,GT,37.3941533,-122.098366,-4.676012418687344,21.806875,0.1,28.898865,1619023725999
Fix,GT,37.3940589,-122.0981521,-4.571012440383434,21.421831,0.1,29.070068,1619023726999
Fix,GT,37.3939646,-122.0979426,-4.512995207190514,21.013838,0.1,30.13266,1619023727999
Fix,GT,37.3938674,-122.0977399,-4.461998079538345,20.749472,0.1,32.074677,1619023728999
Fix,GT,37.3937649,-122.0975407,-4.412004809200763,21.180367,0.1,33.764435,1619023729999
Fix,GT,37.3936533,-122.0973411,-4.360000963449478,21.74912,0.1,36.569244,1619023730999
Fix,GT,37.3935313,-122.0971427,-4.2870077209472655,22.332026,0.1,39.052887,1619023731999
Fix,GT,37.3933993,-122.0969461,-4.216009667277336,22.905594,0.1,41.295288,1619023732999
Fix,GT,37.3932589,-122.0967534,-4.064030986785888,23.1097,0.1,43.4057,1619023733999
Fix,GT,37.3931129,-122.0965647,-3.868014550089836,23.256762,0.1,45.065796,1619023734999
Fix,GT,37.3929605,-122.0963813,-3.6950233187675474,23.34578,0.1,47.343445,1619023735999
Fix,GT,37.3928046,-122.0962065,-3.4330262786746024,22.925264,0.1,49.135864,1619023736999
Fix,GT,37.3926477,-122.096041,-3.149027297019958,22.417864,0.1,51.01059,1619023737999
Fix,GT,37.39249,-122.0958855,-2.955024412572384,21.904982,0.1,52.78705,1619023738999
Fix,GT,37.3923329,-122.0957391,-2.766014672577381,21.437849,0.1,53.60144,1619023739999
Fix,GT,37.3921785,-122.0955974,-2.6040127371549606,20.989336,0.1,53.949768,1619023740999
Fix,GT,37.3920275,-122.0954609,-2.476015701293945,20.186058,0.1,54.522583,1619023741999
Fix,GT,37.3918827,-122.0953327,-2.323017695069313,18.961493,0.1,55.281128,1619023742999
Fix,GT,37.3917466,-122.0952139,-2.1490275707244875,18.117126,0.1,54.29947,1619023743999
Fix,GT,37.3916176,-122.0950948,-1.975010848402977,17.656055,0.1,52.641815,1619023744999
Fix,GT,37.3914952,-122.094974,-1.860992096424103,17.100117,0.1,50.471313,1619023745999
Fix,GT,37.3913809,-122.0948519,-1.7360168214440346,16.457098,0.1,48.051727,1619023746999
Fix,GT,37.3912742,-122.0947287,-1.636998017549515,15.909262,0.1,46.091095,1619023747999
Fix,GT,37.3911744,-122.0946048,-1.5380188627243043,15.467364,0.1,44.247986,1619023748999
Fix,GT,37.3910806,-122.0944805,-1.4240099450349806,15.043078,0.1,42.58734,1619023749999
Fix,GT,37.3909903,-122.0943548,-1.3170109565854071,15.031086,0.1,41.311096,1619023750999
Fix,GT,37.3909019,-122.094226,-1.2220069836378098,15.197185,0.1,40.15628,1619023751999
Fix,GT,37.3908144,-122.0940941,-1.134009993314743,15.239362,0.1,39.185394,1619023752999
Fix,GT,37.390729,-122.0939607,-1.0400090084671976,15.105771,0.1,38.10034,1619023753999
Fix,GT,37.3906472,-122.0938274,-0.9470170433521272,14.797507,0.1,36.98822,1619023754999
Fix,GT,37.3905693,-122.0936955,-0.8600080337524414,14.379225,0.1,35.973083,1619023755999
Fix,GT,37.3904956,-122.0935653,-0.7670110641121864,14.05861,0.1,34.395996,1619023756999
Fix,GT,37.3904267,-122.0934357,-0.7260231724381446,13.700791,0.1,33.09326,1619023757999
Fix,GT,37.39036,-122.0933076,-0.5670060546398162,13.343145,0.1,32.621643,1619023758999
Fix,GT,37.3902953,-122.0931803,-0.5549969678521157,13.426323,0.1,32.47821,1619023759999
Fix,GT,37.3902295,-122.0930501,-0.506,13.934051,0.1,32.071167,1619023760999
Fix,GT,37.3901618,-122.0929141,-0.4960101399421692,14.431979,0.1,31.81372,1619023761999
Fix,GT,37.390092,-122.0927734,-0.4470040624141693,14.871881,0.1,31.963959,1619023762999
Fix,GT,37.3900196,-122.0926286,-0.3520050863623619,15.393456,0.1,31.917725,1619023763999
Fix,GT,37.3899453,-122.0924785,-0.2800132454633713,15.883036,0.1,31.749847,1619023764999
Fix,GT,37.3898695,-122.0923244,-0.182010204911232,16.131926,0.1,31.467499,1619023765999
Fix,GT,37.3897942,-122.0921699,-0.1700010221600532,16.084019,0.1,31.55072,1619023766999
Fix,GT,37.3897185,-122.092014,-0.1310040950775146,16.276096,0.1,30.973907,1619023767999
Fix,GT,37.3896424,-122.0918548,-0.0320102543830871,16.536802,0.1,31.431244,1619023768999
Fix,GT,37.3895631,-122.0916933,0.1279845942854881,17.006645,0.1,31.620941,1619023769999
Fix,GT,37.3894802,-122.0915267,0.2059958851337432,17.595142,0.1,32.105103,1619023770999
Fix,GT,37.389394,-122.0913554,0.2249958786964416,18.194172,0.1,32.304962,1619023771999
Fix,GT,37.3893056,-122.0911791,0.239001031935215,18.741987,0.1,31.80371,1619023772999
Fix,GT,37.3892161,-122.0909963,0.2389968991875648,19.328964,0.1,31.093903,1619023773999
Fix,GT,37.389125,-122.0908069,0.2349989647865295,19.866047,0.1,31.429443,1619023774999
Fix,GT,37.3890294,-122.0906137,0.2339989631772041,20.355373,0.1,32.073517,1619023775999
Fix,GT,37.3889309,-122.0904172,0.1970103849172592,20.703712,0.1,32.323242,1619023776999
Fix,GT,37.3888296,-122.0902184,0.128996879696846,21.046888,0.1,32.875946,1619023777999
Fix,GT,37.388725,-122.0900177,0.1679989582300186,21.29824,0.1,33.505615,1619023778999
Fix,GT,37.3886188,-122.0898189,0.1589979132413864,21.052156,0.1,33.822388,1619023779999
Fix,GT,37.3885153,-122.0896252,0.1279832801818847,19.995516,0.1,33.53244,1619023780999
Fix,GT,37.3884212,-122.0894473,0.1469989533424377,17.876932,0.1,32.902405,1619023781999
Fix,GT,37.3883399,-122.0892876,0.1860083861351013,15.859995,0.1,32.038605,1619023782999
Fix,GT,37.3882682,-122.089144,0.1299979003667831,14.226949,0.1,31.87326,1619023783999
Fix,GT,37.388205,-122.0890154,0.1569978969097137,12.557897,0.1,31.148376,1619023784999
Fix,GT,37.3881502,-122.0889012,0.1860052654743194,11.104694,0.1,31.030884,1619023785999
Fix,GT,37.388101,-122.0887993,0.1799978905916213,9.867409,0.1,31.285828,1619023786999
Fix,GT,37.3880587,-122.0887124,0.2049978873729706,8.011632,0.1,31.365753,1619023787999
Fix,GT,37.3880262,-122.0886459,0.2060010579824447,5.784954,0.1,31.431183,1619023788999
Fix,GT,37.3880044,-122.0886012,0.2109989404082298,3.6118455,0.1,31.446777,1619023789999
Fix,GT,37.3879913,-122.0885744,0.2189989387989044,2.0337803,0.1,31.42331,1619023790999
Fix,GT,37.3879848,-122.088561,0.221,0.8124055,0.1,31.401245,1619023791999
Fix,GT,37.3879835,-122.0885581,0.2200031934380531,0.024127064,0.1,31.395142,1619023792999
Fix,GT,37.3879835,-122.0885581,0.223,0.0036055513,0.1,31.397522,1619023793999
Fix,GT,37.3879835,-122.0885581,0.223,0.0030001733,0.1,31.395203,1619023794999
Fix,GT,37.3879835,-122.0885581,0.2220010693669319,0.001,0.1,31.395721,1619023795999
Fix,GT,37.3879835,-122.0885581,0.221,0.000998929,0.1,31.396057,1619023796999
Fix,GT,37.3879835,-122.0885581,0.221,0.001,0.1,31.396149,1619023797999
Fix,GT,37.3879835,-122.0885581,0.221,0.0014142136,0.1,31.396149,1619023798999
Fix,GT,37.3879835,-122.0885581,0.221,0.0009989241,0.1,31.396515,1619023799999
Fix,GT,37.3879835,-122.0885581,0.221,0.0,0.1,31.39685,1619023800999
Fix,GT,37.3879835,-122.0885581,0.221,0.001,0.1,31.396606,1619023801999
Fix,GT,37.3879835,-122.0885581,0.221,0.0009989192,0.1,31.396484,1619023802999
Fix,GT,37.3879835,-122.0885581,0.221,0.0031622776,0.1,31.39563,1619023803999
Fix,GT,37.3879835,-122.0885581,0.221,0.0014142136,0.1,31.39685,1619023804999
Fix,GT,37.3879835,-122.0885581,0.221,0.0009989144,0.1,31.397003,1619023805999
Fix,GT,37.3879835,-122.0885581,0.221,0.0,0.1,31.396515,1619023806999
Fix,GT,37.3879835,-122.0885581,0.221,0.0009989111,0.1,31.396301,1619023807999
Fix,GT,37.3879835,-122.0885581,0.221,1.5423218e-06,0.1,31.396149,1619023808999
Fix,GT,37.3879835,-122.0885581,0.221,0.0010004524,0.1,31.395905,1619023809999
Fix,GT,37.3879835,-122.0885581,0.221,0.0014142136,0.1,31.395569,1619023810999
Fix,GT,37.3879835,-122.0885581,0.221,0.0010004537,0.1,31.395172,1619023811999
Fix,GT,37.3879835,-122.0885581,0.221,0.000998903,0.1,31.394806,1619023812999
Fix,GT,37.3879835,-122.0885581,0.221,0.0,0.1,31.394104,1619023813999
Fix,GT,37.3879835,-122.0885581,0.221,0.0014137579,0.1,31.393585,1619023814999
Fix,GT,37.3879835,-122.0885581,0.221,0.0014142136,0.1,31.392944,1619023815999
Fix,GT,37.3879835,-122.0885581,0.221,0.0014137565,0.1,31.392395,1619023816999
Fix,GT,37.3879835,-122.0885581,0.221,0.0014126505,0.1,31.391785,1619023817999
Fix,GT,37.3879835,-122.0885581,0.221,1.1068583e-06,0.1,31.3909,1619023818999
Fix,GT,37.3879835,-122.0885581,0.221,0.0019988916,0.1,31.390137,1619023819999
Fix,GT,37.3879835,-122.0885581,0.221,0.0010004599,0.1,31.389404,1619023820999
Fix,GT,37.3879835,-122.0885581,0.221,0.0,0.1,31.38861,1619023821999
Fix,GT,37.3879835,-122.0885581,0.221,1.1133552e-06,0.1,31.387451,1619023822999
Fix,GT,37.3879835,-122.0885581,0.221,0.001,0.1,31.386292,1619023823999
Fix,GT,37.3879835,-122.0885581,0.221,0.0019988834,0.1,31.385284,1619023824999
Fix,GT,37.3879835,-122.0885581,0.221,0.0010011182,0.1,31.384125,1619023825999
Fix,GT,37.3879835,-122.0885581,0.221,0.001000464,0.1,31.382935,1619023826999
Fix,GT,37.3879835,-122.0885581,0.221,0.0010020506,0.1,31.381836,1619023827999
Fix,GT,37.3879835,-122.0885581,0.221,0.001,0.1,31.38034,1619023828999
Fix,GT,37.3879835,-122.0885581,0.221,0.0010004659,0.1,31.378845,1619023829999
Fix,GT,37.3879835,-122.0885581,0.221,0.001413747,0.1,31.37735,1619023830999
Fix,GT,37.3879835,-122.0885581,0.221,0.001,0.1,31.375977,1619023831999
Fix,GT,37.3879835,-122.0885581,0.221,0.001,0.1,31.37445,1619023832999
Fix,GT,37.3879835,-122.0885581,0.221,0.0020011312,0.1,31.372803,1619023833999
Fix,GT,37.3879835,-122.0885581,0.221,0.003000184,0.1,31.371033,1619023834999
Fix,GT,37.3879835,-122.0885581,0.221,0.004997915,0.1,31.36914,1619023835999
Fix,GT,37.3879835,-122.0885581,0.222,0.005,0.1,31.367218,1619023836999
Fix,GT,37.3879835,-122.0885581,0.224,0.007278748,0.1,31.365295,1619023837999
Fix,GT,37.3879834,-122.0885577,0.2180011393427849,0.29968455,0.1,31.359467,1619023838999
Fix,GT,37.3879787,-122.0885479,0.214,2.0685747,0.1,31.439606,1619023839999
Fix,GT,37.3879639,-122.0885178,0.2239988574385643,4.1016192,0.1,31.775604,1619023840999
Fix,GT,37.3879396,-122.088469,0.232,6.206426,0.1,31.943268,1619023841999
Fix,GT,37.3879041,-122.0883978,0.2739839582443237,8.587274,0.1,31.91507,1619023842999
Fix,GT,37.3878592,-122.0883069,0.2979988524913787,10.232068,0.1,31.525696,1619023843999
Fix,GT,37.3878081,-122.0882024,0.325990807056427,11.595222,0.1,31.082123,1619023844999
Fix,GT,37.3877533,-122.0880859,0.3780023014545441,12.3135805,0.1,29.895721,1619023845999
Fix,GT,37.3876971,-122.0879629,0.4289942383170128,12.802902,0.1,29.385406,1619023846999
Fix,GT,37.3876394,-122.0878351,0.4410011540055275,13.209124,0.1,29.43399,1619023847999
Fix,GT,37.3875789,-122.0877045,0.4759838213920593,13.259623,0.1,30.692963,1619023848999
Fix,GT,37.3875179,-122.0875776,0.5489965281486512,12.843153,0.1,31.503418,1619023849999
Fix,GT,37.3874574,-122.0874544,0.5779942055344581,12.906029,0.1,31.340912,1619023850999
Fix,GT,37.3873957,-122.0873279,0.6049930366277695,13.470385,0.1,31.32605,1619023851999
Fix,GT,37.3873309,-122.0871948,0.6369988378286362,14.148656,0.1,31.3349,1619023852999
Fix,GT,37.3872625,-122.0870548,0.6719976723194123,14.945465,0.1,31.398956,1619023853999
Fix,GT,37.3871906,-122.0869091,0.7279976691007614,15.145884,0.1,31.987396,1619023854999
Fix,GT,37.3871183,-122.0867655,0.8029941647052765,14.975773,0.1,32.09192,1619023855999
Fix,GT,37.3870468,-122.0866217,0.8579941566586494,15.121361,0.1,31.66037,1619023856999
Fix,GT,37.3869748,-122.0864747,0.8829976595640183,15.471575,0.1,31.351135,1619023857999
Fix,GT,37.3869015,-122.0863246,0.8969941402673722,15.585686,0.1,31.507355,1619023858999
Fix,GT,37.386828,-122.0861753,0.879996479511261,15.526866,0.1,31.69928,1619023859999
Fix,GT,37.3867539,-122.0860259,0.8879952995777131,15.578957,0.1,31.791168,1619023860999
Fix,GT,37.3866803,-122.0858777,0.9239917625784876,15.33331,0.1,31.737885,1619023861999
Fix,GT,37.3866084,-122.0857324,0.9410023567676544,14.968783,0.1,31.65207,1619023862999
Fix,GT,37.3865381,-122.0855901,0.9340011799931528,14.659478,0.1,31.61914,1619023863999
Fix,GT,37.3864695,-122.0854514,0.917996455013752,14.111444,0.1,31.6604,1619023864999
Fix,GT,37.3864049,-122.0853212,0.9250035498142244,12.973265,0.1,31.831146,1619023865999
Fix,GT,37.386345,-122.0852014,0.915002369761467,12.164741,0.1,32.076324,1619023866999
Fix,GT,37.3862879,-122.0850873,0.9150011864900588,11.693447,0.1,32.023438,1619023867999
Fix,GT,37.3862333,-122.0849786,0.9279952473640444,10.9421,0.1,31.824158,1619023868999
Fix,GT,37.386184,-122.0848785,0.9030011897683144,9.925345,0.1,31.53476,1619023869999
Fix,GT,37.3861392,-122.0847874,0.8859976171255112,9.126468,0.1,31.448303,1619023870999
Fix,GT,37.3860983,-122.0847038,0.8760023862123489,8.092705,0.1,31.503082,1619023871999
Fix,GT,37.3860635,-122.0846335,0.871,6.4607267,0.1,31.684296,1619023872999
Fix,GT,37.3860378,-122.0845812,0.8820011963844299,4.226353,0.1,31.574219,1619023873999
Fix,GT,37.3860227,-122.0845506,0.875,2.2749562,0.1,31.671875,1619023874999
Fix,GT,37.3860154,-122.0845359,0.8729988003373147,0.83756614,0.1,31.710785,1619023875999
Fix,GT,37.386014,-122.0845329,0.8690012012720109,0.043235097,0.1,31.71524,1619023876999
Fix,GT,37.386014,-122.0845329,0.867,0.004121755,0.1,31.716187,1619023877999
Fix,GT,37.386014,-122.0845329,0.867,0.0019992944,0.1,31.712921,1619023878999
Fix,GT,37.386014,-122.084533,0.867,0.001,0.1,31.711853,1619023879999
Fix,GT,37.386014,-122.084533,0.867,0.001,0.1,31.71051,1619023880999
Fix,GT,37.386014,-122.084533,0.867,0.0,0.1,31.709015,1619023881999
Fix,GT,37.386014,-122.084533,0.867,1.7127636e-06,0.1,31.707611,1619023882999
Fix,GT,37.386014,-122.084533,0.867,0.001,0.1,31.706146,1619023883999
Fix,GT,37.386014,-122.084533,0.867,0.0009987857,0.1,31.704407,1619023884999
Fix,GT,37.386014,-122.084533,0.867,0.001,0.1,31.703156,1619023885999
Fix,GT,37.386014,-122.084533,0.867,0.0014137093,0.1,31.701752,1619023886999
Fix,GT,37.386014,-122.084533,0.867,0.0009987808,0.1,31.700531,1619023887999
Fix,GT,37.386014,-122.084533,0.867,0.0014137079,0.1,31.699097,1619023888999
Fix,GT,37.386014,-122.084533,0.867,0.0014137072,0.1,31.697632,1619023889999
Fix,GT,37.386014,-122.084533,0.867,0.001,0.1,31.69629,1619023890999
Fix,GT,37.386014,-122.084533,0.867,0.0014137059,0.1,31.69455,1619023891999
Fix,GT,37.386014,-122.084533,0.867,0.001,0.1,31.693481,1619023892999
Fix,GT,37.386014,-122.084533,0.867,0.001,0.1,31.692017,1619023893999
Fix,GT,37.386014,-122.084533,0.867,0.0009987693,0.1,31.690857,1619023894999
Fix,GT,37.386014,-122.084533,0.867,1.2323261e-06,0.1,31.689545,1619023895999
Fix,GT,37.386014,-122.084533,0.867,0.0014124685,0.1,31.688202,1619023896999
Fix,GT,37.386014,-122.084533,0.867,1.2355447e-06,0.1,31.686768,1619023897999
Fix,GT,37.386014,-122.084533,0.867,1.2372137e-06,0.1,31.685364,1619023898999
Fix,GT,37.386014,-122.084533,0.867,0.0009987612,0.1,31.684143,1619023899999
Fix,GT,37.386014,-122.084533,0.867,0.0,0.1,31.682922,1619023900999
Fix,GT,37.386014,-122.084533,0.867,0.0,0.1,31.68158,1619023901999
Fix,GT,37.386014,-122.084533,0.867,0.001,0.1,31.680176,1619023902999
Fix,GT,37.386014,-122.084533,0.867,0.001,0.1,31.678528,1619023903999
Fix,GT,37.386014,-122.084533,0.867,0.001413697,0.1,31.677124,1619023904999
Fix,GT,37.386014,-122.084533,0.867,0.0014142136,0.1,31.67569,1619023905999
Fix,GT,37.386014,-122.084533,0.867,0.001,0.1,31.674255,1619023906999
Fix,GT,37.386014,-122.084533,0.867,0.001,0.1,31.672913,1619023907999
Fix,GT,37.386014,-122.084533,0.867,0.0014142136,0.1,31.671265,1619023908999
Fix,GT,37.386014,-122.084533,0.867,0.0014142136,0.1,31.6698,1619023909999
Fix,GT,37.386014,-122.084533,0.867,0.0014142136,0.1,31.668304,1619023910999
Fix,GT,37.386014,-122.084533,0.867,0.0014142136,0.1,31.666962,1619023911999
Fix,GT,37.386014,-122.084533,0.868,0.026372034,0.1,31.666534,1619023912999
Fix,GT,37.3860127,-122.0845303,0.866,0.47771108,0.1,31.66742,1619023913999
Fix,GT,37.3860102,-122.0845254,0.8699987366199493,0.51877505,0.1,31.679535,1619023914999
Fix,GT,37.3860076,-122.0845202,0.869,0.78559417,0.1,31.688416,1619023915999
Fix,GT,37.3860027,-122.0845104,0.873,1.1438352,0.1,31.693146,1619023916999
Fix,GT,37.3859969,-122.0844987,0.8750012682676316,1.2701856,0.1,31.741241,1619023917999
Fix,GT,37.3859904,-122.0844856,0.8750012699365616,1.5115135,0.1,32.027405,1619023918999
Fix,GT,37.3859809,-122.084467,0.871,2.5563004,0.1,32.38211,1619023919999
Fix,GT,37.3859648,-122.0844358,0.874,3.9719858,0.1,32.856598,1619023920999
Fix,GT,37.3859422,-122.0843923,0.8799987251758575,5.21495,0.1,33.081726,1619023921999
Fix,GT,37.3859121,-122.0843352,0.896,6.712365,0.1,32.827118,1619023922999
Fix,GT,37.3858771,-122.0842668,0.8860012781023979,7.714492,0.1,32.259735,1619023923999
Fix,GT,37.3858379,-122.0841894,0.8810038389563561,8.598591,0.1,31.703674,1619023924999
Fix,GT,37.385795,-122.0841025,0.8540102510452271,9.500377,0.1,31.384308,1619023925999
Fix,GT,37.3857479,-122.0840063,0.8730051317214966,10.445085,0.1,31.43219,1619023926999
Fix,GT,37.3856964,-122.0839015,0.8769935767054557,11.365715,0.1,31.411987,1619023927999
Fix,GT,37.3856406,-122.0837881,0.903,12.247398,0.1,31.310944,1619023928999
Fix,GT,37.3855812,-122.0836669,0.91199742436409,12.856547,0.1,31.388153,1619023929999
Fix,GT,37.3855196,-122.0835416,0.9399987104535102,13.154545,0.1,31.485962,1619023930999
Fix,GT,37.3854568,-122.0834144,0.9749935445189476,13.348583,0.1,31.395355,1619023931999
Fix,GT,37.3853929,-122.0832845,1.0179961215257645,13.684854,0.1,31.292633,1619023932999
Fix,GT,37.3853279,-122.0831508,1.0619974112510682,14.098739,0.1,30.987183,1619023933999
Fix,GT,37.3852607,-122.083012,1.1129909272789955,14.640305,0.1,31.18515,1619023934999
Fix,GT,37.3851899,-122.082868,1.150993511736393,15.290609,0.1,31.46753,1619023935999
Fix,GT,37.3851163,-122.0827183,1.1790025985240935,15.798902,0.1,31.392609,1619023936999
Fix,GT,37.3850406,-122.0825646,1.217989592552185,16.06874,0.1,31.631897,1619023937999
Fix,GT,37.384964,-122.0824108,1.2539986974596975,16.021458,0.1,31.991272,1619023938999
Fix,GT,37.3848869,-122.0822577,1.287,16.054817,0.1,31.959534,1619023939999
Fix,GT,37.3848103,-122.0821046,1.304001305937767,16.000721,0.1,31.536743,1619023940999
Fix,GT,37.3847354,-122.0819515,1.3259947698116303,15.796585,0.1,31.231445,1619023941999
Fix,GT,37.3846613,-122.0818005,1.374993454515934,15.589948,0.1,31.309814,1619023942999
Fix,GT,37.384588,-122.0816517,1.437986891746521,15.387431,0.1,31.468597,1619023943999
Fix,GT,37.3845158,-122.0815045,1.5129868762493133,15.208932,0.1,31.37616,1619023944999
Fix,GT,37.3844447,-122.0813591,1.6089737179279326,15.061553,0.1,31.171173,1619023945999
Fix,GT,37.3843739,-122.0812151,1.6409973686933517,14.886321,0.1,31.361572,1619023946999
Fix,GT,37.3843033,-122.0810728,1.655989460945129,14.769722,0.1,31.678314,1619023947999
Fix,GT,37.3842327,-122.0809305,1.7369934047460558,14.924019,0.1,31.507477,1619023948999
Fix,GT,37.3841619,-122.0807864,1.788005282640457,15.116836,0.1,30.97873,1619023949999
Fix,GT,37.3840923,-122.0806383,1.8479947106838228,15.406374,0.1,29.130798,1619023950999
Fix,GT,37.3840246,-122.0804852,1.927990732431412,15.601699,0.1,28.404663,1619023951999
Fix,GT,37.3839565,-122.0803313,2.009990720748901,15.435529,0.1,29.2406,1619023952999
Fix,GT,37.383888,-122.0801813,2.042990709483624,15.111474,0.1,30.032654,1619023953999
Fix,GT,37.3838194,-122.0800362,2.107993355572224,14.743593,0.1,30.67691,1619023954999
Fix,GT,37.3837511,-122.0798953,2.190985363900661,14.398893,0.1,31.223846,1619023955999
Fix,GT,37.3836836,-122.0797588,2.272997335672379,14.029105,0.1,31.427582,1619023956999
Fix,GT,37.3836181,-122.0796258,2.3689933308362963,13.65016,0.1,31.445068,1619023957999
Fix,GT,37.3835538,-122.0794954,2.459989315986633,13.595034,0.1,31.219238,1619023958999
Fix,GT,37.3834896,-122.0793639,2.531994651556015,13.731946,0.1,31.193298,1619023959999
Fix,GT,37.3834243,-122.0792312,2.595994644880295,13.836679,0.1,31.397858,1619023960999
Fix,GT,37.3833608,-122.0791019,2.6909906164407724,12.890853,0.1,31.24582,1619023961999
Fix,GT,37.383303,-122.0789843,2.7549986579418184,11.575961,0.1,31.393555,1619023962999
Fix,GT,37.3832506,-122.0788784,2.8369811869859696,10.658564,0.1,31.279297,1619023963999
Fix,GT,37.3832026,-122.0787781,2.913987890899181,10.267397,0.1,29.032257,1619023964999
Fix,GT,37.3831601,-122.0786786,3.013987876415253,9.939095,0.1,26.47815,1619023965999
Fix,GT,37.3831208,-122.0785794,3.0989811177253728,9.748608,0.1,25.751953,1619023966999
Fix,GT,37.3830827,-122.0784822,3.182989196777344,9.295044,0.1,26.673676,1619023967999
Fix,GT,37.3830453,-122.0783934,3.2199891839027406,8.324425,0.1,28.430817,1619023968999
Fix,GT,37.3830093,-122.0783139,3.2779945852756502,7.643265,0.1,30.290497,1619023969999
Fix,GT,37.3829756,-122.0782442,3.3229945785999297,6.74718,0.1,31.63507,1619023970999
Fix,GT,37.382944,-122.0781816,3.3379918578863146,6.4202123,0.1,32.264923,1619023971999
Fix,GT,37.3829133,-122.0781216,3.388995924115181,6.168644,0.1,32.68506,1619023972999
Fix,GT,37.3828829,-122.0780631,3.410994558811188,6.5277762,0.1,32.985107,1619023973999
Fix,GT,37.3828483,-122.0779964,3.4579904666543007,7.541018,0.1,32.65341,1619023974999
Fix,GT,37.3828112,-122.0779238,3.51799045497179,7.7138844,0.1,32.44928,1619023975999
Fix,GT,37.3827756,-122.0778523,3.56999590408802,7.4248095,0.1,29.684387,1619023976999
Fix,GT,37.3827518,-122.077784,3.623009567975998,7.396229,0.1,15.118561,1619023977999
Fix,GT,37.3827464,-122.0777103,3.62301094865799,7.8501816,0.1,355.098,1619023978999
Fix,GT,37.3827649,-122.0776358,3.5330109610557554,8.659939,0.1,332.5019,1619023979999
Fix,GT,37.3828085,-122.0775601,3.26505624628067,9.538684,0.1,316.99127,1619023980999
Fix,GT,37.3828741,-122.0774919,3.131034338235855,10.791075,0.1,303.4927,1619023981999
Fix,GT,37.3829599,-122.0774284,2.9850041255950925,11.813542,0.1,298.95236,1619023982999
Fix,GT,37.3830559,-122.0773636,2.945009637653828,12.473919,0.1,298.06653,1619023983999
Fix,GT,37.3831579,-122.077296,2.828004135429859,13.176379,0.1,297.8889,1619023984999
Fix,GT,37.3832646,-122.0772229,2.663024841547012,13.70732,0.1,299.03445,1619023985999
Fix,GT,37.3833742,-122.0771432,2.5230082905292512,14.291456,0.1,299.92682,1619023986999
Fix,GT,37.3834864,-122.0770592,2.400017984509468,14.78997,0.1,300.28323,1619023987999
Fix,GT,37.3836024,-122.076972,2.368008310198784,15.180465,0.1,300.46826,1619023988999
Fix,GT,37.3837188,-122.0768845,2.2960055468082428,14.956333,0.1,300.8278,1619023989999
Fix,GT,37.3838329,-122.0767983,2.243004165112972,14.641055,0.1,301.24802,1619023990999
Fix,GT,37.3839441,-122.076712,2.1630416994094848,14.320993,0.1,301.94385,1619023991999
Fix,GT,37.3840519,-122.0766269,1.97501530879736,13.981439,0.1,301.8866,1619023992999
Fix,GT,37.3841556,-122.0765452,1.823012540400028,13.174436,0.1,301.82684,1619023993999
Fix,GT,37.3842535,-122.0764686,1.7320083699226378,12.530218,0.1,301.99823,1619023994999
Fix,GT,37.3843475,-122.0763942,1.6430167598724366,12.035993,0.1,302.6337,1619023995999
Fix,GT,37.3844385,-122.076321,1.5830069916248322,11.831448,0.1,302.6472,1619023996999
Fix,GT,37.3845272,-122.0762494,1.5389888005256651,11.645317,0.1,302.61475,1619023997999
Fix,GT,37.3846141,-122.0761798,1.5130028032064438,11.290821,0.1,301.78528,1619023998999
Fix,GT,37.3846957,-122.0761165,1.4570070163607598,10.053265,0.1,301.36908,1619023999999
Fix,GT,37.3847663,-122.0760613,1.417002809882164,8.253946,0.1,301.87616,1619024000999
Fix,GT,37.3848218,-122.0760173,1.3889985934495923,6.4235735,0.1,301.88705,1619024001999
Fix,GT,37.3848623,-122.0759854,1.3690070410966877,4.194991,0.1,301.6415,1619024002999
Fix,GT,37.3848902,-122.0759635,1.341,3.179882,0.1,301.49496,1619024003999
Fix,GT,37.3849139,-122.0759451,1.316004234492779,3.0972817,0.1,301.2566,1619024004999
Fix,GT,37.3849375,-122.075927,1.2990056529045104,3.0561137,0.1,300.97937,1619024005999
Fix,GT,37.3849607,-122.0759097,1.2839985851049422,2.7882538,0.1,300.65585,1619024006999
Fix,GT,37.3849758,-122.0758985,1.2959985834360122,1.0430042,0.1,300.37265,1619024007999
Fix,GT,37.3849796,-122.0758961,1.284,0.20421644,0.1,300.34326,1619024008999
Fix,GT,37.3849829,-122.0758939,1.2750014198422432,0.76221985,0.1,300.32797,1619024009999
Fix,GT,37.3849929,-122.075887,1.2650028429031372,1.9212359,0.1,298.90927,1619024010999
Fix,GT,37.3850109,-122.0758767,1.232004269361496,3.5244505,0.1,288.6999,1619024011999
Fix,GT,37.385042,-122.0758699,1.2160170974731446,5.1868687,0.1,270.1522,1619024012999
Fix,GT,37.3850848,-122.0758811,1.1510156903862954,6.939396,0.1,243.63133,1619024013999
Fix,GT,37.3851286,-122.0759272,1.03501713681221,8.243107,0.1,218.44995,1619024014999
Fix,GT,37.3851725,-122.076008,0.9840085784196854,9.445341,0.1,212.62187,1619024015999
Fix,GT,37.3852168,-122.0760991,0.9409985686540604,9.494206,0.1,211.33328,1619024016999
Fix,GT,37.3852599,-122.0761909,0.8760143301486969,9.479761,0.1,210.67859,1619024017999
Fix,GT,37.385303,-122.0762845,0.7900157808661461,9.698368,0.1,210.25853,1619024018999
Fix,GT,37.3853476,-122.0763807,0.7210043088793754,9.300327,0.1,210.14737,1619024019999
Fix,GT,37.3853859,-122.076464,0.6950043137073516,7.030667,0.1,210.54167,1619024020999
Fix,GT,37.3854132,-122.0765233,0.6440143957138061,5.1088934,0.1,210.89575,1619024021999
Fix,GT,37.3854375,-122.0765747,0.6400490041971207,5.0254226,0.1,211.79234,1619024022999
Fix,GT,37.3854644,-122.0766284,0.5679956710934639,5.9832563,0.1,213.06099,1619024023999
Fix,GT,37.3854962,-122.076689,0.5250101120471954,6.6721463,0.1,213.51895,1619024024999
Fix,GT,37.3855267,-122.0767499,0.4980014461874961,6.534717,0.1,208.65614,1619024025999
Fix,GT,37.3855435,-122.0768061,0.4939913128614426,6.0881968,0.1,190.78363,1619024026999
Fix,GT,37.3855417,-122.0768584,0.4250130451917648,5.933229,0.1,166.31036,1619024027999
Fix,GT,37.3855221,-122.0769048,0.4699825863838195,6.387667,0.1,137.79468,1619024028999
Fix,GT,37.3854797,-122.0769406,0.4949941887855529,7.1652536,0.1,118.20453,1619024029999
Fix,GT,37.3854186,-122.0769805,0.5399956367611886,7.8931212,0.1,120.43417,1619024030999
Fix,GT,37.3853533,-122.0770298,0.5999941759109496,8.788978,0.1,122.743744,1619024031999
Fix,GT,37.3852831,-122.0770853,0.679988338470459,9.660513,0.1,122.683105,1619024032999
Fix,GT,37.3852066,-122.0771447,0.7609897844791413,10.298131,0.1,122.27112,1619024033999
Fix,GT,37.3851256,-122.0772076,0.8309897732138632,10.88544,0.1,122.0694,1619024034999
Fix,GT,37.3850403,-122.0772736,0.9059912241697312,11.422797,0.1,121.80658,1619024035999
Fix,GT,37.3849507,-122.0773415,0.9789882855415344,11.9137535,0.1,121.0867,1619024036999
Fix,GT,37.384857,-122.0774108,1.0719868067502976,12.318607,0.1,120.0473,1619024037999
Fix,GT,37.3847604,-122.0774794,1.1559809213876722,12.421344,0.1,119.21051,1619024038999
Fix,GT,37.3846624,-122.077547,1.2349955924153329,12.519801,0.1,118.60394,1619024039999
Fix,GT,37.3845617,-122.0776148,1.333974995315075,12.914874,0.1,118.164764,1619024040999
Fix,GT,37.3844581,-122.0776839,1.406998527467251,13.156476,0.1,118.1535,1619024041999
Fix,GT,37.3843522,-122.0777548,1.4979793620109558,13.457551,0.1,118.248535,1619024042999
Fix,GT,37.3842445,-122.0778275,1.5889867177009582,13.697869,0.1,118.378265,1619024043999
Fix,GT,37.3841349,-122.0779021,1.6829867032170296,13.949757,0.1,118.61957,1619024044999
Fix,GT,37.3840235,-122.0779789,1.748988166809082,14.132331,0.1,118.95276,1619024045999
Fix,GT,37.383913,-122.0780555,1.8529807509183884,13.878861,0.1,118.63031,1619024046999
Fix,GT,37.3838046,-122.0781305,1.927985175728798,13.4916725,0.1,119.305176,1619024047999
Fix,GT,37.3837006,-122.0782069,2.039982192277908,13.032777,0.1,120.80972,1619024048999
Fix,GT,37.383603,-122.0782825,2.111001485705376,12.253532,0.1,121.90097,1619024049999
Fix,GT,37.3835135,-122.0783542,2.1779821529388426,11.103247,0.1,122.559265,1619024050999
Fix,GT,37.383437,-122.0784173,2.2639970220327377,9.105256,0.1,122.891235,1619024051999
Fix,GT,37.3833774,-122.078467,2.342985094666481,6.6662006,0.1,122.867645,1619024052999
Fix,GT,37.3833366,-122.0785027,2.387998507738113,4.37083,0.1,125.28381,1619024053999
Fix,GT,37.3833099,-122.0785301,2.39497161757946,3.1387799,0.1,130.97705,1619024054999
Fix,GT,37.3832871,-122.07856,2.442989531219005,3.5539837,0.1,141.99173,1619024055999
Fix,GT,37.3832628,-122.0786158,2.5749715541601184,5.78802,0.1,161.65442,1619024056999
Fix,GT,37.3832568,-122.0787041,2.657986510634422,7.5431976,0.1,187.77255,1619024057999
Fix,GT,37.3832831,-122.0788057,2.7289984995126724,9.717102,0.1,205.46617,1619024058999
Fix,GT,37.3833329,-122.0789141,2.693,11.833881,0.1,211.99844,1619024059999
Fix,GT,37.3833935,-122.0790358,2.63100902223587,13.711809,0.1,211.58698,1619024060999
Fix,GT,37.3834625,-122.0791769,2.560012042999268,15.682395,0.1,210.89543,1619024061999
Fix,GT,37.3835393,-122.079338,2.46501205587387,17.517033,0.1,210.6734,1619024062999
Fix,GT,37.3836238,-122.0795143,2.390009051918984,18.896875,0.1,210.95325,1619024063999
Fix,GT,37.3837153,-122.0797039,2.269018123149872,20.287148,0.1,211.16148,1619024064999
Fix,GT,37.383814,-122.0799058,2.193022677183152,21.58396,0.1,211.58492,1619024065999
Fix,GT,37.3839183,-122.0801151,2.089,21.930784,0.1,212.041,1619024066999
Fix,GT,37.3840239,-122.0803243,2.007015150904656,21.790178,0.1,212.3506,1619024067999
Fix,GT,37.3841294,-122.0805304,1.9019984831809995,21.563255,0.1,212.62267,1619024068999
Fix,GT,37.3842326,-122.080734,1.7930106289982797,21.186146,0.1,211.77766,1619024069999
Fix,GT,37.3843306,-122.0809315,1.6550288795828818,19.857227,0.1,211.75322,1619024070999
Fix,GT,37.3844216,-122.0811149,1.5910121736526488,18.359959,0.1,211.83351,1619024071999
Fix,GT,37.3845065,-122.0812839,1.5409969532489776,17.073069,0.1,212.29417,1619024072999
Fix,GT,37.3845858,-122.0814415,1.481989325106144,16.053791,0.1,211.54883,1619024073999
Fix,GT,37.3846577,-122.0815892,1.3880213731527329,14.60475,0.1,211.12192,1619024074999
Fix,GT,37.3847227,-122.0817232,1.2900122261047362,13.145808,0.1,210.96075,1619024075999
Fix,GT,37.3847794,-122.0818406,1.282009179592133,11.074776,0.1,211.13116,1619024076999
Fix,GT,37.384827,-122.0819378,1.26600612616539,9.088704,0.1,211.45697,1619024077999
Fix,GT,37.3848658,-122.0820168,1.257,7.3734093,0.1,211.52924,1619024078999
Fix,GT,37.3848972,-122.0820802,1.262996930360794,5.833756,0.1,211.6298,1619024079999
Fix,GT,37.3849202,-122.0821268,1.2490015364885332,4.0215282,0.1,211.57169,1619024080999
Fix,GT,37.3849371,-122.0821611,1.2440030761957168,3.224027,0.1,211.38336,1619024081999
Fix,GT,37.3849508,-122.0821891,1.2359984602332117,2.5603402,0.1,211.22218,1619024082999
Fix,GT,37.3849602,-122.0822084,1.239,1.4428672,0.1,211.1312,1619024083999
Fix,GT,37.3849646,-122.0822175,1.244998456954956,0.41453126,0.1,211.08951,1619024084999
Fix,GT,37.384965,-122.0822184,1.241,0.019217435,0.1,211.08322,1619024085999
Fix,GT,37.3849651,-122.0822185,1.242,0.008051337,0.1,211.08365,1619024086999
Fix,GT,37.3849651,-122.0822185,1.242,0.0020003656,0.1,211.08055,1619024087999
Fix,GT,37.3849651,-122.0822185,1.242,0.0029984505,0.1,211.0796,1619024088999
Fix,GT,37.3849651,-122.0822185,1.242,1.5512705e-06,0.1,211.07875,1619024089999
Fix,GT,37.3849651,-122.0822185,1.242,0.0010006432,0.1,211.07812,1619024090999
Fix,GT,37.3849651,-122.0822185,1.243,0.001000644,0.1,211.07672,1619024091999
Fix,GT,37.3849657,-122.0822197,1.24,0.38003808,0.1,211.06488,1619024092999
Fix,GT,37.3849689,-122.0822261,1.243,0.98136616,0.1,211.03328,1619024093999
Fix,GT,37.3849747,-122.0822381,1.2470015594363213,1.5298319,0.1,210.97856,1619024094999
Fix,GT,37.3849845,-122.0822583,1.245,2.7959008,0.1,210.91042,1619024095999
Fix,GT,37.3850011,-122.0822928,1.2389984372854232,4.3882537,0.1,210.85878,1619024096999
Fix,GT,37.3850254,-122.0823435,1.226,6.0941505,0.1,210.873,1619024097999
Fix,GT,37.385057,-122.0824086,1.2090093959569932,7.309767,0.1,211.1549,1619024098999
Fix,GT,37.385094,-122.0824835,1.1959952970147132,8.128797,0.1,212.05635,1619024099999
Fix,GT,37.3851344,-122.0825634,1.1759984307289122,8.501062,0.1,212.26242,1619024100999
Fix,GT,37.3851752,-122.0826437,1.1390078547000884,8.492355,0.1,212.0243,1619024101999
Fix,GT,37.385218,-122.0827287,1.1300078627467154,9.413777,0.1,212.1244,1619024102999
Fix,GT,37.3852656,-122.0828237,1.0970094449520111,10.480804,0.1,211.82698,1619024103999
Fix,GT,37.3853174,-122.0829281,1.0710047274827956,11.325318,0.1,211.40993,1619024104999
Fix,GT,37.3853725,-122.0830408,1.036993690252304,12.064445,0.1,211.31328,1619024105999
Fix,GT,37.3854306,-122.0831592,1.015007895231247,12.476357,0.1,211.50446,1619024106999
Fix,GT,37.3854906,-122.0832803,0.9570063228607176,12.783342,0.1,211.76393,1619024107999
Fix,GT,37.3855523,-122.0834041,0.9030063292980196,12.974707,0.1,211.93454,1619024108999
Fix,GT,37.385615,-122.0835293,0.8470047519803047,13.303992,0.1,211.67665,1619024109999
Fix,GT,37.3856792,-122.083659,0.823,13.678422,0.1,211.55217,1619024110999
Fix,GT,37.3857443,-122.0837905,0.815,13.58277,0.1,211.72958,1619024111999
Fix,GT,37.3858086,-122.0839203,0.8349936444759368,13.534831,0.1,211.64189,1619024112999
Fix,GT,37.3858729,-122.0840503,0.8400015905499458,13.673827,0.1,211.37253,1619024113999
Fix,GT,37.3859378,-122.0841829,0.8149904470443725,13.932908,0.1,211.1383,1619024114999
Fix,GT,37.3860038,-122.0843184,0.8349888432025909,14.173024,0.1,211.30956,1619024115999
Fix,GT,37.3860707,-122.0844541,0.8720127635002137,14.008337,0.1,211.63797,1619024116999
Fix,GT,37.3861368,-122.0845874,0.8619968057870865,13.746522,0.1,211.67146,1619024117999
Fix,GT,37.3861998,-122.0847152,0.8759936051368713,12.502604,0.1,211.28238,1619024118999
Fix,GT,37.3862548,-122.0848282,0.903,10.910129,0.1,211.2727,1619024119999
Fix,GT,37.3863033,-122.084927,0.8830144179463386,9.882098,0.1,211.61177,1619024120999
Fix,GT,37.3863497,-122.0850204,0.8999967927932739,9.502345,0.1,211.72858,1619024121999
Fix,GT,37.3863934,-122.085108,0.8929967894554138,8.622084,0.1,211.70613,1619024122999
Fix,GT,37.3864325,-122.0851866,0.9019983931183816,7.8215065,0.1,211.77162,1619024123999
Fix,GT,37.3864688,-122.0852597,0.904,7.541881,0.1,211.59807,1619024124999
Fix,GT,37.3865044,-122.085332,0.8970032203197479,7.6943264,0.1,211.30904,1619024125999
Fix,GT,37.386543,-122.0854114,0.898,8.721421,0.1,211.17018,1619024126999
Fix,GT,37.3865847,-122.0854967,0.9139967731237412,8.822105,0.1,211.47227,1619024127999
Fix,GT,37.386626,-122.0855808,0.9220016150474548,8.671407,0.1,211.47691,1619024128999
Fix,GT,37.3866674,-122.0856648,0.9000096999406815,8.9898815,0.1,211.63919,1619024129999
Fix,GT,37.3867129,-122.0857567,0.8989983816742897,10.174008,0.1,211.56926,1619024130999
Fix,GT,37.3867632,-122.0858584,0.879,10.773443,0.1,211.78151,1619024131999
Fix,GT,37.3868149,-122.0859612,0.8620048646330832,10.670532,0.1,212.26218,1619024132999
Fix,GT,37.3868661,-122.0860617,0.8409967535734176,10.484289,0.1,212.11865,1619024133999
Fix,GT,37.3869149,-122.0861588,0.856,9.806433,0.1,211.92253,1619024134999
Fix,GT,37.3869601,-122.0862489,0.8370065054893494,9.12774,0.1,211.85226,1619024135999
Fix,GT,37.387003,-122.0863349,0.81,8.84969,0.1,211.91693,1619024136999
Fix,GT,37.3870446,-122.0864178,0.788,8.532384,0.1,211.92989,1619024137999
Fix,GT,37.3870847,-122.0864983,0.788996737241745,8.2933445,0.1,211.64323,1619024138999
Fix,GT,37.3871233,-122.0865766,0.7860016329884529,8.061341,0.1,211.37373,1619024139999
Fix,GT,37.3871607,-122.0866532,0.7870016345381736,7.8273387,0.1,211.29042,1619024140999
Fix,GT,37.387196,-122.0867254,0.7790049088001252,7.010454,0.1,211.53726,1619024141999
Fix,GT,37.3872265,-122.0867871,0.7580049134492874,5.812704,0.1,211.54875,1619024142999
Fix,GT,37.3872514,-122.086837,0.7370032790899277,4.8497434,0.1,211.56937,1619024143999
Fix,GT,37.3872743,-122.0868827,0.7190032821893692,4.702276,0.1,211.40521,1619024144999
Fix,GT,37.3872958,-122.0869269,0.702,4.54187,0.1,210.95796,1619024145999
Fix,GT,37.3873163,-122.0869697,0.69900164437294,4.0919414,0.1,210.96776,1619024146999
Fix,GT,37.3873332,-122.0870049,0.6920016461014747,3.3338408,0.1,211.08168,1619024147999
Fix,GT,37.387348,-122.0870353,0.685,2.9408395,0.1,211.29863,1619024148999
Fix,GT,37.3873603,-122.0870604,0.678,2.2328055,0.1,211.40105,1619024149999
Fix,GT,37.3873677,-122.0870756,0.676,0.8188335,0.1,211.43922,1619024150999
Fix,GT,37.387369,-122.0870781,0.6700033050775528,0.016199933,0.1,211.44345,1619024151999
Fix,GT,37.387369,-122.0870781,0.67,0.0022356776,0.1,211.4469,1619024152999
Fix,GT,37.387369,-122.0870781,0.67,0.0029983441,0.1,211.44463,1619024153999
Fix,GT,37.387369,-122.0870781,0.67,0.0014135271,0.1,211.44447,1619024154999
Fix,GT,37.387369,-122.0870781,0.67,0.0014151854,0.1,211.44391,1619024155999
Fix,GT,37.387369,-122.0870781,0.67,0.001,0.1,211.44324,1619024156999
Fix,GT,37.387369,-122.0870781,0.67,0.001,0.1,211.44266,1619024157999
Fix,GT,37.387369,-122.0870781,0.67,0.000998336,0.1,211.44196,1619024158999
Fix,GT,37.387369,-122.0870781,0.67,0.001,0.1,211.44125,1619024159999
Fix,GT,37.387369,-122.0870781,0.67,0.0009983329,0.1,211.44077,1619024160999
Fix,GT,37.387369,-122.0870781,0.669,0.0,0.1,211.44022,1619024161999
Fix,GT,37.387369,-122.0870781,0.669,0.001,0.1,211.43953,1619024162999
Fix,GT,37.387369,-122.0870781,0.669,0.0010006927,0.1,211.43866,1619024163999
Fix,GT,37.387369,-122.0870781,0.669,0.001,0.1,211.43788,1619024164999
Fix,GT,37.387369,-122.0870781,0.669,0.001,0.1,211.43698,1619024165999
Fix,GT,37.387369,-122.0870781,0.669,0.001,0.1,211.43608,1619024166999
Fix,GT,37.387369,-122.0870781,0.669,0.0022346885,0.1,211.43506,1619024167999
Fix,GT,37.387369,-122.0870781,0.669,0.0028284271,0.1,211.43425,1619024168999
Fix,GT,37.387369,-122.0870781,0.669,0.002234686,0.1,211.43332,1619024169999
Fix,GT,37.387369,-122.0870781,0.669,0.002,0.1,211.43248,1619024170999
Fix,GT,37.387369,-122.0870781,0.669,1.6851426e-06,0.1,211.43156,1619024171999
Fix,GT,37.387369,-122.0870781,0.669,0.001413515,0.1,211.43059,1619024172999
Fix,GT,37.387369,-122.0870781,0.669,0.0020003987,0.1,211.42934,1619024173999
Fix,GT,37.387369,-122.0870781,0.669,0.0022370692,0.1,211.42805,1619024174999
Fix,GT,37.387369,-122.0870781,0.669,0.0028284271,0.1,211.42705,1619024175999
Fix,GT,37.387369,-122.0870781,0.669,0.002236068,0.1,211.42616,1619024176999
Fix,GT,37.387369,-122.0870781,0.669,0.0014156065,0.1,211.42471,1619024177999
Fix,GT,37.387369,-122.0870781,0.669,0.0019990061,0.1,211.42369,1619024178999
Fix,GT,37.387369,-122.0870781,0.669,1.6981364e-06,0.1,211.42259,1619024179999
Fix,GT,37.387369,-122.0870781,0.669,0.001,0.1,211.42111,1619024180999
Fix,GT,37.387369,-122.0870781,0.669,0.0009982986,0.1,211.4197,1619024181999
Fix,GT,37.387369,-122.0870781,0.669,0.0010007054,0.1,211.41821,1619024182999
Fix,GT,37.387369,-122.0870781,0.669,0.0014135074,0.1,211.41672,1619024183999
Fix,GT,37.387369,-122.0870781,0.668,0.001,0.1,211.41531,1619024184999
Fix,GT,37.387369,-122.0870781,0.6689982920289039,0.001,0.1,211.41386,1619024185999
Fix,GT,37.387369,-122.0870781,0.669,0.001,0.1,211.41223,1619024186999
Fix,GT,37.387369,-122.0870781,0.669,0.002233953,0.1,211.41034,1619024187999
Fix,GT,37.387369,-122.0870781,0.6690017127990723,0.034935772,0.1,211.41106,1619024188999
Fix,GT,37.3873708,-122.0870818,0.668,0.73788464,0.1,211.42812,1619024189999
Fix,GT,37.3873758,-122.087092,0.671,1.351496,0.1,211.50812,1619024190999
Fix,GT,37.3873841,-122.0871087,0.676,2.1296344,0.1,211.61974,1619024191999
Fix,GT,37.3873964,-122.0871334,0.6710034387111664,3.1496263,0.1,211.76613,1619024192999
Fix,GT,37.387415,-122.0871706,0.6660017209649086,4.5731235,0.1,211.7561,1619024193999
Fix,GT,37.3874402,-122.0872211,0.667001722574234,5.966619,0.1,211.58032,1619024194999
Fix,GT,37.3874711,-122.0872836,0.6589982758164407,6.90687,0.1,211.41164,1619024195999
Fix,GT,37.3875038,-122.0873499,0.6550017258524895,6.840762,0.1,211.3881,1619024196999
Fix,GT,37.3875353,-122.087414,0.6400034549236298,6.425101,0.1,211.1503,1619024197999
Fix,GT,37.3875649,-122.0874744,0.6130051873922348,6.1362042,0.1,211.63396,1619024198999
Fix,GT,37.3875938,-122.0875326,0.5990034614801406,6.072329,0.1,211.88492,1619024199999
Fix,GT,37.3876263,-122.0875972,0.5709965353012084,7.6838946,0.1,211.66093,1619024200999
Fix,GT,37.3876656,-122.0876763,0.5500104033946991,8.775762,0.1,211.36806,1619024201999
Fix,GT,37.3877095,-122.0877657,0.515,9.807663,0.1,211.4262,1619024202999
Fix,GT,37.387758,-122.0878639,0.4970017371773719,10.474315,0.1,211.73695,1619024203999
Fix,GT,37.3878082,-122.0879639,0.4850069551467895,10.421915,0.1,212.1084,1619024204999
Fix,GT,37.387859,-122.0880639,0.4140174045562744,10.672105,0.1,212.17188,1619024205999
Fix,GT,37.3879111,-122.0881671,0.3720139365196228,10.863389,0.1,211.99992,1619024206999
Fix,GT,37.3879631,-122.0882706,0.3359982563257218,10.936071,0.1,211.71626,1619024207999
Fix,GT,37.3880157,-122.0883769,0.3289982546567917,11.165314,0.1,211.35599,1619024208999
Fix,GT,37.3880682,-122.0884846,0.3299947591423988,11.267283,0.1,211.08675,1619024209999
Fix,GT,37.3881213,-122.0885944,0.317013988494873,11.50451,0.1,210.85559,1619024210999
Fix,GT,37.3881763,-122.0887076,0.2709912488460541,11.983881,0.1,211.03574,1619024211999
Fix,GT,37.3882342,-122.0888255,0.2770035036802292,12.469063,0.1,211.40147,1619024212999
Fix,GT,37.3882953,-122.0889484,0.2720087672472,13.112838,0.1,211.74834,1619024213999
Fix,GT,37.38836,-122.0890774,0.2380175511837005,13.8430805,0.1,211.88422,1619024214999
Fix,GT,37.3884281,-122.0892131,0.2130017567276954,14.563657,0.1,211.75229,1619024215999
Fix,GT,37.3884984,-122.0893556,0.2089964833259582,15.230775,0.1,210.95345,1619024216999
Fix,GT,37.3885713,-122.0895048,0.2089911999702453,15.738572,0.1,211.34392,1619024217999
Fix,GT,37.3886472,-122.0896591,0.214005284845829,16.42926,0.1,211.19754,1619024218999
Fix,GT,37.388726,-122.0898196,0.202992947101593,16.923447,0.1,211.55026,1619024219999
Fix,GT,37.3888079,-122.0899841,0.1870088238716125,17.418829,0.1,211.7164,1619024220999
Fix,GT,37.3888928,-122.0901537,0.1529947004914283,18.057898,0.1,211.85977,1619024221999
Fix,GT,37.3889805,-122.0903281,0.1240070722103118,18.297157,0.1,211.91035,1619024222999
Fix,GT,37.389068,-122.0905018,0.1530123884677887,18.056616,0.1,211.94388,1619024223999
Fix,GT,37.3891541,-122.0906732,0.1619876006841659,17.811663,0.1,211.71428,1619024224999
Fix,GT,37.3892382,-122.0908421,0.138,17.494017,0.1,211.50784,1619024225999
Fix,GT,37.3893199,-122.0910076,0.1300017745494842,17.014278,0.1,211.18199,1619024226999
Fix,GT,37.3893993,-122.0911699,0.0969964475631713,16.716196,0.1,211.03532,1619024227999
Fix,GT,37.3894772,-122.0913297,0.11,16.48656,0.1,211.14574,1619024228999
Fix,GT,37.3895547,-122.0914873,0.0870160154700279,16.324451,0.1,211.51006,1619024229999
Fix,GT,37.3896322,-122.0916437,0.051010686635971,16.236107,0.1,211.4432,1619024230999
Fix,GT,37.3897089,-122.0917985,-0.0039893037080764,15.995049,0.1,211.50189,1619024231999
Fix,GT,37.3897848,-122.0919514,-0.0819696654677391,15.853735,0.1,211.62288,1619024232999
Fix,GT,37.3898597,-122.0921022,-0.1149982140064239,15.575878,0.1,211.44202,1619024233999
Fix,GT,37.3899328,-122.0922505,-0.2209839115738869,15.395871,0.1,211.30072,1619024234999
Fix,GT,37.3900062,-122.0923998,-0.2969856858253479,15.774165,0.1,211.15555,1619024235999
Fix,GT,37.3900824,-122.0925553,-0.3499928364753723,16.548248,0.1,211.26198,1619024236999
Fix,GT,37.3901626,-122.092718,-0.4509874525666236,17.2417,0.1,211.67868,1619024237999
Fix,GT,37.3902465,-122.0928852,-0.5190053824782371,17.72753,0.1,211.92326,1619024238999
Fix,GT,37.3903317,-122.0930546,-0.5580197534561158,17.75589,0.1,211.76813,1619024239999
Fix,GT,37.3904162,-122.0932227,-0.7499442794322968,17.400816,0.1,212.05159,1619024240999
Fix,GT,37.390501,-122.0933879,-0.8879676171541214,17.198832,0.1,213.076,1619024241999
Fix,GT,37.3905879,-122.0935483,-1.0030216078758238,16.92642,0.1,214.89758,1619024242999
Fix,GT,37.3906778,-122.0937018,-1.1129765697717666,16.683872,0.1,216.62862,1619024243999
Fix,GT,37.3907699,-122.0938509,-1.2539945881962775,16.5463,0.1,218.51907,1619024244999
Fix,GT,37.3908655,-122.0939945,-1.3319656935334203,16.369875,0.1,220.36017,1619024245999
Fix,GT,37.390964,-122.0941345,-1.4419837350845337,16.541538,0.1,221.64503,1619024246999
Fix,GT,37.3910654,-122.0942733,-1.558969250023365,16.709284,0.1,222.64601,1619024247999
Fix,GT,37.39117,-122.0944115,-1.657983706653118,16.930923,0.1,223.63669,1619024248999
Fix,GT,37.3912781,-122.0945485,-1.7839909400939942,17.015987,0.1,225.31361,1619024249999
Fix,GT,37.3913894,-122.0946808,-1.897987304031849,16.891838,0.1,227.2954,1619024250999
Fix,GT,37.3915036,-122.094807,-2.001987293183803,16.764708,0.1,229.20413,1619024251999
Fix,GT,37.3916195,-122.0949267,-2.133998183131218,16.457998,0.1,231.00903,1619024252999
Fix,GT,37.3917357,-122.0950406,-2.2519545380473134,16.181452,0.1,231.91972,1619024253999
Fix,GT,37.3918506,-122.0951515,-2.3339872593879702,15.953948,0.1,232.01315,1619024254999
Fix,GT,37.3919648,-122.095261,-2.4539836041927336,16.058933,0.1,232.10846,1619024255999
Fix,GT,37.3920807,-122.095372,-2.5669744728803634,16.3504,0.1,232.24942,1619024256999
Fix,GT,37.3921989,-122.095485,-2.7109835752248763,16.57322,0.1,232.1203,1619024257999
Fix,GT,37.3923173,-122.095598,-2.8099945202469825,16.445219,0.1,232.2774,1619024258999
Fix,GT,37.3924342,-122.0957103,-2.918009141266346,16.435371,0.1,231.91275,1619024259999
Fix,GT,37.3925512,-122.0958237,-2.996974381923676,16.458004,0.1,231.64996,1619024260999
Fix,GT,37.3926681,-122.0959386,-3.134983517289162,16.544971,0.1,231.19131,1619024261999
Fix,GT,37.3927836,-122.0960554,-3.289968836605549,16.484846,0.1,229.97115,1619024262999
Fix,GT,37.3928959,-122.0961746,-3.440979818403721,16.312754,0.1,228.61595,1619024263999
Fix,GT,37.3930053,-122.0962949,-3.553977964401245,16.091131,0.1,227.78516,1619024264999
Fix,GT,37.3931101,-122.0964162,-3.659968755543232,15.725086,0.1,225.9673,1619024265999
Fix,GT,37.3932095,-122.0965385,-3.7839816042184826,15.36349,0.1,224.23297,1619024266999
Fix,GT,37.3933048,-122.096662,-3.920966858625412,15.249338,0.1,222.93939,1619024267999
Fix,GT,37.3933981,-122.0967883,-4.040972357153893,15.316855,0.1,221.8542,1619024268999
Fix,GT,37.3934898,-122.0969174,-4.164977866411209,15.478845,0.1,220.37738,1619024269999
Fix,GT,37.3935799,-122.0970523,-4.246979693174362,15.8494425,0.1,218.40535,1619024270999
Fix,GT,37.3936685,-122.097195,-4.262983370304108,16.231108,0.1,216.40843,1619024271999
Fix,GT,37.3937551,-122.0973443,-4.272990753233432,16.464094,0.1,214.90059,1619024272999
Fix,GT,37.3938392,-122.0974957,-4.298990744888783,16.100506,0.1,214.04494,1619024273999
Fix,GT,37.393916,-122.0976371,-4.314981473684312,14.124743,0.1,213.24384,1619024274999
Fix,GT,37.3939832,-122.0977672,-4.321001854240895,13.606974,0.1,211.7207,1619024275999
Fix,GT,37.3940468,-122.0978964,-4.360987009048461,13.45309,0.1,210.43208,1619024276999
Fix,GT,37.3941069,-122.098027,-4.4239795672893525,13.415381,0.1,208.73282,1619024277999
Fix,GT,37.3941654,-122.0981608,-4.477979549586773,13.671881,0.1,207.96571,1619024278999
Fix,GT,37.3942239,-122.0982979,-4.586986974418163,13.940339,0.1,207.35617,1619024279999
Fix,GT,37.3942824,-122.0984383,-4.648986963152885,14.16348,0.1,207.16443,1619024280999
Fix,GT,37.3943437,-122.0985823,-4.712994407951832,14.654769,0.1,208.2726,1619024281999
Fix,GT,37.3944091,-122.0987305,-4.742994402945041,15.404236,0.1,208.42822,1619024282999
Fix,GT,37.3944764,-122.0988841,-4.775996265411377,15.471466,0.1,208.40753,1619024283999
Fix,GT,37.3945434,-122.0990358,-4.805985048294067,15.174196,0.1,208.7038,1619024284999
Fix,GT,37.3946088,-122.0991842,-4.835985035419465,14.8641405,0.1,208.1309,1619024285999
Fix,GT,37.3946717,-122.0993305,-4.870009360909462,14.603397,0.1,207.72427,1619024286999
Fix,GT,37.3947339,-122.0994754,-4.856031855463981,14.643891,0.1,208.10674,1619024287999
Fix,GT,37.3947969,-122.0996201,-4.868988747239113,14.426228,0.1,208.1666,1619024288999
Fix,GT,37.3948584,-122.0997605,-4.902009385645389,13.880541,0.1,208.36925,1619024289999
Fix,GT,37.3949173,-122.0998955,-4.8849868488311765,13.459421,0.1,208.05025,1619024290999
Fix,GT,37.3949748,-122.1000276,-4.898968033075333,13.12819,0.1,208.33336,1619024291999
Fix,GT,37.3950327,-122.1001593,-4.904983061850071,13.52612,0.1,208.07104,1619024292999
Fix,GT,37.3950921,-122.1002973,-4.906,14.1638975,0.1,207.69952,1619024293999
Fix,GT,37.3951532,-122.1004402,-4.897009426474572,14.544886,0.1,207.75845,1619024294999
Fix,GT,37.3952164,-122.1005864,-4.906,14.822074,0.1,208.09479,1619024295999
Fix,GT,37.39528,-122.1007326,-4.873011330723762,14.605697,0.1,208.30258,1619024296999
Fix,GT,37.3953429,-122.1008754,-4.8520056701898575,14.296211,0.1,208.37727,1619024297999
Fix,GT,37.3954049,-122.1010162,-4.841001891672612,14.376196,0.1,208.25377,1619024298999
Fix,GT,37.3954692,-122.1011623,-4.804009466409684,15.175258,0.1,208.43568,1619024299999
Fix,GT,37.3955373,-122.1013156,-4.7850151596069335,15.840667,0.1,208.8766,1619024300999
Fix,GT,37.3956087,-122.101473,-4.75,16.158094,0.1,209.50328,1619024301999
Fix,GT,37.3956814,-122.1016299,-4.758984814643861,15.876097,0.1,209.51303,1619024302999
Fix,GT,37.3957514,-122.1017806,-4.7609924008846285,14.6782875,0.1,210.01154,1619024303999
Fix,GT,37.3958146,-122.1019152,-4.773,13.156484,0.1,210.31418,1619024304999
Fix,GT,37.3958731,-122.1020379,-4.816,12.409373,0.1,209.71419,1619024305999
Fix,GT,37.3959304,-122.1021599,-4.878990476667881,12.812202,0.1,209.45818,1619024306999
Fix,GT,37.3959885,-122.1022899,-4.912007624864578,13.702115,0.1,208.05014,1619024307999
Fix,GT,37.3960487,-122.1024302,-4.905017170429231,14.589363,0.1,207.54803,1619024308999
Fix,GT,37.3961125,-122.10258,-4.946998090565205,15.485058,0.1,207.68144,1619024309999
Fix,GT,37.3961807,-122.1027379,-5.001973244547844,16.25953,0.1,207.99034,1619024310999
Fix,GT,37.396252,-122.1029035,-5.0119980872869485,17.04498,0.1,207.64743,1619024311999
Fix,GT,37.3963236,-122.1030761,-5.0769827710986135,17.559317,0.1,205.84296,1619024312999
Fix,GT,37.3963927,-122.1032569,-5.094005747973919,18.068789,0.1,204.76279,1619024313999
Fix,GT,37.3964622,-122.1034434,-5.14998657721281,18.300459,0.1,204.4584,1619024314999
Fix,GT,37.3965313,-122.1036299,-5.221990403950215,18.034649,0.1,204.84846,1619024315999
Fix,GT,37.3966009,-122.1038106,-5.281990395903588,17.446505,0.1,205.8169,1619024316999
Fix,GT,37.39667,-122.1039856,-5.387986542999744,17.136213,0.1,205.56169,1619024317999
Fix,GT,37.3967339,-122.1041555,-5.437001924097538,16.100708,0.1,204.21019,1619024318999
Fix,GT,37.3967918,-122.104313,-5.471990371465683,14.428301,0.1,204.8588,1619024319999
Fix,GT,37.3968465,-122.1044524,-5.507992290973663,12.99122,0.1,206.87112,1619024320999
Fix,GT,37.3968987,-122.1045767,-5.546996142029761,11.796976,0.1,207.6222,1619024321999
Fix,GT,37.3969464,-122.104687,-5.574,10.131345,0.1,208.67711,1619024322999
Fix,GT,37.396985,-122.1047715,-5.63298840713501,7.0378265,0.1,208.94656,1619024323999
Fix,GT,37.3970054,-122.1048233,-5.675992264986038,4.7497473,0.1,196.22992,1619024324999
Fix,GT,37.3970069,-122.1048525,-5.727982581198216,3.8992827,0.1,164.54974,1619024325999
Fix,GT,37.3969992,-122.1048674,-5.777988377809524,3.4607863,0.1,124.503845,1619024326999
Fix,GT,37.3969871,-122.1048699,-5.887984490871429,3.525649,0.1,84.31918,1619024327999
Fix,GT,37.3969678,-122.1048578,-5.969001940250397,4.8213716,0.1,51.03827,1619024328999
Fix,GT,37.3969409,-122.1048152,-5.999003883719444,7.0328445,0.1,31.845062,1619024329999
Fix,GT,37.3969085,-122.1047379,-5.95900971764326,9.353615,0.1,23.24945,1619024330999
Fix,GT,37.3968784,-122.1046307,-5.8700175051689145,11.298035,0.1,16.68097,1619024331999
Fix,GT,37.3968456,-122.1044991,-5.77603309470415,13.005169,0.1,18.766907,1619024332999
Fix,GT,37.3968006,-122.1043517,-5.674009741485119,14.471524,0.1,23.638336,1619024333999
Fix,GT,37.3967404,-122.1041946,-5.558021448969841,16.006454,0.1,27.403442,1619024334999
Fix,GT,37.3966693,-122.1040279,-5.473019515156746,17.270086,0.1,28.418793,1619024335999
Fix,GT,37.3965918,-122.1038514,-5.363041015625001,18.442194,0.1,28.746918,1619024336999
Fix,GT,37.3965093,-122.1036636,-5.229078189373016,19.545706,0.1,28.759003,1619024337999
Fix,GT,37.3964224,-122.1034658,-5.109011738419532,20.452723,0.1,28.944,1619024338999
Fix,GT,37.3963298,-122.1032605,-5.002031328201293,21.069853,0.1,29.466797,1619024339999
Fix,GT,37.3962364,-122.103055,-4.9170097984075545,20.764954,0.1,29.547974,1619024340999
Fix,GT,37.3961445,-122.1028532,-4.810990193545819,20.303146,0.1,29.009766,1619024341999
Fix,GT,37.3960566,-122.1026566,-4.736970556497574,19.343252,0.1,29.27295,1619024342999
Fix,GT,37.3959746,-122.1024732,-4.67099410647154,17.94191,0.1,28.734985,1619024343999
Fix,GT,37.3958985,-122.1023018,-4.646023592710495,16.875324,0.1,28.818573,1619024344999
Fix,GT,37.395827,-122.102139,-4.618996064424515,16.135967,0.1,28.502472,1619024345999
Fix,GT,37.3957585,-122.101981,-4.594992122650146,15.74868,0.1,27.930573,1619024346999
