MessageType,Provider,LatitudeDegrees,LongitudeDegrees,AltitudeMeters,SpeedMps,AccuracyMeters,BearingDegrees,UnixTimeMillis
Fix,GT,37.395817,-122.102916,-4.488,0.0014129388,0.1,118.020386,1619735725999
Fix,GT,37.3958171,-122.102916,-4.488,0.0019981952,0.1,118.01929,1619735726999
Fix,GT,37.3958171,-122.102916,-4.488,0.0022322542,0.1,118.01761,1619735727999
Fix,GT,37.3958171,-122.102916,-4.488,0.001,0.1,118.01596,1619735728999
Fix,GT,37.3958171,-122.102916,-4.488,0.001,0.1,118.01483,1619735729999
Fix,GT,37.3958171,-122.102916,-4.488,0.0014129307,0.1,118.01367,1619735730999
Fix,GT,37.3958171,-122.102916,-4.488,0.001,0.1,118.012115,1619735731999
Fix,GT,37.3958171,-122.102916,-4.488,0.001,0.1,118.0108,1619735732999
Fix,GT,37.3958171,-122.102916,-4.488,0.001,0.1,118.00949,1619735733999
Fix,GT,37.3958171,-122.102916,-4.488,0.001,0.1,118.00821,1619735734999
Fix,GT,37.3958171,-122.102916,-4.488,0.0010012912,0.1,118.006714,1619735735999
Fix,GT,37.3958171,-122.102916,-4.488,0.001,0.1,118.00534,1619735736999
Fix,GT,37.3958171,-122.102916,-4.488,0.0010012945,0.1,118.003845,1619735737999
Fix,GT,37.3958171,-122.102916,-4.488,0.0014129175,0.1,118.0025,1619735738999
Fix,GT,37.3958171,-122.102916,-4.488,0.001,0.1,118.00125,1619735739999
Fix,GT,37.3958171,-122.102916,-4.488,0.001,0.1,118.00003,1619735740999
Fix,GT,37.3958171,-122.102916,-4.488,0.001,0.1,117.99893,1619735741999
Fix,GT,37.3958171,-122.102916,-4.488,0.001,0.1,117.997406,1619735742999
Fix,GT,37.3958171,-122.102916,-4.488,0.001,0.1,117.99603,1619735743999
Fix,GT,37.3958171,-122.102916,-4.488,0.001,0.1,117.99451,1619735744999
Fix,GT,37.3958171,-122.102916,-4.488,0.001,0.1,117.993286,1619735745999
Fix,GT,37.3958171,-122.102916,-4.488,4.469673e-06,0.1,117.99219,1619735746999
Fix,GT,37.3958171,-122.102916,-4.488,0.0014129028,0.1,117.99072,1619735747999
Fix,GT,37.3958171,-122.102916,-4.488,0.0009968316,0.1,117.98932,1619735748999
Fix,GT,37.3958171,-122.102916,-4.488,0.001,0.1,117.987854,1619735749999
Fix,GT,37.3958171,-122.102916,-4.488,0.001,0.1,117.98645,1619735750999
Fix,GT,37.3958171,-122.102916,-4.488,0.0,0.1,117.98526,1619735751999
Fix,GT,37.3958171,-122.102916,-4.488,3.1843188e-06,0.1,117.98407,1619735752999
Fix,GT,37.3958171,-122.102916,-4.488,0.0014097047,0.1,117.982666,1619735753999
Fix,GT,37.3958171,-122.102916,-4.488,3.1921866e-06,0.1,117.98123,1619735754999
Fix,GT,37.3958171,-122.102916,-4.488,0.0,0.1,117.98004,1619735755999
Fix,GT,37.3958171,-122.102916,-4.488,0.0009968,0.1,117.97882,1619735756999
Fix,GT,37.3958171,-122.102916,-4.488,0.001,0.1,117.97748,1619735757999
Fix,GT,37.3958171,-122.102916,-4.488,0.0022334314,0.1,117.976135,1619735758999
Fix,GT,37.3958171,-122.102916,-4.488,0.0,0.1,117.974915,1619735759999
Fix,GT,37.3958171,-122.102916,-4.488,0.0,0.1,117.97345,1619735760999
Fix,GT,37.3958171,-122.102916,-4.488,0.0,0.1,117.972046,1619735761999
Fix,GT,37.3958171,-122.102916,-4.488,0.0,0.1,117.970764,1619735762999
Fix,GT,37.3958171,-122.102916,-4.488,0.0,0.1,117.969666,1619735763999
Fix,GT,37.3958171,-122.102916,-4.488,3.2317043e-06,0.1,117.968445,1619735764999
Fix,GT,37.3958171,-122.102916,-4.488,0.0009967644,0.1,117.96738,1619735765999
Fix,GT,37.3958171,-122.102916,-4.488,3.2395722e-06,0.1,117.966125,1619735766999
Fix,GT,37.3958171,-122.102916,-4.488,0.001,0.1,117.96466,1619735767999
Fix,GT,37.3958171,-122.102916,-4.488,0.0,0.1,117.96307,1619735768999
Fix,GT,37.3958171,-122.102916,-4.488,0.0,0.1,117.96188,1619735769999
Fix,GT,37.3958171,-122.102916,-4.488,0.0009967446,0.1,117.96063,1619735770999
Fix,GT,37.3958171,-122.102916,-4.488,0.001,0.1,117.95947,1619735771999
Fix,GT,37.3958171,-122.102916,-4.488,0.0010013519,0.1,117.95801,1619735772999
Fix,GT,37.3958171,-122.102916,-4.488,0.001,0.1,117.95679,1619735773999
Fix,GT,37.3958171,-122.102916,-4.488,0.0010040435,0.1,117.95584,1619735774999
Fix,GT,37.3958171,-122.102916,-4.488,0.0009967248,0.1,117.95453,1619735775999
Fix,GT,37.3958171,-122.102916,-4.488,3.2791497e-06,0.1,117.953125,1619735776999
Fix,GT,37.3958171,-122.102916,-4.488,0.001,0.1,117.95184,1619735777999
Fix,GT,37.3958171,-122.102916,-4.488,0.0,0.1,117.95041,1619735778999
Fix,GT,37.3958171,-122.102916,-4.488,4.6541077e-06,0.1,117.94919,1619735779999
Fix,GT,37.3958171,-122.102916,-4.488,3.2948853e-06,0.1,117.947815,1619735780999
Fix,GT,37.3958171,-122.102916,-4.488,0.0019967014,0.1,117.94632,1619735781999
Fix,GT,37.3958171,-122.102916,-4.488,4.6708824e-06,0.1,117.94571,1619735782999
Fix,GT,37.3958171,-122.102916,-4.488,0.0010013698,0.1,117.94446,1619735783999
Fix,GT,37.3958171,-122.102916,-4.488,0.001,0.1,117.94327,1619735784999
Fix,GT,37.3958171,-122.102916,-4.488,0.001,0.1,117.94208,1619735785999
Fix,GT,37.3958171,-122.102916,-4.488,0.001,0.1,117.94092,1619735786999
Fix,GT,37.3958171,-122.102916,-4.488,0.001,0.1,117.939514,1619735787999
Fix,GT,37.3958171,-122.102916,-4.488,0.001,0.1,117.93823,1619735788999
Fix,GT,37.3958171,-122.102916,-4.488,0.001,0.1,117.93695,1619735789999
Fix,GT,37.3958171,-122.102916,-4.488,0.001,0.1,117.93573,1619735790999
Fix,GT,37.3958171,-122.102916,-4.488,0.001,0.1,117.93445,1619735791999
Fix,GT,37.3958171,-122.102916,-4.488,0.001,0.1,117.93317,1619735792999
Fix,GT,37.3958171,-122.102916,-4.488,0.001,0.1,117.93201,1619735793999
Fix,GT,37.3958171,-122.102916,-4.488,0.001,0.1,117.93088,1619735794999
Fix,GT,37.3958171,-122.102916,-4.488,0.0014128243,0.1,117.92938,1619735795999
Fix,GT,37.3958171,-122.102916,-4.488,0.0019966417,0.1,117.92822,1619735796999
Fix,GT,37.3958171,-122.102916,-4.488,0.0010013926,0.1,117.92728,1619735797999
Fix,GT,37.3958171,-122.102916,-4.488,0.0022333015,0.1,117.92587,1619735798999
Fix,GT,37.3958171,-122.102916,-4.488,0.0014142136,0.1,117.92456,1619735799999
Fix,GT,37.3958171,-122.102916,-4.488,0.0036029292,0.1,117.923584,1619735800999
Fix,GT,37.3958171,-122.102916,-4.488,0.003159149,0.1,117.92224,1619735801999
Fix,GT,37.3958171,-122.102916,-4.488,0.0030005488,0.1,117.92102,1619735802999
Fix,GT,37.3958171,-122.102916,-4.488,0.0030033858,0.1,117.91989,1619735803999
Fix,GT,37.3958171,-122.102916,-4.488,0.0041226884,0.1,117.9187,1619735804999
Fix,GT,37.3958171,-122.102916,-4.488,0.0041231057,0.1,117.91748,1619735805999
Fix,GT,37.3958171,-122.102916,-4.488,0.004472136,0.1,117.91626,1619735806999
Fix,GT,37.3958171,-122.102916,-4.488,0.0042404733,0.1,117.9151,1619735807999
Fix,GT,37.3958172,-122.1029161,-4.48899659448862,0.0031591235,0.1,117.914,1619735808999
Fix,GT,37.3958172,-122.1029162,-4.489,0.0041198297,0.1,117.91272,1619735809999
Fix,GT,37.3958172,-122.1029162,-4.489,0.006398335,0.1,117.91138,1619735810999
Fix,GT,37.3958172,-122.1029162,-4.489,0.008062257,0.1,117.90997,1619735811999
Fix,GT,37.3958172,-122.1029162,-4.489,0.0117047,0.1,117.90863,1619735812999
Fix,GT,37.3958172,-122.1029162,-4.489,0.017259307,0.1,117.9079,1619735813999
Fix,GT,37.3958169,-122.1029163,-4.495996570825578,0.23303127,0.1,117.88315,1619735814999
Fix,GT,37.395812,-122.1029193,-4.496,1.1691664,0.1,116.36661,1619735815999
Fix,GT,37.3958019,-122.1029245,-4.481006874203682,1.9470563,0.1,108.895996,1619735816999
Fix,GT,37.395786,-122.1029289,-4.4540137641429896,2.6860542,0.1,98.33121,1619735817999
Fix,GT,37.395759,-122.1029327,-4.389020669817924,3.455395,0.1,97.27905,1619735818999
Fix,GT,37.3957205,-122.1029419,-4.306017244815826,4.573892,0.1,105.2699,1619735819999
Fix,GT,37.3956722,-122.102964,-4.248,5.9103446,0.1,114.444305,1619735820999
Fix,GT,37.3956181,-122.1029987,-4.168024198234081,7.073554,0.1,119.31241,1619735821999
Fix,GT,37.3955585,-122.1030435,-4.070024225771427,7.869253,0.1,122.65579,1619735822999
Fix,GT,37.3954984,-122.1030919,-4.022013858795166,7.9149456,0.1,121.88867,1619735823999
Fix,GT,37.3954413,-122.1031301,-3.968027749061584,7.349199,0.1,111.764435,1619735824999
Fix,GT,37.3953899,-122.1031435,-3.8700312536358834,6.616961,0.1,88.76245,1619735825999
Fix,GT,37.3953466,-122.1031288,-3.814006953120232,6.1774597,0.1,61.517517,1619735826999
Fix,GT,37.3953135,-122.1030923,-3.791,5.9340277,0.1,39.319427,1619735827999
Fix,GT,37.3952895,-122.1030407,-3.916933794736862,5.991857,0.1,26.64621,1619735828999
Fix,GT,37.3952658,-122.1029782,-4.095930230379105,6.422897,0.1,26.965698,1619735829999
Fix,GT,37.3952385,-122.1029105,-4.300926659286023,6.8680844,0.1,28.147766,1619735830999
Fix,GT,37.3952092,-122.1028415,-4.4739300718307495,6.919425,0.1,29.06604,1619735831999
Fix,GT,37.3951794,-122.1027732,-4.654915991783143,6.895884,0.1,29.167877,1619735832999
Fix,GT,37.3951498,-122.1027048,-4.904905382931232,7.1206565,0.1,28.540344,1619735833999
Fix,GT,37.3951185,-122.102631,-5.039978950381279,7.6614947,0.1,28.404144,1619735834999
Fix,GT,37.3950852,-122.1025527,-5.016,8.113509,0.1,27.986115,1619735835999
Fix,GT,37.3950503,-122.1024692,-5.032982419312001,8.649315,0.1,27.790314,1619735836999
Fix,GT,37.3950128,-122.1023794,-5.087985919713974,9.35271,0.1,27.790863,1619735837999
Fix,GT,37.3949725,-122.1022836,-5.093028192043304,9.613319,0.1,28.199585,1619735838999
Fix,GT,37.3949319,-122.1021895,-4.953067031979562,9.228389,0.1,29.12918,1619735839999
Fix,GT,37.3948927,-122.1021024,-4.794035319328308,8.343533,0.1,29.978668,1619735840999
Fix,GT,37.3948596,-122.1020291,-4.671063646674157,6.7862244,0.1,28.475647,1619735841999
Fix,GT,37.3948391,-122.1019731,-4.513042478322983,5.223442,0.1,19.39566,1619735842999
Fix,GT,37.3948335,-122.1019313,-4.414028350830078,4.6315546,0.1,358.87823,1619735843999
Fix,GT,37.3948423,-122.1018979,-4.383007095575333,4.795676,0.1,330.8263,1619735844999
Fix,GT,37.3948686,-122.1018628,-4.385996448338032,5.796011,0.1,310.3075,1619735845999
Fix,GT,37.3949135,-122.1018236,-4.39400355565548,7.0138545,0.1,303.6092,1619735846999
Fix,GT,37.3949712,-122.1017809,-4.420992880821228,8.124852,0.1,299.60062,1619735847999
Fix,GT,37.3950378,-122.1017361,-4.4539821823835375,8.549248,0.1,298.56287,1619735848999
Fix,GT,37.3951054,-122.1016912,-4.535960757315158,8.440901,0.1,298.18866,1619735849999
Fix,GT,37.3951717,-122.1016472,-4.597974999845027,8.075452,0.1,298.68207,1619735850999
Fix,GT,37.3952321,-122.1016058,-4.642989273667336,6.8978314,0.1,299.36542,1619735851999
Fix,GT,37.3952787,-122.1015729,-4.643996420621872,4.9924154,0.1,300.05426,1619735852999
Fix,GT,37.3953134,-122.1015478,-4.658953416168689,3.819302,0.1,300.2625,1619735853999
Fix,GT,37.3953378,-122.1015301,-4.711982063472271,2.4598382,0.1,300.30035,1619735854999
Fix,GT,37.3953524,-122.1015195,-4.747982044100762,1.3608303,0.1,300.28397,1619735855999
Fix,GT,37.3953617,-122.1015127,-4.773014380693436,0.8650121,0.1,300.3276,1619735856999
Fix,GT,37.3953652,-122.1015101,-4.781,0.16337314,0.1,300.35226,1619735857999
Fix,GT,37.3953656,-122.1015099,-4.785,0.032297116,0.1,300.34918,1619735858999
Fix,GT,37.3953656,-122.1015099,-4.783003607034684,0.006078857,0.1,300.34927,1619735859999
Fix,GT,37.3953656,-122.1015099,-4.783,0.0036055513,0.1,300.3485,1619735860999
Fix,GT,37.3953656,-122.1015099,-4.783,0.002236068,0.1,300.34793,1619735861999
Fix,GT,37.3953656,-122.1015099,-4.783,0.0014171879,0.1,300.3474,1619735862999
Fix,GT,37.3953656,-122.1015099,-4.783,0.0010015006,0.1,300.34665,1619735863999
Fix,GT,37.3953656,-122.1015099,-4.783,0.0,0.1,300.3463,1619735864999
Fix,GT,37.3953656,-122.1015099,-4.783,3.6306978e-06,0.1,300.34595,1619735865999
Fix,GT,37.3953656,-122.1015099,-4.783,0.0009963654,0.1,300.34552,1619735866999
Fix,GT,37.3953656,-122.1015099,-4.783,0.001,0.1,300.3442,1619735867999
Fix,GT,37.3953656,-122.1015099,-4.783,0.0,0.1,300.34372,1619735868999
Fix,GT,37.3953656,-122.1015099,-4.783,0.0,0.1,300.34308,1619735869999
Fix,GT,37.3953656,-122.1015099,-4.783,3.6504866e-06,0.1,300.34253,1619735870999
Fix,GT,37.3953656,-122.1015099,-4.783,0.0,0.1,300.34204,1619735871999
Fix,GT,37.3953656,-122.1015099,-4.783,0.0,0.1,300.34137,1619735872999
Fix,GT,37.3953656,-122.1015099,-4.783,0.0,0.1,300.34085,1619735873999
Fix,GT,37.3953656,-122.1015099,-4.783,0.0,0.1,300.34018,1619735874999
Fix,GT,37.3953656,-122.1015099,-4.783,0.001,0.1,300.33963,1619735875999
Fix,GT,37.3953656,-122.1015099,-4.783,0.0009963257,0.1,300.33914,1619735876999
Fix,GT,37.3953656,-122.1015099,-4.783,3.6781432e-06,0.1,300.3385,1619735877999
Fix,GT,37.3953656,-122.1015099,-4.783,0.001,0.1,300.3381,1619735878999
Fix,GT,37.3953656,-122.1015099,-4.783,3.6860706e-06,0.1,300.3374,1619735879999
Fix,GT,37.3953656,-122.1015099,-4.783,3.6900642e-06,0.1,300.33737,1619735880999
Fix,GT,37.3953656,-122.1015099,-4.783,0.0009963061,0.1,300.3377,1619735881999
Fix,GT,37.3953656,-122.1015099,-4.783,0.0010015317,0.1,300.33597,1619735882999
Fix,GT,37.3953656,-122.1015099,-4.783,0.0009962982,0.1,300.33514,1619735883999
Fix,GT,37.3953656,-122.1015099,-4.783,0.0014142136,0.1,300.33466,1619735884999
Fix,GT,37.3953656,-122.1015099,-4.783,0.0014142136,0.1,300.33414,1619735885999
Fix,GT,37.3953656,-122.1015099,-4.783,0.0014172657,0.1,300.3336,1619735886999
Fix,GT,37.3953656,-122.1015099,-4.783,0.002236068,0.1,300.33307,1619735887999
Fix,GT,37.3953656,-122.1015099,-4.783,0.003602659,0.1,300.33298,1619735888999
Fix,GT,37.3953656,-122.1015099,-4.783,0.0036055513,0.1,300.33264,1619735889999
Fix,GT,37.3953656,-122.1015099,-4.783,0.0042426405,0.1,300.3323,1619735890999
Fix,GT,37.3953656,-122.1015099,-4.783,0.005,0.1,300.33176,1619735891999
Fix,GT,37.3953656,-122.1015099,-4.783,0.0044755484,0.1,300.33115,1619735892999
Fix,GT,37.3953656,-122.1015099,-4.783,0.00447722,0.1,300.33084,1619735893999
Fix,GT,37.3953656,-122.10151,-4.784,0.004470829,0.1,300.33038,1619735894999
Fix,GT,37.3953657,-122.10151,-4.786,0.0020043578,0.1,300.3299,1619735895999
Fix,GT,37.3953657,-122.1015101,-4.788,0.0010037533,0.1,300.3295,1619735896999
Fix,GT,37.3953657,-122.1015101,-4.788,0.0063978527,0.1,300.32895,1619735897999
Fix,GT,37.3953655,-122.10151,-4.790996238887311,0.012041595,0.1,300.32852,1619735898999
Fix,GT,37.3953653,-122.1015098,-4.792996234893798,0.020612642,0.1,300.3281,1619735899999
Fix,GT,37.395365,-122.1015095,-4.795,0.032010324,0.1,300.32745,1619735900999
Fix,GT,37.3953661,-122.101508,-4.802003772974015,0.5251678,0.1,300.32874,1619735901999
Fix,GT,37.3953706,-122.1015037,-4.807,0.7520294,0.1,300.27972,1619735902999
Fix,GT,37.3953782,-122.1014968,-4.817981095492839,1.2486426,0.1,300.8023,1619735903999
Fix,GT,37.3953911,-122.101485,-4.898931874036789,1.6065619,0.1,306.0641,1619735904999
Fix,GT,37.3954085,-122.1014625,-5.087897701621055,2.5519545,0.1,323.89523,1619735905999
Fix,GT,37.3954244,-122.1014183,-4.946037927031517,4.261958,0.1,345.01556,1619735906999
Fix,GT,37.3954278,-122.1013487,-4.882018983483314,6.332462,0.1,6.858246,1619735907999
Fix,GT,37.3954086,-122.1012591,-4.826022803783417,8.716632,0.1,21.517578,1619735908999
Fix,GT,37.3953705,-122.1011591,-4.83101902282238,10.203191,0.1,27.751495,1619735909999
Fix,GT,37.3953229,-122.1010494,-4.839996191442013,11.814173,0.1,28.675476,1619735910999
Fix,GT,37.395268,-122.1009255,-4.847992375016212,13.215107,0.1,28.68982,1619735911999
Fix,GT,37.3952085,-122.1007909,-4.84998473405838,13.8218,0.1,28.827423,1619735912999
Fix,GT,37.3951476,-122.1006536,-4.917942693710327,14.012588,0.1,28.928314,1619735913999
Fix,GT,37.3950863,-122.1005142,-4.953015297651291,14.208507,0.1,28.487152,1619735914999
Fix,GT,37.3950248,-122.1003721,-4.937007656693459,14.438114,0.1,28.39618,1619735915999
Fix,GT,37.394962,-122.1002274,-4.905003832221031,14.708678,0.1,28.752563,1619735916999
Fix,GT,37.3948979,-122.1000806,-4.870007672429085,14.943234,0.1,28.49176,1619735917999
Fix,GT,37.3948336,-122.0999313,-4.829015360593796,15.1463585,0.1,28.25412,1619735918999
Fix,GT,37.3947686,-122.0997794,-4.797,15.388705,0.1,28.29184,1619735919999
Fix,GT,37.3947018,-122.099625,-4.835026936531067,15.688827,0.1,28.751038,1619735920999
Fix,GT,37.3946329,-122.0994682,-4.831969183921814,15.98764,0.1,28.926392,1619735921999
Fix,GT,37.3945625,-122.0993086,-4.86501542377472,16.29885,0.1,28.928345,1619735922999
Fix,GT,37.3944912,-122.0991466,-4.841011579811573,16.378502,0.1,28.877869,1619735923999
Fix,GT,37.3944207,-122.0989861,-4.801007727622986,16.0888,0.1,28.65921,1619735924999
Fix,GT,37.3943526,-122.0988281,-4.793984528541565,15.721684,0.1,28.322937,1619735925999
Fix,GT,37.3942858,-122.0986735,-4.7770154869556425,15.333427,0.1,28.677063,1619735926999
Fix,GT,37.3942206,-122.0985247,-4.732011627197266,14.681915,0.1,28.688995,1619735927999
Fix,GT,37.3941594,-122.0983832,-4.703031037330628,13.790437,0.1,28.378876,1619735928999
Fix,GT,37.3941022,-122.0982511,-4.637015534639358,12.795584,0.1,28.717255,1619735929999
Fix,GT,37.3940485,-122.0981294,-4.567038875937462,11.796008,0.1,29.102295,1619735930999
Fix,GT,37.3939983,-122.0980177,-4.520003891527653,10.851812,0.1,29.592072,1619735931999
Fix,GT,37.393951,-122.0979156,-4.507011686563492,9.903864,0.1,30.585907,1619735932999
Fix,GT,37.3939076,-122.0978252,-4.4800350950956345,8.6722975,0.1,31.540741,1619735933999
Fix,GT,37.3938688,-122.097748,-4.456007806777954,7.360417,0.1,32.752197,1619735934999
Fix,GT,37.3938355,-122.0976845,-4.442003907382488,6.024909,0.1,33.403687,1619735935999
Fix,GT,37.393809,-122.0976345,-4.43,4.5563183,0.1,33.688507,1619735936999
Fix,GT,37.3937888,-122.0975966,-4.411996084749698,3.5709825,0.1,33.932556,1619735937999
Fix,GT,37.3937729,-122.0975672,-4.400996080815792,2.7728934,0.1,34.125397,1619735938999
Fix,GT,37.3937589,-122.0975415,-4.387003923177718,2.718337,0.1,33.97101,1619735939999
Fix,GT,37.3937452,-122.0975159,-4.384015708446503,2.802778,0.1,33.81244,1619735940999
Fix,GT,37.3937308,-122.097489,-4.369003931105136,2.9548545,0.1,33.951508,1619735941999
Fix,GT,37.393715,-122.09746,-4.356007870078087,3.251563,0.1,34.346527,1619735942999
Fix,GT,37.3936969,-122.0974271,-4.344015756130219,3.8228068,0.1,34.81421,1619735943999
Fix,GT,37.3936745,-122.0973872,-4.330011828899384,4.8090854,0.1,35.513184,1619735944999
Fix,GT,37.3936456,-122.0973376,-4.319019734799862,6.0053678,0.1,36.500244,1619735945999
Fix,GT,37.3936096,-122.097278,-4.292984196424484,7.125533,0.1,37.49054,1619735946999
Fix,GT,37.3935678,-122.0972112,-4.277996045112609,7.637587,0.1,38.41501,1619735947999
Fix,GT,37.3935248,-122.0971441,-4.240996041178702,7.5507402,0.1,38.8768,1619735948999
Fix,GT,37.3934815,-122.0970778,-4.220011888444423,7.5619617,0.1,39.517,1619735949999
Fix,GT,37.3934373,-122.0970117,-4.191015866994857,7.6777987,0.1,40.09619,1619735950999
Fix,GT,37.3933916,-122.096945,-4.164003970742225,7.819118,0.1,40.73163,1619735951999
Fix,GT,37.3933449,-122.0968781,-4.127019873082638,7.8766756,0.1,41.20331,1619735952999
Fix,GT,37.3932974,-122.0968111,-4.073019892752171,7.9492693,0.1,41.934296,1619735953999
Fix,GT,37.3932481,-122.0967436,-3.9880318603515614,8.255856,0.1,42.490692,1619735954999
Fix,GT,37.3931958,-122.0966736,-3.9190279053449633,8.589091,0.1,43.39673,1619735955999
Fix,GT,37.393141,-122.0966027,-3.8450119712352753,8.771112,0.1,44.61032,1619735956999
Fix,GT,37.3930837,-122.0965319,-3.776019972026348,8.984502,0.1,45.878693,1619735957999
Fix,GT,37.393024,-122.0964609,-3.7120319867134097,9.2080965,0.1,46.597412,1619735958999
Fix,GT,37.3929635,-122.0963898,-3.634048027992249,9.10237,0.1,46.746002,1619735959999
Fix,GT,37.392904,-122.0963207,-3.534044068932533,8.837551,0.1,47.507263,1619735960999
Fix,GT,37.3928454,-122.0962546,-3.428036092340946,8.578379,0.1,48.36029,1619735961999
Fix,GT,37.3927879,-122.0961915,-3.331036127209664,8.320594,0.1,48.978943,1619735962999
Fix,GT,37.3927315,-122.0961312,-3.2460321455001835,8.072436,0.1,49.74115,1619735963999
Fix,GT,37.3926762,-122.0960736,-3.133056308865547,7.7989287,0.1,50.643524,1619735964999
Fix,GT,37.3926216,-122.0960185,-3.0380402605533594,7.8680134,0.1,51.36313,1619735965999
Fix,GT,37.3925628,-122.0959605,-2.962012089967728,8.584583,0.1,52.066803,1619735966999
Fix,GT,37.3924999,-122.0959,-2.8840443731546404,9.035444,0.1,52.635895,1619735967999
Fix,GT,37.3924335,-122.0958374,-2.797024227499962,9.258374,0.1,53.10791,1619735968999
Fix,GT,37.3923665,-122.0957752,-2.7250282933712007,9.188671,0.1,53.45233,1619735969999
Fix,GT,37.3922992,-122.0957132,-2.6450485501289367,9.363997,0.1,53.815918,1619735970999
Fix,GT,37.3922283,-122.0956488,-2.569044547557831,10.082566,0.1,54.09076,1619735971999
Fix,GT,37.392152,-122.0955802,-2.500020268857479,10.659639,0.1,54.266388,1619735972999
Fix,GT,37.3920718,-122.0955085,-2.4460365193486213,11.234669,0.1,54.45697,1619735973999
Fix,GT,37.3919875,-122.0954336,-2.3490365552902226,11.530118,0.1,54.72638,1619735974999
Fix,GT,37.3919024,-122.0953594,-2.275,11.393348,0.1,55.28235,1619735975999
Fix,GT,37.3918168,-122.0952856,-2.1840447658896447,11.7710285,0.1,55.129913,1619735976999
Fix,GT,37.3917288,-122.0952074,-2.059044808506965,12.340852,0.1,53.878357,1619735977999
Fix,GT,37.3916393,-122.0951237,-1.940053007423877,12.481539,0.1,52.204285,1619735978999
Fix,GT,37.391552,-122.0950363,-1.829065302848816,12.507642,0.1,50.387054,1619735979999
Fix,GT,37.3914658,-122.0949453,-1.7730285979509357,12.606466,0.1,49.320404,1619735980999
Fix,GT,37.39138,-122.0948516,-1.6630081787109376,12.749296,0.1,48.211517,1619735981999
Fix,GT,37.3912947,-122.0947546,-1.5730736792087554,12.939945,0.1,46.945923,1619735982999
Fix,GT,37.3912112,-122.0946552,-1.527040972828865,12.737997,0.1,45.42688,1619735983999
Fix,GT,37.3911322,-122.0945543,-1.3950410121679306,12.623695,0.1,43.420135,1619735984999
Fix,GT,37.3910535,-122.0944486,-1.3130451573133468,13.110324,0.1,42.27777,1619735985999
Fix,GT,37.3909737,-122.0943365,-1.218041091442108,13.551305,0.1,41.027374,1619735986999
Fix,GT,37.3908948,-122.094221,-1.12802056568861,13.4387455,0.1,39.911255,1619735987999
Fix,GT,37.3908184,-122.0941054,-1.0520370531082155,13.218786,0.1,39.193237,1619735988999
Fix,GT,37.3907443,-122.0939903,-0.9820659370422364,13.099364,0.1,38.26953,1619735989999
Fix,GT,37.3906715,-122.0938733,-0.8970247496366501,13.298136,0.1,37.520233,1619735990999
Fix,GT,37.3905988,-122.0937528,-0.8240041289329528,13.578337,0.1,36.219025,1619735991999
Fix,GT,37.3905271,-122.0936276,-0.7200537272691727,13.747386,0.1,34.970825,1619735992999
Fix,GT,37.3904574,-122.093501,-0.695,13.596042,0.1,34.018494,1619735993999
Fix,GT,37.39039,-122.0933737,-0.6070538303256034,13.605646,0.1,32.786743,1619735994999
Fix,GT,37.3903247,-122.0932449,-0.5630165791511536,13.4911175,0.1,31.992493,1619735995999
Fix,GT,37.3902607,-122.0931164,-0.5330124461650849,13.302785,0.1,31.759827,1619735996999
Fix,GT,37.3901981,-122.09299,-0.5189875418543816,13.026671,0.1,31.927704,1619735997999
Fix,GT,37.3901364,-122.0928664,-0.481,12.8248005,0.1,31.811035,1619735998999
Fix,GT,37.3900752,-122.0927435,-0.4280665702819824,12.887819,0.1,31.788177,1619735999999
Fix,GT,37.390014,-122.0926204,-0.3510083291530609,12.744456,0.1,31.886871,1619736000999
Fix,GT,37.3899533,-122.0924986,-0.3000083369016647,12.779334,0.1,32.04303,1619736001999
Fix,GT,37.3898913,-122.0923746,-0.216020862519741,13.173904,0.1,31.802795,1619736002999
Fix,GT,37.3898281,-122.0922462,-0.1410542929172515,13.590381,0.1,31.337982,1619736003999
Fix,GT,37.3897631,-122.0921133,-0.0850334429740905,14.019165,0.1,31.494537,1619736004999
Fix,GT,37.3896962,-122.0919768,-0.0350418430566787,14.271755,0.1,31.51294,1619736005999
Fix,GT,37.3896291,-122.0918397,0.0439832468032836,14.212463,0.1,31.50235,1619736006999
Fix,GT,37.3895621,-122.0917033,0.112953885436058,14.128928,0.1,31.53894,1619736007999
Fix,GT,37.3894956,-122.0915688,0.1829874113202095,13.867585,0.1,31.805786,1619736008999
Fix,GT,37.38943,-122.0914377,0.2100126004815101,13.556437,0.1,31.927704,1619736009999
Fix,GT,37.3893655,-122.0913091,0.2209915916919708,13.3619175,0.1,31.931396,1619736010999
Fix,GT,37.3893022,-122.0911817,0.2319957919120788,13.236969,0.1,31.620514,1619736011999
Fix,GT,37.3892399,-122.0910553,0.2219957879185676,13.036913,0.1,31.492126,1619736012999
Fix,GT,37.3891792,-122.0909314,0.2140042160153389,12.69808,0.1,31.485626,1619736013999
Fix,GT,37.3891202,-122.0908111,0.238,12.309398,0.1,31.359985,1619736014999
Fix,GT,37.3890632,-122.0906942,0.2279619845151901,11.953573,0.1,31.486572,1619736015999
Fix,GT,37.389007,-122.0905808,0.2390042279362678,11.631095,0.1,31.992828,1619736016999
Fix,GT,37.3889517,-122.090471,0.234016927242279,11.374715,0.1,32.183136,1619736017999
Fix,GT,37.3888974,-122.0903634,0.2179872924089431,11.160878,0.1,32.25287,1619736018999
Fix,GT,37.388844,-122.0902579,0.205008479475975,10.963465,0.1,32.296753,1619736019999
Fix,GT,37.3887913,-122.0901545,0.2189915125370025,10.74392,0.1,32.605774,1619736020999
Fix,GT,37.3887393,-122.0900536,0.2419830093383789,10.522047,0.1,32.761932,1619736021999
Fix,GT,37.388688,-122.0899548,0.2390042516589164,10.324851,0.1,33.05548,1619736022999
Fix,GT,37.3886375,-122.0898582,0.2419872332215309,10.133029,0.1,32.997833,1619736023999
Fix,GT,37.388588,-122.0897631,0.2339957404136658,9.969127,0.1,32.965454,1619736024999
Fix,GT,37.388539,-122.0896698,0.201,9.807311,0.1,33.142517,1619736025999
Fix,GT,37.3884908,-122.0895782,0.196995732486248,9.620798,0.1,33.33902,1619736026999
Fix,GT,37.3884434,-122.0894887,0.2139871856570243,9.368741,0.1,33.521545,1619736027999
Fix,GT,37.3883973,-122.0894022,0.234982898235321,9.027945,0.1,33.552887,1619736028999
Fix,GT,37.3883542,-122.0893201,0.2770085587501526,8.402725,0.1,32.407104,1619736029999
Fix,GT,37.3883169,-122.0892458,0.2499871498942375,7.1788363,0.1,31.390106,1619736030999
Fix,GT,37.3882867,-122.0891844,0.1979742758274078,5.474932,0.1,31.510498,1619736031999
Fix,GT,37.3882653,-122.0891411,0.1979957087039947,3.5281622,0.1,31.75473,1619736032999
Fix,GT,37.3882526,-122.0891156,0.196,1.9946697,0.1,31.88208,1619736033999
Fix,GT,37.3882455,-122.0891013,0.202,0.99240613,0.1,31.938354,1619736034999
Fix,GT,37.3882425,-122.0890952,0.205,0.31514227,0.1,31.962097,1619736035999
Fix,GT,37.3882422,-122.0890944,0.2029956929087639,0.004501029,0.1,31.963593,1619736036999
Fix,GT,37.3882422,-122.0890944,0.203,0.0031706274,0.1,31.964447,1619736037999
Fix,GT,37.3882422,-122.0890944,0.203,0.0041182595,0.1,31.963654,1619736038999
Fix,GT,37.3882422,-122.0890944,0.204,0.0014217636,0.1,31.963196,1619736039999
Fix,GT,37.3882422,-122.0890944,0.204,0.003,0.1,31.960968,1619736040999
Fix,GT,37.3882422,-122.0890944,0.204,0.001004327,0.1,31.95993,1619736041999
Fix,GT,37.3882422,-122.0890944,0.204,0.0029956691,0.1,31.95871,1619736042999
Fix,GT,37.3882422,-122.0890944,0.204,0.0010079261,0.1,31.957062,1619736043999
Fix,GT,37.3882422,-122.0890945,0.204,0.0035996095,0.1,31.95575,1619736044999
Fix,GT,37.3882422,-122.0890945,0.204,0.0014142136,0.1,31.9552,1619736045999
Fix,GT,37.3882422,-122.0890944,0.2139869598150253,0.002236068,0.1,31.95346,1619736046999
Fix,GT,37.3882422,-122.0890943,0.2289956492781639,0.0022386452,0.1,31.951965,1619736047999
Fix,GT,37.3882422,-122.0890942,0.242986936032772,0.002236068,0.1,31.950836,1619736048999
Fix,GT,37.3882422,-122.0890941,0.251,0.0019956413,0.1,31.95044,1619736049999
Fix,GT,37.3882422,-122.0890941,0.251,0.0020010301,0.1,31.948639,1619736050999
Fix,GT,37.3882422,-122.0890941,0.251,0.0020043666,0.1,31.947388,1619736051999
Fix,GT,37.3882422,-122.0890941,0.251,0.0039956295,0.1,31.945923,1619736052999
Fix,GT,37.3882422,-122.0890941,0.251,0.003,0.1,31.944275,1619736053999
Fix,GT,37.3882422,-122.0890941,0.252,0.004,0.1,31.942688,1619736054999
Fix,GT,37.3882422,-122.0890941,0.252,0.004122566,0.1,31.941772,1619736055999
Fix,GT,37.3882422,-122.0890941,0.252,0.0039963257,0.1,31.939636,1619736056999
Fix,GT,37.3882422,-122.0890941,0.252,0.0036055513,0.1,31.93811,1619736057999
Fix,GT,37.3882422,-122.0890941,0.2480043942332267,0.048703134,0.1,31.938263,1619736058999
Fix,GT,37.3882401,-122.0890898,0.241,0.7807478,0.1,31.911865,1619736059999
Fix,GT,37.3882344,-122.0890785,0.2380044022202491,1.6287794,0.1,31.88623,1619736060999
Fix,GT,37.3882237,-122.089057,0.2419911875724792,2.9728682,0.1,31.904236,1619736061999
Fix,GT,37.3882059,-122.0890216,0.240995589852333,4.384148,0.1,31.802368,1619736062999
Fix,GT,37.3881817,-122.0889727,0.2580088282823563,5.827483,0.1,31.72287,1619736063999
Fix,GT,37.3881508,-122.0889103,0.2750088361501694,7.2377243,0.1,31.393097,1619736064999
Fix,GT,37.3881142,-122.0888348,0.2730221103429794,8.37733,0.1,31.093658,1619736065999
Fix,GT,37.388072,-122.0887482,0.2879867219924926,9.478862,0.1,31.271973,1619736066999
Fix,GT,37.3880255,-122.0886533,0.2880088599920272,10.254136,0.1,31.507965,1619736067999
Fix,GT,37.3879751,-122.0885512,0.304,10.924302,0.1,31.420593,1619736068999
Fix,GT,37.3879229,-122.0884444,0.3319822483062744,11.319061,0.1,31.18106,1619736069999
Fix,GT,37.3878684,-122.0883325,0.3839600227475166,11.88675,0.1,31.149353,1619736070999
Fix,GT,37.387812,-122.0882157,0.419977770447731,12.297192,0.1,30.747131,1619736071999
Fix,GT,37.3877544,-122.0880944,0.4789911003112792,12.748884,0.1,30.226898,1619736072999
Fix,GT,37.3876958,-122.0879687,0.5259777308106423,13.027524,0.1,29.828949,1619736073999
Fix,GT,37.3876364,-122.08784,0.541,13.302529,0.1,29.89914,1619736074999
Fix,GT,37.3875747,-122.0877087,0.5669598441123962,13.590902,0.1,30.644653,1619736075999
Fix,GT,37.3875106,-122.0875754,0.673973205447197,13.938948,0.1,30.70694,1619736076999
Fix,GT,37.3874458,-122.0874393,0.7209865909218788,13.980161,0.1,30.758667,1619736077999
Fix,GT,37.3873805,-122.0873052,0.7739597368240356,13.856769,0.1,31.384094,1619736078999
Fix,GT,37.3873151,-122.0871711,0.8099731339216233,14.054464,0.1,31.176758,1619736079999
Fix,GT,37.3872483,-122.0870343,0.8549775919318199,14.370892,0.1,31.159027,1619736080999
Fix,GT,37.38718,-122.0868947,0.9309461727142336,14.494706,0.1,31.405304,1619736081999
Fix,GT,37.3871121,-122.0867568,1.0149820418357849,14.21491,0.1,31.284698,1619736082999
Fix,GT,37.387046,-122.0866217,1.0929640517234802,13.867064,0.1,31.306702,1619736083999
Fix,GT,37.3869813,-122.0864898,1.1349775126576422,13.556241,0.1,31.653168,1619736084999
Fix,GT,37.3869162,-122.0863605,1.1539729912281036,13.493305,0.1,32.355316,1619736085999
Fix,GT,37.386851,-122.0862325,1.1710045054554938,13.419464,0.1,32.09781,1619736086999
Fix,GT,37.3867872,-122.0861053,1.1819864716529844,13.262891,0.1,31.612762,1619736087999
Fix,GT,37.3867247,-122.085979,1.223968406319618,13.086231,0.1,31.563934,1619736088999
Fix,GT,37.3866633,-122.085855,1.2759819304943083,12.794489,0.1,31.536713,1619736089999
Fix,GT,37.3866035,-122.085734,1.305,12.480077,0.1,31.594543,1619736090999
Fix,GT,37.3865448,-122.0856161,1.3209773734807968,12.161497,0.1,31.816772,1619736091999
Fix,GT,37.3864871,-122.0855013,1.312995470702648,11.924856,0.1,31.9693,1619736092999
Fix,GT,37.3864309,-122.0853893,1.3429864004850387,11.485594,0.1,31.845795,1619736093999
Fix,GT,37.3863786,-122.0852842,1.3709863883256914,10.327834,0.1,31.485596,1619736094999
Fix,GT,37.3863335,-122.085192,1.3859954589009285,8.813294,0.1,31.161896,1619736095999
Fix,GT,37.3862956,-122.0851135,1.4129909098148348,7.433556,0.1,30.998596,1619736096999
Fix,GT,37.3862621,-122.0850445,1.4329863525629043,6.7439394,0.1,31.442535,1619736097999
Fix,GT,37.3862318,-122.0849832,1.4609863405823709,5.8815503,0.1,31.83789,1619736098999
Fix,GT,37.3862063,-122.084932,1.4659954429864883,4.781918,0.1,31.811157,1619736099999
Fix,GT,37.3861853,-122.0848898,1.4719954389333725,3.9903338,0.1,31.789948,1619736100999
Fix,GT,37.386168,-122.084855,1.4849954349398615,3.3588607,0.1,31.800385,1619736101999
Fix,GT,37.3861532,-122.0848255,1.4919954310655594,2.853037,0.1,31.919373,1619736102999
Fix,GT,37.386142,-122.0848029,1.5009954270124437,1.8238058,0.1,31.99759,1619736103999
Fix,GT,37.3861357,-122.0847905,1.5149908460378645,0.7821558,0.1,32.03305,1619736104999
Fix,GT,37.3861341,-122.0847874,1.524,0.041433465,0.1,32.031555,1619736105999
Fix,GT,37.3861342,-122.0847876,1.5299954152107238,0.01119294,0.1,32.03018,1619736106999
Fix,GT,37.3861342,-122.0847877,1.5299954112172127,0.0028284271,0.1,32.03067,1619736107999
Fix,GT,37.3861342,-122.0847888,1.53,0.0028257065,0.1,32.029846,1619736108999
Fix,GT,37.3861343,-122.084789,1.53,0.002238791,0.1,32.02841,1619736109999
Fix,GT,37.3861343,-122.084789,1.53,0.0028284271,0.1,32.027008,1619736110999
Fix,GT,37.3861343,-122.084789,1.53,0.0022322838,0.1,32.025787,1619736111999
Fix,GT,37.3861343,-122.084789,1.53,0.0022322803,0.1,32.02469,1619736112999
Fix,GT,37.3861343,-122.084789,1.53,0.0014180045,0.1,32.0235,1619736113999
Fix,GT,37.3861343,-122.084789,1.53,0.0010057066,0.1,32.022614,1619736114999
Fix,GT,37.3861343,-122.084789,1.53,0.0014207481,0.1,32.021088,1619736115999
Fix,GT,37.3861343,-122.084789,1.53,0.0022322673,0.1,32.02002,1619736116999
Fix,GT,37.3861343,-122.084789,1.53,0.002236068,0.1,32.0188,1619736117999
Fix,GT,37.3861343,-122.084789,1.53,0.0022322608,0.1,32.01834,1619736118999
Fix,GT,37.3861343,-122.084789,1.53,0.0014142136,0.1,32.017242,1619736119999
Fix,GT,37.3861343,-122.084789,1.53,0.0014142136,0.1,32.016052,1619736120999
Fix,GT,37.3861343,-122.084789,1.53,0.0014142136,0.1,32.0148,1619736121999
Fix,GT,37.3861343,-122.084789,1.53,0.0022322477,0.1,32.013275,1619736122999
Fix,GT,37.3861343,-122.084789,1.53,0.002236068,0.1,32.01236,1619736123999
Fix,GT,37.3861343,-122.084789,1.53,0.0010057556,0.1,32.01117,1619736124999
Fix,GT,37.3861343,-122.084789,1.53,0.002236068,0.1,32.01004,1619736125999
Fix,GT,37.3861343,-122.084789,1.53,0.0010019321,0.1,32.00888,1619736126999
Fix,GT,37.3861343,-122.084789,1.53,0.0014142136,0.1,32.007812,1619736127999
Fix,GT,37.3861343,-122.084789,1.53,0.0022322282,0.1,32.00659,1619736128999
Fix,GT,37.3861343,-122.084789,1.53,0.0014142136,0.1,32.005585,1619736129999
Fix,GT,37.3861343,-122.084789,1.53,0.002236068,0.1,32.00461,1619736130999
Fix,GT,37.3861343,-122.084789,1.53,0.002236068,0.1,32.00348,1619736131999
Fix,GT,37.3861343,-122.084789,1.53,0.002236068,0.1,32.00238,1619736132999
Fix,GT,37.3861343,-122.084789,1.53,0.002236068,0.1,32.00113,1619736133999
Fix,GT,37.3861343,-122.084789,1.53,0.002236068,0.1,32.000122,1619736134999
Fix,GT,37.3861343,-122.084789,1.53,0.002236068,0.1,31.998932,1619736135999
Fix,GT,37.3861343,-122.084789,1.53,0.002,0.1,31.997864,1619736136999
Fix,GT,37.3861343,-122.084789,1.53,0.002236068,0.1,31.996796,1619736137999
Fix,GT,37.3861343,-122.084789,1.53,0.002236068,0.1,31.995636,1619736138999
Fix,GT,37.3861343,-122.084789,1.53,0.002,0.1,31.994598,1619736139999
Fix,GT,37.3861343,-122.084789,1.53,0.0020011144,0.1,31.993439,1619736140999
Fix,GT,37.3861343,-122.084789,1.53,0.0014169808,0.1,31.992462,1619736141999
Fix,GT,37.3861343,-122.084789,1.53,0.0014169831,0.1,31.99118,1619736142999
Fix,GT,37.3861343,-122.084789,1.53,0.002236068,0.1,31.98996,1619736143999
Fix,GT,37.3861343,-122.084789,1.53,0.0022302142,0.1,31.988983,1619736144999
Fix,GT,37.3861343,-122.084789,1.53,0.0010047398,0.1,31.987701,1619736145999
Fix,GT,37.3861343,-122.084789,1.53,0.0010047437,0.1,31.986816,1619736146999
Fix,GT,37.3861343,-122.084789,1.53,0.002,0.1,31.985779,1619736147999
Fix,GT,37.3861343,-122.084789,1.53,0.0020011216,0.1,31.98462,1619736148999
Fix,GT,37.3861343,-122.084789,1.53,0.002236068,0.1,31.98346,1619736149999
Fix,GT,37.3861343,-122.084789,1.53,0.001,0.1,31.982605,1619736150999
Fix,GT,37.3861343,-122.084789,1.53,0.0010047636,0.1,31.981445,1619736151999
Fix,GT,37.3861343,-122.084789,1.53,0.0014142136,0.1,31.980286,1619736152999
Fix,GT,37.3861343,-122.084789,1.53,0.0014142136,0.1,31.978912,1619736153999
Fix,GT,37.3861343,-122.084789,1.53,0.0014142136,0.1,31.977936,1619736154999
Fix,GT,37.3861343,-122.084789,1.53,0.002236068,0.1,31.976685,1619736155999
Fix,GT,37.3861343,-122.084789,1.53,0.0022404986,0.1,31.975555,1619736156999
Fix,GT,37.3861343,-122.0847889,1.53,0.004122516,0.1,31.974518,1619736157999
Fix,GT,37.3861342,-122.0847885,1.522004791378975,0.0049952087,0.1,31.973297,1619736158999
Fix,GT,37.3861342,-122.0847884,1.52,0.006,0.1,31.972076,1619736159999
Fix,GT,37.3861342,-122.0847884,1.5190047993063924,0.008,0.1,31.970886,1619736160999
Fix,GT,37.3861342,-122.0847883,1.5040096065998076,0.011,0.1,31.969696,1619736161999
Fix,GT,37.3861338,-122.0847879,1.4820240358710288,0.32010275,0.1,31.967346,1619736162999
Fix,GT,37.3861292,-122.084779,1.4740048112273214,1.5482787,0.1,31.919037,1619736163999
Fix,GT,37.3861192,-122.0847592,1.465,2.6299446,0.1,31.75586,1619736164999
Fix,GT,37.3861034,-122.0847273,1.450004819214344,4.0910277,0.1,31.61966,1619736165999
Fix,GT,37.3860806,-122.0846815,1.4370096462965012,5.500949,0.1,31.537415,1619736166999
Fix,GT,37.3860506,-122.084621,1.437004827141762,6.9606066,0.1,31.650635,1619736167999
Fix,GT,37.3860153,-122.0845499,1.443004831016064,7.8022203,0.1,31.442352,1619736168999
Fix,GT,37.3859767,-122.0844705,1.4400048350691794,8.674672,0.1,30.801056,1619736169999
Fix,GT,37.3859347,-122.0843827,1.4479951609373092,9.520711,0.1,30.814758,1619736170999
Fix,GT,37.3858872,-122.0842849,1.4490145291686058,10.6951475,0.1,31.115204,1619736171999
Fix,GT,37.3858344,-122.0841768,1.4410193877220154,11.655325,0.1,31.47757,1619736172999
Fix,GT,37.3857771,-122.0840619,1.4339708940982818,12.243401,0.1,31.81488,1619736173999
Fix,GT,37.3857179,-122.0839429,1.423975725710392,12.526156,0.1,31.641907,1619736174999
Fix,GT,37.3856588,-122.0838238,1.4270048588514328,12.306845,0.1,31.454437,1619736175999
Fix,GT,37.3856015,-122.0837073,1.4450097258090977,11.970424,0.1,31.207,1619736176999
Fix,GT,37.3855448,-122.0835909,1.4640048667788506,12.326151,0.1,30.86499,1619736177999
Fix,GT,37.3854858,-122.0834692,1.4849902584552763,12.861681,0.1,31.381348,1619736178999
Fix,GT,37.3854229,-122.0833428,1.5249658770561216,13.479779,0.1,31.792389,1619736179999
Fix,GT,37.3853574,-122.0832118,1.5629756065011022,13.879811,0.1,31.58429,1619736180999
Fix,GT,37.3852913,-122.0830772,1.5869707038402556,14.250611,0.1,30.557007,1619736181999
Fix,GT,37.3852267,-122.0829375,1.648980453491211,14.400573,0.1,29.138031,1619736182999
Fix,GT,37.3851627,-122.082794,1.6849804375171662,14.771502,0.1,28.608673,1619736183999
Fix,GT,37.3850987,-122.0826488,1.71496084356308,14.571958,0.1,28.641113,1619736184999
Fix,GT,37.3850356,-122.0825068,1.7769902029037477,14.179537,0.1,28.960815,1619736185999
Fix,GT,37.3849729,-122.0823693,1.8000049025416374,13.806371,0.1,30.003723,1619736186999
Fix,GT,37.3849097,-122.0822368,1.8239803738594056,13.475359,0.1,30.875763,1619736187999
Fix,GT,37.3848466,-122.0821087,1.8369950895309448,13.132907,0.1,31.661774,1619736188999
Fix,GT,37.3847842,-122.0819849,1.8490147433876991,12.804855,0.1,31.830078,1619736189999
Fix,GT,37.3847233,-122.0818647,1.857975408017636,12.46887,0.1,31.7789,1619736190999
Fix,GT,37.3846636,-122.0817457,1.871,12.581717,0.1,31.50943,1619736191999
Fix,GT,37.384603,-122.0816238,1.935970441699028,12.919585,0.1,31.438324,1619736192999
Fix,GT,37.3845406,-122.0814986,1.9819605574607848,13.284176,0.1,31.268585,1619736193999
Fix,GT,37.3844774,-122.0813701,2.02198519706726,13.338804,0.1,31.431183,1619736194999
Fix,GT,37.3844145,-122.081243,2.0409753084778783,13.1946745,0.1,31.350983,1619736195999
Fix,GT,37.3843518,-122.0811163,2.093970346570015,13.216706,0.1,31.372833,1619736196999
Fix,GT,37.384289,-122.0809905,2.126990107536316,13.075342,0.1,31.66333,1619736197999
Fix,GT,37.3842266,-122.0808657,2.182995049774646,13.114391,0.1,31.572113,1619736198999
Fix,GT,37.3841639,-122.0807389,2.2479603667259216,13.348229,0.1,31.22815,1619736199999
Fix,GT,37.3840999,-122.0806091,2.273915711402893,13.696738,0.1,31.345001,1619736200999
Fix,GT,37.3840342,-122.0804761,2.3130148864388467,13.856989,0.1,31.54663,1619736201999
Fix,GT,37.3839679,-122.0803431,2.3479851017594338,14.071554,0.1,31.638214,1619736202999
Fix,GT,37.3839011,-122.0802082,2.346049700737,13.965872,0.1,31.482239,1619736203999
Fix,GT,37.3838357,-122.0800755,2.3979850777983667,13.649527,0.1,31.245758,1619736204999
Fix,GT,37.3837723,-122.0799459,2.4380099561214448,13.290935,0.1,31.178192,1619736205999
Fix,GT,37.3837102,-122.0798196,2.501,12.931765,0.1,31.38095,1619736206999
Fix,GT,37.3836497,-122.0796971,2.570945154130459,12.578989,0.1,31.539001,1619736207999
Fix,GT,37.3835904,-122.0795782,2.655955090165138,12.274042,0.1,31.704987,1619736208999
Fix,GT,37.3835321,-122.0794616,2.7019850180745126,12.109916,0.1,31.843414,1619736209999
Fix,GT,37.3834748,-122.0793467,2.7669700125455856,11.900598,0.1,31.446136,1619736210999
Fix,GT,37.3834201,-122.0792359,2.81298499429226,10.959942,0.1,31.313416,1619736211999
Fix,GT,37.3833722,-122.079138,2.87396495872736,9.313878,0.1,31.190247,1619736212999
Fix,GT,37.3833332,-122.0790582,2.9160049303937705,7.03733,0.1,31.189545,1619736214000
Fix,GT,37.3833051,-122.0790009,2.942009922981262,4.7903285,0.099,31.303467,1619736215000
Fix,GT,37.3832868,-122.0789638,2.954999960095156,3.138517,0.1,31.339233,1619736216000
Fix,GT,37.3832745,-122.0789389,2.977064746970311,2.128237,0.1,31.394592,1619736217000
Fix,GT,37.3832665,-122.0789228,2.971995096371044,1.2262266,0.1,31.377197,1619736218000
Fix,GT,37.3832629,-122.0789154,2.9689999336376784,0.37693846,0.1,31.372375,1619736219000
Fix,GT,37.3832623,-122.0789141,2.961990041293204,0.015664166,0.1,31.373688,1619736220000
Fix,GT,37.3832622,-122.0789141,2.958004945730791,0.0041324194,0.1,31.372955,1619736221000
Fix,GT,37.3832622,-122.0789141,2.95900002342416,0.0014220764,0.1,31.372223,1619736222000
Fix,GT,37.3832622,-122.0789141,2.9600000634044408,0.001,0.1,31.37085,1619736223000
Fix,GT,37.3832622,-122.0789141,2.95999995727092,0.0009950497,0.1,31.369812,1619736224000
Fix,GT,37.3832622,-122.0789141,2.959999997243285,0.0,0.1,31.368622,1619736225000
Fix,GT,37.3832622,-122.0789141,2.96000003721565,0.0014142136,0.1,31.36731,1619736226000
Fix,GT,37.3832622,-122.0789141,2.959000077161938,0.0014142137,0.1,31.365906,1619736227000
Fix,GT,37.3832622,-122.0789141,2.958999940750655,0.0014142136,0.099,31.364624,1619736228000
Fix,GT,37.3832622,-122.0789141,2.958999980709516,0.0014142136,0.1,31.363281,1619736229000
Fix,GT,37.3832622,-122.0789141,2.959000049604103,0.0014142137,0.1,31.362122,1619736230000
Fix,GT,37.3832622,-122.0789141,2.9589999435064382,0.0014142134,0.1,31.360962,1619736231000
Fix,GT,37.3832622,-122.0789141,2.9590000124010256,0.0014142136,0.1,31.35968,1619736232000
Fix,GT,37.3832622,-122.0789141,2.959000082673505,0.0014121779,0.1,31.358276,1619736233000
Fix,GT,37.3832622,-122.0789141,2.958999946262222,4.91057e-06,0.1,31.3573,1619736234000
Fix,GT,37.3832622,-122.0789141,2.958999955907464,0.0014121812,0.1,31.355835,1619736235000
Fix,GT,37.3832622,-122.0789141,2.958999966930598,0.001,0.1,31.354584,1619736236000
Fix,GT,37.3832622,-122.0789141,2.959000006889459,0.001,0.1,31.353607,1619736237000
Fix,GT,37.3832622,-122.0789141,2.9590000468483195,0.0010000002,0.1,31.352173,1619736238000
Fix,GT,37.3832622,-122.0789141,2.95900008680718,0.0030000003,0.1,31.350891,1619736239000
Fix,GT,37.3832623,-122.078914,2.957999950412661,0.0041231057,0.1,31.34961,1619736240000
Fix,GT,37.3832623,-122.078914,2.9580000192839657,0.0050990195,0.1,31.348389,1619736241000
Fix,GT,37.3832623,-122.078914,2.957000030293129,0.00728011,0.1,31.347046,1619736242000
Fix,GT,37.3832623,-122.0789141,2.957000039931852,0.0064244135,0.1,31.348267,1619736243000
Fix,GT,37.3832607,-122.0789108,2.951999934017658,0.74833107,0.1,31.350159,1619736244000
Fix,GT,37.3832553,-122.0788997,2.9600048695364967,1.5702071,0.1,31.313019,1619736245000
Fix,GT,37.3832457,-122.0788802,2.969000042859,2.5553749,0.1,31.093903,1619736246000
Fix,GT,37.3832304,-122.0788483,2.989014512464404,4.137423,0.1,29.917023,1619736247000
Fix,GT,37.3832095,-122.0788008,3.020029105192981,6.028713,0.099,26.234192,1619736248000
Fix,GT,37.3831847,-122.0787333,3.116043705801014,7.3292556,0.1,23.334106,1619736249000
Fix,GT,37.3831561,-122.078652,3.1770776421194897,8.28228,0.1,24.088013,1619736250000
Fix,GT,37.3831212,-122.0785612,3.2660193489072844,9.084904,0.1,27.238342,1619736251000
Fix,GT,37.3830806,-122.0784704,3.309990343678743,8.984213,0.1,30.574493,1619736252000
Fix,GT,37.3830388,-122.0783844,3.330029076498002,8.789212,0.1,31.227661,1619736253000
Fix,GT,37.3829976,-122.0783009,3.3710145729975776,8.581479,0.1,31.463165,1619736254000
Fix,GT,37.3829572,-122.0782196,3.4299951298651288,8.302685,0.1,31.789032,1619736255000
Fix,GT,37.382919,-122.0781436,3.477028941418044,7.541467,0.1,31.842743,1619736256000
Fix,GT,37.3828852,-122.0780764,3.5140192925240843,6.4788413,0.1,31.664673,1619736257000
Fix,GT,37.3828579,-122.0780215,3.54501932462072,4.8898563,0.1,31.42389,1619736258000
Fix,GT,37.3828395,-122.0779841,3.566999900339172,2.9346766,0.1,31.26474,1619736259000
Fix,GT,37.3828288,-122.0779624,3.577009562564548,1.6654948,0.1,31.520966,1619736260000
Fix,GT,37.3828236,-122.0779519,3.5869951568022374,0.56017375,0.1,31.5542,1619736261000
Fix,GT,37.3828221,-122.0779489,3.5850000450736843,0.06399671,0.1,31.554321,1619736262000
Fix,GT,37.3828221,-122.0779489,3.5819999516280365,0.0042665056,0.099,31.554382,1619736263000
Fix,GT,37.3828221,-122.0779489,3.582,0.0036122324,0.1,31.553375,1619736264000
Fix,GT,37.3828221,-122.0779489,3.581000048358459,0.0031643999,0.1,31.550385,1619736265000
Fix,GT,37.3828221,-122.0779489,3.581000096716918,0.0030007763,0.1,31.547546,1619736266000
Fix,GT,37.3828221,-122.0779489,3.5809998949454167,0.0019999999,0.1,31.5448,1619736267000
Fix,GT,37.3828221,-122.0779489,3.580999943303876,0.0022349406,0.099,31.542175,1619736268000
Fix,GT,37.3828221,-122.0779489,3.5809999916623347,0.001,0.1,31.53952,1619736269000
Fix,GT,37.3828221,-122.0779489,3.581000005002599,0.001,0.1,31.537048,1619736270000
Fix,GT,37.3828221,-122.0779489,3.5810000166753304,0.0010000002,0.1,31.534424,1619736271000
Fix,GT,37.3828221,-122.0779489,3.581000065033789,0.0009952408,0.1,31.531342,1619736272000
Fix,GT,37.3828221,-122.0779489,3.5810000783740543,0.001,0.1,31.528412,1619736273000
Fix,GT,37.3828221,-122.0779489,3.5809999132882804,0.0,0.1,31.525421,1619736274000
Fix,GT,37.3828221,-122.0779489,3.5809999616467394,0.0,0.1,31.522614,1619736275000
Fix,GT,37.3828221,-122.077949,3.5739952299818394,0.0014122487,0.1,31.520264,1619736276000
Fix,GT,37.382822,-122.0779491,3.5639999867230654,0.0,0.1,31.517883,1619736277000
Fix,GT,37.382822,-122.0779491,3.5640000348519534,4.73542e-06,0.1,31.515015,1619736278000
Fix,GT,37.382822,-122.0779491,3.5640000829808414,0.001,0.1,31.511963,1619736279000
Fix,GT,37.382822,-122.0779491,3.563999918678776,4.7274602e-06,0.1,31.509369,1619736280000
Fix,GT,37.382822,-122.0779491,3.563999966807664,0.0009952766,0.1,31.50644,1619736281000
Fix,GT,37.382822,-122.0779491,3.563999980084598,0.0019952806,0.1,31.503845,1619736282000
Fix,GT,37.382822,-122.0779491,3.5640000282134863,0.001,0.1,31.501312,1619736283000
Fix,GT,37.382822,-122.0779491,3.5640000049788507,0.001,0.1,31.498352,1619736284000
Fix,GT,37.382822,-122.0779491,3.564000016596168,0.00100195,0.1,31.495422,1619736285000
Fix,GT,37.382822,-122.0779491,3.5639999933615325,0.001,0.1,31.492859,1619736286000
Fix,GT,37.382822,-122.0779491,3.564000006638468,0.001412267,0.1,31.48996,1619736287000
Fix,GT,37.382822,-122.0779491,3.564000018255785,0.0014122686,0.1,31.48761,1619736288000
Fix,GT,37.382822,-122.0779491,3.56400003153272,0.0014142136,0.1,31.484802,1619736289000
Fix,GT,37.382822,-122.0779491,3.564000043150038,0.0,0.1,31.481964,1619736290000
Fix,GT,37.382822,-122.0779491,3.564000056426972,0.0,0.1,31.479004,1619736291000
Fix,GT,37.382822,-122.0779491,3.56400010455586,0.0014142137,0.1,31.476135,1619736292000
Fix,GT,37.382822,-122.0779491,3.5639999402537943,0.0014142134,0.1,31.473175,1619736293000
Fix,GT,37.382822,-122.0779492,3.563999953530729,0.0014180529,0.1,31.470276,1619736294000
Fix,GT,37.382822,-122.0779492,3.5640000016596165,0.0014180498,0.1,31.467499,1619736295000
Fix,GT,37.382822,-122.0779492,3.563995386128314,0.0014142136,0.1,31.464325,1619736296000
Fix,GT,37.382822,-122.0779493,3.5509907781998624,0.0009953404,0.1,31.461334,1619736297000
Fix,GT,37.382822,-122.0779494,3.546000074305572,0.002236068,0.1,31.458252,1619736298000
Fix,GT,37.382822,-122.0779494,3.5460000511882828,0.006406232,0.1,31.455383,1619736299000
Fix,GT,37.382822,-122.0779494,3.546000062746927,0.012041596,0.1,31.452423,1619736300000
Fix,GT,37.382822,-122.0779494,3.545000075935386,0.021922043,0.1,31.44928,1619736301000
Fix,GT,37.3828205,-122.0779464,3.5340000872192903,1.0430262,0.1,31.462708,1619736302000
Fix,GT,37.3828105,-122.0779259,3.5490139368474485,3.1450536,0.1,31.580261,1619736303000
Fix,GT,37.3827916,-122.0778869,3.581018605254125,4.9141564,0.1,31.13443,1619736304000
Fix,GT,37.3827685,-122.0778338,3.606032449452672,6.2163243,0.1,23.945892,1619736305000
Fix,GT,37.3827531,-122.0777704,3.657046269555112,6.9209,0.1,9.567322,1619736306000
Fix,GT,37.3827524,-122.0776985,3.659963123887777,7.5457773,0.1,351.80844,1619736307000
Fix,GT,37.3827722,-122.0776243,3.576884663134813,8.28281,0.1,332.20633,1619736308000
Fix,GT,37.382815,-122.0775548,3.297866323747672,9.161457,0.1,313.527,1619736309000
Fix,GT,37.3828809,-122.0774961,3.183884878653568,10.105425,0.1,300.52515,1619736310000
Fix,GT,37.3829631,-122.0774393,3.069990720961243,10.815885,0.1,298.99643,1619736311000
Fix,GT,37.3830513,-122.0773788,3.019981661390513,11.380487,0.1,299.2887,1619736312000
Fix,GT,37.3831419,-122.077315,2.9109540816103108,11.665119,0.1,299.82678,1619736313000
Fix,GT,37.3832354,-122.0772478,2.7669265779089183,12.179633,0.1,300.14734,1619736314000
Fix,GT,37.3833321,-122.0771772,2.612917447941844,12.481537,0.1,300.24277,1619736315000
Fix,GT,37.3834285,-122.077107,2.508977091614157,12.174724,0.1,300.1029,1619736316000
Fix,GT,37.3835216,-122.0770388,2.442977119252086,11.747497,0.1,300.34012,1619736317000
Fix,GT,37.3836116,-122.0769723,2.3999771478213368,11.391221,0.1,300.59604,1619736318000
Fix,GT,37.3836989,-122.076907,2.3379634592710064,11.111419,0.1,301.0099,1619736319000
Fix,GT,37.3837852,-122.0768414,2.303963499281555,11.280583,0.1,301.23306,1619736320000
Fix,GT,37.3838719,-122.0767755,2.2619863348728977,11.191366,0.1,301.56174,1619736321000
Fix,GT,37.3839578,-122.0767096,2.182904298251495,11.209685,0.1,301.65863,1619736322000
Fix,GT,37.384044,-122.0766441,2.019945387180895,11.251981,0.1,301.56808,1619736323000
Fix,GT,37.3841299,-122.0765775,1.8909363154894672,11.115991,0.1,301.8678,1619736324000
Fix,GT,37.384214,-122.0765125,1.79495454991702,10.90631,0.1,301.55426,1619736325000
Fix,GT,37.3842974,-122.0764484,1.717954577498138,10.808078,0.1,301.86368,1619736326000
Fix,GT,37.3843798,-122.0763839,1.645000020682346,10.751383,0.1,302.30322,1619736327000
Fix,GT,37.3844613,-122.0763196,1.5849773619323968,10.658216,0.1,302.0489,1619736328000
Fix,GT,37.3845428,-122.0762552,1.5610363016426565,10.684434,0.1,302.22565,1619736329000
Fix,GT,37.3846233,-122.076191,1.528986375716515,10.416778,0.1,302.41528,1619736330000
Fix,GT,37.3847003,-122.0761296,1.4729773611947894,9.787524,0.1,302.06155,1619736331000
Fix,GT,37.3847703,-122.076075,1.428981906970963,8.416542,0.1,301.34912,1619736332000
Fix,GT,37.3848282,-122.0760308,1.3949909460535272,6.5665336,0.1,300.87613,1619736333000
Fix,GT,37.3848702,-122.0759992,1.3749864609483629,4.2618623,0.1,300.6247,1619736334000
Fix,GT,37.3848957,-122.0759801,1.3369819427146576,2.610614,0.099,300.47058,1619736335000
Fix,GT,37.3849145,-122.0759662,1.3079775120224804,2.3552184,0.1,300.40424,1619736336000
Fix,GT,37.3849349,-122.075951,1.269995472254697,3.087229,0.1,300.52136,1619736337000
Fix,GT,37.3849608,-122.0759316,1.2489999773171732,3.377604,0.099,300.6762,1619736338000
Fix,GT,37.3849831,-122.0759151,1.2460314252227545,2.1076553,0.1,300.51364,1619736339000
Fix,GT,37.3849944,-122.0759069,1.214008962392807,1.1906157,0.1,300.39166,1619736340000
Fix,GT,37.3850063,-122.0758985,1.19297308661649,2.2800195,0.1,297.7869,1619736341000
Fix,GT,37.3850279,-122.0758875,1.152986555167474,4.3420086,0.1,284.0391,1619736342000
Fix,GT,37.3850644,-122.0758852,1.1139999880688267,5.7981386,0.1,260.7873,1619736343000
Fix,GT,37.385107,-122.0759073,1.0349016184499489,6.9709487,0.1,235.48499,1619736344000
Fix,GT,37.3851494,-122.0759622,0.9289776749406012,8.350618,0.1,216.78293,1619736345000
Fix,GT,37.3851926,-122.0760465,0.863982169508934,9.858768,0.1,211.90364,1619736346000
Fix,GT,37.3852402,-122.0761473,0.8149419974600896,10.822735,0.1,211.11768,1619736347000
Fix,GT,37.3852904,-122.0762539,0.7309598856605589,10.934248,0.1,211.4524,1619736348000
Fix,GT,37.3853405,-122.0763588,0.6419732749052346,10.666953,0.099,211.51137,1619736349000
Fix,GT,37.3853874,-122.0764568,0.6099955481975339,9.288971,0.1,211.69632,1619736350000
Fix,GT,37.3854257,-122.0765367,0.5569688898632303,7.401372,0.1,211.51541,1619736351000
Fix,GT,37.3854577,-122.0766047,0.5100532769272104,6.8292003,0.1,211.49759,1619736352000
Fix,GT,37.3854886,-122.0766693,0.4869778119167313,6.5556526,0.1,211.54184,1619736353000
Fix,GT,37.3855186,-122.0767336,0.4469822617373429,6.65593,0.1,209.41075,1619736354000
Fix,GT,37.3855406,-122.0767939,0.432004415848758,6.202803,0.099,197.00406,1619736355000
Fix,GT,37.3855437,-122.0768479,0.3839469045996665,5.9103456,0.1,171.80121,1619736356000
Fix,GT,37.3855274,-122.0768942,0.3570044161602854,6.0190506,0.1,142.69824,1619736357000
Fix,GT,37.3854889,-122.0769378,0.4320220731059089,6.938534,0.099,128.33194,1619736358000
Fix,GT,37.3854351,-122.076984,0.4660220540720038,8.00575,0.1,123.72345,1619736359000
Fix,GT,37.3853701,-122.0770344,0.5200264383070171,9.1639,0.1,122.30194,1619736360000
Fix,GT,37.3852954,-122.0770909,0.5930440314826555,10.251709,0.099,121.68451,1619736361000
Fix,GT,37.3852139,-122.0771517,0.6810175915244037,10.7965555,0.1,121.525635,1619736362000
Fix,GT,37.3851289,-122.0772154,0.7470263621234334,11.227887,0.1,121.69061,1619736363000
Fix,GT,37.3850413,-122.0772817,0.8230570846721529,11.559149,0.099,121.53821,1619736364000
Fix,GT,37.3849512,-122.0773484,0.9010482584536076,11.76675,0.1,120.714935,1619736365000
Fix,GT,37.3848594,-122.0774149,0.9860394584401512,11.873633,0.1,120.09161,1619736366000
Fix,GT,37.3847661,-122.0774806,1.065061327185482,11.99467,0.1,119.309265,1619736367000
Fix,GT,37.384671,-122.0775455,1.1530262660309674,12.147184,0.1,118.721375,1619736368000
Fix,GT,37.3845742,-122.0776105,1.2390349912685343,12.292151,0.1,118.27551,1619736369000
Fix,GT,37.3844759,-122.077676,1.3310393335539847,12.369416,0.1,118.7139,1619736370000
Fix,GT,37.384378,-122.0777433,1.4150393180549146,12.368229,0.1,119.32269,1619736371000
Fix,GT,37.3842812,-122.0778111,1.5100522805852816,12.2347355,0.099,119.64151,1619736372000
Fix,GT,37.3841859,-122.0778784,1.5970217420859265,12.044752,0.1,119.42651,1619736373000
Fix,GT,37.3840924,-122.0779435,1.6720217265146784,11.739152,0.1,118.70755,1619736374000
Fix,GT,37.3840008,-122.0780052,1.7450477834697815,11.377179,0.099,118.24002,1619736375000
Fix,GT,37.3839119,-122.0780655,1.8300261127296835,11.001732,0.1,118.7056,1619736376000
Fix,GT,37.3838264,-122.0781251,1.8850434576207773,10.635481,0.1,119.35394,1619736377000
Fix,GT,37.3837443,-122.078184,1.9640520022399723,10.337309,0.099,119.84906,1619736378000
Fix,GT,37.3836647,-122.0782422,2.0409522957904263,10.091225,0.1,120.36771,1619736379000
Fix,GT,37.3835872,-122.0783004,2.0780129637913776,9.8634205,0.1,121.03317,1619736380000
Fix,GT,37.3835128,-122.0783577,2.1410562028530986,9.379701,0.1,121.67786,1619736381000
Fix,GT,37.3834447,-122.0784118,2.222008633516729,8.302329,0.1,122.25903,1619736382000
Fix,GT,37.3833881,-122.0784584,2.295030215798877,6.4662066,0.1,123.76242,1619736383000
Fix,GT,37.3833463,-122.0784962,2.364012922859285,4.71788,0.1,126.72824,1619736384000
Fix,GT,37.3833195,-122.0785236,2.354004302919377,2.6718113,0.1,129.87689,1619736385000
Fix,GT,37.3833055,-122.07854,2.388030133093708,1.7247192,0.1,132.19653,1619736386000
Fix,GT,37.3832908,-122.0785597,2.4100300894025715,2.5499074,0.1,140.33307,1619736387000
Fix,GT,37.3832716,-122.0786004,2.495051552394405,4.3858624,0.1,156.5459,1619736388000
Fix,GT,37.383259,-122.078671,2.6010042706187813,6.4973903,0.1,177.11047,1619736389000
Fix,GT,37.3832694,-122.0787651,2.696042898210697,8.54342,0.1,197.46538,1619736390000
Fix,GT,37.3833094,-122.0788737,2.7129571782415733,11.565504,0.1,209.73894,1619736391000
Fix,GT,37.3833711,-122.0790022,2.640004312423058,14.874236,0.1,211.12999,1619736392000
Fix,GT,37.3834491,-122.0791605,2.581970079207793,18.049421,0.1,211.54808,1619736393000
Fix,GT,37.383541,-122.0793465,2.4869658422456125,20.01498,0.1,211.53612,1619736394000
Fix,GT,37.3836369,-122.0795391,2.414953053575009,20.092958,0.1,211.87605,1619736395000
Fix,GT,37.3837341,-122.0797333,2.290944575629197,20.43369,0.1,211.70009,1619736396000
Fix,GT,37.3838309,-122.0799282,2.230948917633854,20.184626,0.1,211.74197,1619736397000
Fix,GT,37.3839266,-122.0801201,2.140012797402218,19.86751,0.1,211.80234,1619736398000
Fix,GT,37.3840204,-122.0803086,2.077948983548209,19.499372,0.1,211.70001,1619736399000
Fix,GT,37.3841124,-122.080494,1.975021242499352,19.161762,0.1,211.77893,1619736400000
Fix,GT,37.3842032,-122.0806758,1.894987273529172,18.828423,0.1,211.88884,1619736401000
Fix,GT,37.3842922,-122.0808546,1.791974533636123,18.52893,0.1,211.59596,1619736402000
Fix,GT,37.3843803,-122.0810321,1.7259660742450509,18.502607,0.1,211.94838,1619736403000
Fix,GT,37.3844689,-122.0812091,1.649974594892934,18.570997,0.099,211.7205,1619736404000
Fix,GT,37.3845582,-122.0813897,1.6109365526922046,19.137722,0.1,211.42172,1619736405000
Fix,GT,37.3846495,-122.0815761,1.515919705878943,19.50471,0.1,211.48642,1619736406000
Fix,GT,37.3847421,-122.0817635,1.397999964846298,19.489862,0.099,211.67006,1619736407000
Fix,GT,37.3848343,-122.0819501,1.3709873887449504,19.421452,0.1,211.45816,1619736408000
Fix,GT,37.3849258,-122.0821353,1.3549873914644122,19.104282,0.1,211.56483,1619736409000
Fix,GT,37.3850148,-122.0823161,1.3469873807430266,18.495771,0.1,211.50446,1619736410000
Fix,GT,37.3851007,-122.0824905,1.3079916019234807,17.803625,0.1,211.57181,1619736411000
Fix,GT,37.3851832,-122.0826576,1.2520126038920134,16.97157,0.1,211.48193,1619736412000
Fix,GT,37.385261,-122.0828158,1.240962238162756,15.84441,0.1,211.55353,1619736413000
Fix,GT,37.3853332,-122.0829616,1.1849874328644947,14.474512,0.1,211.88467,1619736414000
Fix,GT,37.3853994,-122.083094,1.1639706829306669,13.329476,0.1,212.00032,1619736415000
Fix,GT,37.3854606,-122.0832164,1.114983257167507,12.279848,0.1,211.52974,1619736416000
Fix,GT,37.3855156,-122.0833284,1.0659832664234563,10.93148,0.1,211.50815,1619736417000
Fix,GT,37.3855637,-122.0834267,1.0209790997095405,9.503977,0.1,211.53052,1619736418000
Fix,GT,37.3856055,-122.0835109,0.9759916317416356,8.004125,0.099,211.81499,1619736419000
Fix,GT,37.38564,-122.0835797,0.9599791761254892,6.376796,0.1,211.88683,1619736420000
Fix,GT,37.3856664,-122.0836324,0.9479958385699429,4.6018085,0.1,211.87057,1619736421000
Fix,GT,37.3856844,-122.0836683,0.9399916758956388,2.895515,0.1,212.24486,1619736422000
Fix,GT,37.3856952,-122.0836893,0.9369958247281612,1.6298094,0.1,212.38849,1619736423000
Fix,GT,37.3857006,-122.0836996,0.9309999752887526,0.564832,0.1,212.39848,1619736424000
Fix,GT,37.3857015,-122.0837011,0.9220041639562696,0.035795946,0.1,212.3999,1619736425000
Fix,GT,37.3857016,-122.0837011,0.921000000428874,0.0014232956,0.1,212.4018,1619736426000
Fix,GT,37.3857016,-122.083701,0.9179917134623976,0.0014124985,0.1,212.4009,1619736427000
Fix,GT,37.3857016,-122.0837009,0.9109958520559596,0.001,0.1,212.40028,1619736428000
Fix,GT,37.3857018,-122.0837006,0.8929999829507433,0.001,0.099,212.39983,1619736429000
Fix,GT,37.3857018,-122.0837006,0.8919999771546572,0.0019999999,0.1,212.3994,1619736430000
Fix,GT,37.3857018,-122.0837006,0.8920000245068223,0.002236068,0.1,212.39911,1619736431000
Fix,GT,37.3857018,-122.0837006,0.892000018691644,0.0022360682,0.1,212.39877,1619736432000
Fix,GT,37.3857018,-122.0837006,0.892,0.002236068,0.1,-147.60178,1619736433000
Fix,GT,37.3857018,-122.0837006,0.8920000070612878,0.002236068,0.1,212.39774,1619736434000
Fix,GT,37.3857018,-122.0837006,0.8920000012461097,0.002236068,0.1,212.39728,1619736435000
Fix,GT,37.3857018,-122.0837006,0.8919999867081643,0.002236068,0.1,212.39679,1619736436000
Fix,GT,37.3857018,-122.0837006,0.892,0.002236068,0.1,-147.60371,1619736437000
Fix,GT,37.3857018,-122.0837006,0.8919999838005751,0.002236068,0.1,212.3958,1619736438000
Fix,GT,37.3857018,-122.0837006,0.892,0.002236068,0.1,-147.6047,1619736439000
Fix,GT,37.3857018,-122.0837006,0.8920000166147948,0.002236068,0.1,212.39484,1619736440000
Fix,GT,37.3857018,-122.0837006,0.8920000195223838,0.002232711,0.1,212.39433,1619736441000
Fix,GT,37.3857018,-122.0837006,0.8920000049844384,0.0022327146,0.1,212.39389,1619736442000
