MessageType,Provider,LatitudeDegrees,LongitudeDegrees,AltitudeMeters,SpeedMps,AccuracyMeters,BearingDegrees,UnixTimeMillis
Fix,GT,34.1719476,-118.5413402,206.797,0.0009986503,0.1,358.3109,1638989542999
Fix,GT,34.1719476,-118.5413402,206.797,0.001,0.1,358.31042,1638989543999
Fix,GT,34.1719476,-118.5413402,206.797,0.0014136519,0.1,358.31003,1638989544999
Fix,GT,34.1719476,-118.5413402,206.797,0.0036049488,0.1,358.31003,1638989545999
Fix,GT,34.1719476,-118.5413402,206.797,0.0,0.1,358.3096,1638989546999
Fix,GT,34.1719476,-118.5413402,206.797,0.001,0.1,358.30804,1638989547999
Fix,GT,34.1719476,-118.5413402,206.797,0.0009986311,0.1,358.30762,1638989548999
Fix,GT,34.1719476,-118.5413402,206.797,0.001,0.1,358.3072,1638989549999
Fix,GT,34.1719476,-118.5413402,206.797,0.006398667,0.1,358.30673,1638989550999
Fix,GT,34.1719476,-118.5413402,206.797,0.0036036635,0.1,358.3071,1638989551999
Fix,GT,34.1719476,-118.5413402,206.797,0.0014193049,0.1,358.30518,1638989552999
Fix,GT,34.1719476,-118.5413402,206.797,0.0036025168,0.1,358.3047,1638989553999
Fix,GT,34.1719476,-118.5413402,206.797,0.001,0.1,358.30396,1638989554999
Fix,GT,34.1719476,-118.5413402,206.797,0.0010005763,0.1,358.3036,1638989555999
Fix,GT,34.1719476,-118.5413402,206.797,0.0010005777,0.1,358.30328,1638989556999
Fix,GT,34.1719476,-118.5413402,206.797,0.0019991812,0.1,358.30267,1638989557999
Fix,GT,34.1719476,-118.5413402,206.797,0.0010005803,0.1,358.3025,1638989558999
Fix,GT,34.1719476,-118.5413402,206.797,0.001001404,0.1,358.30185,1638989559999
Fix,GT,34.1719476,-118.5413402,206.797,0.0014150379,0.1,358.3014,1638989560999
Fix,GT,34.1719476,-118.5413402,206.797,0.0014142136,0.1,358.3007,1638989561999
Fix,GT,34.1719476,-118.5413402,206.797,0.0014142136,0.1,358.30038,1638989562999
Fix,GT,34.1719476,-118.5413402,206.797,0.0014142136,0.1,358.30002,1638989563999
Fix,GT,34.1719476,-118.5413402,206.797,0.0010005882,0.1,358.2995,1638989564999
Fix,GT,34.1719476,-118.5413402,206.797,0.0010005896,0.1,358.29932,1638989565999
Fix,GT,34.1719476,-118.5413402,206.797,0.0010005909,0.1,358.29825,1638989566999
Fix,GT,34.1719476,-118.5413402,206.797,0.0019985705,0.1,358.29788,1638989567999
Fix,GT,34.1719476,-118.5413402,206.797,0.002,0.1,358.2975,1638989568999
Fix,GT,34.1719476,-118.5413402,206.797,0.0031620446,0.1,358.29715,1638989569999
Fix,GT,34.1719476,-118.5413402,206.797,0.005097615,0.1,358.29648,1638989570999
Fix,GT,34.1719476,-118.5413402,206.797,0.0053851646,0.1,358.29605,1638989571999
Fix,GT,34.1719476,-118.5413402,206.797,0.0063231974,0.1,358.29517,1638989572999
Fix,GT,34.1719476,-118.5413402,206.797,0.005830952,0.1,358.29446,1638989573999
Fix,GT,34.1719476,-118.5413402,206.797,0.0036068095,0.1,358.29382,1638989574999
Fix,GT,34.1719476,-118.5413402,206.797,0.0010014552,0.1,358.2933,1638989575999
Fix,GT,34.1719476,-118.5413402,206.797,0.0049985414,0.1,358.2925,1638989576999
Fix,GT,34.1719476,-118.5413402,206.797,0.011704258,0.1,358.29175,1638989577999
Fix,GT,34.1719476,-118.5413402,206.796,0.023407103,0.1,358.29102,1638989578999
Fix,GT,34.1719473,-118.5413403,206.795,0.036397815,0.1,358.28986,1638989579999
Fix,GT,34.171947,-118.5413405,206.79499852889776,0.05371148,0.1,358.28854,1638989580999
Fix,GT,34.1719464,-118.5413407,206.795,0.072896555,0.1,358.2778,1638989581999
Fix,GT,34.1719433,-118.5413407,206.78600295507908,0.7241885,0.1,359.0672,1638989582999
Fix,GT,34.1719344,-118.5413388,206.7580029613972,1.0599798,0.1,5.9986877,1638989583999
Fix,GT,34.171922,-118.5413369,206.74,1.3963908,0.1,19.80307,1638989584999
Fix,GT,34.171907,-118.541339,206.7150044614077,1.499944,0.1,36.799713,1638989585999
Fix,GT,34.1718932,-118.5413459,206.65900745147465,1.3498371,0.1,53.31421,1638989586999
Fix,GT,34.1718831,-118.5413552,206.66999551945923,1.1476917,0.1,67.42316,1638989587999
Fix,GT,34.1718778,-118.5413626,206.671,0.23911762,0.1,75.46057,1638989588999
Fix,GT,34.1718772,-118.5413634,206.67100299978256,0.08987232,0.1,75.592224,1638989589999
Fix,GT,34.1718768,-118.541364,206.669,0.07000091,0.1,75.73874,1638989590999
Fix,GT,34.1718766,-118.5413642,206.669,0.055474896,0.1,75.737854,1638989591999
Fix,GT,34.1718763,-118.5413647,206.668,0.034717612,0.1,75.77768,1638989592999
Fix,GT,34.1718767,-118.5413619,206.664,0.6065128,0.1,76.371796,1638989593999
Fix,GT,34.1718767,-118.5413522,206.665,1.0956883,0.1,80.888855,1638989594999
Fix,GT,34.1718766,-118.5413421,206.6700015190244,0.84072375,0.1,84.48468,1638989595999
Fix,GT,34.1718764,-118.5413336,206.66800152230263,0.73864263,0.1,86.561066,1638989596999
Fix,GT,34.1718765,-118.5413268,206.661,0.501889,0.1,87.39859,1638989597999
Fix,GT,34.1718765,-118.5413234,206.659,0.100186236,0.1,87.707275,1638989598999
Fix,GT,34.1718765,-118.5413234,206.65699846810105,0.00412914,0.1,87.72427,1638989599999
Fix,GT,34.1718765,-118.5413234,206.657,0.0041261143,0.1,87.72363,1638989600999
Fix,GT,34.1718765,-118.5413234,206.657,0.00509604,0.1,87.72272,1638989601999
Fix,GT,34.1718765,-118.5413234,206.657,0.0010019053,0.1,87.72171,1638989602999
Fix,GT,34.1718765,-118.5413234,206.657,0.001,0.1,87.7211,1638989603999
Fix,GT,34.1718765,-118.5413234,206.657,0.0014142136,0.1,87.72052,1638989604999
Fix,GT,34.1718765,-118.5413234,206.657,0.0014142136,0.1,87.72015,1638989605999
Fix,GT,34.1718765,-118.5413234,206.657,0.0014135697,0.1,87.719635,1638989606999
Fix,GT,34.1718765,-118.5413234,206.657,0.0014142136,0.1,87.71927,1638989607999
Fix,GT,34.1718765,-118.5413234,206.657,0.0014135671,0.1,87.71875,1638989608999
Fix,GT,34.1718765,-118.5413234,206.657,0.0014135658,0.1,87.71796,1638989609999
Fix,GT,34.1718765,-118.5413234,206.657,0.0,0.1,87.717285,1638989610999
Fix,GT,34.1718765,-118.5413234,206.657,0.0,0.1,87.71698,1638989611999
Fix,GT,34.1718765,-118.5413234,206.657,0.002236068,0.1,87.71649,1638989612999
Fix,GT,34.1718765,-118.5413234,206.657,0.0036055513,0.1,87.716156,1638989613999
Fix,GT,34.1718765,-118.5413234,206.656,0.005830952,0.1,87.715454,1638989614999
Fix,GT,34.1718764,-118.5413235,206.6540015832186,0.0078115035,0.1,87.71521,1638989615999
Fix,GT,34.1718764,-118.5413211,206.649,0.58018744,0.1,87.94617,1638989616999
Fix,GT,34.1718763,-118.5413107,206.6380047687888,1.3791895,0.1,88.88281,1638989617999
Fix,GT,34.1718759,-118.5412902,206.62200318562984,2.3779027,0.1,90.02698,1638989618999
Fix,GT,34.1718755,-118.5412602,206.6299952120781,3.1451457,0.1,90.21991,1638989619999
Fix,GT,34.1718749,-118.5412225,206.6140111943484,3.8025222,0.1,90.79236,1638989620999
Fix,GT,34.1718735,-118.5411778,206.5920080114603,4.471697,0.1,91.61249,1638989621999
Fix,GT,34.1718722,-118.5411266,206.58800160557035,4.80496,0.1,91.4736,1638989622999
Fix,GT,34.1718715,-118.5410753,206.56700160878896,4.597932,0.1,90.82562,1638989623999
Fix,GT,34.1718711,-118.5410265,206.5680096720457,4.4261723,0.1,90.564514,1638989624999
Fix,GT,34.1718707,-118.5409801,206.5379983847737,4.0941586,0.1,90.30084,1638989625999
Fix,GT,34.1718704,-118.5409381,206.53,3.6262245,0.1,90.19531,1638989626999
Fix,GT,34.1718706,-118.5409029,206.5060048648119,2.844198,0.1,89.79535,1638989627999
Fix,GT,34.1718707,-118.5408744,206.46500487446784,2.5902572,0.1,90.27789,1638989628999
Fix,GT,34.171871,-118.5408496,206.439,1.8258188,0.1,90.20651,1638989629999
Fix,GT,34.1718722,-118.5408336,206.42300652480125,1.4044381,0.1,88.087616,1638989630999
Fix,GT,34.1718785,-118.5408117,206.3960196130276,2.6513457,0.1,76.81122,1638989631999
Fix,GT,34.1718972,-118.5407795,206.1540458521843,3.6946392,0.1,55.854095,1638989632999
Fix,GT,34.1719334,-118.540751,206.2509917960167,4.7970953,0.1,32.58185,1638989633999
Fix,GT,34.1719849,-118.5407327,206.190026304245,6.3098135,0.1,14.726257,1638989634999
Fix,GT,34.1720452,-118.5407205,206.1230148245692,7.0274086,0.1,9.491852,1638989635999
Fix,GT,34.1721016,-118.5407109,206.06601320314408,6.427223,0.1,9.38092,1638989636999
Fix,GT,34.1721529,-118.5407004,205.99801322889329,5.010043,0.1,9.891785,1638989637999
Fix,GT,34.1721907,-118.5406921,205.92200994062424,3.680468,0.1,11.38974,1638989638999
Fix,GT,34.1722164,-118.540685,205.8680165998936,2.378262,0.1,13.970978,1638989639999
Fix,GT,34.1722374,-118.5406739,205.82100665283204,3.0736144,0.1,22.678284,1638989640999
Fix,GT,34.1722634,-118.5406469,205.75000166642667,4.933553,0.1,40.630005,1638989641999
Fix,GT,34.1722856,-118.5405943,205.749,6.2589245,0.1,66.03058,1638989642999
Fix,GT,34.1722932,-118.5405189,205.7349966543913,8.033579,0.1,84.82211,1638989643999
Fix,GT,34.1722956,-118.5404242,205.74100502806905,9.414893,0.1,88.41092,1638989644999
Fix,GT,34.1722945,-118.5403123,205.65902015018463,11.311336,0.1,90.54755,1638989645999
Fix,GT,34.1722935,-118.5401793,205.52002523601053,13.212035,0.1,89.99353,1638989646999
Fix,GT,34.1722932,-118.5400263,205.34503539800644,14.87978,0.1,89.70242,1638989647999
Fix,GT,34.1722931,-118.5398593,205.1850371531248,15.865877,0.1,89.729034,1638989648999
Fix,GT,34.1722926,-118.5396849,205.02101861196755,16.145313,0.1,90.15219,1638989649999
Fix,GT,34.1722914,-118.5395101,204.83003221023085,16.187159,0.1,89.98093,1638989650999
Fix,GT,34.1722923,-118.5393311,204.6580322713852,16.68714,0.1,89.170135,1638989651999
Fix,GT,34.1722941,-118.5391506,204.49303743636608,16.581059,0.1,89.15555,1638989652999
Fix,GT,34.1722952,-118.5389721,204.3200187535882,16.35824,0.1,89.59387,1638989653999
Fix,GT,34.1722951,-118.538796,204.144022205174,16.12608,0.1,89.862305,1638989654999
Fix,GT,34.1722957,-118.5386223,203.9770359374881,15.894368,0.1,89.411804,1638989655999
Fix,GT,34.1722966,-118.5384512,203.821015430212,15.650317,0.1,89.67413,1638989656999
Fix,GT,34.1722967,-118.5382851,203.69902920067312,14.898161,0.1,89.79413,1638989657999
Fix,GT,34.1722968,-118.5381283,203.51604130172728,14.11512,0.1,89.703186,1638989658999
Fix,GT,34.1722974,-118.5379776,203.3660241369009,13.719244,0.1,89.421234,1638989659999
Fix,GT,34.1722989,-118.53783,203.24501727342607,13.506746,0.1,89.21289,1638989660999
Fix,GT,34.1722999,-118.5376829,203.0990242278576,13.739246,0.1,89.614136,1638989661999
Fix,GT,34.1722992,-118.5375336,202.96401733779908,13.744629,0.1,90.34387,1638989662999
Fix,GT,34.1722981,-118.5373853,202.8100295279622,13.583483,0.1,90.27258,1638989663999
Fix,GT,34.1722973,-118.5372391,202.715008700788,13.366194,0.1,90.09885,1638989664999
Fix,GT,34.1722971,-118.537097,202.59001743376257,12.749145,0.1,89.768555,1638989665999
Fix,GT,34.1722969,-118.5369649,202.499017465353,11.5503435,0.1,90.12039,1638989666999
Fix,GT,34.1722962,-118.5368482,202.3910139980316,10.116456,0.1,90.22104,1638989667999
Fix,GT,34.1722956,-118.5367442,202.29701577675343,9.077591,0.1,90.32056,1638989668999
Fix,GT,34.1722948,-118.5366532,202.20801580518489,7.6836348,0.1,90.23013,1638989669999
Fix,GT,34.1722949,-118.536575,202.1150175946951,6.6512823,0.1,89.48505,1638989670999
Fix,GT,34.1722949,-118.53651,202.03001938891413,5.381266,0.1,89.84607,1638989671999
Fix,GT,34.1722946,-118.5364581,201.95201412677764,4.2593675,0.1,89.9664,1638989672999
Fix,GT,34.1722943,-118.5364177,201.8870088453293,3.167213,0.1,90.112,1638989673999
Fix,GT,34.1722942,-118.5363904,201.8510053166747,1.8843023,0.1,90.17639,1638989674999
Fix,GT,34.1722941,-118.5363767,201.83200532633063,0.7232069,0.1,90.21713,1638989675999
Fix,GT,34.1722941,-118.5363731,201.823,0.007365133,0.1,90.23004,1638989676999
Fix,GT,34.1722941,-118.536373,201.81800178182127,0.0020142547,0.1,90.23804,1638989677999
Fix,GT,34.1722941,-118.536373,201.818,0.0014152593,0.1,90.23718,1638989678999
Fix,GT,34.1722941,-118.536373,201.818,0.0014142136,0.1,90.23569,1638989679999
Fix,GT,34.1722941,-118.536373,201.818,0.0010022145,0.1,90.23645,1638989680999
Fix,GT,34.1722941,-118.536373,201.818,0.002236068,0.1,90.23685,1638989681999
Fix,GT,34.1722941,-118.536373,201.818,0.002236068,0.1,90.23761,1638989682999
Fix,GT,34.1722941,-118.536373,201.818,0.002236068,0.1,90.238434,1638989683999
Fix,GT,34.1722941,-118.536373,201.818,0.0022345851,0.1,90.23901,1638989684999
Fix,GT,34.1722941,-118.536373,201.818,0.002236068,0.1,90.239685,1638989685999
Fix,GT,34.1722941,-118.536373,201.818,0.002236068,0.1,90.24045,1638989686999
Fix,GT,34.1722941,-118.536373,201.818,0.0022356398,0.1,90.24112,1638989687999
Fix,GT,34.1722941,-118.536373,201.818,0.0022356391,0.1,90.24185,1638989688999
Fix,GT,34.1722941,-118.536373,201.818,0.0014142136,0.1,90.242615,1638989689999
Fix,GT,34.1722941,-118.536373,201.818,0.0014142136,0.1,90.243164,1638989690999
Fix,GT,34.1722941,-118.536373,201.818,1.8267036e-06,0.1,90.24365,1638989691999
Fix,GT,34.1722941,-118.536373,201.818,0.0,0.1,90.244354,1638989692999
Fix,GT,34.1722941,-118.536373,201.818,0.001,0.1,90.24484,1638989693999
Fix,GT,34.172294,-118.536373,201.821,0.0019981638,0.1,90.24536,1638989694999
Fix,GT,34.172294,-118.536373,201.825,0.0067034485,0.1,90.24628,1638989695999
Fix,GT,34.172294,-118.5363698,201.8190055282116,0.8077219,0.1,90.27133,1638989696999
Fix,GT,34.1722939,-118.5363523,201.7970055376887,2.3857763,0.1,90.31424,1638989697999
Fix,GT,34.1722936,-118.5363168,201.74301479291915,4.148865,0.1,90.36597,1638989698999
Fix,GT,34.1722932,-118.5362628,201.6950092616677,5.9177427,0.1,90.454956,1638989699999
Fix,GT,34.1722921,-118.5361902,201.68999628901483,7.3777714,0.1,91.16931,1638989700999
Fix,GT,34.1722902,-118.5361049,201.73395167350768,8.318727,0.1,91.51553,1638989701999
Fix,GT,34.1722881,-118.5360091,201.83798882842063,9.36275,0.1,91.11841,1638989702999
Fix,GT,34.1722873,-118.5359011,201.74305408930772,10.641032,0.1,90.269775,1638989703999
Fix,GT,34.172287,-118.5357779,201.65600934153795,11.892973,0.1,89.60718,1638989704999
Fix,GT,34.1722879,-118.5356447,201.68001497221,12.475674,0.1,88.96802,1638989705999
Fix,GT,34.1722895,-118.535509,201.7929831267596,12.4935255,0.1,89.216736,1638989706999
Fix,GT,34.1722894,-118.5353716,201.78199812197687,12.997023,0.1,90.74844,1638989707999
Fix,GT,34.1722833,-118.535231,201.8579755446315,12.995095,0.1,94.30148,1638989708999
Fix,GT,34.1722695,-118.5350932,201.88000753760332,12.714688,0.1,98.31937,1638989709999
Fix,GT,34.1722474,-118.534959,201.90800755047795,12.861904,0.1,102.8194,1638989710999
Fix,GT,34.172215,-118.5348234,201.95401134467124,13.1031475,0.1,107.572296,1638989711999
Fix,GT,34.1721738,-118.5346922,202.0599678020477,12.834927,0.1,112.2637,1638989712999
Fix,GT,34.1721252,-118.5345685,202.1489715417624,12.471539,0.1,116.7847,1638989713999
Fix,GT,34.1720705,-118.5344519,202.25998479700087,12.484569,0.1,120.291534,1638989714999
Fix,GT,34.1720117,-118.5343362,202.33096954250337,12.352153,0.1,121.36609,1638989715999
Fix,GT,34.1719567,-118.5342274,202.39998665231465,11.087031,0.1,120.91516,1638989716999
Fix,GT,34.1719096,-118.5341284,202.4429866302013,10.156424,0.1,118.73303,1638989717999
Fix,GT,34.171868,-118.53403,202.47398852086064,10.205545,0.1,115.74689,1638989718999
Fix,GT,34.1718315,-118.5339291,202.55398658514025,10.023647,0.1,112.25595,1638989719999
Fix,GT,34.1718006,-118.5338257,202.6009769644737,10.313918,0.1,108.39227,1638989720999
Fix,GT,34.1717743,-118.5337158,202.70499230885508,10.692912,0.1,104.46747,1638989721999
Fix,GT,34.1717542,-118.5336016,202.75499229574203,10.774719,0.1,100.44513,1638989722999
Fix,GT,34.1717412,-118.5334822,202.8299749193192,11.47687,0.1,95.52927,1638989723999
Fix,GT,34.1717359,-118.5333537,202.9019768099785,12.077466,0.1,91.33856,1638989724999
Fix,GT,34.1717378,-118.5332219,202.98197677207,11.820035,0.1,87.391785,1638989725999
Fix,GT,34.1717463,-118.5331009,203.0379728565216,10.50149,0.1,83.80423,1638989726999
Fix,GT,34.1717583,-118.5329937,203.1159922320843,9.500931,0.1,81.85843,1638989727999
Fix,GT,34.1717673,-118.5328936,203.1729883288145,9.179913,0.1,85.585815,1638989728999
Fix,GT,34.1717671,-118.5327935,203.23299025791883,9.679218,0.1,92.1257,1638989729999
Fix,GT,34.1717554,-118.5326881,203.21401561355592,10.134053,0.1,100.11731,1638989730999
Fix,GT,34.1717295,-118.5325794,203.17501368397475,10.876673,0.1,108.6951,1638989731999
Fix,GT,34.1716867,-118.5324688,203.3249490901232,11.778469,0.1,117.522064,1638989732999
Fix,GT,34.1716318,-118.5323529,203.6609078193307,12.843117,0.1,119.52942,1638989733999
Fix,GT,34.1715748,-118.5322283,204.319842839241,13.256743,0.1,118.57013,1638989734999
Fix,GT,34.1715184,-118.5320982,205.1998248775005,13.86418,0.1,116.60849,1638989735999
Fix,GT,34.1714644,-118.5319572,206.16779699862005,14.602678,0.1,113.51196,1638989736999
Fix,GT,34.1714155,-118.5318083,207.07483022689817,14.793409,0.1,110.054504,1638989737999
Fix,GT,34.1713724,-118.5316549,207.91583588701488,15.174237,0.1,108.02963,1638989738999
Fix,GT,34.1713329,-118.5314926,208.8298237369657,15.740264,0.1,104.96274,1638989739999
Fix,GT,34.1713019,-118.5313285,209.6408432875276,15.154203,0.1,101.24826,1638989740999
Fix,GT,34.1712805,-118.5311698,210.3258827751875,14.440629,0.1,97.63092,1638989741999
Fix,GT,34.1712661,-118.5310174,210.8269104464054,13.815947,0.1,95.7785,1638989742999
Fix,GT,34.171254,-118.5308717,211.25992824125288,13.214476,0.1,96.016846,1638989743999
Fix,GT,34.1712402,-118.5307327,211.66892613106967,12.613019,0.1,97.41333,1638989744999
Fix,GT,34.1712242,-118.5306021,211.8809680051804,11.627292,0.1,98.90024,1638989745999
Fix,GT,34.1712079,-118.530484,212.0129819739461,10.371296,0.1,99.67828,1638989746999
Fix,GT,34.1711925,-118.5303796,212.1119618849754,9.254686,0.1,99.986664,1638989747999
Fix,GT,34.1711782,-118.5302854,212.281985935092,8.423981,0.1,100.28995,1638989748999
Fix,GT,34.1711653,-118.5302001,212.3579839000702,7.616086,0.1,100.31793,1638989749999
Fix,GT,34.1711539,-118.5301232,212.41098589044807,6.6252685,0.1,100.00885,1638989750999
Fix,GT,34.1711452,-118.5300603,212.44099798113103,5.0844793,0.1,99.47485,1638989751999
Fix,GT,34.1711383,-118.530009,212.442,4.5498977,0.1,99.04764,1638989752999
Fix,GT,34.1711323,-118.5299616,212.438,4.3529615,0.1,98.68158,1638989753999
Fix,GT,34.1711266,-118.5299154,212.43300202846527,4.233268,0.1,98.42468,1638989754999
Fix,GT,34.1711211,-118.529871,212.44000203168392,3.937194,0.1,98.31116,1638989755999
Fix,GT,34.1711165,-118.529833,212.44799796509744,2.9999459,0.1,98.327576,1638989756999
Fix,GT,34.171113,-118.529805,212.4430040761233,2.41055,0.1,98.28888,1638989757999
Fix,GT,34.1711097,-118.5297777,212.4360020412803,2.6614466,0.1,98.41278,1638989758999
Fix,GT,34.1711062,-118.5297498,212.4210020444989,2.6098661,0.1,98.44165,1638989759999
Fix,GT,34.1711023,-118.5297192,212.408002047658,3.2714992,0.1,98.395935,1638989760999
Fix,GT,34.1710972,-118.5296785,212.3920020508766,4.423569,0.1,98.39282,1638989761999
Fix,GT,34.1710905,-118.5296232,212.39799589180947,5.762035,0.1,98.10742,1638989762999
Fix,GT,34.1710834,-118.529559,212.4229979427457,5.962019,0.1,97.31781,1638989763999
Fix,GT,34.1710773,-118.5294961,212.4609917581081,5.7153316,0.1,96.628296,1638989764999
Fix,GT,34.1710717,-118.529434,212.4779958726168,5.932662,0.1,96.00098,1638989765999
Fix,GT,34.1710664,-118.5293668,212.49399586606023,6.504629,0.1,95.244446,1638989766999
Fix,GT,34.1710623,-118.529298,212.5059958596229,6.0468545,0.1,93.725464,1638989767999
Fix,GT,34.1710598,-118.5292356,212.496004146576,5.3329086,0.1,92.60492,1638989768999
Fix,GT,34.1710579,-118.5291825,212.48600622951983,4.441165,0.1,92.42914,1638989769999
Fix,GT,34.1710561,-118.5291362,212.47699584066868,4.2057858,0.1,92.7908,1638989770999
Fix,GT,34.1710537,-118.5290906,212.479,4.3953443,0.1,93.34625,1638989771999
Fix,GT,34.1710512,-118.5290396,212.46599582779407,5.1191936,0.1,93.24237,1638989772999
Fix,GT,34.1710492,-118.5289782,212.480997910738,6.16105,0.1,91.90668,1638989773999
Fix,GT,34.1710482,-118.5289093,212.491,6.370847,0.1,90.94824,1638989774999
Fix,GT,34.1710472,-118.5288388,212.46900419139865,6.757735,0.1,90.84009,1638989775999
Fix,GT,34.1710462,-118.5287654,212.46400419771672,6.792143,0.1,91.04184,1638989776999
Fix,GT,34.1710454,-118.5286885,212.44500210207696,7.256306,0.1,90.5813,1638989777999
Fix,GT,34.1710447,-118.5286107,212.422006315887,7.080533,0.1,90.68469,1638989778999
Fix,GT,34.1710436,-118.5285366,212.3920063253641,6.6358557,0.1,90.90863,1638989779999
Fix,GT,34.171043,-118.5284657,212.3510316751003,6.5443096,0.1,90.49356,1638989780999
Fix,GT,34.1710423,-118.5283906,212.30601057446003,7.0884094,0.1,90.51938,1638989781999
Fix,GT,34.1710417,-118.528315,212.2680063541532,6.7483177,0.1,90.411804,1638989782999
Fix,GT,34.1710414,-118.528243,212.2390084850788,6.5842056,0.1,90.24887,1638989783999
Fix,GT,34.1710412,-118.5281695,212.17801062244172,7.0019593,0.1,90.03305,1638989784999
Fix,GT,34.1710412,-118.5280927,212.12301063853505,7.1369805,0.1,89.82974,1638989785999
Fix,GT,34.1710414,-118.5280128,212.0500170469284,7.708913,0.1,89.6239,1638989786999
Fix,GT,34.1710419,-118.5279237,211.9700170726776,8.732965,0.1,89.450134,1638989787999
Fix,GT,34.1710425,-118.5278234,211.88802137303355,9.759959,0.1,89.558136,1638989788999
Fix,GT,34.1710424,-118.5277125,211.8290085618496,10.703858,0.1,90.08026,1638989789999
Fix,GT,34.1710416,-118.527594,211.7650150057673,11.010617,0.1,90.427155,1638989790999
Fix,GT,34.1710406,-118.5274743,211.6500171751976,11.022412,0.1,90.379944,1638989791999
Fix,GT,34.17104,-118.5273538,211.5770258007049,11.37004,0.1,90.22745,1638989792999
Fix,GT,34.1710396,-118.5272258,211.5280129196644,12.296755,0.1,89.984436,1638989793999
Fix,GT,34.17104,-118.527086,211.53498490452765,13.527761,0.1,89.58478,1638989794999
Fix,GT,34.1710403,-118.5269309,211.44701943689583,15.102631,0.1,89.87729,1638989795999
Fix,GT,34.1710423,-118.5267578,211.33902595448487,16.784985,0.1,88.16748,1638989796999
Fix,GT,34.17105,-118.5265691,211.20704332184792,17.815966,0.1,86.56848,1638989797999
Fix,GT,34.1710595,-118.5263731,211.0330412157774,18.37856,0.1,86.88608,1638989798999
Fix,GT,34.1710657,-118.5261718,210.8020608291626,18.595911,0.1,88.40384,1638989799999
Fix,GT,34.1710685,-118.5259735,210.51406092095377,17.894156,0.1,89.368286,1638989800999
Fix,GT,34.1710689,-118.5257856,210.21605883049963,16.72229,0.1,89.88562,1638989801999
Fix,GT,34.1710687,-118.525612,209.9090720081925,15.262316,0.1,89.971436,1638989802999
Fix,GT,34.1710689,-118.525451,209.5890633732677,14.6411295,0.1,89.671814,1638989803999
Fix,GT,34.1710693,-118.5252935,209.31005908960103,14.389118,0.1,89.7561,1638989804999
Fix,GT,34.1710692,-118.5251394,209.04105917489528,14.035147,0.1,90.084015,1638989805999
Fix,GT,34.171069,-118.524989,208.7660570669174,13.69309,0.1,89.895874,1638989806999
Fix,GT,34.1710688,-118.5248429,208.5180571506024,13.169286,0.1,90.065,1638989807999
Fix,GT,34.1710683,-118.5247062,208.27404842770105,11.870475,0.1,90.07175,1638989808999
Fix,GT,34.1710681,-118.5245851,208.0630440895557,10.523308,0.1,89.8898,1638989809999
Fix,GT,34.1710682,-118.5244777,207.86803753083944,9.395254,0.1,89.7063,1638989810999
Fix,GT,34.1710688,-118.5243804,207.69603758454323,8.614436,0.1,89.381256,1638989811999
Fix,GT,34.1710697,-118.5242913,207.53603542518616,7.9578443,0.1,89.24133,1638989812999
Fix,GT,34.1710699,-118.5242056,207.3760354766846,7.930988,0.1,89.927185,1638989813999
Fix,GT,34.1710697,-118.5241192,207.2060355272293,8.006995,0.1,90.005035,1638989814999
Fix,GT,34.1710693,-118.5240312,207.03903335505723,8.122254,0.1,90.23746,1638989815999
Fix,GT,34.1710689,-118.523946,206.8970267226696,7.6842446,0.1,90.30725,1638989816999
Fix,GT,34.1710681,-118.5238632,206.7580356817245,7.5985994,0.1,90.57352,1638989817999
Fix,GT,34.1710679,-118.523781,206.6020334990025,7.583982,0.1,89.84781,1638989818999
Fix,GT,34.1710681,-118.5236962,206.46802907431123,8.185838,0.1,89.75076,1638989819999
Fix,GT,34.1710682,-118.5236037,206.33002911615367,8.69304,0.1,89.83331,1638989820999
Fix,GT,34.1710681,-118.5235096,206.2140291572213,8.711956,0.1,90.02814,1638989821999
Fix,GT,34.1710677,-118.5234094,206.0620314451456,10.03274,0.1,90.109375,1638989822999
Fix,GT,34.1710677,-118.5232901,205.93402924090623,11.92767,0.1,89.70947,1638989823999
Fix,GT,34.1710684,-118.5231531,205.79802928197384,13.222027,0.1,89.61337,1638989824999
Fix,GT,34.1710687,-118.5230066,205.70601804542545,13.684012,0.1,89.75568,1638989825999
Fix,GT,34.1710687,-118.5228578,205.6270158122778,13.973892,0.1,90.08029,1638989826999
Fix,GT,34.1710682,-118.5227018,205.5610067861676,14.778829,0.1,89.91034,1638989827999
Fix,GT,34.1710687,-118.5225377,205.53400453054903,15.468905,0.1,89.71417,1638989828999
Fix,GT,34.1710691,-118.522366,205.5160022684932,16.179897,0.1,89.712036,1638989829999
Fix,GT,34.1710695,-118.5221883,205.4800159015656,16.425047,0.1,89.81915,1638989830999
Fix,GT,34.1710693,-118.5220147,205.443,15.5073,0.1,90.14102,1638989831999
Fix,GT,34.1710687,-118.5218512,205.4010182247162,14.704331,0.1,90.08594,1638989832999
Fix,GT,34.1710686,-118.5216953,205.3680068439245,14.169083,0.1,89.88721,1638989833999
Fix,GT,34.1710685,-118.521543,205.31200913786887,13.970976,0.1,89.95801,1638989834999
Fix,GT,34.1710686,-118.5213899,205.28800915074348,14.309993,0.1,89.81625,1638989835999
Fix,GT,34.1710682,-118.521235,205.26500458180905,14.212186,0.1,90.13449,1638989836999
Fix,GT,34.1710677,-118.521082,205.23300917625428,13.987173,0.1,90.12677,1638989837999
Fix,GT,34.1710672,-118.5209306,205.1970091891289,14.063012,0.1,90.12131,1638989838999
Fix,GT,34.1710668,-118.5207745,205.1690046010017,14.798832,0.1,89.99722,1638989839999
Fix,GT,34.171067,-118.5206107,205.1510023036003,15.1811,0.1,89.73361,1638989840999
Fix,GT,34.1710677,-118.5204463,205.1290161477328,15.082454,0.1,89.44235,1638989841999
Fix,GT,34.1710691,-118.5202817,205.09700923991204,15.235738,0.1,89.36337,1638989842999
Fix,GT,34.1710696,-118.5201174,205.0610115659833,15.06107,0.1,89.87146,1638989843999
Fix,GT,34.1710692,-118.5199554,205.03201853132248,14.866219,0.1,90.23004,1638989844999
Fix,GT,34.1710687,-118.5197979,204.9979930412769,14.096262,0.1,90.085144,1638989845999
Fix,GT,34.1710684,-118.5196491,204.988004645586,13.485087,0.1,90.06018,1638989846999
Fix,GT,34.1710676,-118.5195035,204.9560116300583,13.459333,0.1,90.39307,1638989847999
Fix,GT,34.1710665,-118.5193576,204.9180116458536,13.175713,0.1,90.25308,1638989848999
Fix,GT,34.1710665,-118.5192206,204.89300233238936,12.120229,0.1,89.76123,1638989849999
Fix,GT,34.1710668,-118.5190925,204.863009342432,11.518213,0.1,89.71362,1638989850999
Fix,GT,34.1710671,-118.5189736,204.8210116941333,10.378339,0.1,89.73358,1638989851999
Fix,GT,34.1710674,-118.5188654,204.77100234198568,9.616228,0.1,89.72839,1638989852999
Fix,GT,34.1710677,-118.518765,204.696009380579,8.962131,0.1,89.74002,1638989853999
Fix,GT,34.1710678,-118.5186695,204.6500281796456,8.684067,0.1,89.68045,1638989854999
Fix,GT,34.1710685,-118.5185754,204.60500705456727,8.722267,0.1,89.34015,1638989855999
Fix,GT,34.1710692,-118.5184759,204.5780094189644,9.762135,0.1,89.40994,1638989856999
Fix,GT,34.1710697,-118.5183638,204.53899764209984,10.852885,0.1,89.699646,1638989857999
Fix,GT,34.1710697,-118.518244,204.43602361118792,11.341803,0.1,89.96811,1638989858999
Fix,GT,34.1710694,-118.5181175,204.3400331007242,11.837095,0.1,90.16116,1638989859999
Fix,GT,34.1710691,-118.5179878,204.21203314495085,11.995039,0.1,90.04636,1638989860999
Fix,GT,34.1710688,-118.5178562,204.0340474143028,12.343997,0.1,90.078735,1638989861999
Fix,GT,34.1710683,-118.5177216,203.829056974411,12.491106,0.1,90.1882,1638989862999
Fix,GT,34.1710677,-118.5175836,203.59005229604244,13.033001,0.1,90.19275,1638989863999
Fix,GT,34.1710673,-118.5174384,203.31506664872168,13.776859,0.1,89.99396,1638989864999
Fix,GT,34.1710673,-118.5172845,203.0250738894344,14.563862,0.1,89.82251,1638989865999
Fix,GT,34.1710674,-118.5171238,202.69308114540576,14.927991,0.1,89.925964,1638989866999
Fix,GT,34.1710671,-118.5169628,202.3470860345364,14.612247,0.1,90.05884,1638989867999
Fix,GT,34.1710668,-118.5168085,201.982081364274,13.882146,0.1,89.96658,1638989868999
Fix,GT,34.1710667,-118.5166604,201.61609345281124,13.464085,0.1,89.942505,1638989869999
Fix,GT,34.1710666,-118.5165159,201.2500839805603,13.132106,0.1,89.91547,1638989870999
Fix,GT,34.1710668,-118.5163755,200.89008889853952,12.7961,0.1,89.74158,1638989871999
Fix,GT,34.1710672,-118.5162381,200.5450817979574,12.544189,0.1,89.630615,1638989872999
Fix,GT,34.1710677,-118.5161029,200.1910891345144,12.452078,0.1,89.687256,1638989873999
Fix,GT,34.171068,-118.5159653,199.8130892536044,12.98587,0.1,89.79996,1638989874999
Fix,GT,34.171068,-118.5158231,199.477077293396,13.175976,0.1,89.90088,1638989875999
Fix,GT,34.171068,-118.5156795,199.1150894895792,13.318973,0.1,89.956726,1638989876999
Fix,GT,34.1710678,-118.5155344,198.7380896086693,13.43198,0.1,89.99893,1638989877999
Fix,GT,34.1710678,-118.5153861,198.3570970005989,14.016799,0.1,89.85422,1638989878999
Fix,GT,34.1710682,-118.5152293,197.9500995551348,14.909958,0.1,89.63367,1638989879999
Fix,GT,34.1710683,-118.515061,197.49611427265407,16.244661,0.1,89.95715,1638989880999
Fix,GT,34.1710685,-118.5148787,197.00912172758572,17.276905,0.1,89.651794,1638989881999
Fix,GT,34.171069,-118.5146884,196.5331023863554,17.795925,0.1,89.895996,1638989882999
Fix,GT,34.1710684,-118.5144913,196.25706590670347,18.621162,0.1,90.194275,1638989883999
Fix,GT,34.1710676,-118.5142873,196.00404888296129,18.844265,0.1,90.184296,1638989884999
Fix,GT,34.171067,-118.5140823,195.7930293684006,19.091938,0.1,90.03058,1638989885999
Fix,GT,34.1710669,-118.5138718,195.55902695643903,19.588997,0.1,89.90152,1638989886999
Fix,GT,34.1710667,-118.5136598,195.323071158588,19.48604,0.1,90.03,1638989887999
Fix,GT,34.1710671,-118.5134491,195.20104422533512,19.349398,0.1,89.52203,1638989888999
Fix,GT,34.1710681,-118.5132402,194.97806396472456,19.192133,0.1,89.70923,1638989889999
Fix,GT,34.171068,-118.5130308,194.7620541934967,19.336102,0.1,90.09973,1638989890999
Fix,GT,34.1710671,-118.5128201,194.51705919742585,19.52816,0.1,90.14227,1638989891999
Fix,GT,34.1710665,-118.5126086,194.2980543351173,19.448124,0.1,90.04495,1638989892999
Fix,GT,34.1710664,-118.5123985,194.0640667693019,19.306036,0.1,89.79913,1638989893999
Fix,GT,34.1710669,-118.5121871,193.81605447542668,19.774933,0.1,89.708405,1638989894999
Fix,GT,34.1710672,-118.511971,193.58506942248343,19.934023,0.1,89.9256,1638989895999
Fix,GT,34.1710671,-118.5117555,193.34706206184623,19.79305,0.1,89.85907,1638989896999
Fix,GT,34.1710675,-118.5115417,193.1260571709276,19.615149,0.1,89.70676,1638989897999
Fix,GT,34.1710685,-118.5113299,192.9160572435856,19.430614,0.1,89.45743,1638989898999
Fix,GT,34.1710694,-118.5111199,192.68305980968475,19.35102,0.1,90.0126,1638989899999
Fix,GT,34.1710679,-118.5109106,192.45505240106584,19.219276,0.1,90.46704,1638989900999
Fix,GT,34.1710669,-118.5107055,192.2210574656725,18.5803,0.1,90.142456,1638989901999
Fix,GT,34.1710663,-118.5105054,191.939082554996,18.41808,0.1,90.11557,1638989902999
Fix,GT,34.1710659,-118.5103047,191.68503506839275,18.556028,0.1,89.94043,1638989903999
Fix,GT,34.1710662,-118.5101056,191.4890175567269,18.04224,0.1,89.78735,1638989904999
Fix,GT,34.1710663,-118.509914,191.2540753378868,17.308186,0.1,89.99863,1638989905999
Fix,GT,34.1710659,-118.5097285,191.09004777514937,16.992146,0.1,90.09396,1638989906999
Fix,GT,34.1710659,-118.5095449,190.9800151062012,16.937008,0.1,89.76691,1638989907999
Fix,GT,34.1710666,-118.5093595,190.92899747914075,17.30301,0.1,89.74307,1638989908999
Fix,GT,34.1710665,-118.5091689,190.89997980737687,17.863892,0.1,89.9281,1638989909999
Fix,GT,34.1710669,-118.5089729,191.0009646178484,18.251156,0.1,89.67825,1638989910999
Fix,GT,34.1710672,-118.5087726,191.1469645744562,18.722868,0.1,89.94678,1638989911999
Fix,GT,34.171067,-118.508567,191.26596706300973,19.159943,0.1,90.022095,1638989912999
Fix,GT,34.1710666,-118.5083569,191.3859771690369,19.52299,0.1,90.02707,1638989913999
Fix,GT,34.1710658,-118.5081432,191.497977140069,19.932505,0.1,90.3078,1638989914999
Fix,GT,34.1710651,-118.5079238,191.6209567654133,20.52496,0.1,89.964935,1638989915999
Fix,GT,34.1710657,-118.5076988,191.75497453570364,20.98542,0.1,89.362976,1638989916999
Fix,GT,34.1710704,-118.507463,191.88894391036035,22.749321,0.1,87.854126,1638989917999
Fix,GT,34.1710801,-118.5072083,192.06594894504548,23.9847,0.1,87.34454,1638989918999
Fix,GT,34.1710878,-118.5069433,192.2319616613984,25.024467,0.1,88.51123,1638989919999
Fix,GT,34.1710927,-118.506667,192.40396929049493,25.59218,0.1,88.81152,1638989920999
Fix,GT,34.1710965,-118.5063913,192.52397437655927,25.230621,0.1,89.15518,1638989921999
Fix,GT,34.1710982,-118.5061203,192.56098204147816,24.794107,0.1,89.957794,1638989922999
Fix,GT,34.171098,-118.5058538,192.6400025687217,24.344172,0.1,90.04443,1638989923999
Fix,GT,34.1710976,-118.5055921,192.70698714029788,23.90612,0.1,89.87637,1638989924999
Fix,GT,34.1710981,-118.5053351,192.8239768241048,23.48019,0.1,89.792786,1638989925999
Fix,GT,34.1710969,-118.5050824,192.89992780709267,23.207232,0.1,90.48413,1638989926999
Fix,GT,34.1710937,-118.5048314,193.1329509508014,23.011923,0.1,91.07959,1638989927999
Fix,GT,34.1710883,-118.5045825,193.1849819075465,23.060705,0.1,91.66272,1638989928999
Fix,GT,34.1710808,-118.5043299,193.30896894574164,23.602674,0.1,91.949066,1638989929999
Fix,GT,34.1710723,-118.504072,193.46494040668009,23.927319,0.1,92.862,1638989930999
Fix,GT,34.1710561,-118.5038147,193.6359610865116,23.700567,0.1,95.25702,1638989931999
Fix,GT,34.1710318,-118.5035586,193.8219480509758,23.977373,0.1,97.56683,1638989932999
Fix,GT,34.1709979,-118.5033028,193.996958390236,23.800705,0.1,100.10458,1638989933999
Fix,GT,34.1709562,-118.5030542,194.14596354639528,22.929329,0.1,102.281525,1638989934999
Fix,GT,34.1709097,-118.5028181,194.27296350133412,21.790976,0.1,103.96719,1638989935999
Fix,GT,34.1708611,-118.5025966,194.399973897338,20.572567,0.1,105.31271,1638989936999
Fix,GT,34.1708107,-118.5023877,194.46798954629892,19.621387,0.1,106.6712,1638989937999
Fix,GT,34.1707583,-118.5021898,194.4889947667122,18.788332,0.1,108.1814,1638989938999
Fix,GT,34.170704,-118.5020007,194.49000523972512,18.115068,0.1,109.61008,1638989939999
Fix,GT,34.1706475,-118.5018206,194.44302622962,17.493402,0.1,111.25302,1638989940999
Fix,GT,34.1705884,-118.5016479,194.31304464507105,16.858812,0.1,112.832794,1638989941999
Fix,GT,34.1705294,-118.5014856,194.1020736215115,16.01744,0.1,113.73801,1638989942999
Fix,GT,34.1704705,-118.501329,193.98498420464995,15.792515,0.1,114.580475,1638989943999
Fix,GT,34.1704087,-118.5011736,193.89603426510087,16.038147,0.1,116.1203,1638989944999
Fix,GT,34.1703447,-118.5010227,193.7350554164052,15.070494,0.1,117.34149,1638989945999
Fix,GT,34.1702829,-118.5008849,193.53112682056428,13.875285,0.1,118.87787,1638989946999
Fix,GT,34.1702215,-118.5007562,193.3080423240661,13.655257,0.1,120.01111,1638989947999
Fix,GT,34.1701586,-118.5006289,193.2260211877823,13.494735,0.1,120.857574,1638989948999
Fix,GT,34.1700983,-118.5005101,193.0380530338288,12.072255,0.1,121.39154,1638989949999
Fix,GT,34.1700437,-118.5004047,192.84305044215915,11.066554,0.1,122.161255,1638989950999
Fix,GT,34.1699911,-118.5003071,192.65605316138263,10.48795,0.1,122.99597,1638989951999
Fix,GT,34.1699387,-118.5002124,192.4490532257557,10.514651,0.1,123.754,1638989952999
Fix,GT,34.1698858,-118.5001191,192.24705595213177,10.28109,0.1,124.30829,1638989953999
Fix,GT,34.1698332,-118.5000282,192.06404801690576,10.186769,0.1,125.02124,1638989954999
Fix,GT,34.1697796,-118.4999385,191.85605608731507,10.253778,0.1,125.73468,1638989955999
Fix,GT,34.1697236,-118.4998462,191.64105615365503,10.945475,0.1,126.10864,1638989956999
Fix,GT,34.1696634,-118.4997493,191.4160669300556,11.2638235,0.1,126.94995,1638989957999
Fix,GT,34.1696013,-118.4996512,191.15207236814496,11.5701885,0.1,127.217834,1638989958999
Fix,GT,34.1695369,-118.4995496,190.8650805056095,11.903863,0.1,127.22632,1638989959999
Fix,GT,34.1694718,-118.4994465,190.555083288908,11.97725,0.1,127.31027,1638989960999
Fix,GT,34.1694046,-118.4993416,190.23709145653248,12.612311,0.1,127.67227,1638989961999
Fix,GT,34.1693323,-118.499229,189.9010996453166,13.554519,0.1,127.54031,1638989962999
Fix,GT,34.1692563,-118.4991101,189.50711054974795,14.06476,0.1,127.408905,1638989963999
Fix,GT,34.1691787,-118.4989886,189.0971160782576,14.186701,0.1,127.70618,1638989964999
Fix,GT,34.1690992,-118.4988658,188.6511324329377,14.646045,0.1,127.84961,1638989965999
Fix,GT,34.1690156,-118.4987368,188.21910552668567,15.524678,0.1,127.92395,1638989966999
Fix,GT,34.1689271,-118.4986007,187.84709752511972,16.28861,0.1,128.00513,1638989967999
Fix,GT,34.1688364,-118.498461,187.5040867919922,16.345238,0.1,127.947815,1638989968999
Fix,GT,34.168746,-118.4983217,187.2180678867101,16.217468,0.1,127.90146,1638989969999
Fix,GT,34.1686558,-118.4981828,186.99404893529413,16.259706,0.1,128.00403,1638989970999
Fix,GT,34.1685659,-118.4980444,186.83903266215324,16.101793,0.1,127.81653,1638989971999
Fix,GT,34.1684775,-118.4979072,186.742021800518,15.875193,0.1,127.730286,1638989972999
Fix,GT,34.1683893,-118.4977703,186.6830054563284,16.167662,0.1,127.68289,1638989973999
Fix,GT,34.1682997,-118.4976309,186.6420054627657,16.438396,0.1,127.69061,1638989974999
Fix,GT,34.1682071,-118.4974874,186.6210054690838,17.008478,0.1,127.737305,1638989975999
Fix,GT,34.1681132,-118.497342,186.5920109510422,16.9025,0.1,127.97104,1638989976999
Fix,GT,34.1680208,-118.4972001,186.5580109639168,16.239374,0.1,127.994354,1638989977999
Fix,GT,34.1679325,-118.4970646,186.5240137206912,15.633605,0.1,128.08234,1638989978999
Fix,GT,34.1678459,-118.4969321,186.4900109894276,15.567194,0.1,128.18518,1638989979999
Fix,GT,34.1677583,-118.4967978,186.45101375228165,15.817722,0.1,128.04965,1638989980999
Fix,GT,34.1676697,-118.4966616,186.4180082610249,16.183586,0.1,127.86337,1638989981999
Fix,GT,34.1675785,-118.49652,186.37801102757453,16.79155,0.1,127.602325,1638989982999
Fix,GT,34.1674857,-118.4963749,186.34600552010536,16.90658,0.1,127.58646,1638989983999
Fix,GT,34.1673924,-118.4962305,186.316008289814,16.92871,0.1,127.86954,1638989984999
Fix,GT,34.1672979,-118.4960847,186.29300553298,16.941345,0.1,127.861176,1638989985999
Fix,GT,34.167206,-118.4959428,186.2570083091259,16.212143,0.1,127.9863,1638989986999
Fix,GT,34.1671177,-118.4958077,186.23300831842425,15.58526,0.1,128.16937,1638989987999
Fix,GT,34.1670311,-118.4956757,186.19501388013364,15.53744,0.1,128.2633,1638989988999
Fix,GT,34.1669434,-118.4955412,186.14701667511463,16.020105,0.1,127.74274,1638989989999
Fix,GT,34.1668537,-118.4954009,186.114,16.612322,0.1,127.40051,1638989990999
Fix,GT,34.1667606,-118.4952555,186.1009972143769,17.241875,0.1,127.684814,1638989991999
Fix,GT,34.1666649,-118.4951071,186.1359888448715,17.266369,0.1,127.87631,1638989992999
Fix,GT,34.1665707,-118.4949622,186.22796370399,16.551897,0.1,128.0521,1638989993999
Fix,GT,34.166481,-118.4948237,186.3839524812698,15.792975,0.1,127.71533,1638989994999
Fix,GT,34.1663979,-118.4946935,186.57395242756607,14.494483,0.1,127.42398,1638989995999
Fix,GT,34.1663215,-118.4945721,186.7879327630997,13.583674,0.1,127.00015,1638989996999
Fix,GT,34.1662496,-118.494456,187.003929882586,13.129135,0.1,126.49637,1638989997999
Fix,GT,34.1661809,-118.4943429,187.23993541795016,12.692517,0.1,125.94513,1638989998999
Fix,GT,34.1661157,-118.4942327,187.48692409938573,12.204754,0.1,125.07562,1638989999999
Fix,GT,34.166055,-118.4941255,187.78891557121275,11.65557,0.1,123.81561,1638990000999
Fix,GT,34.1659996,-118.4940224,188.0869182921648,10.961492,0.1,122.507355,1638990001999
Fix,GT,34.1659484,-118.4939229,188.387918202281,10.65814,0.1,121.35544,1638990002999
Fix,GT,34.1658989,-118.4938229,188.6789124612808,10.8426,0.1,120.53381,1638990003999
Fix,GT,34.1658497,-118.4937194,188.98591518855093,10.965076,0.1,119.4494,1638990004999
Fix,GT,34.1658019,-118.4936148,189.2609264130592,11.127961,0.1,118.45407,1638990005999
Fix,GT,34.1657548,-118.493507,189.50493483120204,11.160082,0.1,117.3302,1638990006999
Fix,GT,34.16571,-118.4933994,189.714943267107,11.071732,0.1,116.28348,1638990007999
Fix,GT,34.1656664,-118.4932898,189.9099488846064,11.177237,0.1,115.16626,1638990008999
Fix,GT,34.1656253,-118.4931807,190.0829516696334,10.881493,0.1,114.10541,1638990009999
Fix,GT,34.1655862,-118.493072,190.2349544610977,11.071494,0.1,113.153656,1638990010999
Fix,GT,34.1655462,-118.4929568,190.36896865725515,12.043961,0.1,112.32324,1638990011999
Fix,GT,34.1655038,-118.4928287,190.4569800320864,13.333519,0.1,111.27289,1638990012999
Fix,GT,34.1654598,-118.4926882,190.5059857211113,14.322602,0.1,110.19202,1638990013999
Fix,GT,34.1654156,-118.4925366,190.57902573043108,15.120387,0.1,108.90103,1638990014999
Fix,GT,34.1653734,-118.4923783,190.53900858628748,15.422485,0.1,107.15201,1638990015999
Fix,GT,34.1653341,-118.4922151,190.55996275168656,15.834208,0.1,105.46933,1638990016999
Fix,GT,34.165298,-118.4920477,190.4800286847353,16.088497,0.1,103.91553,1638990017999
Fix,GT,34.1652651,-118.4918771,190.3490344603061,16.164408,0.1,102.338745,1638990018999
Fix,GT,34.1652361,-118.4917023,190.1890603718757,16.738117,0.1,100.73828,1638990019999
Fix,GT,34.1652095,-118.4915197,189.9660633175373,17.394735,0.1,99.39462,1638990020999
Fix,GT,34.165186,-118.4913303,189.6910835573673,17.808083,0.1,97.721985,1638990021999
Fix,GT,34.1651669,-118.4911365,189.3730923042297,18.029892,0.1,96.06177,1638990022999
Fix,GT,34.1651524,-118.490941,189.0490952910185,18.165638,0.1,94.381165,1638990023999
Fix,GT,34.1651424,-118.4907446,188.7480867247581,18.038363,0.1,92.916626,1638990024999
Fix,GT,34.165137,-118.4905503,188.46607813596728,17.769814,0.1,91.247314,1638990025999
Fix,GT,34.1651356,-118.4903577,188.237063737154,17.857895,0.1,90.013916,1638990026999
Fix,GT,34.1651366,-118.4901632,187.99706380665305,17.921757,0.1,89.487,1638990027999
Fix,GT,34.165138,-118.4899698,187.78006968450543,17.672087,0.1,89.39191,1638990028999
Fix,GT,34.1651396,-118.4897791,187.5930494145751,17.63344,0.1,89.53635,1638990029999
Fix,GT,34.1651407,-118.4895862,187.4600320088864,17.810373,0.1,89.55298,1638990030999
Fix,GT,34.1651424,-118.4893939,187.36002621752024,17.62522,0.1,89.30588,1638990031999
Fix,GT,34.1651442,-118.4892039,187.283020413518,17.508907,0.1,89.330414,1638990032999
Fix,GT,34.1651468,-118.4890113,187.238017516613,18.05077,0.1,88.73157,1638990033999
Fix,GT,34.1651512,-118.4888092,187.1730233812332,19.220028,0.1,88.31314,1638990034999
Fix,GT,34.1651555,-118.4885978,187.152,19.730179,0.1,88.81058,1638990035999
Fix,GT,34.1651585,-118.488381,187.093023431778,20.297201,0.1,89.051056,1638990036999
Fix,GT,34.1651614,-118.4881585,187.01502345705032,20.709282,0.1,89.14349,1638990037999
Fix,GT,34.1651637,-118.4879314,186.9650205474496,21.206217,0.1,89.3367,1638990038999
Fix,GT,34.1651657,-118.4877002,186.89802056998016,21.365889,0.1,89.501465,1638990039999
Fix,GT,34.1651671,-118.4874698,186.8540088253617,21.115534,0.1,89.574554,1638990040999
Fix,GT,34.1651693,-118.4872423,186.78702355957032,20.743774,0.1,89.02698,1638990041999
Fix,GT,34.1651733,-118.4870231,186.73401474052667,19.597725,0.1,88.55191,1638990042999
Fix,GT,34.1651777,-118.4868177,186.70600885379315,18.389584,0.1,88.503784,1638990043999
Fix,GT,34.1651812,-118.486623,186.6550118179321,17.557299,0.1,88.92456,1638990044999
Fix,GT,34.1651839,-118.4864358,186.62600591540337,17.08358,0.1,89.00766,1638990045999
Fix,GT,34.1651865,-118.4862515,186.5940177651644,16.921186,0.1,89.12073,1638990046999
Fix,GT,34.1651881,-118.4860687,186.5510088920593,16.80573,0.1,89.450806,1638990047999
Fix,GT,34.1651897,-118.4858864,186.539,16.825977,0.1,89.294556,1638990048999
Fix,GT,34.1651918,-118.4857029,186.52600891119243,17.085857,0.1,89.06998,1638990049999
Fix,GT,34.1651947,-118.4855154,186.52499405276777,17.468393,0.1,88.802185,1638990050999
Fix,GT,34.1651976,-118.4853264,186.53500595355035,17.35347,0.1,89.04169,1638990051999
Fix,GT,34.1651997,-118.4851395,186.5170059599876,17.116638,0.1,89.17157,1638990052999
Fix,GT,34.1652021,-118.4849564,186.49800298309327,16.458384,0.1,89.07443,1638990053999
Fix,GT,34.1652045,-118.4847842,186.47800895893573,15.4344,0.1,89.042114,1638990054999
Fix,GT,34.1652065,-118.484621,186.44800597906112,14.749513,0.1,89.19696,1638990055999
Fix,GT,34.1652083,-118.4844615,186.4240029927492,14.632563,0.1,89.15384,1638990056999
Fix,GT,34.1652105,-118.4843066,186.4140059918165,13.849725,0.1,88.90814,1638990057999
Fix,GT,34.165213,-118.4841616,186.38700899720192,12.922067,0.1,88.81482,1638990058999
Fix,GT,34.1652154,-118.4840227,186.3600060044527,12.805707,0.1,88.83676,1638990059999
Fix,GT,34.1652174,-118.483883,186.32800601089,12.889958,0.1,88.99774,1638990060999
Fix,GT,34.1652194,-118.4837427,186.3030090259909,12.958811,0.1,89.03528,1638990061999
Fix,GT,34.1652213,-118.4836025,186.2740030118227,12.95171,0.1,89.0105,1638990062999
Fix,GT,34.1652236,-118.4834611,186.252012059927,13.072651,0.1,88.87323,1638990063999
Fix,GT,34.1652257,-118.48332,186.2300030181408,12.950389,0.1,88.92969,1638990064999
Fix,GT,34.1652277,-118.4831791,186.21100604271888,13.14959,0.1,89.04529,1638990065999
Fix,GT,34.1652294,-118.4830339,186.172,13.580306,0.1,89.20187,1638990066999
Fix,GT,34.1652307,-118.4828856,186.15300605535504,13.666517,0.1,89.461945,1638990067999
Fix,GT,34.1652323,-118.4827384,186.1210121235848,13.474502,0.1,89.101685,1638990068999
Fix,GT,34.1652346,-118.4825933,186.0630121362209,13.322683,0.1,88.801025,1638990069999
Fix,GT,34.1652372,-118.4824472,186.00901214909555,13.725246,0.1,88.66165,1638990070999
Fix,GT,34.16524,-118.4822952,185.96401520246263,14.312475,0.1,88.67432,1638990071999
Fix,GT,34.1652424,-118.4821378,185.9410030436516,14.560642,0.1,89.15411,1638990072999
Fix,GT,34.1652442,-118.4819793,185.9390091404319,14.759406,0.1,89.135925,1638990073999
Fix,GT,34.1652464,-118.4818171,185.8810213502049,15.182882,0.1,89.05167,1638990074999
Fix,GT,34.1652484,-118.4816499,185.83900915956497,15.679284,0.1,89.21542,1638990075999
Fix,GT,34.1652502,-118.4814748,185.7850152820349,16.720955,0.1,89.23654,1638990076999
Fix,GT,34.1652522,-118.4812866,185.7260214165449,17.982393,0.1,89.14923,1638990077999
Fix,GT,34.1652548,-118.4810854,185.66101225090028,19.024847,0.1,89.10028,1638990078999
Fix,GT,34.1652573,-118.4808747,185.62002146160603,19.860905,0.1,89.16101,1638990079999
Fix,GT,34.1652601,-118.4806553,185.58401534551385,20.520342,0.1,89.04709,1638990080999
Fix,GT,34.1652636,-118.4804298,185.5650122890472,21.08468,0.1,88.70261,1638990081999
Fix,GT,34.1652677,-118.4801991,185.518021527946,21.343569,0.1,88.99466,1638990082999
Fix,GT,34.1652702,-118.4799681,185.46601847183703,21.196217,0.1,89.35828,1638990083999
Fix,GT,34.1652722,-118.4797397,185.41901540869475,20.916332,0.1,89.307434,1638990084999
Fix,GT,34.1652749,-118.4795144,185.363015424788,20.631828,0.1,89.03879,1638990085999
Fix,GT,34.1652779,-118.4792922,185.3000185290575,20.338293,0.1,88.90918,1638990086999
Fix,GT,34.1652818,-118.4790734,185.24302163934703,20.018648,0.1,88.78705,1638990087999
Fix,GT,34.1652847,-118.478858,185.20101237821572,19.724068,0.1,89.21124,1638990088999
Fix,GT,34.1652869,-118.4786456,185.15801548886296,19.447653,0.1,89.23349,1638990089999
Fix,GT,34.1652894,-118.4784361,185.09901860523223,19.1775,0.1,89.05536,1638990090999
Fix,GT,34.1652926,-118.4782275,185.03100620818137,19.405867,0.1,88.77872,1638990091999
Fix,GT,34.1652959,-118.478016,185.0010031073093,19.482725,0.1,88.97809,1638990092999
Fix,GT,34.1652993,-118.4778041,184.96003110468388,19.70605,0.1,88.74396,1638990093999
Fix,GT,34.1653027,-118.4775882,184.85803424990172,20.01711,0.1,88.933075,1638990094999
Fix,GT,34.165305,-118.4773709,184.7500062335729,20.207668,0.1,89.364746,1638990095999
Fix,GT,34.1653064,-118.4771474,184.69502808004617,21.088182,0.1,89.52588,1638990096999
Fix,GT,34.1653063,-118.4769135,184.52806558769944,22.071249,0.1,90.442505,1638990097999
Fix,GT,34.1653007,-118.4766668,184.30707503318783,23.415472,0.1,92.33594,1638990098999
Fix,GT,34.1652862,-118.4764103,184.04008449923992,24.017399,0.1,94.99539,1638990099999
Fix,GT,34.1652624,-118.4761492,183.74809084832668,24.486593,0.1,97.001526,1638990100999
Fix,GT,34.1652302,-118.4758836,183.43710348534583,25.073526,0.1,98.97476,1638990101999
Fix,GT,34.1651898,-118.4756132,183.073113008976,25.651716,0.1,101.09723,1638990102999
Fix,GT,34.1651387,-118.4753393,182.7270974093676,26.14525,0.1,103.89621,1638990103999
Fix,GT,34.1650757,-118.4750666,182.3551321091652,26.083685,0.1,106.70801,1638990104999
Fix,GT,34.1650019,-118.4747995,181.98411335015297,25.931715,0.1,109.841064,1638990105999
Fix,GT,34.164915,-118.4745401,181.6291166178584,25.739754,0.1,113.49844,1638990106999
Fix,GT,34.1648162,-118.4742893,181.2731009616852,25.53254,0.1,116.860565,1638990107999
Fix,GT,34.1647072,-118.474049,180.9361168538332,25.007517,0.1,119.94672,1638990108999
Fix,GT,34.1645911,-118.4738226,180.53413278007503,24.184137,0.1,123.03073,1638990109999
Fix,GT,34.1644674,-118.4736098,180.2191550648808,23.86043,0.1,126.37677,1638990110999
Fix,GT,34.1643346,-118.4734073,179.8831235421896,23.788473,0.1,129.63666,1638990111999
Fix,GT,34.1641928,-118.4732155,179.65507610321046,23.644379,0.1,133.17914,1638990112999
Fix,GT,34.164042,-118.4730362,179.24613331079485,23.523634,0.1,136.82892,1638990113999
Fix,GT,34.1638836,-118.4728684,178.82813344597815,23.40552,0.1,139.74353,1638990114999
Fix,GT,34.16372,-118.472708,178.43612403964997,23.589869,0.1,141.23492,1638990115999
Fix,GT,34.1635484,-118.4725516,178.0861082445383,24.219732,0.1,144.28314,1638990116999
Fix,GT,34.1633658,-118.4724038,177.74409241956474,24.757536,0.1,147.46204,1638990117999
Fix,GT,34.1631741,-118.4722665,177.41411484360694,24.757359,0.1,150.30695,1638990118999
Fix,GT,34.1629779,-118.4721367,177.0441181483865,24.96006,0.1,151.7255,1638990119999
Fix,GT,34.1627786,-118.4720117,176.71209589254858,24.9165,0.1,152.95709,1638990120999
Fix,GT,34.1625777,-118.4718924,176.39112478351592,24.77591,0.1,154.172,1638990121999
Fix,GT,34.162377,-118.4717769,176.1030736643076,24.448269,0.1,154.12952,1638990122999
Fix,GT,34.1621819,-118.4716609,175.92004808843134,23.893822,0.1,153.2027,1638990123999
Fix,GT,34.1619912,-118.4715421,175.862,23.831758,0.1,152.0877,1638990124999
Fix,GT,34.1618009,-118.4714192,175.94796787667275,24.074984,0.1,151.56348,1638990125999
Fix,GT,34.1616088,-118.4712952,176.13492925918104,24.277906,0.1,152.00659,1638990126999
Fix,GT,34.1614158,-118.4711692,176.517858379364,24.41492,0.1,150.84363,1638990127999
Fix,GT,34.1612267,-118.4710348,177.0278131315708,24.147722,0.1,147.95795,1638990128999
Fix,GT,34.1610474,-118.4708904,177.63379682320357,23.628912,0.1,144.54987,1638990129999
Fix,GT,34.1608797,-118.4707352,178.2857837114334,23.210854,0.1,140.27225,1638990130999
Fix,GT,34.1607233,-118.4705694,178.90280611920355,23.009468,0.1,137.62665,1638990131999
Fix,GT,34.1605737,-118.4703987,179.51977358043194,22.76661,0.1,135.66815,1638990132999
Fix,GT,34.1604285,-118.4702227,180.21177335512635,22.931389,0.1,133.83435,1638990133999
Fix,GT,34.1602892,-118.4700385,180.7208768441677,22.973284,0.1,131.00363,1638990134999
Fix,GT,34.1601579,-118.4698457,181.18282481527328,22.79769,0.1,127.84509,1638990135999
Fix,GT,34.1600372,-118.4696468,181.6179220657349,22.58975,0.1,124.647675,1638990136999
Fix,GT,34.1599259,-118.4694404,181.88799024856093,22.7871,0.1,121.76581,1638990137999
Fix,GT,34.1598211,-118.4692262,182.11686009609696,22.949179,0.1,119.36664,1638990138999
Fix,GT,34.1597239,-118.4690072,182.19198371601104,22.758358,0.1,117.02231,1638990139999
Fix,GT,34.1596347,-118.4687846,182.25598369991772,22.815058,0.1,114.66724,1638990140999
Fix,GT,34.1595533,-118.4685574,182.29999347364904,22.814285,0.1,112.22598,1638990141999
Fix,GT,34.15948,-118.4683235,182.315,23.223442,0.1,109.089386,1638990142999
Fix,GT,34.1594193,-118.468081,182.33901634806395,23.349663,0.1,104.68649,1638990143999
Fix,GT,34.1593745,-118.4678327,182.203039273262,23.414825,0.1,100.18808,1638990144999
Fix,GT,34.1593432,-118.4675789,182.06006879454853,23.90227,0.1,97.22629,1638990145999
Fix,GT,34.1593214,-118.4673194,181.90304918724297,24.19328,0.1,94.74777,1638990146999
Fix,GT,34.1593068,-118.4670565,181.7560689284801,24.279133,0.1,93.19281,1638990147999
Fix,GT,34.1592971,-118.4667915,181.61702299869057,24.691357,0.1,91.92529,1638990148999
Fix,GT,34.1592914,-118.4665208,181.5070526180268,25.227345,0.1,91.07706,1638990149999
Fix,GT,34.1592885,-118.4662458,181.41019092702865,25.340183,0.1,90.48804,1638990150999
Fix,GT,34.1592871,-118.4659706,181.1770823765993,25.457144,0.1,90.10449,1638990151999
Fix,GT,34.1592875,-118.465693,180.79511873602868,25.835268,0.1,89.60901,1638990152999
Fix,GT,34.1592895,-118.4654094,180.464102342844,26.43917,0.1,89.303986,1638990153999
Fix,GT,34.1592923,-118.4651193,180.1511156589389,27.062988,0.1,89.191895,1638990154999
Fix,GT,34.1592954,-118.4648226,179.78113561570643,27.611992,0.1,89.238556,1638990155999
Fix,GT,34.1592986,-118.4645233,179.31815892124175,27.54384,0.1,89.08246,1638990156999
Fix,GT,34.1593028,-118.4642257,178.82713919126988,27.341024,0.1,88.82263,1638990157999
Fix,GT,34.1593076,-118.4639308,178.35214927834272,27.051825,0.1,88.75156,1638990158999
Fix,GT,34.1593122,-118.4636386,177.8541693432331,26.860851,0.1,88.952576,1638990159999
Fix,GT,34.1593159,-118.4633483,177.36515621268748,26.685822,0.1,89.138885,1638990160999
Fix,GT,34.1593183,-118.46306,176.86716301190853,26.524677,0.1,89.55182,1638990161999
Fix,GT,34.1593199,-118.4627732,176.34917981958387,26.345024,0.1,89.40686,1638990162999
Fix,GT,34.1593224,-118.4624905,175.846183326602,25.727861,0.1,89.29364,1638990163999
Fix,GT,34.1593245,-118.4622134,175.28518016719818,25.428919,0.1,89.542175,1638990164999
Fix,GT,34.1593248,-118.4619387,174.7031703159809,25.25805,0.1,89.94086,1638990165999
Fix,GT,34.1593231,-118.4616656,174.17015042364596,25.138218,0.1,90.864655,1638990166999
Fix,GT,34.1593137,-118.4613922,173.68316394943,25.49,0.1,93.62695,1638990167999
Fix,GT,34.1592937,-118.4611139,173.17417415452005,25.910517,0.1,95.855774,1638990168999
Fix,GT,34.1592667,-118.4608351,172.6871575601697,25.8753,0.1,97.349915,1638990169999
Fix,GT,34.159233,-118.4605583,172.31309395241735,25.747023,0.1,98.93854,1638990170999
Fix,GT,34.1591927,-118.4602847,172.10201679331064,25.539728,0.1,100.91406,1638990171999
Fix,GT,34.1591461,-118.460015,172.10901008546355,25.299917,0.1,102.37335,1638990172999
Fix,GT,34.1590935,-118.4597502,172.26192260408402,24.982107,0.1,104.57886,1638990173999
Fix,GT,34.1590285,-118.4594903,172.5169157965183,25.28786,0.1,108.29971,1638990174999
Fix,GT,34.1589532,-118.4592321,172.8148887451887,25.114517,0.1,109.80054,1638990175999
Fix,GT,34.1588755,-118.4589786,173.13189876270297,24.75097,0.1,110.418,1638990176999
Fix,GT,34.1587961,-118.4587301,173.4219054234028,24.370398,0.1,111.286804,1638990177999
Fix,GT,34.1587165,-118.4584865,173.77986476182937,23.822926,0.1,111.29898,1638990178999
Fix,GT,34.1586389,-118.4582481,174.11090524649617,23.491117,0.1,111.265564,1638990179999
Fix,GT,34.1585622,-118.458009,174.30996274000407,23.862757,0.1,110.87506,1638990180999
Fix,GT,34.1584846,-118.4577658,174.4549491426349,24.0131,0.1,110.980286,1638990181999
Fix,GT,34.1584072,-118.4575235,174.58601696795228,23.850569,0.1,110.848785,1638990182999
Fix,GT,34.1583313,-118.4572829,174.64594225424526,23.581789,0.1,110.87076,1638990183999
Fix,GT,34.158255,-118.4570459,174.642013600111,23.319937,0.1,111.3168,1638990184999
Fix,GT,34.1581793,-118.456812,174.59004083824158,22.882664,0.1,111.15204,1638990185999
Fix,GT,34.1581067,-118.456582,174.43905790787937,22.560938,0.1,110.3331,1638990186999
Fix,GT,34.1580385,-118.4563509,174.22809205663205,22.712917,0.1,108.73581,1638990187999
Fix,GT,34.1579738,-118.4561141,173.9710921435356,23.25765,0.1,107.67117,1638990188999
Fix,GT,34.157912,-118.4558709,173.65412296962737,23.581898,0.1,106.191315,1638990189999
Fix,GT,34.1578551,-118.4556211,173.29211966645718,24.139174,0.1,104.56055,1638990190999
Fix,GT,34.1578024,-118.4553644,172.93713004589085,24.550041,0.1,103.17349,1638990191999
Fix,GT,34.1577544,-118.4551026,172.54911988967658,24.94461,0.1,101.696686,1638990192999
Fix,GT,34.1577113,-118.4548327,172.1881097164154,25.616741,0.1,100.02115,1638990193999
Fix,GT,34.1576745,-118.4545581,171.7831338377595,25.59135,0.1,98.17984,1638990194999
Fix,GT,34.1576446,-118.4542824,171.3721339632869,25.634182,0.1,96.79288,1638990195999
Fix,GT,34.1576194,-118.4540063,170.88018909960985,25.5602,0.1,95.72418,1638990196999
Fix,GT,34.1575975,-118.453728,170.36418927007915,26.07113,0.1,95.23505,1638990197999
Fix,GT,34.1575751,-118.4534414,169.82818944710493,26.758879,0.1,95.24658,1638990198999
Fix,GT,34.1575521,-118.4531527,169.47410687720776,26.695993,0.1,95.37857,1638990199999
Fix,GT,34.1575296,-118.4528655,169.18306211566926,26.489954,0.1,95.23776,1638990200999
Fix,GT,34.1575069,-118.4525812,169.11397236776352,26.17073,0.1,95.6019,1638990201999
Fix,GT,34.157482,-118.4523011,169.2279446849823,25.86507,0.1,96.62683,1638990202999
Fix,GT,34.1574521,-118.4520236,169.47492733269928,25.699644,0.1,98.00723,1638990203999
Fix,GT,34.1574172,-118.4517515,169.68291341233254,24.843632,0.1,99.24481,1638990204999
Fix,GT,34.1573806,-118.4514954,169.89391333186626,23.104542,0.1,100.193146,1638990205999
Fix,GT,34.157343,-118.451259,170.119951420784,21.32881,0.1,101.43359,1638990206999
Fix,GT,34.1573039,-118.4510402,170.33690275311469,20.066917,0.1,102.53241,1638990207999
Fix,GT,34.1572642,-118.450837,170.53193047475816,18.33634,0.1,103.52707,1638990208999
Fix,GT,34.1572255,-118.4506531,170.7089373704195,16.68146,0.1,104.510254,1638990209999
Fix,GT,34.1571877,-118.4504861,170.8379721388817,15.3503685,0.1,105.49216,1638990210999
Fix,GT,34.1571504,-118.4503316,170.8869651414156,14.456722,0.1,106.292206,1638990211999
Fix,GT,34.1571132,-118.4501851,170.71705233436825,13.715785,0.1,107.301636,1638990212999
Fix,GT,34.1570762,-118.4500478,170.49011174964906,12.950771,0.1,108.2038,1638990213999
Fix,GT,34.1570396,-118.4499205,170.1670838880539,11.925096,0.1,109.49179,1638990214999
Fix,GT,34.157004,-118.4498049,169.75413644361495,10.8207035,0.1,110.683655,1638990215999
Fix,GT,34.1569694,-118.4496998,169.31515057110786,10.110416,0.1,111.86435,1638990216999
Fix,GT,34.1569355,-118.4496019,168.83616823387146,9.473069,0.1,112.87256,1638990217999
Fix,GT,34.1569027,-118.4495114,168.3751543560028,8.760707,0.1,113.61908,1638990218999
Fix,GT,34.1568719,-118.4494283,167.95813342523576,7.9639673,0.1,113.974304,1638990219999
Fix,GT,34.1568443,-118.4493552,167.58212651872634,6.8420596,0.1,114.3064,1638990220999
Fix,GT,34.1568208,-118.4492935,167.2690844230652,5.703817,0.1,114.66925,1638990221999
Fix,GT,34.1568006,-118.449241,166.98908449745178,5.009154,0.1,114.73822,1638990222999
Fix,GT,34.1567831,-118.4491952,166.8150458112955,4.284307,0.1,114.583496,1638990223999
Fix,GT,34.1567684,-118.4491564,166.67104232525824,3.5683002,0.1,114.48984,1638990224999
Fix,GT,34.1567563,-118.4491246,166.53304589343068,2.9358535,0.1,114.37048,1638990225999
Fix,GT,34.1567471,-118.4491006,166.45302473396063,1.8858321,0.1,114.623474,1638990226999
Fix,GT,34.1567422,-118.4490876,166.40401414656637,0.8137085,0.1,114.83127,1638990227999
Fix,GT,34.1567402,-118.4490828,166.39300353986025,0.21266687,0.1,114.89389,1638990228999
Fix,GT,34.15674,-118.4490824,166.392,0.002825492,0.1,114.90427,1638990229999
Fix,GT,34.1567401,-118.4490824,166.393,0.0014162909,0.1,114.90451,1638990230999
Fix,GT,34.1567401,-118.4490824,166.393,0.0031622776,0.1,114.9039,1638990231999
Fix,GT,34.1567401,-118.4490824,166.393,0.0022352294,0.1,114.90372,1638990232999
Fix,GT,34.1567401,-118.4490824,166.393,0.002,0.1,114.903595,1638990233999
Fix,GT,34.1567401,-118.4490824,166.393,0.001,0.1,114.90335,1638990234999
Fix,GT,34.1567401,-118.4490824,166.393,0.0014127381,0.1,114.9032,1638990235999
Fix,GT,34.1567401,-118.4490824,166.393,0.001,0.1,114.9028,1638990236999
Fix,GT,34.1567401,-118.4490824,166.393,0.002236068,0.1,114.90253,1638990237999
Fix,GT,34.1567401,-118.4490824,166.393,0.0028284271,0.1,114.90234,1638990238999
Fix,GT,34.1567401,-118.4490824,166.392,0.0042426405,0.1,114.90207,1638990239999
Fix,GT,34.1567401,-118.4490824,166.392,0.00500235,0.1,114.90149,1638990240999
Fix,GT,34.15674,-118.4490825,166.39999641895295,0.0064031244,0.1,114.901245,1638990241999
Fix,GT,34.15674,-118.4490826,166.404,0.0064031244,0.1,114.901184,1638990242999
Fix,GT,34.15674,-118.4490825,166.404,0.005830952,0.1,114.901,1638990243999
Fix,GT,34.15674,-118.4490826,166.404,0.026962437,0.1,114.905334,1638990244999
Fix,GT,34.1567386,-118.4490793,166.39700359374282,0.6759312,0.1,114.982574,1638990245999
