MessageType,Provider,LatitudeDegrees,LongitudeDegrees,AltitudeMeters,SpeedMps,AccuracyMeters,BearingDegrees,UnixTimeMillis
Fix,GT,37.3450548,-121.9096589,-12.715999887679413,0.0010000152,0.099,139.96844,1617396187000
Fix,GT,37.3450548,-121.9096589,-12.71600028362336,0.001,0.1,139.96869,1617396188000
Fix,GT,37.3450548,-121.9096589,-12.716000048828,0.001,0.1,139.96881,1617396189000
Fix,GT,37.3450548,-121.9096589,-12.716000190477768,0.0022360159,0.1,139.96814,1617396190000
Fix,GT,37.3450548,-121.9096589,-12.715999955659273,0.000999981,0.1,139.96875,1617396191000
Fix,GT,37.3450548,-121.9096589,-12.715999848022566,0.0014141926,0.1,139.96832,1617396192000
Fix,GT,37.3450548,-121.9096589,-12.715999740374292,0.0009999896,0.099,139.97101,1617396193000
Fix,GT,37.3450548,-121.9096589,-12.715000003036211,0.0014142136,0.1,139.97,1617396194000
Fix,GT,37.3450548,-121.9096589,-12.71699964717927,0.001,0.1,139.96881,1617396195000
Fix,GT,37.3450548,-121.9096589,-12.711000002503395,0.001,0.1,139.96826,1617396195999
Fix,GT,37.3450548,-121.9096589,-12.70400000679493,0.0009999933,0.1,139.96838,1617396196999
Fix,GT,37.3450548,-121.9096589,-12.69800001114607,1.5762922e-08,0.1,139.96857,1617396197999
Fix,GT,37.3450548,-121.9096589,-12.692000015437603,0.001,0.1,139.9686,1617396198999
Fix,GT,37.3450548,-121.9096589,-12.689,0.04251999,0.1,139.9748,1617396199999
Fix,GT,37.3450527,-121.9096567,-12.681000048279762,0.5646269,0.1,140.055,1617396200999
Fix,GT,37.3450464,-121.9096501,-12.68199997150898,1.2926623,0.1,140.172,1617396201999
Fix,GT,37.3450345,-121.909638,-12.682,2.0464323,0.1,140.44952,1617396202999
Fix,GT,37.3450175,-121.9096235,-12.672999888598918,2.5267627,0.1,144.54669,1617396203999
Fix,GT,37.3449954,-121.9096128,-12.681999834537509,2.8195736,0.1,156.41791,1617396204999
Fix,GT,37.3449694,-121.9096132,-12.647999908685684,3.0988271,0.1,177.03943,1617396205999
Fix,GT,37.3449421,-121.9096264,-12.612000600099565,3.590287,0.1,198.07043,1617396206999
Fix,GT,37.3449146,-121.9096531,-12.516000217199323,4.255297,0.1,216.6726,1617396207999
Fix,GT,37.3448849,-121.90969,-12.470000175952912,5.1067543,0.1,224.60649,1617396208999
Fix,GT,37.3448519,-121.9097364,-12.43400025177002,5.805598,0.1,228.64851,1617396209999
Fix,GT,37.3448183,-121.9097859,-12.384000201880932,5.6837263,0.1,229.56525,1617396210999
Fix,GT,37.3447857,-121.909834,-12.37199992841482,5.471662,0.1,229.27031,1617396211999
Fix,GT,37.344754,-121.9098796,-12.331000455617904,5.284792,0.1,228.79318,1617396212999
Fix,GT,37.3447219,-121.9099255,-12.305000241041183,5.5719066,0.1,228.80928,1617396213999
Fix,GT,37.3446874,-121.9099746,-12.266,6.030304,0.1,228.57121,1617396214999
Fix,GT,37.3446496,-121.9100283,-12.23399919909239,6.667478,0.1,228.44397,1617396215999
Fix,GT,37.3446084,-121.9100868,-12.187002425312995,6.982844,0.1,228.60562,1617396216999
Fix,GT,37.3445678,-121.9101453,-12.173000195145606,6.7506256,0.1,228.94583,1617396217999
Fix,GT,37.3445289,-121.910202,-12.137000407695773,6.517937,0.1,229.29323,1617396218999
Fix,GT,37.3444913,-121.9102569,-12.111999150276183,6.2825627,0.1,229.2565,1617396219999
Fix,GT,37.3444552,-121.9103098,-12.083002985298634,6.049999,0.1,229.20901,1617396220999
Fix,GT,37.3444202,-121.9103603,-12.062998966276648,5.8072476,0.1,229.02104,1617396221999
Fix,GT,37.3443864,-121.9104087,-12.038000596046448,5.5693674,0.1,228.48631,1617396222999
Fix,GT,37.3443535,-121.9104547,-12.02800061750412,5.369972,0.1,228.17113,1617396223999
Fix,GT,37.3443221,-121.9104992,-11.992000511407852,5.1540804,0.1,228.46603,1617396224999
Fix,GT,37.3442924,-121.9105421,-11.981000660717488,4.883855,0.1,229.0249,1617396225999
Fix,GT,37.3442654,-121.9105823,-11.971,4.3922496,0.1,229.6205,1617396226999
Fix,GT,37.3442418,-121.910617,-11.917000703930857,3.5875294,0.1,229.28297,1617396227999
Fix,GT,37.3442233,-121.910643,-11.92800058054924,2.709176,0.1,228.22504,1617396228999
Fix,GT,37.3442061,-121.9106638,-11.916000448644162,2.6482022,0.1,224.47163,1617396229999
Fix,GT,37.3441839,-121.9106806,-11.892000153839588,3.0276675,0.1,212.32646,1617396230999
Fix,GT,37.3441531,-121.9106887,-11.84800110691786,3.6927102,0.1,193.50914,1617396231999
Fix,GT,37.3441153,-121.9106839,-11.810001299381256,4.574008,0.1,173.86072,1617396232999
Fix,GT,37.3440718,-121.9106627,-11.708001833856107,5.6247354,0.1,157.49188,1617396233999
Fix,GT,37.344024,-121.9106249,-11.645001368999482,6.856353,0.1,145.31522,1617396234999
Fix,GT,37.3439712,-121.9105717,-11.657000526249409,8.081959,0.1,140.53964,1617396235999
Fix,GT,37.3439123,-121.9105077,-11.65600017976761,9.229861,0.1,138.83887,1617396236999
Fix,GT,37.3438453,-121.9104351,-11.649000552177428,10.408497,0.1,138.95169,1617396237999
Fix,GT,37.3437709,-121.9103533,-11.633000376820563,11.44549,0.1,138.42914,1617396238999
Fix,GT,37.3436935,-121.910267,-11.590001927018166,11.4939995,0.1,138.318,1617396239999
Fix,GT,37.3436164,-121.9101823,-11.589,11.303235,0.1,138.72937,1617396240999
Fix,GT,37.34354,-121.9100999,-11.606,10.989519,0.1,139.34158,1617396241999
Fix,GT,37.3434679,-121.9100231,-11.591000822782515,9.905508,0.1,139.50092,1617396242999
Fix,GT,37.343405,-121.9099562,-11.592999789893629,8.331697,0.1,139.51825,1617396243999
Fix,GT,37.3433548,-121.9099026,-11.59899935680628,6.279767,0.1,139.20618,1617396244999
Fix,GT,37.3433199,-121.9098644,-11.63099934375286,3.9205997,0.1,138.65878,1617396245999
Fix,GT,37.3433009,-121.9098433,-11.661,1.943565,0.1,138.3139,1617396246999
Fix,GT,37.3432912,-121.9098324,-11.681,1.1181487,0.1,138.138,1617396247999
Fix,GT,37.343286,-121.9098266,-11.688,0.38177934,0.1,138.13077,1617396248999
Fix,GT,37.3432854,-121.9098259,-11.693,0.0036049366,0.1,138.13083,1617396249999
Fix,GT,37.3432854,-121.9098259,-11.693,0.0010002971,0.1,138.13171,1617396250999
Fix,GT,37.3432854,-121.909826,-11.691,0.001,0.1,138.12949,1617396251999
Fix,GT,37.3432854,-121.909826,-11.689,0.007809009,0.1,138.13147,1617396252999
Fix,GT,37.3432837,-121.909824,-11.692,0.53679365,0.1,138.12634,1617396253999
Fix,GT,37.3432779,-121.9098174,-11.69899974232912,1.1887355,0.1,138.09229,1617396254999
Fix,GT,37.3432667,-121.9098047,-11.706999475955964,2.2486012,0.1,137.81415,1617396255999
Fix,GT,37.3432492,-121.909781,-11.705999467372894,3.462102,0.1,133.25473,1617396256999
Fix,GT,37.3432311,-121.9097397,-11.62800135332346,4.6940613,0.1,117.77057,1617396257999
Fix,GT,37.3432212,-121.9096789,-11.581002749562264,6.043898,0.1,99.184296,1617396258999
Fix,GT,37.3432263,-121.9096027,-11.46600111722946,7.414008,0.1,81.710785,1617396259999
Fix,GT,37.3432516,-121.9095155,-11.44499744707346,8.826733,0.1,65.953064,1617396260999
Fix,GT,37.3432974,-121.909423,-11.524997983932495,10.407322,0.1,55.131683,1617396261999
Fix,GT,37.3433615,-121.9093252,-11.54499853849411,11.9338,0.1,48.661957,1617396262999
Fix,GT,37.3434379,-121.9092182,-11.606997330129143,13.488988,0.1,47.849365,1617396263999
Fix,GT,37.3435241,-121.9090993,-11.695999398112296,14.891662,0.1,47.42392,1617396264999
Fix,GT,37.3436157,-121.9089729,-11.773997557640074,15.1602335,0.1,48.012726,1617396265999
Fix,GT,37.3437067,-121.908845,-11.86499814248085,15.347495,0.1,48.051575,1617396266999
Fix,GT,37.3438,-121.9087139,-11.94699937212467,15.819366,0.1,48.237,1617396267999
Fix,GT,37.3438961,-121.908578,-12.0299958614707,16.363781,0.1,48.47049,1617396268999
Fix,GT,37.3439952,-121.9084369,-12.08499677360058,16.925058,0.1,48.7052,1617396269999
Fix,GT,37.3440976,-121.9082906,-12.202002288520337,17.532513,0.1,48.61676,1617396270999
Fix,GT,37.3442034,-121.9081397,-12.169996687173844,18.030415,0.1,48.629272,1617396271999
Fix,GT,37.3443118,-121.9079851,-12.109008053779602,18.375387,0.1,48.622864,1617396272999
Fix,GT,37.3444215,-121.9078282,-12.018006799697876,18.60135,0.1,48.74881,1617396273999
Fix,GT,37.3445326,-121.9076692,-11.966999655663969,18.829746,0.1,48.660583,1617396274999
Fix,GT,37.3446451,-121.907508,-12.049995467841626,19.116196,0.1,48.813934,1617396275999
Fix,GT,37.3447578,-121.9073454,-12.15199894106388,18.980927,0.1,48.93405,1617396276999
Fix,GT,37.3448687,-121.907185,-12.044005716323852,18.610287,0.1,49.08969,1617396277999
Fix,GT,37.3449766,-121.9070268,-12.071003977835176,18.261557,0.1,49.800446,1617396278999
Fix,GT,37.345081,-121.90687,-12.00200365972519,17.900475,0.1,50.309113,1617396279999
Fix,GT,37.3451823,-121.906716,-11.809001110970971,17.53046,0.1,50.57953,1617396280999
Fix,GT,37.3452818,-121.9065635,-11.507019479990005,17.36768,0.1,50.621796,1617396281999
Fix,GT,37.3453805,-121.9064128,-10.91802576971054,17.125425,0.1,50.411102,1617396282999
Fix,GT,37.345478,-121.9062656,-10.04603564298153,16.74944,0.1,49.99649,1617396283999
Fix,GT,37.3455734,-121.9061245,-9.03203721046448,15.996413,0.1,49.43463,1617396284999
Fix,GT,37.3456662,-121.9059923,-8.15603331154585,15.170601,0.1,47.64453,1617396285999
Fix,GT,37.3457586,-121.9058727,-7.391030912280082,14.321085,0.1,44.538513,1617396286999
Fix,GT,37.3458486,-121.9057625,-6.732020433783532,13.598274,0.1,44.434265,1617396287999
Fix,GT,37.3459349,-121.9056592,-6.127019437789917,12.917141,0.1,42.857544,1617396288999
Fix,GT,37.3460177,-121.9055621,-5.608020874559879,12.252676,0.1,43.241882,1617396289999
Fix,GT,37.3460955,-121.9054692,-5.149014889478684,11.662491,0.1,44.02176,1617396290999
Fix,GT,37.3461678,-121.9053774,-4.793017971754074,11.205192,0.1,45.987732,1617396291999
Fix,GT,37.3462352,-121.9052868,-4.445012667179109,10.768108,0.1,47.35254,1617396292999
Fix,GT,37.346299,-121.9051984,-4.154014932751656,10.361988,0.1,48.022217,1617396293999
Fix,GT,37.3463593,-121.9051138,-3.9410073260068894,9.594143,0.1,48.17755,1617396294999
Fix,GT,37.3464122,-121.9050388,-3.80400522351265,8.050293,0.1,48.459442,1617396295999
Fix,GT,37.3464548,-121.9049783,-3.697003956258297,6.2337046,0.1,48.518585,1617396296999
Fix,GT,37.3464855,-121.9049348,-3.617002219676972,3.9446902,0.1,48.496307,1617396297999
Fix,GT,37.3465034,-121.9049094,-3.5900004482269288,2.1580966,0.1,48.55313,1617396298999
Fix,GT,37.3465129,-121.9048958,-3.581000905275345,1.0781418,0.1,48.579742,1617396299999
Fix,GT,37.3465163,-121.904891,-3.585999543011188,0.046906117,0.1,48.57672,1617396300999
Fix,GT,37.3465163,-121.9048911,-3.5989995387196543,0.002236068,0.1,48.582825,1617396301999
Fix,GT,37.3465162,-121.9048912,-3.60299953442812,0.0031618464,0.1,48.578766,1617396302999
Fix,GT,37.3465162,-121.9048913,-3.603,0.0022363465,0.1,48.58023,1617396303999
Fix,GT,37.3465162,-121.9048913,-3.603,0.0014142136,0.1,48.580536,1617396304999
Fix,GT,37.3465162,-121.9048913,-3.603,0.0022356748,0.1,48.579865,1617396305999
Fix,GT,37.3465162,-121.9048913,-3.603,0.0022356713,0.1,48.580048,1617396306999
Fix,GT,37.3465162,-121.9048913,-3.603,0.0022356675,0.1,48.58014,1617396307999
Fix,GT,37.3465162,-121.9048913,-3.603,0.0014142136,0.1,48.580475,1617396308999
Fix,GT,37.3465162,-121.9048913,-3.603,0.0010002054,0.1,48.580414,1617396309999
Fix,GT,37.3465162,-121.9048913,-3.603,0.0014140063,0.1,48.580597,1617396310999
Fix,GT,37.3465162,-121.9048913,-3.603,0.001,0.1,48.580566,1617396311999
Fix,GT,37.3465162,-121.9048913,-3.603,0.001,0.1,48.58069,1617396312999
Fix,GT,37.3465162,-121.9048913,-3.603,0.0,0.1,48.58072,1617396313999
Fix,GT,37.3465162,-121.9048913,-3.603,0.0,0.1,48.580963,1617396314999
Fix,GT,37.3465162,-121.9048913,-3.603,0.0,0.1,48.580933,1617396315999
Fix,GT,37.3465162,-121.9048913,-3.603,0.0010002181,0.1,48.58087,1617396316999
Fix,GT,37.3465162,-121.9048913,-3.603,0.001,0.1,48.58084,1617396317999
Fix,GT,37.3465162,-121.9048913,-3.603,0.0022364766,0.1,48.581116,1617396318999
Fix,GT,37.3465161,-121.9048913,-3.602,0.0019994606,0.1,48.58194,1617396319999
Fix,GT,37.3465161,-121.9048914,-3.601,0.003162733,0.1,48.57962,1617396320999
Fix,GT,37.3465162,-121.9048912,-3.603999452054501,0.18229479,0.1,48.58551,1617396321999
Fix,GT,37.3465202,-121.9048855,-3.597000552237034,1.3016994,0.1,48.61682,1617396322999
Fix,GT,37.3465319,-121.9048688,-3.566001669943333,2.735983,0.1,48.704926,1617396323999
Fix,GT,37.3465535,-121.9048376,-3.526001682817936,4.555373,0.1,48.82968,1617396324999
Fix,GT,37.346586,-121.9047907,-3.475002261161805,6.5154123,0.1,48.93445,1617396325999
Fix,GT,37.3466296,-121.9047284,-3.411998291254044,7.955201,0.1,48.43463,1617396326999
Fix,GT,37.346682,-121.904661,-3.4180011478662493,8.640339,0.1,43.470917,1617396327999
Fix,GT,37.3467465,-121.9046035,-3.37,8.716596,0.1,31.201569,1617396328999
Fix,GT,37.3468194,-121.9045672,-3.391996504187584,8.718217,0.1,18.329468,1617396329999
Fix,GT,37.3468992,-121.9045492,-3.577988260269165,9.204603,0.1,6.5856323,1617396330999
Fix,GT,37.3469861,-121.9045498,-3.829984035491943,10.085148,0.1,356.57806,1617396331999
Fix,GT,37.3470802,-121.9045689,-4.124983918011188,11.001293,0.1,347.80173,1617396332999
Fix,GT,37.3471774,-121.9046089,-4.28099580013752,11.591333,0.1,338.13364,1617396333999
Fix,GT,37.3472721,-121.9046721,-4.262001208662986,12.126995,0.1,328.25394,1617396334999
Fix,GT,37.3473597,-121.9047591,-4.130010346591472,12.623992,0.1,317.3745,1617396335999
Fix,GT,37.3474352,-121.904867,-4.171988966464996,12.647421,0.1,308.10083,1617396336999
Fix,GT,37.3475014,-121.9049827,-4.476975309371948,12.60931,0.1,304.58475,1617396337999
Fix,GT,37.3475654,-121.9051046,-5.117949649035931,13.326982,0.1,302.8485,1617396338999
Fix,GT,37.3476326,-121.905237,-6.09193551915884,14.531294,0.1,302.1951,1617396339999
Fix,GT,37.3477059,-121.9053819,-7.075939489364624,15.841905,0.1,302.52316,1617396340999
Fix,GT,37.3477861,-121.9055386,-8.033937808156015,17.10818,0.1,302.5638,1617396341999
Fix,GT,37.3478725,-121.9057074,-8.918945049285888,18.433968,0.1,302.5586,1617396342999
Fix,GT,37.3479652,-121.9058887,-9.672954972267153,19.709087,0.1,302.62854,1617396343999
Fix,GT,37.3480642,-121.9060813,-10.286955958843231,20.82889,0.1,302.8234,1617396344999
Fix,GT,37.3481691,-121.9062831,-10.688979787528517,21.79694,0.1,302.97882,1617396345999
Fix,GT,37.3482788,-121.9064928,-10.894988842785358,22.620876,0.1,303.22562,1617396346999
Fix,GT,37.3483933,-121.9067088,-10.81702972960472,23.275255,0.1,303.61813,1617396347999
Fix,GT,37.3485124,-121.9069284,-10.381020617127415,23.72994,0.1,304.76654,1617396348999
Fix,GT,37.3486386,-121.9071456,-10.01602409696579,23.892265,0.1,307.1174,1617396349999
Fix,GT,37.3487728,-121.9073575,-9.646024251461029,24.125313,0.1,309.50894,1617396350999
Fix,GT,37.3489166,-121.9075643,-9.252030512809752,24.490707,0.1,311.99994,1617396351999
Fix,GT,37.3490669,-121.9077667,-8.891030708611012,24.372337,0.1,313.63037,1617396352999
Fix,GT,37.34922,-121.9079605,-8.555025408089161,23.923,0.1,315.47784,1617396353999
Fix,GT,37.3493753,-121.9081434,-8.182026951193809,23.410336,0.1,317.72833,1617396354999
Fix,GT,37.3495333,-121.9083136,-7.718019469738007,22.905075,0.1,320.47958,1617396355999
Fix,GT,37.3496939,-121.9084715,-7.455022390365601,22.4436,0.1,322.92212,1617396356999
Fix,GT,37.3498561,-121.9086184,-7.115021123290062,21.980682,0.1,324.9968,1617396357999
Fix,GT,37.3500194,-121.9087547,-6.822012751221657,21.687834,0.1,327.27734,1617396358999
Fix,GT,37.3501864,-121.9088823,-6.524021380782128,21.806282,0.1,329.72345,1617396359999
Fix,GT,37.3503593,-121.9090015,-6.2840150591731065,22.03003,0.1,332.36014,1617396360999
Fix,GT,37.3505378,-121.9091127,-5.92001947927475,22.253796,0.1,334.3724,1617396361999
Fix,GT,37.3507213,-121.9092177,-5.600030481338501,22.5416,0.1,335.861,1617396362999
Fix,GT,37.3509087,-121.9093192,-5.323023363113403,22.81064,0.1,337.03268,1617396363999
Fix,GT,37.3510993,-121.9094182,-4.872031583845615,23.002445,0.1,337.5074,1617396364999
Fix,GT,37.3512919,-121.9095165,-4.439033984780312,23.146544,0.1,337.7829,1617396365999
Fix,GT,37.3514856,-121.9096159,-3.976035668373108,23.330862,0.1,337.53833,1617396366999
Fix,GT,37.3516806,-121.9097169,-3.549027655363082,23.496916,0.1,337.41846,1617396367999
Fix,GT,37.3518763,-121.9098195,-3.180020296812058,23.575096,0.1,337.13242,1617396368999
Fix,GT,37.3520725,-121.9099235,-2.953011342167854,23.733847,0.1,336.96613,1617396369999
Fix,GT,37.3522701,-121.9100292,-2.739012928426265,23.996622,0.1,336.75342,1617396370999
Fix,GT,37.35247,-121.9101384,-2.630007647871971,24.436207,0.1,336.03308,1617396371999
Fix,GT,37.352673,-121.9102528,-2.5370099987983705,24.920017,0.1,335.53177,1617396372999
Fix,GT,37.3528781,-121.9103709,-2.485998453140259,25.184517,0.1,335.06558,1617396373999
Fix,GT,37.3530846,-121.9104923,-2.4910062222480773,25.453852,0.1,334.6308,1617396374999
Fix,GT,37.3532929,-121.9106169,-2.5199921786785127,25.771967,0.1,334.26318,1617396375999
Fix,GT,37.3535031,-121.9107448,-2.583996067583561,26.096802,0.1,333.92337,1617396376999
Fix,GT,37.3537153,-121.9108766,-2.711989719927311,26.46745,0.1,333.26935,1617396377999
Fix,GT,37.3539293,-121.911013,-2.889961038827896,26.827486,0.1,332.7433,1617396378999
Fix,GT,37.3541447,-121.9111538,-3.124989606022835,27.03872,0.1,332.20007,1617396379999
Fix,GT,37.3543608,-121.911297,-3.3899710621833803,27.23047,0.1,332.00497,1617396380999
Fix,GT,37.3545765,-121.911443,-3.728982220053673,27.11265,0.1,331.15683,1617396381999
Fix,GT,37.3547888,-121.9115915,-3.9899447519779208,26.859531,0.1,330.48807,1617396382999
Fix,GT,37.3549981,-121.9117415,-4.500959975719453,26.700096,0.1,330.15775,1617396383999
Fix,GT,37.3552067,-121.9118924,-4.966958944320678,26.801247,0.1,329.68143,1617396384999
Fix,GT,37.3554155,-121.9120465,-5.586950468540191,26.978186,0.1,329.43402,1617396385999
Fix,GT,37.3556258,-121.9122012,-6.331929465651512,27.183563,0.1,329.60287,1617396386999
Fix,GT,37.3558377,-121.9123579,-7.134946613311767,27.404509,0.1,329.15686,1617396387999
Fix,GT,37.3560509,-121.9125164,-7.8749320848584174,27.600943,0.1,329.34595,1617396388999
Fix,GT,37.3562655,-121.9126743,-8.612941846132278,27.608223,0.1,329.47516,1617396389999
Fix,GT,37.3564794,-121.9128321,-9.338929680705071,27.487347,0.1,329.33572,1617396390999
Fix,GT,37.356692,-121.9129898,-10.08593358206749,27.373087,0.1,329.20938,1617396391999
Fix,GT,37.3569037,-121.913147,-10.852935810267924,27.254211,0.1,329.2215,1617396392999
Fix,GT,37.3571142,-121.9133041,-11.519942369639873,27.121906,0.1,329.05978,1617396393999
Fix,GT,37.3573234,-121.9134608,-12.147944671630858,26.975578,0.1,329.0182,1617396394999
Fix,GT,37.3575313,-121.9136169,-12.718953081727028,26.801645,0.1,328.94333,1617396395999
Fix,GT,37.3577376,-121.9137719,-13.193958959221842,26.608881,0.1,328.96243,1617396396999
Fix,GT,37.3579426,-121.9139254,-13.537969287514688,26.391705,0.1,329.1458,1617396397999
Fix,GT,37.3581462,-121.9140767,-13.850974426329138,26.157022,0.1,329.2618,1617396398999
Fix,GT,37.358348,-121.9142263,-14.07598139101267,25.884413,0.1,329.30215,1617396399999
Fix,GT,37.3585478,-121.9143744,-14.219989314079283,25.684675,0.1,329.28754,1617396400999
Fix,GT,37.3587468,-121.9145228,-14.330993735671044,25.749712,0.1,329.0589,1617396401999
Fix,GT,37.3589465,-121.9146718,-14.386994604825974,25.857302,0.1,329.1621,1617396402999
Fix,GT,37.3591473,-121.9148213,-14.455985543251035,25.981447,0.1,329.10147,1617396403999
Fix,GT,37.3593488,-121.9149717,-14.560994552969934,26.112066,0.1,329.2299,1617396404999
Fix,GT,37.3595518,-121.9151225,-14.619999087810516,26.259201,0.1,329.14047,1617396405999
Fix,GT,37.3597562,-121.915275,-14.673994501113892,26.616533,0.1,329.15222,1617396406999
Fix,GT,37.359964,-121.91543,-14.778996316909788,27.06689,0.1,329.17535,1617396407999
Fix,GT,37.360175,-121.9155864,-14.866986122250555,27.291418,0.1,329.42868,1617396408999
Fix,GT,37.3603873,-121.9157433,-14.981997211396694,27.419142,0.1,329.36407,1617396409999
Fix,GT,37.3606007,-121.9159008,-15.057986926436424,27.540316,0.1,329.3807,1617396410999
Fix,GT,37.3608146,-121.916059,-15.156989680051804,27.59266,0.1,329.28156,1617396411999
Fix,GT,37.3610283,-121.9162179,-15.10901130962372,27.562748,0.1,329.11493,1617396412999
Fix,GT,37.3612412,-121.9163767,-15.054010415017606,27.400562,0.1,329.16315,1617396413999
Fix,GT,37.3614524,-121.916534,-14.867022828102114,27.139036,0.1,329.17838,1617396414999
Fix,GT,37.3616614,-121.9166899,-14.554031532227992,26.8446,0.1,329.06607,1617396415999
Fix,GT,37.3618683,-121.9168438,-14.248031673848628,26.576166,0.1,329.24875,1617396416999
Fix,GT,37.3620734,-121.9169959,-13.706049172401428,26.339575,0.1,329.1962,1617396417999
Fix,GT,37.3622766,-121.9171478,-13.111061981201171,26.164534,0.1,329.00656,1617396418999
Fix,GT,37.3624784,-121.9172987,-12.471067123711109,26.01865,0.1,329.21817,1617396419999
Fix,GT,37.3626796,-121.9174485,-11.79107035112381,25.95358,0.1,329.17242,1617396420999
Fix,GT,37.3628802,-121.9175975,-11.127062812805177,25.809496,0.1,329.25998,1617396421999
Fix,GT,37.3630796,-121.9177457,-10.415073930621146,25.631968,0.1,329.2113,1617396422999
Fix,GT,37.3632769,-121.9178929,-9.59608415788412,25.341228,0.1,329.11853,1617396423999
Fix,GT,37.363472,-121.9180391,-8.804074578821659,25.116358,0.1,329.11096,1617396424999
Fix,GT,37.3636654,-121.9181837,-8.058060922861099,24.902664,0.1,329.26923,1617396425999
Fix,GT,37.3638573,-121.9183281,-7.663039118051529,24.791721,0.1,328.8986,1617396426999
Fix,GT,37.3640482,-121.9184722,-7.24604432463646,24.677801,0.1,329.025,1617396427999
Fix,GT,37.3642374,-121.9186155,-6.906022259354591,24.362381,0.1,328.57153,1617396428999
Fix,GT,37.3644219,-121.9187604,-6.741014225125312,23.966152,0.1,327.43005,1617396429999
Fix,GT,37.364602,-121.9189089,-6.500016325950623,23.943825,0.1,325.9625,1617396430999
Fix,GT,37.3647797,-121.9190635,-6.285021519184113,24.067408,0.1,324.46317,1617396431999
Fix,GT,37.3649551,-121.9192246,-6.1999979419708255,24.185202,0.1,323.04596,1617396432999
Fix,GT,37.3651274,-121.9193908,-6.160991733074188,24.001581,0.1,321.90836,1617396433999
Fix,GT,37.3652954,-121.919559,-6.182001037657262,23.748417,0.1,320.88464,1617396434999
Fix,GT,37.3654606,-121.9197309,-6.282990621924401,23.94101,0.1,319.61804,1617396435999
Fix,GT,37.3656239,-121.9199098,-6.403985350131989,24.208849,0.1,318.13202,1617396436999
Fix,GT,37.3657855,-121.920096,-6.55198844218254,24.492502,0.1,316.74088,1617396437999
Fix,GT,37.3659457,-121.9202892,-6.6919820639491086,24.933174,0.1,315.4765,1617396438999
Fix,GT,37.3661061,-121.9204915,-6.8659851690530775,25.71016,0.1,314.17642,1617396439999
Fix,GT,37.3662681,-121.9207052,-7.0149819170236585,26.378443,0.1,312.74655,1617396440999
Fix,GT,37.3664287,-121.9209282,-7.163982912063598,26.78264,0.1,311.30334,1617396441999
Fix,GT,37.3665864,-121.9211597,-7.3259860594868655,27.127474,0.1,309.5019,1617396442999
Fix,GT,37.3667406,-121.9214002,-7.528973084032535,27.540907,0.1,308.21124,1617396443999
Fix,GT,37.3668941,-121.9216479,-7.798965410232545,28.009396,0.1,307.62506,1617396444999
Fix,GT,37.3670496,-121.9219003,-8.044977209091186,28.467064,0.1,307.49496,1617396445999
Fix,GT,37.3672065,-121.9221571,-8.397960775375367,28.813774,0.1,307.28076,1617396446999
Fix,GT,37.3673652,-121.9224167,-8.707967182278633,29.08027,0.1,307.3962,1617396447999
Fix,GT,37.3675246,-121.9226776,-8.979968151748182,29.062725,0.1,307.36734,1617396448999
Fix,GT,37.3676834,-121.9229367,-9.344969128131869,28.803581,0.1,307.3938,1617396449999
Fix,GT,37.3678405,-121.9231935,-9.729953511953354,28.515738,0.1,307.39053,1617396450999
Fix,GT,37.3679958,-121.9234479,-10.211933327436446,28.269264,0.1,307.33502,1617396451999
Fix,GT,37.3681504,-121.9237004,-10.842931954443454,28.16521,0.1,307.50723,1617396452999
Fix,GT,37.3683056,-121.9239544,-11.447917130947117,28.546717,0.1,307.29257,1617396453999
Fix,GT,37.3684626,-121.9242117,-12.172922434091568,28.786205,0.1,307.37903,1617396454999
Fix,GT,37.3686204,-121.9244691,-12.937913105905055,28.729864,0.1,307.47028,1617396455999
Fix,GT,37.368779,-121.9247275,-13.82588219022751,29.05865,0.1,307.47662,1617396456999
Fix,GT,37.3689386,-121.9249887,-14.993868092060088,29.17842,0.1,307.3635,1617396457999
Fix,GT,37.3690998,-121.9252486,-16.142873288154604,29.124239,0.1,308.0614,1617396458999
Fix,GT,37.369265,-121.9255031,-17.116915207862856,28.924824,0.1,310.53748,1617396459999
Fix,GT,37.3694423,-121.9257372,-17.854907989501953,28.378696,0.1,316.66357,1617396460999
Fix,GT,37.3696354,-121.9259442,-18.73390995037556,28.15397,0.1,321.3785,1617396461999
Fix,GT,37.3698369,-121.9261355,-19.50990961563588,27.996483,0.1,324.10397,1617396462999
Fix,GT,37.3700448,-121.9263125,-20.171945333123208,27.805882,0.1,327.0989,1617396463999
Fix,GT,37.3702576,-121.9264743,-20.476984823584555,27.506039,0.1,330.38004,1617396464999
Fix,GT,37.3704761,-121.9266155,-20.53900937414169,27.11457,0.1,334.93665,1617396465999
Fix,GT,37.3706994,-121.926732,-20.332044690251355,26.65458,0.1,339.5342,1617396466999
Fix,GT,37.3709249,-121.9268259,-19.912061381340024,26.0792,0.1,343.44638,1617396467999
Fix,GT,37.371145,-121.9268976,-19.241086491942404,24.25099,0.1,346.84683,1617396468999
Fix,GT,37.371348,-121.9269528,-18.50708323788643,21.933863,0.1,348.64474,1617396469999
Fix,GT,37.3715348,-121.9269973,-17.83107160782814,20.598808,0.1,349.34424,1617396470999
Fix,GT,37.3717145,-121.9270401,-17.179065876543522,20.068356,0.1,349.11288,1617396471999
Fix,GT,37.3718917,-121.9270827,-16.620075732707978,20.044802,0.1,348.96515,1617396472999
Fix,GT,37.3720694,-121.9271267,-16.0070820350647,20.12347,0.1,348.59213,1617396473999
Fix,GT,37.3722473,-121.9271721,-15.312076277196407,20.191715,0.1,348.44318,1617396474999
Fix,GT,37.372426,-121.9272183,-14.650082622766496,20.285889,0.1,348.19934,1617396475999
Fix,GT,37.3726058,-121.9272673,-13.98506584393978,20.60327,0.1,347.3771,1617396476999
Fix,GT,37.3727879,-121.9273222,-13.38407097363472,20.957293,0.1,345.42776,1617396477999
Fix,GT,37.3729702,-121.9273898,-12.861056486845015,21.098015,0.1,342.06396,1617396478999
Fix,GT,37.3731475,-121.9274712,-12.517033272802829,20.748837,0.1,338.15338,1617396479999
Fix,GT,37.3733173,-121.927568,-12.227027205586433,20.676336,0.1,333.458,1617396480999
Fix,GT,37.3734805,-121.9276835,-11.966986349344252,20.810448,0.1,328.289,1617396481999
Fix,GT,37.3736355,-121.927814,-11.913,20.550993,0.1,324.11893,1617396482999
Fix,GT,37.3737804,-121.9279562,-11.928998750388622,20.227667,0.1,320.28223,1617396483999
Fix,GT,37.3739149,-121.9281085,-12.071981191456317,19.933537,0.1,315.9087,1617396484999
Fix,GT,37.3740384,-121.9282709,-12.284972318410874,19.690273,0.1,311.78333,1617396485999
Fix,GT,37.3741506,-121.928442,-12.57295959854126,19.470194,0.1,307.51086,1617396486999
Fix,GT,37.3742516,-121.928621,-12.934946790337564,19.307186,0.1,303.44147,1617396487999
Fix,GT,37.3743417,-121.9288073,-13.401933898210524,19.201193,0.1,299.19275,1617396488999
Fix,GT,37.3744189,-121.9290018,-13.983917089939116,19.306152,0.1,294.56702,1617396489999
Fix,GT,37.374485,-121.9292068,-14.674918090820311,19.924753,0.1,290.12912,1617396490999
Fix,GT,37.3745406,-121.9294243,-15.439898549616336,20.371546,0.1,285.7524,1617396491999
Fix,GT,37.374583,-121.9296488,-16.36388146042824,20.46689,0.1,281.83667,1617396492999
Fix,GT,37.3746177,-121.9298773,-17.368874595999717,20.770723,0.1,280.1793,1617396493999
Fix,GT,37.3746496,-121.9301091,-18.255905310511583,20.864952,0.1,279.72647,1617396494999
Fix,GT,37.3746813,-121.930341,-18.997897184073928,20.798502,0.1,279.71777,1617396495999
Fix,GT,37.3747147,-121.9305711,-19.61891251015664,20.54888,0.1,281.08942,1617396496999
Fix,GT,37.3747511,-121.9307942,-20.112948908030987,19.745628,0.1,281.7986,1617396497999
Fix,GT,37.3747873,-121.9310094,-20.500972396314147,19.361095,0.1,281.7887,1617396498999
Fix,GT,37.3748236,-121.9312218,-20.666977580189705,19.14786,0.1,282.44345,1617396499999
Fix,GT,37.3748627,-121.931433,-20.759984122753146,19.372658,0.1,283.4273,1617396500999
Fix,GT,37.3749051,-121.9316476,-20.74300663727522,19.786573,0.1,284.10226,1617396501999
Fix,GT,37.37495,-121.931866,-20.672005326986312,20.16484,0.1,284.72107,1617396502999
Fix,GT,37.3749976,-121.9320867,-20.625005344390868,20.32021,0.1,285.2835,1617396503999
Fix,GT,37.3750471,-121.9323081,-20.55798391532898,20.366112,0.1,285.9108,1617396504999
Fix,GT,37.3750978,-121.9325277,-20.44100403422117,20.114649,0.1,286.09216,1617396505999
Fix,GT,37.3751484,-121.9327449,-20.38900404709577,20.050959,0.1,286.16095,1617396506999
Fix,GT,37.3751977,-121.9329636,-20.398995939850806,20.193417,0.1,285.2165,1617396507999
Fix,GT,37.3752439,-121.9331834,-20.4270040730238,20.041,0.1,284.3573,1617396508999
Fix,GT,37.3752892,-121.933402,-20.44999182784557,20.040745,0.1,284.55518,1617396509999
Fix,GT,37.3753343,-121.9336217,-20.50898633682728,20.140276,0.1,284.2512,1617396510999
Fix,GT,37.3753798,-121.9338424,-20.5010123360157,20.229471,0.1,284.38177,1617396511999
Fix,GT,37.3754248,-121.9340642,-20.54399450016022,20.326403,0.1,283.81183,1617396512999
Fix,GT,37.375469,-121.9342869,-20.61398482823372,20.280857,0.1,283.86188,1617396513999
Fix,GT,37.375512,-121.9345083,-20.675993081986903,20.058378,0.1,283.45175,1617396514999
Fix,GT,37.3755528,-121.9347276,-20.725987508952617,19.875536,0.1,282.58224,1617396515999
Fix,GT,37.375594,-121.9349456,-20.805006961226464,19.770847,0.1,283.63666,1617396516999
Fix,GT,37.3756362,-121.9351611,-20.796001396536827,19.531553,0.1,283.60944,1617396517999
Fix,GT,37.3756767,-121.9353744,-20.8659915946722,19.357082,0.1,283.0523,1617396518999
Fix,GT,37.3757152,-121.9355894,-20.9169929741025,19.73394,0.1,282.00244,1617396519999
Fix,GT,37.3757513,-121.9358122,-20.94400422859192,20.641535,0.1,280.89642,1617396520999
Fix,GT,37.3757863,-121.9360472,-20.97798868942261,21.699926,0.1,280.24533,1617396521999
Fix,GT,37.3758215,-121.9362934,-21.01399149096012,22.541904,0.1,280.20093,1617396522999
Fix,GT,37.3758611,-121.9365458,-21.06199857753516,23.010592,0.1,281.94684,1617396523999
Fix,GT,37.3759069,-121.936802,-21.09699571955204,23.594103,0.1,282.97882,1617396524999
Fix,GT,37.3759564,-121.9370654,-21.138989982247352,24.346092,0.1,283.4603,1617396525999
Fix,GT,37.3760093,-121.9373363,-21.23098708087206,25.076086,0.1,283.69244,1617396526999
Fix,GT,37.3760636,-121.9376156,-21.265988481044765,25.84825,0.1,283.64926,1617396527999
Fix,GT,37.3761202,-121.937903,-21.341995667696,26.622572,0.1,283.84216,1617396528999
Fix,GT,37.3761789,-121.9381991,-21.408992757737632,27.416136,0.1,283.87103,1617396529999
Fix,GT,37.3762391,-121.9385035,-21.442991283178333,28.124151,0.1,283.8809,1617396530999
Fix,GT,37.3763008,-121.938815,-21.52798834323883,28.654852,0.1,283.84833,1617396531999
Fix,GT,37.3763635,-121.9391312,-21.61098684698344,29.08167,0.1,283.89212,1617396532999
Fix,GT,37.3764271,-121.9394516,-21.683979479670526,29.364279,0.1,283.86755,1617396533999
Fix,GT,37.3764912,-121.9397745,-21.770992649555208,29.580833,0.1,283.92926,1617396534999
Fix,GT,37.3765553,-121.9401,-21.83499557685852,29.811707,0.1,283.77307,1617396535999
Fix,GT,37.3766198,-121.9404279,-21.89299704253673,30.006283,0.1,283.722,1617396536999
Fix,GT,37.3766839,-121.9407578,-21.915001483023165,30.13303,0.1,283.5334,1617396537999
Fix,GT,37.3767475,-121.941089,-21.95198363888264,30.204752,0.1,283.51862,1617396538999
Fix,GT,37.3768113,-121.941421,-22.03999403333664,30.287672,0.1,283.4776,1617396539999
Fix,GT,37.3768751,-121.9417536,-22.02101645618677,30.305538,0.1,283.45392,1617396540999
Fix,GT,37.3769384,-121.9420864,-21.96503000617028,30.301674,0.1,283.36377,1617396541999
Fix,GT,37.3770021,-121.942419,-21.819009027957915,30.289188,0.1,283.64923,1617396542999
Fix,GT,37.3770671,-121.9427511,-21.7630120716095,30.295692,0.1,283.66843,1617396543999
Fix,GT,37.3771314,-121.9430834,-21.679015133023263,30.273056,0.1,283.5289,1617396544999
Fix,GT,37.3771956,-121.9434153,-21.543010623157024,30.21279,0.1,283.40393,1617396545999
Fix,GT,37.3772587,-121.9437457,-21.30802435112,29.893944,0.1,283.31866,1617396546999
Fix,GT,37.3773207,-121.9440722,-21.07502594602108,29.617893,0.1,283.3055,1617396547999
Fix,GT,37.3773823,-121.9443976,-20.972010714113715,29.640976,0.1,283.36487,1617396548999
Fix,GT,37.3774448,-121.9447232,-21.027970836162567,29.679384,0.1,283.53317,1617396549999
Fix,GT,37.377508,-121.945049,-21.257938428401943,29.723503,0.1,283.65027,1617396550999
Fix,GT,37.3775718,-121.9453752,-21.672942887485025,29.770254,0.1,283.77072,1617396551999
Fix,GT,37.3776365,-121.9457017,-22.27189009678364,29.848356,0.1,283.9578,1617396552999
Fix,GT,37.3777017,-121.9460295,-23.0668742698431,29.994856,0.1,283.97327,1617396553999
Fix,GT,37.3777679,-121.9463588,-23.865866134524342,30.157108,0.1,284.1715,1617396554999
Fix,GT,37.3778348,-121.94669,-24.74886420458555,30.36084,0.1,283.8035,1617396555999
Fix,GT,37.3779011,-121.9470238,-25.47189513039589,30.562155,0.1,283.81638,1617396556999
Fix,GT,37.3779669,-121.9473598,-25.9119748878479,30.692757,0.1,283.52716,1617396557999
Fix,GT,37.378032,-121.9476965,-26.03900314772129,30.6809,0.1,283.4685,1617396558999
Fix,GT,37.378097,-121.9480328,-25.827052079021936,30.59497,0.1,283.6703,1617396559999
Fix,GT,37.3781627,-121.9483674,-25.25912027025223,30.42816,0.1,283.68243,1617396560999
Fix,GT,37.3782284,-121.9486998,-24.454144403755667,30.23896,0.1,283.84003,1617396561999
Fix,GT,37.3782936,-121.94903,-23.60412411403656,30.012396,0.1,283.92902,1617396562999
Fix,GT,37.3783589,-121.9493575,-22.914098920822145,29.760893,0.1,284.0332,1617396563999
Fix,GT,37.378424,-121.9496808,-22.426060794234274,29.28082,0.1,284.12836,1617396564999
Fix,GT,37.3784871,-121.9499989,-22.1150336869359,28.796469,0.1,283.76285,1617396565999
Fix,GT,37.378549,-121.9503122,-22.003009650945664,28.390562,0.1,283.9383,1617396566999
Fix,GT,37.3786105,-121.9506213,-22.014008063912392,28.008587,0.1,283.9238,1617396567999
Fix,GT,37.3786712,-121.950926,-22.031008085668088,27.641119,0.1,284.02588,1617396568999
Fix,GT,37.3787325,-121.9512267,-22.045995135724542,27.40139,0.1,284.47556,1617396569999
Fix,GT,37.3787947,-121.9515255,-22.072,27.303123,0.1,284.6997,1617396570999
Fix,GT,37.3788582,-121.9518233,-22.114995109796524,27.317999,0.1,284.97714,1617396571999
Fix,GT,37.3789223,-121.9521217,-22.12100817209482,27.440474,0.1,285.04285,1617396572999
Fix,GT,37.3789885,-121.9524211,-22.12900819355249,27.610146,0.1,286.00537,1617396573999
Fix,GT,37.3790597,-121.9527213,-22.21798521244526,27.879416,0.1,286.74246,1617396574999
Fix,GT,37.379133,-121.9530249,-22.264981879115105,28.340157,0.1,286.71844,1617396575999
Fix,GT,37.3792074,-121.9533351,-22.29898678636551,29.014418,0.1,286.56873,1617396576999
Fix,GT,37.3792831,-121.9536518,-22.34299668800831,29.532772,0.1,286.64417,1617396577999
Fix,GT,37.3793604,-121.9539726,-22.36199501895905,29.683172,0.1,287.04816,1617396578999
Fix,GT,37.3794399,-121.9542911,-22.395993341207504,29.40885,0.1,287.51935,1617396579999
Fix,GT,37.3795205,-121.9546055,-22.404015021443364,29.092524,0.1,288.03674,1617396580999
Fix,GT,37.3796026,-121.9549152,-22.4190016733408,28.72026,0.1,288.59558,1617396581999
Fix,GT,37.3796858,-121.9552211,-22.40299832230806,28.590996,0.1,288.87924,1617396582999
Fix,GT,37.3797702,-121.9555264,-22.43598486214876,28.632517,0.1,289.25867,1617396583999
Fix,GT,37.3798562,-121.9558316,-22.436003372669223,28.70954,0.1,289.62695,1617396584999
Fix,GT,37.3799437,-121.9561371,-22.447001690626145,28.795803,0.1,289.68097,1617396585999
Fix,GT,37.3800312,-121.9564426,-22.439003389954568,28.631739,0.1,289.71735,1617396586999
Fix,GT,37.380118,-121.9567452,-22.43999490219355,28.321619,0.1,289.6511,1617396587999
Fix,GT,37.3802034,-121.9570445,-22.437,27.991453,0.1,289.60797,1617396588999
Fix,GT,37.380288,-121.9573402,-22.45199829208851,27.638338,0.1,289.68033,1617396589999
Fix,GT,37.3803716,-121.957632,-22.44999143838882,27.287674,0.1,289.77124,1617396590999
Fix,GT,37.3804555,-121.9579195,-22.44900171661377,26.94544,0.1,290.41058,1617396591999
Fix,GT,37.3805424,-121.9582013,-22.45699655807018,26.584976,0.1,291.7478,1617396592999
Fix,GT,37.3806332,-121.9584769,-22.50099137371779,26.217615,0.1,292.90524,1617396593999
Fix,GT,37.3807254,-121.9587465,-22.57698270392418,25.728945,0.1,292.9942,1617396594999
Fix,GT,37.3808157,-121.9590119,-22.618987862706184,25.393164,0.1,293.07846,1617396595999
Fix,GT,37.3809054,-121.9592738,-22.64397914099693,25.086277,0.1,293.1832,1617396596999
Fix,GT,37.3809945,-121.9595322,-22.774991287291048,24.768118,0.1,293.20233,1617396597999
Fix,GT,37.3810812,-121.9597879,-22.83000698757172,24.451412,0.1,292.71088,1617396598999
Fix,GT,37.381165,-121.9600418,-23.016992995262147,24.24123,0.1,291.97583,1617396599999
Fix,GT,37.3812455,-121.9602961,-23.13297191143036,24.156164,0.1,291.21582,1617396600999
Fix,GT,37.3813222,-121.9605502,-23.22697712224722,24.003103,0.1,290.19287,1617396601999
Fix,GT,37.381396,-121.9608059,-23.24899470746517,24.206121,0.1,289.60797,1617396602999
Fix,GT,37.3814704,-121.9610646,-23.276035369396208,24.53599,0.1,289.73007,1617396603999
Fix,GT,37.3815453,-121.9613269,-23.252984044611456,24.77977,0.1,289.573,1617396604999
Fix,GT,37.3816206,-121.9615899,-23.21001066303253,24.621128,0.1,289.68732,1617396605999
Fix,GT,37.3816954,-121.96185,-23.154033848941324,24.390375,0.1,289.66855,1617396606999
Fix,GT,37.3817684,-121.962109,-23.06601071488857,24.261732,0.1,289.36975,1617396607999
Fix,GT,37.3818406,-121.9623657,-22.996037593483923,23.943865,0.1,289.45203,1617396608999
Fix,GT,37.3819124,-121.9626184,-22.949,23.542437,0.1,289.64368,1617396609999
Fix,GT,37.3819839,-121.9628662,-22.89502338451147,23.165817,0.1,290.05597,1617396610999
Fix,GT,37.3820572,-121.963109,-22.87299098449945,22.824015,0.1,291.41635,1617396611999
Fix,GT,37.3821339,-121.963346,-22.90197469568253,22.50369,0.1,292.32938,1617396612999
Fix,GT,37.3822102,-121.9635787,-22.87198550605774,21.996193,0.1,292.04276,1617396613999
Fix,GT,37.3822817,-121.9638044,-22.85699091953039,20.86648,0.1,291.3431,1617396614999
Fix,GT,37.3823474,-121.9640133,-22.86399271845817,18.816109,0.1,291.4646,1617396615999
Fix,GT,37.3824067,-121.9641992,-22.94698357737064,16.602398,0.1,292.0484,1617396616999
Fix,GT,37.3824661,-121.9643597,-23.06695427429676,14.862397,0.1,297.89917,1617396617999
Fix,GT,37.3825416,-121.964488,-23.393950498759743,13.792657,0.1,313.21298,1617396618999
Fix,GT,37.3826408,-121.9645749,-23.47902388972044,13.371118,0.1,333.20233,1617396619999
Fix,GT,37.3827544,-121.9646093,-23.33303315639496,13.0139475,0.1,354.81027,1617396620999
Fix,GT,37.3828679,-121.9645889,-23.10805908203125,12.798682,0.1,16.613678,1617396621999
Fix,GT,37.3829661,-121.9645189,-22.7500703252554,12.626921,0.1,37.560608,1617396622999
Fix,GT,37.383038,-121.9644115,-22.292092747807505,12.522312,0.1,57.130066,1617396623999
Fix,GT,37.3830787,-121.9642816,-21.683115277051925,12.463368,0.1,75.34012,1617396624999
Fix,GT,37.3830851,-121.9641429,-21.11909877389669,12.442159,0.1,93.680664,1617396625999
Fix,GT,37.3830561,-121.9640104,-20.465130760669705,12.0497465,0.1,112.32898,1617396626999
Fix,GT,37.3829979,-121.9639018,-19.92409361505508,11.402564,0.1,130.52618,1617396627999
Fix,GT,37.3829193,-121.9638266,-19.359110722482207,10.857326,0.1,149.23914,1617396628999
Fix,GT,37.3828283,-121.9637882,-18.840071475863457,10.807109,0.1,167.67761,1617396629999
Fix,GT,37.3827299,-121.9637871,-18.302099920630454,11.313124,0.1,185.23672,1617396630999
Fix,GT,37.3826283,-121.9638145,-17.66712471270561,11.890524,0.1,194.77902,1617396631999
Fix,GT,37.3825227,-121.9638575,-17.12509090900421,12.884238,0.1,199.3485,1617396632999
Fix,GT,37.3824085,-121.9639095,-16.77507972562313,14.083378,0.1,200.28368,1617396633999
Fix,GT,37.3822845,-121.9639683,-16.45903044128418,15.31141,0.1,200.76843,1617396634999
Fix,GT,37.3821506,-121.9640323,-16.267022882461546,16.440815,0.1,200.9132,1617396635999
Fix,GT,37.3820119,-121.9641001,-16.195001911222935,16.499796,0.1,201.47083,1617396636999
Fix,GT,37.3818743,-121.9641683,-16.25797318279743,16.343344,0.1,201.25941,1617396637999
Fix,GT,37.3817385,-121.9642338,-16.448940484166144,15.741541,0.1,200.90405,1617396638999
Fix,GT,37.3816113,-121.9642961,-16.787957668542862,14.530815,0.1,201.87106,1617396639999
Fix,GT,37.3815002,-121.964365,-17.220899717569353,13.228408,0.1,210.47571,1617396640999
Fix,GT,37.3814099,-121.9644553,-17.99883957761526,12.667639,0.1,223.90842,1617396641999
Fix,GT,37.3813414,-121.9645697,-19.049748178124428,12.879484,0.1,238.63208,1617396642999
Fix,GT,37.3813011,-121.9647059,-19.83287768912315,13.014064,0.1,257.00348,1617396643999
Fix,GT,37.3813026,-121.9648501,-20.48186184442044,12.926834,0.1,279.96243,1617396644999
Fix,GT,37.3813514,-121.9649798,-21.214881041169168,12.898274,0.1,304.46106,1617396645999
Fix,GT,37.3814378,-121.9650735,-21.850861230790617,12.878312,0.1,328.3164,1617396646999
Fix,GT,37.381547,-121.9651196,-22.686860926091672,13.036147,0.1,348.42746,1617396647999
Fix,GT,37.3816626,-121.9651161,-23.263892027378084,12.93826,0.1,9.955505,1617396648999
Fix,GT,37.3817668,-121.9650583,-23.607944911956785,12.696906,0.1,32.573364,1617396649999
Fix,GT,37.381844,-121.9649578,-23.72597831040621,12.3816805,0.1,54.199738,1617396650999
Fix,GT,37.3818858,-121.9648319,-23.71004545104504,11.9554825,0.1,75.43677,1617396651999
Fix,GT,37.3818892,-121.9647095,-23.350083180308346,9.8231325,0.1,94.687256,1617396652999
Fix,GT,37.3818771,-121.9646099,-23.135037710726262,8.518969,0.1,99.149994,1617396653999
Fix,GT,37.3818611,-121.9645179,-22.97402188038826,8.472658,0.1,104.03479,1617396654999
Fix,GT,37.3818378,-121.9644228,-22.89400797367096,9.000997,0.1,107.37564,1617396655999
Fix,GT,37.3818124,-121.9643226,-22.85900399553776,9.723023,0.1,107.272675,1617396656999
Fix,GT,37.3817858,-121.9642098,-22.81002002060413,11.160059,0.1,106.1062,1617396657999
Fix,GT,37.3817567,-121.9640804,-22.797,12.648461,0.1,105.5014,1617396658999
Fix,GT,37.3817254,-121.9639344,-22.78401005411148,14.020468,0.1,104.86612,1617396659999
Fix,GT,37.3816893,-121.9637773,-22.724002015054225,15.089409,0.1,106.49695,1617396660999
Fix,GT,37.3816467,-121.9636059,-22.73598384523392,16.74171,0.1,107.66156,1617396661999
Fix,GT,37.3815976,-121.963417,-22.816975714921952,18.431416,0.1,108.18524,1617396662999
Fix,GT,37.3815421,-121.963211,-22.77498377609253,20.070625,0.1,108.754974,1617396663999
Fix,GT,37.381481,-121.9629878,-22.788971547245986,21.742367,0.1,108.77765,1617396664999
Fix,GT,37.3814151,-121.9627467,-22.824987780213355,23.365866,0.1,108.70041,1617396665999
Fix,GT,37.381345,-121.9624891,-22.82797754853964,24.87047,0.1,108.841064,1617396666999
Fix,GT,37.3812689,-121.9622158,-22.896973410665986,26.396667,0.1,109.3457,1617396667999
Fix,GT,37.3811872,-121.9619278,-22.868991801261902,27.668701,0.1,109.621216,1617396668999
Fix,GT,37.3811019,-121.9616336,-22.816006161928176,27.632029,0.1,109.94705,1617396669999
Fix,GT,37.3810174,-121.9613414,-22.76804528319836,27.39862,0.1,109.86246,1617396670999
Fix,GT,37.3809348,-121.9610513,-22.626037127137185,27.124582,0.1,109.176575,1617396671999
Fix,GT,37.3808568,-121.960763,-22.4680289375782,26.806082,0.1,108.385254,1617396672999
Fix,GT,37.3807828,-121.9604766,-22.421018641352653,26.494043,0.1,107.67282,1617396673999
Fix,GT,37.3807114,-121.9601927,-22.41595018386841,26.217175,0.1,107.23306,1617396674999
Fix,GT,37.3806408,-121.9599117,-22.49600416004657,25.977621,0.1,107.61264,1617396675999
Fix,GT,37.3805697,-121.9596337,-22.501008337259297,25.721788,0.1,107.78903,1617396676999
Fix,GT,37.380498,-121.9593592,-22.44899791133404,25.454716,0.1,108.000854,1617396677999
Fix,GT,37.3804262,-121.9590874,-22.405004185915,25.339611,0.1,108.29132,1617396678999
Fix,GT,37.3803541,-121.9588135,-22.37501468116045,25.97189,0.1,107.89377,1617396679999
Fix,GT,37.3802815,-121.9585297,-22.32402732080221,26.55536,0.1,107.6626,1617396680999
Fix,GT,37.3802088,-121.9582454,-22.29900842356681,26.29471,0.1,107.61395,1617396681999
Fix,GT,37.3801364,-121.9579644,-22.278008440971373,26.001247,0.1,108.04721,1617396682999
Fix,GT,37.3800634,-121.9576872,-22.25706555056572,25.719885,0.1,108.27704,1617396683999
Fix,GT,37.3799914,-121.9574125,-22.26997245371341,25.521791,0.1,107.83246,1617396684999
Fix,GT,37.379922,-121.9571371,-22.211980890333653,25.599127,0.1,107.29672,1617396685999
Fix,GT,37.3798528,-121.9568623,-22.217006382763383,25.432592,0.1,107.629974,1617396686999
Fix,GT,37.379783,-121.9565898,-22.16801918745041,25.312853,0.1,107.912994,1617396687999
Fix,GT,37.3797111,-121.9563179,-22.12602136230469,25.410534,0.1,108.542694,1617396688999
Fix,GT,37.3796372,-121.9560464,-22.06801498407125,25.424242,0.1,109.020996,1617396689999
Fix,GT,37.3795619,-121.9557755,-22.01700857949257,25.324099,0.1,109.28375,1617396690999
Fix,GT,37.3794868,-121.9555067,-21.996,25.11286,0.1,109.07648,1617396691999
Fix,GT,37.3794143,-121.9552391,-22.005,24.98241,0.1,108.58655,1617396692999
Fix,GT,37.3793424,-121.9549717,-21.99100863146782,25.028524,0.1,108.503296,1617396693999
Fix,GT,37.3792716,-121.9547025,-21.98600648647547,25.20008,0.1,107.95624,1617396694999
Fix,GT,37.3792021,-121.95443,-21.96501083284616,25.462574,0.1,107.38089,1617396695999
Fix,GT,37.3791341,-121.9541536,-21.942006512582303,25.774765,0.1,106.77582,1617396696999
Fix,GT,37.379067,-121.9538725,-21.92800217521191,26.213125,0.1,106.47882,1617396697999
Fix,GT,37.3790004,-121.9535859,-21.898010897517203,26.676271,0.1,105.821045,1617396698999
Fix,GT,37.3789347,-121.9532933,-21.883,27.126883,0.1,105.4675,1617396699999
Fix,GT,37.3788699,-121.9529973,-21.857008752584456,27.217993,0.1,105.177185,1617396700999
Fix,GT,37.3788055,-121.9526998,-21.83700219249725,27.404324,0.1,105.056335,1617396701999
Fix,GT,37.3787416,-121.9523995,-21.81300439357757,27.633509,0.1,104.7655,1617396702999
Fix,GT,37.3786773,-121.9520968,-21.82200440227985,27.885437,0.1,104.83429,1617396703999
Fix,GT,37.3786131,-121.9517921,-21.82101323258877,27.836962,0.1,104.70096,1617396704999
Fix,GT,37.3785503,-121.9514894,-21.806,27.555435,0.1,104.45007,1617396705999
Fix,GT,37.3784889,-121.9511897,-21.786006642222407,27.229116,0.1,104.33258,1617396706999
Fix,GT,37.3784282,-121.9508941,-21.77301109212637,26.854597,0.1,104.40375,1617396707999
Fix,GT,37.3783686,-121.9506022,-21.77199777728319,26.5304,0.1,104.08365,1617396708999
Fix,GT,37.3783108,-121.9503132,-21.81697995585204,26.254547,0.1,104.04587,1617396709999
Fix,GT,37.3782531,-121.9500272,-21.99095760303736,26.015799,0.1,104.10193,1617396710999
Fix,GT,37.3781965,-121.9497433,-22.28492398381233,25.824575,0.1,103.84906,1617396711999
Fix,GT,37.3781407,-121.949461,-22.68191263759136,25.6798,0.1,103.81189,1617396712999
Fix,GT,37.3780854,-121.9491803,-23.243858601987363,25.560299,0.1,103.757355,1617396713999
Fix,GT,37.3780304,-121.9489004,-23.875847088098528,25.509596,0.1,103.75604,1617396714999
Fix,GT,37.3779753,-121.9486208,-24.59984228610993,25.498348,0.1,103.75897,1617396715999
Fix,GT,37.3779204,-121.9483415,-25.18488261795044,25.449888,0.1,103.819824,1617396716999
Fix,GT,37.3778647,-121.9480634,-25.57893667078018,25.3232,0.1,104.0289,1617396717999
Fix,GT,37.3778095,-121.9477872,-25.788975072801115,25.104446,0.1,103.83972,1617396718999
Fix,GT,37.3777555,-121.9475133,-25.784009081602097,24.854458,0.1,103.77655,1617396719999
Fix,GT,37.3777018,-121.9472427,-25.62807506483793,24.51269,0.1,103.82843,1617396720999
Fix,GT,37.3776494,-121.9469762,-25.245100277900697,24.108566,0.1,103.75598,1617396721999
Fix,GT,37.3775974,-121.9467136,-24.69813928341865,23.877659,0.1,103.90048,1617396722999
Fix,GT,37.3775453,-121.9464517,-24.05415098726749,23.988476,0.1,103.86359,1617396723999
Fix,GT,37.3774928,-121.9461875,-23.39216043841839,24.230972,0.1,103.82184,1617396724999
Fix,GT,37.3774403,-121.9459203,-22.718160742998123,24.50404,0.1,103.69638,1617396725999
Fix,GT,37.3773879,-121.9456498,-22.144119638442994,24.818594,0.1,103.521576,1617396726999
Fix,GT,37.3773344,-121.9453756,-21.670103726387023,25.175611,0.1,103.70233,1617396727999
Fix,GT,37.3772802,-121.9450977,-21.301076209604737,25.445265,0.1,103.56827,1617396728999
Fix,GT,37.3772258,-121.9448178,-21.071032391428947,25.59782,0.1,103.570496,1617396729999
Fix,GT,37.3771715,-121.9445359,-20.94200927209854,25.712946,0.1,103.47656,1617396730999
Fix,GT,37.377117,-121.9442548,-20.96798142147064,25.495764,0.1,103.68149,1617396731999
Fix,GT,37.3770624,-121.9439765,-21.12495579332113,25.299736,0.1,103.64392,1617396732999
Fix,GT,37.3770086,-121.9436998,-21.365953380823136,25.126617,0.1,103.534546,1617396733999
Fix,GT,37.376956,-121.9434261,-21.526964971244336,24.702442,0.1,103.32843,1617396734999
Fix,GT,37.3769052,-121.9431573,-21.59699298119545,24.201176,0.1,103.23212,1617396735999
Fix,GT,37.3768548,-121.9428932,-21.6229953122139,23.9198,0.1,103.34299,1617396736999
Fix,GT,37.376805,-121.942632,-21.63899060678482,23.65833,0.1,103.312775,1617396737999
Fix,GT,37.3767561,-121.9423733,-21.67199529469013,23.410913,0.1,103.14337,1617396738999
Fix,GT,37.3767079,-121.9421174,-21.69798821526766,23.146389,0.1,103.1853,1617396739999
Fix,GT,37.37666,-121.9418646,-21.707002361297608,22.867449,0.1,103.26904,1617396740999
Fix,GT,37.3766124,-121.9416151,-21.72599526882172,22.59987,0.1,103.439575,1617396741999
Fix,GT,37.376565,-121.9413683,-21.73999526011944,22.34879,0.1,103.39896,1617396742999
Fix,GT,37.3765183,-121.9411243,-21.73399050307274,22.089828,0.1,103.538055,1617396743999
Fix,GT,37.3764714,-121.9408834,-21.733,21.830597,0.1,103.63101,1617396744999
Fix,GT,37.3764246,-121.9406456,-21.739997617125507,21.570475,0.1,103.86151,1617396745999
Fix,GT,37.3763778,-121.9404106,-21.73699761277437,21.334936,0.1,103.911896,1617396746999
Fix,GT,37.3763321,-121.940178,-21.720007174730306,21.086887,0.1,103.60974,1617396747999
Fix,GT,37.3762872,-121.9399481,-21.668011979639527,20.830946,0.1,103.6604,1617396748999
Fix,GT,37.3762429,-121.9397211,-21.60901200109721,20.569996,0.1,103.67737,1617396749999
Fix,GT,37.3761991,-121.9394969,-21.5520120228529,20.30754,0.1,103.5708,1617396750999
Fix,GT,37.3761563,-121.9392756,-21.495007226586345,20.04448,0.1,103.57706,1617396751999
Fix,GT,37.3761136,-121.9390586,-21.45501689249277,19.509237,0.1,104.03174,1617396752999
Fix,GT,37.3760702,-121.9388497,-21.39601208752393,18.643433,0.1,104.96777,1617396753999
Fix,GT,37.3760264,-121.9386522,-21.359004843831062,17.749952,0.1,105.76413,1617396754999
Fix,GT,37.3759827,-121.9384619,-21.32500727880001,17.405537,0.1,106.00186,1617396755999
Fix,GT,37.3759402,-121.938274,-21.27801458334923,17.155062,0.1,105.41696,1617396756999
Fix,GT,37.3758993,-121.9380887,-21.28101217454672,16.922056,0.1,105.460266,1617396757999
Fix,GT,37.3758585,-121.937906,-21.266007317602632,16.708942,0.1,105.69165,1617396758999
Fix,GT,37.3758178,-121.937725,-21.213017104446887,16.584213,0.1,105.51727,1617396759999
Fix,GT,37.3757764,-121.937546,-21.194007343530657,16.497776,0.1,106.93115,1617396760999
Fix,GT,37.3757305,-121.9373665,-21.18100735640526,16.98291,0.1,107.79855,1617396761999
Fix,GT,37.3756842,-121.9371797,-21.14900982618332,17.69109,0.1,106.27301,1617396762999
Fix,GT,37.37564,-121.936983,-21.085012304484845,18.509443,0.1,105.16144,1617396763999
Fix,GT,37.375596,-121.9367774,-21.02302218669653,19.058285,0.1,104.74457,1617396764999
Fix,GT,37.3755527,-121.9365704,-20.91603951263428,18.824654,0.1,104.44409,1617396765999
Fix,GT,37.3755107,-121.9363662,-20.83701731681824,18.51882,0.1,104.29343,1617396766999
Fix,GT,37.3754696,-121.9361651,-20.804,18.232063,0.1,104.19824,1617396767999
Fix,GT,37.3754298,-121.9359671,-20.751014894843102,17.94335,0.1,103.94733,1617396768999
Fix,GT,37.3753907,-121.9357722,-20.704012434124948,17.652561,0.1,104.003876,1617396769999
Fix,GT,37.3753525,-121.9355803,-20.66900249111653,17.427217,0.1,103.81915,1617396770999
Fix,GT,37.3753155,-121.9353898,-20.632002495467663,17.349428,0.1,103.54852,1617396771999
Fix,GT,37.3752788,-121.9351995,-20.57902249836922,17.350933,0.1,103.67633,1617396772999
Fix,GT,37.3752414,-121.9350091,-20.53200250416994,17.418186,0.1,103.822754,1617396773999
Fix,GT,37.3752031,-121.9348168,-20.491017559230325,17.758858,0.1,104.028046,1617396774999
Fix,GT,37.3751633,-121.9346203,-20.44301256406307,18.181213,0.1,104.2952,1617396775999
Fix,GT,37.3751215,-121.9344192,-20.444989931583404,18.668983,0.1,104.70297,1617396776999
Fix,GT,37.3750772,-121.9342129,-20.417017650187017,19.207876,0.1,105.16531,1617396777999
Fix,GT,37.3750304,-121.9340027,-20.32202020597457,19.480312,0.1,105.728516,1617396778999
Fix,GT,37.3749817,-121.9337886,-20.262017710685733,20.054136,0.1,105.83667,1617396779999
Fix,GT,37.3749311,-121.9335659,-20.222030412673952,20.959642,0.1,105.882935,1617396780999
Fix,GT,37.3748777,-121.9333362,-20.18002538740635,21.368763,0.1,106.4577,1617396781999
Fix,GT,37.3748222,-121.933105,-20.124035603284835,21.301716,0.1,106.79291,1617396782999
Fix,GT,37.3747668,-121.9328763,-20.09599235767126,21.023363,0.1,106.91077,1617396783999
Fix,GT,37.3747117,-121.9326508,-20.1649515170455,20.769085,0.1,106.91919,1617396784999
Fix,GT,37.3746569,-121.9324276,-20.30597699522972,20.658073,0.1,107.11865,1617396785999
Fix,GT,37.3746015,-121.9322051,-20.33297951698303,20.638912,0.1,107.19687,1617396786999
Fix,GT,37.3745459,-121.9319826,-20.391982046902186,20.63515,0.1,107.24121,1617396787999
Fix,GT,37.3744911,-121.9317607,-20.423961464703083,20.474483,0.1,106.85803,1617396788999
Fix,GT,37.3744379,-121.9315408,-20.40100257337093,20.218462,0.1,106.79309,1617396789999
Fix,GT,37.3743849,-121.9313239,-20.430976799964903,19.97049,0.1,106.942566,1617396790999
Fix,GT,37.3743325,-121.9311097,-20.476976761341096,19.727274,0.1,107.02399,1617396791999
Fix,GT,37.3742799,-121.9308983,-20.507992240726946,19.485842,0.1,107.413025,1617396792999
Fix,GT,37.3742251,-121.9306906,-20.564976683557035,19.367567,0.1,109.11566,1617396793999
Fix,GT,37.3741658,-121.9304837,-20.630984429597856,19.610935,0.1,109.89191,1617396794999
Fix,GT,37.3741041,-121.9302741,-20.715976605772973,19.977121,0.1,110.426544,1617396795999
Fix,GT,37.37404,-121.9300608,-20.798945322096348,20.41421,0.1,110.66345,1617396796999
Fix,GT,37.3739735,-121.9298447,-20.937932191967963,20.496778,0.1,111.13086,1617396797999
Fix,GT,37.3739062,-121.92963,-21.101945141851903,20.325449,0.1,111.47876,1617396798999
Fix,GT,37.3738376,-121.9294187,-21.219002616643905,20.090233,0.1,112.58542,1617396799999
Fix,GT,37.3737637,-121.9292131,-21.40396330690384,19.87868,0.1,115.46765,1617396800999
Fix,GT,37.3736809,-121.9290158,-21.535984248280528,19.644054,0.1,119.26938,1617396801999
Fix,GT,37.373589,-121.9288281,-21.589989481687542,19.437813,0.1,123.08624,1617396802999
Fix,GT,37.3734872,-121.9286484,-21.63499736601114,19.69299,0.1,126.81708,1617396803999
Fix,GT,37.3733743,-121.9284744,-21.577013191699983,20.08507,0.1,130.68344,1617396804999
Fix,GT,37.3732503,-121.928306,-21.546013213157654,20.530945,0.1,133.7912,1617396805999
Fix,GT,37.3731161,-121.9281425,-21.49601058793068,21.068913,0.1,137.12943,1617396806999
Fix,GT,37.3729703,-121.9279857,-21.40803181529045,21.597614,0.1,140.99268,1617396807999
Fix,GT,37.3728121,-121.9278388,-21.336029212534424,22.145254,0.1,145.37701,1617396808999
Fix,GT,37.3726405,-121.9277067,-21.25902127981185,22.57975,0.1,150.92133,1617396809999
Fix,GT,37.3724567,-121.9275948,-21.22002930760384,22.823605,0.1,156.77698,1617396810999
Fix,GT,37.3722629,-121.927505,-20.65625885605812,23.048275,0.1,161.8385,1617396811999
Fix,GT,37.3720624,-121.9274313,-20.055082862079143,23.35832,0.1,164.40747,1617396812999
Fix,GT,37.3718573,-121.9273611,-19.69509638142586,23.826122,0.1,164.64777,1617396813999
Fix,GT,37.3716479,-121.92729,-19.408056313872336,24.354788,0.1,164.78784,1617396814999
Fix,GT,37.3714348,-121.927217,-19.1700429763794,24.647161,0.1,164.32428,1617396815999
Fix,GT,37.3712206,-121.9271389,-19.06202152252197,24.835049,0.1,163.18872,1617396816999
Fix,GT,37.3710062,-121.9270539,-19.05696766400337,25.093967,0.1,161.8125,1617396817999
Fix,GT,37.370791,-121.9269612,-19.21295141875744,25.410276,0.1,160.432,1617396818999
Fix,GT,37.3705745,-121.9268615,-19.506927010655406,25.8037,0.1,159.32178,1617396819999
Fix,GT,37.3703562,-121.9267512,-19.64298104679585,26.403378,0.1,156.53833,1617396820999
Fix,GT,37.3701389,-121.926623,-19.53009220433235,26.859604,0.1,152.93549,1617396821999
Fix,GT,37.369925,-121.9264767,-19.01917655581236,27.195068,0.1,150.06165,1617396822999
Fix,GT,37.3697152,-121.9263153,-18.104239417552947,27.36046,0.1,146.5835,1617396823999
Fix,GT,37.3695144,-121.9261361,-17.309185296297077,27.362844,0.1,142.66718,1617396824999
Fix,GT,37.3693236,-121.9259401,-16.50621834373474,27.395018,0.1,138.73947,1617396825999
Fix,GT,37.3691418,-121.9257299,-15.663254223704335,27.450468,0.1,135.58127,1617396826999
Fix,GT,37.3689695,-121.925507,-14.826210821330548,27.510384,0.1,132.55945,1617396827999
Fix,GT,37.3688059,-121.9252726,-14.180139853775502,27.640009,0.1,129.72247,1617396828999
Fix,GT,37.3686497,-121.9250286,-13.593164794921876,27.766598,0.1,127.93686,1617396829999
Fix,GT,37.3684957,-121.9247802,-13.113115539193153,27.948004,0.1,127.78818,1617396830999
Fix,GT,37.3683407,-121.9245301,-12.728151540637016,28.14731,0.1,127.58139,1617396831999
Fix,GT,37.368186,-121.9242773,-12.11417385327816,28.258888,0.1,127.19031,1617396832999
Fix,GT,37.3680318,-121.9240237,-11.395146488130091,28.211664,0.1,127.23947,1617396833999
Fix,GT,37.3678778,-121.9237709,-10.754240835011004,28.148552,0.1,127.256714,1617396834999
Fix,GT,37.3677235,-121.9235174,-10.23816080904007,28.29567,0.1,127.2605,1617396835999
Fix,GT,37.3675683,-121.9232628,-9.711127741098403,28.485756,0.1,127.29788,1617396836999
Fix,GT,37.3674111,-121.923007,-9.304097344517707,28.711842,0.1,127.66196,1617396837999
Fix,GT,37.367252,-121.9227496,-8.933075211822986,28.94619,0.1,127.56348,1617396838999
Fix,GT,37.3670923,-121.9224898,-8.749053008377553,29.125126,0.1,127.40381,1617396839999
Fix,GT,37.3669324,-121.9222285,-8.538047502517701,29.21881,0.1,127.3396,1617396840999
Fix,GT,37.3667719,-121.9219659,-8.410011194229126,29.368902,0.1,127.234375,1617396841999
Fix,GT,37.3666103,-121.9217021,-8.300025226175785,29.541033,0.1,127.73831,1617396842999
Fix,GT,37.3664447,-121.92144,-8.217044916152954,29.700226,0.1,129.04163,1617396843999
Fix,GT,37.3662722,-121.9211828,-8.029056232213975,29.819046,0.1,130.94821,1617396844999
Fix,GT,37.366092,-121.9209326,-7.854053502142429,29.927979,0.1,132.86841,1617396845999
Fix,GT,37.3659057,-121.9206876,-7.6750620455741885,30.048828,0.1,134.3374,1617396846999
Fix,GT,37.3657131,-121.9204484,-7.492039543628692,30.178982,0.1,135.90536,1617396847999
Fix,GT,37.3655148,-121.9202143,-7.335042434334755,30.303339,0.1,137.5752,1617396848999
Fix,GT,37.3653103,-121.919987,-7.135070832669735,30.348177,0.1,139.07397,1617396849999
Fix,GT,37.3651011,-121.919766,-7.062005675196648,30.421415,0.1,140.50244,1617396850999
Fix,GT,37.364887,-121.9195509,-7.016025577545166,30.553314,0.1,142.00665,1617396851999
Fix,GT,37.3646662,-121.9193433,-7.100951613903045,30.74023,0.1,144.03662,1617396852999
Fix,GT,37.3644391,-121.9191439,-7.314920185089112,30.810627,0.1,145.82956,1617396853999
Fix,GT,37.3642068,-121.918953,-7.615954320907592,30.895752,0.1,147.49402,1617396854999
Fix,GT,37.3639695,-121.9187693,-7.928857035279274,31.05061,0.1,148.92578,1617396855999
Fix,GT,37.3637278,-121.9185904,-8.424851093530656,31.287897,0.1,149.48236,1617396856999
Fix,GT,37.363484,-121.9184103,-8.933842263460157,31.521011,0.1,149.31958,1617396857999
Fix,GT,37.3632382,-121.9182293,-9.484819049596783,31.76581,0.1,149.3617,1617396858999
Fix,GT,37.3629908,-121.9180466,-10.290778503358364,31.991999,0.1,149.38385,1617396859999
Fix,GT,37.3627418,-121.9178621,-11.11175223994255,32.22401,0.1,149.1741,1617396860999
Fix,GT,37.3624914,-121.9176755,-11.896815341949464,32.43299,0.1,149.04718,1617396861999
Fix,GT,37.3622395,-121.9174874,-12.721774613261225,32.65497,0.1,149.09882,1617396862999
Fix,GT,37.3619859,-121.917298,-13.557762698173525,32.86052,0.1,148.99536,1617396863999
Fix,GT,37.3617312,-121.9171077,-14.2118232088089,32.960426,0.1,149.15796,1617396864999
Fix,GT,37.3614757,-121.9169177,-14.679883897304537,32.964916,0.1,149.20166,1617396865999
Fix,GT,37.361221,-121.9167286,-14.972962209284306,32.70873,0.1,149.28815,1617396866999
Fix,GT,37.360969,-121.9165411,-15.1879505084157,32.348377,0.1,149.14087,1617396867999
Fix,GT,37.3607201,-121.9163553,-15.20599416875839,31.99791,0.1,149.08203,1617396868999
Fix,GT,37.3604737,-121.9161707,-15.14501751947403,31.724478,0.1,149.06458,1617396869999
Fix,GT,37.3602292,-121.9159883,-15.030017545580863,31.441963,0.1,149.10791,1617396870999
Fix,GT,37.3599869,-121.9158074,-14.946005857229231,31.180408,0.1,149.13,1617396871999
Fix,GT,37.3597467,-121.9156285,-14.877011731863025,30.854864,0.1,149.17316,1617396872999
Fix,GT,37.359509,-121.9154519,-14.761041121602055,30.472569,0.1,149.22089,1617396873999
