MessageType,Provider,LatitudeDegrees,LongitudeDegrees,AltitudeMeters,SpeedMps,AccuracyMeters,BearingDegrees,UnixTimeMillis
Fix,GT,34.2725488,-118.6156772,322.451,0.0,0.1,263.69092,1638907814999
Fix,GT,34.2725488,-118.6156772,322.451,0.0,0.1,263.691,1638907815999
Fix,GT,34.2725488,-118.6156772,322.451,0.0,0.1,263.6912,1638907816999
Fix,GT,34.2725488,-118.6156772,322.451,0.001,0.1,263.69153,1638907817999
Fix,GT,34.2725488,-118.6156772,322.451,6.268164e-06,0.1,263.6911,1638907818999
Fix,GT,34.2725488,-118.6156772,322.451,0.0,0.1,263.69135,1638907819999
Fix,GT,34.2725488,-118.6156772,322.451,6.2703552e-06,0.1,263.69153,1638907820999
Fix,GT,34.2725488,-118.6156772,322.451,0.001,0.1,263.69165,1638907821999
Fix,GT,34.2725488,-118.6156772,322.451,0.0014142136,0.1,263.6918,1638907822999
Fix,GT,34.2725488,-118.6156772,322.451,4.4362546e-06,0.1,263.69183,1638907823999
Fix,GT,34.2725488,-118.6156772,322.451,0.001,0.1,263.692,1638907824999
Fix,GT,34.2725488,-118.6156772,322.451,0.001,0.1,263.69168,1638907825999
Fix,GT,34.2725488,-118.6156772,322.451,0.001,0.1,263.69177,1638907826999
Fix,GT,34.2725488,-118.6156772,322.451,0.0014123747,0.1,263.6919,1638907827999
Fix,GT,34.2725488,-118.6156772,322.451,0.0010044405,0.1,263.69196,1638907828999
Fix,GT,34.2725488,-118.6156772,322.451,0.0022350196,0.1,263.6922,1638907829999
Fix,GT,34.2725488,-118.6156772,322.452,0.002236068,0.1,263.6922,1638907830999
Fix,GT,34.2725488,-118.6156772,322.4519955571293,0.009451342,0.1,263.6895,1638907831999
Fix,GT,34.2725488,-118.6156772,322.453,0.0031622776,0.1,263.69186,1638907832999
Fix,GT,34.2725488,-118.6156772,322.453,0.007044084,0.1,263.69324,1638907833999
Fix,GT,34.2725488,-118.6156772,322.453,0.0010054949,0.1,263.6936,1638907834999
Fix,GT,34.2725488,-118.6156772,322.453,0.003161556,0.1,263.69308,1638907835999
Fix,GT,34.2725488,-118.6156772,322.453,0.0031526615,0.1,263.69434,1638907836999
Fix,GT,34.2725488,-118.6156772,322.454,0.0042300597,0.1,263.6939,1638907837999
Fix,GT,34.2725488,-118.6156772,322.455,0.002236068,0.1,263.69327,1638907838999
Fix,GT,34.2725488,-118.6156772,322.456,0.0019955505,0.1,263.6937,1638907839999
Fix,GT,34.2725488,-118.6156772,322.458,0.002,0.1,263.69373,1638907840999
Fix,GT,34.2725489,-118.6156772,322.459,0.0041231057,0.1,263.69397,1638907841999
Fix,GT,34.2725488,-118.6156772,322.46,0.0063203727,0.1,263.6938,1638907842999
Fix,GT,34.2725488,-118.6156772,322.461,0.008544004,0.1,263.69373,1638907843999
Fix,GT,34.2725488,-118.6156772,322.46299554586415,0.011702364,0.1,263.6938,1638907844999
Fix,GT,34.2725487,-118.6156773,322.465,0.018774183,0.1,263.691,1638907845999
Fix,GT,34.2725486,-118.6156773,322.465,0.018378997,0.1,263.69122,1638907846999
Fix,GT,34.2725485,-118.6156774,322.465,0.02561643,0.1,263.6919,1638907847999
Fix,GT,34.2725483,-118.6156776,322.464,0.029154375,0.1,263.5191,1638907848999
Fix,GT,34.2725482,-118.6156777,322.463,0.033837847,0.1,263.51398,1638907849999
Fix,GT,34.2725471,-118.6156792,322.4719821624755,0.41740403,0.1,261.79547,1638907850999
Fix,GT,34.2725428,-118.6156854,322.51598215937616,0.73956585,0.1,253.70622,1638907851999
Fix,GT,34.2725374,-118.6156912,322.5429910779,0.6376267,0.1,245.18484,1638907852999
Fix,GT,34.2725339,-118.6156943,322.55200446194414,0.13109596,0.1,240.22879,1638907853999
Fix,GT,34.2725335,-118.6156944,322.54400446277856,0.04598454,0.1,240.07117,1638907854999
Fix,GT,34.2725332,-118.6156944,322.5360044636726,0.040513024,0.1,240.0726,1638907855999
Fix,GT,34.2725328,-118.6156943,322.52700892913344,0.044715382,0.1,240.0762,1638907856999
Fix,GT,34.2725325,-118.6156941,322.5170044654608,0.05262625,0.1,240.07668,1638907857999
Fix,GT,34.2725321,-118.6156937,322.5040089324713,0.06434119,0.1,240.0764,1638907858999
Fix,GT,34.2725317,-118.6156931,322.49100446718927,0.07999018,0.1,240.07672,1638907859999
Fix,GT,34.2725312,-118.6156924,322.4760044680834,0.08225239,0.1,240.0291,1638907860999
Fix,GT,34.2725271,-118.6156942,322.4669910620451,0.6655788,0.1,234.41412,1638907861999
Fix,GT,34.2725191,-118.6156973,322.45400446981193,0.87646294,0.1,223.65599,1638907862999
Fix,GT,34.2725072,-118.6156985,322.3830491777658,1.2995161,0.1,208.27338,1638907863999
Fix,GT,34.2724915,-118.6156943,322.34995528399946,1.6992439,0.1,187.70541,1638907864999
Fix,GT,34.2724735,-118.6156801,322.3949865825176,2.2847843,0.1,161.97229,1638907865999
Fix,GT,34.272459,-118.6156521,322.37802684032914,3.1731634,0.1,131.8836,1638907866999
Fix,GT,34.2724525,-118.6156099,322.21010738134385,4.3106503,0.1,103.48111,1638907867999
Fix,GT,34.2724554,-118.6155554,321.9461029290557,5.528496,0.1,87.31204,1638907868999
Fix,GT,34.2724589,-118.6154889,321.6571119017601,6.766392,0.1,86.35742,1638907869999
Fix,GT,34.2724635,-118.6154089,321.2921656476855,7.9283657,0.1,85.78772,1638907870999
Fix,GT,34.2724692,-118.6153175,320.8571970257759,8.996261,0.1,85.380066,1638907871999
Fix,GT,34.2724779,-118.6152151,320.4581970624924,9.927429,0.1,83.338196,1638907872999
Fix,GT,34.2724907,-118.6151035,320.0312418977022,10.855462,0.1,81.53122,1638907873999
Fix,GT,34.2725048,-118.6149843,319.4962374655008,11.275242,0.1,81.953156,1638907874999
Fix,GT,34.2725179,-118.6148616,318.92021510601046,11.535293,0.1,82.476166,1638907875999
Fix,GT,34.2725298,-118.6147358,318.34421066665647,11.78324,0.1,83.30997,1638907876999
Fix,GT,34.2725416,-118.614608,317.7182779598236,11.800501,0.1,83.27869,1638907877999
Fix,GT,34.2725533,-118.6144836,317.10127352750305,11.218958,0.1,82.98529,1638907878999
Fix,GT,34.2725642,-118.6143676,316.44928255194424,10.271462,0.1,83.14938,1638907879999
Fix,GT,34.2725725,-118.6142618,315.8282915799618,9.2956085,0.1,84.8186,1638907880999
Fix,GT,34.2725748,-118.6141624,315.2282916380763,9.227711,0.1,88.97992,1638907881999
Fix,GT,34.2725678,-118.6140622,314.4923096508384,9.346226,0.1,97.01282,1638907882999
Fix,GT,34.2725414,-118.6139648,313.7193770413399,9.670021,0.1,111.68579,1638907883999
Fix,GT,34.2724953,-118.613877,312.931287322998,9.519215,0.1,125.44708,1638907884999
Fix,GT,34.2724366,-118.6138007,312.3532559480072,9.754435,0.1,134.24268,1638907885999
Fix,GT,34.2723676,-118.6137332,311.8762065956592,10.00833,0.1,142.96277,1638907886999
Fix,GT,34.272289,-118.6136777,311.35623359251025,10.285026,0.1,151.93234,1638907887999
Fix,GT,34.2722039,-118.6136295,310.7632785695791,10.594246,0.1,154.45453,1638907888999
Fix,GT,34.2721187,-118.6135752,310.16427412742377,10.647025,0.1,150.91083,1638907889999
Fix,GT,34.2720396,-118.6135133,309.6442292340994,10.3866,0.1,145.09955,1638907890999
Fix,GT,34.2719658,-118.613443,309.17521579265593,10.4766655,0.1,139.95993,1638907891999
Fix,GT,34.2718972,-118.6133625,308.6362742946744,10.732372,0.1,133.9845,1638907892999
Fix,GT,34.2718345,-118.6132708,308.07126085662844,11.227102,0.1,127.362976,1638907893999
Fix,GT,34.2717787,-118.6131646,307.58119793057443,11.860493,0.1,120.20157,1638907894999
Fix,GT,34.2717323,-118.6130452,307.1901439800263,12.265542,0.1,112.44568,1638907895999
Fix,GT,34.2717018,-118.6129195,306.9100990046263,11.678559,0.1,103.27124,1638907896999
Fix,GT,34.271689,-118.6127956,306.7220990242958,11.345337,0.1,94.391235,1638907897999
Fix,GT,34.2716916,-118.6126736,306.65602701199055,11.15796,0.1,85.293945,1638907898999
Fix,GT,34.2717126,-118.612553,306.6689954970479,11.629545,0.1,74.87445,1638907899999
Fix,GT,34.2717456,-118.6124285,306.6770045038462,12.422093,0.1,71.68707,1638907900999
Fix,GT,34.2717816,-118.6122964,306.66998198103903,13.19305,0.1,72.15607,1638907901999
Fix,GT,34.2718183,-118.6121546,306.6530045055747,14.238318,0.1,72.64929,1638907902999
Fix,GT,34.2718557,-118.6120007,306.6260225329399,15.340242,0.1,74.13208,1638907903999
Fix,GT,34.2718917,-118.6118334,306.5720495816469,16.464111,0.1,75.63739,1638907904999
Fix,GT,34.2719286,-118.6116552,306.5270405748486,17.308895,0.1,75.44275,1638907905999
Fix,GT,34.2719688,-118.6114703,306.46897745394705,17.873398,0.1,74.83673,1638907906999
Fix,GT,34.2720119,-118.6112813,306.4980135303139,18.238367,0.1,74.02637,1638907907999
Fix,GT,34.2720581,-118.6110885,306.408072175026,18.685219,0.1,73.28876,1638907908999
Fix,GT,34.2721064,-118.610894,306.4779593935013,18.585629,0.1,73.06525,1638907909999
Fix,GT,34.2721532,-118.6107018,306.508018050909,18.29414,0.1,73.672,1638907910999
Fix,GT,34.272195,-118.6105109,306.48200451362135,18.176025,0.1,76.055664,1638907911999
Fix,GT,34.2722291,-118.610318,306.43203160202506,18.200432,0.1,78.89786,1638907912999
Fix,GT,34.2722548,-118.6101219,306.34108579391244,18.390377,0.1,82.09003,1638907913999
Fix,GT,34.2722722,-118.6099231,306.0231490380168,18.411474,0.1,84.88483,1638907914999
Fix,GT,34.2722828,-118.6097243,305.5033071694374,18.168692,0.1,86.385284,1638907915999
Fix,GT,34.2722912,-118.6095301,304.7653975920677,17.670488,0.1,86.8519,1638907916999
Fix,GT,34.2722989,-118.6093393,303.77552872133253,17.532227,0.1,86.87158,1638907917999
Fix,GT,34.2723072,-118.6091492,302.6065107396841,17.540726,0.1,86.48117,1638907918999
Fix,GT,34.272316,-118.6089602,301.53744303584097,17.25687,0.1,86.54291,1638907919999
Fix,GT,34.2723237,-118.608775,300.51043860179186,16.974909,0.1,87.06665,1638907920999
Fix,GT,34.2723297,-118.6085917,299.53041607570646,16.849817,0.1,87.79083,1638907921999
Fix,GT,34.2723309,-118.6084089,298.48448401618003,16.777872,0.1,90.45233,1638907922999
Fix,GT,34.2723226,-118.6082276,297.41549316066505,16.744083,0.1,94.6409,1638907923999
Fix,GT,34.272303,-118.6080473,296.33745705568793,16.807257,0.1,99.11618,1638907924999
Fix,GT,34.2722745,-118.6078677,295.41142998313904,16.871283,0.1,101.2345,1638907925999
Fix,GT,34.2722434,-118.6076885,294.6712037164569,16.801184,0.1,101.51578,1638907926999
Fix,GT,34.272216,-118.6075095,294.1602807351351,16.740053,0.1,98.99512,1638907927999
Fix,GT,34.272198,-118.6073293,293.7741539819241,16.689049,0.1,95.04892,1638907928999
Fix,GT,34.2721917,-118.6071483,293.5130588870644,16.64584,0.1,90.02521,1638907929999
Fix,GT,34.2721987,-118.6069685,293.2940860838294,16.479273,0.1,85.319336,1638907930999
Fix,GT,34.2722155,-118.6067924,293.33594108891486,16.144978,0.1,81.97858,1638907931999
Fix,GT,34.2722422,-118.6066225,293.5928504289389,15.66912,0.1,76.930145,1638907932999
Fix,GT,34.2722787,-118.6064619,294.0687506591678,14.820706,0.1,73.62695,1638907933999
Fix,GT,34.2723155,-118.6063121,294.66274607896804,14.019664,0.1,73.03055,1638907934999
Fix,GT,34.2723499,-118.60617,295.3576371841431,13.235467,0.1,73.99872,1638907935999
Fix,GT,34.2723777,-118.6060355,296.22756452941894,12.292785,0.1,76.69708,1638907936999
Fix,GT,34.2723972,-118.6059096,297.1595871288181,11.347902,0.1,80.59177,1638907937999
Fix,GT,34.2724067,-118.6057921,298.0296006612777,10.491473,0.1,85.60748,1638907938999
Fix,GT,34.2724088,-118.6056809,298.8496414273977,10.009714,0.1,89.1358,1638907939999
Fix,GT,34.2724066,-118.6055748,299.66060957825187,9.521464,0.1,91.71991,1638907940999
Fix,GT,34.2724006,-118.6054731,300.4196412814259,9.307635,0.1,94.36716,1638907941999
Fix,GT,34.2723903,-118.6053746,301.18365029865504,8.877124,0.1,97.58429,1638907942999
Fix,GT,34.2723773,-118.6052842,301.88570018911366,8.031949,0.1,99.93561,1638907943999
Fix,GT,34.2723627,-118.6052045,302.4477682853937,6.851735,0.1,102.71939,1638907944999
Fix,GT,34.2723485,-118.605141,302.9118045917749,5.1875706,0.1,104.84674,1638907945999
Fix,GT,34.2723377,-118.6050964,303.2348590965867,3.3842194,0.1,105.58447,1638907946999
Fix,GT,34.2723309,-118.6050702,303.4309408990741,1.8152488,0.1,106.152435,1638907947999
Fix,GT,34.2723278,-118.6050587,303.5199818115234,0.47450796,0.1,106.37714,1638907948999
Fix,GT,34.2723274,-118.6050577,303.52599090385434,0.014145428,0.1,106.40668,1638907949999
Fix,GT,34.2723273,-118.6050577,303.527,0.0063304286,0.1,106.40637,1638907950999
Fix,GT,34.2723273,-118.6050577,303.5299954500794,0.002234994,0.1,106.40637,1638907951999
Fix,GT,34.2723273,-118.6050577,303.531,0.0014123286,0.1,106.40643,1638907952999
Fix,GT,34.2723273,-118.6050577,303.532,0.004239741,0.1,106.40668,1638907953999
Fix,GT,34.2723273,-118.6050577,303.532,0.005,0.1,106.40686,1638907954999
Fix,GT,34.2723273,-118.6050577,303.532,0.0056538633,0.1,106.40704,1638907955999
Fix,GT,34.2723273,-118.6050577,303.532,0.005660253,0.1,106.40692,1638907956999
Fix,GT,34.2723273,-118.6050577,303.532,0.0064031244,0.1,106.407166,1638907957999
Fix,GT,34.2723273,-118.6050577,303.532,0.0072088116,0.1,106.40738,1638907958999
Fix,GT,34.2723273,-118.6050577,303.532,0.0064005167,0.1,106.4075,1638907959999
Fix,GT,34.2723273,-118.6050577,303.532,0.00583356,0.1,106.40753,1638907960999
Fix,GT,34.2723273,-118.6050577,303.532,0.0053871972,0.1,106.40732,1638907961999
Fix,GT,34.2723273,-118.6050577,303.532,0.005830952,0.1,106.40756,1638907962999
Fix,GT,34.2723273,-118.6050577,303.532,0.0053834077,0.1,106.407684,1638907963999
Fix,GT,34.2723273,-118.6050577,303.532,0.004472136,0.1,106.40787,1638907964999
Fix,GT,34.2723273,-118.6050577,303.532,0.004997591,0.1,106.40811,1638907965999
Fix,GT,34.2723273,-118.6050577,303.532,0.0044710883,0.1,106.40811,1638907966999
Fix,GT,34.2723273,-118.6050577,303.532,0.0036055513,0.1,106.40805,1638907967999
Fix,GT,34.2723273,-118.6050577,303.532,0.0042397315,0.1,106.40793,1638907968999
Fix,GT,34.2723273,-118.6050577,303.532,0.004468179,0.1,106.4079,1638907969999
Fix,GT,34.2723273,-118.6050577,303.532,0.0036095094,0.1,106.40796,1638907970999
Fix,GT,34.2723273,-118.6050577,303.532,0.0036055513,0.1,106.40813,1638907971999
Fix,GT,34.2723273,-118.6050577,303.532,0.0036055513,0.1,106.408295,1638907972999
Fix,GT,34.2723273,-118.6050577,303.532,0.0036055513,0.1,106.4082,1638907973999
Fix,GT,34.2723273,-118.6050577,303.532,0.0036055513,0.1,106.408325,1638907974999
Fix,GT,34.2723273,-118.6050577,303.532,0.0031643044,0.1,106.40811,1638907975999
Fix,GT,34.2723273,-118.6050577,303.532,0.002829954,0.1,106.40848,1638907976999
Fix,GT,34.2723273,-118.6050577,303.532,0.0041207382,0.1,106.40784,1638907977999
Fix,GT,34.2723273,-118.6050577,303.532,0.0036084661,0.1,106.40811,1638907978999
Fix,GT,34.2723273,-118.6050577,303.532,0.003603523,0.1,106.40878,1638907979999
Fix,GT,34.2723273,-118.6050577,303.532,0.0036035224,0.1,106.40805,1638907980999
Fix,GT,34.2723273,-118.6050577,303.532,0.0031643067,0.1,106.408264,1638907981999
Fix,GT,34.2723273,-118.6050577,303.532,0.004472136,0.1,106.40817,1638907982999
Fix,GT,34.2723273,-118.6050577,303.532,0.004993613,0.1,106.40845,1638907983999
Fix,GT,34.2723273,-118.6050577,303.532,0.0036119393,0.1,106.40878,1638907984999
Fix,GT,34.2723273,-118.6050577,303.532,0.004239721,0.1,106.40851,1638907985999
Fix,GT,34.2723273,-118.6050577,303.532,0.0042426405,0.1,106.40863,1638907986999
Fix,GT,34.2723273,-118.6050577,303.532,0.004246112,0.1,106.40863,1638907987999
Fix,GT,34.2723273,-118.6050577,303.532,0.0049965275,0.1,106.40979,1638907988999
Fix,GT,34.2723273,-118.6050577,303.532,0.005,0.1,106.40979,1638907989999
Fix,GT,34.2723273,-118.6050577,303.532,0.005,0.1,106.40997,1638907990999
Fix,GT,34.2723273,-118.6050577,303.532,0.0049965256,0.1,106.410065,1638907991999
Fix,GT,34.2723273,-118.6050577,303.532,0.0042426405,0.1,106.40997,1638907992999
Fix,GT,34.2723273,-118.6050577,303.532,0.0042426405,0.1,106.40982,1638907993999
Fix,GT,34.2723273,-118.6050577,303.532,0.0044710827,0.1,106.408295,1638907994999
Fix,GT,34.2723273,-118.6050577,303.532,0.0028319953,0.1,106.40866,1638907995999
Fix,GT,34.2723273,-118.6050577,303.532,0.0028349217,0.1,106.408875,1638907996999
Fix,GT,34.2723273,-118.6050577,303.532,0.0036019816,0.1,106.408936,1638907997999
Fix,GT,34.2723273,-118.6050577,303.532,0.002824621,0.1,106.409,1638907998999
Fix,GT,34.2723273,-118.6050577,303.532,0.0014142136,0.1,106.408875,1638907999999
Fix,GT,34.2723273,-118.6050577,303.532,0.001417991,0.1,106.408936,1638908000999
Fix,GT,34.2723273,-118.6050577,303.532,0.002236068,0.1,106.40851,1638908001999
Fix,GT,34.2723273,-118.6050577,303.532,0.0028257032,0.1,106.408875,1638908002999
Fix,GT,34.2723273,-118.6050577,303.532,0.0036055513,0.1,106.40857,1638908003999
Fix,GT,34.2723273,-118.6050577,303.532,0.0044763363,0.1,106.40848,1638908004999
Fix,GT,34.2723273,-118.6050577,303.533,0.0063245553,0.1,106.40845,1638908005999
Fix,GT,34.2723273,-118.6050577,303.534,0.009482494,0.1,106.40845,1638908006999
Fix,GT,34.2723274,-118.6050577,303.535,0.0126491105,0.1,106.40842,1638908007999
Fix,GT,34.2723274,-118.6050577,303.536,0.018681541,0.1,106.4082,1638908008999
Fix,GT,34.2723275,-118.6050576,303.537,0.027658634,0.1,106.40817,1638908009999
Fix,GT,34.2723276,-118.6050576,303.539,0.051956587,0.1,106.40802,1638908010999
Fix,GT,34.272327,-118.6050533,303.5629677512646,0.975561,0.1,106.43756,1638908011999
Fix,GT,34.272323,-118.6050348,303.6969124484658,2.5821931,0.1,106.426025,1638908012999
Fix,GT,34.2723155,-118.6049972,303.9988248584271,4.445045,0.1,104.55316,1638908013999
Fix,GT,34.2723093,-118.6049436,304.41879255259033,5.577915,0.1,97.88916,1638908014999
Fix,GT,34.2723126,-118.6048739,304.96867262637613,7.102971,0.1,84.8555,1638908015999
Fix,GT,34.2723353,-118.6047966,305.6906264401674,7.7724447,0.1,66.928406,1638908016999
Fix,GT,34.2723806,-118.6047263,306.5106217501164,8.742551,0.1,47.887054,1638908017999
Fix,GT,34.2724502,-118.6046654,307.37259398937226,10.23073,0.1,32.62552,1638908018999
Fix,GT,34.2725398,-118.6046146,308.33754314363006,11.644954,0.1,22.702667,1638908019999
Fix,GT,34.2726445,-118.6045747,309.3225568962097,12.75006,0.1,15.504547,1638908020999
Fix,GT,34.2727624,-118.6045413,310.3644644584656,14.114511,0.1,12.042511,1638908021999
Fix,GT,34.2728938,-118.6045138,311.4634828186035,15.41652,0.1,8.902771,1638908022999
Fix,GT,34.2730365,-118.6044909,312.61845499992376,16.515486,0.1,6.8753967,1638908023999
Fix,GT,34.2731898,-118.6044746,313.81044102859494,17.562092,0.1,3.66922,1638908024999
Fix,GT,34.2733504,-118.6044695,315.04443167209627,18.122759,0.1,359.78687,1638908025999
Fix,GT,34.2735162,-118.6044772,316.3253760806323,18.729027,0.1,356.38223,1638908026999
Fix,GT,34.2736881,-118.6044961,317.66236670672896,19.526829,0.1,353.75955,1638908027999
Fix,GT,34.2738652,-118.6045218,319.0293573290109,19.95426,0.1,352.521,1638908028999
Fix,GT,34.2740449,-118.6045514,320.385394192338,20.07857,0.1,351.73877,1638908029999
Fix,GT,34.2742209,-118.6045817,321.6923755656481,19.326906,0.1,351.69318,1638908030999
Fix,GT,34.2743894,-118.6046101,323.03239856886864,18.426565,0.1,351.96414,1638908031999
Fix,GT,34.2745495,-118.6046356,324.321407699585,17.416971,0.1,352.4589,1638908032999
Fix,GT,34.274699,-118.6046589,325.55344460392,15.872818,0.1,352.42468,1638908033999
Fix,GT,34.2748337,-118.6046797,326.70547226500514,14.322801,0.1,352.45624,1638908034999
Fix,GT,34.2749529,-118.6046987,327.681574015379,12.250664,0.1,352.17358,1638908035999
Fix,GT,34.2750519,-118.6047149,328.4856619208456,9.923288,0.1,352.0061,1638908036999
Fix,GT,34.2751306,-118.6047277,329.1477313338519,7.787274,0.1,352.11386,1638908037999
Fix,GT,34.2751913,-118.6047375,329.650805408597,5.8821597,0.1,352.09595,1638908038999
Fix,GT,34.2752368,-118.6047448,330.0248517093658,4.468132,0.1,352.11438,1638908039999
Fix,GT,34.2752724,-118.6047505,330.3238794890642,3.5456982,0.1,352.06372,1638908040999
Fix,GT,34.275301,-118.6047553,330.5469119161964,2.9556303,0.1,351.97577,1638908041999
Fix,GT,34.2753273,-118.6047597,330.7628933475613,2.9764962,0.1,351.7572,1638908042999
Fix,GT,34.2753549,-118.6047644,330.9958886876106,3.3048575,0.1,351.81592,1638908043999
Fix,GT,34.2753887,-118.6047701,331.2748515529632,4.4258227,0.1,351.78543,1638908044999
Fix,GT,34.2754349,-118.6047779,331.65579584336285,5.8657513,0.1,351.72253,1638908045999
Fix,GT,34.2754916,-118.6047876,332.13277259701493,6.702721,0.1,351.6233,1638908046999
Fix,GT,34.2755515,-118.604798,332.62678647577764,6.572375,0.1,351.64224,1638908047999
Fix,GT,34.2756103,-118.604808,333.11677250355484,6.6116953,0.1,351.72775,1638908048999
Fix,GT,34.275671,-118.6048181,333.6127538818717,7.224415,0.1,351.8319,1638908049999
Fix,GT,34.2757387,-118.6048294,334.18373989057545,7.754247,0.1,351.83682,1638908050999
Fix,GT,34.2758091,-118.6048412,334.77672589987515,8.035132,0.1,351.96857,1638908051999
Fix,GT,34.2758827,-118.6048528,335.38071655017137,8.510429,0.1,352.2342,1638908052999
Fix,GT,34.2759628,-118.6048651,336.0236932536364,9.329246,0.1,352.62183,1638908053999
Fix,GT,34.2760494,-118.6048774,336.7206652989388,10.012937,0.1,353.1111,1638908054999
Fix,GT,34.2761415,-118.6048895,337.45766058069466,10.448668,0.1,353.7459,1638908055999
Fix,GT,34.2762348,-118.6049001,338.1636977075934,10.28657,0.1,354.5514,1638908056999
Fix,GT,34.2763274,-118.6049088,338.7947069488168,10.268554,0.1,355.5649,1638908057999
Fix,GT,34.276416,-118.6049144,339.36077667713164,9.223276,0.1,357.21762,1638908058999
Fix,GT,34.2764931,-118.6049164,339.8058092059493,8.040663,0.1,358.72562,1638908059999
Fix,GT,34.2765616,-118.6049165,340.1658417481184,7.1973042,0.1,359.81943,1638908060999
Fix,GT,34.2766239,-118.6049151,340.4968370561004,6.6552453,0.1,0.8527832,1638908061999
Fix,GT,34.2766835,-118.6049128,340.7808509922028,6.628079,0.1,1.6093445,1638908062999
Fix,GT,34.2767445,-118.6049094,341.07184164679046,7.002954,0.1,2.277649,1638908063999
Fix,GT,34.2768094,-118.6049049,341.3648881983757,7.232765,0.1,3.020874,1638908064999
Fix,GT,34.2768726,-118.6048993,341.6148881754875,6.8039584,0.1,4.0190735,1638908065999
Fix,GT,34.2769313,-118.6048929,341.8459067938328,6.2370872,0.1,4.879303,1638908066999
Fix,GT,34.2769848,-118.6048861,342.03093008106947,5.6864223,0.1,5.557129,1638908067999
Fix,GT,34.2770335,-118.6048792,342.1919207423329,5.2884107,0.1,6.0993347,1638908068999
Fix,GT,34.2770809,-118.6048719,342.3269813468456,5.327745,0.1,7.0438538,1638908069999
Fix,GT,34.2771287,-118.6048607,342.469930036366,5.5181036,0.1,11.296783,1638908070999
Fix,GT,34.2771756,-118.6048396,342.53797200882434,5.685214,0.1,21.19394,1638908071999
Fix,GT,34.2772174,-118.6048022,342.4870279968977,6.0148134,0.1,38.827087,1638908072999
Fix,GT,34.2772476,-118.6047453,342.35109334445,6.506634,0.1,60.319733,1638908073999
Fix,GT,34.2772584,-118.6046738,342.19004668176177,7.0702515,0.1,82.546265,1638908074999
Fix,GT,34.277253,-118.6045917,342.1149859926105,8.204162,0.1,95.22943,1638908075999
Fix,GT,34.2772355,-118.6044963,342.33391126841303,9.798261,0.1,103.37045,1638908076999
Fix,GT,34.2772099,-118.6043874,342.78876177710293,11.058851,0.1,105.03934,1638908077999
Fix,GT,34.2771809,-118.6042635,343.2977663974762,12.731387,0.1,105.10968,1638908078999
Fix,GT,34.2771471,-118.6041215,343.84176167374847,14.460304,0.1,105.781006,1638908079999
Fix,GT,34.2771087,-118.6039621,344.3697616251111,16.016315,0.1,105.75995,1638908080999
Fix,GT,34.2770676,-118.6037942,344.8247896263003,16.058825,0.1,106.268005,1638908081999
Fix,GT,34.2770259,-118.6036302,345.1568597204685,15.496054,0.1,106.86551,1638908082999
Fix,GT,34.276985,-118.6034722,345.3879251689911,15.021147,0.1,107.03882,1638908083999
Fix,GT,34.2769438,-118.6033168,345.5279625768662,15.214274,0.1,107.59976,1638908084999
Fix,GT,34.2768993,-118.6031536,345.582985963285,16.524206,0.1,107.91208,1638908085999
Fix,GT,34.2768506,-118.6029755,345.5220655180216,17.934431,0.1,107.98651,1638908086999
Fix,GT,34.2767982,-118.6027865,345.3371544668079,18.524752,0.1,108.42929,1638908087999
Fix,GT,34.2767433,-118.6025953,345.10412640929223,18.883865,0.1,108.98474,1638908088999
Fix,GT,34.2766846,-118.6023968,344.65126691842084,19.969454,0.1,109.81979,1638908089999
Fix,GT,34.2766196,-118.6021919,344.0673466050625,20.32106,0.1,111.21921,1638908090999
Fix,GT,34.2765509,-118.6019869,343.4302904579639,20.370438,0.1,111.97705,1638908091999
Fix,GT,34.2764811,-118.6017823,342.7823092601299,20.378185,0.1,112.06973,1638908092999
Fix,GT,34.2764108,-118.6015755,342.1253186964989,20.931988,0.1,111.84,1638908093999
Fix,GT,34.2763382,-118.6013587,341.4263093938827,22.143517,0.1,111.76105,1638908094999
Fix,GT,34.276261,-118.6011306,340.72933758926393,23.163233,0.1,112.1387,1638908095999
Fix,GT,34.2761781,-118.6008936,339.97235641670227,24.208076,0.1,113.0069,1638908096999
Fix,GT,34.2760885,-118.6006477,339.19537525177,25.264809,0.1,113.69891,1638908097999
Fix,GT,34.2759936,-118.6003931,338.3813894078135,26.005587,0.1,114.03024,1638908098999
Fix,GT,34.275897,-118.6001351,337.5413847943544,26.110003,0.1,113.57306,1638908099999
Fix,GT,34.2758039,-118.5998726,336.7043895710707,26.565977,0.1,112.397644,1638908100999
Fix,GT,34.2757111,-118.5996026,335.87239903938774,27.17221,0.1,112.15231,1638908101999
Fix,GT,34.2756174,-118.5993292,335.0173944299221,27.302477,0.1,112.28235,1638908102999
Fix,GT,34.2755218,-118.5990535,334.15044147551055,27.642813,0.1,112.716064,1638908103999
Fix,GT,34.2754222,-118.5987773,333.282413380146,27.921322,0.1,113.519775,1638908104999
Fix,GT,34.2753199,-118.5984973,332.39442287170885,28.377247,0.1,113.42706,1638908105999
Fix,GT,34.2752163,-118.5982151,331.47543705612424,28.450785,0.1,113.80612,1638908106999
Fix,GT,34.2751113,-118.5979332,330.5664183428883,28.459288,0.1,113.968994,1638908107999
Fix,GT,34.2750056,-118.5976499,329.6474278306365,28.730734,0.1,113.95273,1638908108999
Fix,GT,34.2748989,-118.597365,328.7054467269778,28.904322,0.1,114.103,1638908109999
Fix,GT,34.2747905,-118.5970763,327.7614374219776,29.42387,0.1,114.05533,1638908110999
Fix,GT,34.274681,-118.5967846,326.8264186930061,29.55214,0.1,114.14575,1638908111999
Fix,GT,34.2745711,-118.5964896,326.0062823257446,30.092663,0.1,113.54428,1638908112999
Fix,GT,34.2744622,-118.5961883,325.4901553106308,30.277391,0.1,113.28842,1638908113999
Fix,GT,34.2743546,-118.5958873,325.1051882934571,30.07134,0.1,112.94299,1638908114999
Fix,GT,34.2742507,-118.5955864,324.6852212924361,30.052479,0.1,111.80707,1638908115999
Fix,GT,34.2741515,-118.59528,324.20522134006023,30.566916,0.1,110.4603,1638908116999
Fix,GT,34.2740562,-118.5949648,323.7871554404497,31.195412,0.1,109.2041,1638908117999
Fix,GT,34.2739653,-118.5946429,323.4301366302967,31.383034,0.1,108.15164,1638908118999
Fix,GT,34.2738784,-118.5943189,323.15911309623715,31.272327,0.1,107.37161,1638908119999
Fix,GT,34.2737959,-118.5939944,322.9391131191253,31.2758,0.1,106.244995,1638908120999
Fix,GT,34.2737203,-118.5936671,322.68411314344405,31.257296,0.1,104.56589,1638908121999
Fix,GT,34.2736526,-118.5933375,322.4501225968599,31.277998,0.1,102.81314,1638908122999
Fix,GT,34.2735925,-118.5930063,322.2031320574283,31.179163,0.1,101.62506,1638908123999
Fix,GT,34.2735373,-118.5926732,321.87019340890646,31.404888,0.1,100.56906,1638908124999
Fix,GT,34.273487,-118.5923364,321.51717929327486,31.582224,0.1,99.43964,1638908125999
Fix,GT,34.2734434,-118.5919968,321.262146296978,31.708265,0.1,97.63867,1638908126999
Fix,GT,34.2734089,-118.5916545,321.02511328506466,31.731567,0.1,96.02603,1638908127999
Fix,GT,34.2733803,-118.5913129,320.75615108108514,31.493555,0.1,95.23132,1638908128999
Fix,GT,34.2733564,-118.590973,320.5231227781773,31.381216,0.1,93.91498,1638908129999
Fix,GT,34.2733394,-118.5906323,320.28411808127163,31.47688,0.1,92.589905,1638908130999
Fix,GT,34.2733287,-118.5902897,319.8682031459212,31.669674,0.1,91.50598,1638908131999
Fix,GT,34.2733211,-118.5899464,319.4212551649809,31.558382,0.1,91.116394,1638908132999
Fix,GT,34.2733154,-118.5896045,318.8652646722793,31.439894,0.1,90.67868,1638908133999
Fix,GT,34.2733113,-118.5892639,318.5431229099035,31.242025,0.1,90.31381,1638908134999
Fix,GT,34.2733086,-118.5889261,318.2771229362488,30.996021,0.1,90.42743,1638908135999
Fix,GT,34.2733054,-118.5885909,318.0480851268768,30.75301,0.1,90.407196,1638908136999
Fix,GT,34.2733018,-118.5882584,317.8390851461887,30.504616,0.1,90.64429,1638908137999
Fix,GT,34.2732974,-118.5879282,317.663094627142,30.42345,0.1,90.62109,1638908138999
Fix,GT,34.2732936,-118.5875957,317.49207571697235,30.947172,0.1,90.53281,1638908139999
Fix,GT,34.2732896,-118.587255,317.3220852009058,31.828913,0.1,90.60962,1638908140999
Fix,GT,34.2732853,-118.5869052,317.231028406024,32.41825,0.1,90.59723,1638908141999
Fix,GT,34.2732808,-118.5865537,317.1490189414024,32.228695,0.1,90.66055,1638908142999
Fix,GT,34.2732765,-118.5862104,317.05304262673855,30.97669,0.1,90.52725,1638908143999
Fix,GT,34.2732728,-118.585878,316.9830189495087,30.414413,0.1,90.39444,1638908144999
Fix,GT,34.2732699,-118.5855485,316.89203790712355,30.322699,0.1,90.3331,1638908145999
Fix,GT,34.2732673,-118.5852185,316.8180284360647,30.501366,0.1,90.3656,1638908146999
Fix,GT,34.273264,-118.5848862,316.74203792333606,30.725142,0.1,90.528595,1638908147999
Fix,GT,34.2732599,-118.5845511,316.65502370715143,31.007044,0.1,90.67355,1638908148999
Fix,GT,34.273255,-118.5842139,316.5610379400253,30.99505,0.1,90.910126,1638908149999
Fix,GT,34.2732498,-118.5838775,316.4900189740658,31.042894,0.1,90.50485,1638908150999
Fix,GT,34.2732471,-118.5835381,316.41303321129084,31.490646,0.1,90.10956,1638908151999
Fix,GT,34.2732464,-118.5831924,316.33303796434404,32.219627,0.1,89.6987,1638908152999
Fix,GT,34.2732474,-118.582838,316.2420427190065,33.080994,0.1,89.41937,1638908153999
Fix,GT,34.2732507,-118.5824744,316.1620094950199,33.78246,0.1,88.43561,1638908154999
Fix,GT,34.2732604,-118.5821084,316.10202849149704,33.613846,0.1,87.7139,1638908155999
Fix,GT,34.2732705,-118.581745,316.05999525040386,33.33452,0.1,88.03766,1638908156999
Fix,GT,34.2732808,-118.5813837,315.9980285032988,33.358105,0.1,87.37396,1638908157999
Fix,GT,34.2732943,-118.5810205,315.93504751622675,33.47792,0.1,87.360016,1638908158999
Fix,GT,34.2733052,-118.5806583,315.86304752635954,33.34691,0.1,87.95715,1638908159999
Fix,GT,34.273314,-118.5802952,315.791,33.658207,0.1,88.24292,1638908160999
Fix,GT,34.2733218,-118.579927,315.7170618113875,34.18021,0.1,88.36224,1638908161999
Fix,GT,34.2733289,-118.579553,315.6460380458832,34.722427,0.1,88.53421,1638908162999
Fix,GT,34.2733358,-118.5791729,315.56503805446624,35.3142,0.1,88.49408,1638908163999
Fix,GT,34.2733431,-118.5787866,315.4780333047509,35.823704,0.1,88.43396,1638908164999
Fix,GT,34.2733503,-118.5783952,315.3800523465276,36.286346,0.1,88.45001,1638908165999
Fix,GT,34.2733578,-118.5779995,315.25607615756985,36.592136,0.1,88.40082,1638908166999
Fix,GT,34.2733671,-118.5776007,315.1709714348316,36.841232,0.1,87.99036,1638908167999
Fix,GT,34.2733771,-118.5772004,315.0680476193428,36.93071,0.1,88.07849,1638908168999
Fix,GT,34.2733866,-118.5767984,314.9710333402157,37.146873,0.1,88.13226,1638908169999
Fix,GT,34.2733954,-118.5763942,314.8750428751111,37.294117,0.1,88.54111,1638908170999
Fix,GT,34.2734014,-118.5759894,314.7770381197929,37.263996,0.1,88.84827,1638908171999
Fix,GT,34.2734062,-118.5755854,314.6720524252057,37.194992,0.1,89.06067,1638908172999
Fix,GT,34.2734095,-118.575182,314.5780143008232,37.094162,0.1,89.32959,1638908173999
Fix,GT,34.2734114,-118.574779,314.4620953602791,37.141224,0.1,89.591156,1638908174999
Fix,GT,34.2734124,-118.5743752,314.3810763044357,37.255096,0.1,89.581696,1638908175999
Fix,GT,34.2734139,-118.5739702,314.2660906319023,37.30215,0.1,89.65204,1638908176999
Fix,GT,34.2734136,-118.5735662,314.18000477111343,37.081173,0.1,89.87921,1638908177999
Fix,GT,34.2734128,-118.5731647,314.09803817749025,36.891277,0.1,89.95215,1638908178999
Fix,GT,34.2734104,-118.5727648,314.0090429582596,36.77628,0.1,90.45303,1638908179999
Fix,GT,34.273405,-118.572366,313.88403341907264,36.70945,0.1,90.8349,1638908180999
Fix,GT,34.2733983,-118.5719681,313.78701910090444,36.568184,0.1,90.926636,1638908181999
Fix,GT,34.2733918,-118.5715718,313.70104298561813,36.445107,0.1,90.86694,1638908182999
Fix,GT,34.2733851,-118.571177,313.6250286631584,36.2311,0.1,91.052216,1638908183999
Fix,GT,34.2733769,-118.5707857,313.54202389132973,35.875328,0.1,91.3916,1638908184999
Fix,GT,34.2733669,-118.5703982,313.45503345495456,35.527256,0.1,91.764496,1638908185999
Fix,GT,34.2733548,-118.5700145,313.3580669240951,35.19398,0.1,92.03958,1638908186999
Fix,GT,34.2733423,-118.5696335,313.2410525943637,35.130558,0.1,91.92206,1638908187999
Fix,GT,34.2733295,-118.56925,313.12610042995215,35.566723,0.1,92.227325,1638908188999
Fix,GT,34.2733141,-118.5688627,313.04205261665584,35.728977,0.1,92.80112,1638908189999
Fix,GT,34.2732963,-118.5684771,312.96407176607846,35.410618,0.1,92.85751,1638908190999
Fix,GT,34.273279,-118.5680946,312.8690717812777,35.180428,0.1,92.969086,1638908191999
Fix,GT,34.2732608,-118.5677127,312.7450526514054,35.29854,0.1,93.09598,1638908192999
Fix,GT,34.2732409,-118.5673307,312.6380239375233,35.119064,0.1,93.54315,1638908193999
Fix,GT,34.2732194,-118.5669523,312.57606704008583,34.73295,0.1,93.68399,1638908194999
Fix,GT,34.2731977,-118.5665777,312.43297605204583,34.517662,0.1,93.85742,1638908195999
Fix,GT,34.2731753,-118.5662022,312.4030335338116,34.888493,0.1,93.8255,1638908196999
Fix,GT,34.273152,-118.5658229,312.3110383329391,35.05855,0.1,94.21069,1638908197999
Fix,GT,34.2731261,-118.5654452,312.2270383410454,34.74309,0.1,94.62167,1638908198999
Fix,GT,34.2731004,-118.5650711,312.1440335559249,34.422634,0.1,94.21509,1638908199999
Fix,GT,34.2730769,-118.5646999,312.0790479465723,34.153652,0.1,94.15784,1638908200999
Fix,GT,34.2730528,-118.5643294,311.9730287740231,34.40521,0.1,94.27945,1638908201999
Fix,GT,34.2730273,-118.5639554,311.9230479662418,34.5876,0.1,94.7446,1638908202999
Fix,GT,34.2729989,-118.5635823,311.84605277335646,34.42072,0.1,95.49649,1638908203999
Fix,GT,34.2729668,-118.5632105,311.77003838825226,34.394737,0.1,95.92517,1638908204999
Fix,GT,34.2729329,-118.5628408,311.6780431964397,34.12653,0.1,96.193726,1638908205999
Fix,GT,34.2728977,-118.5624733,311.5760480055809,34.01187,0.1,96.37894,1638908206999
Fix,GT,34.2728631,-118.5621069,311.4830480157137,33.874023,0.1,96.28595,1638908207999
Fix,GT,34.2728276,-118.5617434,311.4050336180925,33.531536,0.1,96.744354,1638908208999
Fix,GT,34.2727905,-118.5613833,311.30903842830656,33.380104,0.1,96.80145,1638908209999
Fix,GT,34.2727543,-118.5610232,311.160091285348,33.343052,0.1,96.58276,1638908210999
Fix,GT,34.2727182,-118.5606653,310.9111489688158,33.055576,0.1,96.77081,1638908211999
Fix,GT,34.2726817,-118.5603107,310.5761970623732,32.766502,0.1,96.91507,1638908212999
Fix,GT,34.2726448,-118.559959,310.12625478971,32.526123,0.1,96.902405,1638908213999
Fix,GT,34.2726091,-118.5596097,309.5972884984016,32.307693,0.1,96.70703,1638908214999
Fix,GT,34.272574,-118.5592625,308.98931741118423,32.131844,0.1,96.76721,1638908215999
Fix,GT,34.2725388,-118.5589164,308.2833607660532,32.187855,0.1,96.72894,1638908216999
Fix,GT,34.2725044,-118.5585685,307.4243945206404,32.27051,0.1,96.45123,1638908217999
Fix,GT,34.272471,-118.5582201,306.53442347192765,32.312103,0.1,96.35458,1638908218999
Fix,GT,34.2724377,-118.557872,305.714466874063,32.20388,0.1,96.499054,1638908219999
Fix,GT,34.2724036,-118.5575254,304.8384236397743,32.090275,0.1,96.60672,1638908220999
Fix,GT,34.2723692,-118.55718,303.9963996484876,31.972254,0.1,96.76279,1638908221999
Fix,GT,34.2723342,-118.5568361,303.2702696957588,31.835192,0.1,96.870056,1638908222999
Fix,GT,34.272299,-118.5564939,302.64828419649604,31.674852,0.1,96.884186,1638908223999
Fix,GT,34.2722662,-118.5561531,302.1092457100153,31.583525,0.1,95.90927,1638908224999
Fix,GT,34.2722384,-118.5558106,301.68417829549315,31.802656,0.1,95.03119,1638908225999
Fix,GT,34.2722163,-118.5554661,301.3711301332712,31.774628,0.1,93.3165,1638908226999
Fix,GT,34.272205,-118.5551218,301.1380964140892,31.705484,0.1,90.88089,1638908227999
Fix,GT,34.2722063,-118.5547781,300.97706268155576,31.54742,0.1,88.47281,1638908228999
Fix,GT,34.2722175,-118.5544352,300.9190096451044,31.761765,0.1,86.75876,1638908229999
Fix,GT,34.2722377,-118.5540884,300.99195176494123,32.23816,0.1,84.974,1638908230999
Fix,GT,34.2722675,-118.5537389,301.1419469309449,32.437267,0.1,83.059235,1638908231999
Fix,GT,34.272307,-118.553389,301.28186006301644,32.519917,0.1,81.1409,1638908232999
Fix,GT,34.2723556,-118.5530428,301.4119565632343,32.14093,0.1,79.53403,1638908233999
Fix,GT,34.2724116,-118.5527026,301.5549420728684,31.728958,0.1,77.68219,1638908234999
Fix,GT,34.2724778,-118.5523696,301.7239275776744,31.31536,0.1,75.11865,1638908235999
Fix,GT,34.2725542,-118.5520446,301.851932392478,30.906813,0.1,73.121124,1638908236999
Fix,GT,34.2726375,-118.5517265,301.9309855098128,30.529078,0.1,71.71405,1638908237999
Fix,GT,34.2727253,-118.5514141,301.97199033808704,30.196657,0.1,70.43622,1638908238999
Fix,GT,34.2728162,-118.5511109,302.0149855042696,28.999823,0.1,69.80655,1638908239999
Fix,GT,34.2729042,-118.5508211,302.04898550158737,27.913809,0.1,69.72882,1638908240999
Fix,GT,34.272989,-118.5505414,302.0889758312106,27.071898,0.1,69.78461,1638908241999
Fix,GT,34.2730715,-118.5502683,302.1209709920883,26.483276,0.1,69.88434,1638908242999
Fix,GT,34.2731523,-118.5499995,302.1729758219719,26.170273,0.1,69.89325,1638908243999
Fix,GT,34.2732318,-118.5497338,302.2529564715028,25.857168,0.1,69.96573,1638908244999
Fix,GT,34.2733101,-118.5494704,302.33496130037304,25.732159,0.1,70.15518,1638908245999
Fix,GT,34.2733884,-118.5492069,302.4059709699154,25.822685,0.1,69.97739,1638908246999
Fix,GT,34.2734679,-118.5489424,302.48695644629004,26.010347,0.1,69.787964,1638908247999
Fix,GT,34.2735491,-118.5486751,302.56995643877985,26.47627,0.1,69.584656,1638908248999
Fix,GT,34.2736316,-118.5484027,302.67694190764433,26.898022,0.1,69.948,1638908249999
Fix,GT,34.2737136,-118.5481243,302.7889467388391,27.517607,0.1,70.59192,1638908250999
Fix,GT,34.2737933,-118.5478385,302.93190314245226,27.982723,0.1,71.83368,1638908251999
Fix,GT,34.2738671,-118.5475468,303.1019031245708,28.173765,0.1,73.88855,1638908252999
Fix,GT,34.2739324,-118.5472491,303.269917640686,28.586443,0.1,75.80124,1638908253999
Fix,GT,34.2739926,-118.5469439,303.490854631424,29.105326,0.1,77.027954,1638908254999
Fix,GT,34.2740468,-118.5466341,303.7918642992973,29.223488,0.1,78.69989,1638908255999
Fix,GT,34.2740936,-118.5463215,304.1318254954815,29.296062,0.1,80.350006,1638908256999
Fix,GT,34.2741339,-118.5460064,304.53680121964214,29.43679,0.1,81.68616,1638908257999
Fix,GT,34.2741674,-118.5456894,305.011757540226,29.310041,0.1,83.30698,1638908258999
Fix,GT,34.2741935,-118.5453739,305.5337332450747,29.106697,0.1,84.901,1638908259999
Fix,GT,34.2742118,-118.545061,306.1047186429501,28.678537,0.1,86.47711,1638908260999
Fix,GT,34.2742247,-118.5447517,306.6777185945511,28.408512,0.1,86.95477,1638908261999
Fix,GT,34.274238,-118.5444437,307.18882530236243,28.322803,0.1,86.655334,1638908262999
Fix,GT,34.2742516,-118.5441384,307.6877476124763,28.090582,0.1,86.66049,1638908263999
Fix,GT,34.274266,-118.5438328,308.1448106744885,28.300144,0.1,86.398895,1638908264999
Fix,GT,34.2742803,-118.5435259,308.5657863652706,28.228418,0.1,86.792725,1638908265999
Fix,GT,34.2742929,-118.5432205,308.9308154633045,28.156794,0.1,86.91821,1638908266999
Fix,GT,34.274306,-118.5429143,309.2798202864527,28.294844,0.1,86.83765,1638908267999
Fix,GT,34.2743193,-118.542607,309.57689312231537,28.384508,0.1,86.83725,1638908268999
Fix,GT,34.2743322,-118.5422986,309.80888338756563,28.511566,0.1,87.0795,1638908269999
Fix,GT,34.2743438,-118.5419886,310.0538687868714,28.687084,0.1,87.29489,1638908270999
Fix,GT,34.2743559,-118.5416755,310.2019416723251,28.988272,0.1,86.89334,1638908271999
Fix,GT,34.2743697,-118.5413604,310.28498055386547,29.108469,0.1,86.7818,1638908272999
Fix,GT,34.2743836,-118.5410444,310.33797568786144,29.171389,0.1,86.851135,1638908273999
Fix,GT,34.2743971,-118.5407278,310.3949756836891,29.230284,0.1,86.858734,1638908274999
Fix,GT,34.2744107,-118.5404103,310.4019951358437,29.33712,0.1,86.86893,1638908275999
Fix,GT,34.274425,-118.5400913,310.3360486505032,29.506506,0.1,86.43567,1638908276999
Fix,GT,34.2744424,-118.5397689,310.22703892755504,30.038017,0.1,85.84631,1638908277999
Fix,GT,34.2744635,-118.5394404,310.122058400631,30.599205,0.1,84.86728,1638908278999
Fix,GT,34.2744904,-118.5391075,309.9940681465864,31.010971,0.1,83.71149,1638908279999
Fix,GT,34.2745232,-118.5387724,309.87905355358123,31.003584,0.1,82.68393,1638908280999
Fix,GT,34.2745615,-118.5384392,309.73505843138696,30.993544,0.1,81.17929,1638908281999
Fix,GT,34.2746072,-118.5381065,309.5860827929974,31.132805,0.1,79.84424,1638908282999
Fix,GT,34.2746587,-118.5377733,309.4390730651617,31.293848,0.1,78.7417,1638908283999
Fix,GT,34.2747163,-118.53744,309.30405846285817,31.327082,0.1,77.45221,1638908284999
Fix,GT,34.2747797,-118.5371096,309.1410536007881,31.157234,0.1,76.25949,1638908285999
Fix,GT,34.2748483,-118.5367826,309.0510633564591,30.981121,0.1,75.17468,1638908286999
Fix,GT,34.2749219,-118.5364574,309.0200048744678,31.099028,0.1,74.06903,1638908287999
Fix,GT,34.2750014,-118.5361328,309.0779609971046,31.219248,0.1,72.878265,1638908288999
Fix,GT,34.2750859,-118.5358098,309.2129073534012,31.10429,0.1,71.727936,1638908289999
Fix,GT,34.2751762,-118.535492,309.3958878282905,30.747757,0.1,70.26892,1638908290999
Fix,GT,34.2752719,-118.5351811,309.6928536622524,30.303576,0.1,68.82788,1638908291999
Fix,GT,34.2753715,-118.5348774,310.0158146094084,29.818068,0.1,67.6257,1638908292999
Fix,GT,34.2754744,-118.534583,310.3928145754337,29.04214,0.1,66.49234,1638908293999
Fix,GT,34.2755794,-118.5342967,310.78180966097113,28.582682,0.1,65.61746,1638908294999
Fix,GT,34.2756858,-118.5340166,311.1418291558027,28.162348,0.1,64.90579,1638908295999
Fix,GT,34.2757933,-118.5337406,311.4598632996082,27.981031,0.1,64.750244,1638908296999
Fix,GT,34.2758993,-118.5334669,311.7988242101669,27.643713,0.1,64.6557,1638908297999
Fix,GT,34.276006,-118.5331966,312.1248583690524,27.551529,0.1,64.213135,1638908298999
Fix,GT,34.2761136,-118.5329263,312.42282415008543,27.68791,0.1,64.20123,1638908299999
Fix,GT,34.276222,-118.5326533,312.7588534351587,28.068768,0.1,64.21167,1638908300999
Fix,GT,34.2763314,-118.5323763,313.1548289763928,28.29923,0.1,64.526825,1638908301999
Fix,GT,34.2764397,-118.5320982,313.5208191705346,28.303034,0.1,64.68411,1638908302999
Fix,GT,34.2765488,-118.5318197,313.8918289179802,28.404356,0.1,64.3587,1638908303999
Fix,GT,34.276659,-118.5315408,314.2418337756396,28.508718,0.1,64.30426,1638908304999
Fix,GT,34.2767697,-118.5312604,314.5818239676952,28.736683,0.1,64.27481,1638908305999
Fix,GT,34.2768822,-118.5309776,314.9218239376545,28.93365,0.1,64.18793,1638908306999
Fix,GT,34.2769951,-118.5306935,315.2538483630419,29.117125,0.1,64.17761,1638908307999
Fix,GT,34.2771088,-118.5304072,315.55484833532574,29.300297,0.1,64.237854,1638908308999
Fix,GT,34.2772219,-118.530119,315.81889234733586,29.377771,0.1,64.66876,1638908309999
Fix,GT,34.2773339,-118.5298299,316.03787764805554,29.402504,0.1,64.79144,1638908310999
Fix,GT,34.2774447,-118.5295401,316.27986783576006,29.271032,0.1,65.61572,1638908311999
Fix,GT,34.2775491,-118.5292487,316.487882499218,29.21254,0.1,67.301025,1638908312999
Fix,GT,34.2776445,-118.528955,316.7228873758912,28.88127,0.1,69.41635,1638908313999
Fix,GT,34.2777304,-118.5286613,316.9029265369773,28.475956,0.1,71.10986,1638908314999
Fix,GT,34.2778084,-118.528368,317.0349706094265,28.302393,0.1,72.8479,1638908315999
Fix,GT,34.2778786,-118.5280723,317.11497060477734,28.387417,0.1,74.60913,1638908316999
Fix,GT,34.2779416,-118.5277726,317.13200490009785,28.606535,0.1,76.41669,1638908317999
Fix,GT,34.2779979,-118.5274669,317.106034306109,29.093706,0.1,78.19989,1638908318999
Fix,GT,34.2780461,-118.5271549,317.0190343123674,29.38251,0.1,80.15961,1638908319999
Fix,GT,34.2780857,-118.5268382,316.89208824574945,29.59098,0.1,82.07037,1638908320999
Fix,GT,34.2781173,-118.5265175,316.7030735515356,29.935278,0.1,83.81201,1638908321999
Fix,GT,34.2781405,-118.5261928,316.49113732123374,30.087154,0.1,85.82684,1638908322999
Fix,GT,34.278155,-118.5258648,316.1811520582437,30.453176,0.1,87.58176,1638908323999
Fix,GT,34.278161,-118.5255323,315.8241913339496,30.835981,0.1,89.44696,1638908324999
Fix,GT,34.2781591,-118.5251951,315.4272011826039,31.274673,0.1,90.57239,1638908325999
Fix,GT,34.2781549,-118.5248548,314.9962306603789,31.301826,0.1,90.50391,1638908326999
Fix,GT,34.2781518,-118.5245159,314.498284696579,31.103958,0.1,90.42331,1638908327999
Fix,GT,34.2781482,-118.5241789,313.90332402408126,31.006968,0.1,90.54788,1638908328999
Fix,GT,34.2781457,-118.5238413,313.2143584468365,31.141607,0.1,90.11307,1638908329999
Fix,GT,34.278144,-118.5235036,312.4663732454777,31.026972,0.1,90.230286,1638908330999
Fix,GT,34.2781411,-118.5231675,311.6833929615021,30.882212,0.1,90.47272,1638908331999
Fix,GT,34.2781374,-118.522832,310.8913831979037,30.962334,0.1,90.660645,1638908332999
Fix,GT,34.2781313,-118.5224947,310.1163881813288,31.14033,0.1,91.552216,1638908333999
Fix,GT,34.2781212,-118.5221558,309.3153980811238,31.329674,0.1,92.03363,1638908334999
Fix,GT,34.2781088,-118.521816,308.51738831317425,31.290205,0.1,92.67523,1638908335999
Fix,GT,34.2780923,-118.5214774,307.7174080488086,31.200281,0.1,93.67801,1638908336999
Fix,GT,34.2780714,-118.5211399,306.9243884450197,31.163694,0.1,94.33557,1638908337999
Fix,GT,34.2780479,-118.5208012,306.1193835977316,31.468996,0.1,94.76688,1638908338999
Fix,GT,34.2780222,-118.5204589,305.31738858628273,31.871143,0.1,95.12421,1638908339999
Fix,GT,34.2779944,-118.5201118,304.49440340626245,32.35147,0.1,95.39105,1638908340999
Fix,GT,34.2779654,-118.5197602,303.6793985590935,32.608707,0.1,95.42569,1638908341999
Fix,GT,34.2779373,-118.5194084,302.8524084742665,32.463818,0.1,95.23212,1638908342999
Fix,GT,34.2779091,-118.5190587,302.0273937768936,32.24733,0.1,95.37628,1638908343999
Fix,GT,34.277881,-118.5187111,301.23338399755954,32.097214,0.1,95.20834,1638908344999
Fix,GT,34.2778543,-118.5183647,300.50333482789995,31.96255,0.1,95.00989,1638908345999
Fix,GT,34.2778285,-118.51802,299.81432995986944,31.710651,0.1,94.986694,1638908346999
Fix,GT,34.2778023,-118.5176807,299.11333986699583,31.059435,0.1,95.42438,1638908347999
Fix,GT,34.2777759,-118.5173474,298.41933500218386,30.721918,0.1,94.98663,1638908348999
Fix,GT,34.2777528,-118.5170152,297.68435476398474,30.709044,0.1,94.340515,1638908349999
Fix,GT,34.277732,-118.5166828,296.9593548283577,30.666424,0.1,93.94183,1638908350999
Fix,GT,34.2777139,-118.5163513,296.2603351764679,30.53184,0.1,93.2453,1638908351999
Fix,GT,34.2776992,-118.51602,295.6053253734112,30.53703,0.1,92.64514,1638908352999
Fix,GT,34.2776872,-118.5156893,294.97131556701663,30.44993,0.1,92.02905,1638908353999
Fix,GT,34.2776782,-118.515358,294.3493008293509,30.643833,0.1,91.46042,1638908354999
Fix,GT,34.277672,-118.5150236,293.7543008802533,30.968258,0.1,90.708954,1638908355999
Fix,GT,34.2776691,-118.5146866,293.16029599785804,31.009739,0.1,90.21637,1638908356999
Fix,GT,34.2776685,-118.5143503,292.5672615090013,30.922039,0.1,89.72476,1638908357999
Fix,GT,34.2776699,-118.5140144,291.96429116654394,31.021818,0.1,89.34509,1638908358999
Fix,GT,34.2776737,-118.5136758,291.3663158988952,31.333275,0.1,88.767426,1638908359999
Fix,GT,34.2776797,-118.5133357,290.73031595611576,31.305092,0.1,88.48416,1638908360999
Fix,GT,34.2776871,-118.5129947,290.03334563958646,31.562695,0.1,88.13187,1638908361999
Fix,GT,34.2776961,-118.5126504,289.314345697999,31.879454,0.1,87.83917,1638908362999
Fix,GT,34.2777064,-118.5123028,288.58436057454344,32.189075,0.1,87.84476,1638908363999
Fix,GT,34.2777155,-118.5119511,287.8843013529182,32.623055,0.1,88.038574,1638908364999
Fix,GT,34.2777248,-118.511597,287.2523112896681,32.581787,0.1,87.94739,1638908365999
Fix,GT,34.2777348,-118.5112438,286.6383162879943,32.487514,0.1,87.737885,1638908366999
Fix,GT,34.2777453,-118.5108921,286.057286687851,32.310192,0.1,87.72092,1638908367999
Fix,GT,34.2777556,-118.5105426,285.5012768521309,32.108097,0.1,87.81256,1638908368999
Fix,GT,34.2777657,-118.5101952,284.96225217574835,31.942553,0.1,87.758484,1638908369999
Fix,GT,34.2777757,-118.5098479,284.43226210922006,32.096046,0.1,87.7962,1638908370999
Fix,GT,34.2777855,-118.5094991,283.92025226086383,32.128372,0.1,87.91858,1638908371999
Fix,GT,34.2777948,-118.5091511,283.4052523064613,32.035942,0.1,88.01996,1638908372999
Fix,GT,34.2778037,-118.5088022,282.9232671962976,32.255753,0.1,87.89517,1638908373999
Fix,GT,34.2778137,-118.5084508,282.41624249970914,32.49692,0.1,87.764496,1638908374999
Fix,GT,34.2778239,-118.5080967,281.9492623366714,32.75035,0.1,87.88742,1638908375999
Fix,GT,34.2778338,-118.5077399,281.4911782231331,32.946148,0.1,87.8392,1638908376999
Fix,GT,34.2778444,-118.5073832,281.0042426252962,32.781334,0.1,87.65161,1638908377999
Fix,GT,34.2778556,-118.5070273,280.49424761557583,32.86621,0.1,87.578064,1638908378999
Fix,GT,34.2778662,-118.5066696,280.0292179410458,33.072582,0.1,87.89725,1638908379999
Fix,GT,34.2778756,-118.5063094,279.52325761318207,33.27783,0.1,88.04999,1638908380999
Fix,GT,34.2778848,-118.5059473,279.0092526986003,33.372753,0.1,87.87973,1638908381999
Fix,GT,34.277895,-118.5055858,278.50424778842927,33.27042,0.1,87.87164,1638908382999
Fix,GT,34.2779052,-118.5052248,278.0102527897954,33.190296,0.1,87.75519,1638908383999
Fix,GT,34.2779157,-118.5048657,277.5102429144382,32.960106,0.1,87.784485,1638908384999
Fix,GT,34.2779258,-118.5045091,277.0072727082372,32.748295,0.1,87.80707,1638908385999
Fix,GT,34.2779356,-118.504155,276.4842925943136,32.48597,0.1,87.88226,1638908386999
Fix,GT,34.2779451,-118.5038038,276.0152281627655,32.262802,0.1,87.87625,1638908387999
Fix,GT,34.2779554,-118.5034533,275.5192083575725,32.37639,0.1,87.5484,1638908388999
Fix,GT,34.2779664,-118.5031007,275.0292530512214,32.610558,0.1,87.645935,1638908389999
Fix,GT,34.277977,-118.5027455,274.5062977573872,32.852024,0.1,88.05365,1638908390999
Fix,GT,34.2779844,-118.5023876,273.8583176612854,33.04899,0.1,88.83099,1638908391999
Fix,GT,34.2779851,-118.5020294,273.2722780003548,32.93144,0.1,90.4202,1638908392999
Fix,GT,34.2779766,-118.5016713,272.75525322449204,33.095924,0.1,92.34717,1638908393999
Fix,GT,34.2779582,-118.5013111,272.2472582330704,33.41529,0.1,94.18854,1638908394999
Fix,GT,34.2779304,-118.5009493,271.73824834275246,33.42089,0.1,95.99951,1638908395999
Fix,GT,34.277893,-118.5005904,271.2162732262015,33.211166,0.1,97.84903,1638908396999
Fix,GT,34.2778465,-118.5002346,270.7082683067322,33.18181,0.1,99.54227,1638908397999
Fix,GT,34.277791,-118.4998795,270.1992484768629,33.406975,0.1,101.34012,1638908398999
Fix,GT,34.277726,-118.4995241,269.6732634265423,33.597042,0.1,103.13852,1638908399999
Fix,GT,34.2776515,-118.4991695,269.1612435891032,33.80738,0.1,104.83081,1638908400999
Fix,GT,34.2775671,-118.498815,268.7431839677095,33.990547,0.1,106.86221,1638908401999
Fix,GT,34.2774723,-118.4984652,268.4650944857597,33.86608,0.1,108.717834,1638908402999
Fix,GT,34.2773687,-118.4981191,268.3340397906303,33.88594,0.1,110.539215,1638908403999
Fix,GT,34.2772562,-118.4977782,268.35095522803067,33.649437,0.1,112.309296,1638908404999
Fix,GT,34.2771362,-118.4974451,268.5158905390501,33.225254,0.1,114.16766,1638908405999
Fix,GT,34.2770089,-118.4971215,268.8248357810378,32.759155,0.1,116.052734,1638908406999
Fix,GT,34.2768752,-118.4968073,269.2437561159134,32.269073,0.1,117.78787,1638908407999
Fix,GT,34.2767359,-118.4965025,269.7956863821745,31.852818,0.1,119.49744,1638908408999
Fix,GT,34.2765903,-118.4962055,270.4646664140224,31.73893,0.1,121.08832,1638908409999
Fix,GT,34.2764381,-118.4959132,271.1346812934875,31.830162,0.1,122.65939,1638908410999
Fix,GT,34.2762788,-118.495627,271.76572108840946,31.589073,0.1,124.47308,1638908411999
Fix,GT,34.2761132,-118.4953496,272.2727808158398,31.402025,0.1,126.38837,1638908412999
Fix,GT,34.2759414,-118.4950794,272.7008405685425,31.237942,0.1,128.12762,1638908413999
Fix,GT,34.275764,-118.4948188,273.0108654571772,30.874853,0.1,130.02014,1638908414999
Fix,GT,34.2755811,-118.4945672,273.2568803863525,30.804209,0.1,131.80627,1638908415999
Fix,GT,34.2753935,-118.4943213,273.5079202442169,30.650433,0.1,132.77243,1638908416999
Fix,GT,34.2752031,-118.4940807,273.59189031744,30.553995,0.1,133.87762,1638908417999
Fix,GT,34.2750115,-118.4938453,273.92990027189256,30.164217,0.1,134.35406,1638908418999
Fix,GT,34.2748219,-118.4936136,274.13215460258726,29.772955,0.1,134.50964,1638908419999
Fix,GT,34.2746346,-118.4933839,273.9360199522972,29.596203,0.1,134.1192,1638908420999
Fix,GT,34.274447,-118.4931533,273.72645399069785,29.920656,0.1,134.32315,1638908421999
Fix,GT,34.2742569,-118.4929225,273.40818961024286,29.884645,0.1,134.65927,1638908422999
Fix,GT,34.2740672,-118.4926927,272.99719463253024,29.864124,0.1,134.38708,1638908423999
Fix,GT,34.2738778,-118.4924597,272.63819965410227,30.262873,0.1,134.02643,1638908424999
Fix,GT,34.2736863,-118.4922227,272.19418471312525,30.567636,0.1,134.09998,1638908425999
Fix,GT,34.2734927,-118.4919852,271.75227960920336,30.735329,0.1,134.32666,1638908426999
Fix,GT,34.2732973,-118.4917461,271.1303146129251,31.142595,0.1,134.22925,1638908427999
Fix,GT,34.2730997,-118.4915019,270.46832964563373,31.643175,0.1,133.82553,1638908428999
Fix,GT,34.2728995,-118.4912537,269.80733469617365,32.096004,0.1,134.30731,1638908429999
Fix,GT,34.2726949,-118.4910037,269.079469652176,32.559986,0.1,134.2973,1638908430999
Fix,GT,34.2724883,-118.4907497,268.4003897764683,32.933994,0.1,134.12988,1638908431999
Fix,GT,34.2722794,-118.4904925,267.7962748849988,33.31364,0.1,134.13525,1638908432999
Fix,GT,34.2720687,-118.4902342,267.06638990199565,33.363396,0.1,134.36273,1638908433999
Fix,GT,34.2718569,-118.4899749,266.377244979322,33.64377,0.1,134.28772,1638908434999
Fix,GT,34.2716443,-118.4897152,265.7842500206232,33.50421,0.1,134.34879,1638908435999
Fix,GT,34.2714333,-118.4894566,265.26126506924635,33.275803,0.1,134.28949,1638908436999
Fix,GT,34.2712233,-118.4892001,264.86379063917,33.001423,0.1,134.32166,1638908438000
Fix,GT,34.2710155,-118.4889458,264.4749386276901,32.717766,0.1,134.36896,1638908439000
Fix,GT,34.2708093,-118.4886938,264.23396985077017,32.515015,0.099,134.36737,1638908440000
Fix,GT,34.2706038,-118.488442,264.0079213018641,32.57942,0.1,134.19214,1638908441000
Fix,GT,34.2703976,-118.4881887,263.8519451016932,32.810722,0.1,134.2099,1638908442000
Fix,GT,34.2701889,-118.4879332,263.7069282035157,33.138584,0.1,134.37418,1638908443000
Fix,GT,34.2699799,-118.4876773,263.5939294447051,32.938225,0.099,134.22592,1638908444000
Fix,GT,34.269772,-118.4874229,263.46589332393046,32.866447,0.1,134.38208,1638908445000
Fix,GT,34.2695638,-118.4871682,263.33493679304746,32.982075,0.099,134.31165,1638908446000
Fix,GT,34.2693552,-118.4869133,263.23398551875164,32.855476,0.1,134.46832,1638908447000
Fix,GT,34.2691472,-118.4866606,263.0920242467113,32.6961,0.1,134.51074,1638908448000
Fix,GT,34.2689412,-118.486409,263.0990853350977,32.349174,0.1,134.10382,1638908449000
Fix,GT,34.268739,-118.4861588,263.1980265704598,32.03172,0.1,134.01593,1638908450000
Fix,GT,34.2685379,-118.4859081,263.21903008397663,32.209637,0.1,133.75836,1638908451000
Fix,GT,34.2683364,-118.4856552,263.1950087857116,32.37465,0.1,133.57935,1638908452000
Fix,GT,34.2681359,-118.485399,263.16995504662395,32.44896,0.1,132.4906,1638908453000
Fix,GT,34.2679418,-118.4851367,263.1359662490115,32.287148,0.1,130.52911,1638908454000
Fix,GT,34.2677554,-118.4848673,263.1100321480376,32.30017,0.1,128.86066,1638908455000
Fix,GT,34.2675765,-118.4845917,262.9679429448126,32.089455,0.1,126.87128,1638908456000
Fix,GT,34.2674075,-118.4843107,262.7428221965209,31.794817,0.1,124.659,1638908457000
Fix,GT,34.2672495,-118.4840241,262.4600877394103,31.536152,0.1,122.273926,1638908458000
Fix,GT,34.2671023,-118.4837333,262.47895392165844,31.239506,0.1,120.34137,1638908459000
Fix,GT,34.2669634,-118.4834385,262.31994277937525,31.215172,0.1,118.502655,1638908460000
Fix,GT,34.2668323,-118.483138,262.22795653256446,31.303217,0.1,116.80066,1638908461000
Fix,GT,34.266708,-118.4828307,262.1409553454956,31.663368,0.1,114.906494,1638908462000
Fix,GT,34.2665908,-118.482515,262.0700113231744,32.019302,0.1,112.99509,1638908463000
Fix,GT,34.2664823,-118.4821909,262.0089622363225,32.25999,0.1,110.66745,1638908464000
Fix,GT,34.2663839,-118.4818608,261.84685131631414,32.39482,0.1,108.65936,1638908465000
Fix,GT,34.2662933,-118.4815249,261.7329547389224,32.652763,0.1,107.16531,1638908466000
Fix,GT,34.2662103,-118.4811827,261.64195584309334,33.00042,0.1,105.00021,1638908467000
Fix,GT,34.2661396,-118.480835,261.51291486653497,32.848576,0.1,102.22543,1638908468000
Fix,GT,34.2660829,-118.4804867,261.4741119096195,32.502537,0.1,99.97757,1638908469000
Fix,GT,34.2660351,-118.4801405,261.46301367674727,32.15045,0.1,98.68878,1638908470000
Fix,GT,34.265995,-118.4797959,261.1708460289929,31.94108,0.1,97.15848,1638908471000
Fix,GT,34.265965,-118.4794525,261.07197407081725,31.637213,0.1,94.523926,1638908472000
Fix,GT,34.265947,-118.4791113,260.9588755163043,31.322367,0.1,92.56299,1638908473000
Fix,GT,34.2659372,-118.478773,260.7449140822143,31.036415,0.1,91.2746,1638908474000
Fix,GT,34.2659326,-118.4784374,260.54192779326297,30.763597,0.1,90.36557,1638908475000
Fix,GT,34.2659306,-118.478105,260.4548789751529,30.480536,0.1,90.20627,1638908476000
Fix,GT,34.265928,-118.4777754,260.2058730689176,30.245075,0.1,90.51477,1638908477000
Fix,GT,34.2659251,-118.4774483,260.021911235189,29.999084,0.1,90.29114,1638908478000
Fix,GT,34.2659225,-118.4771227,259.9399100386379,30.013533,0.1,90.36279,1638908479000
Fix,GT,34.2659199,-118.4767968,259.7139064157242,29.93802,0.1,90.26221,1638908480000
Fix,GT,34.2659178,-118.4764724,259.46289493922984,29.911173,0.1,90.217804,1638908481000
Fix,GT,34.2659164,-118.4761468,259.2716357244029,30.042124,0.1,89.905975,1638908482000
Fix,GT,34.2659157,-118.47582,258.82371107682724,30.164425,0.1,90.13324,1638908483000
Fix,GT,34.2659137,-118.4754918,258.1266753920517,30.334658,0.1,90.07568,1638908484000
Fix,GT,34.2659127,-118.4751609,257.5326890761694,30.611372,0.1,90.00824,1638908485000
Fix,GT,34.2659107,-118.4748269,256.91669005690375,30.92786,0.1,90.38727,1638908486000
Fix,GT,34.2659075,-118.4744887,256.2175997871347,31.402422,0.1,90.489044,1638908487000
Fix,GT,34.2659045,-118.474145,255.38955855655297,31.90832,0.1,90.208496,1638908488000
Fix,GT,34.2659029,-118.4737957,254.5085475905528,32.410595,0.1,90.08026,1638908489000
Fix,GT,34.2659012,-118.4734414,253.58252640867235,32.82995,0.1,90.20392,1638908490000
Fix,GT,34.2658987,-118.4730831,252.7376987030245,33.170532,0.1,90.31799,1638908491000
Fix,GT,34.2658961,-118.4727215,252.10972944623973,33.427155,0.1,90.27203,1638908492000
Fix,GT,34.2658936,-118.4723575,251.64683966228367,33.631397,0.099,90.27713,1638908493000
Fix,GT,34.2658914,-118.4719913,251.3609176864028,33.765915,0.1,90.17413,1638908494000
Fix,GT,34.2658898,-118.4716254,251.29102268699,33.587215,0.1,90.07251,1638908495000
Fix,GT,34.2658882,-118.4712618,251.40910817591472,33.457558,0.1,90.11224,1638908496000
Fix,GT,34.2658862,-118.4708983,251.722195879696,33.51414,0.1,90.256134,1638908497000
Fix,GT,34.2658836,-118.4705335,252.222308462549,33.669273,0.1,90.28107,1638908498000
Fix,GT,34.2658813,-118.4701673,252.93043072375,33.785816,0.1,90.20456,1638908499000
Fix,GT,34.2658781,-118.4698003,253.8114640010372,33.823624,0.1,90.5509,1638908500000
Fix,GT,34.265874,-118.4694331,254.767479656654,33.80214,0.1,90.41434,1638908501000
Fix,GT,34.265871,-118.4690664,255.66541168363764,33.719513,0.1,90.3475,1638908502000
Fix,GT,34.2658683,-118.4687018,256.5404128875304,33.44086,0.1,90.22684,1638908503000
Fix,GT,34.2658662,-118.4683403,257.3514088007426,33.09843,0.1,90.15335,1638908504000
Fix,GT,34.2658635,-118.4679835,258.0963457728415,32.684113,0.1,90.47864,1638908505000
Fix,GT,34.2658607,-118.46763,258.86944783433853,32.362583,0.1,90.10431,1638908506000
Fix,GT,34.2658591,-118.467281,259.4412464779396,31.90914,0.1,90.09195,1638908507000
Fix,GT,34.2658574,-118.4669361,259.85504720997903,31.73868,0.1,90.17621,1638908508000
Fix,GT,34.2658558,-118.4665902,260.2181721740151,31.998596,0.1,90.09967,1638908509000
Fix,GT,34.2658545,-118.4662415,260.52908433035293,32.18822,0.1,90.08356,1638908510000
Fix,GT,34.2658528,-118.4658906,260.6999987471071,32.53296,0.1,90.13846,1638908511000
Fix,GT,34.2658512,-118.4655353,260.8971236827317,32.86548,0.1,90.126526,1638908512000
Fix,GT,34.265849,-118.4651778,261.17212011329184,32.956993,0.1,90.30118,1638908513000
Fix,GT,34.2658461,-118.4648216,261.3721652670549,32.6236,0.1,90.397644,1638908514000
Fix,GT,34.2658435,-118.4644685,261.60809005090783,32.419937,0.1,90.26831,1638908515000
Fix,GT,34.2658412,-118.4641174,261.8131210486181,32.262344,0.1,90.38327,1638908516000
Fix,GT,34.2658386,-118.4637687,261.9810797220338,31.976934,0.1,90.28821,1638908517000
