MessageType,Provider,LatitudeDegrees,LongitudeDegrees,AltitudeMeters,SpeedMps,AccuracyMeters,BearingDegrees,UnixTimeMillis
Fix,GT,37.3794585,-122.0720813,,0.011625329,0.1,300.98608,1609881148451
Fix,GT,37.3794586,-122.0720815,,0.012165525,0.1,300.98618,1609881149644
Fix,GT,37.3794586,-122.0720816,,0.014502471,0.1,300.98526,1609881150746
Fix,GT,37.3794586,-122.0720816,,0.014850272,0.1,300.98566,1609881151456
Fix,GT,37.3794586,-122.0720818,,0.023868464,0.1,300.98505,1609881152650
Fix,GT,37.3794578,-122.0720805,,0.30098933,0.1,301.15155,1609881153653
Fix,GT,37.3794563,-122.0720757,,0.5755302,0.1,303.64508,1609881154642
Fix,GT,37.3794544,-122.0720679,,0.7709453,0.1,310.2702,1609881155659
Fix,GT,37.3794513,-122.072058,,0.98066574,0.1,321.1098,1609881156655
Fix,GT,37.3794451,-122.0720461,,1.1076087,0.1,336.18423,1609881157750
Fix,GT,37.3794396,-122.0720397,,1.1156125,0.1,346.25092,1609881158452
Fix,GT,37.3794287,-122.0720315,,1.0820221,0.1,3.1648254,1609881159644
Fix,GT,37.3794193,-122.0720285,,0.8221631,0.1,15.573151,1609881160645
Fix,GT,37.3794141,-122.0720281,,0.25535074,0.1,21.96225,1609881161656
Fix,GT,37.3794133,-122.0720285,,0.07351431,0.1,23.202332,1609881162646
Fix,GT,37.379416,-122.0720276,,0.593653,0.1,23.492706,1609881163658
Fix,GT,37.3794234,-122.0720225,,1.3162196,0.1,26.535492,1609881164653
Fix,GT,37.3794368,-122.0720116,,2.271126,0.1,30.997375,1609881165643
Fix,GT,37.3794571,-122.0719944,,2.9929829,0.1,33.819946,1609881166658
Fix,GT,37.3794801,-122.0719742,,3.1931496,0.1,35.610016,1609881167650
Fix,GT,37.3795025,-122.0719529,,2.909367,0.1,38.09073,1609881168660
Fix,GT,37.379521,-122.0719317,,2.7214773,0.1,43.069336,1609881169654
Fix,GT,37.3795339,-122.0719059,,2.6206925,0.1,56.661713,1609881170666
Fix,GT,37.3795373,-122.0718776,,2.436199,0.1,77.44055,1609881171657
Fix,GT,37.3795328,-122.0718538,,1.8519926,0.1,96.29614,1609881172649
Fix,GT,37.3795277,-122.0718381,,1.351171,0.1,106.07333,1609881173658
Fix,GT,37.379524,-122.071824,,1.4532044,0.1,106.96588,1609881174653
Fix,GT,37.379523,-122.0718045,,2.131414,0.1,99.365845,1609881175644
Fix,GT,37.3795281,-122.0717751,,3.092642,0.1,83.417786,1609881176657
Fix,GT,37.3795425,-122.0717411,,3.5513136,0.1,65.55817,1609881177652
Fix,GT,37.3795632,-122.0717116,,3.2409453,0.1,50.801514,1609881178659
Fix,GT,37.3795834,-122.0716911,,2.4950833,0.1,41.358887,1609881179652
Fix,GT,37.3795978,-122.0716786,,1.4081933,0.1,37.72534,1609881180644
Fix,GT,37.3796042,-122.071673,,0.41155088,0.1,37.19629,1609881181656
Fix,GT,37.3796057,-122.0716719,,0.060682073,0.1,37.204224,1609881182647
Fix,GT,37.3796058,-122.071672,,0.023512168,0.1,37.206116,1609881183659
Fix,GT,37.3796058,-122.071672,,0.019633342,0.1,37.2063,1609881184440
Fix,GT,37.3796059,-122.0716721,,0.017775068,0.1,37.206543,1609881185440
Fix,GT,37.3796059,-122.0716721,,0.016015865,0.1,37.20569,1609881186440
Fix,GT,37.3796059,-122.0716721,,0.015363488,0.1,37.20633,1609881187440
Fix,GT,37.3796059,-122.0716721,,0.015745785,0.1,37.20752,1609881188440
Fix,GT,37.3796059,-122.0716721,,0.014893552,0.1,37.207336,1609881189440
Fix,GT,37.3796059,-122.0716721,,0.01406084,0.1,37.207092,1609881190440
Fix,GT,37.3796063,-122.071672,,0.15338282,0.1,37.203735,1609881191440
Fix,GT,37.3796076,-122.0716708,,0.2532136,0.1,37.20114,1609881192440
Fix,GT,37.3796089,-122.0716697,,0.09134737,0.1,37.203003,1609881193440
Fix,GT,37.379609,-122.0716696,,0.010914735,0.1,37.203278,1609881194440
Fix,GT,37.379609,-122.0716696,,0.010295631,0.1,37.203217,1609881195440
Fix,GT,37.379609,-122.0716696,,0.009550078,0.1,37.202637,1609881196440
Fix,GT,37.379609,-122.0716696,,0.008253579,0.1,37.202362,1609881197440
Fix,GT,37.379609,-122.0716696,,0.00781025,0.1,37.202454,1609881198440
Fix,GT,37.379609,-122.0716696,,0.00781025,0.1,37.202454,1609881199440
Fix,GT,37.379609,-122.0716696,,0.007921208,0.1,37.202545,1609881200440
Fix,GT,37.379609,-122.0716696,,0.008300046,0.1,37.20276,1609881201440
Fix,GT,37.379609,-122.0716696,,0.008364537,0.1,37.20288,1609881202440
Fix,GT,37.379609,-122.0716696,,0.007687499,0.1,37.20282,1609881203440
Fix,GT,37.379609,-122.0716696,,0.00782365,0.1,37.202698,1609881204440
Fix,GT,37.379609,-122.0716696,,0.007989777,0.1,37.20233,1609881205440
Fix,GT,37.379609,-122.0716696,,0.0072111026,0.1,37.20221,1609881206440
Fix,GT,37.379609,-122.0716696,,0.0074749035,0.1,37.20227,1609881207440
Fix,GT,37.379609,-122.0716696,,0.0075464486,0.1,37.20227,1609881208440
Fix,GT,37.379609,-122.0716696,,0.0072111026,0.1,37.202484,1609881209440
Fix,GT,37.379609,-122.0716696,,0.0072111026,0.1,37.20251,1609881210440
Fix,GT,37.379609,-122.0716696,,0.0072111026,0.1,37.202637,1609881211440
Fix,GT,37.379609,-122.0716696,,0.0072111026,0.1,37.20279,1609881212440
Fix,GT,37.379609,-122.0716696,,0.007149446,0.1,37.20276,1609881213440
Fix,GT,37.379609,-122.0716696,,0.007132724,0.1,37.20288,1609881214440
Fix,GT,37.379609,-122.0716696,,0.0072111026,0.1,37.203125,1609881215440
Fix,GT,37.379609,-122.0716696,,0.0072111026,0.1,37.20331,1609881216440
Fix,GT,37.379609,-122.0716696,,0.0072111026,0.1,37.203186,1609881217440
Fix,GT,37.379609,-122.0716696,,0.006989679,0.1,37.202667,1609881218440
Fix,GT,37.379609,-122.0716696,,0.006929627,0.1,37.2023,1609881219440
Fix,GT,37.379609,-122.0716696,,0.007211102,0.1,37.20218,1609881220440
Fix,GT,37.379609,-122.0716696,,0.007211102,0.1,37.20227,1609881221440
Fix,GT,37.379609,-122.0716696,,0.007211102,0.1,37.202362,1609881222440
Fix,GT,37.379609,-122.0716696,,0.00660343,0.1,37.202393,1609881223440
Fix,GT,37.379609,-122.0716696,,0.005830952,0.1,37.20224,1609881224440
Fix,GT,37.379609,-122.0716696,,0.0054650884,0.1,37.202087,1609881225440
Fix,GT,37.379609,-122.0716696,,0.005,0.1,37.20218,1609881226655
Fix,GT,37.379609,-122.0716696,,0.023221232,0.1,37.202087,1609881227647
Fix,GT,37.379611,-122.0716676,,0.5529355,0.1,37.37506,1609881228658
Fix,GT,37.3796186,-122.0716566,,2.032743,0.1,42.976868,1609881229651
Fix,GT,37.3796278,-122.071627,,3.4502292,0.1,62.365784,1609881230664
Fix,GT,37.379626,-122.0715809,,4.8021216,0.1,89.81003,1609881231658
Fix,GT,37.3796087,-122.0715224,,6.466219,0.1,109.603455,1609881232649
Fix,GT,37.3795788,-122.0714475,,8.195524,0.1,116.78027,1609881233659
Fix,GT,37.3795417,-122.0713594,,9.558219,0.1,117.78424,1609881234654
Fix,GT,37.3794982,-122.0712564,,10.843573,0.1,117.66791,1609881235666
Fix,GT,37.3794506,-122.071143,,12.0647335,0.1,117.60242,1609881236656
Fix,GT,37.3793979,-122.0710178,,13.0904255,0.1,117.84555,1609881237651
Fix,GT,37.3793398,-122.0708821,,13.824951,0.1,118.180664,1609881238662
Fix,GT,37.3792802,-122.0707435,,14.230946,0.1,118.38745,1609881239654
Fix,GT,37.3792177,-122.0706001,,14.283335,0.1,118.53064,1609881240666
Fix,GT,37.3791576,-122.0704603,,13.994949,0.1,118.05429,1609881241657
Fix,GT,37.3791002,-122.0703238,,13.556034,0.1,117.32825,1609881242649
Fix,GT,37.3790447,-122.0701883,,13.111713,0.1,117.07056,1609881243661
Fix,GT,37.3789914,-122.0700578,,13.150705,0.1,117.204346,1609881244653
Fix,GT,37.3789355,-122.0699225,,13.575642,0.1,117.36444,1609881245664
Fix,GT,37.3788783,-122.0697844,,14.058092,0.1,117.36865,1609881246660
Fix,GT,37.3788198,-122.0696429,,14.4197235,0.1,117.50806,1609881247650
Fix,GT,37.3787585,-122.0694973,,14.350647,0.1,117.96063,1609881248660
Fix,GT,37.3786992,-122.0693585,,13.624697,0.1,118.27191,1609881249653
Fix,GT,37.3786443,-122.0692318,,12.190256,0.1,118.54877,1609881250639
Fix,GT,37.3785939,-122.0691165,,10.853754,0.1,118.88306,1609881251651
Fix,GT,37.3785492,-122.069016,,9.641256,0.1,119.1756,1609881252649
Fix,GT,37.378507,-122.0689267,,8.479485,0.1,121.79578,1609881253660
Fix,GT,37.3784639,-122.0688565,,7.333409,0.1,131.12665,1609881254653
Fix,GT,37.3784162,-122.0688115,,6.327692,0.1,148.25677,1609881255644
Fix,GT,37.3783641,-122.0687965,,5.727312,0.1,172.36853,1609881256658
Fix,GT,37.3783137,-122.0688104,,6.307094,0.1,195.06079,1609881257650
Fix,GT,37.3782564,-122.0688462,,8.0443535,0.1,206.68951,1609881258659
Fix,GT,37.3781866,-122.0688934,,9.688364,0.1,207.80759,1609881259649
Fix,GT,37.3781028,-122.0689419,,10.878693,0.1,203.11485,1609881260643
Fix,GT,37.3780037,-122.0689807,,11.926635,0.1,194.13396,1609881261656
Fix,GT,37.3778943,-122.0689977,,12.833078,0.1,183.53172,1609881262650
Fix,GT,37.3777745,-122.0689897,,13.623872,0.1,173.35944,1609881263660
Fix,GT,37.3776527,-122.0689543,,14.349649,0.1,163.2887,1609881264655
Fix,GT,37.3775302,-122.0688891,,15.048199,0.1,153.2508,1609881265664
Fix,GT,37.3774132,-122.0687992,,15.710641,0.1,145.91632,1609881266658
Fix,GT,37.3772985,-122.0686909,,16.378117,0.1,141.26013,1609881267651
Fix,GT,37.3771836,-122.0685698,,16.819252,0.1,139.15186,1609881268653
Fix,GT,37.3770685,-122.068447,,17.074486,0.1,140.04126,1609881269643
Fix,GT,37.3769452,-122.0683288,,17.420568,0.1,144.47202,1609881270644
Fix,GT,37.3768081,-122.0682253,,17.72567,0.1,152.15332,1609881271657
Fix,GT,37.3766615,-122.0681475,,17.993252,0.1,160.26025,1609881272650
Fix,GT,37.376503,-122.0680935,,18.46777,0.1,167.97498,1609881273653
Fix,GT,37.3763375,-122.0680639,,19.051094,0.1,174.3299,1609881274644
Fix,GT,37.3761629,-122.0680524,,19.75792,0.1,178.36145,1609881275646
Fix,GT,37.3759799,-122.068051,,20.499126,0.1,180.53558,1609881276656
Fix,GT,37.3757936,-122.0680566,,21.195583,0.1,181.90758,1609881277648
Fix,GT,37.3755992,-122.0680661,,21.789034,0.1,182.34662,1609881278653
Fix,GT,37.3754022,-122.0680749,,22.383055,0.1,181.6887,1609881279644
Fix,GT,37.375198,-122.0680802,,22.964378,0.1,180.81447,1609881280643
Fix,GT,37.3749851,-122.0680815,,23.655807,0.1,179.77925,1609881281658
Fix,GT,37.3747716,-122.0680769,,24.259228,0.1,178.28625,1609881282647
Fix,GT,37.3745495,-122.0680638,,24.754812,0.1,176.37732,1609881283653
Fix,GT,37.3743275,-122.0680403,,25.04501,0.1,174.12091,1609881284646
Fix,GT,37.3741026,-122.0680055,,25.297642,0.1,171.93665,1609881285645
Fix,GT,37.3738742,-122.0679587,,25.460106,0.1,169.453,1609881286657
Fix,GT,37.373651,-122.0679,,25.539307,0.1,166.93567,1609881287649
Fix,GT,37.3734255,-122.0678275,,25.653252,0.1,164.48486,1609881288659
Fix,GT,37.3732057,-122.0677447,,25.842815,0.1,162.24695,1609881289649
Fix,GT,37.3729857,-122.0676502,,26.049976,0.1,160.03088,1609881290644
Fix,GT,37.3727632,-122.0675422,,26.319263,0.1,157.67145,1609881291656
Fix,GT,37.372546,-122.0674244,,26.66978,0.1,155.62946,1609881292648
Fix,GT,37.3723245,-122.0672946,,27.08118,0.1,154.2915,1609881293658
Fix,GT,37.3721057,-122.0671614,,27.392088,0.1,153.95087,1609881294649
Fix,GT,37.3718839,-122.0670264,,27.564087,0.1,154.0669,1609881295645
Fix,GT,37.3716566,-122.0668888,,27.768986,0.1,154.15863,1609881296657
Fix,GT,37.3714327,-122.0667534,,27.88704,0.1,154.13391,1609881297648
Fix,GT,37.3712103,-122.0666188,,27.801174,0.1,154.11499,1609881298633
Fix,GT,37.3709827,-122.0664808,,27.680641,0.1,154.05524,1609881299645
Fix,GT,37.3707589,-122.0663446,,27.62534,0.1,153.97333,1609881300643
Fix,GT,37.3705319,-122.0662061,,27.626995,0.1,153.93408,1609881301658
Fix,GT,37.3703094,-122.0660703,,27.5944,0.1,153.99817,1609881302652
Fix,GT,37.3700835,-122.0659333,,27.494507,0.1,154.11176,1609881303663
Fix,GT,37.369863,-122.0658002,,27.389397,0.1,154.24744,1609881304653
Fix,GT,37.3696428,-122.0656675,,27.369513,0.1,154.17712,1609881305644
Fix,GT,37.3694178,-122.0655306,,27.51136,0.1,153.74939,1609881306656
Fix,GT,37.3691968,-122.0653932,,27.672586,0.1,153.37915,1609881307649
Fix,GT,37.3689711,-122.0652529,,27.803074,0.1,153.70886,1609881308656
Fix,GT,37.3687464,-122.0651156,,27.934242,0.1,154.02344,1609881309652
Fix,GT,37.3685204,-122.0649792,,28.122454,0.1,154.2826,1609881310645
Fix,GT,37.3682884,-122.0648398,,28.308462,0.1,154.31958,1609881311657
Fix,GT,37.3680592,-122.0647021,,28.499567,0.1,154.22034,1609881312650
Fix,GT,37.3678238,-122.0645601,,28.627052,0.1,154.19348,1609881313665
Fix,GT,37.3675939,-122.0644217,,28.674253,0.1,154.28918,1609881314653
Fix,GT,37.3673585,-122.0642804,,28.690094,0.1,154.29767,1609881315662
Fix,GT,37.3671269,-122.0641415,,28.681593,0.1,154.37842,1609881316656
Fix,GT,37.366895,-122.064003,,28.66694,0.1,154.46722,1609881317650
Fix,GT,37.3666595,-122.0638639,,28.676052,0.1,155.0398,1609881318658
Fix,GT,37.3664255,-122.0637332,,28.69878,0.1,156.65833,1609881319649
Fix,GT,37.3661876,-122.0636109,,28.76958,0.1,158.54187,1609881320643
Fix,GT,37.3659408,-122.0634968,,28.903086,0.1,160.80896,1609881321657
Fix,GT,37.3656945,-122.063397,,29.027851,0.1,163.12555,1609881322648
Fix,GT,37.3654399,-122.063308,,29.107994,0.1,165.50623,1609881323658
Fix,GT,37.3651854,-122.0632338,,29.184135,0.1,167.99585,1609881324653
Fix,GT,37.3649287,-122.0631722,,29.280312,0.1,170.07623,1609881325646
Fix,GT,37.3646653,-122.0631207,,29.30862,0.1,172.00958,1609881326655
Fix,GT,37.3644058,-122.0630817,,29.045353,0.1,174.104,1609881327649
Fix,GT,37.3641443,-122.0630548,,28.608173,0.1,176.32849,1609881328659
Fix,GT,37.3638914,-122.0630411,,28.183817,0.1,178.56732,1609881329649
Fix,GT,37.3636397,-122.0630389,,28.08857,0.1,180.27039,1609881330643
Fix,GT,37.3633823,-122.0630431,,28.43045,0.1,180.91197,1609881331656
Fix,GT,37.363125,-122.063049,,29.001345,0.1,181.01288,1609881332651
Fix,GT,37.3628595,-122.0630557,,29.432814,0.1,181.07054,1609881333659
Fix,GT,37.362595,-122.0630623,,29.683937,0.1,181.03307,1609881334652
Fix,GT,37.3623282,-122.0630686,,29.974907,0.1,180.94354,1609881335645
Fix,GT,37.3620538,-122.0630747,,30.253822,0.1,180.92433,1609881336656
Fix,GT,37.3617824,-122.0630807,,30.343777,0.1,180.966,1609881337650
Fix,GT,37.3615071,-122.0630875,,30.282042,0.1,181.1299,1609881338657
Fix,GT,37.3612358,-122.0630951,,30.160355,0.1,181.23373,1609881339654
Fix,GT,37.3609673,-122.0631028,,30.094885,0.1,181.16904,1609881340644
Fix,GT,37.3606931,-122.0631099,,30.030357,0.1,181.00159,1609881341656
Fix,GT,37.3604247,-122.0631158,,29.949673,0.1,180.84622,1609881342650
Fix,GT,37.3601527,-122.0631206,,29.911175,0.1,180.67766,1609881343658
Fix,GT,37.3598857,-122.063124,,29.898052,0.1,180.41844,1609881344650
Fix,GT,37.3596179,-122.0631256,,29.894615,0.1,179.95311,1609881345644
Fix,GT,37.3593458,-122.0631226,,29.816475,0.1,178.78308,1609881346655
Fix,GT,37.3590792,-122.0631118,,29.667221,0.1,177.4466,1609881347651
Fix,GT,37.3588099,-122.0630936,,29.593357,0.1,176.31311,1609881348661
Fix,GT,37.3585477,-122.0630694,,29.619598,0.1,175.10724,1609881349647
Fix,GT,37.3582768,-122.0630372,,29.625057,0.1,173.97937,1609881350666
Fix,GT,37.3580143,-122.063,,29.606617,0.1,172.97949,1609881351657
Fix,GT,37.3577517,-122.0629566,,29.64204,0.1,171.90356,1609881352649
Fix,GT,37.3574848,-122.0629057,,29.706673,0.1,170.73682,1609881353659
Fix,GT,37.3572225,-122.0628491,,29.663382,0.1,169.66553,1609881354653
Fix,GT,37.3569633,-122.0627874,,29.50291,0.1,168.80554,1609881355643
Fix,GT,37.3567012,-122.0627201,,29.201843,0.1,167.90674,1609881356655
Fix,GT,37.3564478,-122.0626487,,28.783476,0.1,166.68872,1609881357649
Fix,GT,37.3561948,-122.0625708,,28.503273,0.1,165.62537,1609881358659
Fix,GT,37.3559493,-122.0624891,,28.389637,0.1,164.57294,1609881359650
Fix,GT,37.355706,-122.0624026,,28.17353,0.1,163.77356,1609881360642
Fix,GT,37.3554611,-122.0623123,,27.723427,0.1,163.43445,1609881361655
Fix,GT,37.355226,-122.0622241,,27.137049,0.1,163.1211,1609881362648
Fix,GT,37.3549934,-122.0621347,,26.491322,0.1,162.73499,1609881363655
Fix,GT,37.3547685,-122.0620472,,25.855556,0.1,162.73944,1609881364653
Fix,GT,37.3545503,-122.0619635,,25.237164,0.1,163.04053,1609881365644
Fix,GT,37.3543333,-122.0618815,,24.265255,0.1,163.11163,1609881366657
Fix,GT,37.3541303,-122.061805,,22.145964,0.1,163.15625,1609881367668
Fix,GT,37.3539515,-122.0617376,,19.789312,0.1,163.16162,1609881368659
Fix,GT,37.3537872,-122.0616752,,18.112831,0.1,162.96777,1609881369667
Fix,GT,37.3536367,-122.0616174,,17.102598,0.1,162.82745,1609881370659
Fix,GT,37.3534947,-122.0615628,,15.966774,0.1,162.73218,1609881371652
Fix,GT,37.3533627,-122.0615115,,14.239014,0.1,162.55457,1609881372665
Fix,GT,37.3532486,-122.0614668,,12.794993,0.1,162.54095,1609881373649
Fix,GT,37.353142,-122.0614253,,11.425884,0.1,162.86304,1609881374669
Fix,GT,37.3530491,-122.0613913,,10.243602,0.1,164.0846,1609881375662
Fix,GT,37.3529649,-122.0613634,,9.212023,0.1,165.49292,1609881376657
Fix,GT,37.3528885,-122.0613399,,8.037167,0.1,166.36768,1609881377668
Fix,GT,37.3528241,-122.0613214,,6.7092676,0.1,167.28381,1609881378660
Fix,GT,37.3527715,-122.0613075,,5.0262165,0.1,168.05695,1609881379669
Fix,GT,37.3527359,-122.0612985,,3.2653315,0.1,168.53613,1609881380645
Fix,GT,37.3527133,-122.061293,,1.7590661,0.1,168.8056,1609881381657
Fix,GT,37.3527037,-122.0612908,,0.5107929,0.1,168.90326,1609881382651
Fix,GT,37.3527011,-122.0612901,,0.23438153,0.1,168.93652,1609881383662
Fix,GT,37.3526977,-122.0612893,,0.523173,0.1,168.96191,1609881384654
Fix,GT,37.3526926,-122.0612881,,0.56004,0.1,168.9986,1609881385667
Fix,GT,37.3526885,-122.0612871,,0.36888635,0.1,169.03955,1609881386658
Fix,GT,37.3526863,-122.0612867,,0.1384134,0.1,169.05957,1609881387649
Fix,GT,37.3526857,-122.0612866,,0.01924763,0.1,169.06482,1609881388662
Fix,GT,37.3526857,-122.0612866,,0.0020440347,0.1,169.06653,1609881389646
Fix,GT,37.3526858,-122.0612866,,0.001724199,0.1,169.06683,1609881390665
Fix,GT,37.3526858,-122.0612866,,0.001811277,0.1,169.06702,1609881391656
Fix,GT,37.3526858,-122.0612866,,0.002236068,0.1,169.06702,1609881392651
Fix,GT,37.3526858,-122.0612866,,0.002236068,0.1,169.06702,1609881393660
Fix,GT,37.3526858,-122.0612866,,0.0020835167,0.1,169.06702,1609881394646
Fix,GT,37.3526858,-122.0612865,,0.002668372,0.1,169.06714,1609881395668
Fix,GT,37.3526858,-122.0612865,,0.002344118,0.1,169.06726,1609881396655
Fix,GT,37.3526858,-122.0612865,,0.001348058,0.1,169.06726,1609881397651
Fix,GT,37.3526858,-122.0612865,,0.033014216,0.1,169.0686,1609881398663
Fix,GT,37.3526828,-122.0612858,,0.7838532,0.1,169.11798,1609881399644
Fix,GT,37.3526697,-122.0612827,,2.233799,0.1,169.22491,1609881400665
Fix,GT,37.3526397,-122.0612758,,4.013457,0.1,169.26672,1609881401758
Fix,GT,37.3526113,-122.0612692,,5.1123743,0.1,169.26013,1609881402447
Fix,GT,37.3525472,-122.0612541,,6.71852,0.1,169.40027,1609881403662
Fix,GT,37.3524837,-122.0612399,,7.5128593,0.1,169.84875,1609881404662
Fix,GT,37.3524148,-122.0612252,,7.85925,0.1,170.4696,1609881405663
Fix,GT,37.3523456,-122.0612103,,7.835718,0.1,169.90143,1609881406654
Fix,GT,37.3522769,-122.0611893,,7.5971584,0.1,164.05786,1609881407668
Fix,GT,37.3522167,-122.0611544,,7.4083824,0.1,151.4786,1609881408656
Fix,GT,37.3521654,-122.0610996,,7.642966,0.1,135.42084,1609881409664
Fix,GT,37.3521271,-122.0610266,,8.104019,0.1,119.60486,1609881410657
Fix,GT,37.3521033,-122.0609381,,8.611969,0.1,104.80835,1609881411656
Fix,GT,37.3520943,-122.0608371,,9.325296,0.1,94.003235,1609881412668
Fix,GT,37.3520931,-122.0607183,,10.024231,0.1,89.85962,1609881413752
Fix,GT,37.3520956,-122.0605334,,8.917037,0.1,88.54608,1609881415440
Fix,GT,37.3520978,-122.0604425,,7.1343617,0.1,88.0578,1609881416440
Fix,GT,37.3521,-122.0603736,,5.0805864,0.1,87.69504,1609881417440
Fix,GT,37.3521016,-122.0603268,,3.2562203,0.1,87.43909,1609881418440
Fix,GT,37.3521028,-122.060298,,1.9234582,0.1,87.22531,1609881419440
Fix,GT,37.3521033,-122.0602829,,0.8376146,0.1,87.1503,1609881420440
Fix,GT,37.3521035,-122.0602765,,0.37230402,0.1,87.1145,1609881421440
Fix,GT,37.3521037,-122.0602722,,0.40061444,0.1,87.07611,1609881422440
Fix,GT,37.3521038,-122.0602686,,0.23067029,0.1,87.04303,1609881423440
Fix,GT,37.3521039,-122.0602671,,0.057872053,0.1,87.02823,1609881424440
Fix,GT,37.3521039,-122.060267,,0.0023071012,0.1,87.02643,1609881425440
Fix,GT,37.3521039,-122.060267,,0.00062288437,0.1,87.02524,1609881426440
Fix,GT,37.3521039,-122.060267,,0.0012317749,0.1,87.02515,1609881427440
Fix,GT,37.3521039,-122.060267,,0.001,0.1,87.025085,1609881428440
Fix,GT,37.3521039,-122.060267,,0.001,0.1,87.02472,1609881429440
Fix,GT,37.3521039,-122.060267,,0.001,0.1,87.024414,1609881430440
Fix,GT,37.3521039,-122.060267,,0.0011824386,0.1,87.02518,1609881431440
Fix,GT,37.3521039,-122.060267,,0.001231775,0.1,87.02521,1609881432440
Fix,GT,37.3521039,-122.060267,,0.001,0.1,87.02457,1609881433440
Fix,GT,37.3521039,-122.060267,,0.0005595544,0.1,87.02493,1609881434440
Fix,GT,37.3521039,-122.060267,,0.0004404457,0.1,87.025024,1609881435440
Fix,GT,37.3521039,-122.060267,,0.0011824386,0.1,87.0249,1609881436440
Fix,GT,37.3521039,-122.060267,,0.0012317749,0.1,87.02478,1609881437440
Fix,GT,37.3521039,-122.060267,,0.015637984,0.1,87.02487,1609881438440
Fix,GT,37.3521042,-122.0602649,,0.43456382,0.1,86.641846,1609881439440
Fix,GT,37.3521066,-122.0602551,,1.4643762,0.1,81.95691,1609881440440
Fix,GT,37.3521163,-122.060234,,2.767624,0.1,68.533295,1609881441440
Fix,GT,37.3521391,-122.0602059,,4.286081,0.1,48.405457,1609881442440
Fix,GT,37.3521799,-122.0601808,,5.9034996,0.1,26.24054,1609881443440
Fix,GT,37.3522393,-122.0601691,,7.5657396,0.1,6.6289062,1609881444440
Fix,GT,37.3523137,-122.060178,,9.125668,0.1,351.2337,1609881445440
Fix,GT,37.352398,-122.0602108,,10.587328,0.1,339.95135,1609881446440
Fix,GT,37.3524914,-122.0602624,,12.113571,0.1,335.14474,1609881447440
Fix,GT,37.3525962,-122.0603241,,13.565453,0.1,334.65088,1609881448440
Fix,GT,37.352712,-122.0603931,,14.864404,0.1,334.4495,1609881449440
Fix,GT,37.3528379,-122.0604677,,16.031906,0.1,334.68585,1609881450440
Fix,GT,37.3529733,-122.0605469,,17.125683,0.1,335.07306,1609881451440
Fix,GT,37.3531172,-122.0606298,,18.014343,0.1,335.3323,1609881452440
Fix,GT,37.3532677,-122.0607166,,18.773888,0.1,335.17545,1609881453440
Fix,GT,37.3534241,-122.0608087,,19.577362,0.1,334.4587,1609881454440
Fix,GT,37.3535857,-122.0609072,,20.352177,0.1,333.6485,1609881455440
Fix,GT,37.3537524,-122.0610126,,21.128456,0.1,332.8804,1609881456440
Fix,GT,37.3539249,-122.0611238,,21.925049,0.1,332.61945,1609881457440
Fix,GT,37.3541039,-122.0612384,,22.710278,0.1,333.0074,1609881458440
Fix,GT,37.35429,-122.0613554,,23.535023,0.1,333.51697,1609881459440
Fix,GT,37.3544843,-122.061474,,24.417557,0.1,334.26376,1609881460440
Fix,GT,37.354687,-122.0615929,,25.243628,0.1,335.36905,1609881461440
Fix,GT,37.3548981,-122.0617102,,26.00899,0.1,336.6888,1609881462440
Fix,GT,37.355165,-122.0618476,,26.668938,0.1,338.41992,1609881463655
Fix,GT,37.3553934,-122.0619565,,27.051285,0.1,339.8373,1609881464664
Fix,GT,37.3556231,-122.0620575,,27.366863,0.1,341.37634,1609881465658
Fix,GT,37.3558587,-122.0621521,,27.805655,0.1,342.8501,1609881466653
Fix,GT,37.3560994,-122.0622404,,28.250404,0.1,344.31357,1609881467646
Fix,GT,37.3563498,-122.0623237,,28.587847,0.1,345.7433,1609881468657
Fix,GT,37.356599,-122.0623988,,28.738983,0.1,347.0745,1609881469649
Fix,GT,37.3568545,-122.0624684,,28.709553,0.1,348.19113,1609881470659
Fix,GT,37.3571065,-122.062531,,28.580448,0.1,349.24683,1609881471654
Fix,GT,37.3573578,-122.0625877,,28.71754,0.1,350.14163,1609881472644
Fix,GT,37.3576171,-122.0626411,,28.87146,0.1,351.12247,1609881473657
Fix,GT,37.357871,-122.0626868,,28.824463,0.1,352.36987,1609881474644
Fix,GT,37.3581316,-122.0627267,,28.776218,0.1,353.4735,1609881475656
Fix,GT,37.3583873,-122.0627602,,28.719612,0.1,354.37793,1609881476648
Fix,GT,37.3586413,-122.0627882,,28.613605,0.1,355.4607,1609881477635
Fix,GT,37.3589039,-122.0628105,,28.504074,0.1,356.66632,1609881478658
Fix,GT,37.3591576,-122.0628252,,28.511919,0.1,357.83673,1609881479647
Fix,GT,37.3594095,-122.0628333,,28.49323,0.1,359.087,1609881480628
Fix,GT,37.3596702,-122.0628351,,28.54716,0.1,0.052764893,1609881481643
Fix,GT,37.3599266,-122.0628327,,28.76335,0.1,0.5446472,1609881482637
Fix,GT,37.3601928,-122.0628282,,29.13419,0.1,0.7748718,1609881483658
Fix,GT,37.3604531,-122.0628231,,29.46125,0.1,0.80914307,1609881484644
Fix,GT,37.3607224,-122.062818,,29.744568,0.1,0.7580261,1609881485653
Fix,GT,37.3609886,-122.0628132,,29.901476,0.1,0.76330566,1609881486644
Fix,GT,37.3612586,-122.0628076,,30.010654,0.1,0.9176941,1609881487644
Fix,GT,37.361533,-122.0628013,,30.06889,0.1,0.92211914,1609881488657
Fix,GT,37.361802,-122.0627954,,30.078432,0.1,0.87323,1609881489650
Fix,GT,37.3620755,-122.0627898,,30.065262,0.1,0.8812561,1609881490660
Fix,GT,37.362345,-122.062784,,30.08435,0.1,0.842041,1609881491655
Fix,GT,37.3626134,-122.0627794,,30.166449,0.1,0.57681274,1609881492644
Fix,GT,37.3628896,-122.0627755,,30.337614,0.1,0.5321655,1609881493657
Fix,GT,37.3631605,-122.0627712,,30.497417,0.1,0.8036194,1609881494646
Fix,GT,37.3634395,-122.0627658,,30.574492,0.1,0.8265381,1609881495659
Fix,GT,37.3637126,-122.0627625,,30.64423,0.1,0.18017578,1609881496650
Fix,GT,37.3639878,-122.062766,,30.770538,0.1,358.53116,1609881497645
Fix,GT,37.3642687,-122.0627823,,30.773916,0.1,356.06494,1609881498659
Fix,GT,37.3645415,-122.062813,,30.57059,0.1,353.68405,1609881499650
Fix,GT,37.3648158,-122.0628581,,30.269577,0.1,351.28622,1609881500659
Fix,GT,37.3650805,-122.0629159,,29.887005,0.1,348.91736,1609881501651
Fix,GT,37.3653406,-122.0629862,,29.537159,0.1,346.79758,1609881502645
Fix,GT,37.3656008,-122.0630685,,29.338064,0.1,344.75854,1609881503658
Fix,GT,37.3658529,-122.0631608,,29.300978,0.1,342.53137,1609881504652
Fix,GT,37.3661049,-122.0632673,,29.184195,0.1,340.1064,1609881505661
Fix,GT,37.3663467,-122.0633837,,28.958527,0.1,337.86444,1609881506651
Fix,GT,37.3665878,-122.063512,,28.71396,0.1,336.15872,1609881507659
Fix,GT,37.366822,-122.0636453,,28.506292,0.1,335.03513,1609881508657
Fix,GT,37.3670501,-122.0637799,,28.337063,0.1,334.4051,1609881509642
Fix,GT,37.367283,-122.0639196,,28.252804,0.1,334.22165,1609881510655
Fix,GT,37.3675092,-122.0640571,,28.372246,0.1,333.85812,1609881511642
Fix,GT,37.3677386,-122.0641986,,28.595047,0.1,333.62732,1609881512638
Fix,GT,37.3679739,-122.0643435,,28.6596,0.1,333.8613,1609881513654
Fix,GT,37.3682029,-122.0644835,,28.698795,0.1,333.9824,1609881514639
Fix,GT,37.3684397,-122.0646274,,28.578602,0.1,334.12683,1609881515659
Fix,GT,37.368669,-122.0647655,,28.30008,0.1,334.37268,1609881516651
Fix,GT,37.368896,-122.0649009,,27.993807,0.1,334.4389,1609881517643
Fix,GT,37.3691241,-122.0650373,,27.68948,0.1,334.3128,1609881518650
Fix,GT,37.3693447,-122.0651701,,27.40284,0.1,334.18518,1609881519636
Fix,GT,37.3695713,-122.0653071,,27.249943,0.1,334.1519,1609881520658
Fix,GT,37.3697952,-122.065443,,27.372704,0.1,333.99207,1609881521671
Fix,GT,37.3700165,-122.0655784,,27.764936,0.1,333.79495,1609881522663
Fix,GT,37.3702403,-122.0657157,,27.94482,0.1,333.83725,1609881523656
Fix,GT,37.3704635,-122.0658524,,28.086948,0.1,333.8563,1609881524639
Fix,GT,37.3706957,-122.0659952,,28.217136,0.1,333.7885,1609881525659
Fix,GT,37.370922,-122.0661335,,28.195805,0.1,334.05017,1609881526650
Fix,GT,37.3711492,-122.0662714,,28.233173,0.1,334.0748,1609881527643
Fix,GT,37.37138,-122.0664118,,28.27971,0.1,333.9967,1609881528650
Fix,GT,37.3716087,-122.0665508,,28.125399,0.1,334.1295,1609881529649
Fix,GT,37.3718389,-122.0666894,,28.03064,0.1,334.34766,1609881530659
Fix,GT,37.3720641,-122.0668237,,27.858976,0.1,334.5687,1609881531650
Fix,GT,37.3722885,-122.0669565,,27.56818,0.1,334.6808,1609881532644
Fix,GT,37.3725156,-122.0670895,,27.392687,0.1,335.10156,1609881533657
Fix,GT,37.3727391,-122.0672157,,27.551056,0.1,336.354,1609881534648
Fix,GT,37.3729729,-122.0673361,,27.831059,0.1,338.76138,1609881535662
Fix,GT,37.3732069,-122.0674413,,27.857784,0.1,341.502,1609881536652
Fix,GT,37.373444,-122.0675325,,27.639017,0.1,344.1271,1609881537644
Fix,GT,37.3736855,-122.0676102,,27.353523,0.1,346.80185,1609881538651
Fix,GT,37.3739235,-122.0676724,,26.802921,0.1,349.28925,1609881539646
Fix,GT,37.3741623,-122.0677218,,26.137833,0.1,351.74197,1609881540660
Fix,GT,37.3743901,-122.0677557,,25.114082,0.1,354.42694,1609881541652
Fix,GT,37.3746136,-122.0677756,,23.993397,0.1,357.10785,1609881542665
Fix,GT,37.3748237,-122.0677818,,23.171177,0.1,0.19268799,1609881543656
Fix,GT,37.3750279,-122.0677701,,22.730759,0.1,4.6184998,1609881544647
Fix,GT,37.3752326,-122.0677398,,22.52837,0.1,8.080688,1609881545660
Fix,GT,37.3754313,-122.0677004,,22.334608,0.1,9.463562,1609881546655
Fix,GT,37.3756256,-122.0676573,,21.764492,0.1,10.286316,1609881547645
Fix,GT,37.3758154,-122.0676112,,20.661846,0.1,11.189453,1609881548653
Fix,GT,37.3759905,-122.0675647,,19.281216,0.1,12.407867,1609881549649
Fix,GT,37.3761557,-122.0675106,,18.357382,0.1,16.638214,1609881550660
Fix,GT,37.3763073,-122.06744,,17.975044,0.1,23.1268,1609881551652
Fix,GT,37.376451,-122.0673443,,17.666718,0.1,31.74643,1609881552668
Fix,GT,37.3765757,-122.0672275,,17.366117,0.1,40.103455,1609881553658
Fix,GT,37.376685,-122.0670927,,17.050762,0.1,47.469788,1609881554649
Fix,GT,37.37678,-122.0669417,,16.813137,0.1,54.811584,1609881555660
Fix,GT,37.3768571,-122.0667811,,16.786263,0.1,61.470734,1609881556650
Fix,GT,37.3769235,-122.0666126,,16.657597,0.1,64.89337,1609881557646
Fix,GT,37.3769851,-122.0664401,,16.393394,0.1,66.23932,1609881558658
Fix,GT,37.3770423,-122.0662751,,15.790152,0.1,66.32663,1609881559646
Fix,GT,37.377098,-122.0661162,,14.467856,0.1,65.9816,1609881560659
Fix,GT,37.3771461,-122.0659779,,12.426132,0.1,66.6427,1609881561649
Fix,GT,37.3771828,-122.0658606,,9.962011,0.1,70.2099,1609881562644
Fix,GT,37.3772045,-122.0657656,,7.497919,0.1,76.45499,1609881563655
Fix,GT,37.3772131,-122.0656958,,5.124837,0.1,82.666626,1609881564648
Fix,GT,37.3772156,-122.0656478,,3.3506484,0.1,86.790436,1609881565659
Fix,GT,37.3772158,-122.0656162,,2.4665353,0.1,88.86676,1609881566653
Fix,GT,37.3772157,-122.0655893,,2.5855207,0.1,89.87103,1609881567643
Fix,GT,37.3772144,-122.0655528,,3.8692589,0.1,91.98865,1609881568656
Fix,GT,37.3772103,-122.0655012,,5.364776,0.1,95.33557,1609881569648
Fix,GT,37.3772034,-122.0654332,,6.6649094,0.1,97.028625,1609881570656
Fix,GT,37.377196,-122.0653528,,7.7557535,0.1,96.250244,1609881571648
Fix,GT,37.3771888,-122.0652604,,8.671452,0.1,95.62366,1609881572645
Fix,GT,37.3771795,-122.0651579,,9.402732,0.1,97.14365,1609881573656
Fix,GT,37.3771652,-122.0650511,,9.901662,0.1,100.65881,1609881574650
Fix,GT,37.3771427,-122.0649387,,10.464448,0.1,105.89487,1609881575660
Fix,GT,37.3771099,-122.0648253,,11.109288,0.1,111.65466,1609881576651
Fix,GT,37.3770681,-122.0647082,,11.758685,0.1,114.7554,1609881577645
Fix,GT,37.3770212,-122.0645842,,12.268917,0.1,115.38959,1609881578656
Fix,GT,37.376974,-122.0644599,,12.330159,0.1,115.3822,1609881579645
Fix,GT,37.3769262,-122.0643339,,11.992833,0.1,115.22238,1609881580659
Fix,GT,37.3768818,-122.0642152,,11.1545315,0.1,114.87851,1609881581654
Fix,GT,37.3768426,-122.064109,,9.663062,0.1,114.63141,1609881582644
Fix,GT,37.376809,-122.0640173,,8.170217,0.1,114.60477,1609881583657
Fix,GT,37.3767801,-122.0639398,,7.138629,0.1,114.98993,1609881584649
Fix,GT,37.3767543,-122.0638714,,6.186155,0.1,115.35687,1609881585659
Fix,GT,37.376732,-122.063813,,5.297906,0.1,115.377716,1609881586653
Fix,GT,37.3767139,-122.0637651,,4.047002,0.1,115.200134,1609881587645
Fix,GT,37.3767017,-122.0637324,,2.2638988,0.1,115.07028,1609881588657
Fix,GT,37.3766962,-122.0637176,,0.74858344,0.1,115.021545,1609881589650
Fix,GT,37.3766949,-122.0637142,,0.09786666,0.1,115.011566,1609881590660
Fix,GT,37.3766948,-122.063714,,0.0024436421,0.1,115.01288,1609881591649
Fix,GT,37.3766948,-122.063714,,0.0019446498,0.1,115.01367,1609881592665
Fix,GT,37.3766948,-122.063714,,0.0011424314,0.1,115.0141,1609881593656
Fix,GT,37.3766948,-122.063714,,0.0018043763,0.1,115.01318,1609881594650
Fix,GT,37.3766949,-122.063714,,0.0020804403,0.1,115.01242,1609881595659
Fix,GT,37.3766949,-122.063714,,0.002,0.1,115.01239,1609881596655
Fix,GT,37.3766949,-122.063714,,0.002,0.1,115.0123,1609881597645
Fix,GT,37.3766949,-122.063714,,0.002,0.1,115.01227,1609881598659
Fix,GT,37.3766949,-122.063714,,0.0021534974,0.1,115.01227,1609881599650
Fix,GT,37.3766949,-122.063714,,0.0016933045,0.1,115.012695,1609881600660
Fix,GT,37.3766949,-122.063714,,0.0017978448,0.1,115.01257,1609881601654
Fix,GT,37.3766949,-122.063714,,0.001335599,0.1,115.01245,1609881602664
Fix,GT,37.3766949,-122.063714,,0.0016575297,0.1,115.01233,1609881603657
Fix,GT,37.3766949,-122.063714,,0.0013492582,0.1,115.01233,1609881604650
Fix,GT,37.3766949,-122.063714,,0.001,0.1,115.01218,1609881605661
Fix,GT,37.3766949,-122.063714,,0.001,0.1,115.01199,1609881606654
Fix,GT,37.3766949,-122.063714,,0.0016670023,0.1,115.01199,1609881607667
Fix,GT,37.3766949,-122.063714,,0.002,0.1,115.012054,1609881608658
Fix,GT,37.3766949,-122.063714,,0.002,0.1,115.012115,1609881609652
Fix,GT,37.3766949,-122.063714,,0.0021559715,0.1,115.012665,1609881610660
Fix,GT,37.3766949,-122.063714,,0.002236068,0.1,115.01285,1609881611651
Fix,GT,37.3766949,-122.063714,,0.0020784172,0.1,115.01251,1609881612667
Fix,GT,37.3766949,-122.063714,,0.0026578347,0.1,115.01239,1609881613657
Fix,GT,37.3766949,-122.063714,,0.0023485348,0.1,115.01236,1609881614651
Fix,GT,37.3766949,-122.063714,,0.002156158,0.1,115.01245,1609881615661
Fix,GT,37.3766949,-122.063714,,0.0014266723,0.1,115.012634,1609881616654
Fix,GT,37.3766949,-122.063714,,0.0016473434,0.1,115.012695,1609881617647
Fix,GT,37.3766949,-122.063714,,0.002,0.1,115.012726,1609881618659
Fix,GT,37.3766949,-122.063714,,0.0021534096,0.1,115.01285,1609881619649
Fix,GT,37.3766949,-122.063714,,0.002849568,0.1,115.01285,1609881620662
Fix,GT,37.3766949,-122.063714,,0.0024051021,0.1,115.01285,1609881621651
Fix,GT,37.3766949,-122.063714,,0.0013336625,0.1,115.01288,1609881622666
Fix,GT,37.3766949,-122.063714,,0.0018142541,0.1,115.01294,1609881623658
Fix,GT,37.3766949,-122.063714,,0.0014303136,0.1,115.01282,1609881624651
Fix,GT,37.3766949,-122.063714,,0.001,0.1,115.01288,1609881625664
Fix,GT,37.3766949,-122.063714,,0.001,0.1,115.01303,1609881626651
Fix,GT,37.3766949,-122.063714,,0.0012761484,0.1,115.013336,1609881627666
Fix,GT,37.3766949,-122.063714,,0.0011413407,0.1,115.01343,1609881628658
Fix,GT,37.3766949,-122.063714,,0.001,0.1,115.013214,1609881629642
Fix,GT,37.3766949,-122.063714,,0.001,0.1,115.013,1609881630641
Fix,GT,37.3766949,-122.063714,,0.0012711666,0.1,115.01288,1609881631654
Fix,GT,37.3766949,-122.063714,,0.001146707,0.1,115.01297,1609881632645
Fix,GT,37.3766949,-122.063714,,0.001,0.1,115.01303,1609881633659
Fix,GT,37.3766949,-122.063714,,0.001,0.1,115.01297,1609881634639
Fix,GT,37.3766949,-122.063714,,0.001,0.1,115.01306,1609881635639
Fix,GT,37.3766949,-122.063714,,0.0012700672,0.1,115.01315,1609881636651
Fix,GT,37.3766949,-122.063714,,0.0011376385,0.1,115.01309,1609881637667
Fix,GT,37.3766949,-122.063714,,0.0016584264,0.1,115.01312,1609881638658
Fix,GT,37.3766949,-122.063714,,0.0021516455,0.1,115.013245,1609881639642
Fix,GT,37.3766949,-122.063714,,0.002236068,0.1,115.013275,1609881640639
Fix,GT,37.3766949,-122.063714,,0.002236068,0.1,115.013306,1609881641654
Fix,GT,37.3766949,-122.063714,,0.0026313867,0.1,115.01337,1609881642667
Fix,GT,37.3766949,-122.063714,,0.0018982042,0.1,115.013275,1609881643657
Fix,GT,37.3766949,-122.063714,,0.001148766,0.1,115.013214,1609881644640
Fix,GT,37.3766949,-122.063714,,0.001640184,0.1,115.01306,1609881645640
Fix,GT,37.3766949,-122.063714,,0.002,0.1,115.01306,1609881646657
Fix,GT,37.3766949,-122.063714,,0.0021525414,0.1,115.01282,1609881647646
Fix,GT,37.3766949,-122.063714,,0.0014311268,0.1,115.01282,1609881648651
Fix,GT,37.3766949,-122.063714,,0.001,0.1,115.01294,1609881649642
Fix,GT,37.3766949,-122.063714,,0.001783272,0.1,115.013,1609881650633
Fix,GT,37.3766949,-122.063714,,0.0020818086,0.1,115.01294,1609881651653
Fix,GT,37.3766949,-122.063714,,0.002152483,0.1,115.01297,1609881652645
Fix,GT,37.3766949,-122.063714,,0.0014215277,0.1,115.01312,1609881653658
Fix,GT,37.3766949,-122.063714,,0.001,0.1,115.01312,1609881654651
Fix,GT,37.3766949,-122.063714,,0.0016608472,0.1,115.01312,1609881655660
Fix,GT,37.3766949,-122.063714,,0.0021536974,0.1,115.01318,1609881656651
Fix,GT,37.3766949,-122.063714,,0.002236068,0.1,115.01309,1609881657667
Fix,GT,37.3766949,-122.063714,,0.002236068,0.1,115.01309,1609881658658
Fix,GT,37.3766949,-122.063714,,0.0014305034,0.1,115.01303,1609881659651
Fix,GT,37.3766949,-122.063714,,0.0016618749,0.1,115.01309,1609881660661
Fix,GT,37.3766949,-122.063714,,0.0016156032,0.1,115.013,1609881661656
Fix,GT,37.3766949,-122.063714,,0.0011461095,0.1,115.01306,1609881662647
Fix,GT,37.3766949,-122.063714,,0.001,0.1,115.01314,1609881663659
Fix,GT,37.3766949,-122.063714,,0.001,0.1,115.01318,1609881664651
Fix,GT,37.3766949,-122.063714,,0.001,0.1,115.01312,1609881665662
Fix,GT,37.3766949,-122.063714,,0.001,0.1,115.013,1609881666651
Fix,GT,37.3766949,-122.063714,,0.001,0.1,115.01306,1609881667645
Fix,GT,37.3766949,-122.063714,,0.001,0.1,115.01306,1609881668657
Fix,GT,37.3766949,-122.063714,,0.0012694125,0.1,115.01309,1609881669650
Fix,GT,37.3766949,-122.063714,,0.0011388828,0.1,115.01315,1609881670664
Fix,GT,37.3766949,-122.063714,,0.001,0.1,115.01318,1609881671651
Fix,GT,37.3766949,-122.063714,,0.0018213204,0.1,115.01315,1609881672664
Fix,GT,37.3766949,-122.063714,,0.0014225768,0.1,115.01306,1609881673658
Fix,GT,37.3766949,-122.063714,,0.0016507938,0.1,115.01306,1609881674650
Fix,GT,37.3766949,-122.063714,,0.002,0.1,115.01315,1609881675660
Fix,GT,37.3766949,-122.063714,,0.0027600129,0.1,115.014465,1609881676653
Fix,GT,37.3766949,-122.063714,,0.0034487902,0.1,115.01535,1609881677646
Fix,GT,37.3766949,-122.063714,,0.0025476348,0.1,115.01547,1609881678658
Fix,GT,37.3766949,-122.063714,,0.002,0.1,115.01526,1609881679648
Fix,GT,37.3766949,-122.063714,,0.0030624873,0.1,115.0141,1609881680661
Fix,GT,37.3766949,-122.063714,,0.0027083345,0.1,115.01315,1609881681655
Fix,GT,37.3766948,-122.0637137,,0.1544617,0.1,115.01126,1609881682667
Fix,GT,37.3766934,-122.06371,,0.7529538,0.1,114.912506,1609881683434
Fix,GT,37.3766896,-122.0636963,,1.8511536,0.1,112.30835,1609881684434
Fix,GT,37.3766875,-122.0636704,,2.673264,0.1,100.54401,1609881685434
Fix,GT,37.3766964,-122.0636386,,3.2086558,0.1,75.2706,1609881686434
Fix,GT,37.3767214,-122.0636163,,3.52111,0.1,39.368103,1609881687434
Fix,GT,37.376755,-122.0636197,,4.0588455,0.1,359.05627,1609881688434
Fix,GT,37.3767867,-122.0636534,,5.443979,0.1,321.8041,1609881689434
Fix,GT,37.3768149,-122.0637161,,7.5178547,0.1,299.10663,1609881690434
Fix,GT,37.3768464,-122.0638052,,9.773073,0.1,293.79602,1609881691434
Fix,GT,37.3768854,-122.0639169,,11.80896,0.1,293.4489,1609881692434
Fix,GT,37.3769312,-122.0640489,,13.683252,0.1,293.3595,1609881693434
Fix,GT,37.3769837,-122.0642008,,15.580621,0.1,293.22443,1609881694434
Fix,GT,37.3770413,-122.0643713,,17.167927,0.1,292.52704,1609881695434
Fix,GT,37.3771023,-122.064558,,18.508137,0.1,292.03668,1609881696434
Fix,GT,37.3771678,-122.0647586,,19.875603,0.1,292.4385,1609881697434
Fix,GT,37.3772405,-122.0649721,,21.205118,0.1,293.37183,1609881698434
Fix,GT,37.3773197,-122.0651977,,22.447155,0.1,293.8041,1609881699434
Fix,GT,37.3774038,-122.0654351,,23.470047,0.1,293.93982,1609881700434
Fix,GT,37.3774913,-122.0656791,,23.770487,0.1,294.35092,1609881701434
Fix,GT,37.3775799,-122.065921,,23.353748,0.1,294.7495,1609881702434
Fix,GT,37.3776673,-122.0661576,,22.835413,0.1,294.7805,1609881703434
Fix,GT,37.3777531,-122.0663892,,22.37039,0.1,294.93817,1609881704434
Fix,GT,37.3778385,-122.0666155,,21.995632,0.1,295.65408,1609881705434
Fix,GT,37.377926,-122.0668371,,21.876339,0.1,296.89078,1609881706434
Fix,GT,37.378017,-122.0670563,,21.878662,0.1,297.64792,1609881707434
Fix,GT,37.3781085,-122.0672732,,21.530544,0.1,297.8689,1609881708434
Fix,GT,37.3781988,-122.0674859,,21.11319,0.1,298.05255,1609881709434
Fix,GT,37.3782879,-122.0676939,,20.715534,0.1,298.1276,1609881710434
Fix,GT,37.3783749,-122.067897,,20.059578,0.1,298.27832,1609881711434
Fix,GT,37.3784589,-122.0680904,,18.872452,0.1,298.59412,1609881712434
Fix,GT,37.3785372,-122.0682716,,17.557987,0.1,297.8902,1609881713434
Fix,GT,37.3786068,-122.0684406,,16.033165,0.1,296.708,1609881714434
Fix,GT,37.378668,-122.0685911,,13.935848,0.1,297.34564,1609881715434
Fix,GT,37.3787254,-122.0687182,,12.145062,0.1,301.76013,1609881716434
Fix,GT,37.3787896,-122.0688215,,11.338876,0.1,311.8867,1609881717434
Fix,GT,37.3788685,-122.0689,,11.333747,0.1,326.5126,1609881718434
Fix,GT,37.3789628,-122.0689494,,11.674612,0.1,342.61417,1609881719434
Fix,GT,37.3790683,-122.0689649,,12.194374,0.1,358.53055,1609881720434
Fix,GT,37.3791775,-122.068943,,12.605444,0.1,14.48288,1609881721434
Fix,GT,37.3792801,-122.0688825,,12.906041,0.1,31.383698,1609881722434
Fix,GT,37.3793654,-122.0687844,,13.169785,0.1,48.77655,1609881723434
Fix,GT,37.3794243,-122.0686571,,13.263983,0.1,66.546295,1609881724434
Fix,GT,37.3794495,-122.0685137,,13.117994,0.1,84.57202,1609881725434
Fix,GT,37.3794386,-122.0683701,,12.817062,0.1,102.255005,1609881726434
Fix,GT,37.3793954,-122.0682402,,12.501341,0.1,119.152985,1609881727434
Fix,GT,37.3793248,-122.0681328,,12.575305,0.1,135.54556,1609881728434
Fix,GT,37.3792297,-122.068052,,13.3669,0.1,151.39221,1609881729434
Fix,GT,37.3791124,-122.0679971,,14.661981,0.1,163.3241,1609881730434
Fix,GT,37.378977,-122.0679592,,16.206661,0.1,168.9961,1609881731434
Fix,GT,37.3788256,-122.0679278,,17.870766,0.1,171.00012,1609881732434
Fix,GT,37.3786587,-122.0678964,,19.61519,0.1,171.38855,1609881733434
Fix,GT,37.3784761,-122.0678624,,21.320156,0.1,171.6593,1609881734434
Fix,GT,37.3782795,-122.0678291,,22.698013,0.1,172.87207,1609881735434
Fix,GT,37.3780712,-122.0678011,,23.779491,0.1,174.53955,1609881736434
Fix,GT,37.3778526,-122.067781,,24.882542,0.1,176.7146,1609881737434
Fix,GT,37.3776235,-122.0677715,,26.041561,0.1,179.16357,1609881738434
Fix,GT,37.3773834,-122.0677739,,27.235825,0.1,181.53487,1609881739434
Fix,GT,37.3771339,-122.0677894,,28.196693,0.1,183.87312,1609881740434
Fix,GT,37.3768776,-122.0678164,,28.888237,0.1,185.39609,1609881741434
Fix,GT,37.3766156,-122.0678496,,29.542366,0.1,185.79057,1609881742434
Fix,GT,37.3763485,-122.067884,,30.019482,0.1,185.7961,1609881743434
Fix,GT,37.3760784,-122.0679194,,30.223877,0.1,185.96756,1609881744434
Fix,GT,37.3758074,-122.067955,,30.247389,0.1,185.81523,1609881745434
Fix,GT,37.3755364,-122.067988,,30.181835,0.1,185.10986,1609881746434
Fix,GT,37.3752657,-122.0680137,,30.054386,0.1,183.42668,1609881747434
Fix,GT,37.3749958,-122.0680263,,29.931541,0.1,180.76744,1609881748434
Fix,GT,37.3747264,-122.0680231,,29.858908,0.1,178.05774,1609881749434
Fix,GT,37.3744588,-122.0680047,,29.616547,0.1,175.55109,1609881750434
Fix,GT,37.3741953,-122.0679714,,29.180199,0.1,172.89465,1609881751434
Fix,GT,37.3739372,-122.0679231,,28.761864,0.1,170.11292,1609881752434
Fix,GT,37.3736848,-122.0678603,,28.36467,0.1,167.4715,1609881753434
Fix,GT,37.3734388,-122.0677849,,27.88909,0.1,164.98486,1609881754434
Fix,GT,37.3731998,-122.0676977,,27.410666,0.1,162.52905,1609881755434
Fix,GT,37.3729673,-122.0675983,,27.133024,0.1,159.8681,1609881756434
Fix,GT,37.3727407,-122.0674869,,26.96852,0.1,157.39447,1609881757434
Fix,GT,37.3725182,-122.067365,,26.983059,0.1,155.4143,1609881758434
Fix,GT,37.3722975,-122.0672346,,27.197983,0.1,154.11047,1609881759434
Fix,GT,37.372076,-122.0670987,,27.553913,0.1,153.69568,1609881760434
Fix,GT,37.3718514,-122.0669606,,27.995192,0.1,153.86578,1609881761434
Fix,GT,37.3716226,-122.0668211,,28.474777,0.1,154.07043,1609881762434
Fix,GT,37.3713893,-122.0666798,,28.979921,0.1,154.16718,1609881763434
Fix,GT,37.3711522,-122.0665367,,29.453123,0.1,154.15948,1609881764434
Fix,GT,37.3709118,-122.0663908,,29.860365,0.1,153.97717,1609881765434
Fix,GT,37.3706685,-122.0662419,,30.212772,0.1,153.7832,1609881766434
Fix,GT,37.3704226,-122.0660907,,30.601841,0.1,153.81152,1609881767434
Fix,GT,37.3701734,-122.0659382,,30.94287,0.1,153.98834,1609881768434
Fix,GT,37.3699216,-122.0657852,,31.177565,0.1,154.07281,1609881769434
Fix,GT,37.3696675,-122.0656311,,31.46883,0.1,154.12518,1609881770434
Fix,GT,37.3694108,-122.0654758,,31.776587,0.1,154.18066,1609881771434
Fix,GT,37.369152,-122.0653198,,31.900784,0.1,154.26025,1609881772434
Fix,GT,37.368893,-122.0651645,,31.765121,0.1,154.41425,1609881773434
Fix,GT,37.3685818,-122.0649793,,31.272469,0.1,154.5835,1609881774647
Fix,GT,37.3683293,-122.064829,,30.873354,0.1,154.3988,1609881775645
Fix,GT,37.3680776,-122.0646777,,30.48658,0.1,154.16846,1609881776655
Fix,GT,37.3678289,-122.0645266,,30.096956,0.1,153.96924,1609881777668
Fix,GT,37.3675888,-122.0643796,,29.708794,0.1,153.83643,1609881778660
Fix,GT,37.3673465,-122.0642312,,29.32365,0.1,154.0083,1609881779674
Fix,GT,37.3671134,-122.0640905,,29.065163,0.1,154.32056,1609881780658
Fix,GT,37.3668787,-122.0639496,,29.189331,0.1,154.3515,1609881781651
Fix,GT,37.3666364,-122.0638053,,29.381218,0.1,154.7207,1609881782667
Fix,GT,37.3663966,-122.0636684,,29.653217,0.1,156.38092,1609881783659
Fix,GT,37.3661461,-122.0635403,,29.902111,0.1,159.08582,1609881784668
Fix,GT,37.3658989,-122.0634306,,30.025452,0.1,161.71796,1609881785640
Fix,GT,37.3656361,-122.0633302,,30.13004,0.1,164.19946,1609881786654
Fix,GT,37.365374,-122.0632446,,30.193352,0.1,166.33502,1609881787650
Fix,GT,37.3651057,-122.0631697,,30.197426,0.1,168.35962,1609881788661
Fix,GT,37.3648393,-122.063108,,30.324417,0.1,170.5987,1609881789655
Fix,GT,37.3645655,-122.0630595,,30.488142,0.1,173.2622,1609881790665
Fix,GT,37.3642942,-122.0630274,,30.53189,0.1,175.7486,1609881791656
Fix,GT,37.3640221,-122.0630088,,30.38794,0.1,177.76007,1609881792648
Fix,GT,37.3637465,-122.0630012,,30.030903,0.1,179.4851,1609881793660
Fix,GT,37.3634819,-122.0630017,,29.58107,0.1,180.47061,1609881794645
Fix,GT,37.3632172,-122.0630061,,29.349646,0.1,180.86925,1609881795644
Fix,GT,37.3629489,-122.0630117,,29.306211,0.1,181.01598,1609881796659
Fix,GT,37.3626885,-122.0630183,,29.056423,0.1,181.1878,1609881797649
Fix,GT,37.3624258,-122.0630259,,28.671162,0.1,181.30522,1609881798659
Fix,GT,37.3621707,-122.0630327,,28.438654,0.1,181.02505,1609881799652
Fix,GT,37.3619167,-122.0630378,,28.423447,0.1,180.71635,1609881800645
Fix,GT,37.361631,-122.0630424,,28.6052,0.1,180.65643,1609881801757
Fix,GT,37.361453,-122.0630454,,28.760353,0.1,180.73532,1609881802446
Fix,GT,37.3611372,-122.0630518,,29.007387,0.1,180.94495,1609881803659
Fix,GT,37.3608765,-122.0630577,,29.143412,0.1,180.99196,1609881804654
Fix,GT,37.360616,-122.0630642,,29.233019,0.1,181.15617,1609881805645
Fix,GT,37.3603495,-122.0630719,,29.26553,0.1,181.25252,1609881806656
Fix,GT,37.3600604,-122.063079,,29.339018,0.1,180.8282,1609881807751
Fix,GT,37.3598736,-122.0630817,,29.420416,0.1,180.42538,1609881808457
Fix,GT,37.3595556,-122.0630815,,29.611938,0.1,179.3682,1609881809653
Fix,GT,37.3592841,-122.0630748,,29.833227,0.1,178.36841,1609881810667
Fix,GT,37.3590175,-122.0630627,,30.046566,0.1,177.42065,1609881811656
Fix,GT,37.3587475,-122.0630445,,30.283886,0.1,176.28033,1609881812650
Fix,GT,37.358472,-122.0630189,,30.451054,0.1,175.1565,1609881813660
Fix,GT,37.3582,-122.062987,,30.477018,0.1,174.05756,1609881814655
Fix,GT,37.3579308,-122.0629487,,30.311392,0.1,172.88342,1609881815644
Fix,GT,37.3576598,-122.0629023,,30.083183,0.1,171.50085,1609881816649
Fix,GT,37.3573953,-122.0628494,,29.817965,0.1,170.32849,1609881817642
Fix,GT,37.3571345,-122.0627915,,29.47008,0.1,169.59741,1609881818633
Fix,GT,37.356871,-122.0627295,,29.116432,0.1,169.10327,1609881819649
Fix,GT,37.3566164,-122.0626666,,28.845245,0.1,168.52441,1609881820643
Fix,GT,37.3563608,-122.0625993,,28.637234,0.1,167.54614,1609881821652
Fix,GT,37.3561113,-122.0625267,,28.441792,0.1,166.23804,1609881822648
Fix,GT,37.3558616,-122.0624469,,28.044853,0.1,165.08984,1609881823659
Fix,GT,37.3556231,-122.062365,,27.295574,0.1,164.24359,1609881824652
Fix,GT,37.3553919,-122.0622816,,26.604652,0.1,163.56519,1609881825643
Fix,GT,37.3551643,-122.0621963,,25.70025,0.1,163.21143,1609881826649
Fix,GT,37.3549491,-122.0621143,,24.346386,0.1,162.93396,1609881827645
Fix,GT,37.3547419,-122.0620347,,23.113594,0.1,162.97742,1609881828660
Fix,GT,37.3545484,-122.0619617,,22.109516,0.1,163.29053,1609881829652
Fix,GT,37.354364,-122.0618928,,21.139854,0.1,163.25983,1609881830640
Fix,GT,37.3541828,-122.0618243,,20.151043,0.1,163.01709,1609881831656
Fix,GT,37.3540163,-122.0617606,,18.6438,0.1,162.84436,1609881832650
Fix,GT,37.3538618,-122.061701,,16.866142,0.1,162.75403,1609881833661
Fix,GT,37.3537239,-122.0616476,,15.68634,0.1,162.75323,1609881834650
Fix,GT,37.3535922,-122.0615967,,15.198247,0.1,162.91205,1609881835644
Fix,GT,37.3534606,-122.0615466,,14.975752,0.1,162.94226,1609881836655
Fix,GT,37.3533344,-122.0614985,,14.339325,0.1,163.05579,1609881837649
Fix,GT,37.3532159,-122.0614538,,12.693676,0.1,163.3117,1609881838661
Fix,GT,37.3531145,-122.0614166,,11.107455,0.1,163.77545,1609881839649
Fix,GT,37.3530246,-122.0613853,,9.786732,0.1,164.74158,1609881840643
Fix,GT,37.3529442,-122.0613593,,8.401463,0.1,165.85107,1609881841657
Fix,GT,37.3528763,-122.061339,,7.178395,0.1,166.65796,1609881842650
Fix,GT,37.3528183,-122.0613226,,5.9055634,0.1,167.23145,1609881843664
Fix,GT,37.3527731,-122.0613102,,4.5087967,0.1,167.5946,1609881844655
Fix,GT,37.352739,-122.0613011,,3.4009185,0.1,167.83911,1609881845643
Fix,GT,37.3527117,-122.0612939,,2.7897224,0.1,168.01971,1609881846656
Fix,GT,37.3526896,-122.0612883,,2.1962354,0.1,168.16888,1609881847650
Fix,GT,37.3526741,-122.0612845,,1.2159364,0.1,168.2771,1609881848659
Fix,GT,37.3526678,-122.0612829,,0.31045482,0.1,168.31409,1609881849654
Fix,GT,37.3526668,-122.0612826,,0.012627702,0.1,168.32483,1609881850666
Fix,GT,37.3526668,-122.0612826,,0.0016966471,0.1,168.32666,1609881851656
Fix,GT,37.3526668,-122.0612826,,0.0004961336,0.1,168.32574,1609881852649
Fix,GT,37.3526668,-122.0612826,,0.0,0.1,168.32556,1609881853661
Fix,GT,37.3526668,-122.0612826,,0.0,0.1,168.32556,1609881854646
Fix,GT,37.3526668,-122.0612826,,0.0,0.1,168.32568,1609881855644
Fix,GT,37.3526668,-122.0612826,,0.0,0.1,168.32556,1609881856659
Fix,GT,37.3526668,-122.0612826,,0.00064879225,0.1,168.32556,1609881857648
Fix,GT,37.3526668,-122.0612826,,0.0012724675,0.1,168.32544,1609881858657
Fix,GT,37.3526668,-122.0612826,,0.0004933632,0.1,168.32556,1609881859651
Fix,GT,37.3526668,-122.0612826,,0.00094360445,0.1,168.32574,1609881860667
Fix,GT,37.3526668,-122.0612826,,0.0011427118,0.1,168.32568,1609881861655
Fix,GT,37.3526668,-122.0612826,,0.0003522429,0.1,168.32568,1609881862647
Fix,GT,37.3526668,-122.0612826,,0.0,0.1,168.32562,1609881863659
Fix,GT,37.3526668,-122.0612826,,0.0,0.1,168.32556,1609881864653
Fix,GT,37.3526668,-122.0612826,,0.0006655173,0.1,168.32556,1609881865665
Fix,GT,37.3526668,-122.0612826,,0.0012723543,0.1,168.32568,1609881866657
Fix,GT,37.3526668,-122.0612826,,0.00049612817,0.1,168.32538,1609881867649
Fix,GT,37.3526668,-122.0612826,,0.00065997185,0.1,168.32556,1609881868659
Fix,GT,37.3526668,-122.0612826,,0.001,0.1,168.32568,1609881869643
Fix,GT,37.3526668,-122.0612826,,0.001,0.1,168.32562,1609881870644
Fix,GT,37.3526667,-122.0612825,,0.11681279,0.1,168.33221,1609881871659
Fix,GT,37.3526625,-122.0612815,,0.96455836,0.1,168.36682,1609881872650
Fix,GT,37.352648,-122.0612779,,2.4027176,0.1,168.42834,1609881873659
Fix,GT,37.3526196,-122.0612708,,4.1248035,0.1,168.61151,1609881874644
Fix,GT,37.3525746,-122.0612601,,5.982212,0.1,169.07483,1609881875645
Fix,GT,37.3525135,-122.061246,,7.515707,0.1,169.6347,1609881876658
Fix,GT,37.3524438,-122.0612308,,8.199963,0.1,170.12866,1609881877649
Fix,GT,37.3523697,-122.061215,,8.238924,0.1,170.39099,1609881878659
Fix,GT,37.352299,-122.0611967,,8.041821,0.1,166.96857,1609881879644
Fix,GT,37.3522314,-122.0611657,,8.022118,0.1,156.47974,1609881880644
Fix,GT,37.3521721,-122.0611123,,8.265193,0.1,139.24295,1609881881657
Fix,GT,37.3521295,-122.061036,,8.683337,0.1,119.46097,1609881882648
Fix,GT,37.3521067,-122.0609376,,9.509205,0.1,101.79407,1609881883661
Fix,GT,37.3520995,-122.0608279,,10.383888,0.1,93.11368,1609881884643
Fix,GT,37.3520977,-122.0606969,,10.671719,0.1,90.51672,1609881885740
Fix,GT,37.3520982,-122.0605082,,8.560726,0.1,89.264404,1609881887444
Fix,GT,37.3520995,-122.0604223,,6.634784,0.1,88.642914,1609881888444
Fix,GT,37.3521011,-122.0603581,,4.779422,0.1,87.95212,1609881889444
Fix,GT,37.3521028,-122.0603149,,2.9942412,0.1,86.78583,1609881890444
Fix,GT,37.3521044,-122.0602892,,1.6152589,0.1,85.57919,1609881891444
Fix,GT,37.3521054,-122.0602762,,0.7073779,0.1,85.1207,1609881892444
Fix,GT,37.3521058,-122.0602722,,0.082225576,0.1,85.04465,1609881893444
Fix,GT,37.3521058,-122.0602721,,0.0031131664,0.1,85.03992,1609881894444
Fix,GT,37.3521058,-122.0602721,,0.0017794534,0.1,85.03952,1609881895444
Fix,GT,37.3521058,-122.0602721,,0.002236068,0.1,85.0394,1609881896444
Fix,GT,37.3521058,-122.0602721,,0.002236068,0.1,85.039276,1609881897444
Fix,GT,37.3521059,-122.0602721,,0.002236068,0.1,85.03931,1609881898444
Fix,GT,37.3521059,-122.0602721,,0.002236068,0.1,85.03912,1609881899444
Fix,GT,37.3521059,-122.0602721,,0.0018708281,0.1,85.038666,1609881900444
Fix,GT,37.3521059,-122.0602721,,0.0017794534,0.1,85.038635,1609881901444
Fix,GT,37.3521059,-122.0602721,,0.002236068,0.1,85.0387,1609881902444
Fix,GT,37.3521059,-122.0602721,,0.002236068,0.1,85.038635,1609881903444
Fix,GT,37.3521059,-122.0602721,,0.002236068,0.1,85.0387,1609881904444
Fix,GT,37.3521059,-122.0602721,,0.0016867478,0.1,85.038635,1609881905444
Fix,GT,37.3521059,-122.0602721,,0.001,0.1,85.03854,1609881906444
Fix,GT,37.3521059,-122.0602721,,0.001,0.1,85.038574,1609881907444
Fix,GT,37.3521059,-122.0602721,,0.0011840805,0.1,85.03854,1609881908444
Fix,GT,37.3521059,-122.0602721,,0.0014142136,0.1,85.038574,1609881909444
Fix,GT,37.3521059,-122.0602721,,0.0014142136,0.1,85.038574,1609881910444
Fix,GT,37.3521059,-122.0602721,,0.0017794535,0.1,85.03845,1609881911444
Fix,GT,37.3521059,-122.0602717,,0.1350273,0.1,85.02283,1609881912444
Fix,GT,37.3521066,-122.0602662,,0.9973901,0.1,83.95648,1609881913444
Fix,GT,37.3521121,-122.0602473,,2.5844183,0.1,76.35031,1609881914444
Fix,GT,37.3521298,-122.0602161,,4.1165023,0.1,58.113403,1609881915444
Fix,GT,37.352166,-122.060186,,5.598276,0.1,33.560516,1609881916444
Fix,GT,37.3522217,-122.0601701,,7.2943563,0.1,10.720612,1609881917444
Fix,GT,37.3522943,-122.0601751,,9.005327,0.1,353.947,1609881918444
Fix,GT,37.352379,-122.0602039,,10.539843,0.1,342.0447,1609881919444
Fix,GT,37.3524732,-122.0602521,,12.111866,0.1,336.3862,1609881920444
Fix,GT,37.3525787,-122.0603124,,13.644378,0.1,335.1094,1609881921444
Fix,GT,37.3526958,-122.0603816,,15.0672455,0.1,334.63052,1609881922444
Fix,GT,37.3528241,-122.0604571,,16.337173,0.1,334.86118,1609881923444
Fix,GT,37.3529624,-122.0605375,,17.548561,0.1,335.1422,1609881924444
Fix,GT,37.3531107,-122.0606232,,18.627901,0.1,335.26974,1609881925444
Fix,GT,37.3532669,-122.0607138,,19.552937,0.1,335.08167,1609881926444
Fix,GT,37.3534301,-122.0608103,,20.507347,0.1,334.35956,1609881927444
Fix,GT,37.3535998,-122.0609141,,21.380926,0.1,333.60953,1609881928444
Fix,GT,37.353775,-122.0610244,,22.101257,0.1,333.03265,1609881929444
Fix,GT,37.3539548,-122.0611396,,22.76121,0.1,332.71173,1609881930444
Fix,GT,37.3541402,-122.061259,,23.54615,0.1,332.62332,1609881931444
Fix,GT,37.3543325,-122.0613831,,24.48523,0.1,332.8459,1609881932444
Fix,GT,37.3545335,-122.0615089,,25.3255,0.1,334.1968,1609881933444
Fix,GT,37.3547432,-122.061631,,25.98122,0.1,335.82153,1609881934444
Fix,GT,37.3549595,-122.0617503,,26.477573,0.1,336.4765,1609881935444
Fix,GT,37.355181,-122.0618679,,26.940357,0.1,337.44073,1609881936444
Fix,GT,37.3554082,-122.0619818,,27.386288,0.1,338.75488,1609881937444
Fix,GT,37.3556412,-122.0620908,,27.800343,0.1,340.14172,1609881938444
Fix,GT,37.3559314,-122.0622137,,28.24408,0.1,342.35822,1609881939658
Fix,GT,37.3561747,-122.0623049,,28.746117,0.1,344.19653,1609881940648
Fix,GT,37.356425,-122.0623883,,29.354794,0.1,345.84076,1609881941638
Fix,GT,37.3566885,-122.0624668,,30.04403,0.1,347.20312,1609881942650
Fix,GT,37.3569559,-122.0625389,,30.670467,0.1,348.38614,1609881943649
Fix,GT,37.3572327,-122.0626056,,31.200058,0.1,349.67065,1609881944660
Fix,GT,37.357507,-122.0626645,,31.51492,0.1,350.67017,1609881945644
Fix,GT,37.3577869,-122.062718,,31.687485,0.1,351.88168,1609881946639
Fix,GT,37.3580735,-122.0627646,,31.857948,0.1,353.2011,1609881947649
Fix,GT,37.3583592,-122.062803,,31.982986,0.1,354.44498,1609881948648
Fix,GT,37.3586505,-122.0628338,,32.206257,0.1,355.7422,1609881949659
Fix,GT,37.358939,-122.0628566,,32.524643,0.1,356.98776,1609881950650
Fix,GT,37.3592312,-122.0628714,,32.813477,0.1,358.29803,1609881951644
Fix,GT,37.3595316,-122.0628784,,33.025642,0.1,359.4527,1609881952657
Fix,GT,37.3598276,-122.0628786,,33.17516,0.1,0.24945068,1609881953649
Fix,GT,37.3601291,-122.0628751,,33.393135,0.1,0.6142578,1609881954655
Fix,GT,37.3604279,-122.0628698,,33.637844,0.1,0.87210083,1609881955644
Fix,GT,37.3607298,-122.0628635,,33.81221,0.1,0.9091797,1609881956637
Fix,GT,37.3610394,-122.0628571,,33.9648,0.1,0.8707886,1609881957652
Fix,GT,37.3613461,-122.0628507,,34.11485,0.1,0.97628784,1609881958652
Fix,GT,37.3616566,-122.0628429,,34.064743,0.1,1.1948547,1609881959662
Fix,GT,37.3619595,-122.0628336,,33.796898,0.1,1.4733887,1609881960653
Fix,GT,37.3622599,-122.0628237,,33.46971,0.1,1.2745056,1609881961645
Fix,GT,37.3625632,-122.062816,,33.15245,0.1,0.8732605,1609881962656
Fix,GT,37.3628595,-122.062811,,33.120007,0.1,0.6034241,1609881963649
Fix,GT,37.363163,-122.062807,,33.41838,0.1,0.50320435,1609881964662
Fix,GT,37.3634628,-122.0628043,,33.589546,0.1,0.262146,1609881965654
Fix,GT,37.3637633,-122.0628052,,33.55609,0.1,359.335,1609881966647
Fix,GT,37.3640672,-122.0628152,,33.30252,0.1,357.3861,1609881967656
Fix,GT,37.364363,-122.0628388,,33.133553,0.1,355.14612,1609881968648
Fix,GT,37.3646641,-122.0628783,,33.250267,0.1,352.74667,1609881969662
Fix,GT,37.3649599,-122.0629333,,33.514576,0.1,350.2219,1609881970656
Fix,GT,37.3652605,-122.063007,,33.848373,0.1,347.47678,1609881971666
Fix,GT,37.3655551,-122.0630978,,34.175945,0.1,344.7656,1609881972656
Fix,GT,37.3658494,-122.0632075,,34.407936,0.1,342.0302,1609881973650
Fix,GT,37.3661464,-122.063336,,34.51596,0.1,339.77573,1609881974662
Fix,GT,37.3664335,-122.0634757,,34.589226,0.1,337.64526,1609881975652
Fix,GT,37.3667242,-122.0636329,,34.57198,0.1,335.58926,1609881976667
Fix,GT,37.367003,-122.0637951,,34.430584,0.1,334.49323,1609881977656
Fix,GT,37.3672814,-122.0639629,,34.417088,0.1,334.01663,1609881978653
Fix,GT,37.3675628,-122.0641355,,34.522667,0.1,333.68582,1609881979661
Fix,GT,37.3678399,-122.0643068,,34.69162,0.1,333.6531,1609881980653
Fix,GT,37.3681189,-122.064479,,34.877544,0.1,333.7853,1609881981645
Fix,GT,37.3684052,-122.0646538,,35.014977,0.1,334.07562,1609881982656
Fix,GT,37.3686882,-122.064825,,35.177624,0.1,334.21973,1609881983650
Fix,GT,37.3689756,-122.0649984,,35.259422,0.1,334.22403,1609881984655
Fix,GT,37.3692586,-122.0651688,,35.267925,0.1,334.2528,1609881985643
Fix,GT,37.3695425,-122.0653401,,35.297333,0.1,334.23428,1609881986634
Fix,GT,37.3698349,-122.0655163,,35.331234,0.1,334.25882,1609881987654
Fix,GT,37.3701213,-122.0656892,,35.375736,0.1,334.1813,1609881988652
Fix,GT,37.3704031,-122.0658597,,35.45542,0.1,334.10303,1609881989633
Fix,GT,37.3706949,-122.0660367,,35.551105,0.1,334.08594,1609881990646
Fix,GT,37.3709895,-122.0662156,,35.672398,0.1,334.0596,1609881991667
Fix,GT,37.3712763,-122.0663896,,35.717613,0.1,334.08975,1609881992657
Fix,GT,37.3715625,-122.0665628,,35.500996,0.1,334.21188,1609881993647
Fix,GT,37.371846,-122.0667335,,35.317852,0.1,334.2067,1609881994634
Fix,GT,37.3721355,-122.0669083,,35.216713,0.1,334.17877,1609881995645
Fix,GT,37.3724203,-122.0670788,,35.03695,0.1,334.7091,1609881996642
Fix,GT,37.3727101,-122.0672442,,34.706432,0.1,336.3957,1609881997655
Fix,GT,37.3729964,-122.067391,,34.425064,0.1,339.13904,1609881998649
Fix,GT,37.3732839,-122.067517,,34.39544,0.1,342.3299,1609881999633
Fix,GT,37.3735875,-122.0676257,,34.547882,0.1,345.8299,1609882000650
Fix,GT,37.3738963,-122.0677108,,34.614094,0.1,349.29358,1609882001665
Fix,GT,37.3742008,-122.0677714,,34.422565,0.1,352.62695,1609882002657
Fix,GT,37.374504,-122.0678098,,34.002163,0.1,355.8555,1609882003645
Fix,GT,37.3748044,-122.0678256,,33.6211,0.1,359.41736,1609882004633
Fix,GT,37.3751109,-122.067817,,33.313488,0.1,3.1006775,1609882005650
Fix,GT,37.3754128,-122.0677867,,33.00914,0.1,5.775116,1609882006664
Fix,GT,37.3757045,-122.0677451,,32.698433,0.1,6.9194336,1609882007656
Fix,GT,37.3759937,-122.0676994,,32.401398,0.1,7.2045593,1609882008650
Fix,GT,37.3762847,-122.0676535,,32.024258,0.1,6.90567,1609882009660
Fix,GT,37.3765663,-122.0676125,,31.262674,0.1,6.197571,1609882010652
