MessageType,Provider,LatitudeDegrees,LongitudeDegrees,AltitudeMeters,SpeedMps,AccuracyMeters,BearingDegrees,UnixTimeMillis
Fix,GT,37.4443878,-122.2326723,11.58100021301652,2.45418e-06,0.1,302.57993,1609800006000
Fix,GT,37.4443878,-122.2326723,11.582000105169136,0.0009975458,0.1,302.57974,1609800007000
Fix,GT,37.4443878,-122.2326723,11.58200023191143,0.0014142136,0.1,302.57977,1609800008000
Fix,GT,37.4443878,-122.2326723,11.58200012404565,0.0014162308,0.1,302.5801,1609800009000
Fix,GT,37.4443878,-122.2326723,11.582000018876512,0.0022305793,0.1,302.57977,1609800010000
Fix,GT,37.4443878,-122.2326723,11.581999679099305,5.4889433e-06,0.1,302.57996,1609800011000
Fix,GT,37.4443878,-122.2326723,11.583000032362529,0.0,0.1,302.58026,1609800012000
Fix,GT,37.4443878,-122.2326723,11.584000040456653,0.0058267596,0.1,302.58148,1609800013000
Fix,GT,37.444388,-122.2326727,11.578000048522837,0.2525522,0.1,302.58743,1609800014000
Fix,GT,37.4443919,-122.2326821,11.583999827384948,1.7234051,0.1,300.43842,1609800015000
Fix,GT,37.4443993,-122.2327079,11.587007659840864,2.8528562,0.1,292.39334,1609800016000
Fix,GT,37.4444034,-122.2327436,11.57401001011487,3.4507482,0.1,279.54865,1609800017000
Fix,GT,37.4443989,-122.2327898,11.589946060396732,4.6615367,0.1,262.62585,1609800018000
Fix,GT,37.4443784,-122.2328466,11.388982900957576,6.0614166,0.1,242.91724,1609800019000
Fix,GT,37.4443395,-122.2329037,11.179904211692977,7.073857,0.099,226.09915,1609800020000
Fix,GT,37.4442851,-122.2329547,10.865919274839804,7.8060956,0.1,214.2605,1609800021000
Fix,GT,37.444224,-122.2330022,10.481926320861094,8.103361,0.1,211.67778,1609800022000
Fix,GT,37.4441635,-122.2330548,10.148931238806574,8.2550955,0.1,216.11096,1609800023000
Fix,GT,37.4441097,-122.2331183,9.910968084155584,8.160177,0.1,226.39624,1609800024000
Fix,GT,37.4440698,-122.2331877,9.71693861411419,7.0403633,0.1,237.13612,1609800025000
Fix,GT,37.4440417,-122.2332582,9.513948349984828,7.0552983,0.1,244.77347,1609800026000
Fix,GT,37.4440215,-122.2333335,9.234918693851212,7.0265813,0.099,253.97504,1609800027000
Fix,GT,37.4440147,-122.2334108,8.877955819306896,6.9711366,0.1,266.80066,1609800028000
Fix,GT,37.444025,-122.233488,8.644977759317495,7.232164,0.1,283.31186,1609800029000
Fix,GT,37.4440525,-122.2335711,8.455918973192805,8.912162,0.1,294.9057,1609800030000
Fix,GT,37.4440928,-122.2336628,8.229975399025715,9.436161,0.1,299.68948,1609800031000
Fix,GT,37.4441365,-122.2337542,8.063955669756979,9.405442,0.1,301.43674,1609800032000
Fix,GT,37.4441816,-122.2338439,7.866955908826086,9.394771,0.1,302.43222,1609800033000
Fix,GT,37.4442274,-122.2339324,7.6999532230973715,9.206936,0.1,303.0466,1609800034000
Fix,GT,37.444271,-122.234015,7.527980555996298,8.169185,0.1,303.38596,1609800035000
Fix,GT,37.4443071,-122.2340839,7.393965666241944,6.549508,0.1,302.98117,1609800036000
Fix,GT,37.4443359,-122.2341414,7.261965523276478,5.409958,0.1,301.99814,1609800037000
Fix,GT,37.4443587,-122.2341874,7.1839780295137325,4.300233,0.1,301.81516,1609800038000
Fix,GT,37.4443772,-122.2342249,7.103980418354273,3.355745,0.1,301.72308,1609800039000
Fix,GT,37.4443899,-122.2342505,7.048987796593457,1.9965184,0.1,301.6433,1609800040000
Fix,GT,37.4443964,-122.2342638,7.015997491510353,0.7452922,0.1,301.60983,1609800041000
Fix,GT,37.4443977,-122.2342665,7.006992441796697,0.02739934,0.1,301.59872,1609800042000
Fix,GT,37.4443977,-122.2342665,7.0049976398088045,0.0014107374,0.1,301.60254,1609800043000
Fix,GT,37.4443977,-122.2342665,7.003000174464891,0.0014162338,0.1,301.60028,1609800044000
Fix,GT,37.4443977,-122.2342665,7.001999969024676,0.0,0.1,301.60043,1609800045000
Fix,GT,37.4443978,-122.2342665,7.000999835365219,6.9533207e-06,0.099,301.59995,1609800046000
Fix,GT,37.4443978,-122.2342665,7.001000117363408,0.002236068,0.1,301.60135,1609800047000
Fix,GT,37.4443978,-122.2342665,7.001000123883598,0.001,0.1,301.60077,1609800048000
Fix,GT,37.4443978,-122.2342665,7.001000058681704,0.002,0.1,301.601,1609800049000
Fix,GT,37.4443978,-122.2342665,7.00099753629975,0.002,0.1,301.60086,1609800050000
Fix,GT,37.4443978,-122.2342665,7.000000206986442,0.001002459,0.1,301.60095,1609800051000
Fix,GT,37.4443978,-122.2342665,7.000000073341653,0.001997541,0.1,301.60098,1609800052000
Fix,GT,37.4443978,-122.2342665,7.000002467259066,0.0010024591,0.1,301.60104,1609800053000
Fix,GT,37.4443977,-122.2342665,7.000999874486356,0.0019999999,0.099,301.60095,1609800054000
Fix,GT,37.4443984,-122.2342677,6.994995167718502,0.50642526,0.1,301.59662,1609800055000
Fix,GT,37.4444056,-122.2342848,6.950980277865426,3.1746397,0.1,299.47983,1609800056000
Fix,GT,37.4444217,-122.2343328,6.889026943936013,5.716353,0.099,291.85892,1609800057000
Fix,GT,37.4444328,-122.2344025,6.965017040577717,6.6936502,0.1,277.78357,1609800058000
Fix,GT,37.4444244,-122.2344832,7.095039462895831,7.4834642,0.1,257.29446,1609800059000
Fix,GT,37.4443892,-122.2345654,7.178007565059466,9.068403,0.1,236.19302,1609800060000
Fix,GT,37.4443268,-122.2346472,7.289029641712084,10.834245,0.1,222.10202,1609800061000
Fix,GT,37.4442402,-122.234721,7.509056637555361,12.477756,0.1,210.6756,1609800062000
Fix,GT,37.4441287,-122.2347966,7.868095934199868,15.528031,0.1,207.80226,1609800063000
Fix,GT,37.4439958,-122.2348838,8.356147610217333,17.394825,0.1,207.33145,1609800064000
Fix,GT,37.4438532,-122.2349766,8.954078553513623,18.298199,0.1,207.3335,1609800065000
Fix,GT,37.4437034,-122.2350752,9.291071542700754,19.262825,0.1,207.7297,1609800066000
Fix,GT,37.4435464,-122.2351793,9.456017235209,20.300074,0.1,207.78438,1609800067000
Fix,GT,37.4433799,-122.2352902,9.597051596703473,21.3358,0.1,208.01596,1609800068000
Fix,GT,37.4432092,-122.2354056,9.802026897853471,21.774471,0.099,208.29178,1609800069000
Fix,GT,37.4430348,-122.2355237,10.069081442453433,22.153442,0.1,208.21104,1609800070000
Fix,GT,37.4428589,-122.2356424,10.46112062894553,22.047707,0.1,208.02998,1609800071000
Fix,GT,37.4426848,-122.2357588,11.162194144415436,21.855013,0.099,207.686,1609800072000
Fix,GT,37.4425096,-122.2358732,12.073293185941877,22.016365,0.1,207.14995,1609800073000
Fix,GT,37.4423326,-122.235987,13.380347259373403,22.066011,0.1,207.07051,1609800074000
Fix,GT,37.4421566,-122.2361013,14.685278386600782,21.958523,0.1,207.56499,1609800075000
Fix,GT,37.441983,-122.2362175,15.766241032700986,21.647161,0.1,208.25723,1609800076000
Fix,GT,37.4418139,-122.2363339,16.797221180874388,21.233057,0.099,208.88306,1609800077000
Fix,GT,37.4416482,-122.236452,17.671231911511857,21.021595,0.1,210.09013,1609800078000
Fix,GT,37.4414883,-122.2365757,18.522241807611657,20.688005,0.1,212.64067,1609800079000
Fix,GT,37.4413358,-122.2367071,19.563233311521355,20.50965,0.1,215.72955,1609800080000
Fix,GT,37.44119,-122.2368511,20.646238234379098,20.65772,0.1,220.1544,1609800081000
Fix,GT,37.4410537,-122.2370109,21.70331071091094,20.85915,0.1,225.03993,1609800082000
Fix,GT,37.440925,-122.2371872,22.913266220807564,21.571558,0.1,229.2619,1609800083000
Fix,GT,37.4408008,-122.2373823,24.17534260276938,22.643843,0.1,233.02606,1609800084000
Fix,GT,37.4406809,-122.2375958,25.592379343048663,23.520824,0.1,235.81683,1609800085000
Fix,GT,37.4405637,-122.2378184,26.93732712744223,23.699087,0.1,236.75256,1609800086000
Fix,GT,37.440443,-122.2380401,28.46135887672938,23.739042,0.1,234.201,1609800087000
Fix,GT,37.4403134,-122.2382533,29.800301249675453,23.77321,0.1,231.46297,1609800088000
Fix,GT,37.4401771,-122.2384617,31.02728346058447,23.896933,0.1,229.74747,1609800089000
Fix,GT,37.4400344,-122.2386654,32.205322267379614,24.131538,0.1,227.59245,1609800090000
Fix,GT,37.4398834,-122.2388649,33.46831129701063,24.567997,0.1,225.53125,1609800091000
Fix,GT,37.4397242,-122.2390623,34.5772959007225,25.075197,0.1,223.7074,1609800092000
Fix,GT,37.4395571,-122.2392559,35.86835224948311,25.349518,0.1,221.64464,1609800093000
Fix,GT,37.439382,-122.2394433,37.37337902377941,25.734158,0.1,219.12201,1609800094000
Fix,GT,37.4391986,-122.2396201,38.68834378842637,25.38837,0.1,216.0561,1609800095000
Fix,GT,37.4390137,-122.2397815,39.84931129158544,24.635782,0.1,213.64984,1609800096000
Fix,GT,37.4388276,-122.2399303,40.95926126027713,24.35048,0.1,211.30205,1609800097000
Fix,GT,37.4386401,-122.2400676,41.74311798679015,23.890997,0.1,209.29881,1609800098000
Fix,GT,37.4384506,-122.2401947,42.30712949034572,23.843554,0.1,206.86034,1609800099000
Fix,GT,37.4382567,-122.240312,42.74608439748175,23.91114,0.1,204.71217,1609800100000
Fix,GT,37.4380589,-122.2404217,43.02008154027863,24.061626,0.1,202.95241,1609800101000
Fix,GT,37.4378584,-122.2405242,43.19806187050557,24.021482,0.1,201.44714,1609800102000
Fix,GT,37.4376567,-122.2406227,43.37599739414034,24.00912,0.1,200.86732,1609800103000
Fix,GT,37.4374551,-122.2407201,43.53201916931756,23.85068,0.1,201.1998,1609800104000
Fix,GT,37.437258,-122.2408198,43.864117355322456,23.32401,0.1,202.73927,1609800105000
Fix,GT,37.4370687,-122.2409263,44.367100127507,22.740358,0.1,205.16689,1609800106000
Fix,GT,37.4368892,-122.2410419,44.94224736996926,22.091192,0.1,209.09787,1609800107000
Fix,GT,37.4367231,-122.2411721,45.70721245996188,21.461302,0.1,214.4446,1609800108000
Fix,GT,37.4365731,-122.2413182,46.62419433197519,20.782465,0.1,220.60587,1609800109000
Fix,GT,37.436441,-122.2414787,47.348161845299416,20.138,0.1,226.63786,1609800110000
Fix,GT,37.4363243,-122.241648,48.05020577962743,19.489088,0.1,230.46503,1609800111000
Fix,GT,37.4362178,-122.2418176,48.86316335613839,18.741013,0.1,232.54199,1609800112000
Fix,GT,37.4361223,-122.2419851,49.6221683512982,17.73111,0.1,235.96689,1609800113000
Fix,GT,37.4360447,-122.2421524,50.34512351793703,16.649267,0.1,243.48413,1609800114000
Fix,GT,37.4359963,-122.2423229,50.912145243936216,15.629123,0.099,255.98378,1609800115000
Fix,GT,37.4359815,-122.2424936,51.41309749765787,14.989091,0.1,269.2362,1609800116000
Fix,GT,37.4359984,-122.2426605,52.072170503532746,15.115856,0.1,282.68237,1609800117000
Fix,GT,37.4360409,-122.2428226,52.69019169099629,15.136371,0.1,290.35214,1609800118000
Fix,GT,37.4360946,-122.2429877,53.45021392383729,17.06308,0.1,292.85663,1609800119000
Fix,GT,37.4361628,-122.243178,54.450312625527616,19.873772,0.099,294.95023,1609800120000
Fix,GT,37.4362466,-122.2433938,55.707320624225545,22.366072,0.1,296.45267,1609800121000
Fix,GT,37.4363403,-122.2436208,56.97435218605213,22.73927,0.1,297.914,1609800122000
Fix,GT,37.4364421,-122.243848,58.34033003119706,23.552616,0.1,300.4978,1609800123000
Fix,GT,37.4365578,-122.2440749,59.757339344305215,24.021254,0.1,304.53748,1609800124000
Fix,GT,37.436689,-122.2442926,61.21336401383206,24.496878,0.1,308.82977,1609800125000
Fix,GT,37.4368343,-122.2445063,62.76938568345573,25.257967,0.1,311.77585,1609800126000
Fix,GT,37.4369886,-122.2447167,64.28033826210024,25.506054,0.1,312.98285,1609800127000
Fix,GT,37.437148,-122.2449298,65.57728651814931,26.113586,0.1,312.95,1609800128000
Fix,GT,37.4373092,-122.2451477,66.74628346322989,26.511293,0.1,312.68408,1609800129000
Fix,GT,37.437473,-122.2453687,67.84028351982008,26.887388,0.1,313.0885,1609800130000
Fix,GT,37.4376409,-122.2455897,68.96027056458871,27.010904,0.1,313.98538,1609800131000
Fix,GT,37.4378103,-122.2458066,70.09028078755294,26.712193,0.1,314.58392,1609800132000
Fix,GT,37.4379788,-122.2460202,71.25226360860746,26.503376,0.1,314.63232,1609800133000
Fix,GT,37.4381461,-122.2462327,72.3172785263448,26.404049,0.1,314.41132,1609800134000
Fix,GT,37.4383128,-122.2464464,73.39628035476385,26.517763,0.1,314.0573,1609800135000
Fix,GT,37.4384801,-122.2466618,74.54027477702243,26.737793,0.1,314.18842,1609800136000
Fix,GT,37.4386498,-122.2468791,75.5942676444368,27.103287,0.099,314.38324,1609800137000
Fix,GT,37.4388223,-122.2470994,76.70428308395621,27.574438,0.1,314.28687,1609800138000
Fix,GT,37.4389963,-122.2473226,77.8212817869,27.644638,0.099,314.26544,1609800139000
Fix,GT,37.4391709,-122.2475461,78.94427430092917,27.763424,0.1,314.4707,1609800140000
Fix,GT,37.4393476,-122.2477699,80.05327523775794,27.98327,0.1,314.68713,1609800141000
Fix,GT,37.4395255,-122.2479957,81.17128345743359,28.166304,0.1,314.4307,1609800142000
Fix,GT,37.4397025,-122.2482234,82.2962736749563,28.098015,0.1,314.00092,1609800143000
Fix,GT,37.4398786,-122.2484517,83.40927702653175,28.143135,0.1,313.87378,1609800144000
Fix,GT,37.4400549,-122.248681,84.56428782393037,28.23387,0.1,313.94012,1609800145000
Fix,GT,37.4402317,-122.2489098,85.71530683071516,28.097746,0.1,314.06165,1609800146000
Fix,GT,37.4404073,-122.2491366,86.84926900561108,27.85891,0.1,314.02628,1609800147000
Fix,GT,37.4405813,-122.2493616,87.97027910475246,27.595152,0.1,313.9843,1609800148000
Fix,GT,37.4407529,-122.2495852,89.06225856361351,27.341055,0.1,313.64117,1609800149000
Fix,GT,37.440923,-122.2498083,90.11427078807728,27.36523,0.1,313.59933,1609800150000
Fix,GT,37.4410939,-122.2500322,91.20726902606056,27.495905,0.1,313.66647,1609800151000
Fix,GT,37.4412659,-122.2502572,92.2912752144495,27.678116,0.1,313.82364,1609800152000
Fix,GT,37.44144,-122.2504831,93.44629506527656,27.880089,0.1,314.0557,1609800153000
Fix,GT,37.4416145,-122.2507086,94.68632385134256,27.700006,0.1,314.0294,1609800154000
Fix,GT,37.441787,-122.2509322,95.94731558813946,27.3394,0.1,313.952,1609800155000
Fix,GT,37.4419565,-122.2511538,97.21030877436138,27.056976,0.1,313.62433,1609800156000
Fix,GT,37.442124,-122.2513769,98.40228458394436,27.16896,0.1,312.74936,1609800157000
Fix,GT,37.4422872,-122.2516029,99.54825450589507,26.684496,0.099,311.42383,1609800158000
Fix,GT,37.4424408,-122.2518297,100.58726446879002,25.966578,0.1,309.33853,1609800159000
Fix,GT,37.442584,-122.2520569,101.6052374492772,25.257639,0.1,307.4501,1609800160000
Fix,GT,37.4427178,-122.2522829,102.5892256440036,24.55582,0.1,305.7751,1609800161000
Fix,GT,37.4428431,-122.252507,103.52922756396792,23.877407,0.1,304.45502,1609800162000
Fix,GT,37.4429615,-122.2527276,104.44623777338327,23.178585,0.1,303.48093,1609800163000
Fix,GT,37.4430733,-122.2529442,105.3472244739758,22.488415,0.1,302.1946,1609800164000
Fix,GT,37.4431772,-122.253158,106.22921152354964,21.811316,0.1,300.6484,1609800165000
Fix,GT,37.4432738,-122.2533686,107.06920982187847,21.165236,0.1,299.09573,1609800166000
Fix,GT,37.443363,-122.2535759,107.8792017642085,20.532385,0.1,297.6974,1609800167000
Fix,GT,37.4434457,-122.2537794,108.68518948648872,19.854315,0.1,296.37317,1609800168000
Fix,GT,37.4435219,-122.253978,109.4601849271208,19.176687,0.099,295.08325,1609800169000
Fix,GT,37.4435922,-122.2541729,110.2011830431996,18.76253,0.1,293.76556,1609800170000
Fix,GT,37.4436591,-122.254369,110.93418589333166,19.162445,0.1,292.68402,1609800171000
Fix,GT,37.4437248,-122.2545728,111.70518486483024,19.446196,0.1,291.48828,1609800172000
Fix,GT,37.4437872,-122.2547772,112.45818024987167,19.45504,0.1,290.46753,1609800173000
Fix,GT,37.4438475,-122.2549855,113.22319381411002,19.706839,0.099,289.5123,1609800174000
Fix,GT,37.4439056,-122.2551985,114.01619522273542,20.011225,0.1,288.3069,1609800175000
Fix,GT,37.4439603,-122.2554147,114.83320003592596,20.1008,0.1,287.08835,1609800176000
Fix,GT,37.4440113,-122.2556306,115.601199937243,19.645973,0.1,286.04086,1609800177000
Fix,GT,37.4440578,-122.2558431,116.37418782111118,19.446121,0.1,284.7579,1609800178000
Fix,GT,37.4441003,-122.2560557,117.14418429271925,19.234316,0.1,283.5842,1609800179000
Fix,GT,37.4441388,-122.2562643,117.86517796954512,18.672823,0.1,282.45786,1609800180000
Fix,GT,37.4441726,-122.2564687,118.5641620788176,18.304043,0.1,281.19495,1609800181000
Fix,GT,37.4442024,-122.256671,119.18915484349988,18.175463,0.1,280.0031,1609800182000
Fix,GT,37.4442294,-122.2568749,119.8011413931523,18.403193,0.1,278.90903,1609800183000
Fix,GT,37.4442535,-122.2570834,120.39514026816444,18.902725,0.099,277.73553,1609800184000
Fix,GT,37.444275,-122.2572983,120.98115136735234,19.40582,0.1,276.5852,1609800185000
Fix,GT,37.4442934,-122.2575171,121.57713913359446,19.333378,0.1,275.5554,1609800186000
Fix,GT,37.4443084,-122.2577322,122.12613543543408,18.942263,0.1,274.5485,1609800187000
Fix,GT,37.4443199,-122.2579459,122.62711701011936,18.912739,0.099,273.17084,1609800188000
Fix,GT,37.4443267,-122.2581585,123.08411210098492,18.800262,0.1,271.65094,1609800189000
Fix,GT,37.4443293,-122.2583705,123.5321023092221,18.622347,0.1,270.2623,1609800190000
Fix,GT,37.4443284,-122.2585789,123.93409376148368,18.294153,0.1,269.25845,1609800191000
Fix,GT,37.4443248,-122.2587848,124.30708639531468,18.138578,0.1,268.37552,1609800192000
Fix,GT,37.4443186,-122.25899,124.61507660355,18.317835,0.1,267.34363,1609800193000
Fix,GT,37.4443088,-122.2592006,124.89805934403556,18.899424,0.1,266.1165,1609800194000
Fix,GT,37.4442958,-122.2594141,125.12605323486125,18.96697,0.1,265.1651,1609800195000
Fix,GT,37.4442804,-122.2596264,125.33004960592766,18.782883,0.1,264.46576,1609800196000
Fix,GT,37.4442637,-122.2598384,125.49903610064136,18.934721,0.1,264.2378,1609800197000
Fix,GT,37.4442467,-122.2600525,125.64102994331532,19.133633,0.1,264.21405,1609800198000
Fix,GT,37.4442294,-122.2602685,125.75101395417144,19.190144,0.099,264.16647,1609800199000
Fix,GT,37.4442124,-122.2604831,125.83601654667127,19.029593,0.1,264.2867,1609800200000
Fix,GT,37.4441959,-122.2606966,125.90502156839148,18.962791,0.1,264.3752,1609800201000
Fix,GT,37.4441794,-122.2609104,125.99503033181188,19.056051,0.1,264.3506,1609800202000
Fix,GT,37.4441625,-122.2611255,126.10903161504166,19.191809,0.1,264.18402,1609800203000
Fix,GT,37.444145,-122.2613423,126.25203665407372,19.449377,0.1,264.0989,1609800204000
Fix,GT,37.4441269,-122.261565,126.40203176667542,20.125452,0.1,264.1037,1609800205000
Fix,GT,37.4441084,-122.2617936,126.5390157936886,20.597666,0.1,264.08197,1609800206000
Fix,GT,37.4440891,-122.2620275,126.6500319109764,20.977663,0.099,263.93048,1609800207000
Fix,GT,37.4440692,-122.2622653,126.7840333350608,21.33199,0.1,263.8465,1609800208000
Fix,GT,37.4440488,-122.2625061,126.9170272368146,21.519838,0.1,263.99335,1609800209000
Fix,GT,37.4440301,-122.2627487,127.00001233983272,21.525629,0.099,264.7501,1609800210000
Fix,GT,37.4440133,-122.2629893,127.0570161369378,21.200808,0.1,264.88254,1609800211000
Fix,GT,37.4439966,-122.2632257,127.16203108902208,20.837055,0.1,264.76068,1609800212000
Fix,GT,37.4439791,-122.2634601,127.25100517579726,20.803719,0.099,264.31012,1609800213000
Fix,GT,37.4439607,-122.2636924,127.30405486984482,20.496084,0.1,264.18906,1609800214000
Fix,GT,37.4439429,-122.2639208,127.38499916954432,20.120296,0.1,264.50284,1609800215000
Fix,GT,37.4439283,-122.2641462,127.41600054984772,20.013708,0.1,265.94403,1609800216000
Fix,GT,37.4439189,-122.2643735,127.40498821217568,20.308517,0.1,267.6659,1609800217000
Fix,GT,37.4439142,-122.2646047,127.3629994069198,20.633327,0.1,268.8775,1609800218000
Fix,GT,37.4439125,-122.2648399,127.32297843944258,21.016245,0.1,269.74316,1609800219000
Fix,GT,37.4439137,-122.2650796,127.25998604204366,21.424778,0.1,270.69614,1609800220000
Fix,GT,37.4439192,-122.2653239,127.17297250093218,21.826008,0.1,272.08066,1609800221000
Fix,GT,37.4439291,-122.2655718,127.05096515579709,22.105679,0.1,273.3438,1609800222000
Fix,GT,37.4439447,-122.2658216,126.89295409151678,22.251373,0.1,275.1206,1609800223000
Fix,GT,37.4439651,-122.2660728,126.68694179085782,22.466995,0.1,276.16248,1609800224000
Fix,GT,37.4439902,-122.2663264,126.45693067479272,22.792475,0.1,277.50198,1609800225000
Fix,GT,37.4440201,-122.2665832,126.16593697396011,23.16098,0.1,278.82037,1609800226000
Fix,GT,37.4440547,-122.266843,125.86291596431565,23.386137,0.1,279.75696,1609800227000
Fix,GT,37.444093,-122.2671021,125.53993958593811,23.237633,0.1,280.9403,1609800228000
Fix,GT,37.444135,-122.2673581,125.22191614503878,23.036766,0.1,282.0873,1609800229000
Fix,GT,37.4441815,-122.2676106,124.89292610384338,22.849655,0.1,283.5569,1609800230000
Fix,GT,37.4442322,-122.2678597,124.57992867025686,22.66629,0.1,284.7282,1609800231000
Fix,GT,37.4442874,-122.2681051,124.26992626455028,22.468718,0.099,286.4897,1609800232000
Fix,GT,37.4443477,-122.2683463,123.93392261359004,22.297672,0.1,287.952,1609800233000
Fix,GT,37.4444122,-122.2685838,123.61792640983498,22.12395,0.1,289.27197,1609800234000
Fix,GT,37.4444805,-122.2688175,123.30092405083587,21.945108,0.1,290.70752,1609800235000
Fix,GT,37.444553,-122.2690471,122.97592404921352,21.776762,0.1,292.09335,1609800236000
Fix,GT,37.4446287,-122.2692732,122.598846120758,21.636257,0.1,293.18497,1609800237000
Fix,GT,37.444707,-122.269496,122.2509081895582,21.465576,0.1,294.06104,1609800238000
Fix,GT,37.4447874,-122.2697156,121.9659440952735,21.343504,0.1,294.97162,1609800239000
Fix,GT,37.4448708,-122.2699323,121.67596277941205,21.244383,0.1,296.19165,1609800240000
Fix,GT,37.4449573,-122.2701453,121.4139344045457,21.066244,0.1,297.42865,1609800241000
Fix,GT,37.4450467,-122.270354,121.14393453656324,20.893574,0.1,298.67096,1609800242000
Fix,GT,37.445139,-122.2705584,120.88293839598238,20.692858,0.1,299.9252,1609800243000
Fix,GT,37.4452338,-122.2707591,120.67494821593026,20.738586,0.1,300.93057,1609800244000
Fix,GT,37.4453329,-122.2709613,120.50697069996222,21.328465,0.1,301.83423,1609800245000
Fix,GT,37.445438,-122.271168,120.40197956214983,22.06587,0.1,303.07547,1609800246000
Fix,GT,37.4455511,-122.2713775,120.3079770000279,22.731777,0.1,304.6484,1609800247000
Fix,GT,37.4456719,-122.2715897,120.26201066075778,23.432865,0.099,306.14227,1609800248000
Fix,GT,37.4458007,-122.271804,120.27502196632676,24.017996,0.1,307.5806,1609800249000
Fix,GT,37.4459352,-122.272017,120.3750479244222,24.079025,0.1,308.8607,1609800250000
Fix,GT,37.4460737,-122.2722268,120.5680481053898,24.149433,0.099,310.0906,1609800251000
Fix,GT,37.4462158,-122.2724339,120.79906415942872,24.190218,0.1,311.02182,1609800252000
Fix,GT,37.44636,-122.2726391,121.07607673440152,24.208357,0.1,311.37418,1609800253000
Fix,GT,37.4465041,-122.2728447,121.4060805666626,24.273203,0.1,311.02386,1609800254000
Fix,GT,37.4466482,-122.2730519,121.74108923942596,24.369043,0.1,310.98447,1609800255000
Fix,GT,37.4467926,-122.2732599,122.11611169204558,24.430908,0.1,310.90848,1609800256000
Fix,GT,37.4469364,-122.2734673,122.56011916756374,24.126125,0.1,310.95538,1609800257000
Fix,GT,37.4470785,-122.2736717,123.02612426155666,23.921984,0.1,311.04318,1609800258000
Fix,GT,37.4472202,-122.2738753,123.5401330577268,23.913881,0.099,311.0351,1609800259000
Fix,GT,37.4473619,-122.274078,124.11615044948458,23.770458,0.1,311.282,1609800260000
Fix,GT,37.4475026,-122.2742782,124.73515923574568,23.465946,0.1,311.21982,1609800261000
Fix,GT,37.4476413,-122.2744768,125.38816180162878,23.285078,0.1,311.09055,1609800262000
Fix,GT,37.4477791,-122.2746747,126.04215319332668,23.228254,0.1,310.93246,1609800263000
Fix,GT,37.4479171,-122.2748718,126.6981470551458,23.201578,0.1,311.24997,1609800264000
Fix,GT,37.4480555,-122.2750691,127.3751719890451,23.375492,0.1,311.2367,1609800265000
Fix,GT,37.4481952,-122.2752684,128.04318064849102,23.519062,0.1,311.2675,1609800266000
Fix,GT,37.4483357,-122.2754681,128.753165907965,23.628317,0.1,311.44522,1609800267000
Fix,GT,37.4484764,-122.2756668,129.42516344195514,23.285183,0.099,311.64105,1609800268000
Fix,GT,37.4486147,-122.2758604,130.06815856415733,22.71403,0.1,311.90677,1609800269000
Fix,GT,37.4487502,-122.2760483,130.70215141460253,22.12585,0.1,312.06937,1609800270000
Fix,GT,37.4488823,-122.2762313,131.32414629461803,21.562056,0.099,311.92218,1609800271000
Fix,GT,37.4490101,-122.2764129,131.93614270579442,21.421541,0.1,310.6455,1609800272000
Fix,GT,37.449136,-122.2765988,132.5311414723359,21.791447,0.1,310.06128,1609800273000
Fix,GT,37.4492628,-122.2767876,133.13914056342492,21.87023,0.1,309.96036,1609800274000
Fix,GT,37.4493892,-122.2769762,133.69213551006467,21.69217,0.1,309.99454,1609800275000
Fix,GT,37.4495146,-122.2771624,134.22613215898394,21.46135,0.1,310.0639,1609800276000
Fix,GT,37.4496392,-122.2773469,134.71210701684095,21.359362,0.099,310.12543,1609800277000
Fix,GT,37.4497624,-122.2775326,135.1011075237896,21.44089,0.1,309.10013,1609800278000
Fix,GT,37.4498846,-122.2777218,135.50511372312903,21.654383,0.1,308.95627,1609800279000
Fix,GT,37.4500088,-122.2779138,135.87909624452982,22.114086,0.099,308.95135,1609800280000
Fix,GT,37.4501362,-122.278111,136.2350960967096,22.871338,0.1,308.8629,1609800281000
Fix,GT,37.4502665,-122.2783132,136.56814768044092,23.141535,0.1,308.9868,1609800282000
Fix,GT,37.4503991,-122.2785174,137.05202836294634,23.462893,0.1,309.3349,1609800283000
Fix,GT,37.4505354,-122.2787228,137.3020907661433,23.845463,0.1,309.79395,1609800284000
Fix,GT,37.4506734,-122.2789312,137.55405556895212,24.050257,0.1,309.49466,1609800285000
Fix,GT,37.4508117,-122.2791417,137.71205121663073,24.286488,0.1,309.1963,1609800286000
Fix,GT,37.4509502,-122.279357,137.8390184844739,24.673843,0.1,308.29504,1609800287000
Fix,GT,37.4510882,-122.2795799,137.8980138605095,25.399534,0.1,307.37598,1609800288000
Fix,GT,37.45123,-122.2798138,137.94600984670595,26.693224,0.1,307.08243,1609800289000
Fix,GT,37.4513806,-122.2800602,138.00401650649775,28.140669,0.1,307.73117,1609800290000
Fix,GT,37.4515394,-122.2803104,137.99499510688008,28.415934,0.1,308.9419,1609800291000
Fix,GT,37.4517015,-122.2805585,137.92796313301753,28.346893,0.1,309.43823,1609800292000
Fix,GT,37.4518639,-122.280805,137.77197588848415,28.312534,0.1,309.47437,1609800293000
Fix,GT,37.4520276,-122.2810528,137.6069310019079,28.67538,0.1,309.5834,1609800294000
Fix,GT,37.4521947,-122.2813048,137.3339046475189,29.252539,0.1,309.7986,1609800295000
Fix,GT,37.452365,-122.2815592,137.01190000838412,29.62782,0.1,310.06467,1609800296000
Fix,GT,37.4525402,-122.2818154,136.58787637833785,30.201414,0.1,311.1035,1609800297000
Fix,GT,37.4527228,-122.2820744,136.11687171781713,31.09394,0.1,311.56268,1609800298000
Fix,GT,37.4529109,-122.2823417,135.57287197221072,31.75721,0.1,310.9387,1609800299000
Fix,GT,37.4530976,-122.2826141,134.97283324433772,31.690145,0.1,310.2335,1609800300000
Fix,GT,37.4532813,-122.2828866,134.29383482041584,31.468924,0.1,309.83258,1609800301000
Fix,GT,37.4534619,-122.2831591,133.6028421810982,31.239529,0.1,309.35632,1609800302000
Fix,GT,37.4536399,-122.2834309,132.93282717740536,31.003826,0.1,309.1369,1609800303000
Fix,GT,37.453816,-122.2837012,132.25083210646198,30.773623,0.1,309.20084,1609800304000
Fix,GT,37.4539916,-122.283969,131.5908223628998,30.580357,0.1,309.4887,1609800305000
Fix,GT,37.4541665,-122.2842345,130.9138238710309,30.372362,0.1,309.35278,1609800306000
Fix,GT,37.4543395,-122.2844989,130.2508336654182,30.139528,0.099,309.19058,1609800307000
Fix,GT,37.4545108,-122.2847615,129.59484623669877,29.906996,0.1,309.20258,1609800308000
Fix,GT,37.4546812,-122.2850217,128.93283134224637,29.69188,0.1,309.3629,1609800309000
Fix,GT,37.4548508,-122.2852796,128.29082649105484,29.474062,0.1,309.40952,1609800310000
Fix,GT,37.4550187,-122.2855358,127.62983270867728,29.194033,0.1,309.17212,1609800311000
Fix,GT,37.4551847,-122.2857898,126.98683286297158,28.923563,0.1,309.28986,1609800312000
Fix,GT,37.4553493,-122.2860411,126.32882045033529,28.652163,0.099,309.21317,1609800313000
Fix,GT,37.4555123,-122.2862906,125.67882055050691,28.424818,0.1,309.24664,1609800314000
Fix,GT,37.4556746,-122.2865375,124.9668032174846,28.229652,0.1,309.45068,1609800315000
Fix,GT,37.455837,-122.2867829,124.21582938739216,28.223686,0.1,309.7194,1609800316000
Fix,GT,37.456001,-122.2870273,123.5248405858828,28.382921,0.1,310.29395,1609800317000
Fix,GT,37.456171,-122.2872702,122.98889416461672,28.841772,0.1,312.07812,1609800318000
Fix,GT,37.4563502,-122.2875093,122.57492147562512,29.264795,0.1,314.16486,1609800319000
Fix,GT,37.4565387,-122.287744,122.2759614291673,29.766668,0.1,316.04547,1609800320000
Fix,GT,37.4567384,-122.287975,122.09998515311744,30.528078,0.1,318.29065,1609800321000
Fix,GT,37.4569489,-122.2882014,122.04900876571052,30.959858,0.1,320.26227,1609800322000
Fix,GT,37.4571669,-122.2884204,122.12705739568544,31.0955,0.1,322.1793,1609800323000
Fix,GT,37.4573915,-122.2886327,122.35607866044272,31.329561,0.099,323.71658,1609800324000
Fix,GT,37.4576227,-122.2888381,122.77011717851715,31.577307,0.1,325.51584,1609800325000
Fix,GT,37.4578613,-122.2890344,123.29913214267162,31.777546,0.1,327.62885,1609800326000
Fix,GT,37.4581065,-122.2892189,123.92115715349723,31.747591,0.1,330.41196,1609800327000
Fix,GT,37.4583584,-122.2893896,124.53915469795513,31.834677,0.1,332.58887,1609800328000
Fix,GT,37.4586147,-122.2895497,125.1981448561996,31.752031,0.1,334.3519,1609800329000
Fix,GT,37.4588743,-122.2896995,125.87716606972693,31.70814,0.1,336.06042,1609800330000
Fix,GT,37.4591372,-122.2898392,126.53118605364116,31.665054,0.1,337.96536,1609800331000
Fix,GT,37.4594036,-122.2899666,127.14512524217832,31.64385,0.1,340.14288,1609800332000
Fix,GT,37.4596728,-122.2900809,127.75917249560776,31.452211,0.1,342.11002,1609800333000
Fix,GT,37.4599431,-122.2901837,128.35520871383136,31.25634,0.1,344.1059,1609800334000
Fix,GT,37.4602145,-122.2902747,128.98316020622292,31.160505,0.1,345.91318,1609800335000
Fix,GT,37.4604876,-122.290353,129.765162861275,31.052608,0.1,348.41693,1609800336000
Fix,GT,37.4607626,-122.2904159,130.38216171962256,31.099342,0.1,350.58508,1609800337000
Fix,GT,37.461041,-122.2904646,130.99415910025337,31.380362,0.1,353.53152,1609800338000
Fix,GT,37.4613242,-122.2904951,131.59315180853287,31.716232,0.1,356.32843,1609800339000
Fix,GT,37.4616102,-122.2905129,132.23720792866496,31.851494,0.1,357.69223,1609800340000
Fix,GT,37.461898,-122.2905253,133.07723771623057,32.089718,0.099,358.1991,1609800341000
Fix,GT,37.4621884,-122.2905346,133.88315440231608,32.372444,0.1,358.70584,1609800342000
Fix,GT,37.4624804,-122.2905417,134.56015981682344,32.458496,0.1,358.67963,1609800343000
Fix,GT,37.462773,-122.2905501,135.17815590240363,32.493885,0.1,358.57135,1609800344000
Fix,GT,37.4630661,-122.2905591,135.84219713711414,32.5797,0.1,358.37357,1609800345000
Fix,GT,37.4633595,-122.2905688,136.59521981972316,32.500404,0.1,358.40854,1609800346000
Fix,GT,37.4636508,-122.2905788,137.51623548770138,32.170937,0.099,358.24188,1609800347000
Fix,GT,37.4639387,-122.2905919,138.44920095035295,31.75503,0.1,357.43008,1609800348000
Fix,GT,37.4642227,-122.2906112,139.03210147778296,31.384136,0.1,356.21848,1609800349000
Fix,GT,37.4645032,-122.2906385,139.45110433663334,31.048538,0.1,354.919,1609800350000
Fix,GT,37.46478,-122.2906734,139.85007395713356,30.63855,0.099,353.53235,1609800351000
Fix,GT,37.4650516,-122.2907157,140.19608818308427,30.09944,0.1,352.20578,1609800352000
Fix,GT,37.4653175,-122.2907655,140.5080691336121,29.585848,0.1,350.79733,1609800353000
Fix,GT,37.4655782,-122.2908205,140.7959923693619,29.117945,0.1,350.2711,1609800354000
Fix,GT,37.4658344,-122.2908761,141.05610726348266,28.621483,0.1,350.1288,1609800355000
Fix,GT,37.4660864,-122.2909304,141.37508134124474,28.132448,0.1,350.32916,1609800356000
Fix,GT,37.466334,-122.2909834,141.71309465369163,27.600693,0.1,350.15784,1609800357000
Fix,GT,37.4665744,-122.2910378,142.09009753511475,26.541012,0.1,349.3115,1609800358000
Fix,GT,37.4668042,-122.2910965,142.32901623225214,25.609455,0.1,347.5567,1609800359000
Fix,GT,37.4670249,-122.2911609,142.28493095429613,24.569313,0.1,346.28247,1609800360000
Fix,GT,37.4672341,-122.2912281,141.95892180087603,23.244946,0.1,345.1828,1609800361000
Fix,GT,37.4674292,-122.291295,141.42882121196155,21.822031,0.1,344.30545,1609800362000
Fix,GT,37.4676146,-122.2913629,140.8498862986674,21.026468,0.1,343.14963,1609800363000
Fix,GT,37.4677916,-122.2914348,140.18181995538993,20.279325,0.1,340.99097,1609800364000
Fix,GT,37.4679607,-122.2915113,139.29976192443027,19.59942,0.1,339.68195,1609800365000
Fix,GT,37.4681205,-122.2915851,138.3527788907257,17.950903,0.1,339.94345,1609800366000
Fix,GT,37.4682631,-122.291648,137.43077673284384,15.599496,0.1,341.08755,1609800367000
Fix,GT,37.4683865,-122.2916986,136.62083177965323,13.274132,0.1,342.3465,1609800368000
Fix,GT,37.4684913,-122.2917386,136.09289118078397,10.94405,0.1,343.20157,1609800369000
Fix,GT,37.4685745,-122.2917707,135.7629523381144,8.448303,0.1,342.10135,1609800370000
Fix,GT,37.4686375,-122.2918009,135.62298635709286,6.4748144,0.1,337.9206,1609800371000
Fix,GT,37.4686799,-122.2918266,135.55698467597364,3.789511,0.1,333.77203,1609800372000
Fix,GT,37.4686991,-122.2918401,135.52399738332352,1.315076,0.1,331.34528,1609800373000
Fix,GT,37.4687035,-122.2918434,135.51900151667792,0.0029119374,0.1,330.84708,1609800374000
Fix,GT,37.4687051,-122.2918446,135.50699233699476,0.6219003,0.1,330.65393,1609800375000
Fix,GT,37.4687163,-122.2918531,135.49599760394287,2.367084,0.1,329.4591,1609800376000
Fix,GT,37.468743,-122.2918765,135.5230252884263,5.0773244,0.1,324.7994,1609800377000
Fix,GT,37.4687807,-122.2919253,135.72001112152682,6.500029,0.1,310.7498,1609800378000
Fix,GT,37.4688059,-122.2919997,135.8970313379378,7.551942,0.1,286.06567,1609800379000
Fix,GT,37.4687987,-122.2920883,135.94298563307524,8.25345,0.1,255.78851,1609800380000
Fix,GT,37.4687559,-122.2921781,135.94000160488207,10.148695,0.099,232.93271,1609800381000
Fix,GT,37.4686856,-122.2922688,135.972004390697,12.1592455,0.1,223.82237,1609800382000
Fix,GT,37.4686022,-122.2923683,135.959982963047,13.029554,0.1,223.48509,1609800383000
Fix,GT,37.4685171,-122.2924705,135.83493206939102,13.319555,0.1,223.9105,1609800384000
Fix,GT,37.4684298,-122.2925812,135.5639472717298,14.092362,0.1,226.50243,1609800385000
Fix,GT,37.4683438,-122.2927026,135.18888217997318,14.574242,0.1,228.91971,1609800386000
Fix,GT,37.4682574,-122.2928255,134.70185504869556,14.278177,0.1,227.83589,1609800387000
Fix,GT,37.4681718,-122.2929392,134.1228451117405,13.332665,0.1,225.43582,1609800388000
Fix,GT,37.4680905,-122.2930411,133.45680299206333,12.14857,0.1,224.95229,1609800389000
Fix,GT,37.4680208,-122.2931375,132.78582646088955,10.952544,0.1,230.70308,1609800390000
Fix,GT,37.4679742,-122.2932392,132.0457842859786,10.080923,0.1,246.3083,1609800391000
Fix,GT,37.4679633,-122.2933515,131.00087535267323,10.398086,0.1,272.69922,1609800392000
Fix,GT,37.4679977,-122.2934591,130.61995633079997,10.68497,0.1,301.21313,1609800393000
Fix,GT,37.4680643,-122.2935533,130.61104619636944,11.946799,0.1,314.42126,1609800394000
Fix,GT,37.4681492,-122.2936551,130.7220422709128,14.066823,0.1,316.64038,1609800395000
Fix,GT,37.4682444,-122.2937642,130.8380749548394,14.590786,0.1,317.78876,1609800396000
Fix,GT,37.4683445,-122.293878,131.23812964687124,15.3298235,0.1,317.48325,1609800397000
Fix,GT,37.4684491,-122.2939972,131.8061747114137,15.972249,0.1,317.78482,1609800398000
Fix,GT,37.4685577,-122.2941149,132.5441998352746,15.726223,0.1,320.3952,1609800399000
Fix,GT,37.4686709,-122.2942137,133.30018600941403,15.006489,0.1,329.467,1609800400000
Fix,GT,37.4687919,-122.294274,134.1662159502895,14.183659,0.1,344.82678,1609800401000
Fix,GT,37.4689163,-122.294287,135.13723730707167,13.93175,0.1,2.3340454,1609800402000
Fix,GT,37.4690377,-122.2942511,136.07520883005253,14.013621,0.1,20.373383,1609800403000
Fix,GT,37.4691452,-122.2941692,136.9562062041885,14.159082,0.1,38.558655,1609800404000
Fix,GT,37.4692283,-122.2940474,137.7752012833357,14.686924,0.1,55.94861,1609800405000
Fix,GT,37.4692824,-122.2938943,138.6922176956914,15.010357,0.1,73.37979,1609800406000
Fix,GT,37.4692953,-122.293727,139.60923050813378,14.959039,0.1,92.70453,1609800407000
Fix,GT,37.4692619,-122.2935634,140.4771937184548,15.367256,0.1,112.43268,1609800408000
Fix,GT,37.4691853,-122.2934158,141.2501816089442,16.206602,0.1,129.8067,1609800409000
Fix,GT,37.4690785,-122.2932814,141.882149265253,17.496454,0.1,136.86014,1609800410000
Fix,GT,37.4689572,-122.2931446,142.44014328056645,18.918316,0.1,138.79889,1609800411000
Fix,GT,37.4688192,-122.2930001,142.9291184206307,20.961992,0.1,141.23492,1609800412000
Fix,GT,37.4686626,-122.2928502,143.0669902308411,22.69426,0.1,143.60468,1609800413000
Fix,GT,37.4684895,-122.2926978,142.91895365195816,24.210299,0.099,146.25348,1609800414000
Fix,GT,37.4683009,-122.2925495,142.7279390882042,25.338108,0.1,149.24933,1609800415000
Fix,GT,37.4680967,-122.2924044,142.48895345995388,26.751162,0.1,151.68042,1609800416000
Fix,GT,37.4678785,-122.2922658,142.2299638285525,27.49862,0.1,154.2154,1609800417000
Fix,GT,37.4676516,-122.2921349,141.99496816033334,28.034826,0.1,156.02246,1609800418000
Fix,GT,37.4674167,-122.2920076,141.73691771822354,28.925272,0.1,157.0802,1609800419000
Fix,GT,37.4671697,-122.2918811,141.40193696545063,30.3042,0.1,158.4483,1609800420000
Fix,GT,37.4669108,-122.2917581,141.1949264495375,31.089405,0.1,160.19873,1609800421000
Fix,GT,37.4666427,-122.2916444,140.8499470945932,31.673475,0.1,162.19263,1609800422000
Fix,GT,37.4663688,-122.2915392,140.55490168186373,31.89313,0.099,163.8642,1609800423000
Fix,GT,37.4660912,-122.2914442,140.19189567403288,31.98667,0.099,165.51154,1609800424000
Fix,GT,37.4658112,-122.2913586,139.88193561973472,31.983662,0.1,167.07782,1609800425000
Fix,GT,37.4655296,-122.2912824,139.55492740609336,31.989302,0.1,168.77771,1609800426000
Fix,GT,37.4652473,-122.2912174,139.25792134206208,31.732153,0.1,170.53333,1609800427000
Fix,GT,37.4649649,-122.2911644,138.88890702279426,31.704855,0.1,172.33875,1609800428000
Fix,GT,37.4646808,-122.2911218,138.533892403197,31.827396,0.1,174.05164,1609800429000
Fix,GT,37.4643948,-122.2910902,138.10890018798506,31.95226,0.1,175.78418,1609800430000
Fix,GT,37.4641067,-122.2910689,137.654884812471,32.099464,0.099,177.32343,1609800431000
Fix,GT,37.4638173,-122.2910546,137.2609073367638,32.190773,0.1,177.92163,1609800432000
Fix,GT,37.4635272,-122.2910423,136.81587880460916,32.24644,0.1,178.09186,1609800433000
Fix,GT,37.4632365,-122.291031,136.2418580104895,32.33671,0.1,178.21942,1609800434000
Fix,GT,37.4629456,-122.2910197,135.66284766572505,32.16253,0.1,178.1242,1609800435000
Fix,GT,37.4626575,-122.291008,135.04586655533174,31.836119,0.1,178.15686,1609800436000
Fix,GT,37.4623725,-122.2909968,134.64892016808548,31.451864,0.1,178.22601,1609800437000
Fix,GT,37.4620909,-122.2909863,134.34694170520666,31.079628,0.1,178.4159,1609800438000
Fix,GT,37.4618126,-122.2909751,134.0869331233576,30.73385,0.1,177.67676,1609800439000
Fix,GT,37.4615375,-122.2909558,133.6688782724752,30.446205,0.1,175.81116,1609800440000
Fix,GT,37.4612653,-122.2909239,133.08686331353078,30.21025,0.1,173.85114,1609800441000
Fix,GT,37.460996,-122.2908837,132.4978395713777,30.003052,0.1,172.59424,1609800442000
Fix,GT,37.460729,-122.2908349,131.87486325792503,29.883795,0.1,170.76263,1609800443000
Fix,GT,37.4604644,-122.2907753,131.27486091871933,29.753992,0.1,168.83514,1609800444000
Fix,GT,37.460203,-122.2907039,130.69591188474698,29.627714,0.1,166.7616,1609800445000
Fix,GT,37.4599447,-122.2906214,130.12380973291397,29.517956,0.1,164.75134,1609800446000
Fix,GT,37.4596888,-122.2905294,129.50186726526172,29.623816,0.1,163.08136,1609800447000
Fix,GT,37.4594335,-122.2904266,128.91184473643173,29.888643,0.1,161.40607,1609800448000
Fix,GT,37.4591784,-122.2903139,128.37486356288403,30.135191,0.1,159.78052,1609800449000
Fix,GT,37.4589235,-122.2901905,127.79884983673786,30.533504,0.099,157.93213,1609800450000
Fix,GT,37.4586688,-122.2900534,127.18884119382686,30.997116,0.099,155.72388,1609800451000
Fix,GT,37.4584141,-122.2899025,126.50583250228874,31.532265,0.1,153.66406,1609800452000
Fix,GT,37.4581598,-122.2897372,125.8678300676085,31.985685,0.1,151.47949,1609800453000
Fix,GT,37.4579068,-122.2895583,125.24985009455122,32.40209,0.1,149.72302,1609800454000
Fix,GT,37.4576571,-122.2893704,124.68687386621444,32.17646,0.1,148.281,1609800455000
Fix,GT,37.4574142,-122.2891735,124.18690508955812,32.00156,0.1,145.943,1609800456000
Fix,GT,37.457179,-122.2889664,123.86495142579405,31.753643,0.1,143.93243,1609800457000
Fix,GT,37.4569516,-122.2887507,123.62996896642726,31.555334,0.099,141.95825,1609800458000
Fix,GT,37.4567301,-122.2885261,123.50998271852733,31.664719,0.099,139.9834,1609800459000
Fix,GT,37.4565136,-122.2882913,123.49302270212397,31.865154,0.1,138.28662,1609800460000
Fix,GT,37.456302,-122.2880465,123.68705267541972,31.998116,0.1,136.24805,1609800461000
Fix,GT,37.4560974,-122.2877915,123.98010652170332,31.993446,0.099,134.0989,1609800462000
Fix,GT,37.4559007,-122.2875274,124.39711530823912,31.957792,0.1,131.96216,1609800463000
Fix,GT,37.4557115,-122.287255,124.8551065979514,31.953953,0.1,130.25812,1609800464000
Fix,GT,37.4555272,-122.2869773,125.17008793843536,32.00988,0.1,129.35352,1609800465000
Fix,GT,37.4553444,-122.2866974,125.49009177298656,31.988722,0.099,129.31061,1609800466000
Fix,GT,37.4551611,-122.286419,125.9901267558774,31.898153,0.1,129.62842,1609800467000
Fix,GT,37.4549776,-122.2861418,126.67218551192084,31.86186,0.1,129.48743,1609800468000
Fix,GT,37.4547944,-122.2858639,127.3691968566745,31.964863,0.1,129.56293,1609800469000
Fix,GT,37.4546102,-122.2855858,128.0771632484668,32.02833,0.1,129.6036,1609800470000
Fix,GT,37.4544263,-122.2853062,128.78518331267406,32.112457,0.1,129.31653,1609800471000
Fix,GT,37.4542427,-122.2850249,129.47618573575582,32.21047,0.1,129.20874,1609800472000
Fix,GT,37.4540583,-122.2847429,130.19418459839372,32.323067,0.1,129.41138,1609800473000
Fix,GT,37.4538731,-122.2844623,130.87016848805476,32.130184,0.1,129.74023,1609800474000
Fix,GT,37.4536877,-122.2841831,131.57517213420826,32.232605,0.1,129.62695,1609800475000
Fix,GT,37.453502,-122.2839014,132.3041760082869,32.445713,0.1,129.33224,1609800476000
Fix,GT,37.4533159,-122.2836169,133.05914858723665,32.649586,0.1,129.2157,1609800477000
Fix,GT,37.4531302,-122.2833314,133.7301737783167,32.589233,0.1,129.1565,1609800478000
Fix,GT,37.4529438,-122.2830454,134.35115239274128,32.827133,0.1,129.33249,1609800479000
Fix,GT,37.452755,-122.2827581,134.93913378146942,33.00032,0.1,129.5621,1609800480000
Fix,GT,37.4525648,-122.2824711,135.45712542119205,33.083366,0.1,129.74481,1609800481000
Fix,GT,37.452374,-122.2821833,135.95410262834375,33.004997,0.1,129.56506,1609800482000
Fix,GT,37.452186,-122.2818977,136.32010038955136,32.616123,0.1,129.42465,1609800483000
Fix,GT,37.4519992,-122.281613,136.66807433971087,32.663467,0.1,129.3479,1609800484000
Fix,GT,37.451812,-122.2813275,136.91806575275425,32.75957,0.1,129.2843,1609800485000
Fix,GT,37.4516248,-122.2810402,137.14504153051135,32.89781,0.1,129.17365,1609800486000
Fix,GT,37.4514368,-122.2807523,137.2990384049739,32.90725,0.1,129.43439,1609800487000
Fix,GT,37.4512481,-122.2804668,137.39001188711612,32.7303,0.1,129.7232,1609800488000
Fix,GT,37.4510594,-122.2801833,137.40698971218663,32.63176,0.1,129.83383,1609800489000
Fix,GT,37.4508713,-122.2798995,137.3349647834804,32.751442,0.1,129.33258,1609800490000
Fix,GT,37.4506848,-122.2796135,137.2309673119951,32.534527,0.1,129.16327,1609800491000
Fix,GT,37.4505001,-122.2793305,137.04493125501833,32.187405,0.1,129.2503,1609800492000
Fix,GT,37.4503175,-122.2790504,136.80196951341952,31.834711,0.1,129.1164,1609800493000
Fix,GT,37.4501372,-122.278773,136.51390343395065,31.510475,0.1,129.12555,1609800494000
Fix,GT,37.4499585,-122.2784983,136.07096984807237,31.229675,0.1,129.23447,1609800495000
Fix,GT,37.4497807,-122.2782269,135.7308837861791,30.942102,0.1,129.49878,1609800496000
Fix,GT,37.4496032,-122.2779579,135.24684381690994,30.97897,0.1,129.58807,1609800497000
Fix,GT,37.4494237,-122.2776862,134.74183522077695,31.479355,0.1,129.55298,1609800498000
Fix,GT,37.4492409,-122.2774115,134.13883011002213,31.740288,0.1,130.00827,1609800499000
Fix,GT,37.4490561,-122.2771378,133.43782133289193,31.750067,0.1,130.35632,1609800500000
Fix,GT,37.4488701,-122.2768645,132.67679022631583,31.851183,0.1,130.48407,1609800501000
Fix,GT,37.4486829,-122.2765907,131.83976407027686,32.002663,0.1,130.6755,1609800502000
Fix,GT,37.4484934,-122.2763159,130.90277030478745,32.30281,0.1,130.9212,1609800503000
Fix,GT,37.4483012,-122.2760397,129.99676915818824,32.579403,0.1,131.14783,1609800504000
Fix,GT,37.4481071,-122.2757612,129.06377049197536,32.8764,0.1,131.05945,1609800505000
Fix,GT,37.4479111,-122.2754804,128.11675170166325,33.16442,0.1,131.15326,1609800506000
Fix,GT,37.4477135,-122.2751973,127.16474680406274,33.43152,0.1,131.18036,1609800507000
Fix,GT,37.447514,-122.2749124,126.194763078026,33.643295,0.1,131.24689,1609800508000
Fix,GT,37.4473132,-122.274626,125.23475439470216,33.851414,0.1,131.25922,1609800509000
Fix,GT,37.4471112,-122.2743378,124.25975821417944,34.061756,0.1,131.25854,1609800510000
Fix,GT,37.4469086,-122.2740491,123.36578198910132,33.96468,0.1,131.37897,1609800511000
Fix,GT,37.4467062,-122.2737618,122.57981827948964,33.89118,0.1,131.36981,1609800512000
Fix,GT,37.4465045,-122.2734749,121.93486212026328,33.800495,0.1,131.2731,1609800513000
Fix,GT,37.4463044,-122.2731889,121.50093088341504,33.503994,0.1,131.20618,1609800514000
Fix,GT,37.446107,-122.2729055,121.23293343702984,33.135735,0.1,131.10254,1609800515000
Fix,GT,37.4459114,-122.2726245,120.9789835077338,32.858685,0.1,131.01181,1609800516000
Fix,GT,37.4457201,-122.2723432,120.88300725356116,32.58052,0.1,129.72357,1609800517000
Fix,GT,37.4455364,-122.2720575,120.8269847996328,32.340057,0.1,127.885895,1609800518000
Fix,GT,37.4453617,-122.2717665,120.78298856489153,32.110516,0.1,125.9541,1609800519000
Fix,GT,37.4451961,-122.2714706,120.83001382549666,31.880732,0.099,124.12146,1609800520000
Fix,GT,37.4450395,-122.2711697,120.95204010448418,31.699717,0.1,122.32312,1609800521000
Fix,GT,37.4448894,-122.270866,121.217093903549,31.529552,0.1,121.29791,1609800522000
Fix,GT,37.444745,-122.2705606,121.53009894031682,31.2839,0.1,119.8255,1609800523000
Fix,GT,37.4446095,-122.2702522,121.90307771147928,31.001255,0.1,117.767395,1609800524000
Fix,GT,37.444484,-122.2699408,122.24608294579014,30.78643,0.1,115.90082,1609800525000
Fix,GT,37.4443662,-122.2696258,122.62198786310223,30.884,0.1,114.301636,1609800526000
Fix,GT,37.4442555,-122.2693051,122.8440955336194,30.884935,0.1,112.58423,1609800527000
Fix,GT,37.4441521,-122.2689818,123.23306179699954,30.73443,0.1,110.99689,1609800528000
Fix,GT,37.444057,-122.2686559,123.64507180648783,30.687782,0.1,109.229675,1609800529000
Fix,GT,37.4439691,-122.2683265,123.98209438743,30.76406,0.1,107.762726,1609800530000
Fix,GT,37.4438875,-122.267994,124.32109945635683,30.769625,0.1,106.42517,1609800531000
Fix,GT,37.4438126,-122.2676592,124.6680894850488,30.777317,0.1,104.697296,1609800532000
Fix,GT,37.4437463,-122.2673205,125.03709205308652,30.921865,0.1,102.81116,1609800533000
Fix,GT,37.4436891,-122.2669781,125.37708715716283,30.96321,0.1,100.96802,1609800534000
Fix,GT,37.4436394,-122.2666339,125.71808969867556,30.950447,0.1,99.49283,1609800535000
Fix,GT,37.4435969,-122.2662875,126.039076007165,31.108389,0.1,97.89401,1609800536000
Fix,GT,37.4435623,-122.2659375,126.34407607007304,31.303099,0.1,96.16522,1609800537000
Fix,GT,37.4435354,-122.2655841,126.58104110225383,31.44327,0.1,94.70035,1609800538000
Fix,GT,37.4435158,-122.2652305,126.76504365762672,31.297657,0.1,93.18039,1609800539000
Fix,GT,37.4435037,-122.2648772,126.91301866113442,31.299095,0.099,91.58234,1609800540000
Fix,GT,37.4435001,-122.2645227,126.98300247305446,31.44603,0.1,89.75937,1609800541000
Fix,GT,37.4435054,-122.2641665,126.91300380285644,31.598118,0.1,88.128784,1609800542000
Fix,GT,37.443519,-122.2638095,126.96796877427565,31.600357,0.099,86.27432,1609800543000
Fix,GT,37.443542,-122.2634537,126.88201142119549,31.569092,0.1,84.528625,1609800544000
Fix,GT,37.443573,-122.2630991,126.74991013096646,31.583527,0.1,82.851135,1609800545000
Fix,GT,37.4436117,-122.2627446,126.43391015766144,31.743912,0.1,81.78461,1609800546000
Fix,GT,37.443652,-122.262388,126.07490144249796,31.999514,0.1,82.101105,1609800547000
Fix,GT,37.4436906,-122.262028,125.70790275958947,32.300083,0.1,82.36163,1609800548000
Fix,GT,37.4437287,-122.2616648,125.41193161748863,32.513393,0.1,82.36511,1609800549000
Fix,GT,37.4437676,-122.2612998,125.1999441960554,32.662926,0.1,82.233,1609800550000
Fix,GT,37.4438073,-122.2609331,124.99493925167712,32.840218,0.099,81.96631,1609800551000
Fix,GT,37.4438492,-122.2605647,124.7969380302045,33.007446,0.1,81.62863,1609800552000
Fix,GT,37.4438911,-122.2601963,124.5369193096785,32.80013,0.1,82.07706,1609800553000
Fix,GT,37.443929,-122.2598296,124.15588806427806,32.69488,0.1,83.10968,1609800554000
Fix,GT,37.4439601,-122.2594622,123.67287554142624,32.71784,0.1,84.69266,1609800555000
Fix,GT,37.4439829,-122.2590933,123.14487057461776,32.78394,0.1,86.298096,1609800556000
Fix,GT,37.4439968,-122.2587229,122.57084557607398,32.880417,0.1,88.434875,1609800557000
Fix,GT,37.4439987,-122.2583509,121.89382451394948,32.98731,0.1,90.7482,1609800558000
Fix,GT,37.4439895,-122.257978,121.13479946476409,33.046474,0.1,92.910706,1609800559000
Fix,GT,37.4439677,-122.2576067,120.27978186479211,32.87241,0.1,95.42145,1609800560000
Fix,GT,37.4439345,-122.2572387,119.3477556639416,32.69965,0.1,97.33328,1609800561000
Fix,GT,37.4438929,-122.2568739,118.34174436773662,32.553318,0.1,98.904785,1609800562000
Fix,GT,37.4438423,-122.2565115,117.25972433492636,32.61233,0.1,100.855896,1609800563000
Fix,GT,37.4437809,-122.2561507,116.08170107191708,32.735966,0.1,103.207886,1609800564000
Fix,GT,37.4437067,-122.2557921,114.82765858295907,32.823204,0.1,105.861084,1609800565000
Fix,GT,37.4436197,-122.2554378,113.45265977582196,32.86328,0.1,108.12402,1609800566000
Fix,GT,37.4435228,-122.2550863,112.11066432951576,32.98175,0.1,109.87683,1609800567000
Fix,GT,37.4434172,-122.2547371,110.7626513358825,33.130108,0.1,111.58435,1609800568000
Fix,GT,37.4433026,-122.2543906,109.41665389464052,33.27693,0.1,113.402466,1609800569000
Fix,GT,37.4431783,-122.2540477,108.08265432538464,33.410408,0.1,115.57538,1609800570000
Fix,GT,37.443042,-122.2537104,106.71764904173394,33.55414,0.099,118.09805,1609800571000
Fix,GT,37.4428939,-122.2533788,105.3526551567316,33.750004,0.1,120.369385,1609800572000
Fix,GT,37.4427344,-122.253053,104.00464269453916,33.912926,0.1,122.65817,1609800573000
Fix,GT,37.4425643,-122.2527349,102.64165330892476,33.901436,0.1,125.075134,1609800574000
Fix,GT,37.4423844,-122.2524261,101.26568088176846,33.798016,0.1,127.07147,1609800575000
Fix,GT,37.4421971,-122.2521263,99.9976382941783,33.6656,0.1,129.07736,1609800576000
Fix,GT,37.4420018,-122.251836,98.61760172093938,33.572025,0.1,131.26065,1609800577000
Fix,GT,37.4417982,-122.2515562,97.2337184880462,33.463196,0.1,133.0332,1609800578000
Fix,GT,37.4415913,-122.2512824,96.0736996490704,33.322002,0.1,133.7331,1609800579000
Fix,GT,37.4413832,-122.2510118,94.76966559081268,33.225002,0.1,133.97614,1609800580000
Fix,GT,37.4411754,-122.2507422,93.43367753288732,33.132404,0.1,133.85083,1609800581000
Fix,GT,37.4409684,-122.2504729,92.13369006348124,33.0519,0.1,133.88495,1609800582000
Fix,GT,37.4407629,-122.2502035,90.82766434424418,32.958195,0.1,133.52545,1609800583000
Fix,GT,37.4405584,-122.2499341,89.54367831228859,32.858646,0.099,133.57166,1609800584000
Fix,GT,37.4403545,-122.2496655,88.20667423092713,32.777245,0.1,133.4524,1609800585000
Fix,GT,37.4401511,-122.2493976,86.9186792755127,32.694073,0.1,133.57559,1609800586000
Fix,GT,37.4399476,-122.249131,85.6676926728515,32.615562,0.1,133.86816,1609800587000
Fix,GT,37.4397431,-122.2488669,84.41368852422224,32.57341,0.1,134.29578,1609800588000
Fix,GT,37.4395376,-122.2486041,83.03664263767728,32.607063,0.1,134.4913,1609800589000
Fix,GT,37.4393306,-122.2483424,81.63766773332004,32.62101,0.1,134.86713,1609800590000
Fix,GT,37.4391227,-122.2480819,80.34067440445675,32.592678,0.1,134.99844,1609800591000
Fix,GT,37.4389149,-122.2478225,78.98468867721711,32.438625,0.1,135.04694,1609800592000
Fix,GT,37.438709,-122.2475659,77.7416702018492,31.95207,0.1,135.19864,1609800593000
Fix,GT,37.4385052,-122.2473172,76.47177244513482,31.17347,0.1,136.4555,1609800594000
Fix,GT,37.4383021,-122.2470805,75.2757060641856,30.384369,0.1,137.72491,1609800595000
Fix,GT,37.4380994,-122.246857,74.02366594289614,29.578684,0.1,139.3483,1609800596000
Fix,GT,37.4378977,-122.2466455,72.76468598944462,28.800531,0.1,140.47717,1609800597000
Fix,GT,37.4376993,-122.2464409,71.59867312402139,28.199627,0.1,140.59503,1609800598000
Fix,GT,37.4375054,-122.246242,70.42769891884737,27.367325,0.1,140.61957,1609800599000
Fix,GT,37.4373179,-122.2460489,69.36275478728372,26.485788,0.1,140.59839,1609800600000
Fix,GT,37.4371357,-122.2458607,68.26373862429266,26.017681,0.1,140.51648,1609800601000
Fix,GT,37.4369569,-122.2456747,67.17871087567136,25.495943,0.1,140.13293,1609800602000
Fix,GT,37.4367832,-122.2454911,65.94870906719915,24.98022,0.1,139.69666,1609800603000
Fix,GT,37.4366133,-122.2453085,64.65668028719304,24.595905,0.1,139.07886,1609800604000
Fix,GT,37.436449,-122.2451283,63.31366587519739,23.751726,0.1,138.54913,1609800605000
Fix,GT,37.4362929,-122.2449548,62.09968279026309,22.578672,0.1,138.34302,1609800606000
Fix,GT,37.4361424,-122.2447874,60.93971848322684,22.127813,0.1,138.54407,1609800607000
Fix,GT,37.4359953,-122.2446253,59.801746785712666,21.150343,0.1,138.58276,1609800608000
Fix,GT,37.4358593,-122.2444752,58.85278751152008,18.865303,0.1,138.66403,1609800609000
Fix,GT,37.4357401,-122.2443436,58.10585829865048,16.52172,0.1,138.59344,1609800610000
Fix,GT,37.4356349,-122.2442271,57.64891039130022,14.505368,0.1,138.53687,1609800611000
Fix,GT,37.4355454,-122.2441285,57.36095862841606,11.83642,0.1,138.69958,1609800612000
Fix,GT,37.4354747,-122.2440507,57.20197084549209,9.014348,0.1,138.85492,1609800613000
Fix,GT,37.4354243,-122.2439955,57.12198455528729,5.9717913,0.1,138.91016,1609800614000
Fix,GT,37.4353912,-122.2439592,57.06699267623387,3.890257,0.1,138.9223,1609800615000
Fix,GT,37.4353709,-122.2439369,57.0199832289645,2.2663286,0.1,138.92627,1609800616000
Fix,GT,37.4353559,-122.2439204,56.95198883990757,2.361583,0.1,138.91345,1609800617000
Fix,GT,37.4353377,-122.2439005,56.91799104505685,3.1190505,0.1,138.92828,1609800618000
Fix,GT,37.4353117,-122.2438719,56.85798217937443,4.685128,0.1,138.89508,1609800619000
Fix,GT,37.4352746,-122.2438297,56.77398528216779,6.375811,0.1,137.01898,1609800620000
Fix,GT,37.4352339,-122.2437695,56.62992874097452,7.393448,0.1,127.894196,1609800621000
Fix,GT,37.4351995,-122.2436909,56.43196665748023,8.265706,0.1,114.83618,1609800622000
Fix,GT,37.4351825,-122.2435956,56.23792711584386,8.830816,0.1,97.173035,1609800623000
Fix,GT,37.4351942,-122.2434942,56.08191458586604,9.198146,0.1,73.89276,1609800624000
Fix,GT,37.4352363,-122.2433984,55.72891461059638,10.1618805,0.1,57.83966,1609800625000
Fix,GT,37.4352888,-122.2432962,55.40090460112272,11.265831,0.1,57.599274,1609800626000
Fix,GT,37.4353443,-122.2431831,55.000892069614025,12.227263,0.1,58.48529,1609800627000
Fix,GT,37.4354022,-122.2430626,54.59589961866568,12.556291,0.1,59.034546,1609800628000
Fix,GT,37.43546,-122.2429406,54.1778982171521,12.443224,0.1,59.09555,1609800629000
Fix,GT,37.4355147,-122.2428253,53.789924224019046,10.988426,0.1,59.503876,1609800630000
Fix,GT,37.4355592,-122.2427289,53.42192083656322,8.759505,0.1,60.066925,1609800631000
Fix,GT,37.4355954,-122.24265,53.16294038078561,7.281425,0.1,59.8721,1609800632000
Fix,GT,37.435624,-122.2425896,52.96395849452331,5.081908,0.1,58.95822,1609800633000
Fix,GT,37.4356434,-122.2425506,52.82196855110466,3.2196217,0.1,58.272034,1609800634000
Fix,GT,37.4356543,-122.2425292,52.74099103600299,1.3423069,0.099,57.724823,1609800635000
Fix,GT,37.4356581,-122.2425219,52.71399911631271,0.38208035,0.1,57.35504,1609800636000
Fix,GT,37.4356587,-122.2425208,52.70800165017741,0.017184613,0.1,57.280396,1609800637000
Fix,GT,37.4356587,-122.2425208,52.710999680908856,0.0010010394,0.1,57.280365,1609800638000
Fix,GT,37.4356587,-122.2425208,52.71500128873508,0.001,0.1,57.2789,1609800639000
Fix,GT,37.4356587,-122.2425208,52.71500028229436,0.0019974906,0.1,57.278137,1609800640000
Fix,GT,37.4356587,-122.2425208,52.71500082233572,0.0022354757,0.1,57.27954,1609800641000
Fix,GT,37.4356587,-122.2425208,52.71499876035959,0.0020005924,0.099,57.27957,1609800642000
Fix,GT,37.4356587,-122.2425208,52.71499930040096,0.002,0.1,57.279877,1609800643000
Fix,GT,37.4356587,-122.2425208,52.715000380483694,0.0019949805,0.1,57.27997,1609800644000
Fix,GT,37.4356587,-122.2425208,52.71500093279872,0.00200251,0.1,57.278717,1609800645000
Fix,GT,37.4356587,-122.2425208,52.71500147284009,0.0031568506,0.1,57.279175,1609800646000
Fix,GT,37.4356587,-122.2425208,52.71499888309627,0.0010031025,0.1,57.27765,1609800647000
Fix,GT,37.4356587,-122.2425208,52.7149994354113,0.0022354755,0.1,57.27588,1609800648000
Fix,GT,37.4356587,-122.2425208,52.71500050322037,0.0010025102,0.1,57.27646,1609800649000
Fix,GT,37.4356587,-122.2425208,52.71499844124425,0.002,0.1,57.27719,1609800650000
Fix,GT,37.4356587,-122.2425207,52.71099595562788,0.0022360678,0.1,57.27649,1609800651000
Fix,GT,37.4356588,-122.2425206,52.70699900598382,0.0010025103,0.1,57.27661,1609800652000
Fix,GT,37.4356588,-122.2425206,52.70699955821503,0.0019974897,0.1,57.276703,1609800653000
Fix,GT,37.4356588,-122.2425206,52.70700062586205,0.001,0.1,57.27649,1609800654000
Fix,GT,37.4356588,-122.2425206,52.70700117809325,0.0010000002,0.1,57.27661,1609800655000
Fix,GT,37.4356588,-122.2425206,52.70699858874246,0.001,0.099,57.276733,1609800656000
Fix,GT,37.4356588,-122.2425206,52.707000184077074,0.001,0.1,57.27664,1609800657000
Fix,GT,37.4356588,-122.2425206,52.70700073630829,0.0019974895,0.1,57.277283,1609800658000
Fix,GT,37.4356588,-122.2425206,52.70699919006088,0.0009999999,0.1,57.27664,1609800659000
Fix,GT,37.4356588,-122.2425206,52.706999214604494,0.001,0.1,57.276703,1609800660000
Fix,GT,37.4356588,-122.2425206,52.70700134989852,0.001997489,0.1,57.276886,1609800661000
Fix,GT,37.4356588,-122.2425206,52.70699980365113,0.0010025111,0.1,57.277283,1609800662000
Fix,GT,37.4356588,-122.2425206,52.706998797363134,0.0019974888,0.099,57.276672,1609800663000
Fix,GT,37.4356588,-122.2425206,52.70699933732254,0.001,0.1,57.27655,1609800664000
Fix,GT,37.4356588,-122.2425206,52.70699936186615,0.001,0.1,57.27664,1609800665000
Fix,GT,37.4356588,-122.2425206,52.70700044178497,0.001,0.1,57.27661,1609800666000
Fix,GT,37.4356588,-122.2425206,52.70699889553757,0.0009974885,0.099,57.276886,1609800667000
Fix,GT,37.4356588,-122.2425206,52.70599944777927,0.0019974883,0.1,57.276825,1609800668000
Fix,GT,37.4356588,-122.2425206,52.70599998772843,0.001,0.1,57.276978,1609800669000
Fix,GT,37.4356588,-122.2425206,52.706,0.0014142136,0.1,57.277004,1609800670000
Fix,GT,37.4356588,-122.2425206,52.705998478325085,0.001413173,0.1,57.27719,1609800671000
Fix,GT,37.4356588,-122.2425206,52.70599954595185,0.0019985286,0.1,57.277405,1609800672000
Fix,GT,37.4356588,-122.2425206,52.706000098172574,0.002235475,0.1,57.277313,1609800673000
Fix,GT,37.4356588,-122.2425206,52.70500117804855,0.002235475,0.1,57.27719,1609800674000
Fix,GT,37.4356588,-122.2425206,52.70600066266488,0.0028284271,0.1,57.2771,1609800675000
Fix,GT,37.4356588,-122.2425206,52.70599608885078,0.0042445427,0.1,57.277252,1609800676000
Fix,GT,37.4356594,-122.2425198,52.689999153518585,0.4397169,0.1,57.18878,1609800677000
Fix,GT,37.4356673,-122.242509,52.63498461964424,2.3958602,0.1,51.954407,1609800678000
Fix,GT,37.4356938,-122.2424884,52.52596004619264,4.193018,0.1,32.843903,1609800679000
Fix,GT,37.4357395,-122.2424767,52.41796560651064,5.9059224,0.1,9.44516,1609800680000
Fix,GT,37.4357996,-122.2424872,52.24697368801292,7.3357115,0.1,347.68134,1609800681000
Fix,GT,37.4358643,-122.2425289,52.05692442717031,8.569976,0.1,327.16055,1609800682000
Fix,GT,37.4359214,-122.2426069,52.119076242876005,10.113984,0.1,306.23297,1609800683000
Fix,GT,37.435968,-122.2427164,52.44908425032277,11.635732,0.1,295.92093,1609800684000
Fix,GT,37.4360188,-122.2428476,52.917138084637,14.296523,0.1,295.85522,1609800685000
Fix,GT,37.4360795,-122.2430033,53.61818190614414,16.346212,0.1,295.916,1609800686000
Fix,GT,37.4361479,-122.2431781,54.48629539580829,18.119999,0.1,296.21405,1609800687000
Fix,GT,37.4362243,-122.2433706,55.60829455292411,19.936808,0.1,296.55737,1609800688000
Fix,GT,37.4363102,-122.2435797,56.791287627591984,21.590893,0.1,297.78943,1609800689000
Fix,GT,37.4364072,-122.2437962,58.06033256030874,22.449274,0.1,300.62878,1609800690000
Fix,GT,37.4365188,-122.2440148,59.41433002905874,23.578913,0.1,304.2479,1609800691000
Fix,GT,37.4366485,-122.2442332,60.82237336221711,24.640139,0.1,308.508,1609800692000
Fix,GT,37.436795,-122.2444501,62.3763985057692,25.713997,0.099,311.4649,1609800693000
