MessageType,Provider,LatitudeDegrees,LongitudeDegrees,AltitudeMeters,SpeedMps,AccuracyMeters,BearingDegrees,UnixTimeMillis
Fix,GT,37.4273359,-122.0699127,,0.0011783072,0.1,0.33096313,1595625721430
Fix,GT,37.4273359,-122.0699127,,0.0017679987,0.1,0.33135986,1595625722430
Fix,GT,37.4273359,-122.0699127,,0.001882283,0.1,0.33099365,1595625723430
Fix,GT,37.4273359,-122.0699127,,0.0017679987,0.1,0.33065796,1595625724430
Fix,GT,37.4273359,-122.0699127,,0.002236068,0.1,0.3312683,1595625725430
Fix,GT,37.4273359,-122.0699127,,0.0025649192,0.1,0.3310547,1595625726430
Fix,GT,37.4273359,-122.0699127,,0.0025695283,0.1,0.3314209,1595625727430
Fix,GT,37.4273359,-122.0699127,,0.002,0.1,0.331604,1595625728430
Fix,GT,37.4273359,-122.0699127,,0.0017478357,0.1,0.3320923,1595625729430
Fix,GT,37.4273359,-122.0699127,,0.0008054346,0.1,0.33215332,1595625730430
Fix,GT,37.4273359,-122.0699127,,0.00060877897,0.1,0.33224487,1595625731430
Fix,GT,37.4273359,-122.0699127,,0.0014142136,0.1,0.3328247,1595625732430
Fix,GT,37.4273359,-122.0699127,,0.0012359063,0.1,0.33319092,1595625733430
Fix,GT,37.4273359,-122.0699127,,0.001,0.1,0.33294678,1595625734430
Fix,GT,37.4273359,-122.0699127,,0.0011783072,0.1,0.33255005,1595625735430
Fix,GT,37.4273359,-122.0699127,,0.0008054346,0.1,0.33221436,1595625736430
Fix,GT,37.4273359,-122.0699127,,0.00043047173,0.1,0.33236694,1595625737430
Fix,GT,37.4273359,-122.0699127,,0.0014304718,0.1,0.33242798,1595625738430
Fix,GT,37.4273359,-122.0699127,,0.0021016207,0.1,0.33258057,1595625739430
Fix,GT,37.4273359,-122.0699127,,0.002236068,0.1,0.33261108,1595625740430
Fix,GT,37.4273359,-122.0699127,,0.0028255917,0.1,0.3323059,1595625741430
Fix,GT,37.4273359,-122.0699127,,0.004205822,0.1,0.33224487,1595625742430
Fix,GT,37.4273359,-122.0699127,,0.004673978,0.1,0.33255005,1595625743430
Fix,GT,37.4273359,-122.0699127,,0.0049263635,0.1,0.33285522,1595625744430
Fix,GT,37.4273359,-122.0699127,,0.00487298,0.1,0.3329773,1595625745430
Fix,GT,37.4273359,-122.0699127,,0.0026622424,0.1,0.33312988,1595625746430
Fix,GT,37.4273359,-122.0699127,,0.001666378,0.1,0.33306885,1595625747430
Fix,GT,37.4273359,-122.0699127,,0.0021016207,0.1,0.3330078,1595625748430
Fix,GT,37.4273359,-122.0699127,,0.002634775,0.1,0.33328247,1595625749430
Fix,GT,37.4273359,-122.0699127,,0.00266195,0.1,0.33340454,1595625750430
Fix,GT,37.4273359,-122.0699127,,0.0011390565,0.1,0.3338623,1595625751430
Fix,GT,37.4273359,-122.0699127,,0.00043047176,0.1,0.3345642,1595625752430
Fix,GT,37.4273359,-122.0699127,,0.001,0.1,0.33493042,1595625753430
Fix,GT,37.4273359,-122.0699127,,0.0014304719,0.1,0.3348999,1595625754430
Fix,GT,37.4273359,-122.0699127,,0.0017478355,0.1,0.33502197,1595625755430
Fix,GT,37.4273359,-122.0699127,,0.0014142136,0.1,0.33462524,1595625756430
Fix,GT,37.4273359,-122.0699127,,0.0014142136,0.1,0.33450317,1595625757430
Fix,GT,37.4273359,-122.0699127,,0.0017679988,0.1,0.33468628,1595625758430
Fix,GT,37.4273358,-122.0699127,,0.0042868066,0.1,0.33450317,1595625759430
Fix,GT,37.4273358,-122.0699127,,0.0052781133,0.1,0.33447266,1595625760430
Fix,GT,37.4273358,-122.0699127,,0.0025695283,0.1,0.3350525,1595625761430
Fix,GT,37.4273358,-122.0699127,,0.0021016207,0.1,0.3355713,1595625762430
Fix,GT,37.4273358,-122.0699127,,0.0028255922,0.1,0.33520508,1595625763430
Fix,GT,37.4273358,-122.0699127,,0.003978592,0.1,0.33520508,1595625764430
Fix,GT,37.4273358,-122.0699127,,0.003908279,0.1,0.3356018,1595625765430
Fix,GT,37.4273359,-122.0699127,,0.0033530944,0.1,0.33563232,1595625766430
Fix,GT,37.427336,-122.0699127,,0.0036055516,0.1,0.33615112,1595625767430
Fix,GT,37.427336,-122.0699128,,0.002483935,0.1,0.33642578,1595625768430
Fix,GT,37.4273358,-122.0699127,,0.0015320925,0.1,0.3361206,1595625769430
Fix,GT,37.4273358,-122.0699127,,0.0021344472,0.1,0.3362732,1595625770430
Fix,GT,37.4273358,-122.0699127,,0.002,0.1,0.3364563,1595625771430
Fix,GT,37.4273358,-122.0699127,,0.0017478354,0.1,0.33633423,1595625772430
Fix,GT,37.4273358,-122.0699127,,0.0012359063,0.1,0.33694458,1595625773430
Fix,GT,37.4273358,-122.0699127,,0.0014304719,0.1,0.3374939,1595625774430
Fix,GT,37.4273358,-122.0699127,,0.0021016207,0.1,0.33810425,1595625775430
Fix,GT,37.4273358,-122.0699127,,0.0018822827,0.1,0.3388672,1595625776430
Fix,GT,37.4273358,-122.0699127,,0.0012359063,0.1,0.33883667,1595625777430
Fix,GT,37.4273358,-122.0699127,,0.001,0.1,0.33859253,1595625778430
Fix,GT,37.4273358,-122.0699127,,0.001,0.1,0.3383484,1595625779430
Fix,GT,37.4273358,-122.0699127,,0.0011783072,0.1,0.33816528,1595625780430
Fix,GT,37.4273358,-122.0699127,,0.0012359063,0.1,0.338562,1595625781430
Fix,GT,37.4273358,-122.0699127,,0.0014304719,0.1,0.33840942,1595625782430
Fix,GT,37.4273358,-122.0699127,,0.002,0.1,0.33807373,1595625783430
Fix,GT,37.4273358,-122.0699127,,0.002430472,0.1,0.33843994,1595625784430
Fix,GT,37.4273358,-122.0699127,,0.0034304718,0.1,0.3383789,1595625785430
Fix,GT,37.4273358,-122.0699127,,0.003240677,0.1,0.33822632,1595625786430
Fix,GT,37.4273357,-122.0699127,,0.0018822827,0.1,0.3383484,1595625787430
Fix,GT,37.4273356,-122.0699127,,0.0012359063,0.1,0.33847046,1595625788430
Fix,GT,37.4273356,-122.0699127,,0.0011783073,0.1,0.33862305,1595625789430
Fix,GT,37.4273356,-122.0699127,,0.0017679988,0.1,0.33874512,1595625790430
Fix,GT,37.4273356,-122.0699127,,0.002236068,0.1,0.33901978,1595625791430
Fix,GT,37.4273357,-122.0699127,,0.0017039755,0.1,0.33917236,1595625792430
Fix,GT,37.4273359,-122.0699127,,0.001,0.1,0.33932495,1595625793430
Fix,GT,37.4273361,-122.0699127,,0.00056952814,0.1,0.33972168,1595625794430
Fix,GT,37.4273362,-122.0699128,,0.00060877926,0.1,0.33963013,1595625795430
Fix,GT,37.427336,-122.0699128,,0.0016663782,0.1,0.33969116,1595625796430
Fix,GT,37.4273358,-122.0699127,,0.0010000002,0.1,0.3642273,1595625887430
Fix,GT,37.4273358,-122.0699127,,0.000569528,0.1,0.36413574,1595625888430
Fix,GT,37.4273358,-122.0699127,,0.00043047208,0.1,0.36398315,1595625889430
Fix,GT,37.4273358,-122.0699127,,0.0015320928,0.1,0.36367798,1595625890430
Fix,GT,37.4273358,-122.0699127,,0.002236068,0.1,0.3638916,1595625891430
Fix,GT,37.4273358,-122.0699127,,0.002236068,0.1,0.36419678,1595625892430
Fix,GT,37.4273358,-122.0699127,,0.0017039753,0.1,0.36447144,1595625893430
Fix,GT,37.4273358,-122.0699127,,0.0014304721,0.1,0.36505127,1595625894430
Fix,GT,37.4273357,-122.0699127,,0.0021016207,0.1,0.36538696,1595625895430
Fix,GT,37.4273356,-122.0699127,,0.0026347754,0.1,0.36550903,1595625896430
Fix,GT,37.4273357,-122.0699127,,0.0026619497,0.1,0.3652954,1595625897430
Fix,GT,37.4273358,-122.0699127,,0.0017478354,0.1,0.3652649,1595625898430
Fix,GT,37.4273358,-122.0699127,,0.001767999,0.1,0.36514282,1595625899430
Fix,GT,37.4273358,-122.0699127,,0.003198633,0.1,0.3656311,1595625900430
Fix,GT,37.4273358,-122.0699127,,0.0039082784,0.1,0.3656311,1595625901430
Fix,GT,37.4273358,-122.0699127,,0.0022314775,0.1,0.3651123,1595625902430
Fix,GT,37.4273358,-122.0699127,,0.001,0.1,0.3652954,1595625903430
Fix,GT,37.4273358,-122.0699127,,0.0015320928,0.1,0.36538696,1595625904430
Fix,GT,37.4273358,-122.0699127,,0.0018822826,0.1,0.36593628,1595625905430
Fix,GT,37.4273358,-122.0699127,,0.0021667064,0.1,0.366333,1595625906430
Fix,GT,37.4273358,-122.0699127,,0.0022314775,0.1,0.3668213,1595625907430
Fix,GT,37.4273358,-122.0699127,,0.0005695279,0.1,0.36767578,1595625908430
Fix,GT,37.4273358,-122.0699127,,0.00043047214,0.1,0.36816406,1595625909430
Fix,GT,37.4273358,-122.0699127,,0.0011783075,0.1,0.36813354,1595625910430
Fix,GT,37.4273358,-122.0699127,,0.0014142136,0.1,0.3684082,1595625911430
Fix,GT,37.4273358,-122.0699127,,0.0014142136,0.1,0.36853027,1595625912430
Fix,GT,37.4273358,-122.0699127,,0.0023575232,0.1,0.36828613,1595625913430
Fix,GT,37.4273358,-122.0699127,,0.0024839342,0.1,0.3680725,1595625914430
Fix,GT,37.4273358,-122.0699127,,0.0014304721,0.1,0.36798096,1595625915430
Fix,GT,37.4273358,-122.0699127,,0.0021016207,0.1,0.36795044,1595625916430
Fix,GT,37.4273358,-122.0699127,,0.0018822826,0.1,0.36834717,1595625917430
Fix,GT,37.4273358,-122.0699127,,0.0017679989,0.1,0.36889648,1595625918430
Fix,GT,37.4273358,-122.0699127,,0.0017039753,0.1,0.36901855,1595625919430
Fix,GT,37.4273358,-122.0699127,,0.0011783075,0.1,0.3692627,1595625920430
Fix,GT,37.4273358,-122.0699127,,0.0017679989,0.1,0.36923218,1595625921430
Fix,GT,37.4273358,-122.0699127,,0.0017039753,0.1,0.368927,1595625922430
Fix,GT,37.4273358,-122.0699127,,0.001,0.1,0.36947632,1595625923430
Fix,GT,37.4273358,-122.0699127,,0.001,0.1,0.3699646,1595625924430
Fix,GT,37.4273358,-122.0699127,,0.0011783075,0.1,0.3695984,1595625925430
Fix,GT,37.4273358,-122.0699127,,0.0012359062,0.1,0.36953735,1595625926430
Fix,GT,37.4273358,-122.0699127,,0.0019308003,0.1,0.3695984,1595625927430
Fix,GT,37.4273359,-122.0699127,,0.0033530944,0.1,0.36984253,1595625928430
Fix,GT,37.427336,-122.0699127,,0.003016027,0.1,0.36965942,1595625929430
Fix,GT,37.427336,-122.0699128,,0.002236068,0.1,0.36941528,1595625930430
Fix,GT,37.4273358,-122.0699127,,0.0018822826,0.1,0.36984253,1595625931430
Fix,GT,37.4273358,-122.0699127,,0.001767999,0.1,0.37036133,1595625932430
Fix,GT,37.4273358,-122.0699127,,0.0025649194,0.1,0.37051392,1595625933430
Fix,GT,37.4273358,-122.0699127,,0.0025695278,0.1,0.37051392,1595625934430
Fix,GT,37.4273358,-122.0699127,,0.0034572189,0.1,0.37142944,1595625935430
Fix,GT,37.4273358,-122.0699127,,0.0034974734,0.1,0.37167358,1595625936430
Fix,GT,37.4273358,-122.0699127,,0.001,0.1,0.37039185,1595625937430
Fix,GT,37.4273358,-122.0699127,,0.0014304721,0.1,0.37051392,1595625938430
Fix,GT,37.4273358,-122.0699127,,0.0021016207,0.1,0.37112427,1595625939430
Fix,GT,37.4273359,-122.0699127,,0.002236068,0.1,0.3715515,1595625940430
Fix,GT,37.4273359,-122.0699127,,0.0018822826,0.1,0.3737793,1595625941430
Fix,GT,37.4273359,-122.0699127,,0.002580316,0.1,0.37646484,1595625942430
Fix,GT,37.4273361,-122.0699127,,0.14400561,0.1,0.37747192,1595625943430
Fix,GT,37.4273392,-122.0699127,,0.6751969,0.1,0.37478638,1595625944430
Fix,GT,37.4273486,-122.0699129,,1.3815336,0.1,0.3642273,1595625945430
Fix,GT,37.4273632,-122.0699132,,1.7816799,0.1,0.33486938,1595625946430
Fix,GT,37.4273799,-122.0699137,,1.9077477,0.1,0.22732544,1595625947430
Fix,GT,37.4273974,-122.0699143,,1.9853988,0.1,359.94296,1595625948430
Fix,GT,37.4274172,-122.0699152,,2.5419927,0.1,359.56003,1595625949430
Fix,GT,37.4274454,-122.0699168,,3.8938918,0.1,359.0492,1595625950430
Fix,GT,37.4274878,-122.0699199,,5.448017,0.1,358.15247,1595625951430
Fix,GT,37.427543,-122.0699249,,6.781975,0.1,357.3771,1595625952430
Fix,GT,37.4276086,-122.06993,,7.7791953,0.1,357.95166,1595625953430
Fix,GT,37.4276824,-122.0699337,,8.564878,0.1,359.20877,1595625954430
Fix,GT,37.4277621,-122.0699366,,9.030625,0.1,359.52408,1595625955430
Fix,GT,37.4278439,-122.0699399,,9.086935,0.1,359.51852,1595625956430
Fix,GT,37.4279252,-122.0699428,,8.937658,0.1,359.84515,1595625957430
Fix,GT,37.4280045,-122.0699438,,8.651125,0.1,1.0306091,1595625958430
Fix,GT,37.4280798,-122.0699419,,8.047785,0.1,2.917511,1595625959430
Fix,GT,37.4281491,-122.0699377,,7.348572,0.1,4.2753296,1595625960430
Fix,GT,37.4282124,-122.0699357,,6.7118654,0.1,1.6618042,1595625961430
Fix,GT,37.4282693,-122.0699475,,6.162709,0.1,349.38773,1595625962430
Fix,GT,37.4283133,-122.0699838,,5.723263,0.1,324.89368,1595625963430
Fix,GT,37.4283337,-122.0700401,,5.4819236,0.1,294.89215,1595625964430
Fix,GT,37.4283344,-122.0701044,,5.989343,0.1,273.66708,1595625965430
Fix,GT,37.4283292,-122.0701773,,6.9451866,0.1,267.00946,1595625966430
Fix,GT,37.4283242,-122.0702595,,7.5753446,0.1,267.19928,1595625967430
Fix,GT,37.4283211,-122.0703458,,7.6671143,0.1,269.03992,1595625968430
Fix,GT,37.4283204,-122.0704301,,7.19731,0.1,271.04376,1595625969430
Fix,GT,37.4283209,-122.0705069,,6.3673954,0.1,272.06323,1595625970430
Fix,GT,37.4283222,-122.0705718,,5.0540047,0.1,272.72064,1595625971430
Fix,GT,37.4283233,-122.0706191,,3.3356414,0.1,273.01324,1595625972430
Fix,GT,37.428324,-122.0706502,,2.4064217,0.1,272.83362,1595625973430
Fix,GT,37.4283242,-122.0706771,,2.5343623,0.1,272.33545,1595625974430
Fix,GT,37.4283243,-122.0707095,,3.3408341,0.1,271.9138,1595625975430
Fix,GT,37.4283244,-122.0707553,,4.858664,0.1,271.6086,1595625976430
Fix,GT,37.4283245,-122.0708196,,6.5016136,0.1,271.34845,1595625977430
Fix,GT,37.4283245,-122.070901,,7.8552227,0.1,271.33038,1595625978430
Fix,GT,37.4283249,-122.0709952,,8.668877,0.1,271.82486,1595625979430
Fix,GT,37.4283264,-122.0710942,,8.637685,0.1,272.43954,1595625980430
Fix,GT,37.4283277,-122.0711859,,7.399296,0.1,272.23227,1595625981430
Fix,GT,37.4283279,-122.0712581,,5.3998303,0.1,271.57162,1595625982430
Fix,GT,37.4283279,-122.0713107,,4.0846977,0.1,271.2566,1595625983430
Fix,GT,37.4283279,-122.0713549,,3.8954237,0.1,271.4139,1595625984430
Fix,GT,37.4283281,-122.0714012,,4.46941,0.1,271.81122,1595625985430
Fix,GT,37.4283287,-122.0714586,,5.685729,0.1,271.8504,1595625986430
Fix,GT,37.4283292,-122.0715296,,6.8857894,0.1,271.8913,1595625987430
Fix,GT,37.42833,-122.0716131,,7.8601294,0.1,272.0594,1595625988430
Fix,GT,37.4283304,-122.0717054,,8.354748,0.1,271.55603,1595625989430
Fix,GT,37.4283305,-122.0717994,,8.148569,0.1,271.34665,1595625990430
Fix,GT,37.4283305,-122.0718872,,7.317547,0.1,271.51297,1595625991430
Fix,GT,37.4283305,-122.0719656,,6.5860114,0.1,271.30112,1595625992430
Fix,GT,37.4283303,-122.0720378,,6.2629943,0.1,271.24908,1595625993430
Fix,GT,37.4283302,-122.0721078,,6.2394166,0.1,271.3188,1595625994430
Fix,GT,37.42833,-122.0721799,,6.6084332,0.1,270.98822,1595625995430
Fix,GT,37.4283286,-122.0722576,,7.1195335,0.1,269.73392,1595625996430
Fix,GT,37.4283233,-122.0723392,,7.195547,0.1,265.86438,1595625997430
Fix,GT,37.4283122,-122.0724157,,6.403857,0.1,260.2139,1595625998430
Fix,GT,37.4282992,-122.0724777,,4.8973227,0.1,256.2668,1595625999430
Fix,GT,37.4282885,-122.0725223,,3.4746304,0.1,254.84741,1595626000430
Fix,GT,37.4282815,-122.0725564,,2.96854,0.1,256.67166,1595626001430
Fix,GT,37.4282811,-122.0725915,,3.2855446,0.1,267.02243,1595626002430
Fix,GT,37.4282927,-122.0726302,,4.0724673,0.1,286.08337,1595626003430
Fix,GT,37.4283153,-122.0726755,,5.448547,0.1,299.88663,1595626004430
Fix,GT,37.4283431,-122.0727372,,7.0741634,0.1,299.8115,1595626005430
Fix,GT,37.428369,-122.0728187,,8.451166,0.1,291.78943,1595626006430
Fix,GT,37.4283854,-122.0729178,,9.435589,0.1,280.91632,1595626007430
Fix,GT,37.4283893,-122.0730273,,9.952053,0.1,272.31726,1595626008430
Fix,GT,37.4283865,-122.0731421,,10.42536,0.1,269.74017,1595626009430
Fix,GT,37.4283843,-122.0732647,,11.31506,0.1,270.27988,1595626010430
Fix,GT,37.4283832,-122.0733978,,12.22266,0.1,270.8005,1595626011430
Fix,GT,37.4283819,-122.0735402,,12.931496,0.1,270.6919,1595626012430
Fix,GT,37.4283808,-122.0736877,,13.060896,0.1,271.03745,1595626013430
Fix,GT,37.4283806,-122.0738323,,12.367159,0.1,271.36316,1595626014430
Fix,GT,37.4283806,-122.0739655,,11.106264,0.1,271.36743,1595626015430
Fix,GT,37.4283805,-122.0740826,,9.632423,0.1,271.39673,1595626016430
Fix,GT,37.4283808,-122.0741821,,8.028665,0.1,271.63385,1595626017430
Fix,GT,37.4283811,-122.0742626,,6.1451035,0.1,271.7521,1595626018430
Fix,GT,37.4283814,-122.0743198,,3.9111948,0.1,271.7648,1595626019430
Fix,GT,37.4283815,-122.0743514,,1.7649082,0.1,271.79236,1595626020430
Fix,GT,37.4283816,-122.0743626,,0.43052736,0.1,271.80594,1595626021430
Fix,GT,37.4283816,-122.0743642,,0.010932041,0.1,271.81024,1595626022430
Fix,GT,37.4283816,-122.0743642,,0.001,0.1,271.81003,1595626023430
Fix,GT,37.4283816,-122.0743642,,0.0011783076,0.1,271.8095,1595626024430
Fix,GT,37.4283816,-122.0743642,,0.0014142136,0.1,271.8099,1595626025430
Fix,GT,37.4283816,-122.0743642,,0.001235906,0.1,271.80975,1595626026430
Fix,GT,37.4283816,-122.0743642,,0.0015320934,0.1,271.80957,1595626027430
Fix,GT,37.4283816,-122.0743642,,0.0018822823,0.1,271.8097,1595626028430
Fix,GT,37.4283816,-122.0743642,,0.0020229938,0.1,271.80896,1595626029430
Fix,GT,37.4283816,-122.0743642,,0.0025734329,0.1,271.80826,1595626030430
Fix,GT,37.4283816,-122.0743642,,0.0018822823,0.1,271.80856,1595626031430
Fix,GT,37.4283816,-122.0743642,,0.001235906,0.1,271.80923,1595626032430
Fix,GT,37.4283816,-122.0743642,,0.0010000002,0.1,271.80972,1595626033430
Fix,GT,37.4283816,-122.0743642,,0.0015320934,0.1,271.80975,1595626034430
Fix,GT,37.4283816,-122.0743642,,0.002236068,0.1,271.8101,1595626035430
Fix,GT,37.4283816,-122.0743642,,0.002236068,0.1,271.81088,1595626036430
Fix,GT,37.4283816,-122.0743642,,0.0012735022,0.1,271.81183,1595626037430
Fix,GT,37.4283816,-122.0743642,,0.0006087801,0.1,271.81226,1595626038430
Fix,GT,37.4283816,-122.0743642,,0.001235906,0.1,271.8127,1595626039430
Fix,GT,37.4283816,-122.0743643,,0.0019308012,0.1,271.81314,1595626040430
Fix,GT,37.4283816,-122.0743655,,0.30141485,0.1,271.80634,1595626041430
Fix,GT,37.4283816,-122.074373,,1.1066821,0.1,271.67715,1595626042430
Fix,GT,37.4283816,-122.0743915,,2.2053185,0.1,271.51184,1595626043430
Fix,GT,37.4283818,-122.074424,,3.5908875,0.1,271.62256,1595626044430
Fix,GT,37.4283821,-122.0744737,,5.2102747,0.1,271.8598,1595626045430
Fix,GT,37.4283829,-122.0745424,,6.9622145,0.1,272.1835,1595626046430
Fix,GT,37.428384,-122.0746299,,8.488989,0.1,272.1618,1595626047430
Fix,GT,37.4283843,-122.0747328,,9.689827,0.1,271.47528,1595626048430
Fix,GT,37.428384,-122.0748485,,10.774393,0.1,271.20486,1595626049430
Fix,GT,37.4283841,-122.0749755,,11.664665,0.1,271.56595,1595626050430
Fix,GT,37.4283849,-122.0751112,,12.321678,0.1,271.86523,1595626051430
Fix,GT,37.4283857,-122.075253,,12.749289,0.1,271.7089,1595626052430
Fix,GT,37.428386,-122.0753983,,12.947689,0.1,271.5252,1595626053430
Fix,GT,37.4283864,-122.0755451,,13.0362,0.1,271.76526,1595626054430
Fix,GT,37.4283876,-122.0756927,,13.095841,0.1,271.9962,1595626055430
Fix,GT,37.4283886,-122.0758411,,13.168652,0.1,271.80402,1595626056430
Fix,GT,37.4283892,-122.0759903,,13.24503,0.1,271.6397,1595626057430
Fix,GT,37.4283885,-122.0761403,,13.291462,0.1,270.46057,1595626058430
Fix,GT,37.4283827,-122.0762901,,13.24951,0.1,267.4288,1595626059430
Fix,GT,37.42837,-122.0764386,,13.183499,0.1,264.1291,1595626060430
Fix,GT,37.4283506,-122.0765853,,13.1596775,0.1,260.98843,1595626061430
Fix,GT,37.4283245,-122.0767298,,13.066132,0.1,257.49585,1595626062430
Fix,GT,37.4282924,-122.0768704,,12.765095,0.1,254.5752,1595626063430
Fix,GT,37.4282574,-122.0770048,,12.2555485,0.1,252.93488,1595626064430
Fix,GT,37.4282227,-122.0771327,,11.67301,0.1,252.65005,1595626065430
Fix,GT,37.4281912,-122.0772556,,11.219448,0.1,254.45544,1595626066430
Fix,GT,37.4281665,-122.0773763,,10.867571,0.1,258.15857,1595626067430
Fix,GT,37.4281488,-122.0774943,,10.360555,0.1,261.7287,1595626068430
Fix,GT,37.4281367,-122.0776054,,9.400891,0.1,264.15033,1595626069430
Fix,GT,37.4281292,-122.0777041,,8.15994,0.1,266.66937,1595626070430
Fix,GT,37.4281261,-122.0777889,,6.891238,0.1,269.1803,1595626071430
Fix,GT,37.428125,-122.0778583,,5.344932,0.1,270.2608,1595626072430
Fix,GT,37.4281242,-122.0779096,,3.8525305,0.1,270.4355,1595626073430
Fix,GT,37.4281235,-122.077949,,3.3915632,0.1,270.34042,1595626074430
Fix,GT,37.42812,-122.0779908,,4.1315346,0.1,266.0158,1595626075430
Fix,GT,37.4281059,-122.0780412,,5.277114,0.1,253.34769,1595626076430
Fix,GT,37.4280777,-122.078095,,6.0350847,0.1,238.10034,1595626077430
Fix,GT,37.4280361,-122.0781434,,6.547118,0.1,222.94046,1595626078430
Fix,GT,37.4279808,-122.0781754,,7.088228,0.1,204.33997,1595626079430
Fix,GT,37.4279141,-122.0781874,,8.030072,0.1,188.17635,1595626080430
Fix,GT,37.4278356,-122.0781869,,9.465366,0.1,180.71649,1595626081430
Fix,GT,37.4277435,-122.0781823,,10.937079,0.1,178.9682,1595626082430
Fix,GT,37.4276399,-122.0781743,,12.042917,0.1,177.51514,1595626083430
Fix,GT,37.4275277,-122.0781622,,12.929981,0.1,176.16516,1595626084430
Fix,GT,37.4274082,-122.0781468,,13.761279,0.1,175.2088,1595626085430
Fix,GT,37.427282,-122.078128,,14.440436,0.1,174.30603,1595626086430
Fix,GT,37.4271506,-122.0781077,,14.90364,0.1,174.57666,1595626087430
Fix,GT,37.4270154,-122.0780906,,15.253587,0.1,176.06519,1595626088430
Fix,GT,37.426877,-122.0780767,,15.573875,0.1,177.1062,1595626089430
Fix,GT,37.4267358,-122.0780652,,15.834093,0.1,177.97638,1595626090430
Fix,GT,37.4265925,-122.0780569,,15.992132,0.1,179.21753,1595626091430
Fix,GT,37.4264481,-122.0780527,,16.086468,0.1,180.43176,1595626092430
Fix,GT,37.4263031,-122.0780524,,16.102295,0.1,181.83272,1595626093430
Fix,GT,37.4261585,-122.0780568,,15.991459,0.1,183.30067,1595626094430
Fix,GT,37.4260151,-122.078065,,15.904652,0.1,184.38239,1595626095430
Fix,GT,37.4258723,-122.0780756,,15.838358,0.1,185.11285,1595626096430
Fix,GT,37.4257303,-122.0780882,,15.766693,0.1,185.63446,1595626097430
Fix,GT,37.4255889,-122.0781017,,15.716093,0.1,185.86751,1595626098430
Fix,GT,37.425448,-122.0781159,,15.642962,0.1,186.05844,1595626099430
Fix,GT,37.425308,-122.07813,,15.5546,0.1,185.81374,1595626100430
Fix,GT,37.4251685,-122.0781412,,15.441845,0.1,184.4503,1595626101430
Fix,GT,37.4250297,-122.0781474,,15.384112,0.1,182.85162,1595626102430
Fix,GT,37.4248909,-122.0781503,,15.423858,0.1,182.09682,1595626103430
Fix,GT,37.424752,-122.0781512,,15.419234,0.1,181.33153,1595626104430
Fix,GT,37.4246136,-122.0781487,,15.353771,0.1,180.01256,1595626105430
Fix,GT,37.4244761,-122.0781423,,15.195849,0.1,178.69647,1595626106430
Fix,GT,37.4243412,-122.078133,,14.794056,0.1,177.96442,1595626107430
Fix,GT,37.4242107,-122.078122,,14.257944,0.1,177.27264,1595626108430
Fix,GT,37.4240851,-122.0781098,,13.650942,0.1,176.73322,1595626109430
Fix,GT,37.4239667,-122.0780976,,12.6651,0.1,176.63806,1595626110430
Fix,GT,37.4238581,-122.0780867,,11.479216,0.1,176.94849,1595626111430
Fix,GT,37.4237607,-122.0780781,,10.206421,0.1,177.57507,1595626112430
Fix,GT,37.4236758,-122.0780721,,8.749135,0.1,178.30261,1595626113430
Fix,GT,37.4236039,-122.0780689,,7.2140093,0.1,179.90906,1595626114430
Fix,GT,37.4235447,-122.0780734,,6.0123816,0.1,186.56116,1595626115430
Fix,GT,37.4234962,-122.0780932,,5.559394,0.1,200.72757,1595626116430
Fix,GT,37.423457,-122.0781329,,5.8365912,0.1,220.85075,1595626117430
Fix,GT,37.4234313,-122.0781949,,6.7579203,0.1,244.6589,1595626118430
Fix,GT,37.4234215,-122.0782759,,7.9426346,0.1,263.34482,1595626119430
Fix,GT,37.423419,-122.0783734,,9.277182,0.1,269.38968,1595626120430
Fix,GT,37.4234153,-122.0784852,,10.485264,0.1,268.86853,1595626121430
Fix,GT,37.4234098,-122.07861,,11.71915,0.1,268.05228,1595626122430
Fix,GT,37.423403,-122.0787496,,12.999727,0.1,267.92697,1595626123430
Fix,GT,37.4233963,-122.0789027,,14.106882,0.1,268.37042,1595626124430
Fix,GT,37.4233901,-122.0790671,,15.003387,0.1,268.7096,1595626125430
Fix,GT,37.4233831,-122.0792404,,15.685616,0.1,268.25726,1595626126430
Fix,GT,37.423374,-122.0794194,,16.026058,0.1,267.47382,1595626127430
Fix,GT,37.4233634,-122.0796003,,16.079304,0.1,267.0452,1595626128430
Fix,GT,37.4233516,-122.0797814,,16.135447,0.1,266.45575,1595626129430
Fix,GT,37.4233377,-122.0799643,,16.4259,0.1,265.65292,1595626130430
Fix,GT,37.4233218,-122.0801509,,16.790924,0.1,265.07642,1595626131430
Fix,GT,37.4233043,-122.0803411,,17.090267,0.1,264.66272,1595626132430
Fix,GT,37.4232857,-122.0805344,,17.38362,0.1,264.4817,1595626133430
Fix,GT,37.4232668,-122.0807314,,17.726126,0.1,264.5141,1595626134430
Fix,GT,37.423248,-122.0809318,,18.000198,0.1,264.7697,1595626135430
Fix,GT,37.4232299,-122.0811347,,18.109417,0.1,265.19827,1595626136430
Fix,GT,37.423213,-122.0813382,,18.058655,0.1,265.5318,1595626137430
Fix,GT,37.4231966,-122.0815405,,17.923847,0.1,265.5577,1595626138430
Fix,GT,37.4231798,-122.0817411,,17.817804,0.1,265.4019,1595626139430
Fix,GT,37.4231634,-122.0819411,,17.82791,0.1,265.5052,1595626140430
Fix,GT,37.4231471,-122.0821424,,18.021748,0.1,265.56586,1595626141430
Fix,GT,37.4231305,-122.0823464,,18.248323,0.1,265.73148,1595626142430
Fix,GT,37.4231159,-122.0825525,,18.392277,0.1,266.74152,1595626143430
Fix,GT,37.4231047,-122.0827603,,18.487803,0.1,268.12762,1595626144430
Fix,GT,37.4230973,-122.0829694,,18.537834,0.1,269.21503,1595626145430
Fix,GT,37.4230925,-122.0831788,,18.526978,0.1,270.1727,1595626146430
Fix,GT,37.423091,-122.0833879,,18.51278,0.1,271.40555,1595626147430
Fix,GT,37.4230932,-122.0835974,,18.593233,0.1,272.60248,1595626148430
Fix,GT,37.4230986,-122.0838078,,18.661049,0.1,273.7583,1595626149430
Fix,GT,37.4231081,-122.0840183,,18.660418,0.1,275.2512,1595626150430
Fix,GT,37.4231218,-122.0842281,,18.6095,0.1,276.69226,1595626151430
Fix,GT,37.4231395,-122.0844368,,18.531292,0.1,277.9638,1595626152430
Fix,GT,37.4231607,-122.084644,,18.449661,0.1,279.3012,1595626153430
Fix,GT,37.4231855,-122.0848497,,18.397877,0.1,280.4962,1595626154430
Fix,GT,37.4232131,-122.0850548,,18.437416,0.1,281.38138,1595626155430
Fix,GT,37.4232434,-122.0852604,,18.5722,0.1,282.20676,1595626156430
Fix,GT,37.4232761,-122.0854668,,18.692268,0.1,283.03662,1595626157430
Fix,GT,37.4233116,-122.0856739,,18.819782,0.1,283.895,1595626158430
Fix,GT,37.4233497,-122.0858818,,18.934326,0.1,284.66547,1595626159430
Fix,GT,37.4233898,-122.0860903,,19.043169,0.1,285.1552,1595626160430
Fix,GT,37.4234311,-122.0863001,,19.20062,0.1,285.3428,1595626161430
Fix,GT,37.4234726,-122.086511,,19.264755,0.1,285.21777,1595626162430
Fix,GT,37.4235139,-122.086722,,19.21696,0.1,285.37323,1595626163430
Fix,GT,37.4235569,-122.0869326,,19.271372,0.1,285.90723,1595626164430
Fix,GT,37.4236005,-122.0871439,,19.360277,0.1,285.84714,1595626165430
Fix,GT,37.4236434,-122.0873564,,19.446827,0.1,285.38208,1595626166430
Fix,GT,37.4236849,-122.0875704,,19.544107,0.1,284.87152,1595626167430
Fix,GT,37.4237254,-122.0877857,,19.619408,0.1,284.4336,1595626168430
Fix,GT,37.4237647,-122.0880019,,19.617962,0.1,284.14316,1595626169430
Fix,GT,37.4238035,-122.0882173,,19.459797,0.1,284.1576,1595626170430
Fix,GT,37.4238422,-122.0884302,,19.192991,0.1,284.36868,1595626171430
Fix,GT,37.4238808,-122.0886397,,18.859512,0.1,284.2139,1595626172430
Fix,GT,37.423916,-122.0888459,,18.453033,0.1,282.76944,1595626173430
Fix,GT,37.4239432,-122.0890491,,18.026602,0.1,279.30536,1595626174430
Fix,GT,37.4239572,-122.0892495,,17.652086,0.1,274.015,1595626175430
Fix,GT,37.4239547,-122.0894465,,17.287231,0.1,268.11407,1595626176430
Fix,GT,37.4239361,-122.0896385,,16.989859,0.1,262.23126,1595626177430
Fix,GT,37.4239032,-122.0898245,,16.782911,0.1,256.87408,1595626178430
Fix,GT,37.4238593,-122.0900041,,16.49266,0.1,253.18222,1595626179430
Fix,GT,37.4238094,-122.0901779,,16.256096,0.1,251.00284,1595626180430
Fix,GT,37.4237565,-122.0903487,,16.192017,0.1,249.84103,1595626181430
Fix,GT,37.4237012,-122.0905173,,16.04668,0.1,248.52357,1595626182430
Fix,GT,37.4236417,-122.0906809,,15.784546,0.1,245.58755,1595626183430
Fix,GT,37.4235743,-122.0908356,,15.433472,0.1,240.8031,1595626184430
Fix,GT,37.4234977,-122.0909782,,15.074672,0.1,235.46057,1595626185430
Fix,GT,37.4234137,-122.0911103,,14.8399315,0.1,231.46797,1595626186430
Fix,GT,37.4233242,-122.0912335,,14.682308,0.1,227.56895,1595626187430
Fix,GT,37.4232286,-122.0913466,,14.510603,0.1,223.1663,1595626188430
Fix,GT,37.4231281,-122.0914489,,14.237125,0.1,219.25334,1595626189430
Fix,GT,37.4230262,-122.0915433,,13.876079,0.1,217.91188,1595626190430
Fix,GT,37.4229301,-122.0916397,,13.486717,0.1,221.93954,1595626191430
Fix,GT,37.4228475,-122.0917477,,13.146274,0.1,231.17204,1595626192430
Fix,GT,37.4227824,-122.0918694,,13.004192,0.1,240.58376,1595626193430
Fix,GT,37.422729,-122.0920016,,13.339087,0.1,245.60101,1595626194430
Fix,GT,37.4226777,-122.0921415,,13.941338,0.1,247.0314,1595626195430
Fix,GT,37.4226258,-122.0922875,,14.294075,0.1,247.47342,1595626196430
Fix,GT,37.4225738,-122.0924344,,14.016455,0.1,247.57997,1595626197430
Fix,GT,37.4225248,-122.0925742,,12.858568,0.1,247.72311,1595626198430
Fix,GT,37.4224818,-122.0926983,,10.920533,0.1,248.21089,1595626199430
Fix,GT,37.4224481,-122.0927995,,8.606252,0.1,249.07858,1595626200430
Fix,GT,37.422422,-122.0928814,,7.210452,0.1,249.77075,1595626201430
Fix,GT,37.4223994,-122.0929559,,6.964679,0.1,250.89372,1595626202430
Fix,GT,37.4223776,-122.0930323,,7.594689,0.1,251.94861,1595626203430
Fix,GT,37.4223538,-122.093122,,9.245188,0.1,253.38388,1595626204430
Fix,GT,37.4223289,-122.093232,,10.844154,0.1,256.38718,1595626205430
Fix,GT,37.422309,-122.0933583,,11.896709,0.1,262.0308,1595626206430
Fix,GT,37.4223029,-122.0934969,,12.824753,0.1,271.0263,1595626207430
Fix,GT,37.4223179,-122.0936453,,13.8367195,0.1,282.01532,1595626208430
Fix,GT,37.4223579,-122.0937989,,14.9509115,0.1,292.90073,1595626209430
Fix,GT,37.4224212,-122.0939558,,16.306774,0.1,300.76306,1595626210430
Fix,GT,37.4225038,-122.0941179,,17.82881,0.1,305.52716,1595626211430
Fix,GT,37.4226036,-122.094287,,19.473991,0.1,309.04486,1595626212430
Fix,GT,37.422718,-122.0944646,,20.913506,0.1,310.97626,1595626213430
Fix,GT,37.4228428,-122.0946501,,21.974401,0.1,311.92432,1595626214430
Fix,GT,37.4229751,-122.0948423,,22.941614,0.1,312.34106,1595626215430
Fix,GT,37.4231137,-122.0950417,,23.878826,0.1,312.63116,1595626216430
Fix,GT,37.4232581,-122.0952483,,24.71179,0.1,312.66827,1595626217430
Fix,GT,37.4234074,-122.0954607,,25.39959,0.1,312.94366,1595626218430
Fix,GT,37.423562,-122.0956771,,25.999136,0.1,313.45947,1595626219430
Fix,GT,37.4237208,-122.0958973,,26.562092,0.1,313.63867,1595626220430
Fix,GT,37.4238836,-122.0961216,,27.123028,0.1,313.76346,1595626221430
Fix,GT,37.4240501,-122.0963503,,27.687294,0.1,313.8615,1595626222430
Fix,GT,37.4242199,-122.0965828,,28.098774,0.1,313.89948,1595626223430
Fix,GT,37.4243915,-122.0968183,,28.35696,0.1,313.718,1595626224430
Fix,GT,37.4245642,-122.0970564,,28.607075,0.1,313.891,1595626225430
Fix,GT,37.4247404,-122.0972937,,28.791134,0.1,315.01456,1595626226430
Fix,GT,37.4249223,-122.0975277,,29.099613,0.1,316.2688,1595626227430
Fix,GT,37.4251103,-122.0977605,,29.54846,0.1,317.27628,1595626228430
Fix,GT,37.4253045,-122.0979922,,29.94329,0.1,318.38348,1595626229430
Fix,GT,37.4255044,-122.098222,,30.23583,0.1,319.41116,1595626230430
Fix,GT,37.4257088,-122.0984493,,30.430382,0.1,320.27032,1595626231430
Fix,GT,37.4259168,-122.0986742,,30.55502,0.1,321.0484,1595626232430
Fix,GT,37.4261276,-122.0988973,,30.689201,0.1,321.51895,1595626233430
Fix,GT,37.4263405,-122.0991193,,30.729504,0.1,321.8493,1595626234430
Fix,GT,37.4265538,-122.0993395,,30.547203,0.1,322.09467,1595626235430
Fix,GT,37.4267654,-122.0995573,,30.209002,0.1,322.00778,1595626236430
Fix,GT,37.4269743,-122.0997741,,29.996563,0.1,321.6629,1595626237430
Fix,GT,37.4271817,-122.0999915,,30.065166,0.1,321.50705,1595626238430
Fix,GT,37.4273897,-122.1002108,,30.283268,0.1,321.21768,1595626239430
Fix,GT,37.4275983,-122.1004333,,30.466732,0.1,320.94632,1595626240430
Fix,GT,37.4278075,-122.1006574,,30.62198,0.1,321.0701,1595626241430
Fix,GT,37.4280187,-122.1008815,,30.798985,0.1,321.33212,1595626242430
Fix,GT,37.4282319,-122.1011061,,30.995567,0.1,321.50623,1595626243430
Fix,GT,37.4284468,-122.1013313,,31.183945,0.1,321.61148,1595626244430
Fix,GT,37.4286628,-122.1015579,,31.335064,0.1,321.47125,1595626245430
Fix,GT,37.428879,-122.1017867,,31.450405,0.1,321.15543,1595626246430
Fix,GT,37.4290955,-122.1020172,,31.592457,0.1,321.17307,1595626247430
Fix,GT,37.4293136,-122.102248,,31.776669,0.1,321.4226,1595626248430
Fix,GT,37.4295338,-122.1024796,,32.020306,0.1,321.47568,1595626249430
Fix,GT,37.4297556,-122.1027131,,32.264645,0.1,321.4552,1595626250430
Fix,GT,37.4299792,-122.1029483,,32.523045,0.1,321.5537,1595626251430
Fix,GT,37.4302052,-122.1031844,,32.756508,0.1,321.72226,1595626252430
Fix,GT,37.4304328,-122.1034215,,32.93227,0.1,321.77087,1595626253430
Fix,GT,37.4306616,-122.1036602,,33.104107,0.1,321.6513,1595626254430
Fix,GT,37.4308908,-122.1039007,,33.222527,0.1,321.47787,1595626255430
Fix,GT,37.4311201,-122.1041425,,33.294292,0.1,321.37482,1595626256430
Fix,GT,37.4313498,-122.1043851,,33.386154,0.1,321.43213,1595626257430
Fix,GT,37.4315807,-122.1046279,,33.490932,0.1,321.5251,1595626258430
Fix,GT,37.4318122,-122.1048712,,33.56048,0.1,321.5247,1595626259430
Fix,GT,37.4320442,-122.1051147,,33.58853,0.1,321.5695,1595626260430
Fix,GT,37.4322765,-122.1053583,,33.622475,0.1,321.53296,1595626261430
Fix,GT,37.432509,-122.105603,,33.730156,0.1,321.35138,1595626262430
Fix,GT,37.4327421,-122.1058491,,33.891647,0.1,321.35196,1595626263430
Fix,GT,37.4329763,-122.1060958,,34.00126,0.1,321.5501,1595626264430
Fix,GT,37.4332117,-122.1063424,,34.053215,0.1,321.61554,1595626265430
Fix,GT,37.4334471,-122.1065887,,33.99613,0.1,321.6371,1595626266430
Fix,GT,37.4336817,-122.1068344,,33.8237,0.1,321.6213,1595626267430
Fix,GT,37.4339147,-122.1070783,,33.525826,0.1,321.6357,1595626268430
Fix,GT,37.4341456,-122.1073194,,33.146744,0.1,321.75732,1595626269430
Fix,GT,37.434374,-122.1075571,,32.735348,0.1,321.73825,1595626270430
Fix,GT,37.434599,-122.1077925,,32.32503,0.1,321.5229,1595626271430
Fix,GT,37.4348207,-122.1080259,,31.910223,0.1,321.47034,1595626272430
Fix,GT,37.4350397,-122.1082557,,31.480713,0.1,321.59363,1595626273430
Fix,GT,37.4352556,-122.1084819,,30.931894,0.1,321.57587,1595626274430
Fix,GT,37.4354672,-122.1087036,,30.238785,0.1,321.61725,1595626275430
Fix,GT,37.4356742,-122.10892,,29.627708,0.1,321.70242,1595626276430
Fix,GT,37.4358776,-122.1091323,,29.107473,0.1,321.7312,1595626277430
Fix,GT,37.4360774,-122.1093408,,28.603134,0.1,321.6948,1595626278430
Fix,GT,37.4362736,-122.1095459,,28.111908,0.1,321.55283,1595626279430
Fix,GT,37.436466,-122.1097484,,27.654041,0.1,321.4549,1595626280430
Fix,GT,37.4366556,-122.1099479,,27.322449,0.1,321.5507,1595626281430
Fix,GT,37.4368442,-122.1101451,,27.21907,0.1,321.71396,1595626282430
Fix,GT,37.4370331,-122.1103424,,27.413296,0.1,321.58722,1595626283430
Fix,GT,37.4372232,-122.1105431,,27.716675,0.1,321.21387,1595626284430
Fix,GT,37.4374145,-122.1107465,,27.950218,0.1,321.19766,1595626285430
Fix,GT,37.4376077,-122.1109507,,28.141228,0.1,321.47208,1595626286430
Fix,GT,37.4378028,-122.1111554,,28.32482,0.1,321.55692,1595626287430
Fix,GT,37.4379991,-122.1113617,,28.514286,0.1,321.47873,1595626288430
Fix,GT,37.4381969,-122.1115691,,28.68676,0.1,321.64423,1595626289430
Fix,GT,37.4383962,-122.1117768,,28.842379,0.1,321.76233,1595626290430
Fix,GT,37.4385966,-122.1119859,,29.03191,0.1,321.61774,1595626291430
Fix,GT,37.4387979,-122.1121969,,29.202526,0.1,321.565,1595626292430
Fix,GT,37.4390001,-122.1124085,,29.224155,0.1,321.66006,1595626293430
Fix,GT,37.4392022,-122.1126195,,29.129925,0.1,321.7453,1595626294430
Fix,GT,37.4394035,-122.1128294,,28.988865,0.1,321.7192,1595626295430
Fix,GT,37.4396035,-122.1130385,,28.841913,0.1,321.53473,1595626296430
Fix,GT,37.4398024,-122.1132478,,28.814041,0.1,321.35986,1595626297430
Fix,GT,37.4400011,-122.113458,,28.899925,0.1,321.27664,1595626298430
Fix,GT,37.4402003,-122.1136695,,29.000782,0.1,321.26755,1595626299430
Fix,GT,37.4404,-122.113881,,29.027222,0.1,321.4159,1595626300430
Fix,GT,37.4406006,-122.1140918,,29.059376,0.1,321.57977,1595626301430
Fix,GT,37.4408017,-122.1143026,,29.136677,0.1,321.52353,1595626302430
Fix,GT,37.441003,-122.1145144,,29.18705,0.1,321.4763,1595626303430
Fix,GT,37.4412047,-122.114726,,29.146393,0.1,321.69772,1595626304430
Fix,GT,37.4414066,-122.1149357,,29.036692,0.1,321.97043,1595626305430
Fix,GT,37.441608,-122.1151442,,28.937763,0.1,321.82666,1595626306430
Fix,GT,37.4418081,-122.1153533,,28.89671,0.1,321.57916,1595626307430
Fix,GT,37.4420077,-122.1155632,,28.892792,0.1,321.45944,1595626308430
Fix,GT,37.4422069,-122.115773,,28.838892,0.1,321.4053,1595626309430
Fix,GT,37.4424053,-122.1159823,,28.689194,0.1,321.41956,1595626310430
Fix,GT,37.4426028,-122.1161905,,28.601461,0.1,321.45743,1595626311430
Fix,GT,37.4428003,-122.1163983,,28.635822,0.1,321.48026,1595626312430
Fix,GT,37.442998,-122.1166062,,28.614279,0.1,321.4634,1595626313430
Fix,GT,37.4431949,-122.1168137,,28.429188,0.1,321.39008,1595626314430
Fix,GT,37.44339,-122.1170196,,28.172758,0.1,321.41095,1595626315430
Fix,GT,37.4435838,-122.1172239,,28.065834,0.1,321.5202,1595626316430
Fix,GT,37.4437783,-122.1174277,,28.233416,0.1,321.61105,1595626317430
Fix,GT,37.4439745,-122.117633,,28.500969,0.1,321.6991,1595626318430
Fix,GT,37.4441726,-122.1178396,,28.686592,0.1,321.7459,1595626319430
Fix,GT,37.444372,-122.1180475,,28.856358,0.1,321.742,1595626320430
Fix,GT,37.4445723,-122.1182563,,28.950466,0.1,321.73148,1595626321430
Fix,GT,37.4447732,-122.1184653,,28.982033,0.1,321.83365,1595626322430
Fix,GT,37.4449743,-122.1186738,,28.911024,0.1,321.8861,1595626323430
Fix,GT,37.4451743,-122.1188815,,28.725384,0.1,321.7517,1595626324430
Fix,GT,37.4453728,-122.1190886,,28.64803,0.1,321.58258,1595626325430
Fix,GT,37.4455711,-122.1192966,,28.7258,0.1,321.46942,1595626326430
Fix,GT,37.4457696,-122.1195054,,28.774632,0.1,321.42676,1595626327430
Fix,GT,37.4459681,-122.1197147,,28.801384,0.1,321.2794,1595626328430
Fix,GT,37.4461662,-122.1199255,,28.881805,0.1,321.05954,1595626329430
Fix,GT,37.4463649,-122.1201375,,29.016901,0.1,321.12436,1595626330430
Fix,GT,37.4465651,-122.1203497,,29.129078,0.1,321.3769,1595626331430
Fix,GT,37.4467662,-122.1205613,,29.136648,0.1,321.53207,1595626332430
Fix,GT,37.4469675,-122.1207724,,29.091558,0.1,321.60413,1595626333430
Fix,GT,37.4471687,-122.1209824,,29.049019,0.1,321.78726,1595626334430
Fix,GT,37.4473698,-122.1211915,,28.934925,0.1,321.87286,1595626335430
Fix,GT,37.4475697,-122.1213993,,28.674904,0.1,321.8004,1595626336430
Fix,GT,37.447767,-122.1216051,,28.244576,0.1,321.6074,1595626337430
Fix,GT,37.4479601,-122.121808,,27.678297,0.1,321.43768,1595626338430
Fix,GT,37.4481495,-122.1220073,,27.23148,0.1,321.50253,1595626339430
Fix,GT,37.4483367,-122.122203,,26.860748,0.1,321.74725,1595626340430
Fix,GT,37.4485219,-122.1223951,,26.496721,0.1,321.91614,1595626341430
Fix,GT,37.4487049,-122.1225844,,26.174587,0.1,321.83447,1595626342430
Fix,GT,37.4488858,-122.1227729,,26.0756,0.1,321.56296,1595626343430
Fix,GT,37.4490661,-122.1229629,,26.189398,0.1,321.27484,1595626344430
Fix,GT,37.4492467,-122.1231539,,26.240168,0.1,321.34088,1595626345430
Fix,GT,37.4494278,-122.1233451,,26.33001,0.1,321.3351,1595626346430
Fix,GT,37.4496095,-122.1235387,,26.603,0.1,320.93134,1595626347430
Fix,GT,37.4497929,-122.1237354,,26.984716,0.1,321.00708,1595626348430
Fix,GT,37.4499799,-122.1239342,,27.409021,0.1,321.32904,1595626349430
Fix,GT,37.45017,-122.1241341,,27.563797,0.1,321.60223,1595626350430
Fix,GT,37.4503599,-122.1243331,,27.391422,0.1,321.56735,1595626351430
Fix,GT,37.450548,-122.1245329,,27.351156,0.1,320.82574,1595626352430
Fix,GT,37.4507333,-122.1247367,,27.31655,0.1,319.73492,1595626353430
Fix,GT,37.4509147,-122.1249422,,26.86346,0.1,319.08286,1595626354430
Fix,GT,37.4510901,-122.125145,,26.007605,0.1,318.55396,1595626355430
Fix,GT,37.4512565,-122.1253417,,24.742413,0.1,317.74274,1595626356430
Fix,GT,37.4514123,-122.1255324,,23.677473,0.1,316.72034,1595626357430
Fix,GT,37.4515607,-122.1257202,,23.168911,0.1,315.69598,1595626358430
Fix,GT,37.4517041,-122.125908,,22.863876,0.1,314.841,1595626359430
Fix,GT,37.451844,-122.1260965,,22.74284,0.1,313.99478,1595626360430
Fix,GT,37.4519814,-122.1262882,,22.948616,0.1,312.94128,1595626361430
Fix,GT,37.4521179,-122.1264864,,23.397259,0.1,311.71402,1595626362430
Fix,GT,37.4522538,-122.1266912,,23.654196,0.1,310.80817,1595626363430
Fix,GT,37.4523877,-122.1268989,,23.623882,0.1,310.04312,1595626364430
Fix,GT,37.4525193,-122.1271088,,23.649887,0.1,309.21347,1595626365430
Fix,GT,37.4526488,-122.1273219,,23.806671,0.1,308.44727,1595626366430
Fix,GT,37.4527775,-122.1275384,,23.978436,0.1,307.9782,1595626367430
Fix,GT,37.452906,-122.1277574,,24.151821,0.1,307.61688,1595626368430
Fix,GT,37.4530347,-122.1279788,,24.326588,0.1,307.46124,1595626369430
Fix,GT,37.4531643,-122.1282013,,24.421034,0.1,307.67297,1595626370430
Fix,GT,37.4532948,-122.1284237,,24.4669,0.1,307.86658,1595626371430
Fix,GT,37.4534263,-122.1286462,,24.551231,0.1,308.01562,1595626372430
Fix,GT,37.4535585,-122.1288694,,24.675514,0.1,308.03735,1595626373430
Fix,GT,37.4536917,-122.1290951,,25.083279,0.1,307.8523,1595626374430
Fix,GT,37.4538271,-122.1293261,,25.650515,0.1,307.6949,1595626375430
Fix,GT,37.4539652,-122.1295623,,26.156483,0.1,307.72827,1595626376430
Fix,GT,37.4541057,-122.1298018,,26.435974,0.1,307.78143,1595626377430
Fix,GT,37.4542468,-122.130043,,26.497017,0.1,307.63483,1595626378430
Fix,GT,37.4543877,-122.1302852,,26.621012,0.1,307.50903,1595626379430
Fix,GT,37.4545298,-122.1305293,,26.85336,0.1,307.56573,1595626380430
Fix,GT,37.454673,-122.1307756,,27.117508,0.1,307.53027,1595626381430
Fix,GT,37.454818,-122.1310245,,27.436462,0.1,307.5802,1595626382430
Fix,GT,37.4549645,-122.1312763,,27.68272,0.1,307.5503,1595626383430
Fix,GT,37.4551117,-122.131529,,27.642536,0.1,307.59625,1595626384430
Fix,GT,37.4552583,-122.1317798,,27.399712,0.1,307.76587,1595626385430
Fix,GT,37.4554042,-122.1320276,,27.118023,0.1,307.97278,1595626386430
Fix,GT,37.4555492,-122.132272,,26.81544,0.1,308.165,1595626387430
Fix,GT,37.4556934,-122.1325141,,26.720308,0.1,308.1685,1595626388430
Fix,GT,37.4558378,-122.1327576,,27.007055,0.1,307.88434,1595626389430
Fix,GT,37.4559829,-122.1330044,,27.243465,0.1,307.84515,1595626390430
Fix,GT,37.4561289,-122.1332517,,27.19554,0.1,308.0317,1595626391430
Fix,GT,37.4562752,-122.1334986,,27.27414,0.1,307.97028,1595626392430
Fix,GT,37.4564218,-122.133748,,27.58126,0.1,307.7458,1595626393430
Fix,GT,37.4565697,-122.134001,,27.918001,0.1,307.64972,1595626394430
Fix,GT,37.4567192,-122.1342566,,28.154694,0.1,307.74268,1595626395430
Fix,GT,37.4568701,-122.1345132,,28.263416,0.1,307.9627,1595626396430
Fix,GT,37.4570221,-122.13477,,28.358856,0.1,308.0668,1595626397430
Fix,GT,37.4571749,-122.1350277,,28.458935,0.1,308.04947,1595626398430
Fix,GT,37.4573281,-122.1352861,,28.540192,0.1,308.0738,1595626399430
Fix,GT,37.4574819,-122.1355452,,28.618351,0.1,308.0936,1595626400430
Fix,GT,37.4576362,-122.1358047,,28.647728,0.1,308.17426,1595626401430
Fix,GT,37.4577905,-122.1360636,,28.523396,0.1,308.29892,1595626402430
Fix,GT,37.4579438,-122.1363206,,28.279327,0.1,308.14417,1595626403430
Fix,GT,37.4580949,-122.1365764,,28.07619,0.1,307.80048,1595626404430
Fix,GT,37.4582443,-122.1368313,,27.872337,0.1,307.73608,1595626405430
Fix,GT,37.4583927,-122.1370846,,27.76334,0.1,307.6574,1595626406430
Fix,GT,37.4585407,-122.1373382,,27.906578,0.1,307.59076,1595626407430
Fix,GT,37.4586898,-122.1375936,,28.10946,0.1,307.70993,1595626408430
Fix,GT,37.4588405,-122.1378497,,28.216732,0.1,307.91022,1595626409430
Fix,GT,37.458992,-122.1381065,,28.332047,0.1,307.9036,1595626410430
Fix,GT,37.459144,-122.1383649,,28.499414,0.1,307.80246,1595626411430
Fix,GT,37.4592965,-122.1386251,,28.63009,0.1,307.71106,1595626412430
Fix,GT,37.4594493,-122.1388864,,28.717308,0.1,307.64603,1595626413430
Fix,GT,37.4596023,-122.1391484,,28.761925,0.1,307.64948,1595626414430
Fix,GT,37.4597557,-122.1394108,,28.807327,0.1,307.7051,1595626415430
Fix,GT,37.4599097,-122.1396737,,28.963572,0.1,307.78397,1595626416430
Fix,GT,37.4600651,-122.1399382,,29.166452,0.1,307.81543,1595626417430
Fix,GT,37.460221,-122.140204,,29.199598,0.1,307.77634,1595626418430
Fix,GT,37.4603764,-122.1404692,,29.022903,0.1,307.81897,1595626419430
Fix,GT,37.4605311,-122.1407325,,28.907515,0.1,307.85034,1595626420430
Fix,GT,37.4606857,-122.1409963,,29.024113,0.1,307.64557,1595626421430
Fix,GT,37.4608407,-122.1412617,,29.176453,0.1,307.68527,1595626422430
Fix,GT,37.460997,-122.1415272,,29.21205,0.1,308.0408,1595626423430
Fix,GT,37.4611541,-122.1417922,,29.211777,0.1,307.9566,1595626424430
Fix,GT,37.4613103,-122.1420579,,29.198336,0.1,307.69882,1595626425430
Fix,GT,37.4614655,-122.142324,,29.143791,0.1,307.61688,1595626426430
Fix,GT,37.4616208,-122.1425898,,29.164219,0.1,307.77246,1595626427430
Fix,GT,37.4617768,-122.1428551,,29.084011,0.1,307.8667,1595626428430
Fix,GT,37.4619305,-122.1431176,,28.518942,0.1,307.6154,1595626429430
Fix,GT,37.4620797,-122.1433748,,27.786217,0.1,307.4358,1595626430430
Fix,GT,37.4622249,-122.1436266,,27.227428,0.1,307.15845,1595626431430
Fix,GT,37.4623664,-122.1438743,,26.707699,0.1,307.0014,1595626432430
Fix,GT,37.4625058,-122.1441172,,26.27522,0.1,307.41168,1595626433430
Fix,GT,37.4626445,-122.1443557,,25.961891,0.1,307.41766,1595626434430
Fix,GT,37.4627803,-122.1445928,,25.730083,0.1,306.67004,1595626435430
Fix,GT,37.4629123,-122.1448316,,25.802189,0.1,306.01483,1595626436430
Fix,GT,37.4630451,-122.1450753,,26.52094,0.1,305.62662,1595626437430
Fix,GT,37.4631829,-122.1453279,,27.617294,0.1,306.04657,1595626438430
Fix,GT,37.4633292,-122.1455879,,28.698942,0.1,307.1594,1595626439430
Fix,GT,37.4634842,-122.1458542,,29.628677,0.1,307.8341,1595626440430
Fix,GT,37.4636455,-122.1461262,,30.27806,0.1,308.1528,1595626441430
Fix,GT,37.46381,-122.1464026,,30.7,0.1,308.1047,1595626442430
Fix,GT,37.4639755,-122.1466824,,30.885675,0.1,308.01422,1595626443430
Fix,GT,37.4641417,-122.1469625,,30.888117,0.1,308.0751,1595626444430
Fix,GT,37.4643073,-122.1472426,,30.842812,0.1,307.828,1595626445430
Fix,GT,37.4644719,-122.1475239,,30.876823,0.1,307.5826,1595626446430
Fix,GT,37.4646362,-122.1478057,,30.87703,0.1,307.5683,1595626447430
Fix,GT,37.4648002,-122.1480872,,30.813427,0.1,307.58136,1595626448430
Fix,GT,37.4649639,-122.148368,,30.744186,0.1,307.6762,1595626449430
Fix,GT,37.4651279,-122.1486484,,30.809303,0.1,307.70844,1595626450430
Fix,GT,37.4652926,-122.14893,,30.978172,0.1,307.67264,1595626451430
Fix,GT,37.4654578,-122.149213,,31.076027,0.1,307.60132,1595626452430
Fix,GT,37.4656232,-122.149497,,31.161833,0.1,307.58148,1595626453430
Fix,GT,37.4657892,-122.1497823,,31.356037,0.1,307.56827,1595626454430
Fix,GT,37.4659566,-122.1500696,,31.63348,0.1,307.67224,1595626455430
Fix,GT,37.4661262,-122.1503589,,31.911888,0.1,307.84058,1595626456430
Fix,GT,37.4662977,-122.1506505,,32.20317,0.1,307.82318,1595626457430
Fix,GT,37.4664703,-122.1509447,,32.421787,0.1,307.76318,1595626458430
Fix,GT,37.4666437,-122.1512405,,32.499943,0.1,307.78845,1595626459430
Fix,GT,37.4668175,-122.1515362,,32.474487,0.1,307.87375,1595626460430
Fix,GT,37.4669911,-122.1518312,,32.416702,0.1,307.88757,1595626461430
Fix,GT,37.4671644,-122.1521259,,32.389637,0.1,307.78784,1595626462430
Fix,GT,37.4673372,-122.1524208,,32.37399,0.1,307.75082,1595626463430
Fix,GT,37.4675103,-122.1527154,,32.366867,0.1,307.90836,1595626464430
Fix,GT,37.467684,-122.1530091,,32.34134,0.1,308.1195,1595626465430
Fix,GT,37.4678583,-122.1533016,,32.250694,0.1,308.22052,1595626466430
Fix,GT,37.4680318,-122.1535925,,31.997892,0.1,308.1973,1595626467430
Fix,GT,37.4682028,-122.1538803,,31.528337,0.1,308.10327,1595626468430
Fix,GT,37.4683706,-122.1541635,,30.903065,0.1,308.07053,1595626469430
Fix,GT,37.468535,-122.1544411,,30.329426,0.1,308.091,1595626470430
Fix,GT,37.4686972,-122.1547144,,29.961948,0.1,308.10638,1595626471430
Fix,GT,37.4688577,-122.154985,,29.717249,0.1,307.993,1595626472430
Fix,GT,37.4690168,-122.1552543,,29.610287,0.1,307.90414,1595626473430
Fix,GT,37.4691753,-122.1555235,,29.64241,0.1,307.8495,1595626474430
Fix,GT,37.469334,-122.1557942,,29.841402,0.1,307.60605,1595626475430
Fix,GT,37.4694931,-122.156068,,30.099468,0.1,307.36703,1595626476430
Fix,GT,37.4696527,-122.156345,,30.358295,0.1,307.22446,1595626477430
Fix,GT,37.4698131,-122.1566241,,30.488556,0.1,307.21005,1595626478430
Fix,GT,37.4699737,-122.1569031,,30.36768,0.1,307.34665,1595626479430
Fix,GT,37.470134,-122.15718,,30.181927,0.1,307.4691,1595626480430
Fix,GT,37.470294,-122.1574552,,30.093456,0.1,307.57117,1595626481430
Fix,GT,37.4704542,-122.1577301,,30.190098,0.1,307.61743,1595626482430
Fix,GT,37.4706157,-122.1580062,,30.396912,0.1,307.84628,1595626483430
Fix,GT,37.4707793,-122.1582829,,30.539669,0.1,308.15903,1595626484430
Fix,GT,37.4709443,-122.1585594,,30.546543,0.1,308.19196,1595626485430
Fix,GT,37.4711085,-122.1588359,,30.416746,0.1,308.02777,1595626486430
Fix,GT,37.4712707,-122.1591112,,30.146568,0.1,307.8259,1595626487430
Fix,GT,37.4714309,-122.1593843,,29.821278,0.1,307.6853,1595626488430
Fix,GT,37.4715885,-122.1596551,,29.490898,0.1,307.42725,1595626489430
Fix,GT,37.4717436,-122.1599235,,29.15189,0.1,307.33356,1595626490430
Fix,GT,37.4718969,-122.1601885,,28.806896,0.1,307.46912,1595626491430
Fix,GT,37.4720493,-122.1604504,,28.556595,0.1,307.5569,1595626492430
Fix,GT,37.4722008,-122.160711,,28.561623,0.1,307.54834,1595626493430
Fix,GT,37.4723534,-122.1609729,,28.875252,0.1,307.60892,1595626494430
Fix,GT,37.4725087,-122.1612388,,29.41454,0.1,307.701,1595626495430
Fix,GT,37.472667,-122.161509,,29.894545,0.1,307.78867,1595626496430
Fix,GT,37.4728276,-122.1617823,,30.153336,0.1,307.80743,1595626497430
Fix,GT,37.4729892,-122.1620581,,30.397728,0.1,307.67416,1595626498430
Fix,GT,37.4731521,-122.1623362,,30.682795,0.1,307.8559,1595626499430
Fix,GT,37.4733179,-122.1626162,,31.026917,0.1,308.07858,1595626500430
Fix,GT,37.4734855,-122.1628992,,31.33582,0.1,307.85904,1595626501430
Fix,GT,37.4736535,-122.1631856,,31.539555,0.1,307.666,1595626502430
Fix,GT,37.4738219,-122.1634739,,31.707462,0.1,307.62778,1595626503430
Fix,GT,37.4739911,-122.1637642,,31.909782,0.1,307.55627,1595626504430
Fix,GT,37.4741613,-122.1640559,,32.057644,0.1,307.7792,1595626505430
Fix,GT,37.4743336,-122.1643476,,32.140026,0.1,308.09207,1595626506430
Fix,GT,37.4745064,-122.1646384,,32.015537,0.1,308.11356,1595626507430
Fix,GT,37.4746779,-122.1649271,,31.659557,0.1,308.11105,1595626508430
Fix,GT,37.4748476,-122.1652124,,31.29757,0.1,308.04636,1595626509430
Fix,GT,37.4750145,-122.165495,,30.937294,0.1,307.80963,1595626510430
Fix,GT,37.4751787,-122.1657752,,30.568907,0.1,307.70422,1595626511430
Fix,GT,37.4753408,-122.166052,,30.206165,0.1,307.7006,1595626512430
Fix,GT,37.4755008,-122.1663259,,29.882824,0.1,307.58783,1595626513430
Fix,GT,37.4756587,-122.1665977,,29.636402,0.1,307.4104,1595626514430
Fix,GT,37.4758151,-122.1668686,,29.611256,0.1,307.26447,1595626515430
Fix,GT,37.4759721,-122.1671407,,29.824066,0.1,307.4279,1595626516430
Fix,GT,37.4761312,-122.1674133,,29.891811,0.1,307.753,1595626517430
Fix,GT,37.4762906,-122.1676844,,29.709799,0.1,307.94998,1595626518430
Fix,GT,37.4764501,-122.1679537,,29.688837,0.1,308.33658,1595626519430
Fix,GT,37.4766128,-122.1682211,,29.811798,0.1,309.24652,1595626520430
Fix,GT,37.4767785,-122.1684866,,29.83381,0.1,309.52344,1595626521430
Fix,GT,37.476943,-122.1687531,,29.790787,0.1,308.68484,1595626522430
Fix,GT,37.4771037,-122.1690222,,29.708027,0.1,307.87576,1595626523430
Fix,GT,37.4772618,-122.1692927,,29.678364,0.1,307.53683,1595626524430
Fix,GT,37.4774191,-122.1695641,,29.630146,0.1,307.38138,1595626525430
Fix,GT,37.4775757,-122.1698346,,29.52427,0.1,307.4785,1595626526430
Fix,GT,37.4777322,-122.1701034,,29.371037,0.1,307.6185,1595626527430
Fix,GT,37.4778882,-122.1703706,,29.222408,0.1,307.71234,1595626528430
Fix,GT,37.4780438,-122.170636,,29.11148,0.1,307.81082,1595626529430
Fix,GT,37.4781993,-122.1709011,,29.123058,0.1,307.70004,1595626530430
Fix,GT,37.4783545,-122.1711668,,29.13504,0.1,307.60388,1595626531430
Fix,GT,37.4785088,-122.1714323,,28.968882,0.1,307.4121,1595626532430
Fix,GT,37.4786612,-122.1716966,,28.761951,0.1,307.1352,1595626533430
Fix,GT,37.4788123,-122.1719594,,28.551208,0.1,307.31873,1595626534430
Fix,GT,37.4789632,-122.1722193,,28.333683,0.1,307.71094,1595626535430
Fix,GT,37.4791142,-122.1724763,,28.191792,0.1,307.9129,1595626536430
Fix,GT,37.479265,-122.172732,,28.06174,0.1,307.9341,1595626537430
Fix,GT,37.4794146,-122.1729857,,27.73341,0.1,307.799,1595626538430
Fix,GT,37.4795617,-122.1732364,,27.382954,0.1,307.77655,1595626539430
Fix,GT,37.4797079,-122.1734854,,27.380745,0.1,307.7511,1595626540430
Fix,GT,37.4798541,-122.1737353,,27.48529,0.1,307.62302,1595626541430
Fix,GT,37.48,-122.1739859,,27.41452,0.1,307.5168,1595626542430
Fix,GT,37.4801451,-122.1742364,,27.33142,0.1,307.25443,1595626543430
Fix,GT,37.4802888,-122.1744859,,27.083654,0.1,307.2987,1595626544430
Fix,GT,37.4804312,-122.1747322,,26.784449,0.1,307.42792,1595626545430
Fix,GT,37.4805727,-122.1749766,,26.688103,0.1,307.37457,1595626546430
Fix,GT,37.4807143,-122.1752218,,26.914345,0.1,307.26453,1595626547430
Fix,GT,37.4808571,-122.1754699,,27.231205,0.1,307.37976,1595626548430
Fix,GT,37.4810022,-122.1757194,,27.342876,0.1,307.7626,1595626549430
Fix,GT,37.4811483,-122.1759682,,27.31783,0.1,307.74677,1595626550430
Fix,GT,37.4812933,-122.1762175,,27.308804,0.1,307.3094,1595626551430
Fix,GT,37.4814375,-122.1764682,,27.42744,0.1,307.1914,1595626552430
Fix,GT,37.4815829,-122.1767199,,27.521828,0.1,307.49567,1595626553430
Fix,GT,37.4817287,-122.1769707,,27.33344,0.1,307.51804,1595626554430
Fix,GT,37.4818724,-122.1772196,,27.031357,0.1,307.15894,1595626555430
Fix,GT,37.4820128,-122.1774671,,26.728897,0.1,306.44675,1595626556430
Fix,GT,37.4821492,-122.1777155,,26.710403,0.1,305.38153,1595626557430
Fix,GT,37.4822827,-122.1779686,,26.995413,0.1,304.4132,1595626558430
Fix,GT,37.482414,-122.1782263,,27.06856,0.1,303.55832,1595626559430
Fix,GT,37.4825419,-122.1784858,,26.899277,0.1,302.66162,1595626560430
Fix,GT,37.4826655,-122.1787472,,26.937065,0.1,301.42685,1595626561430
Fix,GT,37.4827855,-122.1790143,,27.295757,0.1,300.29938,1595626562430
Fix,GT,37.4829033,-122.1792866,,27.435112,0.1,299.48346,1595626563430
Fix,GT,37.4830179,-122.17956,,27.163563,0.1,298.8211,1595626564430
Fix,GT,37.4831288,-122.1798316,,26.797705,0.1,298.23312,1595626565430
Fix,GT,37.4832361,-122.1801011,,26.51917,0.1,297.6497,1595626566430
Fix,GT,37.483341,-122.1803702,,26.56023,0.1,297.2367,1595626567430
Fix,GT,37.4834454,-122.1806433,,27.079721,0.1,296.66223,1595626568430
Fix,GT,37.4835495,-122.1809244,,27.705357,0.1,295.95963,1595626569430
Fix,GT,37.4836529,-122.181212,,28.057188,0.1,295.3429,1595626570430
Fix,GT,37.4837543,-122.1815033,,28.125051,0.1,294.6525,1595626571430
Fix,GT,37.4838528,-122.1817956,,27.9799,0.1,293.9538,1595626572430
Fix,GT,37.4839479,-122.182087,,27.748608,0.1,293.4198,1595626573430
Fix,GT,37.4840405,-122.1823775,,27.617964,0.1,292.9629,1595626574430
Fix,GT,37.4841308,-122.1826681,,27.54108,0.1,292.41833,1595626575430
Fix,GT,37.4842185,-122.1829592,,27.514668,0.1,291.77808,1595626576430
Fix,GT,37.4843039,-122.1832517,,27.61141,0.1,291.19873,1595626577430
Fix,GT,37.4843874,-122.1835464,,27.73389,0.1,290.7339,1595626578430
Fix,GT,37.4844694,-122.1838435,,27.88814,0.1,290.2035,1595626579430
Fix,GT,37.4845496,-122.1841426,,27.900848,0.1,289.7315,1595626580430
Fix,GT,37.4846277,-122.1844417,,27.72474,0.1,289.27023,1595626581430
Fix,GT,37.484703,-122.1847391,,27.472416,0.1,288.7637,1595626582430
Fix,GT,37.4847752,-122.1850355,,27.394707,0.1,287.9556,1595626583430
Fix,GT,37.4848437,-122.1853361,,27.96704,0.1,286.6058,1595626584430
Fix,GT,37.4849078,-122.1856483,,29.087646,0.1,285.08243,1595626585430
Fix,GT,37.4849692,-122.1859734,,29.96534,0.1,284.5586,1595626586430
Fix,GT,37.4850324,-122.186306,,30.466858,0.1,285.0016,1595626587430
Fix,GT,37.4850986,-122.1866423,,30.785614,0.1,285.31808,1595626588430
Fix,GT,37.4851649,-122.1869811,,30.855524,0.1,284.90308,1595626589430
Fix,GT,37.4852282,-122.1873204,,30.76538,0.1,284.20712,1595626590430
Fix,GT,37.4852883,-122.1876591,,30.612759,0.1,283.6885,1595626591430
Fix,GT,37.4853461,-122.1879968,,30.521809,0.1,283.3286,1595626592430
Fix,GT,37.485402,-122.1883344,,30.447493,0.1,282.8074,1595626593430
Fix,GT,37.4854549,-122.1886708,,30.175957,0.1,282.14246,1595626594430
Fix,GT,37.4855034,-122.1890047,,29.866394,0.1,281.26492,1595626595430
Fix,GT,37.4855477,-122.1893362,,29.588406,0.1,280.49692,1595626596430
Fix,GT,37.4855891,-122.1896652,,29.328182,0.1,280.22665,1595626597430
Fix,GT,37.48563,-122.1899914,,29.09164,0.1,280.38913,1595626598430
Fix,GT,37.4856712,-122.1903153,,28.947058,0.1,280.34967,1595626599430
Fix,GT,37.4857115,-122.1906379,,28.803726,0.1,280.17365,1595626600430
Fix,GT,37.4857514,-122.1909588,,28.655006,0.1,280.27917,1595626601430
Fix,GT,37.4857919,-122.1912782,,28.564978,0.1,280.47003,1595626602430
Fix,GT,37.4858324,-122.1915973,,28.619198,0.1,280.29697,1595626603430
Fix,GT,37.4858721,-122.191918,,28.813099,0.1,280.10944,1595626604430
Fix,GT,37.4859122,-122.192241,,28.965405,0.1,280.22455,1595626605430
Fix,GT,37.4859529,-122.1925643,,28.88247,0.1,280.39557,1595626606430
Fix,GT,37.4859941,-122.1928854,,28.637861,0.1,280.42694,1595626607430
Fix,GT,37.4860342,-122.1932047,,28.591017,0.1,280.0909,1595626608430
Fix,GT,37.4860734,-122.193525,,28.749859,0.1,280.1093,1595626609430
Fix,GT,37.4861134,-122.1938471,,28.943214,0.1,280.17163,1595626610430
Fix,GT,37.4861534,-122.1941723,,29.308727,0.1,279.9978,1595626611430
Fix,GT,37.4861934,-122.1945027,,29.801735,0.1,279.95822,1595626612430
Fix,GT,37.4862342,-122.1948381,,30.166813,0.1,280.06116,1595626613430
Fix,GT,37.486276,-122.1951766,,30.404392,0.1,280.1882,1595626614430
Fix,GT,37.4863183,-122.1955173,,30.567883,0.1,280.19952,1595626615430
Fix,GT,37.4863606,-122.195859,,30.591202,0.1,280.11932,1595626616430
Fix,GT,37.4864028,-122.1962011,,30.666937,0.1,280.13458,1595626617430
Fix,GT,37.4864454,-122.1965448,,30.844006,0.1,280.17358,1595626618430
Fix,GT,37.4864882,-122.1968896,,30.844383,0.1,280.20764,1595626619430
Fix,GT,37.4865311,-122.1972332,,30.651714,0.1,280.30444,1595626620430
Fix,GT,37.4865739,-122.1975743,,30.431404,0.1,280.22516,1595626621430
Fix,GT,37.4866155,-122.1979131,,30.23843,0.1,280.00824,1595626622430
Fix,GT,37.4866564,-122.1982508,,30.233416,0.1,280.01694,1595626623430
Fix,GT,37.4866978,-122.1985897,,30.446247,0.1,280.0795,1595626624430
Fix,GT,37.4867399,-122.1989313,,30.65627,0.1,280.1661,1595626625430
Fix,GT,37.4867826,-122.1992736,,30.575373,0.1,280.34204,1595626626430
Fix,GT,37.4868257,-122.1996136,,30.321213,0.1,280.3781,1595626627430
Fix,GT,37.4868683,-122.1999512,,30.134956,0.1,280.32388,1595626628430
Fix,GT,37.4869109,-122.2002867,,29.967098,0.1,280.44995,1595626629430
Fix,GT,37.4869538,-122.2006205,,29.874958,0.1,280.44345,1595626630430
Fix,GT,37.4869957,-122.200955,,30.032782,0.1,280.17227,1595626631430
Fix,GT,37.4870372,-122.2012921,,30.272444,0.1,280.13794,1595626632430
Fix,GT,37.4870794,-122.2016312,,30.422365,0.1,280.17117,1595626633430
Fix,GT,37.4871212,-122.2019721,,30.592445,0.1,279.9831,1595626634430
Fix,GT,37.4871627,-122.202315,,30.770596,0.1,279.97583,1595626635430
Fix,GT,37.4872047,-122.2026603,,30.996933,0.1,280.09918,1595626636430
Fix,GT,37.4872475,-122.2030078,,31.205181,0.1,280.135,1595626637430
Fix,GT,37.4872908,-122.2033573,,31.367413,0.1,280.19955,1595626638430
Fix,GT,37.4873343,-122.2037093,,31.725048,0.1,280.08264,1595626639430
Fix,GT,37.487378,-122.2040678,,32.497356,0.1,279.95294,1595626640430
Fix,GT,37.4874229,-122.204437,,33.509033,0.1,279.99988,1595626641430
Fix,GT,37.4874693,-122.2048161,,34.28933,0.1,280.13565,1595626642430
Fix,GT,37.487517,-122.2052016,,34.702545,0.1,280.1783,1595626643430
Fix,GT,37.4875655,-122.2055906,,34.93253,0.1,280.2006,1595626644430
Fix,GT,37.4876145,-122.2059814,,35.03643,0.1,280.39368,1595626645430
Fix,GT,37.4876647,-122.2063727,,35.037785,0.1,280.5243,1595626646430
Fix,GT,37.4877156,-122.206764,,35.0831,0.1,280.73334,1595626647430
Fix,GT,37.4877691,-122.2071552,,35.10865,0.1,281.43005,1595626648430
Fix,GT,37.4878267,-122.2075452,,35.08115,0.1,282.2599,1595626649430
Fix,GT,37.4878886,-122.2079343,,35.098816,0.1,283.0243,1595626650430
Fix,GT,37.4879543,-122.2083226,,35.11689,0.1,283.57666,1595626651430
Fix,GT,37.4880229,-122.2087105,,35.157322,0.1,283.9306,1595626652430
Fix,GT,37.4880933,-122.2090984,,35.204933,0.1,284.42023,1595626653430
Fix,GT,37.4881664,-122.2094857,,35.183613,0.1,285.03015,1595626654430
Fix,GT,37.4882437,-122.2098705,,34.98851,0.1,285.9595,1595626655430
Fix,GT,37.4883255,-122.2102509,,34.679413,0.1,286.96646,1595626656430
Fix,GT,37.4884114,-122.2106259,,34.34039,0.1,287.83743,1595626657430
Fix,GT,37.4885004,-122.2109951,,33.896915,0.1,288.4444,1595626658430
Fix,GT,37.4885907,-122.2113589,,33.518307,0.1,288.8791,1595626659430
Fix,GT,37.4886829,-122.211718,,33.213387,0.1,289.5962,1595626660430
Fix,GT,37.4887782,-122.2120721,,32.90132,0.1,290.45157,1595626661430
Fix,GT,37.4888764,-122.2124208,,32.483166,0.1,291.07812,1595626662430
Fix,GT,37.4889758,-122.2127629,,31.921488,0.1,291.739,1595626663430
Fix,GT,37.4890772,-122.2130983,,31.588097,0.1,292.4486,1595626664430
Fix,GT,37.4891815,-122.2134301,,31.53183,0.1,293.2981,1595626665430
Fix,GT,37.4892895,-122.2137599,,31.540152,0.1,294.15375,1595626666430
Fix,GT,37.4894008,-122.2140882,,31.552055,0.1,294.6641,1595626667430
