MessageType,Provider,LatitudeDegrees,LongitudeDegrees,AltitudeMeters,SpeedMps,AccuracyMeters,BearingDegrees,UnixTimeMillis
Fix,GT,37.4274159,-122.0699227,,0.00079582806,0.1,358.47232,1596490332437
Fix,GT,37.4274159,-122.0699227,,0.0,0.1,358.4724,1596490333437
Fix,GT,37.4274159,-122.0699227,,0.0,0.1,358.47226,1596490334437
Fix,GT,37.4274159,-122.0699227,,0.0,0.1,358.47195,1596490335437
Fix,GT,37.4274159,-122.0699227,,0.00043726465,0.1,358.47147,1596490336437
Fix,GT,37.4274159,-122.0699227,,0.0037158953,0.1,358.47253,1596490337437
Fix,GT,37.4274159,-122.0699227,,0.004495207,0.1,358.47314,1596490338437
Fix,GT,37.4274159,-122.0699227,,0.001,0.1,358.4714,1596490339437
Fix,GT,37.4274159,-122.0699227,,0.001,0.1,358.4708,1596490340437
Fix,GT,37.4274159,-122.0699227,,0.001181121,0.1,358.47052,1596490341437
Fix,GT,37.4274159,-122.0699227,,0.0014142136,0.1,358.47034,1596490342437
Fix,GT,37.4274159,-122.0699227,,0.0012330926,0.1,358.4703,1596490343437
Fix,GT,37.4274159,-122.0699227,,0.001,0.1,358.47073,1596490344437
Fix,GT,37.4274159,-122.0699227,,0.0005627354,0.1,358.47107,1596490345437
Fix,GT,37.4274159,-122.0699227,,0.00043726468,0.1,358.47083,1596490346437
Fix,GT,37.4274159,-122.0699227,,0.0015404889,0.1,358.4706,1596490347437
Fix,GT,37.4274159,-122.0699227,,0.002236068,0.1,358.47043,1596490348437
Fix,GT,37.4274159,-122.0699227,,0.0016955792,0.1,358.47043,1596490349437
Fix,GT,37.4274159,-122.0699227,,0.001,0.1,358.47055,1596490350437
Fix,GT,37.4274159,-122.0699227,,0.00056273537,0.1,358.47055,1596490351437
Fix,GT,37.4274159,-122.0699227,,0.00043726468,0.1,358.47064,1596490352437
Fix,GT,37.4274159,-122.0699227,,0.0014372647,0.1,358.47055,1596490353437
Fix,GT,37.4274159,-122.0699227,,0.0015627354,0.1,358.47034,1596490354437
Fix,GT,37.4274159,-122.0699227,,0.001,0.1,358.4703,1596490355437
Fix,GT,37.4274159,-122.0699227,,0.001181121,0.1,358.4705,1596490356437
Fix,GT,37.4274159,-122.0699227,,0.0012330926,0.1,358.4706,1596490357437
Fix,GT,37.4274159,-122.0699227,,0.00056273537,0.1,358.4706,1596490358437
Fix,GT,37.4274159,-122.0699227,,0.00043726468,0.1,358.4707,1596490359437
Fix,GT,37.4274159,-122.0699227,,0.001181121,0.1,358.4709,1596490360437
Fix,GT,37.4274159,-122.0699227,,0.0016703573,0.1,358.47092,1596490361437
Fix,GT,37.4274159,-122.0699227,,0.0015627354,0.1,358.47067,1596490362437
Fix,GT,37.4274159,-122.0699227,,0.00056273537,0.1,358.47046,1596490363437
Fix,GT,37.4274159,-122.0699227,,0.00043726468,0.1,358.47043,1596490364437
Fix,GT,37.4274159,-122.0699227,,0.001,0.1,358.47046,1596490365437
Fix,GT,37.4274159,-122.0699227,,0.001181121,0.1,358.4705,1596490366437
Fix,GT,37.4274159,-122.0699227,,0.0012330926,0.1,358.47046,1596490367437
Fix,GT,37.4274159,-122.0699227,,0.0015404889,0.1,358.47107,1596490368437
Fix,GT,37.4274159,-122.0699227,,0.0012583145,0.1,358.47147,1596490369437
Fix,GT,37.4274159,-122.0699227,,0.0004372647,0.1,358.47083,1596490370437
Fix,GT,37.4274159,-122.0699227,,0.0014372647,0.1,358.47076,1596490371437
Fix,GT,37.4274159,-122.0699227,,0.0017438564,0.1,358.47098,1596490372437
Fix,GT,37.4274159,-122.0699227,,0.0016703573,0.1,358.47092,1596490373437
Fix,GT,37.4274159,-122.0699227,,0.0021032244,0.1,358.47073,1596490374437
Fix,GT,37.4274159,-122.0699227,,0.002236068,0.1,358.4707,1596490375437
Fix,GT,37.4274159,-122.0699227,,0.0018767001,0.1,358.47064,1596490376437
Fix,GT,37.4274159,-122.0699227,,0.0012330926,0.1,358.47046,1596490377437
Fix,GT,37.4274159,-122.0699227,,0.00056273537,0.1,358.47028,1596490378437
Fix,GT,37.4274159,-122.0699227,,0.0004372647,0.1,358.47018,1596490379437
Fix,GT,37.4274159,-122.0699227,,0.001181121,0.1,358.47025,1596490380437
Fix,GT,37.4274159,-122.0699227,,0.0012330926,0.1,358.47037,1596490381437
Fix,GT,37.4274159,-122.0699227,,0.0010000002,0.1,358.47028,1596490382437
Fix,GT,37.4274159,-122.0699227,,0.00056273537,0.1,358.4703,1596490383437
Fix,GT,37.4274159,-122.0699227,,0.0,0.1,358.4702,1596490384437
Fix,GT,37.4274159,-122.0699227,,0.0006183857,0.1,358.47034,1596490385437
Fix,GT,37.4274159,-122.0699227,,0.0012330927,0.1,358.47058,1596490386437
Fix,GT,37.4274159,-122.0699227,,0.00056273537,0.1,358.47058,1596490387437
Fix,GT,37.4274159,-122.0699227,,0.0006183857,0.1,358.47052,1596490388437
Fix,GT,37.4274159,-122.0699227,,0.0017735816,0.1,358.4704,1596490389437
Fix,GT,37.4274159,-122.0699227,,0.003061203,0.1,358.4704,1596490390437
Fix,GT,37.4274159,-122.0699227,,0.0038967975,0.1,358.46985,1596490391437
Fix,GT,37.4274159,-122.0699227,,0.0046525593,0.1,358.46838,1596490392437
Fix,GT,37.4274175,-122.0699229,,0.36600837,0.1,357.8327,1596490393437
Fix,GT,37.4274245,-122.0699239,,1.306413,0.1,356.61768,1596490394437
Fix,GT,37.4274414,-122.0699253,,2.5557218,0.1,356.57626,1596490395437
Fix,GT,37.4274712,-122.0699268,,4.070875,0.1,357.4067,1596490396437
Fix,GT,37.4275152,-122.069929,,5.641473,0.1,357.7393,1596490397437
Fix,GT,37.4275725,-122.069932,,6.9692636,0.1,357.6087,1596490398437
Fix,GT,37.4276395,-122.0699359,,7.897765,0.1,357.43527,1596490399437
Fix,GT,37.4277131,-122.0699385,,8.391832,0.1,358.87347,1596490400437
Fix,GT,37.427789,-122.0699381,,8.380447,0.1,0.77108765,1596490401437
Fix,GT,37.4278641,-122.069937,,8.304995,0.1,0.68322754,1596490402437
Fix,GT,37.4279391,-122.0699371,,8.338269,0.1,359.95926,1596490403437
Fix,GT,37.428014,-122.0699381,,8.2219925,0.1,359.56995,1596490404437
Fix,GT,37.4280865,-122.0699385,,7.847991,0.1,0.29110718,1596490405437
Fix,GT,37.4281543,-122.0699374,,7.155149,0.1,1.3161621,1596490406437
Fix,GT,37.428215,-122.0699383,,6.2770624,0.1,358.32532,1596490407437
Fix,GT,37.4282666,-122.0699523,,5.4964,0.1,344.54715,1596490408437
Fix,GT,37.4283043,-122.0699879,,5.1095963,0.1,320.01907,1596490409437
Fix,GT,37.4283235,-122.0700398,,5.154213,0.1,294.33594,1596490410437
Fix,GT,37.4283293,-122.070101,,5.838414,0.1,277.95688,1596490411437
Fix,GT,37.4283307,-122.070173,,6.857785,0.1,272.21298,1596490412437
Fix,GT,37.42833,-122.0702546,,7.4919224,0.1,269.85748,1596490413437
Fix,GT,37.4283281,-122.0703403,,7.70071,0.1,268.91086,1596490414437
Fix,GT,37.4283264,-122.0704274,,7.719126,0.1,269.37924,1596490415437
Fix,GT,37.4283262,-122.0705124,,7.21064,0.1,270.5812,1596490416437
Fix,GT,37.4283274,-122.070587,,5.911993,0.1,271.81604,1596490417437
Fix,GT,37.4283289,-122.0706471,,4.8142986,0.1,272.22937,1596490418437
Fix,GT,37.4283299,-122.0707004,,4.7589407,0.1,271.7425,1596490419437
Fix,GT,37.4283306,-122.0707575,,5.5285206,0.1,270.95853,1596490420437
Fix,GT,37.4283304,-122.0708274,,6.827775,0.1,269.81146,1596490421437
Fix,GT,37.428329,-122.0709106,,7.892009,0.1,268.88214,1596490422437
Fix,GT,37.4283273,-122.0710032,,8.407055,0.1,268.72913,1596490423437
Fix,GT,37.4283255,-122.0710983,,8.296388,0.1,268.83234,1596490424437
Fix,GT,37.4283244,-122.0711882,,7.4907618,0.1,269.42694,1596490425437
Fix,GT,37.4283247,-122.0712652,,6.2032914,0.1,270.63174,1596490426437
Fix,GT,37.4283257,-122.0713287,,5.304493,0.1,271.52127,1596490427437
Fix,GT,37.428327,-122.0713885,,5.4096193,0.1,271.7781,1596490428437
Fix,GT,37.4283288,-122.0714549,,6.455881,0.1,272.0212,1596490429437
Fix,GT,37.4283308,-122.0715351,,7.729455,0.1,271.73,1596490430437
Fix,GT,37.4283321,-122.071629,,8.849592,0.1,270.81805,1596490431437
Fix,GT,37.4283321,-122.0717341,,9.641865,0.1,269.79495,1596490432437
Fix,GT,37.4283308,-122.0718451,,9.928299,0.1,268.96106,1596490433437
Fix,GT,37.4283284,-122.071957,,9.835491,0.1,268.55743,1596490434437
Fix,GT,37.4283264,-122.0720667,,9.53933,0.1,268.98596,1596490435437
Fix,GT,37.4283253,-122.072172,,9.082566,0.1,269.35748,1596490436437
Fix,GT,37.4283231,-122.0722718,,8.552657,0.1,267.78223,1596490437437
Fix,GT,37.4283167,-122.072365,,7.911379,0.1,263.67337,1596490438437
Fix,GT,37.4283047,-122.0724466,,6.649565,0.1,257.71582,1596490439437
Fix,GT,37.4282904,-122.0725084,,4.669594,0.1,252.94696,1596490440437
Fix,GT,37.4282804,-122.0725508,,3.2771146,0.1,254.24094,1596490441437
Fix,GT,37.4282787,-122.072587,,3.4214053,0.1,265.46298,1596490442437
Fix,GT,37.4282897,-122.0726285,,4.5898185,0.1,285.06396,1596490443437
Fix,GT,37.4283131,-122.0726822,,6.366767,0.1,297.60995,1596490444437
Fix,GT,37.4283429,-122.0727556,,8.126858,0.1,295.98547,1596490445437
Fix,GT,37.4283692,-122.07285,,9.352076,0.1,286.54462,1596490446437
Fix,GT,37.4283796,-122.0729565,,9.595279,0.1,273.39752,1596490447437
Fix,GT,37.4283763,-122.0730629,,9.398717,0.1,266.9748,1596490448437
Fix,GT,37.4283721,-122.0731714,,9.970675,0.1,267.77362,1596490449437
Fix,GT,37.4283697,-122.0732907,,11.179844,0.1,269.22473,1596490450437
Fix,GT,37.42837,-122.0734231,,12.239821,0.1,270.9956,1596490451437
Fix,GT,37.4283725,-122.0735666,,13.131,0.1,271.3749,1596490452437
Fix,GT,37.4283745,-122.0737197,,13.988487,0.1,270.9368,1596490453437
Fix,GT,37.428376,-122.073882,,14.720638,0.1,270.91888,1596490454437
Fix,GT,37.4283775,-122.0740517,,15.280125,0.1,270.79318,1596490455437
Fix,GT,37.4283782,-122.0742267,,15.662079,0.1,270.29053,1596490456437
Fix,GT,37.4283783,-122.074405,,15.857441,0.1,270.25708,1596490457437
Fix,GT,37.4283788,-122.0745847,,15.96599,0.1,270.48813,1596490458437
Fix,GT,37.4283796,-122.0747658,,16.112755,0.1,270.5043,1596490459437
Fix,GT,37.42838,-122.0749488,,16.30358,0.1,270.25723,1596490460437
Fix,GT,37.4283798,-122.0751342,,16.527342,0.1,269.9908,1596490461437
Fix,GT,37.4283791,-122.0753219,,16.678112,0.1,269.9734,1596490462437
Fix,GT,37.4283788,-122.0755103,,16.647518,0.1,270.1801,1596490463437
Fix,GT,37.4283791,-122.0756976,,16.488598,0.1,270.4724,1596490464437
Fix,GT,37.4283798,-122.0758815,,16.036327,0.1,270.4196,1596490465437
Fix,GT,37.4283797,-122.0760593,,15.456716,0.1,269.99652,1596490466437
Fix,GT,37.4283774,-122.076232,,15.117441,0.1,268.5172,1596490467437
Fix,GT,37.428369,-122.0764004,,14.788336,0.1,265.05008,1596490468437
Fix,GT,37.4283511,-122.0765646,,14.579039,0.1,260.74744,1596490469437
Fix,GT,37.4283237,-122.0767256,,14.57181,0.1,256.51892,1596490470437
Fix,GT,37.4282876,-122.0768839,,14.55949,0.1,252.86243,1596490471437
Fix,GT,37.4282459,-122.0770391,,14.402487,0.1,251.15622,1596490472437
Fix,GT,37.4282057,-122.0771921,,14.114907,0.1,252.76709,1596490473437
Fix,GT,37.428172,-122.0773431,,13.592296,0.1,255.83627,1596490474437
Fix,GT,37.4281471,-122.0774871,,12.377462,0.1,259.42926,1596490475437
Fix,GT,37.428132,-122.0776161,,10.685385,0.1,263.4502,1596490476437
Fix,GT,37.4281252,-122.0777259,,8.790393,0.1,266.88873,1596490477437
Fix,GT,37.4281233,-122.0778131,,6.7047834,0.1,269.22968,1596490478437
Fix,GT,37.4281232,-122.0778781,,4.868791,0.1,270.2989,1596490479437
Fix,GT,37.4281235,-122.077923,,3.1001377,0.1,270.49924,1596490480437
Fix,GT,37.4281236,-122.0779487,,1.5312145,0.1,270.39532,1596490481437
Fix,GT,37.4281236,-122.0779602,,0.61864763,0.1,270.31665,1596490482437
Fix,GT,37.4281236,-122.077964,,0.17066719,0.1,270.25836,1596490483437
Fix,GT,37.4281237,-122.0779646,,0.00674965,0.1,270.24512,1596490484437
Fix,GT,37.4281237,-122.0779647,,0.0015627344,0.1,270.2442,1596490485437
Fix,GT,37.4281237,-122.0779647,,0.0027490628,0.1,270.24323,1596490486437
Fix,GT,37.4281237,-122.0779646,,0.006523994,0.1,270.24353,1596490487437
Fix,GT,37.4281236,-122.0779646,,0.011333944,0.1,270.2438,1596490488437
Fix,GT,37.4281236,-122.0779646,,0.01826734,0.1,270.24387,1596490489437
Fix,GT,37.4281235,-122.0779645,,0.025771137,0.1,270.24365,1596490490437
Fix,GT,37.4281235,-122.0779643,,0.03430534,0.1,270.24353,1596490491437
Fix,GT,37.4281233,-122.0779641,,0.04471123,0.1,270.2437,1596490492437
Fix,GT,37.4281231,-122.0779647,,0.30214477,0.1,270.20352,1596490493437
Fix,GT,37.4281227,-122.0779729,,1.3228935,0.1,269.72113,1596490494437
Fix,GT,37.4281205,-122.0779966,,2.9047213,0.1,266.6518,1596490495437
Fix,GT,37.4281125,-122.0780371,,4.3914127,0.1,257.78738,1596490496437
Fix,GT,37.4280908,-122.0780875,,5.6345882,0.1,241.95924,1596490497437
Fix,GT,37.428051,-122.078136,,6.689883,0.1,222.69803,1596490498437
Fix,GT,37.4279933,-122.0781721,,7.699197,0.1,204.37383,1596490499437
Fix,GT,37.4279212,-122.0781921,,8.813885,0.1,190.5967,1596490500437
Fix,GT,37.4278362,-122.0781997,,10.125411,0.1,183.45354,1596490501437
Fix,GT,37.4277389,-122.0781996,,11.440838,0.1,179.85555,1596490502437
Fix,GT,37.4276299,-122.0781949,,12.691153,0.1,178.06555,1596490503437
Fix,GT,37.4275109,-122.0781852,,13.732963,0.1,176.06726,1596490504437
Fix,GT,37.4273839,-122.0781702,,14.545547,0.1,174.55365,1596490505437
Fix,GT,37.4272506,-122.0781516,,15.22383,0.1,173.76141,1596490506437
Fix,GT,37.4271115,-122.0781311,,15.86183,0.1,173.7378,1596490507437
Fix,GT,37.4269669,-122.0781126,,16.40765,0.1,174.94348,1596490508437
Fix,GT,37.4268176,-122.0780991,,16.822628,0.1,176.68079,1596490509437
Fix,GT,37.4266648,-122.0780898,,17.130413,0.1,177.91321,1596490510437
Fix,GT,37.4265093,-122.0780839,,17.392189,0.1,178.82703,1596490511437
Fix,GT,37.4263518,-122.0780812,,17.57066,0.1,179.96155,1596490512437
Fix,GT,37.4261936,-122.0780831,,17.530327,0.1,181.41055,1596490513437
Fix,GT,37.4260366,-122.0780899,,17.345022,0.1,182.70293,1596490514437
Fix,GT,37.4258812,-122.0781003,,17.192766,0.1,183.68983,1596490515437
Fix,GT,37.4257274,-122.0781132,,17.048676,0.1,184.23537,1596490516437
Fix,GT,37.4255756,-122.0781263,,16.603586,0.1,183.92308,1596490517437
Fix,GT,37.4254309,-122.0781369,,15.402729,0.1,183.15494,1596490518437
Fix,GT,37.4253009,-122.0781444,,13.434887,0.1,182.53891,1596490519437
Fix,GT,37.4251902,-122.0781493,,11.102211,0.1,182.04774,1596490520437
Fix,GT,37.4251009,-122.0781525,,8.745679,0.1,181.70215,1596490521437
Fix,GT,37.4250326,-122.0781544,,6.409404,0.1,181.31094,1596490522437
Fix,GT,37.4249848,-122.078155,,4.2771306,0.1,180.6756,1596490523437
Fix,GT,37.4249544,-122.0781549,,2.5504637,0.1,180.19342,1596490524437
Fix,GT,37.4249376,-122.0781548,,1.2704092,0.1,180.05875,1596490525437
Fix,GT,37.42493,-122.0781547,,0.58301985,0.1,179.80615,1596490526437
Fix,GT,37.4249248,-122.0781546,,0.802389,0.1,179.5293,1596490527437
Fix,GT,37.424912,-122.0781541,,2.1740205,0.1,179.1687,1596490528437
Fix,GT,37.4248832,-122.0781531,,4.2230215,0.1,178.72693,1596490529437
Fix,GT,37.4248355,-122.078151,,6.369342,0.1,178.30652,1596490530437
Fix,GT,37.4247681,-122.0781477,,8.589634,0.1,178.07153,1596490531437
Fix,GT,37.4246825,-122.0781436,,10.367859,0.1,177.97717,1596490532437
Fix,GT,37.4245829,-122.0781384,,11.731927,0.1,177.73022,1596490533437
Fix,GT,37.4244716,-122.0781315,,12.9071245,0.1,177.13708,1596490534437
Fix,GT,37.4243514,-122.0781227,,13.628461,0.1,176.58466,1596490535437
Fix,GT,37.4242283,-122.0781126,,13.648893,0.1,176.344,1596490536437
Fix,GT,37.4241074,-122.0781023,,13.251335,0.1,176.12646,1596490537437
Fix,GT,37.423991,-122.0780926,,12.612635,0.1,176.44836,1596490538437
Fix,GT,37.4238813,-122.078085,,11.701008,0.1,177.23138,1596490539437
Fix,GT,37.4237818,-122.0780796,,10.365969,0.1,177.53033,1596490540437
Fix,GT,37.4236952,-122.0780752,,8.864783,0.1,177.50311,1596490541437
Fix,GT,37.4236222,-122.0780721,,7.384145,0.1,178.2132,1596490542437
Fix,GT,37.4235634,-122.0780732,,5.7915745,0.1,181.85681,1596490543437
Fix,GT,37.4235169,-122.0780834,,4.956419,0.1,191.39981,1596490544437
Fix,GT,37.4234761,-122.0781111,,5.605133,0.1,209.25163,1596490545437
Fix,GT,37.4234419,-122.0781656,,6.996323,0.1,233.74863,1596490546437
Fix,GT,37.4234209,-122.0782464,,8.411407,0.1,254.60272,1596490547437
Fix,GT,37.4234114,-122.0783481,,9.872593,0.1,264.56442,1596490548437
Fix,GT,37.4234062,-122.078468,,11.387342,0.1,267.24585,1596490549437
Fix,GT,37.4234005,-122.0786046,,12.824547,0.1,267.09036,1596490550437
Fix,GT,37.4233938,-122.0787559,,13.949661,0.1,266.90985,1596490551437
Fix,GT,37.4233864,-122.0789181,,14.834879,0.1,266.87222,1596490552437
Fix,GT,37.423379,-122.0790902,,15.706853,0.1,267.04654,1596490553437
Fix,GT,37.4233717,-122.0792721,,16.529068,0.1,267.2628,1596490554437
Fix,GT,37.4233634,-122.0794623,,17.21793,0.1,266.90744,1596490555437
Fix,GT,37.4233532,-122.0796599,,17.83453,0.1,266.1742,1596490556437
Fix,GT,37.4233405,-122.0798633,,18.261597,0.1,265.41467,1596490557437
Fix,GT,37.4233255,-122.0800702,,18.510605,0.1,264.7492,1596490558437
Fix,GT,37.4233085,-122.08028,,18.838913,0.1,264.1048,1596490559437
Fix,GT,37.4232893,-122.080494,,19.273193,0.1,263.67648,1596490560437
Fix,GT,37.4232696,-122.080713,,19.753479,0.1,263.792,1596490561437
Fix,GT,37.4232502,-122.0809369,,20.113356,0.1,264.04813,1596490562437
Fix,GT,37.4232306,-122.0811641,,20.344078,0.1,264.02914,1596490563437
Fix,GT,37.4232102,-122.0813937,,20.566505,0.1,263.67728,1596490564437
Fix,GT,37.4231884,-122.0816255,,20.720842,0.1,263.37988,1596490565437
Fix,GT,37.4231665,-122.0818576,,20.620407,0.1,263.6162,1596490566437
Fix,GT,37.423146,-122.0820885,,20.524597,0.1,264.04013,1596490567437
Fix,GT,37.4231274,-122.0823191,,20.525034,0.1,264.8192,1596490568437
Fix,GT,37.4231121,-122.0825505,,20.616146,0.1,265.9973,1596490569437
Fix,GT,37.4231007,-122.0827845,,20.894226,0.1,267.31244,1596490570437
Fix,GT,37.4230938,-122.0830215,,21.08889,0.1,268.68097,1596490571437
Fix,GT,37.4230909,-122.0832606,,21.220623,0.1,269.83997,1596490572437
Fix,GT,37.4230921,-122.0835007,,21.32151,0.1,271.0614,1596490573437
Fix,GT,37.4230976,-122.0837418,,21.374498,0.1,272.4815,1596490574437
Fix,GT,37.4231083,-122.083983,,21.400032,0.1,274.0423,1596490575437
Fix,GT,37.423124,-122.084224,,21.40417,0.1,275.4836,1596490576437
Fix,GT,37.4231443,-122.0844644,,21.368202,0.1,276.82385,1596490577437
Fix,GT,37.4231692,-122.0847031,,21.244947,0.1,278.24622,1596490578437
Fix,GT,37.4231983,-122.0849392,,21.06408,0.1,279.58414,1596490579437
Fix,GT,37.4232314,-122.0851723,,20.856823,0.1,280.80594,1596490580437
Fix,GT,37.4232677,-122.0854019,,20.581276,0.1,281.9018,1596490581437
Fix,GT,37.4233065,-122.0856267,,20.13097,0.1,282.7947,1596490582437
Fix,GT,37.4233465,-122.0858455,,19.645317,0.1,283.2733,1596490583437
Fix,GT,37.4233867,-122.0860602,,19.499979,0.1,283.44833,1596490584437
Fix,GT,37.4234275,-122.0862755,,19.709394,0.1,283.63452,1596490585437
Fix,GT,37.4234695,-122.0864931,,19.937737,0.1,283.89178,1596490586437
Fix,GT,37.4235124,-122.0867132,,20.170137,0.1,283.94855,1596490587437
Fix,GT,37.4235556,-122.0869361,,20.43282,0.1,283.80283,1596490588437
Fix,GT,37.4235995,-122.0871617,,20.678658,0.1,284.01575,1596490589437
Fix,GT,37.4236449,-122.0873896,,20.915049,0.1,284.32788,1596490590437
Fix,GT,37.4236909,-122.0876202,,21.143463,0.1,283.95966,1596490591437
Fix,GT,37.4237357,-122.0878535,,21.321407,0.1,283.3655,1596490592437
Fix,GT,37.423779,-122.0880885,,21.356583,0.1,283.1655,1596490593437
Fix,GT,37.4238218,-122.088323,,21.179474,0.1,283.06015,1596490594437
Fix,GT,37.4238637,-122.0885547,,20.864212,0.1,282.95898,1596490595437
Fix,GT,37.4239029,-122.0887823,,20.275684,0.1,281.67578,1596490596437
Fix,GT,37.423934,-122.0890016,,19.047596,0.1,278.68903,1596490597437
Fix,GT,37.4239522,-122.0892057,,17.23979,0.1,274.53067,1596490598437
Fix,GT,37.4239567,-122.0893881,,15.025646,0.1,269.96094,1596490599437
Fix,GT,37.4239509,-122.0895434,,12.471436,0.1,265.57526,1596490600437
Fix,GT,37.4239373,-122.0896687,,9.900209,0.1,260.31033,1596490601437
Fix,GT,37.4239195,-122.0897635,,7.349601,0.1,255.43137,1596490602437
Fix,GT,37.4239035,-122.089829,,4.8256583,0.1,252.952,1596490603437
Fix,GT,37.4238927,-122.089869,,2.7585988,0.1,251.74484,1596490604437
Fix,GT,37.4238865,-122.0898908,,1.4314908,0.1,251.23257,1596490605437
Fix,GT,37.4238835,-122.0899007,,0.5256779,0.1,251.00275,1596490606437
Fix,GT,37.4238826,-122.0899035,,0.057736546,0.1,250.93608,1596490607437
Fix,GT,37.4238824,-122.0899038,,0.0408597,0.1,250.92653,1596490608437
Fix,GT,37.4238822,-122.0899042,,0.042133264,0.1,250.9131,1596490609437
Fix,GT,37.423882,-122.0899045,,0.03701877,0.1,250.90033,1596490610437
Fix,GT,37.4238817,-122.0899054,,0.19442108,0.1,250.87529,1596490611437
Fix,GT,37.4238801,-122.0899115,,1.1602466,0.1,250.84299,1596490612437
Fix,GT,37.4238738,-122.0899337,,3.162088,0.1,250.83264,1596490613437
Fix,GT,37.4238609,-122.0899788,,5.35334,0.1,250.56104,1596490614437
Fix,GT,37.423841,-122.0900462,,7.391864,0.1,249.97432,1596490615437
Fix,GT,37.4238143,-122.0901353,,9.333544,0.1,249.4739,1596490616437
Fix,GT,37.4237812,-122.0902428,,10.990683,0.1,248.97458,1596490617437
Fix,GT,37.4237423,-122.090366,,12.452417,0.1,248.44128,1596490618437
Fix,GT,37.4236978,-122.0905026,,13.626538,0.1,247.49347,1596490619437
Fix,GT,37.423646,-122.090648,,14.500848,0.1,245.09476,1596490620437
Fix,GT,37.4235839,-122.0907963,,15.103508,0.1,240.56805,1596490621437
Fix,GT,37.4235094,-122.0909421,,15.541048,0.1,235.58047,1596490622437
Fix,GT,37.423424,-122.091083,,15.791524,0.1,231.23444,1596490623437
Fix,GT,37.4233291,-122.0912165,,15.8197155,0.1,226.40103,1596490624437
Fix,GT,37.4232262,-122.0913391,,15.665262,0.1,221.71178,1596490625437
Fix,GT,37.4231187,-122.0914501,,15.205025,0.1,218.27596,1596490626437
Fix,GT,37.4230128,-122.0915534,,14.609341,0.1,218.79477,1596490627437
Fix,GT,37.4229156,-122.0916603,,14.187226,0.1,224.12048,1596490628437
Fix,GT,37.4228321,-122.0917795,,14.136238,0.1,232.16354,1596490629437
Fix,GT,37.4227624,-122.0919154,,14.68084,0.1,240.28438,1596490630437
Fix,GT,37.4227017,-122.0920683,,15.645302,0.1,245.14027,1596490631437
Fix,GT,37.4226418,-122.0922345,,16.582396,0.1,245.95883,1596490632437
Fix,GT,37.4225793,-122.0924093,,17.239017,0.1,245.95454,1596490633437
Fix,GT,37.4225152,-122.092589,,17.522049,0.1,246.17181,1596490634437
Fix,GT,37.4224525,-122.0927704,,17.418852,0.1,247.28116,1596490635437
Fix,GT,37.4223946,-122.0929527,,17.281122,0.1,249.33948,1596490636437
Fix,GT,37.4223445,-122.0931368,,17.115587,0.1,253.15872,1596490637437
Fix,GT,37.4223101,-122.093323,,16.836098,0.1,260.62555,1596490638437
Fix,GT,37.4223007,-122.0935111,,16.783934,0.1,271.01056,1596490639437
Fix,GT,37.4223213,-122.0936987,,17.102077,0.1,283.22705,1596490640437
Fix,GT,37.4223749,-122.0938809,,17.681965,0.1,295.36,1596490641437
Fix,GT,37.4224576,-122.0940567,,18.73962,0.1,304.08966,1596490642437
Fix,GT,37.4225621,-122.0942328,,20.255085,0.1,308.42914,1596490643437
Fix,GT,37.4226823,-122.0944172,,21.91401,0.1,309.875,1596490644437
Fix,GT,37.4228143,-122.0946138,,23.571812,0.1,310.55664,1596490645437
Fix,GT,37.4229567,-122.094822,,24.9333,0.1,311.02548,1596490646437
Fix,GT,37.423107,-122.0950376,,25.630402,0.1,311.6463,1596490647437
Fix,GT,37.423261,-122.0952545,,25.73413,0.1,311.9737,1596490648437
Fix,GT,37.4234159,-122.0954716,,25.924082,0.1,311.8642,1596490649437
Fix,GT,37.4235725,-122.0956924,,26.377686,0.1,311.73672,1596490650437
Fix,GT,37.4237312,-122.0959164,,26.6321,0.1,311.8248,1596490651437
Fix,GT,37.4238918,-122.0961402,,26.623817,0.1,312.45102,1596490652437
Fix,GT,37.4240539,-122.0963604,,26.432053,0.1,313.23907,1596490653437
Fix,GT,37.4242168,-122.0965782,,26.515324,0.1,313.4129,1596490654437
Fix,GT,37.424382,-122.096798,,27.01513,0.1,313.47266,1596490655437
Fix,GT,37.4245514,-122.0970209,,27.481684,0.1,314.0983,1596490656437
Fix,GT,37.4247254,-122.0972439,,27.76627,0.1,314.8384,1596490657437
Fix,GT,37.4249026,-122.0974671,,27.987146,0.1,315.11188,1596490658437
Fix,GT,37.4250816,-122.0976906,,28.10331,0.1,315.52103,1596490659437
Fix,GT,37.4252629,-122.0979132,,28.234764,0.1,316.0454,1596490660437
Fix,GT,37.4254467,-122.0981341,,28.320974,0.1,316.62393,1596490661437
Fix,GT,37.4256333,-122.098353,,28.414131,0.1,317.47055,1596490662437
Fix,GT,37.4258234,-122.0985678,,28.367193,0.1,318.73413,1596490663437
Fix,GT,37.426016,-122.0987775,,28.259804,0.1,319.67822,1596490664437
Fix,GT,37.42621,-122.0989827,,28.074068,0.1,320.30743,1596490665437
Fix,GT,37.4264038,-122.0991841,,27.795448,0.1,320.67908,1596490666437
Fix,GT,37.4265966,-122.0993823,,27.530666,0.1,320.89804,1596490667437
Fix,GT,37.4267879,-122.099578,,27.263363,0.1,321.0502,1596490668437
Fix,GT,37.4269767,-122.0997724,,26.961288,0.1,320.4978,1596490669437
Fix,GT,37.4271618,-122.0999674,,26.70369,0.1,319.83316,1596490670437
Fix,GT,37.4273443,-122.1001619,,26.447058,0.1,319.826,1596490671437
Fix,GT,37.4275252,-122.1003541,,26.236649,0.1,319.8827,1596490672437
Fix,GT,37.4277058,-122.1005463,,26.436352,0.1,319.70374,1596490673437
Fix,GT,37.4278881,-122.1007421,,26.891148,0.1,319.49335,1596490674437
Fix,GT,37.4280732,-122.1009413,,27.212498,0.1,319.61646,1596490675437
Fix,GT,37.4282606,-122.101141,,27.34665,0.1,320.0644,1596490676437
Fix,GT,37.4284493,-122.1013394,,27.280075,0.1,320.3269,1596490677437
Fix,GT,37.4286376,-122.1015365,,27.194218,0.1,320.3436,1596490678437
Fix,GT,37.4288256,-122.1017334,,27.208853,0.1,320.3108,1596490679437
Fix,GT,37.4290141,-122.1019308,,27.316467,0.1,320.2932,1596490680437
Fix,GT,37.4292035,-122.1021294,,27.508495,0.1,320.26816,1596490681437
Fix,GT,37.4293938,-122.1023289,,27.535347,0.1,320.30884,1596490682437
Fix,GT,37.4295837,-122.1025273,,27.298244,0.1,320.39075,1596490683437
Fix,GT,37.4297719,-122.1027239,,27.057158,0.1,320.3589,1596490684437
Fix,GT,37.4299586,-122.102919,,26.918186,0.1,320.36078,1596490685437
Fix,GT,37.4301445,-122.1031134,,26.822666,0.1,320.33966,1596490686437
Fix,GT,37.4303296,-122.1033074,,26.713524,0.1,320.17517,1596490687437
Fix,GT,37.4305133,-122.1035013,,26.571838,0.1,320.0583,1596490688437
Fix,GT,37.4306961,-122.1036944,,26.468378,0.1,320.0675,1596490689437
Fix,GT,37.4308786,-122.1038869,,26.48869,0.1,320.13583,1596490690437
Fix,GT,37.4310617,-122.1040794,,26.55754,0.1,320.2364,1596490691437
Fix,GT,37.431245,-122.1042722,,26.511618,0.1,320.14606,1596490692437
Fix,GT,37.431427,-122.1044643,,26.281645,0.1,320.0087,1596490693437
Fix,GT,37.4316073,-122.1046549,,26.102852,0.1,320.04794,1596490694437
Fix,GT,37.4317872,-122.1048449,,26.099316,0.1,320.08685,1596490695437
Fix,GT,37.4319675,-122.1050351,,26.216602,0.1,320.11816,1596490696437
Fix,GT,37.432149,-122.1052263,,26.418192,0.1,320.16324,1596490697437
Fix,GT,37.4323323,-122.1054187,,26.657166,0.1,320.30298,1596490698437
Fix,GT,37.4325177,-122.1056126,,26.93789,0.1,320.3233,1596490699437
Fix,GT,37.4327051,-122.1058088,,27.249283,0.1,320.29178,1596490700437
Fix,GT,37.4328944,-122.1060072,,27.472782,0.1,320.26938,1596490701437
Fix,GT,37.4330844,-122.1062064,,27.45792,0.1,320.25223,1596490702437
Fix,GT,37.4332735,-122.1064048,,27.276707,0.1,320.2067,1596490703437
Fix,GT,37.4334613,-122.1066027,,27.219082,0.1,320.02325,1596490704437
Fix,GT,37.4336486,-122.1068018,,27.303555,0.1,319.81378,1596490705437
Fix,GT,37.4338363,-122.1070018,,27.357216,0.1,319.88278,1596490706437
Fix,GT,37.4340248,-122.107201,,27.348509,0.1,320.18518,1596490707437
Fix,GT,37.4342138,-122.1073992,,27.33151,0.1,320.29123,1596490708437
Fix,GT,37.4344029,-122.1075969,,27.307997,0.1,320.37152,1596490709437
Fix,GT,37.4345922,-122.107794,,27.311504,0.1,320.5283,1596490710437
Fix,GT,37.4347818,-122.1079903,,27.280111,0.1,320.6416,1596490711437
Fix,GT,37.4349711,-122.1081864,,27.214905,0.1,320.58478,1596490712437
Fix,GT,37.4351598,-122.1083824,,27.172398,0.1,320.4255,1596490713437
Fix,GT,37.4353477,-122.108579,,27.180416,0.1,320.2959,1596490714437
Fix,GT,37.4355359,-122.108776,,27.237398,0.1,320.34445,1596490715437
Fix,GT,37.4357248,-122.1089732,,27.298367,0.1,320.38977,1596490716437
Fix,GT,37.4359138,-122.109171,,27.358147,0.1,320.24734,1596490717437
Fix,GT,37.436103,-122.1093697,,27.400545,0.1,320.14862,1596490718437
Fix,GT,37.436292,-122.1095688,,27.389793,0.1,320.13397,1596490719437
Fix,GT,37.4364806,-122.1097674,,27.262253,0.1,320.1568,1596490720437
Fix,GT,37.4366682,-122.1099648,,27.123104,0.1,320.2425,1596490721437
Fix,GT,37.4368558,-122.1101612,,27.09766,0.1,320.36575,1596490722437
Fix,GT,37.4370433,-122.1103571,,27.092041,0.1,320.32254,1596490723437
Fix,GT,37.4372306,-122.1105537,,27.113865,0.1,320.04163,1596490724437
Fix,GT,37.4374172,-122.1107517,,27.144648,0.1,319.86896,1596490725437
Fix,GT,37.437604,-122.1109499,,27.158594,0.1,319.9929,1596490726437
Fix,GT,37.4377914,-122.1111474,,27.204975,0.1,320.26105,1596490727437
Fix,GT,37.4379802,-122.1113444,,27.322027,0.1,320.51822,1596490728437
Fix,GT,37.4381704,-122.1115417,,27.468597,0.1,320.6287,1596490729437
Fix,GT,37.4383616,-122.1117398,,27.587616,0.1,320.48416,1596490730437
Fix,GT,37.4385528,-122.1119397,,27.662884,0.1,320.1631,1596490731437
Fix,GT,37.4387435,-122.1121415,,27.716566,0.1,319.85638,1596490732437
Fix,GT,37.4389344,-122.1123445,,27.857841,0.1,319.9157,1596490733437
Fix,GT,37.4391272,-122.1125481,,28.11326,0.1,320.14743,1596490734437
Fix,GT,37.4393222,-122.1127531,,28.375328,0.1,320.21155,1596490735437
Fix,GT,37.439519,-122.11296,,28.604183,0.1,320.1709,1596490736437
Fix,GT,37.4397171,-122.1131682,,28.755527,0.1,320.2476,1596490737437
Fix,GT,37.4399164,-122.1133769,,28.892067,0.1,320.34668,1596490738437
Fix,GT,37.4401173,-122.1135871,,29.223572,0.1,320.2753,1596490739437
Fix,GT,37.4403207,-122.1138004,,29.631222,0.1,320.23145,1596490740437
Fix,GT,37.4405267,-122.1140164,,29.955288,0.1,320.28067,1596490741437
Fix,GT,37.440735,-122.1142342,,30.209284,0.1,320.36688,1596490742437
Fix,GT,37.4409448,-122.1144535,,30.396778,0.1,320.3606,1596490743437
Fix,GT,37.4411554,-122.1146746,,30.587574,0.1,320.0439,1596490744437
Fix,GT,37.441366,-122.1148992,,30.79665,0.1,319.47687,1596490745437
Fix,GT,37.441576,-122.1151279,,30.903206,0.1,318.87064,1596490746437
Fix,GT,37.4417845,-122.1153593,,30.88754,0.1,318.5056,1596490747437
Fix,GT,37.4419921,-122.115591,,30.794197,0.1,318.68445,1596490748437
Fix,GT,37.4422008,-122.1158199,,30.773567,0.1,319.2575,1596490749437
Fix,GT,37.4424118,-122.1160467,,30.955824,0.1,319.77005,1596490750437
Fix,GT,37.4426253,-122.1162738,,31.168499,0.1,319.95633,1596490751437
Fix,GT,37.4428404,-122.1165012,,31.277346,0.1,320.11688,1596490752437
Fix,GT,37.4430563,-122.116729,,31.340069,0.1,320.0982,1596490753437
Fix,GT,37.4432727,-122.1169568,,31.385628,0.1,320.1938,1596490754437
Fix,GT,37.44349,-122.1171846,,31.475426,0.1,320.34747,1596490755437
Fix,GT,37.4437081,-122.1174126,,31.534117,0.1,320.30234,1596490756437
Fix,GT,37.4439263,-122.1176411,,31.564754,0.1,320.30548,1596490757437
Fix,GT,37.444145,-122.1178695,,31.626316,0.1,320.49713,1596490758437
Fix,GT,37.4443649,-122.1180975,,31.718372,0.1,320.5908,1596490759437
Fix,GT,37.4445854,-122.1183262,,31.782047,0.1,320.4227,1596490760437
Fix,GT,37.4448055,-122.1185562,,31.82399,0.1,320.22275,1596490761437
Fix,GT,37.4450253,-122.1187875,,31.86915,0.1,320.07126,1596490762437
Fix,GT,37.4452452,-122.1190192,,31.867609,0.1,320.13132,1596490763437
Fix,GT,37.4454651,-122.1192503,,31.814339,0.1,320.2001,1596490764437
Fix,GT,37.4456845,-122.1194809,,31.727978,0.1,320.11356,1596490765437
Fix,GT,37.4459032,-122.1197117,,31.711262,0.1,320.00665,1596490766437
Fix,GT,37.4461219,-122.1199427,,31.774763,0.1,320.1671,1596490767437
Fix,GT,37.4463417,-122.1201734,,31.846073,0.1,320.3199,1596490768437
Fix,GT,37.4465627,-122.1204039,,31.95279,0.1,320.43146,1596490769437
Fix,GT,37.4467845,-122.1206349,,32.04941,0.1,320.4004,1596490770437
Fix,GT,37.4470067,-122.1208669,,32.155067,0.1,320.30823,1596490771437
Fix,GT,37.4472295,-122.1211004,,32.285973,0.1,320.15778,1596490772437
Fix,GT,37.4474529,-122.1213357,,32.52813,0.1,320.1108,1596490773437
Fix,GT,37.4476787,-122.1215732,,32.904415,0.1,320.2618,1596490774437
Fix,GT,37.4479078,-122.1218131,,33.326187,0.1,320.31903,1596490775437
Fix,GT,37.4481397,-122.1220559,,33.73175,0.1,320.28436,1596490776437
Fix,GT,37.4483741,-122.122302,,34.124603,0.1,320.2107,1596490777437
Fix,GT,37.448611,-122.1225512,,34.487724,0.1,320.24017,1596490778437
Fix,GT,37.4488506,-122.1228025,,34.854416,0.1,320.34848,1596490779437
Fix,GT,37.4490932,-122.1230562,,35.236465,0.1,320.2836,1596490780437
Fix,GT,37.4493376,-122.1233135,,35.562634,0.1,320.0171,1596490781437
Fix,GT,37.4495828,-122.1235746,,35.826073,0.1,319.63348,1596490782437
Fix,GT,37.4498281,-122.1238398,,36.048798,0.1,319.09094,1596490783437
Fix,GT,37.4500722,-122.1241096,,36.151012,0.1,318.45007,1596490784437
Fix,GT,37.4503147,-122.124382,,36.15473,0.1,318.32556,1596490785437
Fix,GT,37.4505578,-122.1246546,,36.2213,0.1,318.35632,1596490786437
Fix,GT,37.4508009,-122.1249287,,36.368973,0.1,317.9144,1596490787437
Fix,GT,37.4510426,-122.1252075,,36.51931,0.1,316.92685,1596490788437
Fix,GT,37.4512804,-122.1254942,,36.70863,0.1,315.3399,1596490789437
Fix,GT,37.4515121,-122.1257918,,36.887596,0.1,313.36792,1596490790437
Fix,GT,37.4517363,-122.1261003,,36.969635,0.1,311.48538,1596490791437
Fix,GT,37.4519533,-122.1264176,,37.016434,0.1,310.01038,1596490792437
Fix,GT,37.4521645,-122.1267416,,37.037476,0.1,308.76535,1596490793437
Fix,GT,37.4523709,-122.1270704,,37.03194,0.1,307.7507,1596490794437
Fix,GT,37.4525732,-122.1274031,,37.01706,0.1,307.05496,1596490795437
Fix,GT,37.4527723,-122.1277386,,36.990532,0.1,306.47556,1596490796437
Fix,GT,37.4529694,-122.1280755,,36.92295,0.1,306.38986,1596490797437
Fix,GT,37.4531663,-122.1284113,,36.859486,0.1,306.5321,1596490798437
Fix,GT,37.4533635,-122.1287466,,36.881973,0.1,306.51318,1596490799437
Fix,GT,37.4535604,-122.1290825,,36.87886,0.1,306.45456,1596490800437
Fix,GT,37.4537571,-122.1294179,,36.794388,0.1,306.4713,1596490801437
Fix,GT,37.4539532,-122.1297526,,36.723717,0.1,306.41074,1596490802437
Fix,GT,37.4541488,-122.130087,,36.712498,0.1,306.36676,1596490803437
Fix,GT,37.4543445,-122.1304217,,36.70343,0.1,306.40225,1596490804437
Fix,GT,37.45454,-122.1307556,,36.606697,0.1,306.5154,1596490805437
Fix,GT,37.454735,-122.1310884,,36.467644,0.1,306.3949,1596490806437
Fix,GT,37.4549283,-122.1314208,,36.36609,0.1,306.11868,1596490807437
Fix,GT,37.4551207,-122.1317526,,36.246624,0.1,306.21985,1596490808437
Fix,GT,37.4553131,-122.1320826,,36.082836,0.1,306.41885,1596490809437
Fix,GT,37.4555051,-122.1324106,,35.936695,0.1,306.4733,1596490810437
Fix,GT,37.4556968,-122.1327372,,35.855053,0.1,306.5249,1596490811437
Fix,GT,37.4558885,-122.1330632,,35.83339,0.1,306.658,1596490812437
Fix,GT,37.4560807,-122.1333884,,35.78965,0.1,306.73657,1596490813437
Fix,GT,37.4562726,-122.133713,,35.741314,0.1,306.65573,1596490814437
Fix,GT,37.4564644,-122.1340377,,35.747887,0.1,306.69354,1596490815437
Fix,GT,37.4566562,-122.1343623,,35.730602,0.1,306.71198,1596490816437
Fix,GT,37.4568475,-122.1346866,,35.677147,0.1,306.54153,1596490817437
Fix,GT,37.4570381,-122.1350112,,35.675003,0.1,306.5583,1596490818437
Fix,GT,37.4572291,-122.1353359,,35.727448,0.1,306.674,1596490819437
Fix,GT,37.457421,-122.1356608,,35.8262,0.1,306.69595,1596490820437
Fix,GT,37.4576135,-122.1359867,,35.9601,0.1,306.70697,1596490821437
Fix,GT,37.4578067,-122.1363141,,36.11547,0.1,306.65656,1596490822437
Fix,GT,37.4580005,-122.1366428,,36.233276,0.1,306.6152,1596490823437
Fix,GT,37.4581947,-122.1369725,,36.282413,0.1,306.56158,1596490824437
Fix,GT,37.4583886,-122.1373026,,36.26794,0.1,306.5171,1596490825437
Fix,GT,37.4585823,-122.1376325,,36.24066,0.1,306.57974,1596490826437
Fix,GT,37.4587762,-122.1379621,,36.24597,0.1,306.67465,1596490827437
Fix,GT,37.4589708,-122.1382914,,36.278893,0.1,306.75696,1596490828437
Fix,GT,37.4591657,-122.1386208,,36.2958,0.1,306.7608,1596490829437
Fix,GT,37.4593602,-122.1389503,,36.242905,0.1,306.65234,1596490830437
Fix,GT,37.4595541,-122.1392794,,36.16022,0.1,306.63034,1596490831437
Fix,GT,37.4597478,-122.1396076,,36.09688,0.1,306.73334,1596490832437
Fix,GT,37.4599415,-122.1399351,,36.065975,0.1,306.70618,1596490833437
Fix,GT,37.4601346,-122.1402629,,36.101387,0.1,306.55,1596490834437
Fix,GT,37.4603276,-122.140592,,36.17774,0.1,306.40866,1596490835437
Fix,GT,37.4605205,-122.1409221,,36.244743,0.1,306.3729,1596490836437
Fix,GT,37.4607134,-122.1412525,,36.169292,0.1,306.43735,1596490837437
Fix,GT,37.4609056,-122.1415807,,35.845726,0.1,306.49075,1596490838437
Fix,GT,37.461096,-122.1419053,,35.51215,0.1,306.53223,1596490839437
Fix,GT,37.4612856,-122.142228,,35.4712,0.1,306.56125,1596490840437
Fix,GT,37.4614754,-122.1425518,,35.641243,0.1,306.4156,1596490841437
Fix,GT,37.4616656,-122.1428776,,35.836212,0.1,306.3369,1596490842437
Fix,GT,37.4618569,-122.1432052,,35.99526,0.1,306.40405,1596490843437
Fix,GT,37.4620489,-122.1435334,,36.035103,0.1,306.53635,1596490844437
Fix,GT,37.4622408,-122.1438617,,35.994873,0.1,306.3016,1596490845437
Fix,GT,37.462432,-122.1441901,,35.972145,0.1,306.13657,1596490846437
Fix,GT,37.4626234,-122.1445184,,35.991295,0.1,306.41418,1596490847437
Fix,GT,37.4628151,-122.1448461,,35.889786,0.1,306.40652,1596490848437
Fix,GT,37.4630057,-122.1451722,,35.655003,0.1,306.33768,1596490849437
Fix,GT,37.4631948,-122.1454972,,35.59607,0.1,306.2882,1596490850437
Fix,GT,37.4633843,-122.1458226,,35.697575,0.1,306.38416,1596490851437
Fix,GT,37.463575,-122.1461484,,35.827446,0.1,306.45078,1596490852437
Fix,GT,37.4637664,-122.1464756,,35.97629,0.1,306.41833,1596490853437
Fix,GT,37.4639585,-122.146804,,36.070396,0.1,306.4574,1596490854437
Fix,GT,37.464151,-122.1471328,,36.096165,0.1,306.4146,1596490855437
Fix,GT,37.4643436,-122.1474617,,36.117714,0.1,306.46918,1596490856437
Fix,GT,37.4645365,-122.1477903,,36.10081,0.1,306.6175,1596490857437
Fix,GT,37.4647298,-122.1481183,,36.069565,0.1,306.66498,1596490858437
Fix,GT,37.4649231,-122.1484458,,36.00371,0.1,306.63834,1596490859437
Fix,GT,37.4651155,-122.1487728,,35.920795,0.1,306.59152,1596490860437
Fix,GT,37.4653075,-122.1490993,,35.889008,0.1,306.59662,1596490861437
Fix,GT,37.4654993,-122.1494258,,35.835808,0.1,306.47504,1596490862437
Fix,GT,37.4656897,-122.149752,,35.724316,0.1,306.31186,1596490863437
Fix,GT,37.4658793,-122.1500775,,35.607475,0.1,306.30643,1596490864437
Fix,GT,37.4660687,-122.1504017,,35.524216,0.1,306.41843,1596490865437
Fix,GT,37.4662582,-122.1507253,,35.501965,0.1,306.4635,1596490866437
Fix,GT,37.4664477,-122.1510487,,35.52172,0.1,306.47714,1596490867437
Fix,GT,37.4666375,-122.1513721,,35.556503,0.1,306.4987,1596490868437
Fix,GT,37.4668277,-122.151696,,35.6103,0.1,306.45868,1596490869437
Fix,GT,37.4670179,-122.1520204,,35.666405,0.1,306.51135,1596490870437
Fix,GT,37.4672091,-122.1523449,,35.709763,0.1,306.78326,1596490871437
Fix,GT,37.4674014,-122.1526688,,35.775234,0.1,306.92,1596490872437
Fix,GT,37.4675946,-122.1529934,,35.881233,0.1,306.8449,1596490873437
Fix,GT,37.4677877,-122.1533193,,35.931473,0.1,306.74442,1596490874437
Fix,GT,37.4679807,-122.1536454,,35.93434,0.1,306.74197,1596490875437
Fix,GT,37.4681738,-122.1539715,,35.93113,0.1,306.7489,1596490876437
Fix,GT,37.4683667,-122.1542973,,35.880455,0.1,306.82657,1596490877437
Fix,GT,37.4685597,-122.1546221,,35.80089,0.1,306.82355,1596490878437
Fix,GT,37.4687517,-122.1549469,,35.747704,0.1,306.68372,1596490879437
Fix,GT,37.4689435,-122.1552714,,35.715675,0.1,306.69858,1596490880437
Fix,GT,37.469135,-122.1555959,,35.739746,0.1,306.56827,1596490881437
Fix,GT,37.4693256,-122.155922,,35.841587,0.1,306.23428,1596490882437
Fix,GT,37.4695156,-122.1562506,,36.016006,0.1,306.0468,1596490883437
Fix,GT,37.4697062,-122.1565819,,36.28785,0.1,305.96173,1596490884437
Fix,GT,37.4698982,-122.1569158,,36.526398,0.1,305.9965,1596490885437
Fix,GT,37.4700917,-122.1572508,,36.646286,0.1,306.21762,1596490886437
Fix,GT,37.4702867,-122.1575858,,36.75686,0.1,306.42453,1596490887437
Fix,GT,37.470483,-122.1579216,,36.94353,0.1,306.4175,1596490888437
Fix,GT,37.4706803,-122.1582591,,37.083984,0.1,306.47733,1596490889437
Fix,GT,37.4708787,-122.1585971,,37.169464,0.1,306.619,1596490890437
Fix,GT,37.471078,-122.1589355,,37.278244,0.1,306.61078,1596490891437
Fix,GT,37.4712777,-122.1592748,,37.336494,0.1,306.6327,1596490892437
Fix,GT,37.4714776,-122.1596145,,37.33806,0.1,306.56094,1596490893437
Fix,GT,37.4716769,-122.1599534,,37.122993,0.1,306.58704,1596490894437
Fix,GT,37.4718746,-122.1602897,,36.819817,0.1,306.5114,1596490895437
Fix,GT,37.4720705,-122.160625,,36.756943,0.1,306.3054,1596490896437
Fix,GT,37.472266,-122.160961,,36.827766,0.1,306.3678,1596490897437
Fix,GT,37.4724626,-122.1612965,,36.821312,0.1,306.60822,1596490898437
Fix,GT,37.4726595,-122.161631,,36.714287,0.1,306.5593,1596490899437
Fix,GT,37.4728552,-122.161965,,36.59946,0.1,306.41656,1596490900437
Fix,GT,37.4730502,-122.162298,,36.52693,0.1,306.5929,1596490901437
Fix,GT,37.4732455,-122.1626298,,36.42033,0.1,306.58737,1596490902437
Fix,GT,37.47344,-122.1629602,,36.212166,0.1,306.60217,1596490903437
Fix,GT,37.4736332,-122.163288,,35.91376,0.1,306.67862,1596490904437
Fix,GT,37.4738247,-122.163613,,35.602066,0.1,306.52914,1596490905437
Fix,GT,37.474014,-122.1639364,,35.377983,0.1,306.43555,1596490906437
Fix,GT,37.4742022,-122.1642582,,35.248825,0.1,306.47565,1596490907437
Fix,GT,37.4743902,-122.1645785,,35.14444,0.1,306.52682,1596490908437
Fix,GT,37.4745778,-122.1648979,,35.048256,0.1,306.58362,1596490909437
Fix,GT,37.4747652,-122.1652161,,34.95449,0.1,306.63452,1596490910437
Fix,GT,37.4749522,-122.1655337,,34.922913,0.1,306.53067,1596490911437
Fix,GT,37.4751388,-122.1658521,,35.014236,0.1,306.40274,1596490912437
Fix,GT,37.4753256,-122.1661721,,35.1668,0.1,306.33057,1596490913437
Fix,GT,37.4755131,-122.1664934,,35.251156,0.1,306.4142,1596490914437
Fix,GT,37.4757012,-122.1668146,,35.271236,0.1,306.54465,1596490915437
Fix,GT,37.47589,-122.1671355,,35.300396,0.1,306.6568,1596490916437
Fix,GT,37.4760792,-122.167456,,35.23149,0.1,306.7179,1596490917437
Fix,GT,37.4762679,-122.1677754,,35.074654,0.1,306.70914,1596490918437
Fix,GT,37.4764562,-122.1680925,,34.91028,0.1,307.00598,1596490919437
Fix,GT,37.4766456,-122.1684066,,34.778835,0.1,307.3987,1596490920437
Fix,GT,37.4768349,-122.1687202,,34.815357,0.1,307.07108,1596490921437
Fix,GT,37.4770228,-122.1690365,,34.98242,0.1,306.60657,1596490922437
Fix,GT,37.4772101,-122.1693558,,35.15877,0.1,306.31668,1596490923437
Fix,GT,37.4773973,-122.1696781,,35.41073,0.1,306.08774,1596490924437
Fix,GT,37.4775854,-122.1700034,,35.6857,0.1,306.0855,1596490925437
Fix,GT,37.4777751,-122.1703307,,35.95228,0.1,306.25455,1596490926437
Fix,GT,37.4779672,-122.1706598,,36.202263,0.1,306.49405,1596490927437
Fix,GT,37.4781613,-122.1709898,,36.36872,0.1,306.61392,1596490928437
Fix,GT,37.4783566,-122.1713209,,36.517853,0.1,306.67145,1596490929437
Fix,GT,37.4785531,-122.1716533,,36.67733,0.1,306.63693,1596490930437
Fix,GT,37.4787499,-122.1719876,,36.814503,0.1,306.52496,1596490931437
Fix,GT,37.4789469,-122.1723228,,36.831223,0.1,306.42877,1596490932437
Fix,GT,37.4791433,-122.172658,,36.747063,0.1,306.3337,1596490933437
Fix,GT,37.4793387,-122.172993,,36.71138,0.1,306.3688,1596490934437
Fix,GT,37.4795341,-122.1733282,,36.75766,0.1,306.24396,1596490935437
Fix,GT,37.4797291,-122.1736648,,36.865963,0.1,306.21756,1596490936437
Fix,GT,37.4799253,-122.1740019,,36.97101,0.1,306.31653,1596490937437
Fix,GT,37.4801222,-122.1743398,,37.080166,0.1,306.22043,1596490938437
Fix,GT,37.4803193,-122.1746792,,37.19604,0.1,306.2354,1596490939437
Fix,GT,37.480517,-122.1750192,,37.239227,0.1,306.2122,1596490940437
Fix,GT,37.4807149,-122.1753593,,37.227707,0.1,306.33005,1596490941437
Fix,GT,37.4809135,-122.1756982,,37.18605,0.1,306.5034,1596490942437
Fix,GT,37.4811119,-122.1760369,,37.19268,0.1,306.2932,1596490943437
Fix,GT,37.481309,-122.1763773,,37.233017,0.1,305.93604,1596490944437
Fix,GT,37.4815047,-122.1767199,,37.32601,0.1,305.68256,1596490945437
Fix,GT,37.4816997,-122.1770646,,37.45809,0.1,305.30154,1596490946437
Fix,GT,37.4818934,-122.177412,,37.52504,0.1,304.8142,1596490947437
Fix,GT,37.4820841,-122.1777624,,37.521675,0.1,303.91943,1596490948437
Fix,GT,37.4822696,-122.1781166,,37.470543,0.1,302.805,1596490949437
Fix,GT,37.482449,-122.1784751,,37.3983,0.1,301.64072,1596490950437
Fix,GT,37.4826222,-122.1788375,,37.33474,0.1,300.35126,1596490951437
Fix,GT,37.4827888,-122.1792039,,37.288437,0.1,299.18216,1596490952437
Fix,GT,37.4829489,-122.1795734,,37.07744,0.1,297.9468,1596490953437
Fix,GT,37.483101,-122.1799438,,36.628323,0.1,296.66327,1596490954437
Fix,GT,37.4832456,-122.1803136,,36.25097,0.1,295.77457,1596490955437
Fix,GT,37.483385,-122.1806829,,36.079773,0.1,294.9499,1596490956437
Fix,GT,37.4835195,-122.1810541,,36.07644,0.1,294.1678,1596490957437
Fix,GT,37.4836501,-122.181428,,36.113136,0.1,293.32703,1596490958437
Fix,GT,37.4837761,-122.1818035,,35.909016,0.1,292.50757,1596490959437
Fix,GT,37.4838972,-122.1821775,,35.516735,0.1,291.93262,1596490960437
Fix,GT,37.4840146,-122.1825494,,35.258743,0.1,291.49835,1596490961437
Fix,GT,37.4841287,-122.1829206,,35.14416,0.1,290.8301,1596490962437
Fix,GT,37.4842391,-122.1832926,,35.087425,0.1,290.27277,1596490963437
Fix,GT,37.4843463,-122.1836656,,35.03674,0.1,289.55566,1596490964437
Fix,GT,37.4844494,-122.1840396,,34.973324,0.1,288.79633,1596490965437
Fix,GT,37.4845487,-122.1844144,,34.893898,0.1,288.23395,1596490966437
Fix,GT,37.4846445,-122.1847898,,34.82706,0.1,287.49167,1596490967437
Fix,GT,37.4847364,-122.1851663,,34.81187,0.1,286.78033,1596490968437
Fix,GT,37.4848254,-122.1855437,,34.79901,0.1,286.35135,1596490969437
Fix,GT,37.4849112,-122.1859217,,34.728237,0.1,285.65894,1596490970437
Fix,GT,37.4849929,-122.1863002,,34.636112,0.1,284.90564,1596490971437
Fix,GT,37.4850706,-122.186679,,34.54336,0.1,284.19977,1596490972437
Fix,GT,37.4851445,-122.1870582,,34.48204,0.1,283.49918,1596490973437
Fix,GT,37.4852146,-122.1874378,,34.472862,0.1,282.92633,1596490974437
Fix,GT,37.4852817,-122.1878186,,34.542973,0.1,282.20575,1596490975437
Fix,GT,37.4853453,-122.1882022,,34.7575,0.1,281.43146,1596490976437
Fix,GT,37.485405,-122.1885895,,34.989315,0.1,280.66418,1596490977437
Fix,GT,37.4854611,-122.1889798,,35.175217,0.1,280.0736,1596490978437
Fix,GT,37.4855149,-122.1893726,,35.319122,0.1,279.69342,1596490979437
Fix,GT,37.485567,-122.1897671,,35.37247,0.1,279.291,1596490980437
Fix,GT,37.4856168,-122.1901624,,35.416935,0.1,278.94104,1596490981437
Fix,GT,37.4856656,-122.1905587,,35.492054,0.1,278.9277,1596490982437
Fix,GT,37.4857151,-122.1909556,,35.547306,0.1,279.1361,1596490983437
Fix,GT,37.4857653,-122.1913531,,35.628593,0.1,279.15842,1596490984437
Fix,GT,37.4858155,-122.1917517,,35.750114,0.1,279.0974,1596490985437
Fix,GT,37.4858657,-122.1921518,,35.887196,0.1,279.1291,1596490986437
Fix,GT,37.485916,-122.1925534,,36.00773,0.1,279.05777,1596490987437
Fix,GT,37.4859662,-122.192956,,36.064247,0.1,279.0606,1596490988437
Fix,GT,37.4860165,-122.1933588,,36.043816,0.1,279.0439,1596490989437
Fix,GT,37.4860662,-122.193761,,35.939762,0.1,278.935,1596490990437
Fix,GT,37.4861154,-122.1941618,,35.798492,0.1,278.9286,1596490991437
Fix,GT,37.4861643,-122.1945614,,35.708923,0.1,278.95935,1596490992437
Fix,GT,37.4862133,-122.1949601,,35.63372,0.1,278.96188,1596490993437
Fix,GT,37.4862626,-122.1953577,,35.53013,0.1,279.07388,1596490994437
Fix,GT,37.4863123,-122.1957541,,35.446613,0.1,279.16974,1596490995437
Fix,GT,37.4863621,-122.1961499,,35.45285,0.1,279.11542,1596490996437
Fix,GT,37.4864115,-122.1965463,,35.510963,0.1,279.01898,1596490997437
Fix,GT,37.4864606,-122.1969432,,35.506092,0.1,278.97733,1596490998437
Fix,GT,37.4865095,-122.1973392,,35.337387,0.1,279.0398,1596490999437
Fix,GT,37.4865584,-122.1977322,,34.99472,0.1,279.1281,1596491000437
Fix,GT,37.4866073,-122.1981214,,34.72315,0.1,279.11853,1596491001437
Fix,GT,37.4866558,-122.1985086,,34.646446,0.1,279.06244,1596491002437
Fix,GT,37.4867036,-122.1988959,,34.701874,0.1,278.8557,1596491003437
Fix,GT,37.4867507,-122.1992847,,34.86916,0.1,278.78082,1596491004437
Fix,GT,37.4867981,-122.1996752,,34.99714,0.1,278.89972,1596491005437
Fix,GT,37.4868461,-122.2000667,,35.057297,0.1,278.93158,1596491006437
Fix,GT,37.4868942,-122.2004585,,35.06826,0.1,278.94934,1596491007437
Fix,GT,37.4869429,-122.2008501,,35.050545,0.1,279.1391,1596491008437
Fix,GT,37.4869927,-122.2012413,,35.01624,0.1,279.3014,1596491009437
Fix,GT,37.4870428,-122.2016321,,34.987072,0.1,279.30292,1596491010437
Fix,GT,37.4870925,-122.202023,,35.056168,0.1,279.17462,1596491011437
Fix,GT,37.4871416,-122.2024155,,35.199913,0.1,279.0091,1596491012437
Fix,GT,37.48719,-122.2028094,,35.28783,0.1,278.92975,1596491013437
Fix,GT,37.4872383,-122.2032039,,35.31353,0.1,278.8735,1596491014437
Fix,GT,37.4872864,-122.2035988,,35.3265,0.1,278.83218,1596491015437
Fix,GT,37.4873343,-122.2039936,,35.30848,0.1,278.81345,1596491016437
Fix,GT,37.4873823,-122.204388,,35.26527,0.1,278.91077,1596491017437
Fix,GT,37.4874309,-122.204782,,35.24788,0.1,279.01755,1596491018437
Fix,GT,37.4874798,-122.2051756,,35.213448,0.1,279.01294,1596491019437
Fix,GT,37.4875286,-122.2055681,,35.03077,0.1,279.10822,1596491020437
Fix,GT,37.4875779,-122.2059577,,34.759197,0.1,279.25665,1596491021437
Fix,GT,37.4876276,-122.2063449,,34.646957,0.1,279.32513,1596491022437
Fix,GT,37.4876778,-122.2067315,,34.669437,0.1,279.49857,1596491023437
Fix,GT,37.4877297,-122.2071186,,34.77165,0.1,280.0725,1596491024437
Fix,GT,37.487786,-122.2075061,,34.918114,0.1,280.98306,1596491025437
Fix,GT,37.4878466,-122.2078945,,35.076385,0.1,281.54523,1596491026437
Fix,GT,37.48791,-122.2082838,,35.218437,0.1,281.9331,1596491027437
Fix,GT,37.4879764,-122.2086737,,35.291405,0.1,282.6173,1596491028437
Fix,GT,37.4880473,-122.2090628,,35.312904,0.1,283.62915,1596491029437
Fix,GT,37.4881238,-122.2094507,,35.394012,0.1,284.44162,1596491030437
Fix,GT,37.4882042,-122.209839,,35.56262,0.1,284.8609,1596491031437
Fix,GT,37.4882874,-122.2102286,,35.78011,0.1,285.42053,1596491032437
Fix,GT,37.4883744,-122.2106193,,35.97475,0.1,286.21658,1596491033437
Fix,GT,37.488467,-122.2110098,,36.09323,0.1,287.24792,1596491034437
Fix,GT,37.4885646,-122.2113992,,36.093193,0.1,287.9668,1596491035437
Fix,GT,37.4886654,-122.2117866,,35.95222,0.1,288.5808,1596491036437
Fix,GT,37.4887692,-122.2121701,,35.651485,0.1,289.2643,1596491037437
Fix,GT,37.4888758,-122.2125478,,35.200405,0.1,290.0486,1596491038437
Fix,GT,37.4889853,-122.2129187,,34.805702,0.1,291.0317,1596491039437
Fix,GT,37.4890981,-122.2132844,,34.579456,0.1,291.76627,1596491040437
Fix,GT,37.489214,-122.213647,,34.53419,0.1,292.31558,1596491041437
Fix,GT,37.4893339,-122.214008,,34.642365,0.1,293.26437,1596491042437
Fix,GT,37.4894586,-122.2143678,,34.74629,0.1,294.063,1596491043437
Fix,GT,37.4895868,-122.2147256,,34.650356,0.1,294.65323,1596491044437
Fix,GT,37.4897174,-122.2150804,,34.483738,0.1,295.34555,1596491045437
Fix,GT,37.4898505,-122.2154325,,34.459618,0.1,295.75568,1596491046437
Fix,GT,37.489986,-122.2157833,,34.49167,0.1,296.40167,1596491047437
Fix,GT,37.4901258,-122.2161317,,34.509422,0.1,297.42383,1596491048437
Fix,GT,37.4902696,-122.2164772,,34.45788,0.1,298.04358,1596491049437
Fix,GT,37.4904154,-122.2168206,,34.369003,0.1,298.42914,1596491050437
Fix,GT,37.4905627,-122.2171616,,34.232143,0.1,298.79797,1596491051437
Fix,GT,37.4907105,-122.2174997,,33.93664,0.1,299.0493,1596491052437
Fix,GT,37.4908579,-122.2178332,,33.52201,0.1,299.29263,1596491053437
Fix,GT,37.4910047,-122.2181622,,33.22001,0.1,299.47772,1596491054437
Fix,GT,37.4911513,-122.2184895,,33.24476,0.1,299.4364,1596491055437
Fix,GT,37.491298,-122.2188189,,33.513348,0.1,299.33813,1596491056437
Fix,GT,37.491446,-122.2191512,,33.777245,0.1,299.4051,1596491057437
Fix,GT,37.4915952,-122.2194851,,33.928215,0.1,299.47882,1596491058437
Fix,GT,37.4917449,-122.2198199,,33.958275,0.1,299.42795,1596491059437
Fix,GT,37.4918938,-122.2201549,,33.875496,0.1,299.11652,1596491060437
Fix,GT,37.4920406,-122.2204897,,33.708565,0.1,298.98816,1596491061437
Fix,GT,37.4921874,-122.2208228,,33.61143,0.1,299.24484,1596491062437
Fix,GT,37.4923348,-122.2211549,,33.655895,0.1,299.2514,1596491063437
Fix,GT,37.4924826,-122.2214879,,33.772892,0.1,299.37106,1596491064437
Fix,GT,37.4926319,-122.2218214,,33.881443,0.1,299.60168,1596491065437
Fix,GT,37.492782,-122.2221553,,33.919308,0.1,299.52786,1596491066437
Fix,GT,37.4929318,-122.2224899,,33.96805,0.1,299.42926,1596491067437
Fix,GT,37.4930812,-122.2228259,,34.154594,0.1,299.12814,1596491068437
Fix,GT,37.4932298,-122.223166,,34.41987,0.1,298.53073,1596491069437
Fix,GT,37.4933761,-122.2235107,,34.644745,0.1,297.72733,1596491070437
Fix,GT,37.4935194,-122.2238601,,34.84801,0.1,296.98535,1596491071437
Fix,GT,37.4936604,-122.2242127,,34.882446,0.1,296.526,1596491072437
Fix,GT,37.4937983,-122.2245663,,34.74197,0.1,295.7889,1596491073437
Fix,GT,37.4939311,-122.2249207,,34.502106,0.1,294.8083,1596491074437
Fix,GT,37.494059,-122.2252741,,34.149345,0.1,294.19864,1596491075437
Fix,GT,37.4941824,-122.2256252,,33.691254,0.1,293.6069,1596491076437
Fix,GT,37.4943004,-122.2259733,,33.213192,0.1,292.68176,1596491077437
Fix,GT,37.4944124,-122.2263187,,32.734585,0.1,291.81125,1596491078437
Fix,GT,37.4945196,-122.2266608,,32.28505,0.1,291.23553,1596491079437
Fix,GT,37.494623,-122.2269992,,31.82148,0.1,291.03918,1596491080437
Fix,GT,37.4947244,-122.2273334,,31.514458,0.1,290.81076,1596491081437
Fix,GT,37.4948234,-122.2276679,,31.668736,0.1,290.08398,1596491082437
Fix,GT,37.4949204,-122.2280079,,32.241455,0.1,289.61285,1596491083437
Fix,GT,37.4950184,-122.2283562,,33.104942,0.1,289.56235,1596491084437
Fix,GT,37.4951186,-122.2287139,,33.93383,0.1,289.5092,1596491085437
Fix,GT,37.4952201,-122.2290789,,34.38853,0.1,289.34784,1596491086437
Fix,GT,37.4953223,-122.2294475,,34.609818,0.1,289.3514,1596491087437
Fix,GT,37.4954253,-122.2298176,,34.697586,0.1,289.41916,1596491088437
Fix,GT,37.4955288,-122.2301875,,34.584576,0.1,289.60815,1596491089437
Fix,GT,37.4956326,-122.2305554,,34.449944,0.1,289.72272,1596491090437
Fix,GT,37.4957364,-122.2309222,,34.385963,0.1,289.693,1596491091437
Fix,GT,37.4958406,-122.2312877,,34.274986,0.1,289.88623,1596491092437
Fix,GT,37.4959446,-122.2316521,,34.212486,0.1,289.78848,1596491093437
Fix,GT,37.4960476,-122.2320172,,34.315834,0.1,289.45264,1596491094437
Fix,GT,37.4961507,-122.2323843,,34.498985,0.1,289.69916,1596491095437
Fix,GT,37.4962556,-122.2327526,,34.687263,0.1,289.9689,1596491096437
Fix,GT,37.4963619,-122.2331228,,34.927986,0.1,289.9214,1596491097437
Fix,GT,37.4964686,-122.233496,,35.204075,0.1,289.909,1596491098437
Fix,GT,37.4965763,-122.2338718,,35.436047,0.1,289.99683,1596491099437
Fix,GT,37.4966849,-122.2342496,,35.576046,0.1,290.19302,1596491100437
Fix,GT,37.4967963,-122.2346273,,35.66489,0.1,290.97308,1596491101437
Fix,GT,37.4969143,-122.2350031,,35.792946,0.1,292.2496,1596491102437
Fix,GT,37.4970396,-122.235377,,35.957558,0.1,293.8116,1596491103437
Fix,GT,37.4971735,-122.2357482,,36.12857,0.1,295.50928,1596491104437
Fix,GT,37.497317,-122.2361159,,36.306633,0.1,297.10504,1596491105437
Fix,GT,37.497469,-122.2364805,,36.510582,0.1,298.7648,1596491106437
Fix,GT,37.4976306,-122.2368409,,36.64769,0.1,300.51236,1596491107437
Fix,GT,37.4978016,-122.2371961,,36.77645,0.1,302.30634,1596491108437
Fix,GT,37.4979824,-122.2375459,,37.03075,0.1,304.2065,1596491109437
Fix,GT,37.4981747,-122.23789,,37.360107,0.1,306.4886,1596491110437
Fix,GT,37.4983796,-122.2382272,,37.65401,0.1,308.56747,1596491111437
Fix,GT,37.4985953,-122.238557,,37.812775,0.1,310.644,1596491112437
Fix,GT,37.4988208,-122.238878,,37.896603,0.1,312.7497,1596491113437
Fix,GT,37.499056,-122.2391895,,38.015133,0.1,314.76044,1596491114437
Fix,GT,37.4993003,-122.2394907,,38.01245,0.1,316.7029,1596491115437
Fix,GT,37.4995506,-122.2397819,,37.708923,0.1,317.81448,1596491116437
Fix,GT,37.4998005,-122.2400669,,37.212578,0.1,317.98322,1596491117437
Fix,GT,37.5000475,-122.2403473,,36.72007,0.1,318.01752,1596491118437
Fix,GT,37.5002913,-122.2406237,,36.214943,0.1,318.0241,1596491119437
Fix,GT,37.5005319,-122.240897,,35.790356,0.1,317.97284,1596491120437
Fix,GT,37.5007695,-122.2411675,,35.44342,0.1,317.84595,1596491121437
Fix,GT,37.5010046,-122.2414362,,35.129307,0.1,317.72107,1596491122437
Fix,GT,37.5012374,-122.2417032,,34.88622,0.1,317.72714,1596491123437
Fix,GT,37.5014692,-122.2419681,,34.68747,0.1,317.9371,1596491124437
Fix,GT,37.5017003,-122.2422306,,34.496838,0.1,318.0724,1596491125437
Fix,GT,37.5019306,-122.2424919,,34.436234,0.1,317.95312,1596491126437
Fix,GT,37.5021607,-122.2427542,,34.607944,0.1,317.87137,1596491127437
Fix,GT,37.5023924,-122.243018,,34.830566,0.1,318.03906,1596491128437
Fix,GT,37.5026256,-122.2432829,,34.95688,0.1,318.1351,1596491129437
Fix,GT,37.5028598,-122.2435478,,35.024155,0.1,318.1973,1596491130437
Fix,GT,37.5030948,-122.2438125,,35.084618,0.1,318.34006,1596491131437
Fix,GT,37.5033308,-122.2440767,,35.099182,0.1,318.4985,1596491132437
Fix,GT,37.5035671,-122.2443401,,35.041462,0.1,318.588,1596491133437
Fix,GT,37.5038024,-122.2446027,,34.79846,0.1,318.39496,1596491134437
Fix,GT,37.5040349,-122.2448639,,34.480133,0.1,318.18427,1596491135437
Fix,GT,37.5042653,-122.2451243,,34.367764,0.1,318.1011,1596491136437
Fix,GT,37.504495,-122.2453842,,34.281376,0.1,318.0549,1596491137437
Fix,GT,37.5047239,-122.2456442,,34.279305,0.1,317.90253,1596491138437
Fix,GT,37.504953,-122.2459055,,34.452137,0.1,317.78925,1596491139437
Fix,GT,37.5051832,-122.2461688,,34.685165,0.1,317.8086,1596491140437
Fix,GT,37.5054154,-122.2464334,,34.896133,0.1,317.9772,1596491141437
Fix,GT,37.5056494,-122.2466981,,35.025597,0.1,318.22177,1596491142437
Fix,GT,37.5058848,-122.2469633,,35.221745,0.1,318.22076,1596491143437
Fix,GT,37.5061215,-122.2472308,,35.493504,0.1,318.035,1596491144437
Fix,GT,37.5063592,-122.247501,,35.700676,0.1,317.9569,1596491145437
Fix,GT,37.5065982,-122.2477727,,35.84484,0.1,317.9707,1596491146437
Fix,GT,37.5068381,-122.2480451,,35.942547,0.1,317.9788,1596491147437
Fix,GT,37.5070783,-122.2483179,,35.96314,0.1,318.08084,1596491148437
Fix,GT,37.5073188,-122.2485904,,35.91633,0.1,318.15027,1596491149437
Fix,GT,37.507559,-122.2488618,,35.812508,0.1,318.19055,1596491150437
Fix,GT,37.5077985,-122.2491323,,35.7108,0.1,318.15268,1596491151437
Fix,GT,37.5080369,-122.2494016,,35.448692,0.1,318.17285,1596491152437
Fix,GT,37.5082728,-122.2496681,,34.991913,0.1,318.20233,1596491153437
Fix,GT,37.5085056,-122.2499308,,34.497215,0.1,318.20697,1596491154437
Fix,GT,37.5087356,-122.2501898,,34.120445,0.1,318.3125,1596491155437
Fix,GT,37.508964,-122.2504469,,34.024445,0.1,318.26843,1596491156437
Fix,GT,37.5091924,-122.2507045,,34.138107,0.1,318.0706,1596491157437
Fix,GT,37.5094211,-122.2509641,,34.301674,0.1,317.99945,1596491158437
Fix,GT,37.5096508,-122.2512251,,34.47889,0.1,317.94373,1596491159437
Fix,GT,37.5098815,-122.2514879,,34.69185,0.1,317.88138,1596491160437
Fix,GT,37.5101137,-122.2517528,,34.951187,0.1,317.9307,1596491161437
Fix,GT,37.5103481,-122.252019,,35.19406,0.1,318.10284,1596491162437
Fix,GT,37.5105845,-122.2522855,,35.267723,0.1,318.317,1596491163437
Fix,GT,37.5108208,-122.2525505,,35.00078,0.1,318.37198,1596491164437
Fix,GT,37.511054,-122.2528127,,34.51695,0.1,318.15393,1596491165437
Fix,GT,37.5112835,-122.2530732,,34.220486,0.1,317.90247,1596491166437
Fix,GT,37.5115116,-122.2533335,,34.21389,0.1,317.75876,1596491167437
Fix,GT,37.5117396,-122.2535949,,34.332333,0.1,317.63672,1596491168437
Fix,GT,37.5119682,-122.253858,,34.49484,0.1,317.66058,1596491169437
Fix,GT,37.5121983,-122.2541213,,34.613647,0.1,317.9412,1596491170437
Fix,GT,37.5124298,-122.254384,,34.6612,0.1,318.0759,1596491171437
Fix,GT,37.5126616,-122.2546469,,34.706234,0.1,318.00778,1596491172437
Fix,GT,37.5128936,-122.2549103,,34.711876,0.1,317.98065,1596491173437
Fix,GT,37.513125,-122.2551743,,34.72428,0.1,317.7878,1596491174437
Fix,GT,37.5133564,-122.2554391,,34.759594,0.1,317.77557,1596491175437
Fix,GT,37.5135881,-122.2557038,,34.77699,0.1,317.89365,1596491176437
Fix,GT,37.5138202,-122.255968,,34.759754,0.1,318.01047,1596491177437
Fix,GT,37.5140527,-122.2562315,,34.747505,0.1,318.13272,1596491178437
Fix,GT,37.5142853,-122.2564948,,34.789337,0.1,318.08228,1596491179437
Fix,GT,37.5145179,-122.2567586,,34.779114,0.1,318.06583,1596491180437
Fix,GT,37.5147504,-122.2570214,,34.676384,0.1,318.21112,1596491181437
Fix,GT,37.5149826,-122.2572829,,34.564503,0.1,318.29053,1596491182437
Fix,GT,37.5152145,-122.2575433,,34.466084,0.1,318.40167,1596491183437
Fix,GT,37.5154459,-122.2578026,,34.400215,0.1,318.3096,1596491184437
Fix,GT,37.5156765,-122.2580625,,34.368324,0.1,318.01315,1596491185437
Fix,GT,37.5159058,-122.2583234,,34.330597,0.1,317.94952,1596491186437
Fix,GT,37.516135,-122.258584,,34.305233,0.1,317.98502,1596491187437
Fix,GT,37.5163639,-122.2588446,,34.2965,0.1,317.89594,1596491188437
Fix,GT,37.5165927,-122.2591053,,34.263306,0.1,317.94208,1596491189437
Fix,GT,37.5168215,-122.259365,,34.21282,0.1,318.11325,1596491190437
Fix,GT,37.5170506,-122.2596235,,34.17505,0.1,318.2841,1596491191437
Fix,GT,37.5172804,-122.2598815,,34.234962,0.1,318.3561,1596491192437
Fix,GT,37.5175107,-122.2601399,,34.310863,0.1,318.2892,1596491193437
Fix,GT,37.5177408,-122.2603991,,34.264973,0.1,318.15796,1596491194437
Fix,GT,37.5179694,-122.2606578,,34.02494,0.1,318.06287,1596491195437
