MessageType,Provider,LatitudeDegrees,LongitudeDegrees,AltitudeMeters,SpeedMps,AccuracyMeters,BearingDegrees,UnixTimeMillis
Fix,GT,37.416619,-122.0820451,,0.0028284271,0.1,95.18945,1599239488431
Fix,GT,37.416619,-122.0820451,,0.0031638,0.1,95.18921,1599239489431
Fix,GT,37.416619,-122.0820451,,0.003270178,0.1,95.18906,1599239490431
Fix,GT,37.416619,-122.0820451,,0.0025727907,0.1,95.18924,1599239491431
Fix,GT,37.416619,-122.0820451,,0.0028270774,0.1,95.1893,1599239492431
Fix,GT,37.416619,-122.0820451,,0.0024811088,0.1,95.188934,1599239493431
Fix,GT,37.416619,-122.0820451,,0.0015334332,0.1,95.188934,1599239494431
Fix,GT,37.416619,-122.0820451,,0.002236068,0.1,95.18939,1599239495431
Fix,GT,37.416619,-122.0820451,,0.0018813913,0.1,95.18939,1599239496431
Fix,GT,37.416619,-122.0820451,,0.0014142136,0.1,95.18942,1599239497431
Fix,GT,37.416619,-122.0820451,,0.0008039004,0.1,95.189606,1599239498431
Fix,GT,37.416619,-122.0820451,,0.0,0.1,95.18973,1599239499431
Fix,GT,37.416619,-122.0820451,,0.0,0.1,95.18973,1599239500431
Fix,GT,37.416619,-122.0820451,,0.0,0.1,95.18964,1599239501431
Fix,GT,37.416619,-122.0820451,,0.00043155663,0.1,95.189514,1599239502431
Fix,GT,37.416619,-122.0820451,,0.0011787566,0.1,95.18985,1599239503431
Fix,GT,37.416619,-122.0820451,,0.0012354569,0.1,95.190094,1599239504431
Fix,GT,37.416619,-122.0820451,,0.0011787566,0.1,95.18988,1599239505431
Fix,GT,37.416619,-122.0820451,,0.0014142136,0.1,95.19,1599239506431
Fix,GT,37.416619,-122.0820451,,0.0012354569,0.1,95.19,1599239507431
Fix,GT,37.416619,-122.0820451,,0.0005684433,0.1,95.19003,1599239508431
Fix,GT,37.416619,-122.0820451,,0.0006103133,0.1,95.190125,1599239509431
Fix,GT,37.416619,-122.0820451,,0.0012354569,0.1,95.190125,1599239510431
Fix,GT,37.416619,-122.0820451,,0.0014315568,0.1,95.19052,1599239511431
Fix,GT,37.416619,-122.0820451,,0.003066867,0.1,95.1904,1599239512431
Fix,GT,37.416619,-122.0820451,,0.0029737125,0.1,95.191345,1599239513431
Fix,GT,37.416619,-122.0820441,,0.23915182,0.1,95.14035,1599239514431
Fix,GT,37.4166191,-122.0820362,,1.4359453,0.1,93.33496,1599239515431
Fix,GT,37.4166207,-122.082007,,3.9886284,0.1,89.167816,1599239516431
Fix,GT,37.4166237,-122.0819454,,6.904688,0.1,87.08661,1599239517431
Fix,GT,37.4166266,-122.0818536,,9.298892,0.1,88.09515,1599239518431
Fix,GT,37.4166279,-122.0817385,,10.959859,0.1,89.80347,1599239519431
Fix,GT,37.4166258,-122.0816094,,11.97081,0.1,91.73819,1599239520431
Fix,GT,37.4166205,-122.081467,,13.3089695,0.1,92.77991,1599239521431
Fix,GT,37.4166133,-122.0813095,,14.600956,0.1,93.41089,1599239522431
Fix,GT,37.4166042,-122.0811405,,15.303263,0.1,93.75693,1599239523431
Fix,GT,37.4165944,-122.0809655,,15.730163,0.1,93.98978,1599239524431
Fix,GT,37.4165839,-122.0807851,,16.394756,0.1,94.14856,1599239525431
Fix,GT,37.4165725,-122.0805951,,17.363754,0.1,94.19391,1599239526431
Fix,GT,37.4165605,-122.0803944,,18.22326,0.1,94.16315,1599239527431
Fix,GT,37.4165479,-122.0801856,,18.810167,0.1,94.186554,1599239528431
Fix,GT,37.416535,-122.0799729,,18.896687,0.1,94.24548,1599239529431
Fix,GT,37.4165222,-122.0797616,,18.5747,0.1,94.34454,1599239530431
Fix,GT,37.4165091,-122.079555,,18.107613,0.1,94.60065,1599239531431
Fix,GT,37.4164954,-122.079355,,17.371296,0.1,94.91193,1599239532431
Fix,GT,37.4164817,-122.0791651,,16.327509,0.1,95.1456,1599239533431
Fix,GT,37.4164685,-122.078988,,15.127237,0.1,95.30347,1599239534431
Fix,GT,37.4164565,-122.0788255,,13.7015,0.1,95.061584,1599239535431
Fix,GT,37.4164464,-122.0786807,,11.98357,0.1,94.907166,1599239536431
Fix,GT,37.4164376,-122.0785569,,9.959999,0.1,95.128235,1599239537431
Fix,GT,37.4164299,-122.0784553,,8.107798,0.1,95.444885,1599239538431
Fix,GT,37.4164229,-122.0783727,,6.6611786,0.1,96.28235,1599239539431
Fix,GT,37.4164158,-122.0783071,,5.2255855,0.1,98.31473,1599239540431
Fix,GT,37.4164059,-122.0782553,,4.2983785,0.1,104.710266,1599239541431
Fix,GT,37.4163879,-122.0782153,,3.9295764,0.1,120.933685,1599239542431
Fix,GT,37.4163593,-122.078191,,4.025921,0.1,145.46884,1599239543431
Fix,GT,37.4163194,-122.0781833,,5.2257547,0.1,169.07373,1599239544431
Fix,GT,37.4162664,-122.0781846,,6.401015,0.1,180.93231,1599239545431
Fix,GT,37.4162075,-122.0781874,,6.5245705,0.1,181.87158,1599239546431
Fix,GT,37.4161498,-122.0781893,,6.241043,0.1,181.29424,1599239547431
Fix,GT,37.416096,-122.0781909,,5.663402,0.1,181.4753,1599239548431
Fix,GT,37.4160489,-122.0781932,,4.770667,0.1,182.42688,1599239549431
Fix,GT,37.4160109,-122.0781963,,3.605074,0.1,183.35803,1599239550431
Fix,GT,37.4159852,-122.0781986,,2.0632253,0.1,183.62828,1599239551431
Fix,GT,37.4159737,-122.0781996,,0.63416797,0.1,183.66325,1599239552431
Fix,GT,37.4159718,-122.0781997,,0.016535085,0.1,183.67586,1599239553431
Fix,GT,37.4159718,-122.0781998,,0.004425863,0.1,183.67813,1599239554431
Fix,GT,37.4159718,-122.0781998,,0.0030922457,0.1,183.6771,1599239555431
Fix,GT,37.4159718,-122.0781997,,0.0025684433,0.1,183.67685,1599239556431
Fix,GT,37.4159718,-122.0781997,,0.002,0.1,183.67688,1599239557431
Fix,GT,37.4159718,-122.0781997,,0.002,0.1,183.67697,1599239558431
Fix,GT,37.4159718,-122.0781997,,0.0015684434,0.1,183.67717,1599239559431
Fix,GT,37.4159718,-122.0781997,,0.0011787567,0.1,183.67712,1599239560431
Fix,GT,37.4159718,-122.0781997,,0.0014142136,0.1,183.67711,1599239561431
Fix,GT,37.4159718,-122.0781997,,0.0017688904,0.1,183.67723,1599239562431
Fix,GT,37.4159718,-122.0781997,,0.0024917047,0.1,183.67719,1599239563431
Fix,GT,37.4159718,-122.0781997,,0.0029725025,0.1,183.67693,1599239564431
Fix,GT,37.4159718,-122.0781997,,0.0031622776,0.1,183.67693,1599239565431
Fix,GT,37.4159718,-122.0781997,,0.0048491424,0.1,183.67735,1599239566431
Fix,GT,37.4159705,-122.0781998,,0.44582608,0.1,183.70363,1599239567431
Fix,GT,37.4159593,-122.0782008,,2.220737,0.1,183.75063,1599239568431
Fix,GT,37.4159267,-122.0782036,,4.9368167,0.1,183.63739,1599239569431
Fix,GT,37.4158705,-122.0782079,,7.4494514,0.1,183.31004,1599239570431
Fix,GT,37.4157938,-122.0782127,,9.606688,0.1,182.49603,1599239571431
Fix,GT,37.4156984,-122.0782157,,11.577997,0.1,181.04048,1599239572431
Fix,GT,37.4155856,-122.0782161,,13.392754,0.1,179.90302,1599239573431
Fix,GT,37.4154602,-122.0782158,,14.23674,0.1,179.73883,1599239574431
Fix,GT,37.4153323,-122.078216,,14.082803,0.1,180.09792,1599239575431
Fix,GT,37.4152076,-122.0782168,,13.540828,0.1,180.26602,1599239576431
Fix,GT,37.4150901,-122.0782174,,12.450413,0.1,180.1411,1599239577431
Fix,GT,37.4149848,-122.0782174,,10.934471,0.1,179.90393,1599239578431
Fix,GT,37.4148917,-122.0782177,,9.901844,0.1,180.1322,1599239579431
Fix,GT,37.4148036,-122.0782183,,9.651735,0.1,180.3042,1599239580431
Fix,GT,37.4147178,-122.0782186,,9.360723,0.1,179.86903,1599239581431
Fix,GT,37.4146353,-122.0782178,,8.898538,0.1,179.30005,1599239582431
Fix,GT,37.4145589,-122.0782164,,7.9765196,0.1,178.91284,1599239583431
Fix,GT,37.4144932,-122.0782152,,6.5569105,0.1,179.01007,1599239584431
Fix,GT,37.4144412,-122.0782147,,4.9917984,0.1,179.61285,1599239585431
Fix,GT,37.4144032,-122.078215,,3.487193,0.1,180.12491,1599239586431
Fix,GT,37.4143763,-122.0782153,,2.6406038,0.1,180.22847,1599239587431
Fix,GT,37.4143531,-122.0782154,,2.646261,0.1,180.1581,1599239588431
Fix,GT,37.4143274,-122.0782162,,3.131135,0.1,181.18045,1599239589431
Fix,GT,37.4142957,-122.0782195,,3.977128,0.1,184.27754,1599239590431
Fix,GT,37.4142553,-122.0782264,,5.100398,0.1,187.52599,1599239591431
Fix,GT,37.414204,-122.0782374,,6.5579977,0.1,189.65567,1599239592431
Fix,GT,37.4141382,-122.0782532,,8.276617,0.1,190.83412,1599239593431
Fix,GT,37.4140579,-122.0782727,,9.742029,0.1,190.86008,1599239594431
Fix,GT,37.4139683,-122.0782941,,10.492889,0.1,190.4601,1599239595431
Fix,GT,37.4138724,-122.0783145,,11.191169,0.1,189.03508,1599239596431
Fix,GT,37.4137684,-122.0783328,,12.143093,0.1,187.41446,1599239597431
Fix,GT,37.4136558,-122.0783508,,12.970917,0.1,187.13618,1599239598431
Fix,GT,37.413537,-122.0783705,,13.606036,0.1,187.72244,1599239599431
Fix,GT,37.4134136,-122.0783948,,14.095888,0.1,189.65862,1599239600431
Fix,GT,37.4132883,-122.078429,,14.365936,0.1,194.15553,1599239601431
Fix,GT,37.4131657,-122.0784814,,14.465798,0.1,202.18927,1599239602431
Fix,GT,37.4130527,-122.0785607,,14.498425,0.1,213.88095,1599239603431
Fix,GT,37.4129567,-122.0786693,,14.441723,0.1,227.19048,1599239604431
Fix,GT,37.4128855,-122.0788024,,14.294321,0.1,241.67647,1599239605431
Fix,GT,37.4128439,-122.0789533,,14.317729,0.1,256.61017,1599239606431
Fix,GT,37.4128312,-122.0791146,,14.691072,0.1,269.07172,1599239607431
Fix,GT,37.4128442,-122.0792822,,15.298347,0.1,279.0688,1599239608431
Fix,GT,37.412877,-122.0794537,,16.01859,0.1,286.18854,1599239609431
Fix,GT,37.4129263,-122.0796293,,17.04823,0.1,291.3102,1599239610431
Fix,GT,37.4129906,-122.0798111,,18.154823,0.1,295.23962,1599239611431
Fix,GT,37.4130656,-122.0799997,,19.131634,0.1,297.00403,1599239612431
Fix,GT,37.4131483,-122.0801956,,20.126862,0.1,298.32864,1599239613431
Fix,GT,37.4132389,-122.0803975,,20.77569,0.1,300.02136,1599239614431
Fix,GT,37.4133355,-122.0806014,,21.13974,0.1,301.12598,1599239615431
Fix,GT,37.4134361,-122.0808065,,21.408443,0.1,301.83405,1599239616431
Fix,GT,37.4135394,-122.08101,,21.22675,0.1,302.98276,1599239617431
Fix,GT,37.4136457,-122.0812071,,20.919125,0.1,305.16705,1599239618431
Fix,GT,37.4137582,-122.0813958,,20.928844,0.1,308.1612,1599239619431
Fix,GT,37.4138799,-122.0815781,,21.214008,0.1,311.16138,1599239620431
Fix,GT,37.414009,-122.0817559,,21.284786,0.1,312.96088,1599239621431
Fix,GT,37.4141405,-122.0819309,,21.291813,0.1,313.3307,1599239622431
Fix,GT,37.4142699,-122.0821074,,21.183012,0.1,311.70364,1599239623431
Fix,GT,37.4143921,-122.0822887,,20.87254,0.1,308.75333,1599239624431
Fix,GT,37.4145034,-122.0824767,,20.641018,0.1,304.97397,1599239625431
Fix,GT,37.4146039,-122.0826725,,20.645592,0.1,301.03925,1599239626431
Fix,GT,37.4146961,-122.0828772,,21.065697,0.1,298.20828,1599239627431
Fix,GT,37.4147851,-122.0830927,,21.890388,0.1,296.73874,1599239628431
Fix,GT,37.4148762,-122.083317,,22.61056,0.1,297.0719,1599239629431
Fix,GT,37.4149731,-122.0835432,,22.84095,0.1,299.02264,1599239630431
Fix,GT,37.4150783,-122.0837655,,22.949701,0.1,301.9708,1599239631431
Fix,GT,37.4151934,-122.0839827,,23.304867,0.1,304.81128,1599239632431
Fix,GT,37.4153181,-122.0841982,,23.816135,0.1,306.73608,1599239633431
Fix,GT,37.4154507,-122.0844121,,24.15421,0.1,308.65918,1599239634431
Fix,GT,37.4155902,-122.0846233,,24.393257,0.1,310.2216,1599239635431
Fix,GT,37.4157344,-122.0848339,,24.73392,0.1,310.66748,1599239636431
Fix,GT,37.4158812,-122.0850478,,25.263184,0.1,310.57336,1599239637431
Fix,GT,37.4160309,-122.0852655,,25.635109,0.1,310.83453,1599239638431
Fix,GT,37.4161837,-122.0854842,,25.806023,0.1,311.41653,1599239639431
Fix,GT,37.4163388,-122.0857023,,25.910458,0.1,311.75037,1599239640431
Fix,GT,37.416495,-122.0859206,,26.005884,0.1,311.78925,1599239641431
Fix,GT,37.4166515,-122.0861393,,26.027815,0.1,311.80804,1599239642431
Fix,GT,37.4168082,-122.0863582,,26.036171,0.1,311.77505,1599239643431
Fix,GT,37.4169642,-122.086579,,26.215405,0.1,311.03604,1599239644431
Fix,GT,37.417119,-122.0868049,,26.555096,0.1,310.23517,1599239645431
Fix,GT,37.4172752,-122.0870344,,26.7764,0.1,310.67517,1599239646431
Fix,GT,37.4174337,-122.0872631,,26.848038,0.1,311.2242,1599239647431
Fix,GT,37.4175937,-122.087491,,26.921743,0.1,311.27475,1599239648431
Fix,GT,37.4177548,-122.0877195,,27.091536,0.1,311.48898,1599239649431
Fix,GT,37.417918,-122.0879486,,27.315979,0.1,311.8569,1599239650431
Fix,GT,37.4180841,-122.0881781,,27.54529,0.1,312.3549,1599239651431
Fix,GT,37.4182526,-122.088408,,27.71218,0.1,312.59296,1599239652431
Fix,GT,37.4184215,-122.0886393,,27.816757,0.1,312.16043,1599239653431
Fix,GT,37.4185892,-122.0888741,,27.991856,0.1,311.36017,1599239654431
Fix,GT,37.418757,-122.0891127,,28.34188,0.1,311.40515,1599239655431
Fix,GT,37.4189283,-122.0893536,,28.81373,0.1,311.81335,1599239656431
Fix,GT,37.4191037,-122.089597,,29.269588,0.1,312.12628,1599239657431
Fix,GT,37.4192825,-122.0898436,,29.715702,0.1,312.21982,1599239658431
Fix,GT,37.4194641,-122.0900937,,30.12796,0.1,312.28607,1599239659431
Fix,GT,37.4196482,-122.090346,,30.424477,0.1,312.44513,1599239660431
Fix,GT,37.4198342,-122.0906002,,30.666988,0.1,312.35086,1599239661431
Fix,GT,37.4200209,-122.090857,,30.822994,0.1,312.22534,1599239662431
Fix,GT,37.4202081,-122.0911146,,30.859692,0.1,312.24066,1599239663431
Fix,GT,37.4203953,-122.0913723,,30.835579,0.1,312.23187,1599239664431
Fix,GT,37.4205824,-122.0916298,,30.802444,0.1,312.22668,1599239665431
Fix,GT,37.4207692,-122.091887,,30.746078,0.1,312.279,1599239666431
Fix,GT,37.4209556,-122.0921432,,30.63446,0.1,312.3385,1599239667431
Fix,GT,37.4211412,-122.0923983,,30.470577,0.1,312.24277,1599239668431
Fix,GT,37.4213253,-122.0926523,,30.317276,0.1,312.0654,1599239669431
Fix,GT,37.4215084,-122.0929059,,30.229313,0.1,312.00992,1599239670431
Fix,GT,37.4216907,-122.0931584,,30.088394,0.1,312.13202,1599239671431
Fix,GT,37.4218728,-122.0934093,,29.928003,0.1,312.281,1599239672431
Fix,GT,37.4220544,-122.0936584,,29.835876,0.1,312.36252,1599239673431
Fix,GT,37.4222357,-122.0939068,,29.75464,0.1,312.42935,1599239674431
Fix,GT,37.4224169,-122.0941541,,29.673512,0.1,312.56793,1599239675431
Fix,GT,37.4225978,-122.0944005,,29.659199,0.1,312.38126,1599239676431
Fix,GT,37.4227776,-122.0946488,,29.74178,0.1,311.81555,1599239677431
Fix,GT,37.4229568,-122.0948996,,29.859219,0.1,311.7531,1599239678431
Fix,GT,37.4231371,-122.0951506,,29.926996,0.1,312.15637,1599239679431
Fix,GT,37.4233191,-122.0954008,,30.046888,0.1,312.33066,1599239680431
Fix,GT,37.4235022,-122.0956528,,30.327938,0.1,312.1145,1599239681431
Fix,GT,37.4236863,-122.0959084,,30.645977,0.1,311.88034,1599239682431
Fix,GT,37.423872,-122.0961669,,30.94231,0.1,312.07373,1599239683431
Fix,GT,37.4240607,-122.0964261,,31.182919,0.1,312.63882,1599239684431
Fix,GT,37.4242528,-122.0966842,,31.288807,0.1,313.24915,1599239685431
Fix,GT,37.4244473,-122.0969404,,31.330444,0.1,313.84073,1599239686431
Fix,GT,37.4246445,-122.097194,,31.37835,0.1,314.63098,1599239687431
Fix,GT,37.4248448,-122.0974448,,31.48502,0.1,315.40936,1599239688431
Fix,GT,37.4250488,-122.0976931,,31.602337,0.1,316.14984,1599239689431
Fix,GT,37.4252562,-122.0979382,,31.639868,0.1,317.1217,1599239690431
Fix,GT,37.425467,-122.0981789,,31.6672,0.1,318.0227,1599239691431
Fix,GT,37.4256805,-122.0984167,,31.756565,0.1,318.67923,1599239692431
Fix,GT,37.4258971,-122.098652,,31.848145,0.1,319.38477,1599239693431
Fix,GT,37.4261163,-122.0988844,,31.845768,0.1,320.00952,1599239694431
Fix,GT,37.426337,-122.099114,,31.823826,0.1,320.3935,1599239695431
Fix,GT,37.4265584,-122.0993422,,31.818111,0.1,320.497,1599239696431
Fix,GT,37.4267794,-122.0995707,,31.734688,0.1,320.0781,1599239697431
Fix,GT,37.4269977,-122.0998008,,31.57529,0.1,319.69678,1599239698431
Fix,GT,37.4272147,-122.1000311,,31.536945,0.1,319.7025,1599239699431
Fix,GT,37.4274318,-122.1002608,,31.533413,0.1,319.67624,1599239700431
Fix,GT,37.4276482,-122.1004907,,31.419582,0.1,319.51923,1599239701431
Fix,GT,37.4278635,-122.1007202,,31.316875,0.1,319.57956,1599239702431
Fix,GT,37.4280785,-122.1009478,,31.097256,0.1,319.8806,1599239703431
Fix,GT,37.4282928,-122.1011729,,31.004993,0.1,320.00198,1599239704431
Fix,GT,37.4285078,-122.1013984,,31.271458,0.1,319.98737,1599239705431
Fix,GT,37.4287247,-122.1016261,,31.504345,0.1,319.9856,1599239706431
Fix,GT,37.4289424,-122.1018548,,31.53299,0.1,319.88614,1599239707431
Fix,GT,37.4291605,-122.1020845,,31.706314,0.1,319.85712,1599239708431
Fix,GT,37.4293803,-122.1023159,,32.015446,0.1,319.89008,1599239709431
Fix,GT,37.4296025,-122.1025493,,32.328693,0.1,319.99933,1599239710431
Fix,GT,37.4298275,-122.1027848,,32.75284,0.1,320.04535,1599239711431
Fix,GT,37.4300557,-122.1030234,,33.199776,0.1,320.15402,1599239712431
Fix,GT,37.4302872,-122.1032647,,33.653587,0.1,320.17377,1599239713431
Fix,GT,37.4305219,-122.1035096,,34.11869,0.1,320.10037,1599239714431
Fix,GT,37.4307593,-122.1037582,,34.480545,0.1,320.01077,1599239715431
Fix,GT,37.4309982,-122.104009,,34.628685,0.1,319.93408,1599239716431
Fix,GT,37.4312372,-122.1042605,,34.60028,0.1,319.83847,1599239717431
Fix,GT,37.4314755,-122.1045125,,34.62269,0.1,319.7346,1599239718431
Fix,GT,37.4317141,-122.1047653,,34.71016,0.1,319.7783,1599239719431
Fix,GT,37.4319533,-122.1050178,,34.65674,0.1,319.8932,1599239720431
Fix,GT,37.4321921,-122.105269,,34.54514,0.1,320.0106,1599239721431
Fix,GT,37.432431,-122.1055191,,34.58781,0.1,320.09454,1599239722431
Fix,GT,37.4326712,-122.1057701,,34.854774,0.1,320.11642,1599239723431
Fix,GT,37.4329136,-122.1060235,,35.157326,0.1,320.04242,1599239724431
Fix,GT,37.4331575,-122.1062792,,35.38054,0.1,319.93274,1599239725431
Fix,GT,37.4334024,-122.1065366,,35.54409,0.1,319.96536,1599239726431
Fix,GT,37.4336484,-122.1067947,,35.64846,0.1,320.04547,1599239727431
Fix,GT,37.4338951,-122.1070531,,35.678257,0.1,320.01483,1599239728431
Fix,GT,37.4341418,-122.107312,,35.735687,0.1,319.96817,1599239729431
Fix,GT,37.4343889,-122.1075711,,35.769478,0.1,320.11438,1599239730431
Fix,GT,37.4346368,-122.1078297,,35.809715,0.1,320.19748,1599239731431
Fix,GT,37.4348851,-122.108089,,35.91914,0.1,320.04532,1599239732431
Fix,GT,37.4351335,-122.10835,,36.02322,0.1,319.95837,1599239733431
Fix,GT,37.4353827,-122.1086117,,36.0921,0.1,319.99512,1599239734431
Fix,GT,37.4356323,-122.108873,,36.11853,0.1,320.08844,1599239735431
Fix,GT,37.4358824,-122.1091347,,36.220993,0.1,320.10587,1599239736431
Fix,GT,37.4361335,-122.1093971,,36.303745,0.1,320.1478,1599239737431
Fix,GT,37.436385,-122.1096594,,36.295277,0.1,320.18967,1599239738431
Fix,GT,37.436636,-122.1099217,,36.20415,0.1,320.01627,1599239739431
Fix,GT,37.4368853,-122.1101844,,36.08052,0.1,319.74542,1599239740431
Fix,GT,37.4371333,-122.1104468,,35.960407,0.1,319.83334,1599239741431
Fix,GT,37.4373814,-122.1107075,,35.88822,0.1,320.18225,1599239742431
Fix,GT,37.4376303,-122.1109659,,35.845566,0.1,320.38882,1599239743431
Fix,GT,37.437879,-122.1112242,,35.82584,0.1,320.1493,1599239744431
Fix,GT,37.4381263,-122.1114843,,35.81078,0.1,319.75507,1599239745431
Fix,GT,37.4383728,-122.1117449,,35.732464,0.1,319.76416,1599239746431
Fix,GT,37.4386186,-122.1120051,,35.658817,0.1,319.66513,1599239747431
Fix,GT,37.4388635,-122.1122653,,35.59198,0.1,319.5961,1599239748431
Fix,GT,37.4391082,-122.1125251,,35.596794,0.1,319.79343,1599239749431
Fix,GT,37.4393541,-122.1127841,,35.693104,0.1,319.99512,1599239750431
Fix,GT,37.4396012,-122.1130424,,35.72054,0.1,320.11798,1599239751431
Fix,GT,37.4398481,-122.1133005,,35.624672,0.1,320.0711,1599239752431
Fix,GT,37.440094,-122.1135584,,35.525,0.1,319.9449,1599239753431
Fix,GT,37.440339,-122.113816,,35.47278,0.1,319.92957,1599239754431
Fix,GT,37.4405839,-122.1140735,,35.50366,0.1,319.9406,1599239755431
Fix,GT,37.4408295,-122.1143318,,35.647247,0.1,319.96152,1599239756431
Fix,GT,37.4410759,-122.1145912,,35.72309,0.1,319.88483,1599239757431
Fix,GT,37.4413222,-122.1148508,,35.693413,0.1,319.85474,1599239758431
Fix,GT,37.4415684,-122.1151103,,35.756348,0.1,319.82874,1599239759431
Fix,GT,37.4418154,-122.1153711,,35.92093,0.1,319.8067,1599239760431
Fix,GT,37.4420638,-122.1156332,,36.10147,0.1,319.8572,1599239761431
Fix,GT,37.4423133,-122.115896,,36.230675,0.1,319.90912,1599239762431
Fix,GT,37.4425637,-122.1161595,,36.307373,0.1,319.9822,1599239763431
Fix,GT,37.4428149,-122.1164228,,36.377426,0.1,320.05264,1599239764431
Fix,GT,37.4430667,-122.1166865,,36.415604,0.1,320.03152,1599239765431
Fix,GT,37.4433184,-122.1169504,,36.418205,0.1,319.99557,1599239766431
Fix,GT,37.4435702,-122.1172143,,36.38425,0.1,320.04318,1599239767431
Fix,GT,37.4438214,-122.117477,,36.194107,0.1,320.20627,1599239768431
Fix,GT,37.4440717,-122.1177373,,35.972904,0.1,320.2906,1599239769431
Fix,GT,37.4443205,-122.1179962,,35.819206,0.1,320.1728,1599239770431
Fix,GT,37.4445677,-122.118255,,35.62028,0.1,319.97546,1599239771431
Fix,GT,37.4448128,-122.1185125,,35.340923,0.1,319.95938,1599239772431
Fix,GT,37.4450559,-122.1187677,,35.02437,0.1,320.05167,1599239773431
Fix,GT,37.4452971,-122.1190202,,34.730247,0.1,320.09143,1599239774431
Fix,GT,37.4455365,-122.1192703,,34.423573,0.1,320.0843,1599239775431
Fix,GT,37.4457734,-122.1195182,,34.051918,0.1,320.039,1599239776431
Fix,GT,37.4460074,-122.1197633,,33.60498,0.1,319.97348,1599239777431
Fix,GT,37.4462379,-122.1200055,,33.138863,0.1,319.94934,1599239778431
Fix,GT,37.4464653,-122.120244,,32.670696,0.1,320.06036,1599239779431
Fix,GT,37.4466896,-122.1204785,,32.124954,0.1,320.1394,1599239780431
Fix,GT,37.4469095,-122.1207087,,31.421085,0.1,319.97763,1599239781431
Fix,GT,37.4471235,-122.1209341,,30.620321,0.1,319.805,1599239782431
Fix,GT,37.4473316,-122.1211543,,29.809856,0.1,319.7801,1599239783431
Fix,GT,37.4475345,-122.1213691,,29.142563,0.1,319.78238,1599239784431
Fix,GT,37.4477339,-122.121579,,28.692654,0.1,320.07553,1599239785431
Fix,GT,37.4479313,-122.1217853,,28.35237,0.1,320.18134,1599239786431
Fix,GT,37.4481267,-122.1219891,,28.07629,0.1,320.11844,1599239787431
Fix,GT,37.44832,-122.1221914,,27.795149,0.1,320.06168,1599239788431
Fix,GT,37.4485111,-122.1223919,,27.489946,0.1,319.99335,1599239789431
Fix,GT,37.4487001,-122.1225905,,27.271692,0.1,319.91653,1599239790431
Fix,GT,37.4488881,-122.1227888,,27.321877,0.1,319.8283,1599239791431
Fix,GT,37.4490776,-122.1229887,,27.666712,0.1,319.967,1599239792431
Fix,GT,37.4492702,-122.1231907,,28.033356,0.1,319.99945,1599239793431
Fix,GT,37.4494643,-122.1233948,,28.171295,0.1,319.82422,1599239794431
Fix,GT,37.4496588,-122.1235997,,28.17279,0.1,320.03625,1599239795431
Fix,GT,37.449854,-122.1238033,,28.195637,0.1,320.25256,1599239796431
Fix,GT,37.4500498,-122.1240072,,28.3177,0.1,320.15192,1599239797431
Fix,GT,37.4502461,-122.1242124,,28.33815,0.1,320.07758,1599239798431
Fix,GT,37.4504414,-122.1244172,,28.142214,0.1,319.9193,1599239799431
Fix,GT,37.4506335,-122.1246226,,27.934666,0.1,319.08084,1599239800431
Fix,GT,37.4508219,-122.1248313,,27.89609,0.1,317.85712,1599239801431
Fix,GT,37.4510075,-122.1250455,,28.13425,0.1,316.78134,1599239802431
Fix,GT,37.4511925,-122.1252658,,28.455383,0.1,316.13654,1599239803431
Fix,GT,37.4513765,-122.1254904,,28.484844,0.1,315.30945,1599239804431
Fix,GT,37.4515565,-122.1257178,,28.19252,0.1,314.16388,1599239805431
Fix,GT,37.451731,-122.1259469,,27.898293,0.1,313.01706,1599239806431
Fix,GT,37.4519001,-122.1261789,,27.799263,0.1,311.77502,1599239807431
Fix,GT,37.4520655,-122.1264154,,27.870152,0.1,310.61658,1599239808431
Fix,GT,37.4522272,-122.1266564,,27.866217,0.1,309.44824,1599239809431
Fix,GT,37.4523849,-122.1269005,,27.702557,0.1,308.56088,1599239810431
Fix,GT,37.4525389,-122.1271449,,27.380722,0.1,307.87756,1599239811431
Fix,GT,37.4526878,-122.1273889,,27.002434,0.1,306.92346,1599239812431
Fix,GT,37.4528317,-122.1276327,,26.708702,0.1,306.21835,1599239813431
Fix,GT,37.452973,-122.1278754,,26.496292,0.1,306.06226,1599239814431
Fix,GT,37.4531137,-122.1281164,,26.374992,0.1,306.2918,1599239815431
Fix,GT,37.4532546,-122.1283561,,26.353176,0.1,306.3602,1599239816431
Fix,GT,37.4533957,-122.1285956,,26.355572,0.1,306.29706,1599239817431
Fix,GT,37.4535365,-122.1288353,,26.330198,0.1,306.30005,1599239818431
Fix,GT,37.4536771,-122.1290745,,26.226936,0.1,306.2928,1599239819431
Fix,GT,37.4538166,-122.1293129,,26.137428,0.1,306.12643,1599239820431
Fix,GT,37.4539558,-122.1295518,,26.257439,0.1,306.05325,1599239821431
Fix,GT,37.4540963,-122.1297922,,26.506096,0.1,306.2294,1599239822431
Fix,GT,37.4542387,-122.1300342,,26.696232,0.1,306.3373,1599239823431
Fix,GT,37.454382,-122.1302783,,26.987232,0.1,306.1846,1599239824431
Fix,GT,37.4545265,-122.1305262,,27.387596,0.1,305.95154,1599239825431
Fix,GT,37.4546724,-122.1307782,,27.654922,0.1,305.87524,1599239826431
Fix,GT,37.4548191,-122.131031,,27.647831,0.1,306.01868,1599239827431
Fix,GT,37.454966,-122.1312828,,27.609749,0.1,306.17505,1599239828431
Fix,GT,37.4551133,-122.1315347,,27.680569,0.1,306.1739,1599239829431
Fix,GT,37.4552608,-122.131787,,27.635044,0.1,306.1604,1599239830431
Fix,GT,37.4554077,-122.1320379,,27.475819,0.1,306.25006,1599239831431
Fix,GT,37.4555544,-122.1322873,,27.356987,0.1,306.44092,1599239832431
Fix,GT,37.4557014,-122.1325354,,27.378254,0.1,306.57935,1599239833431
Fix,GT,37.4558491,-122.132784,,27.469667,0.1,306.60864,1599239834431
Fix,GT,37.4559971,-122.1330328,,27.440166,0.1,306.6204,1599239835431
Fix,GT,37.4561447,-122.1332817,,27.465565,0.1,306.3982,1599239836431
Fix,GT,37.4562918,-122.1335319,,27.576519,0.1,306.22632,1599239837431
Fix,GT,37.4564392,-122.1337829,,27.551077,0.1,306.3295,1599239838431
Fix,GT,37.4565867,-122.134033,,27.50148,0.1,306.45935,1599239839431
Fix,GT,37.4567342,-122.1342826,,27.481823,0.1,306.4067,1599239840431
Fix,GT,37.4568812,-122.1345324,,27.47173,0.1,306.3287,1599239841431
Fix,GT,37.4570283,-122.1347821,,27.465834,0.1,306.48337,1599239842431
Fix,GT,37.4571758,-122.1350312,,27.44505,0.1,306.49927,1599239843431
Fix,GT,37.4573226,-122.1352805,,27.43189,0.1,306.22913,1599239844431
Fix,GT,37.4574689,-122.1355308,,27.447872,0.1,306.14276,1599239845431
Fix,GT,37.4576152,-122.1357805,,27.394005,0.1,306.32452,1599239846431
Fix,GT,37.457762,-122.1360286,,27.26382,0.1,306.61707,1599239847431
Fix,GT,37.4579085,-122.136275,,27.136848,0.1,306.58704,1599239848431
Fix,GT,37.4580541,-122.1365212,,27.117733,0.1,306.37482,1599239849431
Fix,GT,37.4581992,-122.1367679,,27.126328,0.1,306.3376,1599239850431
Fix,GT,37.4583441,-122.1370142,,27.004078,0.1,306.40344,1599239851431
Fix,GT,37.4584884,-122.1372593,,26.939754,0.1,306.30048,1599239852431
Fix,GT,37.4586322,-122.137505,,27.000267,0.1,306.14874,1599239853431
Fix,GT,37.4587761,-122.1377511,,27.022701,0.1,306.2448,1599239854431
Fix,GT,37.4589207,-122.1379975,,27.135445,0.1,306.28064,1599239855431
Fix,GT,37.4590662,-122.1382456,,27.37408,0.1,306.23422,1599239856431
Fix,GT,37.4592129,-122.1384956,,27.518047,0.1,306.26752,1599239857431
Fix,GT,37.4593603,-122.1387463,,27.576607,0.1,306.3254,1599239858431
Fix,GT,37.4595077,-122.1389974,,27.621666,0.1,306.28,1599239859431
Fix,GT,37.4596551,-122.1392484,,27.502884,0.1,306.31305,1599239860431
Fix,GT,37.4598017,-122.1394974,,27.258286,0.1,306.3926,1599239861431
Fix,GT,37.459947,-122.1397439,,26.994392,0.1,306.38815,1599239862431
Fix,GT,37.4600907,-122.1399882,,26.726204,0.1,306.2884,1599239863431
Fix,GT,37.4602325,-122.1402306,,26.458748,0.1,306.12207,1599239864431
Fix,GT,37.4603723,-122.1404708,,26.161623,0.1,305.989,1599239865431
Fix,GT,37.4605101,-122.1407082,,25.7729,0.1,306.03748,1599239866431
Fix,GT,37.460646,-122.1409411,,25.291681,0.1,306.26202,1599239867431
Fix,GT,37.4607801,-122.141169,,24.834364,0.1,306.4713,1599239868431
Fix,GT,37.4609124,-122.1413928,,24.449684,0.1,306.51776,1599239869431
Fix,GT,37.4610427,-122.1416129,,24.062012,0.1,306.53027,1599239870431
Fix,GT,37.4611712,-122.1418292,,23.672882,0.1,306.5913,1599239871431
Fix,GT,37.4612975,-122.1420422,,23.305815,0.1,306.4727,1599239872431
Fix,GT,37.4614214,-122.1422526,,22.994884,0.1,306.2411,1599239873431
Fix,GT,37.4615433,-122.1424612,,22.802528,0.1,306.11234,1599239874431
Fix,GT,37.4616646,-122.1426693,,22.849606,0.1,306.13965,1599239875431
Fix,GT,37.4617865,-122.1428774,,22.83762,0.1,306.27676,1599239876431
Fix,GT,37.4619078,-122.1430843,,22.59319,0.1,306.20523,1599239877431
Fix,GT,37.4620274,-122.1432897,,22.459969,0.1,305.93835,1599239878431
Fix,GT,37.4621468,-122.1434955,,22.594936,0.1,305.99426,1599239879431
Fix,GT,37.4622676,-122.1437032,,22.91375,0.1,306.0312,1599239880431
Fix,GT,37.4623899,-122.1439146,,23.318348,0.1,305.71506,1599239881431
Fix,GT,37.4625135,-122.1441302,,23.650856,0.1,305.60876,1599239882431
Fix,GT,37.4626387,-122.1443476,,23.758404,0.1,305.93216,1599239883431
Fix,GT,37.4627653,-122.144564,,23.723255,0.1,306.3663,1599239884431
Fix,GT,37.4628928,-122.1447789,,23.677124,0.1,306.649,1599239885431
Fix,GT,37.4630202,-122.1449933,,23.64001,0.1,306.4986,1599239886431
Fix,GT,37.4631466,-122.1452079,,23.551493,0.1,306.18475,1599239887431
Fix,GT,37.4632717,-122.145422,,23.404799,0.1,306.1378,1599239888431
Fix,GT,37.4633961,-122.1456343,,23.243929,0.1,306.24695,1599239889431
Fix,GT,37.4635201,-122.1458453,,23.163908,0.1,306.33173,1599239890431
Fix,GT,37.4636441,-122.1460562,,23.265,0.1,306.26428,1599239891431
Fix,GT,37.4637688,-122.1462688,,23.396889,0.1,306.14606,1599239892431
Fix,GT,37.4638934,-122.1464823,,23.404722,0.1,306.09003,1599239893431
Fix,GT,37.4640176,-122.1466955,,23.324741,0.1,306.06522,1599239894431
Fix,GT,37.4641418,-122.1469084,,23.378155,0.1,306.2102,1599239895431
Fix,GT,37.4642678,-122.1471223,,23.70141,0.1,306.47403,1599239896431
Fix,GT,37.4643963,-122.1473392,,24.129175,0.1,306.45242,1599239897431
Fix,GT,37.4645265,-122.1475602,,24.49528,0.1,306.22937,1599239898431
Fix,GT,37.4646576,-122.1477842,,24.660717,0.1,306.17798,1599239899431
Fix,GT,37.4647893,-122.1480092,,24.775478,0.1,306.25626,1599239900431
Fix,GT,37.4649221,-122.1482353,,24.89288,0.1,306.3234,1599239901431
Fix,GT,37.4650557,-122.1484624,,25.044746,0.1,306.35532,1599239902431
Fix,GT,37.4651905,-122.1486912,,25.295973,0.1,306.34216,1599239903431
Fix,GT,37.4653262,-122.1489221,,25.485813,0.1,306.27148,1599239904431
Fix,GT,37.4654624,-122.1491548,,25.570293,0.1,306.1717,1599239905431
Fix,GT,37.4655991,-122.1493882,,25.658499,0.1,306.1884,1599239906431
Fix,GT,37.4657363,-122.1496221,,25.739334,0.1,306.26318,1599239907431
Fix,GT,37.4658741,-122.1498565,,25.784498,0.1,306.29596,1599239908431
Fix,GT,37.4660118,-122.1500912,,25.773445,0.1,306.25797,1599239909431
Fix,GT,37.4661492,-122.1503252,,25.648542,0.1,306.2695,1599239910431
Fix,GT,37.466286,-122.1505582,,25.555075,0.1,306.25922,1599239911431
Fix,GT,37.4664224,-122.150791,,25.553295,0.1,306.19675,1599239912431
Fix,GT,37.4665588,-122.1510242,,25.643707,0.1,306.13312,1599239913431
Fix,GT,37.4666959,-122.1512586,,25.829012,0.1,306.17563,1599239914431
Fix,GT,37.4668343,-122.1514946,,25.996656,0.1,306.2774,1599239915431
Fix,GT,37.4669735,-122.1517314,,26.03911,0.1,306.32013,1599239916431
Fix,GT,37.467113,-122.1519688,,26.171568,0.1,306.31082,1599239917431
Fix,GT,37.4672535,-122.1522085,,26.463188,0.1,306.21643,1599239918431
Fix,GT,37.4673953,-122.1524509,,26.704178,0.1,306.13748,1599239919431
Fix,GT,37.4675381,-122.1526953,,26.918533,0.1,306.20535,1599239920431
Fix,GT,37.4676827,-122.1529409,,27.081911,0.1,306.5554,1599239921431
Fix,GT,37.4678291,-122.1531861,,27.077248,0.1,306.75525,1599239922431
Fix,GT,37.4679751,-122.1534308,,27.004414,0.1,306.59717,1599239923431
Fix,GT,37.46812,-122.1536754,,26.926762,0.1,306.59283,1599239924431
Fix,GT,37.4682644,-122.1539188,,26.747318,0.1,306.58047,1599239925431
Fix,GT,37.4684075,-122.1541602,,26.442726,0.1,306.42755,1599239926431
Fix,GT,37.4685479,-122.1543991,,26.083881,0.1,306.23383,1599239927431
Fix,GT,37.468686,-122.1546353,,25.728699,0.1,306.14304,1599239928431
Fix,GT,37.4688221,-122.1548683,,25.377365,0.1,306.17273,1599239929431
Fix,GT,37.4689569,-122.155098,,25.10667,0.1,306.29584,1599239930431
Fix,GT,37.4690908,-122.1553256,,24.964745,0.1,306.39893,1599239931431
Fix,GT,37.4692246,-122.1555521,,24.925789,0.1,306.40503,1599239932431
Fix,GT,37.4693584,-122.1557791,,25.069546,0.1,306.31058,1599239933431
Fix,GT,37.4694929,-122.1560086,,25.362654,0.1,306.1365,1599239934431
Fix,GT,37.4696284,-122.1562414,,25.64315,0.1,305.9345,1599239935431
Fix,GT,37.4697646,-122.1564767,,25.803747,0.1,305.8532,1599239936431
Fix,GT,37.4699015,-122.1567131,,25.885292,0.1,305.94385,1599239937431
Fix,GT,37.470039,-122.1569498,,25.926434,0.1,306.00836,1599239938431
Fix,GT,37.4701771,-122.1571871,,26.102312,0.1,306.1134,1599239939431
Fix,GT,37.4703174,-122.1574256,,26.354385,0.1,306.62094,1599239940431
Fix,GT,37.4704605,-122.1576641,,26.425816,0.1,306.95773,1599239941431
Fix,GT,37.4706036,-122.1579025,,26.375864,0.1,306.60336,1599239942431
Fix,GT,37.4707451,-122.1581424,,26.438396,0.1,306.2863,1599239943431
Fix,GT,37.4708865,-122.1583841,,26.589699,0.1,306.11856,1599239944431
Fix,GT,37.4710284,-122.158627,,26.67995,0.1,306.14062,1599239945431
Fix,GT,37.4711708,-122.1588706,,26.747381,0.1,306.10358,1599239946431
Fix,GT,37.4713129,-122.159115,,26.764465,0.1,305.94232,1599239947431
Fix,GT,37.4714545,-122.1593597,,26.750431,0.1,305.90332,1599239948431
Fix,GT,37.4715961,-122.1596047,,26.755392,0.1,305.85477,1599239949431
Fix,GT,37.4717378,-122.1598493,,26.753426,0.1,305.98727,1599239950431
Fix,GT,37.47188,-122.1600931,,26.669601,0.1,306.17706,1599239951431
Fix,GT,37.4720216,-122.1603353,,26.462452,0.1,306.16516,1599239952431
Fix,GT,37.472162,-122.1605753,,26.210712,0.1,306.18048,1599239953431
Fix,GT,37.4723013,-122.1608133,,26.039448,0.1,306.20532,1599239954431
Fix,GT,37.4724403,-122.1610501,,26.023884,0.1,306.27478,1599239955431
Fix,GT,37.4725795,-122.161287,,26.054317,0.1,306.28256,1599239956431
Fix,GT,37.4727185,-122.161524,,25.992474,0.1,306.2324,1599239957431
Fix,GT,37.4728572,-122.1617607,,25.961967,0.1,306.15134,1599239958431
Fix,GT,37.4729956,-122.161998,,26.060892,0.1,306.0848,1599239959431
Fix,GT,37.4731348,-122.1622358,,26.150684,0.1,306.34094,1599239960431
Fix,GT,37.4732755,-122.1624735,,26.224506,0.1,306.6025,1599239961431
Fix,GT,37.4734168,-122.1627116,,26.297756,0.1,306.57614,1599239962431
Fix,GT,37.4735583,-122.1629505,,26.325958,0.1,306.42282,1599239963431
Fix,GT,37.4736991,-122.16319,,26.325651,0.1,306.1983,1599239964431
Fix,GT,37.4738394,-122.1634311,,26.585423,0.1,305.8126,1599239965431
Fix,GT,37.4739806,-122.1636771,,27.04993,0.1,305.653,1599239966431
Fix,GT,37.4741241,-122.1639261,,27.25618,0.1,305.98566,1599239967431
Fix,GT,37.4742697,-122.1641745,,27.285255,0.1,306.3381,1599239968431
Fix,GT,37.4744163,-122.1644229,,27.414476,0.1,306.49878,1599239969431
Fix,GT,37.4745639,-122.1646723,,27.554623,0.1,306.4874,1599239970431
Fix,GT,37.474712,-122.164923,,27.674026,0.1,306.4038,1599239971431
Fix,GT,37.4748607,-122.1651753,,27.834051,0.1,306.31247,1599239972431
Fix,GT,37.4750099,-122.1654295,,28.026157,0.1,306.25037,1599239973431
Fix,GT,37.47516,-122.1656856,,28.201134,0.1,306.24283,1599239974431
Fix,GT,37.4753109,-122.1659427,,28.235317,0.1,306.2529,1599239975431
Fix,GT,37.4754613,-122.1661994,,28.103569,0.1,306.18564,1599239976431
Fix,GT,37.4756104,-122.1664549,,27.929836,0.1,306.029,1599239977431
Fix,GT,37.4757581,-122.1667095,,27.810009,0.1,305.9455,1599239978431
Fix,GT,37.4759052,-122.166963,,27.62923,0.1,305.9924,1599239979431
Fix,GT,37.4760513,-122.1672143,,27.38183,0.1,306.12198,1599239980431
Fix,GT,37.4761967,-122.1674625,,27.130245,0.1,306.34613,1599239981431
Fix,GT,37.4763416,-122.167708,,26.910336,0.1,306.51602,1599239982431
Fix,GT,37.476486,-122.1679509,,26.735226,0.1,306.78653,1599239983431
Fix,GT,37.4766313,-122.168191,,26.58128,0.1,307.50143,1599239984431
Fix,GT,37.4767783,-122.1684273,,26.470474,0.1,308.14978,1599239985431
Fix,GT,37.4769252,-122.1686625,,26.414776,0.1,307.70984,1599239986431
Fix,GT,37.4770694,-122.1688999,,26.399187,0.1,306.78363,1599239987431
Fix,GT,37.4772109,-122.1691395,,26.341782,0.1,306.2378,1599239988431
Fix,GT,37.4773504,-122.1693794,,26.161686,0.1,305.9634,1599239989431
Fix,GT,37.4774882,-122.1696181,,25.930756,0.1,305.79797,1599239990431
Fix,GT,37.4776245,-122.1698548,,25.725098,0.1,305.8611,1599239991431
Fix,GT,37.4777604,-122.1700892,,25.55314,0.1,306.08603,1599239992431
Fix,GT,37.4778961,-122.1703222,,25.538216,0.1,306.1188,1599239993431
Fix,GT,37.4780323,-122.1705561,,25.735859,0.1,306.0656,1599239994431
Fix,GT,37.4781695,-122.1707921,,25.91158,0.1,305.9984,1599239995431
Fix,GT,37.4783069,-122.1710296,,25.989454,0.1,305.83835,1599239996431
Fix,GT,37.4784441,-122.1712684,,26.111166,0.1,305.64557,1599239997431
Fix,GT,37.4785817,-122.1715089,,26.268051,0.1,305.68942,1599239998431
Fix,GT,37.4787206,-122.1717499,,26.309868,0.1,305.94107,1599239999431
Fix,GT,37.4788603,-122.1719902,,26.300343,0.1,306.1338,1599240000431
Fix,GT,37.4790006,-122.1722299,,26.327168,0.1,306.16208,1599240001431
Fix,GT,37.4791413,-122.1724697,,26.377464,0.1,306.2259,1599240002431
Fix,GT,37.4792825,-122.1727099,,26.45335,0.1,306.32065,1599240003431
Fix,GT,37.4794244,-122.1729514,,26.603678,0.1,306.40842,1599240004431
Fix,GT,37.4795673,-122.1731935,,26.646544,0.1,306.4754,1599240005431
Fix,GT,37.4797097,-122.173435,,26.506111,0.1,306.29935,1599240006431
Fix,GT,37.4798505,-122.1736759,,26.330206,0.1,306.13696,1599240007431
Fix,GT,37.4799899,-122.1739153,,26.102695,0.1,305.9927,1599240008431
Fix,GT,37.4801273,-122.1741528,,25.802643,0.1,305.9024,1599240009431
Fix,GT,37.480263,-122.1743872,,25.442059,0.1,305.98508,1599240010431
Fix,GT,37.4803972,-122.1746181,,25.095116,0.1,306.13773,1599240011431
Fix,GT,37.4805301,-122.1748454,,24.784897,0.1,306.41025,1599240012431
Fix,GT,37.4806626,-122.1750695,,24.583076,0.1,306.68216,1599240013431
Fix,GT,37.4807948,-122.1752919,,24.505459,0.1,306.59604,1599240014431
Fix,GT,37.4809255,-122.1755144,,24.394266,0.1,306.18604,1599240015431
Fix,GT,37.4810549,-122.1757374,,24.430693,0.1,305.90994,1599240016431
Fix,GT,37.4811842,-122.175962,,24.571838,0.1,305.74164,1599240017431
Fix,GT,37.4813137,-122.1761874,,24.560993,0.1,305.85522,1599240018431
Fix,GT,37.4814437,-122.176412,,24.580599,0.1,306.06268,1599240019431
Fix,GT,37.4815743,-122.1766373,,24.752243,0.1,305.95532,1599240020431
Fix,GT,37.4817056,-122.1768659,,25.108086,0.1,305.55078,1599240021431
Fix,GT,37.4818379,-122.1770992,,25.543346,0.1,305.20947,1599240022431
Fix,GT,37.4819714,-122.1773371,,25.941647,0.1,304.9608,1599240023431
Fix,GT,37.4821055,-122.1775802,,26.330212,0.1,304.2362,1599240024431
Fix,GT,37.482238,-122.1778292,,26.604397,0.1,303.12744,1599240025431
Fix,GT,37.4823681,-122.1780832,,26.79848,0.1,302.28333,1599240026431
Fix,GT,37.4824961,-122.1783409,,26.91784,0.1,301.53577,1599240027431
Fix,GT,37.482622,-122.1786013,,26.93571,0.1,300.88873,1599240028431
Fix,GT,37.4827453,-122.1788634,,26.884197,0.1,300.10635,1599240029431
Fix,GT,37.482865,-122.1791273,,26.799522,0.1,299.0689,1599240030431
Fix,GT,37.4829803,-122.1793922,,26.586987,0.1,298.08386,1599240031431
Fix,GT,37.4830912,-122.1796567,,26.262894,0.1,297.34048,1599240032431
Fix,GT,37.4831985,-122.1799191,,25.89885,0.1,296.94806,1599240033431
Fix,GT,37.4833026,-122.1801788,,25.545204,0.1,296.3136,1599240034431
Fix,GT,37.4834029,-122.1804373,,25.328575,0.1,295.48242,1599240035431
Fix,GT,37.4834998,-122.1806956,,25.177643,0.1,294.87015,1599240036431
Fix,GT,37.4835933,-122.1809532,,24.870264,0.1,294.0903,1599240037431
Fix,GT,37.4836831,-122.1812087,,24.536285,0.1,293.49353,1599240038431
Fix,GT,37.4837699,-122.1814618,,24.211056,0.1,293.08667,1599240039431
Fix,GT,37.4838542,-122.1817123,,23.890003,0.1,292.6554,1599240040431
Fix,GT,37.4839359,-122.1819603,,23.58511,0.1,292.2428,1599240041431
Fix,GT,37.4840154,-122.1822065,,23.430668,0.1,291.83698,1599240042431
Fix,GT,37.4840932,-122.182453,,23.468113,0.1,291.33133,1599240043431
Fix,GT,37.4841693,-122.1827011,,23.5635,0.1,290.8421,1599240044431
Fix,GT,37.4842447,-122.1829513,,23.736065,0.1,290.57214,1599240045431
Fix,GT,37.4843199,-122.1832038,,23.960785,0.1,290.3377,1599240046431
Fix,GT,37.4843948,-122.1834598,,24.322426,0.1,289.91153,1599240047431
Fix,GT,37.4844691,-122.1837211,,24.747753,0.1,289.23904,1599240048431
Fix,GT,37.4845419,-122.1839884,,25.210512,0.1,288.441,1599240049431
Fix,GT,37.4846135,-122.1842622,,25.799105,0.1,287.88153,1599240050431
Fix,GT,37.4846853,-122.1845434,,26.406464,0.1,287.57077,1599240051431
Fix,GT,37.4847573,-122.1848315,,26.991152,0.1,287.1245,1599240052431
Fix,GT,37.4848287,-122.185126,,27.46129,0.1,286.62677,1599240053431
Fix,GT,37.4848991,-122.1854258,,27.782759,0.1,286.1066,1599240054431
Fix,GT,37.4849677,-122.1857287,,27.879368,0.1,285.5238,1599240055431
Fix,GT,37.485034,-122.1860327,,27.868713,0.1,285.025,1599240056431
Fix,GT,37.4850984,-122.1863372,,27.897709,0.1,284.57465,1599240057431
Fix,GT,37.4851612,-122.1866438,,28.119766,0.1,284.20258,1599240058431
Fix,GT,37.4852231,-122.1869541,,28.478642,0.1,283.73648,1599240059431
Fix,GT,37.4852828,-122.1872688,,28.694613,0.1,282.8846,1599240060431
Fix,GT,37.4853393,-122.1875856,,28.681574,0.1,282.30652,1599240061431
Fix,GT,37.4853937,-122.1879016,,28.462822,0.1,281.95956,1599240062431
Fix,GT,37.4854456,-122.1882148,,28.118023,0.1,281.3728,1599240063431
Fix,GT,37.4854938,-122.1885251,,27.823591,0.1,280.62814,1599240064431
Fix,GT,37.4855387,-122.1888338,,27.737907,0.1,279.9529,1599240065431
Fix,GT,37.485581,-122.1891432,,27.778656,0.1,279.4776,1599240066431
Fix,GT,37.4856218,-122.1894526,,27.662907,0.1,279.2328,1599240067431
Fix,GT,37.4856614,-122.1897601,,27.40562,0.1,278.9751,1599240068431
Fix,GT,37.4856996,-122.1900646,,27.12057,0.1,278.70178,1599240069431
Fix,GT,37.4857366,-122.1903662,,26.86877,0.1,278.64722,1599240070431
Fix,GT,37.4857733,-122.190665,,26.611689,0.1,278.67267,1599240071431
Fix,GT,37.4858097,-122.1909611,,26.393759,0.1,278.6827,1599240072431
Fix,GT,37.4858458,-122.1912551,,26.237064,0.1,278.64362,1599240073431
Fix,GT,37.4858814,-122.1915475,,26.101475,0.1,278.5689,1599240074431
Fix,GT,37.4859166,-122.1918387,,25.991488,0.1,278.5651,1599240075431
Fix,GT,37.4859521,-122.192129,,25.961563,0.1,278.6855,1599240076431
Fix,GT,37.485988,-122.1924194,,26.065014,0.1,278.75238,1599240077431
Fix,GT,37.4860241,-122.1927117,,26.276402,0.1,278.67432,1599240078431
Fix,GT,37.4860605,-122.1930064,,26.480064,0.1,278.7149,1599240079431
Fix,GT,37.4860976,-122.193303,,26.612228,0.1,278.86523,1599240080431
Fix,GT,37.4861349,-122.193601,,26.732948,0.1,278.85437,1599240081431
Fix,GT,37.486172,-122.1939001,,26.80767,0.1,278.81567,1599240082431
Fix,GT,37.4862095,-122.1941998,,26.871986,0.1,278.83273,1599240083431
Fix,GT,37.4862471,-122.1945006,,26.992123,0.1,278.79495,1599240084431
Fix,GT,37.4862845,-122.1948028,,27.090244,0.1,278.72165,1599240085431
Fix,GT,37.4863219,-122.1951055,,27.105686,0.1,278.70575,1599240086431
Fix,GT,37.4863593,-122.1954088,,27.196663,0.1,278.66116,1599240087431
Fix,GT,37.4863966,-122.1957135,,27.326237,0.1,278.64246,1599240088431
Fix,GT,37.4864341,-122.1960195,,27.4328,0.1,278.69043,1599240089431
Fix,GT,37.486472,-122.1963265,,27.496185,0.1,278.78955,1599240090431
Fix,GT,37.4865105,-122.1966335,,27.453175,0.1,278.86694,1599240091431
Fix,GT,37.4865488,-122.1969394,,27.323277,0.1,278.81985,1599240092431
Fix,GT,37.4865866,-122.1972436,,27.119917,0.1,278.7206,1599240093431
Fix,GT,37.4866238,-122.1975449,,26.805481,0.1,278.7813,1599240094431
Fix,GT,37.486661,-122.1978424,,26.480497,0.1,278.89334,1599240095431
Fix,GT,37.4866979,-122.1981369,,26.26778,0.1,278.83087,1599240096431
Fix,GT,37.4867345,-122.19843,,26.213707,0.1,278.79968,1599240097431
Fix,GT,37.486771,-122.198723,,26.233437,0.1,278.83136,1599240098431
Fix,GT,37.4868077,-122.1990158,,26.171652,0.1,278.8095,1599240099431
Fix,GT,37.4868439,-122.1993074,,26.040688,0.1,278.7721,1599240100431
Fix,GT,37.4868798,-122.1995977,,25.921602,0.1,278.69437,1599240101431
Fix,GT,37.4869152,-122.1998868,,25.802422,0.1,278.69788,1599240102431
Fix,GT,37.4869506,-122.2001744,,25.67662,0.1,278.75104,1599240103431
Fix,GT,37.486986,-122.2004605,,25.543116,0.1,278.778,1599240104431
Fix,GT,37.4870216,-122.2007452,,25.416496,0.1,278.91922,1599240105431
Fix,GT,37.4870574,-122.201028,,25.239052,0.1,279.05856,1599240106431
Fix,GT,37.4870933,-122.2013081,,24.940823,0.1,279.02917,1599240107431
Fix,GT,37.4871285,-122.2015854,,24.74659,0.1,278.88428,1599240108431
Fix,GT,37.4871628,-122.2018616,,24.702118,0.1,278.65118,1599240109431
Fix,GT,37.4871961,-122.2021372,,24.60507,0.1,278.5176,1599240110431
Fix,GT,37.4872294,-122.2024118,,24.53598,0.1,278.6745,1599240111431
Fix,GT,37.4872633,-122.2026857,,24.489239,0.1,278.80536,1599240112431
Fix,GT,37.4872972,-122.2029587,,24.403522,0.1,278.722,1599240113431
Fix,GT,37.4873307,-122.2032311,,24.393265,0.1,278.7308,1599240114431
Fix,GT,37.4873647,-122.2035041,,24.458656,0.1,278.8357,1599240115431
Fix,GT,37.4873988,-122.2037777,,24.540386,0.1,278.6905,1599240116431
Fix,GT,37.4874322,-122.2040524,,24.604021,0.1,278.5594,1599240117431
Fix,GT,37.4874658,-122.2043276,,24.639484,0.1,278.68036,1599240118431
Fix,GT,37.4874999,-122.204603,,24.6606,0.1,278.82718,1599240119431
Fix,GT,37.4875343,-122.2048788,,24.709297,0.1,278.77728,1599240120431
Fix,GT,37.4875686,-122.2051551,,24.739317,0.1,278.7456,1599240121431
Fix,GT,37.4876031,-122.205431,,24.61768,0.1,278.87567,1599240122431
Fix,GT,37.4876378,-122.2057048,,24.430264,0.1,278.9668,1599240123431
Fix,GT,37.4876724,-122.2059766,,24.27671,0.1,278.9627,1599240124431
Fix,GT,37.4877068,-122.2062472,,24.208393,0.1,278.87573,1599240125431
Fix,GT,37.4877405,-122.2065176,,24.21389,0.1,278.80005,1599240126431
Fix,GT,37.4877748,-122.2067886,,24.349983,0.1,279.05853,1599240127431
Fix,GT,37.4878112,-122.2070619,,24.681911,0.1,279.77588,1599240128431
Fix,GT,37.4878514,-122.2073385,,25.027332,0.1,280.61096,1599240129431
Fix,GT,37.4878948,-122.2076176,,25.251831,0.1,281.2157,1599240130431
Fix,GT,37.4879404,-122.2078979,,25.302162,0.1,281.63962,1599240131431
Fix,GT,37.4879877,-122.2081775,,25.260162,0.1,282.10596,1599240132431
Fix,GT,37.4880365,-122.2084566,,25.295052,0.1,282.43796,1599240133431
Fix,GT,37.4880866,-122.2087366,,25.466183,0.1,282.61676,1599240134431
Fix,GT,37.4881379,-122.2090181,,25.61222,0.1,282.98163,1599240135431
Fix,GT,37.4881913,-122.2093005,,25.704296,0.1,283.54318,1599240136431
Fix,GT,37.4882473,-122.209583,,25.799778,0.1,284.19736,1599240137431
Fix,GT,37.4883061,-122.2098661,,25.989601,0.1,284.78564,1599240138431
Fix,GT,37.4883676,-122.2101512,,26.250044,0.1,285.3196,1599240139431
Fix,GT,37.4884318,-122.2104382,,26.419964,0.1,285.89258,1599240140431
Fix,GT,37.4884987,-122.2107247,,26.333206,0.1,286.5386,1599240141431
Fix,GT,37.4885676,-122.2110074,,25.955708,0.1,287.28723,1599240142431
Fix,GT,37.488638,-122.2112847,,25.495049,0.1,287.88724,1599240143431
Fix,GT,37.4887088,-122.2115558,,24.957943,0.1,288.2193,1599240144431
Fix,GT,37.488779,-122.2118205,,24.382076,0.1,288.45862,1599240145431
Fix,GT,37.4888487,-122.212079,,23.939423,0.1,288.78778,1599240146431
Fix,GT,37.4889188,-122.2123329,,23.605106,0.1,289.28928,1599240147431
Fix,GT,37.48899,-122.2125831,,23.401737,0.1,289.8673,1599240148431
Fix,GT,37.4890633,-122.2128311,,23.399319,0.1,290.63455,1599240149431
Fix,GT,37.4891396,-122.2130783,,23.533472,0.1,291.53677,1599240150431
Fix,GT,37.4892191,-122.2133265,,23.78427,0.1,291.88544,1599240151431
Fix,GT,37.4892996,-122.213577,,23.964695,0.1,291.85147,1599240152431
Fix,GT,37.4893811,-122.2138278,,23.952965,0.1,292.48877,1599240153431
Fix,GT,37.489465,-122.2140771,,23.906925,0.1,293.13174,1599240154431
Fix,GT,37.4895505,-122.2143248,,23.84731,0.1,293.46268,1599240155431
Fix,GT,37.4896369,-122.2145714,,23.790802,0.1,293.86484,1599240156431
Fix,GT,37.4897247,-122.2148168,,23.808453,0.1,294.33627,1599240157431
Fix,GT,37.4898146,-122.2150613,,23.81966,0.1,295.04086,1599240158431
Fix,GT,37.4899072,-122.2153047,,23.962734,0.1,295.73883,1599240159431
Fix,GT,37.4900026,-122.2155493,,24.20937,0.1,296.16016,1599240160431
Fix,GT,37.4900998,-122.215795,,24.267372,0.1,296.51398,1599240161431
Fix,GT,37.4901983,-122.2160396,,24.207638,0.1,296.9148,1599240162431
Fix,GT,37.490298,-122.2162827,,24.141748,0.1,297.28293,1599240163431
Fix,GT,37.4903987,-122.2165244,,24.14309,0.1,297.7383,1599240164431
Fix,GT,37.4905015,-122.216766,,24.327965,0.1,298.24356,1599240165431
Fix,GT,37.490607,-122.2170085,,24.551853,0.1,298.78015,1599240166431
Fix,GT,37.490715,-122.2172515,,24.629631,0.1,299.3169,1599240167431
Fix,GT,37.4908244,-122.217494,,24.626156,0.1,299.41028,1599240168431
Fix,GT,37.4909332,-122.2177361,,24.536762,0.1,299.19714,1599240169431
Fix,GT,37.491041,-122.2179776,,24.439394,0.1,299.15894,1599240170431
Fix,GT,37.4911484,-122.2182183,,24.359222,0.1,299.11285,1599240171431
Fix,GT,37.4912553,-122.2184585,,24.287712,0.1,298.99963,1599240172431
Fix,GT,37.4913614,-122.2186981,,24.178307,0.1,298.85297,1599240173431
Fix,GT,37.4914666,-122.2189363,,23.986261,0.1,298.97504,1599240174431
Fix,GT,37.4915716,-122.2191723,,23.843348,0.1,299.1843,1599240175431
Fix,GT,37.4916764,-122.2194069,,23.731873,0.1,299.13028,1599240176431
Fix,GT,37.4917801,-122.2196406,,23.54768,0.1,298.95547,1599240177431
Fix,GT,37.4918826,-122.2198725,,23.36525,0.1,298.98685,1599240178431
Fix,GT,37.4919846,-122.2201026,,23.237755,0.1,299.0695,1599240179431
Fix,GT,37.4920863,-122.2203316,,23.128395,0.1,299.04608,1599240180431
Fix,GT,37.4921872,-122.2205594,,22.967113,0.1,298.87192,1599240181431
Fix,GT,37.492287,-122.2207858,,22.805092,0.1,298.92517,1599240182431
Fix,GT,37.4923871,-122.2210105,,22.747616,0.1,299.22437,1599240183431
Fix,GT,37.4924878,-122.2212349,,22.821392,0.1,299.25827,1599240184431
Fix,GT,37.4925888,-122.2214607,,22.953121,0.1,299.12738,1599240185431
Fix,GT,37.4926898,-122.2216874,,22.964077,0.1,299.1367,1599240186431
Fix,GT,37.4927906,-122.2219144,,23.005949,0.1,298.9835,1599240187431
Fix,GT,37.492891,-122.2221436,,23.264933,0.1,298.53198,1599240188431
Fix,GT,37.4929919,-122.222376,,23.554672,0.1,298.59766,1599240189431
Fix,GT,37.4930949,-122.2226114,,23.985119,0.1,298.90063,1599240190431
Fix,GT,37.4932002,-122.222852,,24.598251,0.1,298.66162,1599240191431
Fix,GT,37.4933074,-122.2230995,,25.232765,0.1,298.40387,1599240192431
Fix,GT,37.4934165,-122.2233544,,25.903591,0.1,298.09778,1599240193431
Fix,GT,37.4935267,-122.2236162,,26.407814,0.1,297.48917,1599240194431
Fix,GT,37.4936357,-122.2238834,,26.642315,0.1,296.71823,1599240195431
Fix,GT,37.4937424,-122.224153,,26.571648,0.1,296.1566,1599240196431
Fix,GT,37.493847,-122.2244222,,26.410706,0.1,295.8502,1599240197431
Fix,GT,37.4939496,-122.2246903,,26.180397,0.1,295.35858,1599240198431
Fix,GT,37.4940487,-122.2249571,,25.86134,0.1,294.5855,1599240199431
Fix,GT,37.4941436,-122.2252215,,25.463692,0.1,293.95294,1599240200431
Fix,GT,37.4942354,-122.2254832,,25.099506,0.1,293.55362,1599240201431
Fix,GT,37.4943247,-122.2257422,,24.79731,0.1,293.27133,1599240202431
Fix,GT,37.4944116,-122.2259986,,24.49635,0.1,292.76566,1599240203431
Fix,GT,37.4944951,-122.226253,,24.177526,0.1,291.96387,1599240204431
Fix,GT,37.4945747,-122.2265055,,23.84952,0.1,291.2292,1599240205431
Fix,GT,37.4946511,-122.2267557,,23.529507,0.1,290.7122,1599240206431
Fix,GT,37.494725,-122.2270032,,23.219723,0.1,290.44315,1599240207431
Fix,GT,37.4947971,-122.2272479,,22.920116,0.1,290.0928,1599240208431
Fix,GT,37.4948671,-122.2274901,,22.668526,0.1,289.73117,1599240209431
Fix,GT,37.4949359,-122.2277302,,22.475037,0.1,289.75186,1599240210431
Fix,GT,37.4950045,-122.2279688,,22.416965,0.1,289.80154,1599240211431
Fix,GT,37.4950733,-122.2282078,,22.526846,0.1,289.72095,1599240212431
Fix,GT,37.4951419,-122.2284479,,22.538572,0.1,289.4858,1599240213431
Fix,GT,37.4952097,-122.228687,,22.32727,0.1,289.43518,1599240214431
Fix,GT,37.495276,-122.2289236,,22.018776,0.1,289.11673,1599240215431
Fix,GT,37.4953404,-122.229157,,21.684055,0.1,288.98718,1599240216431
Fix,GT,37.4954042,-122.2293874,,21.464218,0.1,289.13864,1599240217431
Fix,GT,37.4954678,-122.2296167,,21.548908,0.1,289.01425,1599240218431
Fix,GT,37.4955316,-122.2298484,,21.808712,0.1,288.8805,1599240219431
Fix,GT,37.4955962,-122.2300826,,22.005768,0.1,289.0708,1599240220431
Fix,GT,37.4956615,-122.2303184,,22.176077,0.1,289.0051,1599240221431
Fix,GT,37.4957269,-122.2305571,,22.473385,0.1,288.79855,1599240222431
Fix,GT,37.4957929,-122.2307987,,22.63063,0.1,288.92896,1599240223431
Fix,GT,37.49586,-122.2310396,,22.461882,0.1,289.51117,1599240224431
Fix,GT,37.4959285,-122.2312776,,22.31852,0.1,290.07144,1599240225431
Fix,GT,37.4959981,-122.2315142,,22.291914,0.1,290.1337,1599240226431
Fix,GT,37.4960671,-122.2317507,,22.25806,0.1,289.8115,1599240227431
Fix,GT,37.496135,-122.231987,,22.128304,0.1,289.57352,1599240228431
Fix,GT,37.4962015,-122.2322215,,21.899414,0.1,289.39398,1599240229431
Fix,GT,37.496267,-122.2324537,,21.685587,0.1,289.31702,1599240230431
Fix,GT,37.496332,-122.2326839,,21.498096,0.1,289.4662,1599240231431
Fix,GT,37.496397,-122.2329114,,21.246601,0.1,289.89246,1599240232431
Fix,GT,37.4964624,-122.2331355,,20.999464,0.1,289.95734,1599240233431
Fix,GT,37.4965268,-122.2333579,,20.847607,0.1,289.64682,1599240234431
Fix,GT,37.4965899,-122.233579,,20.66124,0.1,289.64612,1599240235431
Fix,GT,37.4966527,-122.2337975,,20.427414,0.1,289.67715,1599240236431
Fix,GT,37.4967146,-122.234014,,20.286314,0.1,289.5457,1599240237431
Fix,GT,37.4967762,-122.2342298,,20.256245,0.1,289.6511,1599240238431
Fix,GT,37.4968385,-122.2344456,,20.39973,0.1,290.03918,1599240239431
Fix,GT,37.4969039,-122.2346622,,20.593857,0.1,291.29343,1599240240431
Fix,GT,37.4969742,-122.2348785,,20.73529,0.1,292.63556,1599240241431
Fix,GT,37.4970477,-122.2350955,,20.947989,0.1,293.18362,1599240242431
Fix,GT,37.4971236,-122.235313,,21.035389,0.1,293.82227,1599240243431
Fix,GT,37.4972017,-122.23553,,21.067245,0.1,294.46466,1599240244431
Fix,GT,37.4972817,-122.2357456,,20.99777,0.1,295.2225,1599240245431
Fix,GT,37.4973639,-122.2359588,,20.883759,0.1,296.06873,1599240246431
Fix,GT,37.4974481,-122.2361691,,20.704601,0.1,296.93472,1599240247431
Fix,GT,37.4975339,-122.2363758,,20.535912,0.1,297.8783,1599240248431
Fix,GT,37.4976225,-122.236579,,20.466606,0.1,299.12628,1599240249431
Fix,GT,37.4977144,-122.2367795,,20.449524,0.1,300.2792,1599240250431
Fix,GT,37.4978087,-122.2369779,,20.40839,0.1,301.11572,1599240251431
Fix,GT,37.4979052,-122.237174,,20.35507,0.1,302.0987,1599240252431
Fix,GT,37.4980043,-122.237367,,20.29821,0.1,303.28445,1599240253431
Fix,GT,37.4981069,-122.2375578,,20.457731,0.1,304.47504,1599240254431
Fix,GT,37.4982139,-122.2377485,,20.806835,0.1,305.47308,1599240255431
Fix,GT,37.4983253,-122.2379397,,21.063326,0.1,306.60693,1599240256431
Fix,GT,37.4984408,-122.2381292,,21.096315,0.1,307.9702,1599240257431
Fix,GT,37.4985598,-122.2383144,,20.99509,0.1,309.3563,1599240258431
Fix,GT,37.4986818,-122.2384956,,21.022041,0.1,310.66742,1599240259431
Fix,GT,37.4988073,-122.2386746,,21.163486,0.1,311.80365,1599240260431
Fix,GT,37.498937,-122.2388521,,21.48822,0.1,312.9587,1599240261431
Fix,GT,37.4990718,-122.2390297,,21.895485,0.1,314.05377,1599240262431
Fix,GT,37.4992116,-122.2392069,,22.228073,0.1,315.1419,1599240263431
Fix,GT,37.4993564,-122.2393835,,22.574558,0.1,316.19315,1599240264431
Fix,GT,37.4995052,-122.2395592,,22.718912,0.1,317.00778,1599240265431
Fix,GT,37.4996558,-122.2397333,,22.741077,0.1,317.5123,1599240266431
Fix,GT,37.4998076,-122.2399067,,22.865978,0.1,317.62106,1599240267431
Fix,GT,37.4999609,-122.2400825,,23.209103,0.1,317.43127,1599240268431
Fix,GT,37.5001165,-122.2402617,,23.63247,0.1,317.36624,1599240269431
Fix,GT,37.5002744,-122.2404431,,23.881104,0.1,317.57397,1599240270431
Fix,GT,37.5004343,-122.2406254,,24.015692,0.1,317.71033,1599240271431
Fix,GT,37.5005946,-122.2408081,,24.032707,0.1,317.62277,1599240272431
Fix,GT,37.5007547,-122.2409909,,24.014755,0.1,317.66443,1599240273431
Fix,GT,37.5009153,-122.2411733,,24.119236,0.1,317.93793,1599240274431
Fix,GT,37.5010777,-122.2413562,,24.29115,0.1,318.06427,1599240275431
Fix,GT,37.5012412,-122.2415408,,24.540451,0.1,317.9032,1599240276431
Fix,GT,37.5014064,-122.2417278,,24.856312,0.1,317.8304,1599240277431
Fix,GT,37.5015733,-122.241917,,25.033768,0.1,317.9026,1599240278431
Fix,GT,37.5017412,-122.2421066,,25.043207,0.1,318.01196,1599240279431
Fix,GT,37.5019089,-122.2422952,,24.964966,0.1,318.0972,1599240280431
Fix,GT,37.5020765,-122.2424834,,24.917564,0.1,318.01617,1599240281431
Fix,GT,37.5022433,-122.2426716,,24.891552,0.1,317.8491,1599240282431
Fix,GT,37.5024097,-122.2428605,,24.929718,0.1,317.76947,1599240283431
Fix,GT,37.5025766,-122.2430502,,25.073719,0.1,317.7183,1599240284431
Fix,GT,37.5027445,-122.2432408,,25.211376,0.1,317.80652,1599240285431
Fix,GT,37.5029137,-122.2434322,,25.36169,0.1,317.91806,1599240286431
Fix,GT,37.5030837,-122.2436246,,25.396713,0.1,317.76035,1599240287431
Fix,GT,37.5032525,-122.243817,,25.221676,0.1,317.57837,1599240288431
Fix,GT,37.5034202,-122.2440085,,25.110369,0.1,317.68896,1599240289431
Fix,GT,37.503588,-122.2441986,,25.063976,0.1,318.037,1599240290431
Fix,GT,37.5037563,-122.2443871,,25.009014,0.1,318.14032,1599240291431
Fix,GT,37.5039239,-122.2445753,,24.89899,0.1,317.8982,1599240292431
Fix,GT,37.5040902,-122.2447634,,24.785477,0.1,317.90143,1599240293431
Fix,GT,37.5042562,-122.2449499,,24.671185,0.1,318.1476,1599240294431
Fix,GT,37.5044217,-122.2451351,,24.519787,0.1,318.19705,1599240295431
Fix,GT,37.5045859,-122.2453192,,24.367798,0.1,318.13086,1599240296431
Fix,GT,37.5047489,-122.2455025,,24.197697,0.1,317.92737,1599240297431
Fix,GT,37.5049103,-122.245685,,24.001629,0.1,318.02832,1599240298431
Fix,GT,37.50507,-122.245866,,23.77652,0.1,318.1329,1599240299431
Fix,GT,37.5052281,-122.2460454,,23.525862,0.1,317.59778,1599240300431
Fix,GT,37.5053843,-122.2462231,,23.236744,0.1,317.66098,1599240301431
Fix,GT,37.5055383,-122.2463984,,22.920652,0.1,317.75504,1599240302431
Fix,GT,37.5056907,-122.2465708,,22.646254,0.1,317.89517,1599240303431
Fix,GT,37.5058417,-122.2467417,,22.471624,0.1,317.78928,1599240304431
Fix,GT,37.5059911,-122.246912,,22.371033,0.1,317.5528,1599240305431
Fix,GT,37.50614,-122.2470829,,22.415947,0.1,317.48193,1599240306431
Fix,GT,37.5062899,-122.2472541,,22.55988,0.1,317.73712,1599240307431
Fix,GT,37.5064413,-122.2474255,,22.697044,0.1,317.9097,1599240308431
Fix,GT,37.5065937,-122.2475976,,22.81707,0.1,317.8999,1599240309431
Fix,GT,37.5067472,-122.247771,,23.053516,0.1,317.9151,1599240310431
Fix,GT,37.5069028,-122.247947,,23.449379,0.1,317.85904,1599240311431
Fix,GT,37.5070609,-122.2481258,,23.715649,0.1,317.91388,1599240312431
Fix,GT,37.5072199,-122.2483052,,23.707432,0.1,317.9464,1599240313431
Fix,GT,37.5073787,-122.2484843,,23.690235,0.1,317.90918,1599240314431
Fix,GT,37.5075375,-122.248664,,23.770527,0.1,317.86523,1599240315431
Fix,GT,37.5076968,-122.2488443,,23.805412,0.1,317.82333,1599240316431
Fix,GT,37.5078561,-122.2490245,,23.798193,0.1,317.92398,1599240317431
Fix,GT,37.5080155,-122.2492043,,23.778711,0.1,317.92383,1599240318431
Fix,GT,37.5081749,-122.2493848,,23.861012,0.1,317.75247,1599240319431
Fix,GT,37.5083345,-122.2495663,,23.945557,0.1,317.6842,1599240320431
Fix,GT,37.5084947,-122.2497486,,24.065136,0.1,317.76987,1599240321431
Fix,GT,37.5086563,-122.2499318,,24.296387,0.1,317.90222,1599240322431
Fix,GT,37.50882,-122.2501166,,24.554241,0.1,317.99823,1599240323431
Fix,GT,37.5089852,-122.2503025,,24.64412,0.1,318.0333,1599240324431
Fix,GT,37.5091501,-122.2504886,,24.577698,0.1,317.922,1599240325431
Fix,GT,37.5093141,-122.2506741,,24.390152,0.1,317.8094,1599240326431
Fix,GT,37.5094761,-122.2508581,,24.09438,0.1,317.76947,1599240327431
Fix,GT,37.5096359,-122.25104,,23.782045,0.1,317.747,1599240328431
Fix,GT,37.5097937,-122.2512193,,23.469126,0.1,317.79257,1599240329431
Fix,GT,37.5099497,-122.2513962,,23.230225,0.1,317.88834,1599240330431
Fix,GT,37.5101048,-122.2515715,,23.111874,0.1,317.85983,1599240331431
Fix,GT,37.5102587,-122.2517467,,22.960197,0.1,317.51947,1599240332431
Fix,GT,37.5104104,-122.2519217,,22.756287,0.1,317.24948,1599240333431
Fix,GT,37.5105603,-122.2520953,,22.541359,0.1,317.25958,1599240334431
Fix,GT,37.510709,-122.2522671,,22.338177,0.1,317.28876,1599240335431
Fix,GT,37.5108567,-122.2524385,,22.329498,0.1,316.86145,1599240336431
Fix,GT,37.5110041,-122.2526132,,22.739616,0.1,316.122,1599240337431
Fix,GT,37.5111543,-122.2527947,,23.56446,0.1,316.03796,1599240338431
Fix,GT,37.5113111,-122.2529829,,24.641838,0.1,316.40073,1599240339431
Fix,GT,37.5114764,-122.2531782,,25.75477,0.1,316.83936,1599240340431
Fix,GT,37.51165,-122.2533806,,26.804668,0.1,317.15717,1599240341431
Fix,GT,37.5118301,-122.2535894,,27.574783,0.1,317.12308,1599240342431
Fix,GT,37.5120141,-122.2538036,,28.090702,0.1,317.12427,1599240343431
Fix,GT,37.5122017,-122.2540205,,28.470646,0.1,317.51794,1599240344431
Fix,GT,37.5123921,-122.2542373,,28.57742,0.1,317.83032,1599240345431
Fix,GT,37.5125841,-122.254453,,28.588034,0.1,318.43567,1599240346431
Fix,GT,37.5127786,-122.2546658,,28.674006,0.1,319.33148,1599240347431
Fix,GT,37.5129755,-122.2548768,,28.760704,0.1,319.4466,1599240348431
Fix,GT,37.5131723,-122.2550885,,28.790052,0.1,319.07956,1599240349431
Fix,GT,37.5133688,-122.2553028,,29.061268,0.1,318.66275,1599240350431
Fix,GT,37.5135669,-122.2555216,,29.489023,0.1,318.37296,1599240351431
