MessageType,Provider,LatitudeDegrees,LongitudeDegrees,AltitudeMeters,SpeedMps,AccuracyMeters,BearingDegrees,UnixTimeMillis
Fix,GT,37.4153935,-122.0803693,,0.0018690983,0.1,178.66211,1591811324446
Fix,GT,37.4153935,-122.0803693,,0.0012292614,0.1,178.66132,1591811325446
Fix,GT,37.4153935,-122.0803693,,0.001,0.1,178.66113,1591811326446
Fix,GT,37.4153935,-122.0803693,,0.001,0.1,178.66113,1591811327446
Fix,GT,37.4153935,-122.0803693,,0.001,0.1,178.66113,1591811328446
Fix,GT,37.4153935,-122.0803693,,0.001551922,0.1,178.66089,1591811329446
Fix,GT,37.4153935,-122.0803693,,0.0026496337,0.1,178.6604,1591811330446
Fix,GT,37.4153935,-122.0803693,,0.0026433042,0.1,178.65967,1591811331446
Fix,GT,37.4153935,-122.0803693,,0.0021054079,0.1,178.65955,1591811332446
Fix,GT,37.4153935,-122.0803693,,0.0012376319,0.1,178.65942,1591811333446
Fix,GT,37.4153935,-122.0803693,,0.0,0.1,178.65906,1591811334446
Fix,GT,37.4153935,-122.0803693,,0.0004465142,0.1,178.65826,1591811335446
Fix,GT,37.4153935,-122.0803693,,0.0011849522,0.1,178.65741,1591811336446
Fix,GT,37.4153935,-122.0803693,,0.0012292613,0.1,178.65674,1591811337446
Fix,GT,37.4153935,-122.0803693,,0.001,0.1,178.65637,1591811338446
Fix,GT,37.4153935,-122.0803693,,0.001,0.1,178.65594,1591811339446
Fix,GT,37.4153935,-122.0803693,,0.001551922,0.1,178.65552,1591811340446
Fix,GT,37.4153935,-122.0803693,,0.002236068,0.1,178.65503,1591811341446
Fix,GT,37.4153935,-122.0803693,,0.0025005648,0.1,178.65424,1591811342446
Fix,GT,37.4153935,-122.0803693,,0.003175424,0.1,178.65393,1591811343446
Fix,GT,37.4153935,-122.0803693,,0.0038366467,0.1,178.65387,1591811344446
Fix,GT,37.4153935,-122.0803693,,0.0041231057,0.1,178.65356,1591811345446
Fix,GT,37.4153935,-122.0803693,,0.003621623,0.1,178.65344,1591811346446
Fix,GT,37.4153935,-122.0803693,,0.0038930285,0.1,178.65283,1591811347446
Fix,GT,37.4153935,-122.0803693,,0.0043773586,0.1,178.65125,1591811348446
Fix,GT,37.4153935,-122.0803693,,0.0038366467,0.1,178.65045,1591811349446
Fix,GT,37.4153935,-122.0803693,,0.0031751087,0.1,178.65009,1591811350446
Fix,GT,37.4153935,-122.0803693,,0.0017384379,0.1,178.64996,1591811351446
Fix,GT,37.4153935,-122.0803693,,0.0017811832,0.1,178.65002,1591811352446
Fix,GT,37.4153935,-122.0803693,,0.001684146,0.1,178.6496,1591811353446
Fix,GT,37.4153935,-122.0803693,,0.0027860568,0.1,178.64917,1591811354446
Fix,GT,37.4153935,-122.0803693,,0.004030362,0.1,178.6485,1591811355446
Fix,GT,37.4153935,-122.0803693,,0.0020120083,0.1,178.64728,1591811356446
Fix,GT,37.4153935,-122.0803693,,0.001,0.1,178.6471,1591811357446
Fix,GT,37.4153935,-122.0803693,,0.0011849522,0.1,178.64734,1591811358446
Fix,GT,37.4153935,-122.0803693,,0.0012292613,0.1,178.64642,1591811359446
Fix,GT,37.4153935,-122.0803693,,0.001,0.1,178.64539,1591811360446
Fix,GT,37.4153935,-122.0803693,,0.0014465143,0.1,178.64539,1591811361446
Fix,GT,37.4153935,-122.0803693,,0.0015534858,0.1,178.64526,1591811362446
Fix,GT,37.4153935,-122.0803693,,0.001,0.1,178.64465,1591811363446
Fix,GT,37.4153935,-122.0803693,,0.00055348576,0.1,178.64374,1591811364446
Fix,GT,37.4153935,-122.0803693,,0.00044651426,0.1,178.64294,1591811365446
Fix,GT,37.4153935,-122.0803693,,0.0011849522,0.1,178.64264,1591811366446
Fix,GT,37.4153935,-122.0803693,,0.0014142136,0.1,178.64209,1591811367446
Fix,GT,37.4153937,-122.0803693,,0.00204568,0.1,178.64221,1591811368446
Fix,GT,37.415394,-122.0803692,,0.0035623666,0.1,178.64252,1591811369446
Fix,GT,37.4153941,-122.0803692,,0.005632596,0.1,178.64197,1591811370446
Fix,GT,37.4153941,-122.0803693,,0.0074011227,0.1,178.64087,1591811371446
Fix,GT,37.4153941,-122.0803693,,0.0078102495,0.1,178.63953,1591811372446
Fix,GT,37.415394,-122.0803694,,0.048530027,0.1,178.6261,1591811373446
Fix,GT,37.4153931,-122.0803694,,0.17815223,0.1,178.60907,1591811374446
Fix,GT,37.4153908,-122.0803693,,0.3263201,0.1,178.6073,1591811375446
Fix,GT,37.4153872,-122.0803691,,0.51799136,0.1,178.59912,1591811376446
Fix,GT,37.4153788,-122.0803685,,1.492231,0.1,178.34576,1591811377446
Fix,GT,37.4153574,-122.0803663,,3.3683658,0.1,177.45618,1591811378446
Fix,GT,37.4153197,-122.0803615,,4.9191937,0.1,176.23334,1591811379446
Fix,GT,37.4152713,-122.0803549,,5.6916494,0.1,175.53137,1591811380446
Fix,GT,37.4152197,-122.0803439,,5.9354525,0.1,170.73926,1591811381446
Fix,GT,37.4151717,-122.080321,,5.684852,0.1,158.07623,1591811382446
Fix,GT,37.4151337,-122.0802848,,5.18029,0.1,141.89758,1591811383446
Fix,GT,37.4151093,-122.08024,,4.7607765,0.1,123.804596,1591811384446
Fix,GT,37.4150995,-122.0801922,,4.3614397,0.1,104.658325,1591811385446
Fix,GT,37.4151028,-122.0801465,,4.24364,0.1,86.4162,1591811386446
Fix,GT,37.4151154,-122.0801005,,4.6814556,0.1,73.60858,1591811387446
Fix,GT,37.4151335,-122.0800478,,5.573079,0.1,68.60321,1591811388446
Fix,GT,37.4151559,-122.0799859,,6.5615034,0.1,67.058136,1591811389446
Fix,GT,37.4151822,-122.079915,,7.163253,0.1,66.61774,1591811390446
Fix,GT,37.4152092,-122.0798416,,7.051752,0.1,66.92087,1591811391446
Fix,GT,37.4152347,-122.0797704,,6.7998466,0.1,67.67145,1591811392446
Fix,GT,37.4152585,-122.0797005,,6.630219,0.1,68.62192,1591811393446
Fix,GT,37.4152802,-122.0796334,,6.124161,0.1,69.537384,1591811394446
Fix,GT,37.4152989,-122.0795734,,5.1323166,0.1,70.23932,1591811395446
Fix,GT,37.4153131,-122.0795272,,3.5217123,0.1,70.27939,1591811396446
Fix,GT,37.415322,-122.0794989,,2.0655215,0.1,69.88745,1591811397446
Fix,GT,37.415328,-122.0794786,,2.1004562,0.1,70.4274,1591811398446
Fix,GT,37.4153353,-122.0794507,,3.2090406,0.1,72.58276,1591811399446
Fix,GT,37.4153446,-122.0794075,,4.677513,0.1,76.00476,1591811400446
Fix,GT,37.415355,-122.0793481,,6.0474358,0.1,79.20883,1591811401446
Fix,GT,37.4153672,-122.0792744,,7.303878,0.1,79.727936,1591811402446
Fix,GT,37.4153843,-122.0791874,,8.613615,0.1,77.09381,1591811403446
Fix,GT,37.4154086,-122.0790877,,9.85972,0.1,74.133545,1591811404446
Fix,GT,37.4154381,-122.0789777,,10.622279,0.1,72.98929,1591811405446
Fix,GT,37.4154692,-122.0788626,,10.855215,0.1,72.98779,1591811406446
Fix,GT,37.4154996,-122.078748,,10.524471,0.1,73.71405,1591811407446
Fix,GT,37.4155252,-122.0786386,,9.568907,0.1,76.61899,1591811408446
Fix,GT,37.4155418,-122.0785389,,8.3347,0.1,81.91345,1591811409446
Fix,GT,37.415549,-122.0784533,,6.825143,0.1,87.36365,1591811410446
Fix,GT,37.4155501,-122.0783854,,5.1102057,0.1,91.96237,1591811411446
Fix,GT,37.4155476,-122.0783369,,3.4867554,0.1,96.68494,1591811412446
Fix,GT,37.4155427,-122.0783042,,2.5182986,0.1,103.10809,1591811413446
Fix,GT,37.4155336,-122.0782767,,2.8983305,0.1,113.104614,1591811414446
Fix,GT,37.4155131,-122.0782466,,4.1659937,0.1,130.26764,1591811415446
Fix,GT,37.4154732,-122.078221,,5.5928135,0.1,155.13269,1591811416446
Fix,GT,37.4154159,-122.0782102,,7.0853376,0.1,174.31616,1591811417446
Fix,GT,37.4153442,-122.0782083,,8.765113,0.1,180.80615,1591811418446
Fix,GT,37.4152586,-122.0782095,,10.235966,0.1,182.65807,1591811419446
Fix,GT,37.4151608,-122.0782123,,11.461394,0.1,183.10854,1591811420446
Fix,GT,37.4150531,-122.078215,,12.475931,0.1,182.70485,1591811421446
Fix,GT,37.4149368,-122.078216,,13.366375,0.1,181.89397,1591811422446
Fix,GT,37.4148127,-122.0782157,,14.2283745,0.1,181.59538,1591811423446
Fix,GT,37.4146809,-122.0782157,,14.998751,0.1,181.97919,1591811424446
Fix,GT,37.4145435,-122.0782182,,15.380966,0.1,183.06822,1591811425446
Fix,GT,37.4144051,-122.0782255,,15.32864,0.1,184.98494,1591811426446
Fix,GT,37.4142681,-122.078239,,15.187261,0.1,187.19717,1591811427446
Fix,GT,37.4141328,-122.0782591,,15.037092,0.1,189.42393,1591811428446
Fix,GT,37.4139995,-122.078285,,14.88276,0.1,191.23802,1591811429446
Fix,GT,37.4138682,-122.0783121,,14.723693,0.1,190.91676,1591811430446
Fix,GT,37.4137376,-122.078335,,14.578905,0.1,189.31424,1591811431446
Fix,GT,37.4136076,-122.0783558,,14.504778,0.1,189.22029,1591811432446
Fix,GT,37.4134782,-122.0783786,,14.473217,0.1,190.3879,1591811433446
Fix,GT,37.4133501,-122.0784075,,14.335068,0.1,193.56584,1591811434446
Fix,GT,37.4132265,-122.0784507,,14.11422,0.1,200.3383,1591811435446
Fix,GT,37.413111,-122.0785161,,13.985754,0.1,210.06476,1591811436446
Fix,GT,37.4130083,-122.0786072,,13.931606,0.1,221.61717,1591811437446
Fix,GT,37.4129243,-122.0787245,,14.034519,0.1,235.2001,1591811438446
Fix,GT,37.4128653,-122.0788664,,14.380108,0.1,250.2423,1591811439446
Fix,GT,37.4128366,-122.079027,,14.7735,0.1,264.76596,1591811440446
Fix,GT,37.4128366,-122.0791961,,15.16877,0.1,276.0666,1591811441446
Fix,GT,37.4128596,-122.0793675,,15.573347,0.1,284.62994,1591811442446
Fix,GT,37.4129013,-122.0795382,,16.024744,0.1,291.40924,1591811443446
Fix,GT,37.4129573,-122.0797083,,16.57385,0.1,295.74597,1591811444446
Fix,GT,37.4130226,-122.0798804,,17.1689,0.1,298.08035,1591811445446
Fix,GT,37.4130945,-122.080056,,17.774761,0.1,299.60294,1591811446446
Fix,GT,37.4131724,-122.0802355,,18.411774,0.1,300.9275,1591811447446
Fix,GT,37.4132564,-122.0804193,,19.064644,0.1,302.04007,1591811448446
Fix,GT,37.4133453,-122.0806077,,19.700447,0.1,302.71414,1591811449446
Fix,GT,37.4134386,-122.0808012,,20.338226,0.1,303.28314,1591811450446
Fix,GT,37.413537,-122.0809994,,20.989447,0.1,304.24133,1591811451446
Fix,GT,37.4136432,-122.0811998,,21.609823,0.1,306.63763,1591811452446
Fix,GT,37.4137612,-122.0813978,,22.16034,0.1,310.36615,1591811453446
Fix,GT,37.4138921,-122.0815906,,22.561123,0.1,313.699,1591811454446
Fix,GT,37.414031,-122.0817784,,22.686811,0.1,315.30402,1591811455446
Fix,GT,37.4141717,-122.0819644,,22.734844,0.1,315.02817,1591811456446
Fix,GT,37.4143095,-122.0821552,,22.93054,0.1,312.8579,1591811457446
Fix,GT,37.41444,-122.0823577,,23.312225,0.1,309.01767,1591811458446
Fix,GT,37.4145608,-122.0825759,,23.872559,0.1,304.62177,1591811459446
Fix,GT,37.4146717,-122.0828111,,24.65326,0.1,300.85272,1591811460446
Fix,GT,37.4147783,-122.0830615,,25.600943,0.1,299.5641,1591811461446
Fix,GT,37.4148884,-122.0833216,,26.517752,0.1,300.0752,1591811462446
Fix,GT,37.415006,-122.0835874,,27.250944,0.1,301.5481,1591811463446
Fix,GT,37.4151344,-122.0838533,,27.71852,0.1,304.48428,1591811464446
Fix,GT,37.4152761,-122.0841135,,28.058558,0.1,307.6984,1591811465446
Fix,GT,37.4154296,-122.0843682,,28.454027,0.1,310.02115,1591811466446
Fix,GT,37.4155923,-122.0846198,,28.854963,0.1,311.57324,1591811467446
Fix,GT,37.4157613,-122.0848705,,29.260042,0.1,312.39236,1591811468446
Fix,GT,37.4159345,-122.0851225,,29.645567,0.1,312.6812,1591811469446
Fix,GT,37.4161104,-122.0853772,,29.987965,0.1,312.58377,1591811470446
Fix,GT,37.4162873,-122.0856357,,30.343002,0.1,312.21066,1591811471446
Fix,GT,37.4164644,-122.0858995,,30.722263,0.1,311.70123,1591811472446
Fix,GT,37.4166436,-122.0861671,,31.132748,0.1,312.06244,1591811473446
Fix,GT,37.4168277,-122.0864354,,31.508318,0.1,312.98172,1591811474446
Fix,GT,37.4170166,-122.0867036,,31.798164,0.1,313.52954,1591811475446
Fix,GT,37.4172083,-122.0869718,,31.927486,0.1,313.9201,1591811476446
Fix,GT,37.4174012,-122.0872392,,31.89553,0.1,314.08865,1591811477446
Fix,GT,37.4175945,-122.0875056,,31.86745,0.1,314.20456,1591811478446
Fix,GT,37.4177877,-122.0877719,,31.891903,0.1,314.10373,1591811479446
Fix,GT,37.4179808,-122.0880393,,31.998756,0.1,313.9291,1591811480446
Fix,GT,37.4181745,-122.0883083,,32.164623,0.1,313.97205,1591811481446
Fix,GT,37.4183693,-122.0885786,,32.336338,0.1,313.9256,1591811482446
Fix,GT,37.4185649,-122.0888507,,32.48371,0.1,313.79666,1591811483446
Fix,GT,37.4187609,-122.0891244,,32.601604,0.1,313.76715,1591811484446
Fix,GT,37.4189577,-122.0893987,,32.711044,0.1,313.8811,1591811485446
Fix,GT,37.4191556,-122.0896734,,32.82827,0.1,314.11884,1591811486446
Fix,GT,37.4193553,-122.089948,,32.963795,0.1,314.23755,1591811487446
Fix,GT,37.4195557,-122.0902236,,33.09248,0.1,314.06097,1591811488446
Fix,GT,37.4197561,-122.0905013,,33.196465,0.1,313.995,1591811489446
Fix,GT,37.4199575,-122.0907795,,33.295326,0.1,314.24753,1591811490446
Fix,GT,37.4201603,-122.0910577,,33.418945,0.1,314.3174,1591811491446
Fix,GT,37.4203639,-122.0913371,,33.580345,0.1,314.21732,1591811492446
Fix,GT,37.420568,-122.0916182,,33.732758,0.1,314.1032,1591811493446
Fix,GT,37.4207725,-122.0919011,,33.85385,0.1,314.05478,1591811494446
Fix,GT,37.4209777,-122.0921848,,33.934273,0.1,314.16586,1591811495446
Fix,GT,37.421184,-122.0924681,,33.95162,0.1,314.27383,1591811496446
Fix,GT,37.4213894,-122.0927521,,33.93126,0.1,313.64227,1591811497446
Fix,GT,37.4215912,-122.0930398,,33.924736,0.1,312.68744,1591811498446
Fix,GT,37.4217907,-122.0933305,,33.946976,0.1,312.6242,1591811499446
Fix,GT,37.4219913,-122.0936198,,33.90529,0.1,313.21356,1591811500446
Fix,GT,37.4221938,-122.0939058,,33.77986,0.1,313.69424,1591811501446
Fix,GT,37.4223968,-122.094189,,33.637455,0.1,313.84033,1591811502446
Fix,GT,37.4225995,-122.0944704,,33.49061,0.1,313.9931,1591811503446
Fix,GT,37.4228014,-122.0947503,,33.32346,0.1,313.91193,1591811504446
Fix,GT,37.4230021,-122.095029,,33.14198,0.1,313.92966,1591811505446
Fix,GT,37.4232022,-122.0953052,,32.88756,0.1,314.23117,1591811506446
Fix,GT,37.4234011,-122.0955777,,32.501698,0.1,314.3672,1591811507446
Fix,GT,37.4235976,-122.0958468,,32.092205,0.1,314.24878,1591811508446
Fix,GT,37.4237912,-122.0961134,,31.761868,0.1,314.07013,1591811509446
Fix,GT,37.423983,-122.0963778,,31.507465,0.1,314.27063,1591811510446
Fix,GT,37.4241747,-122.0966388,,31.279297,0.1,314.79166,1591811511446
Fix,GT,37.4243669,-122.0968958,,31.143238,0.1,315.14487,1591811512446
Fix,GT,37.4245594,-122.0971522,,31.254707,0.1,314.99506,1591811513446
Fix,GT,37.4247528,-122.0974107,,31.484352,0.1,315.23212,1591811514446
Fix,GT,37.4249498,-122.0976683,,31.68959,0.1,316.18845,1591811515446
Fix,GT,37.4251521,-122.0979226,,31.901033,0.1,317.39673,1591811516446
Fix,GT,37.4253602,-122.0981729,,32.088566,0.1,318.7665,1591811517446
Fix,GT,37.4255744,-122.0984181,,32.266994,0.1,320.13434,1591811518446
Fix,GT,37.4257938,-122.098659,,32.441723,0.1,321.12112,1591811519446
Fix,GT,37.4260172,-122.0988969,,32.61225,0.1,321.92307,1591811520446
Fix,GT,37.4262444,-122.0991322,,32.767906,0.1,322.69708,1591811521446
Fix,GT,37.4264743,-122.0993656,,32.890884,0.1,322.9965,1591811522446
Fix,GT,37.4267052,-122.099599,,32.92119,0.1,322.80692,1591811523446
Fix,GT,37.4269343,-122.099834,,32.769943,0.1,322.3407,1591811524446
Fix,GT,37.4271604,-122.1000698,,32.509377,0.1,321.86432,1591811525446
Fix,GT,37.4273832,-122.1003058,,32.25145,0.1,321.46198,1591811526446
Fix,GT,37.4276032,-122.1005417,,32.00745,0.1,321.16788,1591811527446
Fix,GT,37.427821,-122.1007769,,31.801376,0.1,321.15897,1591811528446
Fix,GT,37.4280382,-122.1010098,,31.605087,0.1,321.51608,1591811529446
Fix,GT,37.4282551,-122.101239,,31.370129,0.1,321.92297,1591811530446
Fix,GT,37.4284711,-122.1014654,,31.135468,0.1,321.97437,1591811531446
Fix,GT,37.4286855,-122.1016903,,30.90637,0.1,321.9181,1591811532446
Fix,GT,37.4288982,-122.1019136,,30.675262,0.1,321.92816,1591811533446
Fix,GT,37.4291095,-122.1021352,,30.477245,0.1,321.94736,1591811534446
Fix,GT,37.4293195,-122.1023555,,30.290842,0.1,321.97522,1591811535446
Fix,GT,37.4295283,-122.1025743,,30.128706,0.1,321.9508,1591811536446
Fix,GT,37.4297361,-122.1027924,,30.034048,0.1,321.87424,1591811537446
Fix,GT,37.4299431,-122.1030107,,30.01326,0.1,321.75967,1591811538446
Fix,GT,37.4301499,-122.1032293,,30.019356,0.1,321.74408,1591811539446
Fix,GT,37.430357,-122.1034476,,30.03738,0.1,321.88245,1591811540446
Fix,GT,37.4305646,-122.1036654,,30.058983,0.1,322.00214,1591811541446
Fix,GT,37.4307727,-122.1038829,,30.064758,0.1,322.02133,1591811542446
Fix,GT,37.4309806,-122.1041004,,30.027596,0.1,322.00287,1591811543446
Fix,GT,37.4311879,-122.1043178,,29.967476,0.1,321.9638,1591811544446
Fix,GT,37.4313944,-122.1045346,,29.77267,0.1,321.90305,1591811545446
Fix,GT,37.4315985,-122.104749,,29.256962,0.1,321.81757,1591811546446
Fix,GT,37.4317981,-122.104959,,28.564974,0.1,321.85474,1591811547446
Fix,GT,37.4319935,-122.1051642,,28.053844,0.1,321.93652,1591811548446
Fix,GT,37.4321867,-122.1053667,,27.905888,0.1,321.99286,1591811549446
Fix,GT,37.43238,-122.1055687,,27.936327,0.1,322.09564,1591811550446
Fix,GT,37.432574,-122.1057706,,28.015121,0.1,322.1415,1591811551446
Fix,GT,37.4327684,-122.1059736,,28.162292,0.1,322.0155,1591811552446
Fix,GT,37.4329637,-122.1061786,,28.395885,0.1,321.84674,1591811553446
Fix,GT,37.4331606,-122.1063859,,28.686932,0.1,321.8622,1591811554446
Fix,GT,37.43336,-122.106595,,29.00094,0.1,322.0572,1591811555446
Fix,GT,37.4335622,-122.1068054,,29.30032,0.1,322.22766,1591811556446
Fix,GT,37.4337665,-122.1070176,,29.566608,0.1,322.15698,1591811557446
Fix,GT,37.4339715,-122.1072324,,29.723532,0.1,321.8069,1591811558446
Fix,GT,37.4341767,-122.1074489,,29.80006,0.1,321.80225,1591811559446
Fix,GT,37.4343829,-122.1076652,,29.854036,0.1,322.02505,1591811560446
Fix,GT,37.4345896,-122.1078816,,29.898962,0.1,321.86023,1591811561446
Fix,GT,37.434796,-122.1080995,,29.984478,0.1,321.673,1591811562446
Fix,GT,37.4350029,-122.1083182,,30.080593,0.1,321.79883,1591811563446
Fix,GT,37.4352114,-122.1085367,,30.203442,0.1,322.07202,1591811564446
Fix,GT,37.4354215,-122.1087553,,30.383987,0.1,322.30948,1591811565446
Fix,GT,37.4356333,-122.1089745,,30.578453,0.1,322.29852,1591811566446
Fix,GT,37.4358458,-122.1091957,,30.751324,0.1,321.94742,1591811567446
Fix,GT,37.4360583,-122.1094202,,30.905231,0.1,321.54028,1591811568446
Fix,GT,37.4362712,-122.1096463,,31.031292,0.1,321.65018,1591811569446
Fix,GT,37.4364856,-122.1098723,,31.135145,0.1,321.96448,1591811570446
Fix,GT,37.436701,-122.1100986,,31.240017,0.1,321.797,1591811571446
Fix,GT,37.4369167,-122.1103265,,31.378944,0.1,321.7048,1591811572446
Fix,GT,37.4371334,-122.1105558,,31.563461,0.1,321.768,1591811573446
Fix,GT,37.4373519,-122.1107859,,31.751019,0.1,321.97092,1591811574446
Fix,GT,37.4375724,-122.1110162,,31.933569,0.1,322.1644,1591811575446
Fix,GT,37.4377945,-122.1112471,,32.091797,0.1,322.20813,1591811576446
Fix,GT,37.4380175,-122.1114794,,32.224102,0.1,322.09286,1591811577446
Fix,GT,37.4382407,-122.1117129,,32.291973,0.1,322.04706,1591811578446
Fix,GT,37.4384645,-122.1119466,,32.32422,0.1,322.204,1591811579446
Fix,GT,37.4386891,-122.1121794,,32.359333,0.1,322.3089,1591811580446
Fix,GT,37.4389139,-122.1124118,,32.349594,0.1,322.53125,1591811581446
Fix,GT,37.4391401,-122.1126423,,32.346554,0.1,323.19092,1591811582446
Fix,GT,37.4393685,-122.1128695,,32.361225,0.1,323.51062,1591811583446
Fix,GT,37.4395964,-122.1130975,,32.364048,0.1,322.89297,1591811584446
Fix,GT,37.4398222,-122.1133291,,32.391304,0.1,322.22168,1591811585446
Fix,GT,37.4400469,-122.1135633,,32.480778,0.1,322.04413,1591811586446
Fix,GT,37.4402717,-122.1137993,,32.59539,0.1,321.86835,1591811587446
Fix,GT,37.4404971,-122.1140366,,32.749504,0.1,321.8847,1591811588446
Fix,GT,37.440724,-122.1142748,,32.943604,0.1,322.0334,1591811589446
Fix,GT,37.4409528,-122.1145137,,33.13625,0.1,322.17178,1591811590446
Fix,GT,37.4411832,-122.1147535,,33.32301,0.1,322.14896,1591811591446
Fix,GT,37.4414143,-122.1149951,,33.47564,0.1,321.86914,1591811592446
Fix,GT,37.4416455,-122.1152388,,33.53941,0.1,321.7203,1591811593446
Fix,GT,37.4418765,-122.115483,,33.526363,0.1,321.70908,1591811594446
Fix,GT,37.4421074,-122.115727,,33.511375,0.1,321.7838,1591811595446
Fix,GT,37.4423387,-122.1159704,,33.48056,0.1,321.99298,1591811596446
Fix,GT,37.4425698,-122.1162124,,33.320118,0.1,321.9338,1591811597446
Fix,GT,37.4427987,-122.1164535,,33.049595,0.1,321.67938,1591811598446
Fix,GT,37.4430252,-122.1166939,,32.81337,0.1,321.57788,1591811599446
Fix,GT,37.4432503,-122.1169326,,32.624084,0.1,321.71872,1591811600446
Fix,GT,37.4434748,-122.1171693,,32.471397,0.1,321.88943,1591811601446
Fix,GT,37.4436987,-122.1174042,,32.341034,0.1,322.05334,1591811602446
Fix,GT,37.4439225,-122.1176375,,32.224052,0.1,322.1512,1591811603446
Fix,GT,37.4441454,-122.1178697,,32.103428,0.1,322.11816,1591811604446
Fix,GT,37.4443673,-122.1181013,,31.984102,0.1,322.0447,1591811605446
Fix,GT,37.4445883,-122.1183324,,31.87552,0.1,321.97595,1591811606446
Fix,GT,37.444808,-122.118563,,31.725979,0.1,321.81186,1591811607446
Fix,GT,37.4450263,-122.118793,,31.566517,0.1,321.78598,1591811608446
Fix,GT,37.4452438,-122.1190219,,31.483257,0.1,321.88428,1591811609446
Fix,GT,37.445461,-122.1192504,,31.46088,0.1,321.8432,1591811610446
Fix,GT,37.445678,-122.1194792,,31.465775,0.1,321.75784,1591811611446
Fix,GT,37.4458949,-122.1197083,,31.492176,0.1,321.73688,1591811612446
Fix,GT,37.4461122,-122.1199374,,31.522137,0.1,322.00977,1591811613446
Fix,GT,37.446331,-122.1201653,,31.569462,0.1,322.3185,1591811614446
Fix,GT,37.4465506,-122.1203925,,31.613152,0.1,322.28387,1591811615446
Fix,GT,37.44677,-122.1206203,,31.60841,0.1,322.11526,1591811616446
Fix,GT,37.4469883,-122.1208487,,31.50872,0.1,321.963,1591811617446
Fix,GT,37.4472052,-122.1210764,,31.255568,0.1,321.88193,1591811618446
Fix,GT,37.4474198,-122.1213022,,30.930653,0.1,321.88492,1591811619446
Fix,GT,37.4476326,-122.1215253,,30.630909,0.1,322.09427,1591811620446
Fix,GT,37.4478442,-122.1217456,,30.405636,0.1,322.1747,1591811621446
Fix,GT,37.4480544,-122.1219646,,30.27812,0.1,322.1217,1591811622446
Fix,GT,37.448264,-122.1221834,,30.252272,0.1,321.96732,1591811623446
Fix,GT,37.4484729,-122.122403,,30.22566,0.1,321.70465,1591811624446
Fix,GT,37.4486807,-122.1226232,,30.160309,0.1,321.65396,1591811625446
Fix,GT,37.4488886,-122.1228423,,30.107733,0.1,321.86273,1591811626446
Fix,GT,37.4490966,-122.1230603,,30.058342,0.1,321.96927,1591811627446
Fix,GT,37.449304,-122.1232782,,29.993286,0.1,321.78867,1591811628446
Fix,GT,37.4495104,-122.1234965,,29.936966,0.1,321.6313,1591811629446
Fix,GT,37.4497162,-122.1237151,,29.900753,0.1,321.6486,1591811630446
Fix,GT,37.4499221,-122.1239329,,29.88556,0.1,321.86447,1591811631446
Fix,GT,37.4501284,-122.1241501,,29.895885,0.1,321.86783,1591811632446
Fix,GT,37.4503346,-122.1243676,,29.90694,0.1,321.765,1591811633446
Fix,GT,37.4505404,-122.1245862,,29.957401,0.1,321.45822,1591811634446
Fix,GT,37.4507448,-122.1248082,,30.066515,0.1,320.50128,1591811635446
Fix,GT,37.4509467,-122.1250354,,30.166674,0.1,319.5036,1591811636446
Fix,GT,37.4511467,-122.1252671,,30.275671,0.1,318.65668,1591811637446
Fix,GT,37.4513438,-122.1255043,,30.395897,0.1,317.40198,1591811638446
Fix,GT,37.4515371,-122.1257484,,30.505766,0.1,315.95276,1591811639446
Fix,GT,37.4517261,-122.1259995,,30.626316,0.1,314.47525,1591811640446
Fix,GT,37.4519108,-122.1262573,,30.738815,0.1,313.16968,1591811641446
Fix,GT,37.452092,-122.1265206,,30.827595,0.1,312.2023,1591811642446
Fix,GT,37.4522699,-122.1267882,,30.85617,0.1,311.05017,1591811643446
Fix,GT,37.4524433,-122.1270602,,30.822342,0.1,309.89203,1591811644446
Fix,GT,37.4526126,-122.1273358,,30.819122,0.1,309.1667,1591811645446
Fix,GT,37.4527796,-122.1276143,,30.854597,0.1,308.44928,1591811646446
Fix,GT,37.4529444,-122.1278956,,30.905369,0.1,307.97458,1591811647446
Fix,GT,37.4531089,-122.1281778,,30.932472,0.1,308.10608,1591811648446
Fix,GT,37.4532738,-122.1284591,,30.859127,0.1,308.14685,1591811649446
Fix,GT,37.4534381,-122.1287394,,30.713184,0.1,308.16312,1591811650446
Fix,GT,37.4536024,-122.1290181,,30.595457,0.1,308.31662,1591811651446
Fix,GT,37.4537659,-122.1292957,,30.500027,0.1,308.1966,1591811652446
Fix,GT,37.4539283,-122.1295732,,30.408543,0.1,308.02585,1591811653446
Fix,GT,37.45409,-122.1298502,,30.335894,0.1,308.02228,1591811654446
Fix,GT,37.4542513,-122.1301267,,30.282936,0.1,308.03436,1591811655446
Fix,GT,37.4544123,-122.1304025,,30.22051,0.1,308.0603,1591811656446
Fix,GT,37.4545732,-122.1306776,,30.155622,0.1,308.09744,1591811657446
Fix,GT,37.4547338,-122.130952,,30.078194,0.1,308.0418,1591811658446
Fix,GT,37.4548936,-122.1312261,,29.9854,0.1,307.92825,1591811659446
Fix,GT,37.4550525,-122.1314996,,29.911242,0.1,307.8601,1591811660446
Fix,GT,37.4552111,-122.1317727,,29.869753,0.1,308.00244,1591811661446
Fix,GT,37.4553707,-122.1320446,,29.878345,0.1,308.4196,1591811662446
Fix,GT,37.4555321,-122.1323152,,29.941679,0.1,308.75848,1591811663446
Fix,GT,37.4556944,-122.1325862,,30.02856,0.1,308.6087,1591811664446
Fix,GT,37.4558561,-122.1328588,,30.098867,0.1,308.31638,1591811665446
Fix,GT,37.4560175,-122.1331326,,30.171698,0.1,308.34503,1591811666446
Fix,GT,37.4561797,-122.1334068,,30.259018,0.1,308.4038,1591811667446
Fix,GT,37.4563422,-122.1336819,,30.352303,0.1,308.32925,1591811668446
Fix,GT,37.4565049,-122.1339581,,30.421268,0.1,308.2536,1591811669446
Fix,GT,37.4566676,-122.134235,,30.46754,0.1,308.1949,1591811670446
Fix,GT,37.4568306,-122.1345124,,30.52417,0.1,308.23502,1591811671446
Fix,GT,37.4569944,-122.1347899,,30.565351,0.1,308.3875,1591811672446
Fix,GT,37.4571587,-122.1350671,,30.543568,0.1,308.50864,1591811673446
Fix,GT,37.4573228,-122.1353436,,30.450958,0.1,308.4872,1591811674446
Fix,GT,37.4574861,-122.1356194,,30.32631,0.1,308.32352,1591811675446
Fix,GT,37.4576479,-122.1358947,,30.212078,0.1,308.05078,1591811676446
Fix,GT,37.4578081,-122.13617,,30.098011,0.1,307.84735,1591811677446
Fix,GT,37.4579673,-122.1364447,,29.99126,0.1,307.87384,1591811678446
Fix,GT,37.4581262,-122.136718,,29.883966,0.1,308.08905,1591811679446
Fix,GT,37.4582858,-122.1369894,,29.784431,0.1,308.40417,1591811680446
Fix,GT,37.458446,-122.137259,,29.697079,0.1,308.61884,1591811681446
Fix,GT,37.4586059,-122.1375275,,29.631023,0.1,308.51797,1591811682446
Fix,GT,37.4587648,-122.1377961,,29.581081,0.1,308.27475,1591811683446
Fix,GT,37.4589229,-122.1380653,,29.568,0.1,308.07217,1591811684446
Fix,GT,37.4590804,-122.1383348,,29.574894,0.1,308.0681,1591811685446
Fix,GT,37.4592382,-122.1386042,,29.589214,0.1,308.15976,1591811686446
Fix,GT,37.4593963,-122.1388739,,29.62301,0.1,308.08276,1591811687446
Fix,GT,37.4595541,-122.1391441,,29.647064,0.1,307.98727,1591811688446
Fix,GT,37.4597119,-122.1394146,,29.663303,0.1,308.09256,1591811689446
Fix,GT,37.4598707,-122.1396847,,29.687263,0.1,308.3612,1591811690446
Fix,GT,37.4600302,-122.139954,,29.679586,0.1,308.47934,1591811691446
Fix,GT,37.4601896,-122.1402229,,29.627087,0.1,308.34903,1591811692446
Fix,GT,37.460348,-122.1404918,,29.567379,0.1,308.16425,1591811693446
Fix,GT,37.4605058,-122.1407608,,29.523346,0.1,308.10434,1591811694446
Fix,GT,37.4606635,-122.1410295,,29.528496,0.1,308.19382,1591811695446
Fix,GT,37.4608216,-122.1412982,,29.577133,0.1,308.21274,1591811696446
Fix,GT,37.4609798,-122.1415676,,29.633186,0.1,308.1783,1591811697446
Fix,GT,37.4611385,-122.1418375,,29.72675,0.1,308.26263,1591811698446
Fix,GT,37.461298,-122.1421084,,29.8612,0.1,308.2193,1591811699446
Fix,GT,37.4614578,-122.1423809,,30.006699,0.1,308.07413,1591811700446
Fix,GT,37.461618,-122.1426551,,30.140629,0.1,307.99716,1591811701446
Fix,GT,37.4617788,-122.1429306,,30.276962,0.1,308.001,1591811702446
Fix,GT,37.4619402,-122.1432075,,30.421701,0.1,307.97763,1591811703446
Fix,GT,37.462102,-122.1434862,,30.59271,0.1,307.8064,1591811704446
Fix,GT,37.4622643,-122.1437671,,30.787537,0.1,307.77133,1591811705446
Fix,GT,37.462428,-122.1440493,,30.970306,0.1,307.98672,1591811706446
Fix,GT,37.4625936,-122.1443321,,31.102112,0.1,308.1726,1591811707446
Fix,GT,37.4627599,-122.1446157,,31.174992,0.1,308.08344,1591811708446
Fix,GT,37.462926,-122.1449002,,31.2342,0.1,307.9643,1591811709446
Fix,GT,37.4630922,-122.1451856,,31.290493,0.1,308.0239,1591811710446
Fix,GT,37.4632593,-122.1454708,,31.332685,0.1,308.267,1591811711446
Fix,GT,37.4634275,-122.1457555,,31.357018,0.1,308.43997,1591811712446
Fix,GT,37.463596,-122.1460401,,31.364075,0.1,308.35226,1591811713446
Fix,GT,37.4637637,-122.1463255,,31.397621,0.1,308.13275,1591811714446
Fix,GT,37.4639311,-122.1466121,,31.488361,0.1,308.02496,1591811715446
Fix,GT,37.4640991,-122.1468998,,31.607304,0.1,308.10168,1591811716446
Fix,GT,37.464268,-122.1471883,,31.738571,0.1,308.16272,1591811717446
Fix,GT,37.4644377,-122.1474782,,31.878826,0.1,308.14212,1591811718446
Fix,GT,37.4646082,-122.1477693,,32.05142,0.1,308.19446,1591811719446
Fix,GT,37.4647799,-122.1480618,,32.230793,0.1,308.22253,1591811720446
Fix,GT,37.4649526,-122.148356,,32.406418,0.1,308.25073,1591811721446
Fix,GT,37.4651264,-122.1486516,,32.58014,0.1,308.27725,1591811722446
Fix,GT,37.4653014,-122.1489487,,32.744545,0.1,308.28625,1591811723446
Fix,GT,37.4654769,-122.1492472,,32.889126,0.1,308.24008,1591811724446
Fix,GT,37.465653,-122.1495472,,33.0222,0.1,308.13666,1591811725446
Fix,GT,37.4658294,-122.1498487,,33.15269,0.1,308.08936,1591811726446
Fix,GT,37.4660063,-122.1501516,,33.269585,0.1,308.0615,1591811727446
Fix,GT,37.4661837,-122.1504556,,33.391453,0.1,308.10263,1591811728446
Fix,GT,37.4663621,-122.1507605,,33.528877,0.1,308.14026,1591811729446
Fix,GT,37.4665412,-122.1510665,,33.648155,0.1,308.11862,1591811730446
Fix,GT,37.4667205,-122.151373,,33.58734,0.1,308.088,1591811731446
Fix,GT,37.4668987,-122.1516781,,33.303223,0.1,308.03333,1591811732446
Fix,GT,37.4670752,-122.1519805,,33.012444,0.1,308.12415,1591811733446
Fix,GT,37.4672512,-122.1522799,,32.805065,0.1,308.37305,1591811734446
Fix,GT,37.467427,-122.152577,,32.67778,0.1,308.493,1591811735446
Fix,GT,37.4676026,-122.152873,,32.612724,0.1,308.46423,1591811736446
Fix,GT,37.4677778,-122.1531686,,32.559505,0.1,308.41525,1591811737446
Fix,GT,37.4679524,-122.1534637,,32.475056,0.1,308.40207,1591811738446
Fix,GT,37.4681264,-122.1537581,,32.375168,0.1,308.35968,1591811739446
Fix,GT,37.4682994,-122.1540519,,32.271706,0.1,308.2466,1591811740446
Fix,GT,37.4684714,-122.1543451,,32.14314,0.1,308.12848,1591811741446
Fix,GT,37.4686425,-122.1546374,,32.028736,0.1,308.16058,1591811742446
Fix,GT,37.4688137,-122.1549284,,31.959896,0.1,308.3672,1591811743446
Fix,GT,37.4689854,-122.1552182,,31.917816,0.1,308.49677,1591811744446
Fix,GT,37.4691569,-122.1555075,,31.871792,0.1,308.4001,1591811745446
Fix,GT,37.4693275,-122.1557968,,31.797302,0.1,308.2175,1591811746446
Fix,GT,37.4694969,-122.156086,,31.710632,0.1,308.0567,1591811747446
Fix,GT,37.4696654,-122.1563749,,31.632292,0.1,307.97867,1591811748446
Fix,GT,37.4698334,-122.1566632,,31.557457,0.1,308.00763,1591811749446
Fix,GT,37.4700011,-122.1569508,,31.485052,0.1,308.00378,1591811750446
Fix,GT,37.4701684,-122.1572378,,31.410732,0.1,307.97882,1591811751446
Fix,GT,37.4703353,-122.157524,,31.345366,0.1,308.05865,1591811752446
Fix,GT,37.4705024,-122.1578093,,31.296228,0.1,308.2027,1591811753446
Fix,GT,37.47067,-122.1580936,,31.263832,0.1,308.36337,1591811754446
Fix,GT,37.4708379,-122.1583772,,31.243813,0.1,308.449,1591811755446
Fix,GT,37.4710056,-122.1586608,,31.229439,0.1,308.3035,1591811756446
Fix,GT,37.4711721,-122.158945,,31.17708,0.1,308.04382,1591811757446
Fix,GT,37.4713378,-122.159229,,31.07217,0.1,308.01758,1591811758446
Fix,GT,37.4715029,-122.1595117,,30.959492,0.1,308.06833,1591811759446
Fix,GT,37.4716679,-122.1597932,,30.855196,0.1,308.31512,1591811760446
Fix,GT,37.4718346,-122.160072,,30.809423,0.1,309.16428,1591811761446
Fix,GT,37.4720046,-122.1603479,,30.881256,0.1,309.83505,1591811762446
Fix,GT,37.4721763,-122.1606235,,31.01912,0.1,309.8087,1591811763446
Fix,GT,37.4723481,-122.1609011,,31.170387,0.1,309.41122,1591811764446
Fix,GT,37.4725184,-122.1611821,,31.32618,0.1,308.7134,1591811765446
Fix,GT,37.472687,-122.1614673,,31.488974,0.1,308.10138,1591811766446
Fix,GT,37.4728551,-122.1617553,,31.65438,0.1,308.0855,1591811767446
Fix,GT,37.4730244,-122.1620442,,31.78545,0.1,308.2347,1591811768446
Fix,GT,37.4731947,-122.1623338,,31.880554,0.1,308.27362,1591811769446
Fix,GT,37.4733656,-122.1626242,,31.981983,0.1,308.31024,1591811770446
Fix,GT,37.4735371,-122.1629152,,32.056557,0.1,308.30075,1591811771446
Fix,GT,37.4737084,-122.1632071,,32.0803,0.1,308.11084,1591811772446
Fix,GT,37.473879,-122.1634998,,32.07664,0.1,307.84732,1591811773446
Fix,GT,37.474049,-122.1637932,,32.094505,0.1,307.85345,1591811774446
Fix,GT,37.4742196,-122.1640863,,32.10872,0.1,308.1312,1591811775446
Fix,GT,37.4743913,-122.1643784,,32.073833,0.1,308.30627,1591811776446
Fix,GT,37.4745629,-122.1646696,,32.019146,0.1,308.24265,1591811777446
Fix,GT,37.4747337,-122.1649609,,31.947224,0.1,308.08072,1591811778446
Fix,GT,37.474904,-122.1652518,,31.897448,0.1,308.1718,1591811779446
Fix,GT,37.4750747,-122.1655417,,31.868683,0.1,308.35666,1591811780446
Fix,GT,37.4752454,-122.1658312,,31.861866,0.1,308.2552,1591811781446
Fix,GT,37.4754155,-122.1661212,,31.845455,0.1,308.1288,1591811782446
Fix,GT,37.4755851,-122.1664112,,31.807537,0.1,308.07318,1591811783446
Fix,GT,37.4757544,-122.1667011,,31.763031,0.1,308.02002,1591811784446
Fix,GT,37.4759235,-122.1669906,,31.743996,0.1,308.08682,1591811785446
Fix,GT,37.4760932,-122.1672797,,31.791157,0.1,308.24738,1591811786446
Fix,GT,37.476264,-122.1675692,,31.911404,0.1,308.37665,1591811787446
Fix,GT,37.4764361,-122.1678594,,32.070942,0.1,308.64786,1591811788446
Fix,GT,37.4766107,-122.1681494,,32.223576,0.1,309.1671,1591811789446
Fix,GT,37.476788,-122.1684388,,32.35462,0.1,309.50507,1591811790446
Fix,GT,37.4769656,-122.1687295,,32.46573,0.1,308.98187,1591811791446
Fix,GT,37.4771409,-122.1690239,,32.575867,0.1,308.29947,1591811792446
Fix,GT,37.4773154,-122.1693207,,32.72012,0.1,308.22897,1591811793446
Fix,GT,37.4774904,-122.1696197,,32.90729,0.1,307.97913,1591811794446
Fix,GT,37.4776652,-122.1699215,,33.118744,0.1,307.7525,1591811795446
Fix,GT,37.4778407,-122.1702261,,33.36371,0.1,307.72064,1591811796446
Fix,GT,37.4780179,-122.1705328,,33.640644,0.1,307.8919,1591811797446
Fix,GT,37.4781973,-122.1708415,,33.93577,0.1,308.0376,1591811798446
Fix,GT,37.4783785,-122.1711527,,34.239414,0.1,307.91257,1591811799446
Fix,GT,37.4785605,-122.1714674,,34.51833,0.1,307.77655,1591811800446
Fix,GT,37.4787437,-122.1717845,,34.73536,0.1,307.86224,1591811801446
Fix,GT,37.4789285,-122.1721027,,34.879883,0.1,308.00952,1591811802446
Fix,GT,37.4791142,-122.1724214,,34.948986,0.1,308.06653,1591811803446
Fix,GT,37.4793003,-122.1727399,,34.898598,0.1,308.19287,1591811804446
Fix,GT,37.4794865,-122.1730571,,34.783978,0.1,308.25742,1591811805446
Fix,GT,37.4796721,-122.1733731,,34.659603,0.1,308.19675,1591811806446
Fix,GT,37.4798566,-122.1736883,,34.544445,0.1,308.10306,1591811807446
Fix,GT,37.48004,-122.1740032,,34.45228,0.1,307.98193,1591811808446
Fix,GT,37.4802224,-122.1743178,,34.37698,0.1,307.8875,1591811809446
Fix,GT,37.4804042,-122.174632,,34.322155,0.1,307.8826,1591811810446
Fix,GT,37.4805859,-122.1749458,,34.279793,0.1,307.94025,1591811811446
Fix,GT,37.4807676,-122.175259,,34.266125,0.1,307.96878,1591811812446
Fix,GT,37.4809496,-122.1755721,,34.29664,0.1,308.09814,1591811813446
Fix,GT,37.4811327,-122.1758848,,34.348595,0.1,308.36218,1591811814446
Fix,GT,37.4813169,-122.1761974,,34.417572,0.1,308.36227,1591811815446
Fix,GT,37.4815007,-122.1765112,,34.493805,0.1,308.07083,1591811816446
Fix,GT,37.4816834,-122.1768271,,34.56024,0.1,307.67896,1591811817446
Fix,GT,37.4818645,-122.1771453,,34.616314,0.1,307.1753,1591811818446
Fix,GT,37.4820431,-122.1774657,,34.493736,0.1,306.41873,1591811819446
Fix,GT,37.4822159,-122.1777871,,34.060074,0.1,305.29987,1591811820446
Fix,GT,37.4823812,-122.1781075,,33.484047,0.1,304.21826,1591811821446
Fix,GT,37.4825391,-122.1784259,,32.864426,0.1,303.21658,1591811822446
Fix,GT,37.4826896,-122.1787416,,32.210106,0.1,302.18652,1591811823446
Fix,GT,37.4828324,-122.1790543,,31.55235,0.1,301.05615,1591811824446
Fix,GT,37.4829672,-122.1793639,,30.890556,0.1,299.957,1591811825446
Fix,GT,37.4830947,-122.17967,,30.238934,0.1,298.7163,1591811826446
Fix,GT,37.4832127,-122.1799741,,29.667452,0.1,296.5771,1591811827446
Fix,GT,37.4833203,-122.1802782,,29.259651,0.1,295.0921,1591811828446
Fix,GT,37.4834248,-122.1805807,,29.071651,0.1,295.63254,1591811829446
Fix,GT,37.4835318,-122.1808805,,29.055336,0.1,296.1241,1591811830446
Fix,GT,37.4836387,-122.1811806,,29.127968,0.1,295.5581,1591811831446
Fix,GT,37.4837428,-122.1814836,,29.256735,0.1,294.82544,1591811832446
Fix,GT,37.4838451,-122.1817892,,29.399757,0.1,294.44403,1591811833446
Fix,GT,37.4839463,-122.1820972,,29.553778,0.1,293.97272,1591811834446
Fix,GT,37.4840458,-122.1824081,,29.716034,0.1,293.41226,1591811835446
Fix,GT,37.4841432,-122.182722,,29.873318,0.1,292.75537,1591811836446
Fix,GT,37.4842385,-122.1830388,,30.03421,0.1,292.16284,1591811837446
Fix,GT,37.4843317,-122.1833585,,30.197037,0.1,291.654,1591811838446
Fix,GT,37.4844231,-122.1836809,,30.340698,0.1,291.11072,1591811839446
Fix,GT,37.4845122,-122.184006,,30.47256,0.1,290.49304,1591811840446
Fix,GT,37.484599,-122.1843337,,30.593708,0.1,289.92337,1591811841446
Fix,GT,37.4846835,-122.1846634,,30.703587,0.1,289.39136,1591811842446
Fix,GT,37.484766,-122.1849953,,30.806019,0.1,288.8216,1591811843446
Fix,GT,37.4848457,-122.1853295,,30.919737,0.1,288.1445,1591811844446
Fix,GT,37.4849226,-122.1856664,,31.0629,0.1,287.47375,1591811845446
Fix,GT,37.4849969,-122.1860059,,31.216175,0.1,286.89185,1591811846446
Fix,GT,37.4850691,-122.1863478,,31.352066,0.1,286.43185,1591811847446
Fix,GT,37.4851395,-122.1866916,,31.430695,0.1,286.05597,1591811848446
Fix,GT,37.4852081,-122.1870367,,31.471832,0.1,285.5339,1591811849446
Fix,GT,37.4852738,-122.1873829,,31.500568,0.1,284.76917,1591811850446
Fix,GT,37.4853353,-122.1877307,,31.518425,0.1,283.91644,1591811851446
Fix,GT,37.4853931,-122.1880794,,31.493757,0.1,283.1983,1591811852446
Fix,GT,37.4854476,-122.1884282,,31.405409,0.1,282.52267,1591811853446
Fix,GT,37.4854986,-122.1887769,,31.310108,0.1,281.87952,1591811854446
Fix,GT,37.4855466,-122.1891249,,31.188814,0.1,281.40552,1591811855446
Fix,GT,37.485593,-122.1894721,,31.061325,0.1,281.22372,1591811856446
Fix,GT,37.4856385,-122.189818,,30.953812,0.1,281.07278,1591811857446
Fix,GT,37.4856826,-122.1901629,,30.858473,0.1,280.70776,1591811858446
Fix,GT,37.4857251,-122.1905072,,30.790993,0.1,280.43976,1591811859446
Fix,GT,37.4857667,-122.1908512,,30.755932,0.1,280.41394,1591811860446
Fix,GT,37.4858086,-122.1911948,,30.73041,0.1,280.55786,1591811861446
Fix,GT,37.4858513,-122.191538,,30.73161,0.1,280.68707,1591811862446
Fix,GT,37.4858942,-122.1918815,,30.768742,0.1,280.5812,1591811863446
Fix,GT,37.4859368,-122.1922256,,30.80339,0.1,280.76425,1591811864446
Fix,GT,37.4859819,-122.1925695,,30.846329,0.1,281.57672,1591811865446
Fix,GT,37.4860308,-122.1929131,,30.900341,0.1,282.16733,1591811866446
Fix,GT,37.4860804,-122.1932571,,30.949646,0.1,281.84622,1591811867446
Fix,GT,37.4861279,-122.1936021,,30.990273,0.1,281.28937,1591811868446
Fix,GT,37.4861739,-122.1939478,,31.026546,0.1,281.2468,1591811869446
Fix,GT,37.4862199,-122.1942939,,31.056427,0.1,281.25684,1591811870446
Fix,GT,37.4862659,-122.1946404,,31.073795,0.1,281.20206,1591811871446
Fix,GT,37.4863112,-122.1949872,,31.098839,0.1,280.97446,1591811872446
Fix,GT,37.4863554,-122.1953344,,31.120487,0.1,280.6774,1591811873446
Fix,GT,37.4863983,-122.1956822,,31.125252,0.1,280.47455,1591811874446
Fix,GT,37.4864404,-122.1960302,,31.138306,0.1,280.39008,1591811875446
Fix,GT,37.4864827,-122.1963783,,31.143496,0.1,280.51526,1591811876446
Fix,GT,37.4865257,-122.1967264,,31.157784,0.1,280.71298,1591811877446
Fix,GT,37.4865694,-122.1970746,,31.18852,0.1,280.73114,1591811878446
Fix,GT,37.4866129,-122.1974232,,31.249474,0.1,280.64795,1591811879446
Fix,GT,37.4866564,-122.1977729,,31.351276,0.1,280.6884,1591811880446
Fix,GT,37.4867006,-122.1981237,,31.44077,0.1,280.80145,1591811881446
Fix,GT,37.4867453,-122.1984751,,31.498459,0.1,280.7829,1591811882446
Fix,GT,37.4867894,-122.1988271,,31.557266,0.1,280.64404,1591811883446
Fix,GT,37.4868327,-122.1991801,,31.629066,0.1,280.4726,1591811884446
Fix,GT,37.4868756,-122.1995342,,31.713703,0.1,280.34546,1591811885446
Fix,GT,37.4869182,-122.1998892,,31.795166,0.1,280.3859,1591811886446
Fix,GT,37.4869615,-122.200245,,31.872787,0.1,280.62564,1591811887446
Fix,GT,37.4870059,-122.2006016,,31.96437,0.1,280.73047,1591811888446
Fix,GT,37.4870507,-122.2009591,,32.039146,0.1,280.6758,1591811889446
Fix,GT,37.4870951,-122.2013174,,32.074673,0.1,280.57935,1591811890446
Fix,GT,37.4871391,-122.2016759,,32.08667,0.1,280.5575,1591811891446
Fix,GT,37.4871836,-122.2020346,,32.107338,0.1,280.7747,1591811892446
Fix,GT,37.4872293,-122.2023932,,32.138535,0.1,280.9191,1591811893446
Fix,GT,37.4872748,-122.202752,,32.166218,0.1,280.71707,1591811894446
Fix,GT,37.4873191,-122.2031116,,32.187645,0.1,280.4571,1591811895446
Fix,GT,37.4873626,-122.2034715,,32.193504,0.1,280.4059,1591811896446
Fix,GT,37.4874064,-122.2038315,,32.197136,0.1,280.54666,1591811897446
Fix,GT,37.4874508,-122.2041912,,32.210022,0.1,280.70395,1591811898446
Fix,GT,37.4874961,-122.204551,,32.209232,0.1,280.84094,1591811899446
Fix,GT,37.4875419,-122.2049105,,32.19322,0.1,280.9299,1591811900446
Fix,GT,37.487588,-122.2052698,,32.175434,0.1,280.89435,1591811901446
Fix,GT,37.4876338,-122.205629,,32.16251,0.1,280.8114,1591811902446
Fix,GT,37.4876791,-122.2059881,,32.153572,0.1,280.72617,1591811903446
Fix,GT,37.4877241,-122.2063473,,32.15656,0.1,280.6596,1591811904446
Fix,GT,37.487769,-122.2067066,,32.155354,0.1,280.8529,1591811905446
Fix,GT,37.4878162,-122.2070654,,32.155155,0.1,281.55524,1591811906446
Fix,GT,37.4878675,-122.2074231,,32.10018,0.1,282.50208,1591811907446
Fix,GT,37.4879229,-122.2077787,,31.949512,0.1,283.19705,1591811908446
Fix,GT,37.487981,-122.2081316,,31.792398,0.1,283.7283,1591811909446
Fix,GT,37.4880414,-122.2084821,,31.62778,0.1,284.26865,1591811910446
Fix,GT,37.4881041,-122.20883,,31.445614,0.1,284.8571,1591811911446
Fix,GT,37.488169,-122.2091745,,31.141506,0.1,285.39368,1591811912446
Fix,GT,37.4882356,-122.209514,,30.667011,0.1,285.91998,1591811913446
Fix,GT,37.4883039,-122.209847,,30.14476,0.1,286.5821,1591811914446
Fix,GT,37.4883742,-122.2101733,,29.624147,0.1,287.32144,1591811915446
Fix,GT,37.4884467,-122.2104931,,29.18945,0.1,288.0068,1591811916446
Fix,GT,37.488521,-122.210808,,28.94188,0.1,288.584,1591811917446
Fix,GT,37.4885973,-122.2111201,,28.812,0.1,289.15637,1591811918446
Fix,GT,37.4886758,-122.21143,,28.696507,0.1,289.73666,1591811919446
Fix,GT,37.4887566,-122.2117378,,28.610424,0.1,290.2899,1591811920446
Fix,GT,37.4888394,-122.2120439,,28.556404,0.1,290.87634,1591811921446
Fix,GT,37.4889246,-122.2123484,,28.519178,0.1,291.43976,1591811922446
Fix,GT,37.489012,-122.2126513,,28.447315,0.1,291.99548,1591811923446
Fix,GT,37.4891017,-122.2129523,,28.405685,0.1,292.69806,1591811924446
Fix,GT,37.4891945,-122.2132518,,28.44226,0.1,293.40494,1591811925446
Fix,GT,37.48929,-122.2135505,,28.475395,0.1,294.04626,1591811926446
Fix,GT,37.4893882,-122.2138484,,28.513464,0.1,294.601,1591811927446
Fix,GT,37.4894885,-122.2141448,,28.396236,0.1,295.08084,1591811928446
Fix,GT,37.48959,-122.2144377,,28.045307,0.1,295.58307,1591811929446
Fix,GT,37.4896922,-122.2147253,,27.6646,0.1,296.22647,1591811930446
Fix,GT,37.4897961,-122.2150079,,27.402794,0.1,296.93118,1591811931446
Fix,GT,37.4899018,-122.2152872,,27.29493,0.1,297.55377,1591811932446
Fix,GT,37.4900097,-122.2155647,,27.319729,0.1,298.14273,1591811933446
Fix,GT,37.4901202,-122.2158415,,27.449625,0.1,298.7566,1591811934446
Fix,GT,37.4902338,-122.2161186,,27.659916,0.1,299.3105,1591811935446
Fix,GT,37.4903504,-122.2163968,,27.940289,0.1,299.7598,1591811936446
Fix,GT,37.4904699,-122.216677,,28.252544,0.1,300.22665,1591811937446
Fix,GT,37.4905926,-122.2169591,,28.553394,0.1,300.6808,1591811938446
Fix,GT,37.4907179,-122.2172426,,28.78383,0.1,300.93137,1591811939446
Fix,GT,37.4908444,-122.2175276,,28.901424,0.1,300.89355,1591811940446
Fix,GT,37.4909708,-122.2178135,,28.931606,0.1,300.79727,1591811941446
Fix,GT,37.4910971,-122.2180997,,28.933565,0.1,300.85773,1591811942446
Fix,GT,37.4912238,-122.2183857,,28.939999,0.1,300.93732,1591811943446
Fix,GT,37.4913507,-122.2186717,,28.95505,0.1,300.88287,1591811944446
Fix,GT,37.4914774,-122.218958,,28.957748,0.1,300.84357,1591811945446
Fix,GT,37.4916041,-122.2192441,,28.922127,0.1,300.93396,1591811946446
Fix,GT,37.4917308,-122.2195294,,28.85817,0.1,300.9808,1591811947446
Fix,GT,37.4918572,-122.2198141,,28.794888,0.1,300.93646,1591811948446
Fix,GT,37.4919832,-122.2200979,,28.653236,0.1,300.98346,1591811949446
Fix,GT,37.4921084,-122.2203794,,28.34433,0.1,301.0293,1591811950446
Fix,GT,37.4922323,-122.2206571,,27.933731,0.1,301.12585,1591811951446
Fix,GT,37.4923547,-122.2209303,,27.539253,0.1,301.19025,1591811952446
Fix,GT,37.4924758,-122.2212002,,27.289385,0.1,301.16315,1591811953446
Fix,GT,37.4925957,-122.2214691,,27.24477,0.1,300.86356,1591811954446
Fix,GT,37.4927146,-122.2217389,,27.255919,0.1,300.62048,1591811955446
Fix,GT,37.492833,-122.222009,,27.281494,0.1,300.6839,1591811956446
Fix,GT,37.4929519,-122.2222795,,27.357527,0.1,300.80084,1591811957446
Fix,GT,37.4930714,-122.2225505,,27.42857,0.1,300.88156,1591811958446
Fix,GT,37.493191,-122.2228224,,27.489761,0.1,300.6345,1591811959446
Fix,GT,37.4933094,-122.223096,,27.567451,0.1,300.13736,1591811960446
Fix,GT,37.4934265,-122.2233712,,27.631496,0.1,299.83917,1591811961446
Fix,GT,37.4935428,-122.2236479,,27.700779,0.1,299.48584,1591811962446
Fix,GT,37.4936571,-122.2239267,,27.765125,0.1,298.73654,1591811963446
Fix,GT,37.4937684,-122.2242079,,27.805058,0.1,297.90753,1591811964446
Fix,GT,37.4938769,-122.2244903,,27.644104,0.1,297.32306,1591811965446
Fix,GT,37.4939821,-122.2247711,,27.218079,0.1,296.79245,1591811966446
Fix,GT,37.4940837,-122.2250487,,26.803282,0.1,296.3117,1591811967446
Fix,GT,37.4941823,-122.2253238,,26.611685,0.1,295.8506,1591811968446
Fix,GT,37.4942785,-122.2255992,,26.606155,0.1,295.09338,1591811969446
Fix,GT,37.4943713,-122.2258761,,26.48005,0.1,294.2202,1591811970446
Fix,GT,37.4944604,-122.2261519,,26.170086,0.1,293.6927,1591811971446
Fix,GT,37.4945466,-122.2264254,,25.886173,0.1,293.1708,1591811972446
Fix,GT,37.4946302,-122.2266976,,25.720018,0.1,292.74634,1591811973446
Fix,GT,37.4947125,-122.2269693,,25.710297,0.1,292.62012,1591811974446
Fix,GT,37.4947941,-122.2272421,,25.834757,0.1,292.30005,1591811975446
Fix,GT,37.4948751,-122.2275169,,25.998041,0.1,291.90897,1591811976446
Fix,GT,37.4949551,-122.2277943,,26.19735,0.1,291.62643,1591811977446
Fix,GT,37.4950352,-122.2280743,,26.427639,0.1,291.563,1591811978446
Fix,GT,37.495116,-122.2283568,,26.638592,0.1,291.45016,1591811979446
Fix,GT,37.4951965,-122.2286414,,26.779327,0.1,291.22507,1591811980446
Fix,GT,37.4952767,-122.2289276,,26.876297,0.1,291.16748,1591811981446
Fix,GT,37.4953574,-122.2292148,,26.978775,0.1,291.1956,1591811982446
Fix,GT,37.4954381,-122.2295032,,27.110588,0.1,291.08224,1591811983446
Fix,GT,37.4955186,-122.2297934,,27.22752,0.1,290.88745,1591811984446
Fix,GT,37.4955985,-122.230085,,27.31007,0.1,290.7129,1591811985446
Fix,GT,37.4956782,-122.2303774,,27.32075,0.1,290.72327,1591811986446
Fix,GT,37.4957582,-122.230669,,27.195034,0.1,290.9182,1591811987446
Fix,GT,37.495839,-122.230958,,26.965643,0.1,291.3311,1591811988446
Fix,GT,37.4959206,-122.2312435,,26.663364,0.1,291.62378,1591811989446
Fix,GT,37.4960012,-122.2315258,,26.372532,0.1,291.13443,1591811990446
Fix,GT,37.496077,-122.2318072,,26.222439,0.1,289.84644,1591811991446
Fix,GT,37.4961478,-122.2320899,,26.22057,0.1,289.04645,1591811992446
Fix,GT,37.4962189,-122.2323733,,26.32119,0.1,289.63245,1591811993446
Fix,GT,37.4962934,-122.2326569,,26.517395,0.1,290.5366,1591811994446
Fix,GT,37.4963716,-122.2329414,,26.741922,0.1,291.17654,1591811995446
Fix,GT,37.4964525,-122.2332276,,26.954132,0.1,291.46103,1591811996446
Fix,GT,37.4965345,-122.2335156,,27.159489,0.1,291.4998,1591811997446
Fix,GT,37.4966169,-122.233806,,27.416117,0.1,291.41296,1591811998446
Fix,GT,37.4967004,-122.2341004,,27.912426,0.1,291.5652,1591811999446
Fix,GT,37.4967875,-122.234401,,28.645111,0.1,292.208,1591812000446
Fix,GT,37.4968804,-122.2347079,,29.393442,0.1,293.16476,1591812001446
Fix,GT,37.4969806,-122.2350204,,30.145435,0.1,294.39078,1591812002446
Fix,GT,37.4970889,-122.2353372,,30.765543,0.1,295.8087,1591812003446
Fix,GT,37.4972046,-122.2356552,,30.99698,0.1,297.00842,1591812004446
Fix,GT,37.4973261,-122.2359704,,30.888176,0.1,298.41788,1591812005446
Fix,GT,37.4974533,-122.23628,,30.672413,0.1,299.82257,1591812006446
Fix,GT,37.4975851,-122.2365838,,30.501907,0.1,300.9907,1591812007446
Fix,GT,37.4977213,-122.2368821,,30.294067,0.1,302.5196,1591812008446
Fix,GT,37.4978637,-122.2371729,,30.099407,0.1,304.36365,1591812009446
Fix,GT,37.4980125,-122.2374575,,30.166054,0.1,305.92413,1591812010446
Fix,GT,37.498168,-122.2377389,,30.390186,0.1,307.37628,1591812011446
Fix,GT,37.4983308,-122.2380165,,30.558739,0.1,309.16513,1591812012446
Fix,GT,37.4985018,-122.2382887,,30.705221,0.1,311.0401,1591812013446
Fix,GT,37.49868,-122.2385554,,30.829895,0.1,312.65085,1591812014446
Fix,GT,37.4988649,-122.2388167,,30.920502,0.1,314.31836,1591812015446
Fix,GT,37.4990562,-122.2390709,,30.856022,0.1,316.15512,1591812016446
Fix,GT,37.4992525,-122.2393165,,30.60212,0.1,317.6537,1591812017446
Fix,GT,37.4994507,-122.2395544,,30.28172,0.1,318.55234,1591812018446
Fix,GT,37.4996492,-122.239787,,29.989182,0.1,319.0216,1591812019446
Fix,GT,37.4998474,-122.2400163,,29.858763,0.1,319.33063,1591812020446
Fix,GT,37.5000459,-122.2402438,,29.828842,0.1,319.6395,1591812021446
Fix,GT,37.5002452,-122.2404699,,29.804348,0.1,319.8066,1591812022446
Fix,GT,37.5004447,-122.2406957,,29.815235,0.1,319.80972,1591812023446
Fix,GT,37.5006445,-122.2409214,,29.851995,0.1,319.87515,1591812024446
Fix,GT,37.5008446,-122.2411471,,29.879654,0.1,319.90515,1591812025446
Fix,GT,37.5010446,-122.2413734,,29.90015,0.1,319.79193,1591812026446
Fix,GT,37.5012443,-122.2416004,,29.917698,0.1,319.69116,1591812027446
Fix,GT,37.5014443,-122.2418276,,29.937542,0.1,319.72824,1591812028446
Fix,GT,37.5016444,-122.2420546,,29.925863,0.1,319.70605,1591812029446
Fix,GT,37.501844,-122.2422817,,29.875553,0.1,319.71637,1591812030446
Fix,GT,37.5020431,-122.242508,,29.73156,0.1,319.7112,1591812031446
Fix,GT,37.5022407,-122.2427326,,29.444344,0.1,319.69754,1591812032446
Fix,GT,37.5024365,-122.2429551,,29.213871,0.1,319.72052,1591812033446
Fix,GT,37.5026312,-122.2431762,,29.07544,0.1,319.7819,1591812034446
Fix,GT,37.5028253,-122.2433958,,28.947044,0.1,319.97955,1591812035446
Fix,GT,37.5030193,-122.2436137,,28.81976,0.1,320.11523,1591812036446
Fix,GT,37.5032124,-122.2438306,,28.688921,0.1,320.05048,1591812037446
Fix,GT,37.5034044,-122.244047,,28.5859,0.1,319.927,1591812038446
Fix,GT,37.5035956,-122.2442628,,28.508167,0.1,319.92993,1591812039446
Fix,GT,37.5037868,-122.2444778,,28.496428,0.1,320.14334,1591812040446
Fix,GT,37.5039798,-122.2446915,,28.654543,0.1,320.86456,1591812041446
Fix,GT,37.5041771,-122.2449031,,28.940857,0.1,321.87265,1591812042446
Fix,GT,37.5043783,-122.2451141,,29.22182,0.1,321.91147,1591812043446
Fix,GT,37.5045799,-122.245329,,29.47887,0.1,321.01105,1591812044446
Fix,GT,37.5047799,-122.2455501,,29.703949,0.1,320.16772,1591812045446
Fix,GT,37.5049802,-122.2457747,,29.917011,0.1,320.063,1591812046446
Fix,GT,37.5051819,-122.2460007,,30.08342,0.1,320.11874,1591812047446
Fix,GT,37.5053847,-122.2462277,,30.225239,0.1,320.11078,1591812048446
Fix,GT,37.5055882,-122.2464561,,30.3698,0.1,319.98438,1591812049446
Fix,GT,37.5057923,-122.2466863,,30.509457,0.1,319.85623,1591812050446
Fix,GT,37.5059967,-122.2469179,,30.644258,0.1,319.67163,1591812051446
Fix,GT,37.5062017,-122.2471513,,30.775898,0.1,319.5066,1591812052446
Fix,GT,37.5064074,-122.2473859,,30.932549,0.1,319.5977,1591812053446
Fix,GT,37.5066144,-122.2476215,,31.120655,0.1,319.67264,1591812054446
Fix,GT,37.506823,-122.2478584,,31.31102,0.1,319.71753,1591812055446
Fix,GT,37.5070328,-122.2480964,,31.440945,0.1,319.76303,1591812056446
Fix,GT,37.507243,-122.2483351,,31.480522,0.1,319.76532,1591812057446
Fix,GT,37.5074534,-122.2485736,,31.442766,0.1,319.75845,1591812058446
Fix,GT,37.5076632,-122.2488118,,31.362251,0.1,319.78482,1591812059446
Fix,GT,37.5078725,-122.2490491,,31.24332,0.1,319.79578,1591812060446
Fix,GT,37.5080808,-122.2492857,,31.104267,0.1,319.6873,1591812061446
Fix,GT,37.5082879,-122.2495216,,30.969826,0.1,319.73105,1591812062446
Fix,GT,37.5084948,-122.2497555,,30.830303,0.1,320.0572,1591812063446
Fix,GT,37.5087015,-122.2499872,,30.696384,0.1,320.1889,1591812064446
Fix,GT,37.5089074,-122.2502176,,30.548685,0.1,320.1413,1591812065446
Fix,GT,37.5091122,-122.2504469,,30.361374,0.1,320.17636,1591812066446
Fix,GT,37.5093154,-122.250675,,30.140722,0.1,319.94702,1591812067446
Fix,GT,37.5095161,-122.2509027,,29.897938,0.1,319.50446,1591812068446
Fix,GT,37.5097139,-122.2511301,,29.662922,0.1,319.3236,1591812069446
Fix,GT,37.5099104,-122.2513559,,29.48655,0.1,319.54883,1591812070446
Fix,GT,37.5101068,-122.2515797,,29.37506,0.1,319.68546,1591812071446
Fix,GT,37.5103021,-122.2518026,,29.226357,0.1,319.49442,1591812072446
Fix,GT,37.5104957,-122.2520251,,29.007069,0.1,319.36047,1591812073446
Fix,GT,37.5106878,-122.2522453,,28.731554,0.1,319.63635,1591812074446
Fix,GT,37.5108792,-122.252462,,28.44463,0.1,319.89047,1591812075446
Fix,GT,37.5110686,-122.2526766,,28.210133,0.1,319.7472,1591812076446
Fix,GT,37.5112566,-122.2528897,,28.003386,0.1,319.79584,1591812077446
Fix,GT,37.5114438,-122.2531008,,27.874195,0.1,319.97366,1591812078446
Fix,GT,37.5116308,-122.2533111,,27.867163,0.1,320.019,1591812079446
Fix,GT,37.5118179,-122.2535219,,27.9354,0.1,319.8781,1591812080446
Fix,GT,37.5120048,-122.253734,,28.022892,0.1,319.61716,1591812081446
Fix,GT,37.5121916,-122.2539481,,28.124825,0.1,319.32004,1591812082446
Fix,GT,37.5123783,-122.254164,,28.229496,0.1,319.16208,1591812083446
Fix,GT,37.5125657,-122.2543808,,28.335125,0.1,319.27005,1591812084446
Fix,GT,37.5127545,-122.2545977,,28.472134,0.1,319.60443,1591812085446
Fix,GT,37.5129451,-122.2548148,,28.673153,0.1,319.6025,1591812086446
Fix,GT,37.513136,-122.2550352,,28.898193,0.1,318.79398,1591812087446
Fix,GT,37.5133257,-122.255261,,29.137157,0.1,318.0653,1591812088446
Fix,GT,37.513516,-122.2554901,,29.404861,0.1,318.22653,1591812089446
Fix,GT,37.5137095,-122.2557197,,29.673977,0.1,318.72055,1591812090446
Fix,GT,37.513906,-122.2559495,,29.946192,0.1,319.08218,1591812091446
Fix,GT,37.5141056,-122.2561801,,30.234716,0.1,319.41556,1591812092446
Fix,GT,37.5143079,-122.2564113,,30.49746,0.1,319.68658,1591812093446
Fix,GT,37.5145124,-122.2566434,,30.70514,0.1,319.75104,1591812094446
Fix,GT,37.5147183,-122.2568767,,30.819519,0.1,319.84814,1591812095446
Fix,GT,37.5149245,-122.2571098,,30.779018,0.1,319.8805,1591812096446
Fix,GT,37.51513,-122.2573423,,30.626488,0.1,319.77292,1591812097446
Fix,GT,37.5153341,-122.2575741,,30.4785,0.1,319.74106,1591812098446
Fix,GT,37.5155374,-122.2578047,,30.290297,0.1,319.7887,1591812099446
Fix,GT,37.5157392,-122.2580335,,30.054066,0.1,319.79187,1591812100446
Fix,GT,37.5159391,-122.2582606,,29.838997,0.1,319.73825,1591812101446
Fix,GT,37.5161382,-122.2584867,,29.753014,0.1,319.75433,1591812102446
Fix,GT,37.5163371,-122.2587125,,29.770485,0.1,319.77213,1591812103446
Fix,GT,37.5165363,-122.2589382,,29.791399,0.1,319.87628,1591812104446
Fix,GT,37.5167359,-122.2591634,,29.793474,0.1,319.99237,1591812105446
Fix,GT,37.5169355,-122.259388,,29.70509,0.1,319.97278,1591812106446
Fix,GT,37.5171342,-122.2596119,,29.531898,0.1,319.91748,1591812107446
Fix,GT,37.5173315,-122.2598347,,29.381292,0.1,319.82953,1591812108446
Fix,GT,37.5175274,-122.2600569,,29.248955,0.1,319.71536,1591812109446
Fix,GT,37.5177223,-122.2602781,,29.038399,0.1,319.77112,1591812110446
Fix,GT,37.5179158,-122.260497,,28.786392,0.1,319.89307,1591812111446
Fix,GT,37.5181081,-122.2607144,,28.687363,0.1,319.8145,1591812112446
Fix,GT,37.5183002,-122.2609322,,28.779762,0.1,319.7606,1591812113446
Fix,GT,37.5184932,-122.2611507,,28.910439,0.1,319.89,1591812114446
Fix,GT,37.5186875,-122.2613697,,29.050657,0.1,319.96948,1591812115446
Fix,GT,37.5188827,-122.2615898,,29.171162,0.1,319.92795,1591812116446
Fix,GT,37.5190784,-122.2618107,,29.25943,0.1,319.92102,1591812117446
Fix,GT,37.5192746,-122.2620326,,29.356005,0.1,319.89066,1591812118446
Fix,GT,37.5194717,-122.262255,,29.480045,0.1,319.9331,1591812119446
Fix,GT,37.5196699,-122.2624782,,29.612299,0.1,319.90366,1591812120446
Fix,GT,37.5198686,-122.2627027,,29.71171,0.1,319.8565,1591812121446
Fix,GT,37.5200675,-122.262928,,29.746622,0.1,319.87997,1591812122446
Fix,GT,37.5202668,-122.2631531,,29.743553,0.1,319.9568,1591812123446
Fix,GT,37.520467,-122.2633772,,29.805742,0.1,320.45285,1591812124446
Fix,GT,37.5206703,-122.2635991,,29.977629,0.1,321.3211,1591812125446
Fix,GT,37.5208772,-122.2638193,,30.221996,0.1,321.7635,1591812126446
Fix,GT,37.5210859,-122.264041,,30.452892,0.1,321.45816,1591812127446
Fix,GT,37.5212946,-122.2642665,,30.660297,0.1,320.79825,1591812128446
Fix,GT,37.5215028,-122.264496,,30.817114,0.1,320.38547,1591812129446
Fix,GT,37.5217104,-122.2647282,,30.894268,0.1,319.97208,1591812130446
Fix,GT,37.5219173,-122.264962,,30.850372,0.1,319.82465,1591812131446
Fix,GT,37.5221233,-122.2651951,,30.704206,0.1,319.7878,1591812132446
Fix,GT,37.5223278,-122.2654277,,30.549421,0.1,319.54883,1591812133446
Fix,GT,37.5225306,-122.2656603,,30.42784,0.1,319.36902,1591812134446
Fix,GT,37.5227325,-122.2658924,,30.334763,0.1,319.4108,1591812135446
Fix,GT,37.5229341,-122.2661237,,30.298908,0.1,319.4554,1591812136446
Fix,GT,37.5231355,-122.2663554,,30.340492,0.1,319.28568,1591812137446
Fix,GT,37.5233371,-122.2665879,,30.410475,0.1,319.3227,1591812138446
Fix,GT,37.5235398,-122.26682,,30.514252,0.1,319.65167,1591812139446
Fix,GT,37.523744,-122.2670519,,30.566463,0.1,319.74316,1591812140446
Fix,GT,37.523948,-122.2672837,,30.449436,0.1,319.62,1591812141446
Fix,GT,37.5241507,-122.2675145,,30.292248,0.1,319.78665,1591812142446
Fix,GT,37.5243538,-122.2677429,,30.25053,0.1,320.1469,1591812143446
Fix,GT,37.5245574,-122.2679702,,30.226774,0.1,320.2236,1591812144446
Fix,GT,37.5247607,-122.2681973,,30.182848,0.1,320.18915,1591812145446
Fix,GT,37.5249637,-122.2684242,,30.135067,0.1,320.1368,1591812146446
Fix,GT,37.525166,-122.2686509,,30.046528,0.1,320.10294,1591812147446
Fix,GT,37.5253675,-122.2688768,,29.910912,0.1,320.0807,1591812148446
Fix,GT,37.5255678,-122.2691021,,29.776142,0.1,319.89825,1591812149446
Fix,GT,37.5257662,-122.2693277,,29.650663,0.1,319.3913,1591812150446
Fix,GT,37.5259616,-122.2695551,,29.530666,0.1,318.58313,1591812151446
Fix,GT,37.5261542,-122.2697846,,29.44509,0.1,318.19217,1591812152446
Fix,GT,37.5263465,-122.2700139,,29.427883,0.1,318.58075,1591812153446
Fix,GT,37.5265404,-122.2702406,,29.32742,0.1,319.26865,1591812154446
Fix,GT,37.5267351,-122.2704628,,29.032017,0.1,319.98297,1591812155446
Fix,GT,37.5269295,-122.2706802,,28.746164,0.1,320.306,1591812156446
Fix,GT,37.5271226,-122.2708951,,28.54062,0.1,320.1998,1591812157446
Fix,GT,37.5273136,-122.2711094,,28.300674,0.1,319.9563,1591812158446
Fix,GT,37.5275024,-122.2713226,,28.111477,0.1,319.88208,1591812159446
Fix,GT,37.5276908,-122.2715348,,28.092838,0.1,320.07983,1591812160446
Fix,GT,37.5278794,-122.2717463,,28.011383,0.1,320.02267,1591812161446
Fix,GT,37.5280661,-122.2719569,,27.669765,0.1,319.72623,1591812162446
Fix,GT,37.5282496,-122.2721655,,27.24852,0.1,319.65442,1591812163446
Fix,GT,37.52843,-122.2723709,,26.808182,0.1,319.6363,1591812164446
Fix,GT,37.5286071,-122.2725729,,26.318138,0.1,319.50928,1591812165446
Fix,GT,37.5287804,-122.2727719,,25.829182,0.1,319.2712,1591812166446
Fix,GT,37.5289504,-122.2729677,,25.383184,0.1,319.36005,1591812167446
Fix,GT,37.5291184,-122.2731602,,25.168121,0.1,319.44,1591812168446
Fix,GT,37.5292851,-122.2733535,,25.277897,0.1,318.56665,1591812169446
Fix,GT,37.5294504,-122.273552,,25.480513,0.1,317.73297,1591812170446
Fix,GT,37.5296162,-122.2737529,,25.670795,0.1,318.08685,1591812171446
Fix,GT,37.5297852,-122.2739532,,25.937828,0.1,318.89557,1591812172446
Fix,GT,37.5299589,-122.2741528,,26.334307,0.1,319.885,1591812173446
Fix,GT,37.5301381,-122.2743518,,26.756939,0.1,320.844,1591812174446
Fix,GT,37.5303226,-122.2745503,,27.14655,0.1,321.5877,1591812175446
Fix,GT,37.5305113,-122.274749,,27.516527,0.1,322.06604,1591812176446
Fix,GT,37.5307036,-122.2749492,,27.939995,0.1,322.4023,1591812177446
Fix,GT,37.5309001,-122.2751511,,28.436657,0.1,322.82632,1591812178446
Fix,GT,37.5311016,-122.2753539,,28.951958,0.1,323.5087,1591812179446
Fix,GT,37.5313094,-122.2755574,,29.60411,0.1,324.29474,1591812180446
Fix,GT,37.5315243,-122.2757631,,30.384155,0.1,324.85193,1591812181446
Fix,GT,37.531746,-122.2759717,,31.044802,0.1,325.27478,1591812182446
Fix,GT,37.5319723,-122.2761823,,31.428501,0.1,325.37064,1591812183446
Fix,GT,37.5322,-122.2763949,,31.539532,0.1,325.06296,1591812184446
Fix,GT,37.5324277,-122.2766086,,31.56348,0.1,325.2371,1591812185446
Fix,GT,37.5326565,-122.2768214,,31.650764,0.1,325.6081,1591812186446
