MessageType,Provider,LatitudeDegrees,LongitudeDegrees,AltitudeMeters,SpeedMps,AccuracyMeters,BearingDegrees,UnixTimeMillis
Fix,GT,37.4273094,-122.0698651,,0.001,0.1,86.37537,1596751182446
Fix,GT,37.4273094,-122.0698651,,0.001,0.1,86.37497,1596751183446
Fix,GT,37.4273094,-122.0698651,,0.0015519076,0.1,86.374664,1596751184446
Fix,GT,37.4273094,-122.0698651,,0.0016841604,0.1,86.37421,1596751185446
Fix,GT,37.4273094,-122.0698651,,0.0014465027,0.1,86.373566,1596751186446
Fix,GT,37.4273094,-122.0698651,,0.0011069949,0.1,86.37314,1596751187446
Fix,GT,37.4273094,-122.0698651,,0.0009984102,0.1,86.37317,1596751188446
Fix,GT,37.4273094,-122.0698651,,0.002236068,0.1,86.37363,1596751189446
Fix,GT,37.4273094,-122.0698651,,0.0025771656,0.1,86.37378,1596751190446
Fix,GT,37.4273094,-122.0698651,,0.0039372174,0.1,86.37344,1596751191446
Fix,GT,37.4273094,-122.0698651,,0.0046632714,0.1,86.37317,1596751192446
Fix,GT,37.4273094,-122.0698651,,0.0041231057,0.1,86.372925,1596751193446
Fix,GT,37.4273094,-122.0698651,,0.004558854,0.1,86.37256,1596751194446
Fix,GT,37.4273094,-122.0698651,,0.0055382634,0.1,86.371826,1596751195446
Fix,GT,37.4273094,-122.0698651,,0.006492312,0.1,86.371216,1596751196446
Fix,GT,37.4273093,-122.0698651,,0.009397414,0.1,86.37109,1596751197446
Fix,GT,37.4273092,-122.0698651,,0.013676561,0.1,86.37082,1596751198446
Fix,GT,37.427309,-122.0698651,,0.01566652,0.1,86.37048,1596751199446
Fix,GT,37.4273088,-122.0698651,,0.017420169,0.1,86.37018,1596751200446
Fix,GT,37.4273086,-122.0698651,,0.019560963,0.1,86.3703,1596751201446
Fix,GT,37.4273085,-122.0698651,,0.03136563,0.1,86.37082,1596751202446
Fix,GT,37.4273099,-122.0698652,,0.3466145,0.1,85.82776,1596751203446
Fix,GT,37.4273168,-122.0698657,,1.0550071,0.1,84.0242,1596751204446
Fix,GT,37.4273308,-122.0698671,,1.927423,0.1,82.57291,1596751205446
Fix,GT,37.4273529,-122.0698696,,3.0760171,0.1,82.798096,1596751206446
Fix,GT,37.4273861,-122.0698728,,4.4850183,0.1,83.714966,1596751207446
Fix,GT,37.4274326,-122.069876,,6.0351486,0.1,85.13635,1596751208446
Fix,GT,37.4274928,-122.0698778,,7.416389,0.1,85.691315,1596751209446
Fix,GT,37.4275655,-122.0698792,,8.390923,0.1,85.52243,1596751210446
Fix,GT,37.427649,-122.0698797,,9.093621,0.1,85.97446,1596751211446
Fix,GT,37.4277367,-122.0698797,,9.384119,0.1,86.37488,1596751212446
Fix,GT,37.4278229,-122.0698816,,9.22727,0.1,86.72766,1596751213446
Fix,GT,37.4279053,-122.069884,,9.000085,0.1,86.668304,1596751214446
Fix,GT,37.4279837,-122.0698887,,8.647836,0.1,86.29874,1596751215446
Fix,GT,37.4280568,-122.0698936,,8.091498,0.1,87.10458,1596751216446
Fix,GT,37.428123,-122.0698947,,7.3318214,0.1,88.74048,1596751217446
Fix,GT,37.4281845,-122.0698949,,6.53395,0.1,87.347046,1596751218446
Fix,GT,37.4282424,-122.0699022,,5.7763824,0.1,77.11386,1596751219446
Fix,GT,37.4282942,-122.0699305,,5.27392,0.1,54.431152,1596751220446
Fix,GT,37.4283286,-122.0699865,,5.0649176,0.1,25.572113,1596751221446
Fix,GT,37.4283376,-122.0700556,,4.9360976,0.1,355.77576,1596751222446
Fix,GT,37.4283182,-122.0701201,,4.9195595,0.1,323.28436,1596751223446
Fix,GT,37.4282738,-122.0701646,,5.115123,0.1,292.15057,1596751224446
Fix,GT,37.4282193,-122.0701806,,5.451843,0.1,272.5548,1596751225446
Fix,GT,37.4281666,-122.0701808,,5.950322,0.1,266.16342,1596751226446
Fix,GT,37.4281137,-122.0701781,,6.5830603,0.1,266.05057,1596751227446
Fix,GT,37.4280545,-122.0701748,,7.1067195,0.1,265.9787,1596751228446
Fix,GT,37.4279917,-122.070171,,7.261791,0.1,265.80792,1596751229446
Fix,GT,37.4279285,-122.0701682,,7.23511,0.1,266.06354,1596751230446
Fix,GT,37.4278648,-122.0701658,,7.3202,0.1,265.85147,1596751231446
Fix,GT,37.4278003,-122.0701626,,7.3826985,0.1,265.32977,1596751232446
Fix,GT,37.4277361,-122.0701596,,7.2817106,0.1,265.85358,1596751233446
Fix,GT,37.4276718,-122.070158,,7.456255,0.1,266.8532,1596751234446
Fix,GT,37.4276033,-122.0701563,,8.166685,0.1,267.00293,1596751235446
Fix,GT,37.4275285,-122.0701537,,8.648385,0.1,267.42328,1596751236446
Fix,GT,37.4274523,-122.0701521,,8.565865,0.1,269.9323,1596751237446
Fix,GT,37.4273772,-122.0701535,,8.289994,0.1,272.05078,1596751238446
Fix,GT,37.4273026,-122.0701588,,8.375082,0.1,272.39844,1596751239446
Fix,GT,37.4272234,-122.0701662,,9.097977,0.1,271.94904,1596751240446
Fix,GT,37.4271373,-122.0701715,,9.542017,0.1,269.97247,1596751241446
Fix,GT,37.4270513,-122.0701724,,9.150067,0.1,266.5619,1596751242446
Fix,GT,37.426971,-122.0701696,,8.641146,0.1,264.37222,1596751243446
Fix,GT,37.4268953,-122.070167,,8.480441,0.1,265.09976,1596751244446
Fix,GT,37.4268201,-122.0701667,,8.581787,0.1,267.1087,1596751245446
Fix,GT,37.4267426,-122.0701684,,8.878616,0.1,269.3565,1596751246446
Fix,GT,37.4266605,-122.0701727,,9.269774,0.1,269.58875,1596751247446
Fix,GT,37.4265754,-122.0701757,,9.34017,0.1,266.71234,1596751248446
Fix,GT,37.426493,-122.0701738,,8.96893,0.1,265.01187,1596751249446
Fix,GT,37.4264149,-122.0701711,,8.62084,0.1,265.25858,1596751250446
Fix,GT,37.4263399,-122.0701724,,8.669918,0.1,268.79156,1596751251446
Fix,GT,37.4262619,-122.0701785,,8.99317,0.1,270.45398,1596751252446
Fix,GT,37.4261778,-122.0701829,,9.459118,0.1,267.82172,1596751253446
Fix,GT,37.4260916,-122.0701832,,9.60144,0.1,266.92963,1596751254446
Fix,GT,37.4260057,-122.0701818,,9.464875,0.1,265.80942,1596751255446
Fix,GT,37.4259214,-122.0701779,,9.245728,0.1,264.40067,1596751256446
Fix,GT,37.4258407,-122.0701735,,8.992882,0.1,265.93323,1596751257446
Fix,GT,37.4257624,-122.0701734,,8.633312,0.1,268.44672,1596751258446
Fix,GT,37.425686,-122.0701751,,8.066824,0.1,267.20422,1596751259446
Fix,GT,37.4256142,-122.0701735,,7.6442795,0.1,264.99048,1596751260446
Fix,GT,37.4255458,-122.070171,,7.5969763,0.1,265.88025,1596751261446
Fix,GT,37.4254771,-122.0701721,,7.8236313,0.1,269.55136,1596751262446
Fix,GT,37.4254058,-122.0701773,,7.8746614,0.1,271.1684,1596751263446
Fix,GT,37.4253329,-122.0701813,,7.6281204,0.1,267.55737,1596751264446
Fix,GT,37.4252641,-122.0701794,,7.156026,0.1,264.3126,1596751265446
Fix,GT,37.4252018,-122.0701756,,6.5332375,0.1,264.8039,1596751266446
Fix,GT,37.4251446,-122.0701723,,5.5430293,0.1,261.16922,1596751267446
Fix,GT,37.4250935,-122.0701612,,4.720891,0.1,246.51476,1596751268446
Fix,GT,37.4250511,-122.07013,,4.64318,0.1,222.3908,1596751269446
Fix,GT,37.4250259,-122.0700801,,4.458411,0.1,199.44347,1596751270446
Fix,GT,37.4250169,-122.0700332,,3.6902285,0.1,192.67038,1596751271446
Fix,GT,37.4250117,-122.0700045,,3.1507726,0.1,208.84874,1596751272446
Fix,GT,37.425004,-122.0699885,,3.070241,0.1,238.41672,1596751273446
Fix,GT,37.4249908,-122.0699812,,3.7930322,0.1,274.2422,1596751274446
Fix,GT,37.4249683,-122.0699913,,5.334772,0.1,309.05136,1596751275446
Fix,GT,37.4249385,-122.0700346,,7.0880637,0.1,331.64685,1596751276446
Fix,GT,37.424914,-122.0701083,,8.480506,0.1,345.37723,1596751277446
Fix,GT,37.4249014,-122.0702042,,9.708128,0.1,354.62918,1596751278446
Fix,GT,37.4248964,-122.0703195,,10.896611,0.1,356.92282,1596751279446
Fix,GT,37.4248936,-122.0704483,,11.831871,0.1,357.2701,1596751280446
Fix,GT,37.424892,-122.0705876,,12.642116,0.1,357.2069,1596751281446
Fix,GT,37.4248906,-122.0707371,,13.477469,0.1,356.74457,1596751282446
Fix,GT,37.42489,-122.0708962,,14.315889,0.1,356.79797,1596751283446
Fix,GT,37.4248905,-122.0710641,,14.967695,0.1,356.93094,1596751284446
Fix,GT,37.4248918,-122.0712364,,15.2027645,0.1,357.22577,1596751285446
Fix,GT,37.424894,-122.0714095,,15.237307,0.1,357.8655,1596751286446
Fix,GT,37.4248974,-122.0715826,,15.131973,0.1,358.05515,1596751287446
Fix,GT,37.4249004,-122.0717526,,14.780855,0.1,357.58533,1596751288446
Fix,GT,37.424902,-122.0719191,,14.507315,0.1,357.14062,1596751289446
Fix,GT,37.4249028,-122.0720826,,14.359884,0.1,357.25,1596751290446
Fix,GT,37.4249039,-122.0722446,,14.266731,0.1,357.60037,1596751291446
Fix,GT,37.424906,-122.0724065,,14.402056,0.1,357.68433,1596751292446
Fix,GT,37.4249028,-122.0725719,,14.827505,0.1,357.61307,1596751293446
Fix,GT,37.4248971,-122.0727433,,15.414726,0.1,357.63135,1596751294446
Fix,GT,37.4248978,-122.0729208,,16.019905,0.1,357.76654,1596751295446
Fix,GT,37.4248986,-122.0731053,,16.636486,0.1,357.6358,1596751296446
Fix,GT,37.4248934,-122.0732971,,17.190702,0.1,357.49652,1596751297446
Fix,GT,37.4248895,-122.0734927,,17.27473,0.1,357.60648,1596751298446
Fix,GT,37.4248943,-122.073686,,16.916046,0.1,357.5426,1596751299446
Fix,GT,37.4248951,-122.0738745,,16.487823,0.1,357.31137,1596751300446
Fix,GT,37.4248941,-122.0740586,,16.106253,0.1,357.2468,1596751301446
Fix,GT,37.4248934,-122.0742391,,15.787771,0.1,356.9094,1596751302446
Fix,GT,37.4248923,-122.0744158,,15.486,0.1,356.83386,1596751303446
Fix,GT,37.4248921,-122.0745896,,15.41996,0.1,357.48227,1596751304446
Fix,GT,37.4248936,-122.0747645,,15.685887,0.1,357.93015,1596751305446
Fix,GT,37.4248953,-122.0749428,,15.962505,0.1,357.88715,1596751306446
Fix,GT,37.4248967,-122.0751239,,16.15148,0.1,357.8958,1596751307446
Fix,GT,37.4248981,-122.0753068,,16.235209,0.1,358.04095,1596751308446
Fix,GT,37.4248994,-122.0754907,,16.253445,0.1,357.86246,1596751309446
Fix,GT,37.4248996,-122.0756748,,16.239553,0.1,357.2472,1596751310446
Fix,GT,37.4248984,-122.0758581,,16.122492,0.1,356.8937,1596751311446
Fix,GT,37.4248965,-122.0760386,,15.808755,0.1,356.67227,1596751312446
Fix,GT,37.424894,-122.076215,,15.426043,0.1,356.492,1596751313446
Fix,GT,37.4248923,-122.076387,,15.20791,0.1,357.36908,1596751314446
Fix,GT,37.4248932,-122.0765594,,15.47471,0.1,358.21817,1596751315446
Fix,GT,37.4248951,-122.0767358,,15.682599,0.1,358.14554,1596751316446
Fix,GT,37.4248966,-122.0769106,,15.103808,0.1,358.0395,1596751317446
Fix,GT,37.4248977,-122.0770763,,14.130508,0.1,357.77612,1596751318446
Fix,GT,37.4248977,-122.077231,,13.115778,0.1,356.86087,1596751319446
Fix,GT,37.4248952,-122.077373,,12.006675,0.1,355.42212,1596751320446
Fix,GT,37.42489,-122.0775006,,10.681225,0.1,353.59018,1596751321446
Fix,GT,37.4248824,-122.0776121,,9.000713,0.1,352.40488,1596751322446
Fix,GT,37.424875,-122.0777019,,6.850266,0.1,352.78085,1596751323446
Fix,GT,37.4248693,-122.0777651,,4.4631786,0.1,354.31516,1596751324446
Fix,GT,37.4248658,-122.0777999,,2.1931076,0.1,355.4906,1596751325446
Fix,GT,37.424864,-122.0778089,,0.6121218,0.1,355.70032,1596751326446
Fix,GT,37.4248605,-122.077807,,0.04590418,0.1,355.7058,1596751327446
Fix,GT,37.4248649,-122.0778136,,0.05744206,0.1,355.70807,1596751328446
Fix,GT,37.4248749,-122.0778229,,0.08866781,0.1,355.7086,1596751329446
Fix,GT,37.4248755,-122.0778239,,0.2289175,0.1,355.70325,1596751330446
Fix,GT,37.424876,-122.0778302,,1.1355757,0.1,355.69373,1596751331446
Fix,GT,37.4248759,-122.077853,,2.9288285,0.1,354.8046,1596751332446
Fix,GT,37.4248725,-122.0778991,,4.5949697,0.1,347.92413,1596751333446
Fix,GT,37.4248569,-122.0779623,,5.756213,0.1,331.86353,1596751334446
Fix,GT,37.4248203,-122.0780273,,6.833441,0.1,313.05878,1596751335446
Fix,GT,37.4247611,-122.0780826,,8.275686,0.1,295.8025,1596751336446
Fix,GT,37.4246798,-122.0781211,,10.008165,0.1,281.27286,1596751337446
Fix,GT,37.4245802,-122.0781405,,11.656162,0.1,272.4735,1596751338446
Fix,GT,37.4244664,-122.0781474,,13.14364,0.1,268.1235,1596751339446
Fix,GT,37.4243422,-122.0781464,,14.115162,0.1,265.79373,1596751340446
Fix,GT,37.4242134,-122.0781399,,14.147249,0.1,264.32404,1596751341446
Fix,GT,37.4240892,-122.0781307,,13.239593,0.1,263.5682,1596751342446
Fix,GT,37.4239767,-122.0781209,,11.722654,0.1,263.43024,1596751343446
Fix,GT,37.4238795,-122.0781125,,9.889085,0.1,263.59772,1596751344446
Fix,GT,37.4237994,-122.0781061,,7.9678454,0.1,264.02783,1596751345446
Fix,GT,37.423737,-122.0781018,,5.937022,0.1,264.4124,1596751346446
Fix,GT,37.4236925,-122.078099,,4.0032916,0.1,264.71332,1596751347446
Fix,GT,37.4236639,-122.0780975,,2.4559836,0.1,264.9024,1596751348446
Fix,GT,37.4236479,-122.0780967,,1.2108009,0.1,264.99268,1596751349446
Fix,GT,37.4236417,-122.0780965,,0.31982595,0.1,265.00787,1596751350446
Fix,GT,37.4236408,-122.0780966,,0.014417779,0.1,265.00998,1596751351446
Fix,GT,37.4236408,-122.0780967,,0.010304842,0.1,265.01025,1596751352446
Fix,GT,37.4236408,-122.0780967,,0.007926928,0.1,265.01093,1596751353446
Fix,GT,37.4236408,-122.0780967,,0.006751212,0.1,265.0116,1596751354446
Fix,GT,37.4236408,-122.0780967,,0.006633059,0.1,265.01147,1596751355446
Fix,GT,37.4236408,-122.0780967,,0.0060864277,0.1,265.01212,1596751356446
Fix,GT,37.4236408,-122.0780967,,0.0067638876,0.1,265.01266,1596751357446
Fix,GT,37.4236408,-122.0780967,,0.0065948637,0.1,265.01257,1596751358446
Fix,GT,37.4236408,-122.0780967,,0.0062226458,0.1,265.0125,1596751359446
Fix,GT,37.4236408,-122.0780967,,0.0065369043,0.1,265.01276,1596751360446
Fix,GT,37.4236408,-122.0780967,,0.0061041606,0.1,265.0132,1596751361446
Fix,GT,37.4236408,-122.0780967,,0.005631907,0.1,265.01358,1596751362446
Fix,GT,37.4236408,-122.0780967,,0.005385164,0.1,265.01373,1596751363446
Fix,GT,37.4236403,-122.0780968,,0.2009263,0.1,265.01593,1596751364446
Fix,GT,37.4236379,-122.0780966,,0.39771655,0.1,265.02838,1596751365446
Fix,GT,37.4236348,-122.0780965,,0.20224375,0.1,265.0442,1596751366446
Fix,GT,37.4236339,-122.0780965,,0.01750719,0.1,265.04797,1596751367446
Fix,GT,37.4236338,-122.0780965,,0.0021054046,0.1,265.0465,1596751368446
Fix,GT,37.4236338,-122.0780965,,0.002500557,0.1,265.04614,1596751369446
Fix,GT,37.4236338,-122.0780965,,0.002563938,0.1,265.0468,1596751370446
Fix,GT,37.4236338,-122.0780965,,0.0016841622,0.1,265.04666,1596751371446
Fix,GT,37.4236338,-122.0780965,,0.001,0.1,265.0467,1596751372446
Fix,GT,37.4236338,-122.0780965,,0.0014465014,0.1,265.04666,1596751373446
Fix,GT,37.4236338,-122.0780965,,0.0029479694,0.1,265.04648,1596751374446
Fix,GT,37.4236338,-122.0780965,,0.006070822,0.1,265.0465,1596751375446
Fix,GT,37.4236339,-122.0780965,,0.0103796255,0.1,265.0465,1596751376446
Fix,GT,37.4236339,-122.0780964,,0.013051949,0.1,265.04626,1596751377446
Fix,GT,37.4236338,-122.0780962,,0.14357087,0.1,265.04706,1596751378446
Fix,GT,37.4236308,-122.0780959,,0.540458,0.1,265.0553,1596751379446
Fix,GT,37.4236251,-122.0780955,,0.5904762,0.1,265.0796,1596751380446
Fix,GT,37.4236219,-122.0780951,,0.17022568,0.1,265.09863,1596751381446
Fix,GT,37.4236216,-122.0780948,,0.023524854,0.1,265.09784,1596751382446
Fix,GT,37.4236217,-122.0780946,,0.027876157,0.1,265.09723,1596751383446
Fix,GT,37.4236218,-122.0780943,,0.042559564,0.1,265.09946,1596751384446
Fix,GT,37.42362,-122.0780938,,0.52675486,0.1,265.11475,1596751385446
Fix,GT,37.4236098,-122.0780928,,1.8462436,0.1,265.19617,1596751386446
Fix,GT,37.4235872,-122.0780917,,3.3221233,0.1,267.31522,1596751387446
Fix,GT,37.4235555,-122.0780945,,4.6346064,0.1,276.52814,1596751388446
Fix,GT,37.4235186,-122.0781094,,5.755851,0.1,294.7199,1596751389446
Fix,GT,37.4234846,-122.0781435,,6.470966,0.1,318.9984,1596751390446
Fix,GT,37.423462,-122.0782013,,7.4391327,0.1,341.6023,1596751391446
Fix,GT,37.423451,-122.0782875,,9.118793,0.1,352.03897,1596751392446
Fix,GT,37.4234439,-122.0783999,,10.906628,0.1,353.23105,1596751393446
Fix,GT,37.4234364,-122.0785306,,12.265739,0.1,353.73828,1596751394446
Fix,GT,37.4234293,-122.0786751,,13.40495,0.1,354.2418,1596751395446
Fix,GT,37.4234221,-122.0788324,,14.489796,0.1,354.27997,1596751396446
Fix,GT,37.4234142,-122.0790013,,15.375023,0.1,354.15945,1596751397446
Fix,GT,37.4234049,-122.0791794,,16.125536,0.1,354.04776,1596751398446
Fix,GT,37.4233947,-122.0793671,,17.119476,0.1,353.87622,1596751399446
Fix,GT,37.4233839,-122.0795663,,18.101862,0.1,353.44293,1596751400446
Fix,GT,37.4233701,-122.0797763,,18.92165,0.1,352.652,1596751401446
Fix,GT,37.4233528,-122.0799954,,19.704643,0.1,351.71286,1596751402446
Fix,GT,37.4233321,-122.0802226,,20.416481,0.1,351.0088,1596751403446
Fix,GT,37.423309,-122.0804571,,21.111835,0.1,350.61145,1596751404446
Fix,GT,37.4232849,-122.0806978,,21.71819,0.1,350.59534,1596751405446
Fix,GT,37.4232623,-122.0809418,,21.93077,0.1,351.15558,1596751406446
Fix,GT,37.423243,-122.0811864,,21.949932,0.1,351.56366,1596751407446
Fix,GT,37.4232253,-122.0814313,,22.153845,0.1,351.39984,1596751408446
Fix,GT,37.4232063,-122.0816792,,22.45874,0.1,351.16733,1596751409446
Fix,GT,37.4231861,-122.0819298,,22.781246,0.1,351.13727,1596751410446
Fix,GT,37.4231666,-122.0821837,,23.31292,0.1,351.7429,1596751411446
Fix,GT,37.4231493,-122.0824458,,24.386143,0.1,353.10803,1596751412446
Fix,GT,37.4231374,-122.0827205,,25.718897,0.1,354.78104,1596751413446
Fix,GT,37.4231336,-122.0830091,,26.673885,0.1,356.43527,1596751414446
Fix,GT,37.4231321,-122.0833117,,27.257488,0.1,358.0927,1596751415446
Fix,GT,37.4231328,-122.0836226,,27.627636,0.1,359.80588,1596751416446
Fix,GT,37.4231425,-122.083937,,27.83665,0.1,1.572998,1596751417446
Fix,GT,37.4231604,-122.0842529,,27.93441,0.1,3.335266,1596751418446
Fix,GT,37.4231866,-122.0845677,,27.710209,0.1,5.1315002,1596751419446
Fix,GT,37.4232212,-122.0848781,,27.183674,0.1,6.7905884,1596751420446
Fix,GT,37.4232625,-122.0851806,,26.528881,0.1,8.143066,1596751421446
Fix,GT,37.4233079,-122.0854722,,25.806484,0.1,9.135162,1596751422446
Fix,GT,37.4233554,-122.0857525,,25.092299,0.1,9.8298645,1596751423446
Fix,GT,37.4234042,-122.0860236,,24.467619,0.1,10.541504,1596751424446
Fix,GT,37.4234546,-122.0862878,,24.002146,0.1,11.398132,1596751425446
Fix,GT,37.423507,-122.0865451,,23.783512,0.1,11.661957,1596751426446
Fix,GT,37.4235589,-122.0868018,,23.878796,0.1,11.320404,1596751427446
Fix,GT,37.4236094,-122.0870649,,24.128727,0.1,11.150116,1596751428446
Fix,GT,37.4236608,-122.0873391,,24.318466,0.1,11.294373,1596751429446
Fix,GT,37.4237131,-122.0876162,,24.305473,0.1,11.230011,1596751430446
Fix,GT,37.4237641,-122.0878818,,23.935436,0.1,10.954529,1596751431446
Fix,GT,37.4238131,-122.0881415,,23.300106,0.1,10.775818,1596751432446
Fix,GT,37.4238533,-122.0883795,,22.566864,0.1,10.525116,1596751433446
Fix,GT,37.4238949,-122.0886178,,21.213387,0.1,10.1528015,1596751434446
Fix,GT,37.4239419,-122.0888608,,19.383896,0.1,8.643677,1596751435446
Fix,GT,37.4239707,-122.0890685,,17.46423,0.1,4.125519,1596751436446
Fix,GT,37.4239815,-122.0892561,,15.278615,0.1,358.0919,1596751437446
Fix,GT,37.4239775,-122.0894168,,12.827991,0.1,353.78723,1596751438446
Fix,GT,37.423966,-122.0895491,,10.463019,0.1,350.53378,1596751439446
Fix,GT,37.4239529,-122.0896561,,8.340751,0.1,346.6019,1596751440446
Fix,GT,37.4239411,-122.0897386,,6.2583866,0.1,342.78366,1596751441446
Fix,GT,37.4239295,-122.0897972,,4.325429,0.1,340.6287,1596751442446
Fix,GT,37.4239208,-122.0898353,,2.7136154,0.1,339.87906,1596751443446
Fix,GT,37.4239156,-122.089857,,1.3481393,0.1,339.69995,1596751444446
Fix,GT,37.4239141,-122.0898653,,0.3340841,0.1,339.63974,1596751445446
Fix,GT,37.4239145,-122.0898677,,0.34505463,0.1,339.61313,1596751446446
Fix,GT,37.4239153,-122.0898782,,1.8205379,0.1,339.4139,1596751447446
Fix,GT,37.4239066,-122.0899116,,4.3488655,0.1,338.7805,1596751448446
Fix,GT,37.4238858,-122.0899722,,6.8601823,0.1,337.9556,1596751449446
Fix,GT,37.4238612,-122.0900573,,9.1689,0.1,337.23618,1596751450446
Fix,GT,37.4238289,-122.0901652,,11.136978,0.1,336.47174,1596751451446
Fix,GT,37.4237908,-122.0902918,,12.830875,0.1,335.7469,1596751452446
Fix,GT,37.4237466,-122.0904353,,14.4142,0.1,334.81552,1596751453446
Fix,GT,37.4236909,-122.0905918,,15.5021515,0.1,332.38364,1596751454446
Fix,GT,37.4236233,-122.0907532,,16.120394,0.1,328.03812,1596751455446
Fix,GT,37.4235451,-122.090914,,16.404776,0.1,322.8534,1596751456446
Fix,GT,37.4234551,-122.0910644,,16.371464,0.1,317.43246,1596751457446
Fix,GT,37.4233545,-122.0911986,,16.17664,0.1,311.73932,1596751458446
Fix,GT,37.4232458,-122.09132,,15.619398,0.1,305.72745,1596751459446
Fix,GT,37.4231344,-122.0914218,,14.556536,0.1,300.55273,1596751460446
Fix,GT,37.4230266,-122.0915044,,13.123519,0.1,296.97318,1596751461446
Fix,GT,37.4229289,-122.0915702,,11.2706585,0.1,294.0285,1596751462446
Fix,GT,37.4228434,-122.0916213,,9.695414,0.1,291.4499,1596751463446
Fix,GT,37.4227655,-122.0916635,,9.084629,0.1,290.00748,1596751464446
Fix,GT,37.4226917,-122.0917012,,8.652374,0.1,289.68054,1596751465446
Fix,GT,37.4226195,-122.0917385,,8.875872,0.1,290.17062,1596751466446
Fix,GT,37.4225401,-122.0917807,,10.507818,0.1,290.4264,1596751467446
Fix,GT,37.4224433,-122.0918318,,12.865248,0.1,290.3086,1596751468446
Fix,GT,37.4223288,-122.0918921,,14.6202545,0.1,290.27844,1596751469446
Fix,GT,37.4222029,-122.0919586,,15.719403,0.1,290.4372,1596751470446
Fix,GT,37.4220695,-122.0920296,,16.429129,0.1,290.64795,1596751471446
Fix,GT,37.4219313,-122.0921041,,16.98818,0.1,290.81815,1596751472446
Fix,GT,37.4217882,-122.0921819,,17.63913,0.1,291.00735,1596751473446
Fix,GT,37.4216412,-122.0922623,,17.885303,0.1,291.20184,1596751474446
Fix,GT,37.4214946,-122.0923419,,17.629265,0.1,291.16495,1596751475446
Fix,GT,37.4213509,-122.0924188,,17.250546,0.1,291.1557,1596751476446
Fix,GT,37.4212107,-122.0924949,,16.811914,0.1,291.16254,1596751477446
Fix,GT,37.4210739,-122.09257,,16.498877,0.1,290.96057,1596751478446
Fix,GT,37.4209364,-122.0926437,,16.744295,0.1,290.62463,1596751479446
Fix,GT,37.4207984,-122.092716,,16.302101,0.1,290.2609,1596751480446
Fix,GT,37.4206694,-122.0927823,,14.498543,0.1,289.84045,1596751481446
Fix,GT,37.4205568,-122.092839,,12.377147,0.1,289.41837,1596751482446
Fix,GT,37.4204629,-122.0928855,,10.009391,0.1,289.4095,1596751483446
Fix,GT,37.4203898,-122.0929221,,7.529356,0.1,289.77368,1596751484446
Fix,GT,37.420338,-122.0929488,,4.976408,0.1,290.00522,1596751485446
Fix,GT,37.4203071,-122.0929647,,2.6075912,0.1,290.0117,1596751486446
Fix,GT,37.4202927,-122.0929727,,1.1724148,0.1,289.84796,1596751487446
Fix,GT,37.4202864,-122.0929773,,0.5484974,0.1,289.6138,1596751488446
Fix,GT,37.420284,-122.0929796,,0.153035,0.1,289.53955,1596751489446
Fix,GT,37.4202841,-122.0929801,,0.027157892,0.1,289.53256,1596751490446
Fix,GT,37.4202843,-122.0929802,,0.027603308,0.1,289.53085,1596751491446
Fix,GT,37.4202842,-122.09298,,0.03116792,0.1,289.528,1596751492446
Fix,GT,37.4202811,-122.0929809,,0.6743859,0.1,289.4655,1596751493446
Fix,GT,37.4202688,-122.0929862,,2.0958042,0.1,289.28452,1596751494446
Fix,GT,37.4202459,-122.0929968,,3.1035051,0.1,289.00623,1596751495446
Fix,GT,37.4202158,-122.0930107,,3.93886,0.1,288.73947,1596751496446
Fix,GT,37.4201768,-122.0930287,,5.232357,0.1,288.61533,1596751497446
Fix,GT,37.4201264,-122.0930522,,6.629119,0.1,288.58017,1596751498446
Fix,GT,37.4200637,-122.0930818,,8.212958,0.1,289.12592,1596751499446
Fix,GT,37.4199896,-122.0931185,,9.1887665,0.1,290.13586,1596751500446
Fix,GT,37.4199139,-122.0931575,,8.6967535,0.1,290.57913,1596751501446
Fix,GT,37.4198467,-122.0931925,,7.4001265,0.1,291.6477,1596751502446
Fix,GT,37.4197937,-122.0932241,,6.2019444,0.1,298.26624,1596751503446
Fix,GT,37.4197574,-122.0932579,,5.583194,0.1,315.4802,1596751504446
Fix,GT,37.4197369,-122.0932986,,5.4805474,0.1,340.09766,1596751505446
Fix,GT,37.419732,-122.0933466,,5.8293085,0.1,5.714752,1596751506446
Fix,GT,37.4197453,-122.0933956,,6.313778,0.1,30.89978,1596751507446
Fix,GT,37.4197777,-122.0934353,,6.7646933,0.1,56.036163,1596751508446
Fix,GT,37.4198277,-122.0934578,,7.498032,0.1,76.768585,1596751509446
Fix,GT,37.4198955,-122.0934649,,8.444605,0.1,86.14407,1596751510446
Fix,GT,37.419978,-122.0934657,,9.044607,0.1,87.677704,1596751511446
Fix,GT,37.4200647,-122.0934655,,9.256823,0.1,87.74573,1596751512446
Fix,GT,37.4201501,-122.0934658,,9.732542,0.1,87.1456,1596751513446
Fix,GT,37.4202408,-122.0934681,,10.2393055,0.1,85.88443,1596751514446
Fix,GT,37.4203329,-122.093473,,10.274208,0.1,84.662415,1596751515446
Fix,GT,37.4204248,-122.0934795,,10.215326,0.1,84.28613,1596751516446
Fix,GT,37.4205174,-122.0934864,,10.109464,0.1,83.81885,1596751517446
Fix,GT,37.4206088,-122.0934943,,10.236893,0.1,83.19742,1596751518446
Fix,GT,37.4207031,-122.0935046,,10.745409,0.1,82.05914,1596751519446
Fix,GT,37.4208019,-122.0935183,,11.053532,0.1,80.46832,1596751520446
Fix,GT,37.4208999,-122.0935353,,10.538945,0.1,79.29462,1596751521446
Fix,GT,37.4209909,-122.0935526,,9.663325,0.1,78.81415,1596751522446
Fix,GT,37.4210724,-122.0935668,,8.870724,0.1,81.920105,1596751523446
Fix,GT,37.4211435,-122.0935707,,7.947049,0.1,91.38342,1596751524446
Fix,GT,37.4212029,-122.0935587,,6.8540554,0.1,106.49243,1596751525446
Fix,GT,37.4212444,-122.0935347,,5.204223,0.1,126.10379,1596751526446
Fix,GT,37.4212668,-122.0935069,,3.987994,0.1,147.16763,1596751527446
Fix,GT,37.4212763,-122.0934738,,4.7439866,0.1,168.48285,1596751528446
Fix,GT,37.4212742,-122.0934175,,7.293072,0.1,186.1738,1596751529446
Fix,GT,37.4212546,-122.0933281,,10.245951,0.1,197.9097,1596751530446
Fix,GT,37.421212,-122.093217,,12.644463,0.1,208.33078,1596751531446
Fix,GT,37.4211437,-122.0930941,,14.793094,0.1,215.81033,1596751532446
Fix,GT,37.4210543,-122.0929583,,16.981358,0.1,218.2202,1596751533446
Fix,GT,37.4209508,-122.0928055,,18.942038,0.1,217.78029,1596751534446
Fix,GT,37.4208384,-122.0926365,,20.341434,0.1,216.8318,1596751535446
Fix,GT,37.4207211,-122.0924572,,21.274446,0.1,216.85376,1596751536446
Fix,GT,37.4205982,-122.0922746,,21.888369,0.1,218.26762,1596751537446
Fix,GT,37.4204664,-122.0920929,,22.232553,0.1,219.48407,1596751538446
Fix,GT,37.4203294,-122.0919139,,22.292492,0.1,219.6812,1596751539446
Fix,GT,37.4201955,-122.0918283,,22.301065,0.1,219.49716,1596751540446
Fix,GT,37.4200539,-122.0916495,,22.56498,0.1,219.49033,1596751541446
Fix,GT,37.4199066,-122.0913253,,22.746517,0.1,219.59833,1596751542446
Fix,GT,37.4197695,-122.0911345,,22.722734,0.1,219.46037,1596751543446
Fix,GT,37.4196327,-122.0909433,,22.773205,0.1,219.49658,1596751544446
Fix,GT,37.4194946,-122.0907513,,23.041,0.1,219.6717,1596751545446
Fix,GT,37.4193531,-122.0905592,,23.407238,0.1,219.72647,1596751546446
Fix,GT,37.4192094,-122.0903655,,23.750553,0.1,219.74391,1596751547446
Fix,GT,37.4190653,-122.0901669,,24.104362,0.1,219.76396,1596751548446
Fix,GT,37.4189188,-122.0899641,,24.49771,0.1,219.72957,1596751549446
Fix,GT,37.4187696,-122.0897577,,24.824432,0.1,219.79808,1596751550446
Fix,GT,37.4186179,-122.08955,,25.054424,0.1,219.99454,1596751551446
Fix,GT,37.4184636,-122.089342,,25.31807,0.1,220.1501,1596751552446
Fix,GT,37.4183063,-122.0891327,,25.708763,0.1,220.30922,1596751553446
Fix,GT,37.4181458,-122.088921,,26.130499,0.1,220.17555,1596751554446
Fix,GT,37.4179838,-122.088705,,26.595066,0.1,219.61694,1596751555446
Fix,GT,37.4178199,-122.0884831,,27.194118,0.1,219.35823,1596751556446
Fix,GT,37.4176526,-122.0882543,,27.949986,0.1,219.38515,1596751557446
Fix,GT,37.4174803,-122.0880182,,28.821182,0.1,219.58798,1596751558446
Fix,GT,37.4173024,-122.087776,,29.543018,0.1,219.704,1596751559446
Fix,GT,37.41712,-122.0875272,,30.359163,0.1,219.72684,1596751560446
Fix,GT,37.4169326,-122.0872702,,31.34058,0.1,219.75427,1596751561446
Fix,GT,37.4167406,-122.087005,,32.00229,0.1,219.82103,1596751562446
Fix,GT,37.4165464,-122.086737,,31.98444,0.1,219.96062,1596751563446
Fix,GT,37.4163522,-122.0864716,,31.65931,0.1,220.09187,1596751564446
Fix,GT,37.4161599,-122.0862088,,31.305319,0.1,219.93579,1596751565446
Fix,GT,37.4159703,-122.085947,,31.063505,0.1,219.75313,1596751566446
Fix,GT,37.4157823,-122.0856853,,31.136612,0.1,219.60744,1596751567446
Fix,GT,37.4155945,-122.0854221,,31.228703,0.1,219.40195,1596751568446
Fix,GT,37.4154075,-122.0851595,,30.984795,0.1,219.44852,1596751569446
Fix,GT,37.4152215,-122.0849014,,30.604885,0.1,219.91942,1596751570446
Fix,GT,37.4150359,-122.0846491,,30.178158,0.1,220.26752,1596751571446
Fix,GT,37.4148522,-122.0844012,,29.757168,0.1,219.98393,1596751572446
Fix,GT,37.4146726,-122.0841553,,29.295496,0.1,219.20898,1596751573446
Fix,GT,37.4144988,-122.0839101,,28.824774,0.1,218.18123,1596751574446
Fix,GT,37.4143315,-122.0836653,,28.352901,0.1,217.00833,1596751575446
Fix,GT,37.4141713,-122.0834205,,27.847103,0.1,215.83063,1596751576446
Fix,GT,37.4140179,-122.0831755,,27.44545,0.1,214.6591,1596751577446
Fix,GT,37.4138703,-122.08293,,27.173023,0.1,213.56978,1596751578446
Fix,GT,37.413727,-122.0826826,,27.16256,0.1,212.6032,1596751579446
Fix,GT,37.4135862,-122.0824296,,27.566784,0.1,211.58125,1596751580446
Fix,GT,37.413447,-122.0821699,,27.847424,0.1,210.805,1596751581446
Fix,GT,37.4133101,-122.0819068,,27.662598,0.1,210.13156,1596751582446
Fix,GT,37.413177,-122.0816437,,27.403078,0.1,209.40396,1596751583446
Fix,GT,37.4130477,-122.08138,,27.210978,0.1,208.43407,1596751584446
Fix,GT,37.4129233,-122.0811136,,27.186962,0.1,206.90994,1596751585446
Fix,GT,37.4128048,-122.0808421,,27.36324,0.1,205.47649,1596751586446
Fix,GT,37.4126895,-122.0805673,,27.501959,0.1,204.91846,1596751587446
Fix,GT,37.4125755,-122.0802927,,27.390968,0.1,204.74377,1596751588446
Fix,GT,37.412463,-122.0800192,,27.028635,0.1,204.69188,1596751589446
Fix,GT,37.412352,-122.0797492,,26.546032,0.1,204.92522,1596751590446
Fix,GT,37.4122418,-122.0794851,,26.165686,0.1,205.14706,1596751591446
Fix,GT,37.4121324,-122.0792253,,25.889576,0.1,205.0043,1596751592446
Fix,GT,37.4120251,-122.078966,,25.84605,0.1,204.58,1596751593446
Fix,GT,37.4119179,-122.0787036,,26.24487,0.1,204.62506,1596751594446
Fix,GT,37.4118081,-122.0784359,,26.737797,0.1,204.76085,1596751595446
Fix,GT,37.4116967,-122.0781641,,27.155704,0.1,204.55363,1596751596446
Fix,GT,37.4115844,-122.0778874,,27.703,0.1,204.32753,1596751597446
Fix,GT,37.4114708,-122.0776053,,28.068695,0.1,204.33339,1596751598446
Fix,GT,37.4113563,-122.0773216,,28.072948,0.1,204.59903,1596751599446
Fix,GT,37.4112415,-122.0770408,,27.690525,0.1,205.07295,1596751600446
Fix,GT,37.4111268,-122.0767666,,27.139303,0.1,205.43062,1596751601446
Fix,GT,37.4110134,-122.0764973,,26.824772,0.1,205.25429,1596751602446
Fix,GT,37.4109008,-122.0762284,,27.06868,0.1,205.4466,1596751603446
Fix,GT,37.4107833,-122.0759561,,27.926525,0.1,206.85016,1596751604446
Fix,GT,37.4106563,-122.0756774,,29.007528,0.1,207.65411,1596751605446
Fix,GT,37.4105229,-122.0753885,,30.214947,0.1,207.49109,1596751606446
Fix,GT,37.4103847,-122.075087,,31.345608,0.1,207.41922,1596751607446
Fix,GT,37.4102424,-122.0747763,,32.035492,0.1,207.463,1596751608446
Fix,GT,37.4100979,-122.0744613,,32.281914,0.1,207.63692,1596751609446
Fix,GT,37.409952,-122.0741446,,32.438446,0.1,207.5577,1596751610446
Fix,GT,37.4098059,-122.0738255,,32.619007,0.1,207.33665,1596751611446
Fix,GT,37.4096602,-122.0735049,,32.64184,0.1,207.39432,1596751612446
Fix,GT,37.409514,-122.073186,,32.463108,0.1,207.65604,1596751613446
Fix,GT,37.4093677,-122.0728715,,32.046722,0.1,207.91656,1596751614446
Fix,GT,37.4092234,-122.0725615,,31.378426,0.1,207.7412,1596751615446
Fix,GT,37.4090832,-122.0722587,,30.617548,0.1,207.55466,1596751616446
Fix,GT,37.4089466,-122.0719652,,29.84056,0.1,207.97003,1596751617446
Fix,GT,37.4088094,-122.0716813,,29.271254,0.1,209.5548,1596751618446
Fix,GT,37.4086647,-122.0714094,,29.069405,0.1,213.57028,1596751619446
Fix,GT,37.4085041,-122.0711548,,28.989622,0.1,219.29747,1596751620446
Fix,GT,37.4083237,-122.0709238,,28.918425,0.1,225.4422,1596751621446
Fix,GT,37.4081255,-122.0707177,,28.794233,0.1,231.07846,1596751622446
Fix,GT,37.4079137,-122.0705366,,28.546352,0.1,236.16194,1596751623446
Fix,GT,37.4076921,-122.0703816,,28.441236,0.1,241.51022,1596751624446
Fix,GT,37.4074588,-122.0702546,,28.701157,0.1,247.34299,1596751625446
Fix,GT,37.4072137,-122.0701569,,29.025555,0.1,253.30939,1596751626446
Fix,GT,37.406958,-122.0700892,,29.522408,0.1,258.64548,1596751627446
Fix,GT,37.406693,-122.0700495,,30.227715,0.1,263.1874,1596751628446
Fix,GT,37.4064187,-122.0700314,,31.138824,0.1,265.88757,1596751629446
Fix,GT,37.4061331,-122.0700232,,32.32427,0.1,266.3823,1596751630446
Fix,GT,37.4058372,-122.0700149,,33.217117,0.1,266.31366,1596751631446
Fix,GT,37.4055365,-122.070007,,33.519054,0.1,266.50323,1596751632446
Fix,GT,37.4052338,-122.0699999,,33.610737,0.1,266.73892,1596751633446
Fix,GT,37.4049326,-122.0699981,,33.596233,0.1,267.28824,1596751634446
Fix,GT,37.4046326,-122.0700021,,33.58398,0.1,267.8611,1596751635446
Fix,GT,37.4043297,-122.0700054,,33.688477,0.1,267.9986,1596751636446
Fix,GT,37.4040255,-122.0700086,,33.79841,0.1,267.812,1596751637446
Fix,GT,37.403721,-122.0700105,,33.801857,0.1,267.6709,1596751638446
Fix,GT,37.4034166,-122.0700118,,33.82887,0.1,267.56885,1596751639446
Fix,GT,37.4031118,-122.0700136,,33.90757,0.1,267.6578,1596751640446
Fix,GT,37.4028063,-122.0700166,,33.97533,0.1,267.8058,1596751641446
Fix,GT,37.4025,-122.0700201,,34.082092,0.1,267.8111,1596751642446
Fix,GT,37.4021922,-122.0700233,,34.306255,0.1,267.73624,1596751643446
Fix,GT,37.4018819,-122.0700261,,34.66334,0.1,267.69757,1596751644446
Fix,GT,37.4015677,-122.0700285,,35.089302,0.1,267.61423,1596751645446
Fix,GT,37.40125,-122.0700294,,35.404495,0.1,267.2165,1596751646446
Fix,GT,37.4009294,-122.0700253,,35.644623,0.1,266.0409,1596751647446
Fix,GT,37.4006065,-122.0700107,,35.88712,0.1,264.02615,1596751648446
Fix,GT,37.4002825,-122.0699797,,36.067543,0.1,261.3555,1596751649446
Fix,GT,37.399959,-122.0699281,,36.140663,0.1,258.4937,1596751650446
Fix,GT,37.3996377,-122.0698584,,36.149788,0.1,256.51666,1596751651446
Fix,GT,37.399318,-122.0697787,,36.20655,0.1,255.66418,1596751652446
Fix,GT,37.3989981,-122.0696949,,36.336216,0.1,255.3807,1596751653446
Fix,GT,37.3986774,-122.0696087,,36.46704,0.1,255.08575,1596751654446
Fix,GT,37.3983562,-122.0695201,,36.540882,0.1,254.89185,1596751655446
Fix,GT,37.3980346,-122.0694311,,36.56959,0.1,255.09459,1596751656446
Fix,GT,37.3977123,-122.0693429,,36.48456,0.1,255.29738,1596751657446
Fix,GT,37.3973908,-122.0692562,,36.266663,0.1,255.37296,1596751658446
Fix,GT,37.3970708,-122.0691707,,36.045246,0.1,255.35431,1596751659446
Fix,GT,37.3967529,-122.0690858,,35.755955,0.1,255.34663,1596751660446
Fix,GT,37.3964381,-122.0690021,,35.40185,0.1,255.51526,1596751661446
Fix,GT,37.3961264,-122.0689209,,35.109734,0.1,255.91565,1596751662446
Fix,GT,37.3958164,-122.0688445,,35.031174,0.1,256.93732,1596751663446
Fix,GT,37.3955054,-122.0687758,,35.08284,0.1,258.27917,1596751664446
Fix,GT,37.3951922,-122.0687158,,35.03726,0.1,259.27295,1596751665446
Fix,GT,37.3948791,-122.0686622,,34.93435,0.1,260.28128,1596751666446
Fix,GT,37.3945668,-122.0686164,,34.72081,0.1,261.71423,1596751667446
Fix,GT,37.3942559,-122.0685819,,34.29824,0.1,263.59183,1596751668446
Fix,GT,37.3939491,-122.0685597,,33.885815,0.1,265.2841,1596751669446
Fix,GT,37.3936485,-122.0685483,,33.488056,0.1,266.85654,1596751670446
Fix,GT,37.3933501,-122.0685478,,32.911304,0.1,268.31433,1596751671446
Fix,GT,37.3930617,-122.0685605,,32.1532,0.1,269.63614,1596751672446
Fix,GT,37.3927836,-122.0685813,,31.344425,0.1,270.78943,1596751673446
Fix,GT,37.3925051,-122.0686034,,30.66816,0.1,271.49475,1596751674446
Fix,GT,37.3922324,-122.0686284,,30.077366,0.1,271.87775,1596751675446
Fix,GT,37.3919635,-122.0686553,,29.569092,0.1,272.06912,1596751676446
Fix,GT,37.3916985,-122.068683,,29.108967,0.1,272.0486,1596751677446
Fix,GT,37.3914371,-122.068713,,28.655447,0.1,271.97232,1596751678446
Fix,GT,37.3911802,-122.0687425,,28.14521,0.1,271.82455,1596751679446
Fix,GT,37.3909304,-122.0687663,,27.756653,0.1,271.70877,1596751680446
Fix,GT,37.3906826,-122.0687892,,27.590967,0.1,271.71396,1596751681446
Fix,GT,37.3904353,-122.0688123,,27.53621,0.1,271.78873,1596751682446
Fix,GT,37.3901881,-122.0688356,,27.523012,0.1,271.67276,1596751683446
Fix,GT,37.3899407,-122.0688579,,27.448399,0.1,271.4498,1596751684446
Fix,GT,37.3896937,-122.0688798,,27.411226,0.1,271.45236,1596751685446
Fix,GT,37.3894466,-122.068902,,27.362675,0.1,271.5263,1596751686446
Fix,GT,37.3891996,-122.0689248,,27.296947,0.1,271.50375,1596751687446
Fix,GT,37.3889524,-122.0689462,,27.282879,0.1,270.66486,1596751688446
Fix,GT,37.3887046,-122.0689608,,27.439987,0.1,268.91513,1596751689446
Fix,GT,37.3884552,-122.0689642,,27.872578,0.1,266.94974,1596751690446
Fix,GT,37.3882018,-122.0689552,,28.584204,0.1,265.05692,1596751691446
Fix,GT,37.3879428,-122.0689348,,29.208588,0.1,263.5241,1596751692446
Fix,GT,37.3876806,-122.0689062,,29.566357,0.1,262.516,1596751693446
Fix,GT,37.3874169,-122.068872,,29.863548,0.1,262.012,1596751694446
Fix,GT,37.3871509,-122.0688356,,30.14087,0.1,262.0897,1596751695446
Fix,GT,37.3868813,-122.0688012,,30.396301,0.1,262.49536,1596751696446
Fix,GT,37.3866089,-122.0687698,,30.473022,0.1,262.704,1596751697446
Fix,GT,37.386336,-122.0687394,,30.394997,0.1,262.6058,1596751698446
Fix,GT,37.3860646,-122.0687086,,30.14368,0.1,262.48975,1596751699446
Fix,GT,37.3857951,-122.0686779,,30.026161,0.1,262.33838,1596751700446
Fix,GT,37.3855256,-122.0686464,,30.07808,0.1,262.2388,1596751701446
Fix,GT,37.3852572,-122.0686157,,29.735594,0.1,262.5525,1596751702446
Fix,GT,37.3849933,-122.0685875,,29.087597,0.1,262.6286,1596751703446
Fix,GT,37.3847344,-122.0685588,,28.698032,0.1,262.18408,1596751704446
Fix,GT,37.3844764,-122.0685272,,28.911789,0.1,261.8358,1596751705446
Fix,GT,37.3842163,-122.0684947,,29.176548,0.1,262.03732,1596751706446
Fix,GT,37.3839564,-122.0684641,,28.909275,0.1,262.5228,1596751707446
Fix,GT,37.3836991,-122.0684362,,28.610521,0.1,262.63544,1596751708446
Fix,GT,37.3834441,-122.0684087,,28.346022,0.1,262.5641,1596751709446
Fix,GT,37.3831915,-122.0683787,,28.07349,0.1,262.54553,1596751710446
Fix,GT,37.3829412,-122.0683481,,27.806671,0.1,262.54993,1596751711446
Fix,GT,37.3826922,-122.06832,,27.667599,0.1,262.50662,1596751712446
Fix,GT,37.3824438,-122.0682918,,27.705116,0.1,262.45844,1596751713446
Fix,GT,37.3821949,-122.0682622,,27.850887,0.1,262.30573,1596751714446
Fix,GT,37.381944,-122.0682335,,27.90911,0.1,262.19067,1596751715446
Fix,GT,37.3816932,-122.0682075,,27.738802,0.1,262.20975,1596751716446
Fix,GT,37.381445,-122.068181,,27.500996,0.1,262.31555,1596751717446
Fix,GT,37.3811989,-122.0681542,,27.34953,0.1,262.41315,1596751718446
Fix,GT,37.3809529,-122.0681268,,27.566101,0.1,262.4391,1596751719446
Fix,GT,37.380704,-122.068098,,28.096489,0.1,262.44818,1596751720446
Fix,GT,37.3804523,-122.0680697,,28.310928,0.1,262.6624,1596751721446
Fix,GT,37.3801998,-122.068043,,28.123253,0.1,262.7481,1596751722446
Fix,GT,37.379948,-122.0680167,,27.836119,0.1,262.52542,1596751723446
Fix,GT,37.3796988,-122.0679901,,27.390139,0.1,262.448,1596751724446
Fix,GT,37.3794548,-122.0679638,,26.685486,0.1,262.3801,1596751725446
Fix,GT,37.3792187,-122.0679373,,25.876602,0.1,262.15393,1596751726446
Fix,GT,37.3789882,-122.0679107,,25.363102,0.1,262.0487,1596751727446
Fix,GT,37.3787615,-122.0678853,,25.34216,0.1,262.27042,1596751728446
Fix,GT,37.3785337,-122.0678608,,25.972118,0.1,262.75494,1596751729446
Fix,GT,37.3782956,-122.0678388,,27.153605,0.1,263.69592,1596751730446
Fix,GT,37.3780475,-122.0678226,,28.254864,0.1,265.33664,1596751731446
Fix,GT,37.3777913,-122.0678154,,28.901405,0.1,267.18924,1596751732446
Fix,GT,37.3775275,-122.067819,,29.372154,0.1,268.92548,1596751733446
Fix,GT,37.3772604,-122.0678334,,29.690002,0.1,270.6805,1596751734446
Fix,GT,37.3769942,-122.0678569,,29.920956,0.1,272.17346,1596751735446
Fix,GT,37.3767258,-122.067888,,30.127106,0.1,273.10638,1596751736446
Fix,GT,37.376456,-122.0679227,,30.117752,0.1,273.19894,1596751737446
Fix,GT,37.3761881,-122.0679569,,29.83406,0.1,273.08408,1596751738446
Fix,GT,37.3759239,-122.0679909,,29.525003,0.1,273.36157,1596751739446
Fix,GT,37.3756614,-122.0680256,,29.366722,0.1,273.26544,1596751740446
Fix,GT,37.3753993,-122.0680567,,29.316917,0.1,272.0536,1596751741446
Fix,GT,37.3751363,-122.0680778,,29.326424,0.1,269.64838,1596751742446
Fix,GT,37.3748728,-122.0680832,,29.14456,0.1,266.69348,1596751743446
Fix,GT,37.3746118,-122.0680723,,28.750696,0.1,264.07,1596751744446
Fix,GT,37.374355,-122.0680473,,28.253761,0.1,261.53607,1596751745446
Fix,GT,37.3741039,-122.0680087,,27.720219,0.1,258.96674,1596751746446
Fix,GT,37.373859,-122.0679568,,27.133465,0.1,256.3285,1596751747446
Fix,GT,37.3736214,-122.0678929,,26.579105,0.1,253.82779,1596751748446
Fix,GT,37.3733909,-122.0678182,,26.109715,0.1,251.56348,1596751749446
Fix,GT,37.3731663,-122.067733,,25.770767,0.1,249.07265,1596751750446
Fix,GT,37.3729478,-122.067636,,25.4261,0.1,246.2937,1596751751446
Fix,GT,37.3727364,-122.067528,,25.083235,0.1,244.1055,1596751752446
Fix,GT,37.37253,-122.0674136,,24.87911,0.1,242.9415,1596751753446
Fix,GT,37.3723254,-122.0672954,,24.99865,0.1,242.22551,1596751754446
Fix,GT,37.372119,-122.0671728,,25.571722,0.1,241.6224,1596751755446
Fix,GT,37.3719087,-122.0670455,,26.133585,0.1,241.47739,1596751756446
Fix,GT,37.371695,-122.0669163,,26.411976,0.1,241.71725,1596751757446
Fix,GT,37.37148,-122.0667874,,26.33441,0.1,241.76663,1596751758446
Fix,GT,37.3712675,-122.0666595,,25.882332,0.1,241.59096,1596751759446
Fix,GT,37.3710593,-122.0665332,,25.44579,0.1,241.48567,1596751760446
Fix,GT,37.3708543,-122.0664085,,25.094389,0.1,241.49374,1596751761446
Fix,GT,37.3706539,-122.0662855,,24.731556,0.1,241.56332,1596751762446
Fix,GT,37.370449,-122.0661654,,24.27386,0.1,241.67853,1596751763446
Fix,GT,37.3702446,-122.0660485,,23.668169,0.1,241.70628,1596751764446
Fix,GT,37.3700551,-122.0659334,,23.15653,0.1,241.75754,1596751765446
Fix,GT,37.3698683,-122.0658204,,22.978598,0.1,241.77707,1596751766446
Fix,GT,37.3696813,-122.0657069,,23.242144,0.1,241.62134,1596751767446
Fix,GT,37.3694911,-122.0655906,,23.742022,0.1,241.46259,1596751768446
Fix,GT,37.3692974,-122.0654718,,24.113693,0.1,241.4673,1596751769446
Fix,GT,37.369101,-122.0653513,,24.395111,0.1,241.43399,1596751770446
Fix,GT,37.3689032,-122.0652297,,24.48302,0.1,241.5274,1596751771446
Fix,GT,37.3687051,-122.0651092,,24.406193,0.1,241.79074,1596751772446
Fix,GT,37.3685074,-122.06499,,24.33279,0.1,241.86534,1596751773446
Fix,GT,37.3683097,-122.0648707,,24.388256,0.1,241.7787,1596751774446
Fix,GT,37.3681117,-122.0647501,,24.49886,0.1,241.62746,1596751775446
Fix,GT,37.3679132,-122.0646293,,24.45357,0.1,241.66824,1596751776446
Fix,GT,37.3677154,-122.0645099,,24.2359,0.1,241.86603,1596751777446
Fix,GT,37.3675195,-122.0643921,,24.04914,0.1,241.98663,1596751778446
Fix,GT,37.3673248,-122.0642754,,23.82594,0.1,241.93701,1596751779446
Fix,GT,37.3671327,-122.0641594,,23.465233,0.1,241.6819,1596751780446
Fix,GT,37.3669441,-122.0640442,,23.102833,0.1,241.49843,1596751781446
Fix,GT,37.3667585,-122.0639304,,22.78814,0.1,241.5904,1596751782446
Fix,GT,37.3665743,-122.0638196,,22.726501,0.1,242.64589,1596751783446
Fix,GT,37.3663869,-122.0637146,,23.095945,0.1,244.7543,1596751784446
Fix,GT,37.3661925,-122.063615,,23.697483,0.1,246.57256,1596751785446
Fix,GT,37.3659906,-122.0635186,,24.342419,0.1,248.06027,1596751786446
Fix,GT,37.3657818,-122.0634257,,24.938156,0.1,249.9973,1596751787446
Fix,GT,37.365566,-122.0633373,,25.438112,0.1,252.0947,1596751788446
Fix,GT,37.3653439,-122.0632567,,25.873388,0.1,254.24298,1596751789446
Fix,GT,37.3651168,-122.06319,,26.009071,0.1,256.2358,1596751790446
Fix,GT,37.3648882,-122.0631412,,25.738232,0.1,258.12338,1596751791446
Fix,GT,37.3646611,-122.0631049,,25.352104,0.1,259.79163,1596751792446
Fix,GT,37.364436,-122.0630751,,25.059505,0.1,261.55344,1596751793446
Fix,GT,37.3642118,-122.063051,,25.00872,0.1,263.52216,1596751794446
Fix,GT,37.3639865,-122.063042,,25.00055,0.1,265.60333,1596751795446
Fix,GT,37.3637616,-122.0630463,,24.821835,0.1,267.45828,1596751796446
Fix,GT,37.3635393,-122.0630488,,24.62791,0.1,268.46857,1596751797446
Fix,GT,37.3633182,-122.0630544,,24.483013,0.1,268.78085,1596751798446
Fix,GT,37.3630998,-122.0630593,,24.250982,0.1,268.68756,1596751799446
Fix,GT,37.3628828,-122.0630633,,24.203987,0.1,268.2384,1596751800446
Fix,GT,37.3626653,-122.0630669,,24.561651,0.1,267.87958,1596751801446
Fix,GT,37.3624446,-122.0630704,,24.979387,0.1,268.06577,1596751802446
Fix,GT,37.3622173,-122.0630766,,25.217222,0.1,268.31705,1596751803446
Fix,GT,37.3619881,-122.0630833,,25.394505,0.1,268.41388,1596751804446
Fix,GT,37.3617571,-122.0630896,,25.690048,0.1,268.338,1596751805446
Fix,GT,37.3615231,-122.0630948,,26.050648,0.1,268.2603,1596751806446
Fix,GT,37.3612864,-122.0630991,,26.291904,0.1,268.25732,1596751807446
Fix,GT,37.3610492,-122.0631033,,26.165112,0.1,268.19235,1596751808446
Fix,GT,37.3608146,-122.0631078,,25.762985,0.1,268.25226,1596751809446
Fix,GT,37.3605841,-122.0631139,,25.380243,0.1,268.42715,1596751810446
Fix,GT,37.3603567,-122.0631209,,25.072744,0.1,268.35696,1596751811446
Fix,GT,37.3601318,-122.063127,,24.90112,0.1,268.18713,1596751812446
Fix,GT,37.3599076,-122.0631317,,24.980145,0.1,268.0076,1596751813446
Fix,GT,37.3596818,-122.0631346,,25.216034,0.1,267.7194,1596751814446
Fix,GT,37.3594536,-122.0631342,,25.432398,0.1,266.84628,1596751815446
Fix,GT,37.3592238,-122.0631273,,25.588558,0.1,265.52103,1596751816446
Fix,GT,37.3589932,-122.0631134,,25.615421,0.1,264.60324,1596751817446
Fix,GT,37.3587632,-122.0630957,,25.447567,0.1,263.84787,1596751818446
Fix,GT,37.3585356,-122.063074,,25.126026,0.1,262.73285,1596751819446
Fix,GT,37.3583113,-122.0630473,,24.876617,0.1,261.6284,1596751820446
Fix,GT,37.3580888,-122.0630166,,24.79203,0.1,260.70285,1596751821446
Fix,GT,37.3578668,-122.0629815,,24.812195,0.1,259.7584,1596751822446
Fix,GT,37.3576451,-122.0629424,,24.837208,0.1,258.93393,1596751823446
Fix,GT,37.3574242,-122.0628995,,24.682018,0.1,258.09647,1596751824446
Fix,GT,37.3572055,-122.0628533,,24.513145,0.1,257.2176,1596751825446
Fix,GT,37.356988,-122.0628037,,24.51968,0.1,256.39166,1596751826446
Fix,GT,37.3567709,-122.0627496,,24.556538,0.1,255.29031,1596751827446
Fix,GT,37.3565542,-122.0626896,,24.661858,0.1,254.12712,1596751828446
Fix,GT,37.356337,-122.0626242,,24.873959,0.1,253.24696,1596751829446
Fix,GT,37.356119,-122.0625541,,25.053356,0.1,252.45468,1596751830446
Fix,GT,37.3559,-122.0624792,,25.273304,0.1,251.49417,1596751831446
Fix,GT,37.35568,-122.0623987,,25.530413,0.1,250.45401,1596751832446
Fix,GT,37.3554594,-122.0623127,,25.643206,0.1,249.50247,1596751833446
Fix,GT,37.3552403,-122.0622229,,25.374735,0.1,248.65237,1596751834446
Fix,GT,37.3550261,-122.0621307,,24.847143,0.1,247.97662,1596751835446
Fix,GT,37.3548172,-122.0620377,,24.282948,0.1,247.431,1596751836446
Fix,GT,37.3546133,-122.0619441,,23.900057,0.1,246.87225,1596751837446
Fix,GT,37.3544122,-122.0618488,,23.773361,0.1,246.12503,1596751838446
Fix,GT,37.3542132,-122.0617502,,23.68865,0.1,245.4562,1596751839446
Fix,GT,37.3540155,-122.0616497,,23.666971,0.1,245.25055,1596751840446
Fix,GT,37.3538178,-122.0615499,,23.666914,0.1,245.43222,1596751841446
Fix,GT,37.3536199,-122.0614504,,23.676783,0.1,245.42697,1596751842446
Fix,GT,37.3534216,-122.0613504,,23.796183,0.1,245.37518,1596751843446
Fix,GT,37.3532218,-122.0612501,,24.068314,0.1,245.93716,1596751844446
Fix,GT,37.3530184,-122.061151,,24.429409,0.1,246.55014,1596751845446
Fix,GT,37.3528115,-122.0610534,,24.710072,0.1,247.33368,1596751846446
Fix,GT,37.352602,-122.0609595,,24.758638,0.1,248.54897,1596751847446
Fix,GT,37.3523916,-122.0608717,,24.51543,0.1,249.83441,1596751848446
Fix,GT,37.3521826,-122.0607901,,24.220348,0.1,250.84857,1596751849446
Fix,GT,37.3519737,-122.0607133,,24.22759,0.1,251.69429,1596751850446
Fix,GT,37.3517618,-122.06064,,24.678936,0.1,252.59525,1596751851446
Fix,GT,37.3515445,-122.0605697,,25.155645,0.1,253.7325,1596751852446
Fix,GT,37.3513236,-122.0605032,,25.302475,0.1,254.50455,1596751853446
Fix,GT,37.3511016,-122.06044,,25.18388,0.1,255.14899,1596751854446
Fix,GT,37.3508803,-122.0603809,,25.037601,0.1,255.94182,1596751855446
Fix,GT,37.3506594,-122.0603265,,25.046734,0.1,257.07504,1596751856446
Fix,GT,37.3504358,-122.0602776,,25.408062,0.1,258.31805,1596751857446
Fix,GT,37.3502074,-122.0602333,,25.90068,0.1,259.237,1596751858446
Fix,GT,37.3499755,-122.0601933,,26.035381,0.1,260.30975,1596751859446
Fix,GT,37.3497439,-122.0601591,,25.692566,0.1,261.354,1596751860446
Fix,GT,37.3495165,-122.06013,,24.998348,0.1,262.1518,1596751861446
Fix,GT,37.3492968,-122.0601059,,23.995003,0.1,263.0218,1596751862446
Fix,GT,37.3490857,-122.0600871,,23.074057,0.1,264.00146,1596751863446
Fix,GT,37.3488807,-122.0600726,,22.578651,0.1,265.0526,1596751864446
Fix,GT,37.3486793,-122.0600631,,22.255959,0.1,266.05865,1596751865446
Fix,GT,37.3484795,-122.0600585,,22.1643,0.1,266.87408,1596751866446
Fix,GT,37.3482801,-122.0600567,,22.1274,0.1,267.42633,1596751867446
Fix,GT,37.3480808,-122.0600568,,22.263382,0.1,267.55817,1596751868446
Fix,GT,37.3478774,-122.0600565,,22.973213,0.1,267.2036,1596751869446
Fix,GT,37.3476662,-122.0600549,,23.909111,0.1,267.03217,1596751870446
Fix,GT,37.3474479,-122.0600535,,24.53862,0.1,267.26495,1596751871446
Fix,GT,37.3472258,-122.0600533,,24.77596,0.1,267.48166,1596751872446
Fix,GT,37.3470028,-122.060054,,24.708422,0.1,267.58777,1596751873446
Fix,GT,37.3467813,-122.0600552,,24.511066,0.1,267.60593,1596751874446
Fix,GT,37.3465606,-122.0600562,,24.553783,0.1,267.50525,1596751875446
Fix,GT,37.3463385,-122.0600566,,24.78115,0.1,267.3647,1596751876446
Fix,GT,37.346114,-122.0600562,,25.046627,0.1,267.22253,1596751877446
Fix,GT,37.3458875,-122.0600551,,25.176025,0.1,267.1575,1596751878446
Fix,GT,37.3456612,-122.0600538,,25.026749,0.1,267.28107,1596751879446
Fix,GT,37.3454364,-122.0600534,,24.910252,0.1,267.5796,1596751880446
Fix,GT,37.3452117,-122.0600544,,25.037506,0.1,267.80655,1596751881446
Fix,GT,37.3449859,-122.0600562,,25.049305,0.1,267.8871,1596751882446
Fix,GT,37.3447612,-122.0600575,,24.801197,0.1,267.6968,1596751883446
Fix,GT,37.3445388,-122.0600567,,24.541107,0.1,267.14056,1596751884446
Fix,GT,37.3443182,-122.0600534,,24.41892,0.1,266.71884,1596751885446
Fix,GT,37.3440983,-122.0600492,,24.450523,0.1,266.7478,1596751886446
Fix,GT,37.343877,-122.0600452,,24.73239,0.1,266.92267,1596751887446
Fix,GT,37.3436524,-122.0600415,,25.15229,0.1,266.9687,1596751888446
Fix,GT,37.3434241,-122.0600389,,25.510704,0.1,266.76898,1596751889446
Fix,GT,37.3431927,-122.0600375,,25.885975,0.1,266.51224,1596751890446
Fix,GT,37.3429571,-122.0600341,,26.464893,0.1,266.50543,1596751891446
Fix,GT,37.3427157,-122.060029,,27.175491,0.1,266.7937,1596751892446
Fix,GT,37.342468,-122.0600273,,27.906586,0.1,267.73953,1596751893446
Fix,GT,37.3422174,-122.0600318,,28.646528,0.1,269.02823,1596751894446
Fix,GT,37.3419582,-122.0600418,,29.38262,0.1,269.1823,1596751895446
Fix,GT,37.3416869,-122.0600512,,29.988464,0.1,268.5185,1596751896446
Fix,GT,37.3414142,-122.0600566,,30.357574,0.1,268.02402,1596751897446
Fix,GT,37.3411401,-122.06006,,30.409061,0.1,268.00604,1596751898446
Fix,GT,37.3408672,-122.0600633,,30.16321,0.1,267.98773,1596751899446
Fix,GT,37.3405966,-122.0600668,,29.895145,0.1,268.0575,1596751900446
Fix,GT,37.3403276,-122.0600707,,29.771997,0.1,267.94647,1596751901446
Fix,GT,37.3400584,-122.0600728,,29.837427,0.1,267.35083,1596751902446
Fix,GT,37.3397881,-122.0600711,,30.063427,0.1,266.7616,1596751903446
Fix,GT,37.3395155,-122.0600668,,30.402908,0.1,266.73776,1596751904446
Fix,GT,37.3392396,-122.0600611,,30.88661,0.1,266.74997,1596751905446
Fix,GT,37.3389588,-122.0600533,,31.47302,0.1,266.24057,1596751906446
Fix,GT,37.3386725,-122.0600403,,31.9986,0.1,265.14737,1596751907446
Fix,GT,37.3383823,-122.0600183,,32.371925,0.1,263.25546,1596751908446
Fix,GT,37.33809,-122.0599828,,32.61099,0.1,260.6453,1596751909446
Fix,GT,37.3377972,-122.0599324,,32.771683,0.1,258.0312,1596751910446
Fix,GT,37.3375055,-122.0598671,,32.899105,0.1,256.04865,1596751911446
Fix,GT,37.3372154,-122.0597897,,32.858948,0.1,254.63026,1596751912446
Fix,GT,37.3369282,-122.0597056,,32.63729,0.1,253.80753,1596751913446
Fix,GT,37.3366442,-122.0596189,,32.254524,0.1,253.46977,1596751914446
Fix,GT,37.336364,-122.0595341,,31.757912,0.1,253.85751,1596751915446
Fix,GT,37.336088,-122.0594549,,31.259144,0.1,254.9292,1596751916446
Fix,GT,37.3358153,-122.0593827,,30.723177,0.1,255.9262,1596751917446
Fix,GT,37.3355469,-122.0593156,,29.988934,0.1,256.49338,1596751918446
Fix,GT,37.3352853,-122.0592535,,29.11454,0.1,257.35248,1596751919446
Fix,GT,37.3350319,-122.0591987,,28.183601,0.1,258.07788,1596751920446
Fix,GT,37.3347892,-122.0591498,,26.7503,0.1,258.1372,1596751921446
Fix,GT,37.3345633,-122.0591053,,24.675661,0.1,258.0464,1596751922446
Fix,GT,37.3343577,-122.0590649,,22.325733,0.1,257.9522,1596751923446
Fix,GT,37.3341699,-122.0590288,,20.264465,0.1,258.18115,1596751924446
Fix,GT,37.3339954,-122.0589988,,19.130615,0.1,260.64703,1596751925446
Fix,GT,37.3338252,-122.0589828,,18.750885,0.1,266.81555,1596751926446
Fix,GT,37.3336639,-122.0589829,,18.5601,0.1,276.39343,1596751927446
Fix,GT,37.333514,-122.0590172,,18.366146,0.1,288.09106,1596751928446
Fix,GT,37.333371,-122.0591028,,18.210873,0.1,300.34637,1596751929446
Fix,GT,37.3332471,-122.0592238,,18.067581,0.1,312.69775,1596751930446
Fix,GT,37.3331469,-122.0593737,,17.92234,0.1,324.30917,1596751931446
Fix,GT,37.3330719,-122.0595447,,17.768993,0.1,334.3106,1596751932446
Fix,GT,37.3330188,-122.0597297,,17.84736,0.1,341.30182,1596751933446
Fix,GT,37.3329797,-122.059925,,18.312645,0.1,345.90283,1596751934446
Fix,GT,37.3329532,-122.0601284,,18.62519,0.1,350.81033,1596751935446
Fix,GT,37.3329411,-122.0603346,,18.463715,0.1,356.00494,1596751936446
Fix,GT,37.3329427,-122.0605388,,18.122389,0.1,0.14892578,1596751937446
Fix,GT,37.3329555,-122.0607385,,17.833492,0.1,4.029114,1596751938446
Fix,GT,37.3329792,-122.060935,,17.937458,0.1,8.319092,1596751939446
Fix,GT,37.333017,-122.0611344,,19.001432,0.1,12.89151,1596751940446
Fix,GT,37.3330705,-122.061347,,20.94173,0.1,16.15158,1596751941446
Fix,GT,37.3331367,-122.0615784,,22.67886,0.1,17.888702,1596751942446
Fix,GT,37.333211,-122.0618249,,23.46321,0.1,19.147003,1596751943446
Fix,GT,37.3332891,-122.0620747,,23.446758,0.1,19.698212,1596751944446
Fix,GT,37.3333677,-122.0623225,,23.173103,0.1,18.925354,1596751945446
Fix,GT,37.3334422,-122.0625687,,22.968971,0.1,17.515472,1596751946446
Fix,GT,37.3335129,-122.062813,,23.577759,0.1,17.169525,1596751947446
Fix,GT,37.3335888,-122.063068,,25.255863,0.1,18.464691,1596751948446
Fix,GT,37.3336763,-122.0633399,,27.37754,0.1,20.043945,1596751949446
Fix,GT,37.3337749,-122.0636307,,29.227486,0.1,20.597198,1596751950446
Fix,GT,37.3338815,-122.0639393,,30.6402,0.1,20.369629,1596751951446
Fix,GT,37.3339896,-122.0642646,,31.884602,0.1,19.296509,1596751952446
Fix,GT,37.3340945,-122.0646064,,32.921005,0.1,17.310211,1596751953446
Fix,GT,37.3341917,-122.0649626,,33.705627,0.1,14.997833,1596751954446
Fix,GT,37.3342785,-122.0653303,,34.180786,0.1,12.666901,1596751955446
Fix,GT,37.3343538,-122.0657055,,34.314075,0.1,10.386047,1596751956446
Fix,GT,37.3344175,-122.0660849,,34.37521,0.1,8.167664,1596751957446
Fix,GT,37.3344694,-122.0664693,,34.606922,0.1,5.8393555,1596751958446
Fix,GT,37.3345084,-122.0668586,,34.81349,0.1,3.5752258,1596751959446
Fix,GT,37.3345352,-122.0672504,,34.669025,0.1,1.3874817,1596751960446
Fix,GT,37.3345511,-122.0676396,,34.127655,0.1,359.09357,1596751961446
Fix,GT,37.3345555,-122.0680221,,33.45778,0.1,356.86267,1596751962446
Fix,GT,37.3345489,-122.0683969,,32.789463,0.1,354.56433,1596751963446
Fix,GT,37.3345304,-122.0687645,,32.39249,0.1,352.2416,1596751964446
Fix,GT,37.3345007,-122.069128,,32.307312,0.1,350.21414,1596751965446
Fix,GT,37.3344604,-122.0694886,,32.073524,0.1,348.0699,1596751966446
Fix,GT,37.3344107,-122.0698429,,31.640694,0.1,346.4017,1596751967446
Fix,GT,37.334355,-122.0701908,,31.255785,0.1,345.4558,1596751968446
Fix,GT,37.3342957,-122.0705344,,31.059235,0.1,344.627,1596751969446
Fix,GT,37.3342324,-122.0708774,,31.356651,0.1,344.1511,1596751970446
Fix,GT,37.3341651,-122.0712268,,32.251514,0.1,343.94144,1596751971446
Fix,GT,37.3340932,-122.0715866,,33.19876,0.1,343.85968,1596751972446
Fix,GT,37.3340201,-122.0719552,,33.752686,0.1,343.95282,1596751973446
Fix,GT,37.3339502,-122.0723286,,34.14777,0.1,344.13034,1596751974446
Fix,GT,37.3338812,-122.0727055,,34.521492,0.1,344.51672,1596751975446
Fix,GT,37.3338134,-122.0730858,,34.58483,0.1,345.70248,1596751976446
Fix,GT,37.3337547,-122.0734666,,34.33779,0.1,348.0131,1596751977446
Fix,GT,37.3337098,-122.0738469,,34.079338,0.1,350.48636,1596751978446
Fix,GT,37.3336777,-122.074227,,33.890766,0.1,352.73,1596751979446
Fix,GT,37.3336582,-122.0746064,,33.779892,0.1,355.42795,1596751980446
Fix,GT,37.3336538,-122.0749856,,33.766506,0.1,358.4367,1596751981446
Fix,GT,37.3336648,-122.075365,,33.786118,0.1,1.0975952,1596751982446
Fix,GT,37.3336895,-122.0757437,,33.834812,0.1,3.6427307,1596751983446
Fix,GT,37.3337278,-122.0761216,,33.930035,0.1,6.286957,1596751984446
Fix,GT,37.3337803,-122.0764974,,33.91541,0.1,9.040558,1596751985446
Fix,GT,37.3338468,-122.0768681,,33.70439,0.1,11.830688,1596751986446
Fix,GT,37.3339273,-122.0772323,,33.652184,0.1,14.508484,1596751987446
Fix,GT,37.3340222,-122.0775929,,33.94621,0.1,17.340485,1596751988446
Fix,GT,37.3341317,-122.0779512,,34.407967,0.1,20.094757,1596751989446
Fix,GT,37.3342562,-122.0783075,,34.893524,0.1,22.8779,1596751990446
Fix,GT,37.3343962,-122.0786609,,35.303257,0.1,25.592438,1596751991446
Fix,GT,37.3345508,-122.0790095,,35.636276,0.1,28.150146,1596751992446
Fix,GT,37.3347199,-122.0793513,,35.948425,0.1,31.105408,1596751993446
Fix,GT,37.3349052,-122.0796839,,36.271088,0.1,34.349365,1596751994446
Fix,GT,37.3351068,-122.0800071,,36.618057,0.1,37.194824,1596751995446
Fix,GT,37.3353224,-122.0803219,,36.933346,0.1,39.590973,1596751996446
Fix,GT,37.3355493,-122.0806297,,37.192303,0.1,41.06604,1596751997446
Fix,GT,37.3357825,-122.080935,,37.49946,0.1,41.432373,1596751998446
Fix,GT,37.3360184,-122.0812406,,37.75833,0.1,41.508514,1596751999446
Fix,GT,37.336256,-122.081547,,37.95294,0.1,41.54013,1596752000446
Fix,GT,37.3364943,-122.0818545,,38.092667,0.1,41.18695,1596752001446
Fix,GT,37.336731,-122.0821648,,38.150948,0.1,40.47769,1596752002446
Fix,GT,37.3369643,-122.0824789,,38.0907,0.1,39.56888,1596752003446
Fix,GT,37.337193,-122.0827962,,37.95304,0.1,38.377014,1596752004446
Fix,GT,37.3374143,-122.0831177,,37.76316,0.1,36.830597,1596752005446
Fix,GT,37.3376248,-122.0834531,,37.470284,0.1,34.939606,1596752006446
Fix,GT,37.3378249,-122.0837984,,37.180565,0.1,33.45569,1596752007446
Fix,GT,37.3380189,-122.08414,,37.0158,0.1,32.14322,1596752008446
Fix,GT,37.3382069,-122.0844848,,36.92434,0.1,31.211761,1596752009446
Fix,GT,37.3383895,-122.0848318,,36.793777,0.1,30.902527,1596752010446
Fix,GT,37.3385705,-122.0851777,,36.70543,0.1,31.03244,1596752011446
Fix,GT,37.3387548,-122.0855202,,36.811043,0.1,31.751831,1596752012446
Fix,GT,37.3389439,-122.0858619,,37.14644,0.1,32.509308,1596752013446
Fix,GT,37.3391393,-122.0862048,,37.45965,0.1,33.4039,1596752014446
Fix,GT,37.3393404,-122.0865474,,37.717674,0.1,34.24002,1596752015446
Fix,GT,37.3395445,-122.0868921,,38.052513,0.1,33.880127,1596752016446
Fix,GT,37.3397469,-122.087243,,38.387924,0.1,32.82892,1596752017446
Fix,GT,37.3399457,-122.0876004,,38.671593,0.1,31.890656,1596752018446
Fix,GT,37.3401415,-122.0879637,,38.860092,0.1,30.933563,1596752019446
Fix,GT,37.3403325,-122.0883314,,38.790638,0.1,29.694336,1596752020446
Fix,GT,37.3405169,-122.0887021,,38.62892,0.1,28.608582,1596752021446
Fix,GT,37.3406964,-122.089075,,38.63225,0.1,27.967163,1596752022446
Fix,GT,37.3408733,-122.0894512,,38.778145,0.1,27.705505,1596752023446
Fix,GT,37.3410503,-122.0898302,,38.98909,0.1,28.019073,1596752024446
Fix,GT,37.3412306,-122.090213,,39.44219,0.1,28.842468,1596752025446
Fix,GT,37.3414173,-122.0905987,,39.96231,0.1,30.34262,1596752026446
Fix,GT,37.3416145,-122.0909799,,40.15573,0.1,32.668488,1596752027446
Fix,GT,37.3418238,-122.0913493,,40.254772,0.1,35.342316,1596752028446
Fix,GT,37.3420532,-122.0916966,,40.38659,0.1,38.016327,1596752029446
Fix,GT,37.3423004,-122.0920257,,40.40419,0.1,41.000763,1596752030446
Fix,GT,37.3425546,-122.0923483,,40.146355,0.1,43.610413,1596752031446
Fix,GT,37.3428156,-122.0926569,,39.57926,0.1,44.654846,1596752032446
Fix,GT,37.3430752,-122.0929573,,38.9007,0.1,44.328705,1596752033446
Fix,GT,37.3433288,-122.0932556,,38.350372,0.1,43.59973,1596752034446
Fix,GT,37.3435772,-122.0935555,,38.165993,0.1,43.12036,1596752035446
Fix,GT,37.343824,-122.0938561,,38.287533,0.1,43.436096,1596752036446
Fix,GT,37.3440731,-122.0941573,,38.51967,0.1,43.230804,1596752037446
Fix,GT,37.3443207,-122.0944649,,38.726566,0.1,41.58716,1596752038446
Fix,GT,37.3445609,-122.094785,,38.78053,0.1,39.04196,1596752039446
Fix,GT,37.3447878,-122.0951197,,38.827568,0.1,36.02957,1596752040446
Fix,GT,37.3450001,-122.0954698,,38.979694,0.1,33.14908,1596752041446
Fix,GT,37.3451996,-122.0958344,,39.183876,0.1,30.319519,1596752042446
Fix,GT,37.3453865,-122.0962127,,39.461525,0.1,27.810608,1596752043446
Fix,GT,37.3455639,-122.0966024,,39.995937,0.1,26.591003,1596752044446
Fix,GT,37.3457409,-122.0970001,,40.71823,0.1,26.896423,1596752045446
