MessageType,Provider,LatitudeDegrees,LongitudeDegrees,AltitudeMeters,SpeedMps,AccuracyMeters,BearingDegrees,UnixTimeMillis
Fix,GT,37.4165047,-122.0799107,,0.0025106822,0.1,94.441956,1591378844200
Fix,GT,37.4165047,-122.0799107,,0.0028393585,0.1,94.44226,1591378844440
Fix,GT,37.4165047,-122.0799107,,0.0026402138,0.1,94.44263,1591378845440
Fix,GT,37.4165047,-122.0799107,,0.0012317426,0.1,94.44226,1591378846440
Fix,GT,37.4165047,-122.0799107,,0.0015445179,0.1,94.44226,1591378847440
Fix,GT,37.4165047,-122.0799107,,0.0016915502,0.1,94.442444,1591378848440
Fix,GT,37.4165047,-122.0799107,,0.001,0.1,94.4426,1591378849440
Fix,GT,37.4165047,-122.0799107,,0.0011824712,0.1,94.44284,1591378850440
Fix,GT,37.4165047,-122.0799107,,0.0021842783,0.1,94.44281,1591378851440
Fix,GT,37.4165047,-122.0799107,,0.0022097419,0.1,94.44299,1591378852440
Fix,GT,37.4165047,-122.0799107,,0.001544518,0.1,94.44354,1591378853440
Fix,GT,37.4165047,-122.0799107,,0.0021320744,0.1,94.44324,1591378854440
Fix,GT,37.4165047,-122.0799107,,0.0025120117,0.1,94.44345,1591378855440
Fix,GT,37.4165047,-122.0799107,,0.0027542599,0.1,94.443665,1591378856440
Fix,GT,37.4165047,-122.0799107,,0.002236068,0.1,94.44336,1591378857440
Fix,GT,37.4165047,-122.0799107,,0.0018740211,0.1,94.44351,1591378858440
Fix,GT,37.4165047,-122.0799107,,0.0012317424,0.1,94.44324,1591378859440
Fix,GT,37.4165047,-122.0799107,,0.0014405244,0.1,94.44293,1591378860440
Fix,GT,37.4165047,-122.0799107,,0.0017419468,0.1,94.442535,1591378861440
Fix,GT,37.4165047,-122.0799107,,0.0016722667,0.1,94.44272,1591378862440
Fix,GT,37.4165047,-122.0799107,,0.0015594757,0.1,94.44269,1591378863440
Fix,GT,37.4165047,-122.0799107,,0.001,0.1,94.44211,1591378864440
Fix,GT,37.4165047,-122.0799107,,0.001,0.1,94.44226,1591378865440
Fix,GT,37.4165047,-122.0799107,,0.001,0.1,94.44235,1591378866440
Fix,GT,37.4165047,-122.0799107,,0.001,0.1,94.44168,1591378867440
Fix,GT,37.4165047,-122.0799107,,0.0015445182,0.1,94.44177,1591378868440
Fix,GT,37.4165047,-122.0799107,,0.001874021,0.1,94.44238,1591378869440
Fix,GT,37.4165047,-122.0799107,,0.0014142136,0.1,94.44229,1591378870440
Fix,GT,37.4165047,-122.0799107,,0.0012317423,0.1,94.44238,1591378871440
Fix,GT,37.4165047,-122.0799107,,0.0015445182,0.1,94.44263,1591378872440
Fix,GT,37.4165047,-122.0799107,,0.001874021,0.1,94.44263,1591378873440
Fix,GT,37.4165047,-122.0799107,,0.0012317423,0.1,94.442566,1591378874440
Fix,GT,37.4165047,-122.0799107,,0.0014405245,0.1,94.44281,1591378875440
Fix,GT,37.4165047,-122.0799107,,0.0015594757,0.1,94.44287,1591378876440
Fix,GT,37.4165047,-122.0799107,,0.001,0.1,94.441956,1591378877440
Fix,GT,37.4165047,-122.0799107,,0.0011824713,0.1,94.44223,1591378878440
Fix,GT,37.4165047,-122.0799107,,0.0023795515,0.1,94.44217,1591378879440
Fix,GT,37.4165047,-122.0799107,,0.003263209,0.1,94.44183,1591378880440
Fix,GT,37.4165047,-122.0799107,,0.0022054315,0.1,94.44153,1591378881440
Fix,GT,37.4165047,-122.0799107,,0.0012317424,0.1,94.441895,1591378882440
Fix,GT,37.4165047,-122.0799107,,0.00055947556,0.1,94.4422,1591378883440
Fix,GT,37.4165047,-122.0799107,,0.0009850428,0.1,94.442566,1591378884440
Fix,GT,37.4165047,-122.0799107,,0.0021320744,0.1,94.442505,1591378885440
Fix,GT,37.4165047,-122.0799107,,0.0015594756,0.1,94.441986,1591378886440
Fix,GT,37.4165047,-122.0799107,,0.0019525363,0.1,94.44342,1591378887440
Fix,GT,37.4165047,-122.0799107,,0.0027542596,0.1,94.444214,1591378888440
Fix,GT,37.4165047,-122.0799107,,0.0022360682,0.1,94.443726,1591378889440
Fix,GT,37.4165047,-122.0799107,,0.0016915499,0.1,94.44293,1591378890440
Fix,GT,37.4165047,-122.0799107,,0.001,0.1,94.44208,1591378891440
Fix,GT,37.4165047,-122.0799107,,0.0011824713,0.1,94.44232,1591378892440
Fix,GT,37.4165047,-122.0799107,,0.001672267,0.1,94.44241,1591378893440
Fix,GT,37.4165047,-122.0799107,,0.0025120117,0.1,94.4422,1591378894440
Fix,GT,37.4165047,-122.0799107,,0.0035855458,0.1,94.44165,1591378895440
Fix,GT,37.4165047,-122.0799106,,0.004509399,0.1,94.44159,1591378896440
Fix,GT,37.4165047,-122.0799106,,0.0054405243,0.1,94.441284,1591378897440
Fix,GT,37.4165046,-122.0799105,,0.006311981,0.1,94.44095,1591378898440
Fix,GT,37.4165046,-122.0799105,,0.005999319,0.1,94.44055,1591378899440
Fix,GT,37.4165046,-122.0799104,,0.005421454,0.1,94.44089,1591378900440
Fix,GT,37.4165046,-122.0799104,,0.0050786035,0.1,94.44061,1591378901440
Fix,GT,37.4165045,-122.0799103,,0.0059394343,0.1,94.44031,1591378902440
Fix,GT,37.4165044,-122.0799101,,0.057933394,0.1,94.377686,1591378903440
Fix,GT,37.4165046,-122.0799082,,0.3918248,0.1,93.243164,1591378904440
Fix,GT,37.4165061,-122.0799004,,1.0952885,0.1,89.618286,1591378905440
Fix,GT,37.4165088,-122.079884,,1.9508555,0.1,85.55078,1591378906440
Fix,GT,37.4165117,-122.0798558,,3.151489,0.1,85.50781,1591378907440
Fix,GT,37.4165133,-122.0798113,,4.6846743,0.1,89.6254,1591378908440
Fix,GT,37.4165123,-122.0797499,,6.1360908,0.1,93.85602,1591378909440
Fix,GT,37.416509,-122.0796728,,7.5338616,0.1,95.83722,1591378910440
Fix,GT,37.4165042,-122.0795811,,8.70676,0.1,96.502075,1591378911440
Fix,GT,37.4164981,-122.0794783,,9.482017,0.1,97.118774,1591378912440
Fix,GT,37.4164906,-122.0793682,,10.036718,0.1,97.64386,1591378913440
Fix,GT,37.4164824,-122.0792533,,10.3575,0.1,97.8396,1591378914440
Fix,GT,37.416474,-122.0791364,,10.418591,0.1,97.7605,1591378915440
Fix,GT,37.4164657,-122.0790191,,10.452417,0.1,97.65634,1591378916440
Fix,GT,37.4164579,-122.0789017,,10.347412,0.1,97.44058,1591378917440
Fix,GT,37.4164505,-122.0787874,,9.91784,0.1,97.13153,1591378918440
Fix,GT,37.4164439,-122.0786795,,9.239731,0.1,97.1228,1591378919440
Fix,GT,37.4164373,-122.0785799,,8.435134,0.1,97.645905,1591378920440
Fix,GT,37.4164304,-122.0784902,,7.5204077,0.1,98.53912,1591378921440
Fix,GT,37.4164231,-122.0784112,,6.5058074,0.1,99.57245,1591378922440
Fix,GT,37.4164149,-122.0783445,,5.391412,0.1,102.155334,1591378923440
Fix,GT,37.4164037,-122.0782919,,4.3175263,0.1,109.28552,1591378924440
Fix,GT,37.4163865,-122.0782512,,3.9727118,0.1,121.122925,1591378925440
Fix,GT,37.4163588,-122.0782165,,4.6648765,0.1,137.65918,1591378926440
Fix,GT,37.4163158,-122.0781909,,5.8626175,0.1,158.79388,1591378927440
Fix,GT,37.4162569,-122.0781815,,7.324597,0.1,176.73541,1591378928440
Fix,GT,37.416183,-122.0781829,,8.988283,0.1,184.08163,1591378929440
Fix,GT,37.4160954,-122.0781865,,10.423569,0.1,184.77357,1591378930440
Fix,GT,37.4159956,-122.0781917,,11.700688,0.1,185.3345,1591378931440
Fix,GT,37.4158849,-122.0781989,,12.844428,0.1,185.7799,1591378932440
Fix,GT,37.4157649,-122.0782064,,13.767609,0.1,185.31296,1591378933440
Fix,GT,37.4156378,-122.0782113,,14.428845,0.1,183.93423,1591378934440
Fix,GT,37.4155055,-122.0782125,,14.960735,0.1,182.76056,1591378935440
Fix,GT,37.4153689,-122.0782121,,15.394003,0.1,182.63977,1591378936440
Fix,GT,37.4152284,-122.0782123,,15.77528,0.1,182.95497,1591378937440
Fix,GT,37.4150845,-122.0782133,,16.15922,0.1,182.97472,1591378938440
Fix,GT,37.4149372,-122.0782137,,16.50774,0.1,182.79912,1591378939440
Fix,GT,37.4147874,-122.0782135,,16.704687,0.1,182.52818,1591378940440
Fix,GT,37.4146371,-122.0782126,,16.595827,0.1,182.30067,1591378941440
Fix,GT,37.4144897,-122.0782113,,15.968135,0.1,182.2154,1591378942440
Fix,GT,37.4143517,-122.0782101,,14.503506,0.1,182.3618,1591378943440
Fix,GT,37.4142299,-122.0782097,,12.476014,0.1,182.71394,1591378944440
Fix,GT,37.4141271,-122.0782105,,10.28269,0.1,183.29333,1591378945440
Fix,GT,37.414045,-122.0782123,,7.942107,0.1,183.7988,1591378946440
Fix,GT,37.4139839,-122.0782137,,5.671971,0.1,183.52562,1591378947440
Fix,GT,37.4139401,-122.078214,,4.184972,0.1,182.9485,1591378948440
Fix,GT,37.4139061,-122.0782141,,3.3873553,0.1,182.7879,1591378949440
Fix,GT,37.4138803,-122.0782143,,2.303307,0.1,182.93993,1591378950440
Fix,GT,37.4138652,-122.0782147,,1.0975447,0.1,183.10205,1591378951440
Fix,GT,37.4138597,-122.0782148,,0.26613897,0.1,183.1622,1591378952440
Fix,GT,37.4138591,-122.0782148,,0.0067568794,0.1,183.15744,1591378953440
Fix,GT,37.413859,-122.0782148,,0.0046148747,0.1,183.15543,1591378954440
Fix,GT,37.413859,-122.0782148,,0.0034838938,0.1,183.15558,1591378955440
Fix,GT,37.4138589,-122.0782148,,0.0020229607,0.1,183.15515,1591378956440
Fix,GT,37.4138589,-122.0782148,,0.001,0.1,183.15459,1591378957440
Fix,GT,37.4138589,-122.0782148,,0.0011824712,0.1,183.15388,1591378958440
Fix,GT,37.4138589,-122.0782148,,0.0012317424,0.1,183.15309,1591378959440
Fix,GT,37.4138589,-122.0782148,,0.001,0.1,183.15245,1591378960440
Fix,GT,37.4138589,-122.0782148,,0.00055947585,0.1,183.15184,1591378961440
Fix,GT,37.4138589,-122.0782148,,0.0004405242,0.1,183.15097,1591378962440
Fix,GT,37.4138589,-122.0782148,,0.0015445178,0.1,183.15053,1591378963440
Fix,GT,37.4138589,-122.0782148,,0.0026440858,0.1,183.15039,1591378964440
Fix,GT,37.4138589,-122.0782148,,0.0026502663,0.1,183.15001,1591378965440
Fix,GT,37.4138589,-122.0782148,,0.002,0.1,183.1495,1591378966440
Fix,GT,37.4138588,-122.0782148,,0.0011189517,0.1,183.1499,1591378967440
Fix,GT,37.4138588,-122.0782148,,0.0,0.1,183.151,1591378968440
Fix,GT,37.4138588,-122.0782148,,0.00062299526,0.1,183.15067,1591378969440
Fix,GT,37.4138588,-122.0782148,,0.0014142136,0.1,183.15002,1591378970440
Fix,GT,37.4138588,-122.0782148,,0.017090613,0.1,183.15001,1591378971440
Fix,GT,37.4138574,-122.0782148,,0.46696225,0.1,183.13727,1591378972440
Fix,GT,37.4138475,-122.0782148,,1.9645501,0.1,183.0223,1591378973440
Fix,GT,37.4138204,-122.0782148,,3.996809,0.1,182.67728,1591378974440
Fix,GT,37.4137769,-122.0782142,,5.619363,0.1,182.11736,1591378975440
Fix,GT,37.4137196,-122.0782131,,7.056225,0.1,181.84814,1591378976440
Fix,GT,37.4136488,-122.0782123,,8.62839,0.1,182.32373,1591378977440
Fix,GT,37.4135644,-122.0782125,,10.076719,0.1,182.92249,1591378978440
Fix,GT,37.4134678,-122.0782136,,11.297752,0.1,183.23555,1591378979440
Fix,GT,37.4133612,-122.0782152,,12.286605,0.1,183.40744,1591378980440
Fix,GT,37.4132466,-122.0782171,,13.126537,0.1,183.42236,1591378981440
Fix,GT,37.413125,-122.0782192,,13.858061,0.1,183.46394,1591378982440
Fix,GT,37.4129974,-122.0782211,,14.467285,0.1,183.31294,1591378983440
Fix,GT,37.4128648,-122.0782223,,15.011023,0.1,182.90166,1591378984440
Fix,GT,37.4127274,-122.0782222,,15.503155,0.1,182.45512,1591378985440
Fix,GT,37.4125859,-122.0782208,,15.877448,0.1,182.01524,1591378986440
Fix,GT,37.4124427,-122.0782181,,15.841471,0.1,181.79437,1591378987440
Fix,GT,37.412302,-122.0782163,,15.353617,0.1,182.49275,1591378988440
Fix,GT,37.4121662,-122.0782174,,14.790946,0.1,183.33752,1591378989440
Fix,GT,37.4120354,-122.0782194,,14.279167,0.1,183.30531,1591378990440
Fix,GT,37.4119084,-122.0782211,,13.950279,0.1,183.21146,1591378991440
Fix,GT,37.4117839,-122.0782224,,13.708998,0.1,183.12042,1591378992440
Fix,GT,37.4116614,-122.0782235,,13.478079,0.1,183.02272,1591378993440
Fix,GT,37.4115418,-122.0782246,,13.005039,0.1,183.37752,1591378994440
Fix,GT,37.4114277,-122.0782296,,12.272558,0.1,185.70364,1591378995440
Fix,GT,37.4113209,-122.0782422,,11.505147,0.1,189.65463,1591378996440
Fix,GT,37.4112224,-122.0782651,,10.715807,0.1,195.6897,1591378997440
Fix,GT,37.4111339,-122.0783035,,10.082761,0.1,205.64479,1591378998440
Fix,GT,37.4110575,-122.0783611,,9.708845,0.1,218.16669,1591378999440
Fix,GT,37.4109973,-122.0784383,,9.482912,0.1,233.35449,1591379000440
Fix,GT,37.4109579,-122.0785336,,9.649931,0.1,250.5386,1591379001440
Fix,GT,37.4109435,-122.0786442,,10.321501,0.1,268.95795,1591379002440
Fix,GT,37.4109574,-122.0787627,,10.903444,0.1,286.4458,1591379003440
Fix,GT,37.4109981,-122.0788768,,11.187881,0.1,301.77786,1591379004440
Fix,GT,37.411061,-122.0789762,,11.289951,0.1,316.01868,1591379005440
Fix,GT,37.4111418,-122.0790538,,11.328484,0.1,330.17084,1591379006440
Fix,GT,37.4112356,-122.0791034,,11.332872,0.1,345.0076,1591379007440
Fix,GT,37.4113366,-122.0791223,,11.385538,0.1,358.99905,1591379008440
Fix,GT,37.4114388,-122.0791104,,11.461758,0.1,12.99295,1591379009440
Fix,GT,37.4115356,-122.079066,,11.505777,0.1,28.278503,1591379010440
Fix,GT,37.411619,-122.0789894,,11.546623,0.1,45.00705,1591379011440
Fix,GT,37.4116807,-122.0788845,,11.678007,0.1,62.44287,1591379012440
Fix,GT,37.4117151,-122.0787593,,11.942101,0.1,79.874146,1591379013440
Fix,GT,37.4117199,-122.078622,,12.506562,0.1,95.78464,1591379014440
Fix,GT,37.4116969,-122.0784798,,13.226661,0.1,108.52545,1591379015440
Fix,GT,37.4116526,-122.0783364,,14.010708,0.1,116.29477,1591379016440
Fix,GT,37.4115965,-122.0781888,,14.9336605,0.1,118.86517,1591379017440
Fix,GT,37.4115342,-122.0780332,,15.8787,0.1,119.78113,1591379018440
Fix,GT,37.4114667,-122.0778691,,16.78756,0.1,120.14838,1591379019440
Fix,GT,37.4113954,-122.0776961,,17.678082,0.1,120.2504,1591379020440
Fix,GT,37.4113199,-122.0775145,,18.566465,0.1,120.41586,1591379021440
Fix,GT,37.4112404,-122.0773244,,19.428392,0.1,120.598145,1591379022440
Fix,GT,37.411157,-122.0771265,,20.188698,0.1,120.69867,1591379023440
Fix,GT,37.4110708,-122.0769215,,20.845968,0.1,120.44757,1591379024440
Fix,GT,37.4109833,-122.0767095,,21.448105,0.1,119.94089,1591379025440
Fix,GT,37.4108945,-122.0764905,,22.074577,0.1,119.69495,1591379026440
Fix,GT,37.4108034,-122.0762646,,22.734016,0.1,119.65167,1591379027440
Fix,GT,37.4107098,-122.0760321,,23.376507,0.1,119.45459,1591379028440
Fix,GT,37.4106144,-122.0757929,,23.958069,0.1,119.18652,1591379029440
Fix,GT,37.4105177,-122.0755478,,24.45712,0.1,119.005585,1591379030440
Fix,GT,37.4104191,-122.075298,,24.900482,0.1,119.26312,1591379031440
Fix,GT,37.4103171,-122.0750448,,25.277563,0.1,119.893524,1591379032440
Fix,GT,37.4102117,-122.0747903,,25.451286,0.1,120.55698,1591379033440
Fix,GT,37.4101036,-122.0745366,,25.486565,0.1,121.14703,1591379034440
Fix,GT,37.4099935,-122.0742835,,25.58892,0.1,121.64279,1591379035440
Fix,GT,37.4098814,-122.0740304,,25.665472,0.1,121.808044,1591379036440
Fix,GT,37.4097692,-122.0737765,,25.734856,0.1,121.6608,1591379037440
Fix,GT,37.4096573,-122.0735215,,25.822147,0.1,121.61633,1591379038440
Fix,GT,37.4095443,-122.0732661,,25.851246,0.1,121.90967,1591379039440
Fix,GT,37.4094304,-122.0730116,,25.797417,0.1,122.06586,1591379040440
Fix,GT,37.4093173,-122.0727578,,25.65767,0.1,121.713196,1591379041440
Fix,GT,37.4092062,-122.0725051,,25.4368,0.1,121.60538,1591379042440
Fix,GT,37.4090954,-122.0722554,,25.112726,0.1,122.08441,1591379043440
Fix,GT,37.4089843,-122.0720109,,24.703068,0.1,122.740234,1591379044440
Fix,GT,37.4088723,-122.0717726,,24.255238,0.1,123.934235,1591379045440
Fix,GT,37.4087555,-122.0715439,,23.852154,0.1,127.06406,1591379046440
Fix,GT,37.4086279,-122.0713293,,23.564953,0.1,131.62463,1591379047440
Fix,GT,37.4084884,-122.0711298,,23.366665,0.1,136.09106,1591379048440
Fix,GT,37.4083383,-122.0709461,,23.21069,0.1,140.52527,1591379049440
Fix,GT,37.4081785,-122.0707787,,23.001633,0.1,144.94397,1591379050440
Fix,GT,37.4080109,-122.0706287,,22.67603,0.1,149.19244,1591379051440
Fix,GT,37.4078375,-122.0704961,,22.403465,0.1,153.12067,1591379052440
Fix,GT,37.4076594,-122.0703796,,22.182156,0.1,156.88824,1591379053440
Fix,GT,37.4074776,-122.070279,,21.972858,0.1,160.6593,1591379054440
Fix,GT,37.4072916,-122.0701945,,21.966805,0.1,164.64746,1591379055440
Fix,GT,37.4071005,-122.0701269,,22.12703,0.1,169.10382,1591379056440
Fix,GT,37.4069041,-122.0700789,,22.315193,0.1,173.96289,1591379057440
Fix,GT,37.4067031,-122.070052,,22.55942,0.1,178.73352,1591379058440
Fix,GT,37.4064985,-122.070042,,22.877522,0.1,181.6068,1591379059440
Fix,GT,37.4062909,-122.070039,,23.215748,0.1,182.19931,1591379060440
Fix,GT,37.40608,-122.0700359,,23.6124,0.1,181.97632,1591379061440
Fix,GT,37.4058652,-122.0700318,,24.089241,0.1,181.83331,1591379062440
Fix,GT,37.405646,-122.070028,,24.569244,0.1,182.04457,1591379063440
Fix,GT,37.4054227,-122.0700249,,25.005524,0.1,182.05534,1591379064440
Fix,GT,37.4051956,-122.070021,,25.401962,0.1,181.79504,1591379065440
Fix,GT,37.4049652,-122.070016,,25.74265,0.1,181.91586,1591379066440
Fix,GT,37.4047319,-122.0700137,,26.020409,0.1,182.6538,1591379067440
Fix,GT,37.4044962,-122.0700152,,26.266289,0.1,183.22572,1591379068440
Fix,GT,37.4042585,-122.0700186,,26.491829,0.1,183.4259,1591379069440
Fix,GT,37.4040189,-122.0700217,,26.663637,0.1,183.2683,1591379070440
Fix,GT,37.4037783,-122.0700238,,26.763567,0.1,183.01146,1591379071440
Fix,GT,37.4035374,-122.0700245,,26.683594,0.1,182.81445,1591379072440
Fix,GT,37.4032977,-122.0700256,,26.553316,0.1,183.13147,1591379073440
Fix,GT,37.403058,-122.0700284,,26.63971,0.1,183.43243,1591379074440
Fix,GT,37.4028172,-122.0700314,,26.817562,0.1,183.28163,1591379075440
Fix,GT,37.4025746,-122.0700344,,27.015713,0.1,183.36736,1591379076440
Fix,GT,37.4023302,-122.0700383,,27.241533,0.1,183.53416,1591379077440
Fix,GT,37.4020835,-122.0700425,,27.526436,0.1,183.55798,1591379078440
Fix,GT,37.401834,-122.0700469,,27.843346,0.1,183.5736,1591379079440
Fix,GT,37.4015816,-122.0700512,,28.162067,0.1,183.46735,1591379080440
Fix,GT,37.4013265,-122.0700541,,28.474068,0.1,183.09235,1591379081440
Fix,GT,37.4010685,-122.0700538,,28.786114,0.1,182.30864,1591379082440
Fix,GT,37.4008081,-122.0700471,,29.044706,0.1,180.70808,1591379083440
Fix,GT,37.4005468,-122.0700296,,29.04293,0.1,178.5929,1591379084440
Fix,GT,37.4002873,-122.0699995,,28.858982,0.1,176.34027,1591379085440
Fix,GT,37.40003,-122.0699572,,28.775892,0.1,174.2201,1591379086440
Fix,GT,37.3997745,-122.0699034,,28.802177,0.1,172.31287,1591379087440
Fix,GT,37.3995194,-122.0698408,,28.966953,0.1,171.15979,1591379088440
Fix,GT,37.3992627,-122.0697734,,29.237223,0.1,170.73883,1591379089440
Fix,GT,37.3990042,-122.0697043,,29.42106,0.1,170.60925,1591379090440
Fix,GT,37.3987445,-122.0696344,,29.516426,0.1,170.59485,1591379091440
Fix,GT,37.3984843,-122.0695642,,29.555971,0.1,170.56604,1591379092440
Fix,GT,37.3982239,-122.0694941,,29.563221,0.1,170.62097,1591379093440
Fix,GT,37.3979636,-122.0694243,,29.528465,0.1,170.64209,1591379094440
Fix,GT,37.397704,-122.0693545,,29.375233,0.1,170.5788,1591379095440
Fix,GT,37.3974462,-122.0692847,,29.171455,0.1,170.51605,1591379096440
Fix,GT,37.3971898,-122.0692151,,29.081062,0.1,170.49884,1591379097440
Fix,GT,37.3969337,-122.0691457,,29.060024,0.1,170.54382,1591379098440
Fix,GT,37.3966778,-122.0690766,,29.041313,0.1,170.5542,1591379099440
Fix,GT,37.3964221,-122.0690074,,29.024765,0.1,170.54419,1591379100440
Fix,GT,37.3961666,-122.0689388,,28.99044,0.1,170.75635,1591379101440
Fix,GT,37.3959115,-122.0688724,,28.793259,0.1,171.16016,1591379102440
Fix,GT,37.395659,-122.0688091,,28.321955,0.1,171.65356,1591379103440
Fix,GT,37.3954107,-122.0687509,,27.854126,0.1,172.62518,1591379104440
Fix,GT,37.3951643,-122.0686996,,27.6706,0.1,173.9591,1591379105440
Fix,GT,37.3949174,-122.0686551,,27.652447,0.1,175.16028,1591379106440
Fix,GT,37.3946705,-122.0686172,,27.534542,0.1,176.29376,1591379107440
Fix,GT,37.3944243,-122.0685853,,27.372585,0.1,177.34802,1591379108440
Fix,GT,37.3941791,-122.0685592,,27.22942,0.1,178.3833,1591379109440
Fix,GT,37.3939348,-122.0685395,,27.110928,0.1,179.73334,1591379110440
Fix,GT,37.3936914,-122.0685275,,26.994781,0.1,181.26053,1591379111440
Fix,GT,37.3934486,-122.0685239,,26.898685,0.1,182.89008,1591379112440
Fix,GT,37.3932062,-122.0685286,,26.86644,0.1,184.32043,1591379113440
Fix,GT,37.3929643,-122.06854,,26.85795,0.1,185.41418,1591379114440
Fix,GT,37.3927228,-122.0685567,,26.842352,0.1,186.37476,1591379115440
Fix,GT,37.3924815,-122.0685779,,26.851786,0.1,187.02333,1591379116440
Fix,GT,37.3922402,-122.0686012,,26.882923,0.1,187.28801,1591379117440
Fix,GT,37.3919984,-122.0686251,,26.93549,0.1,187.26231,1591379118440
Fix,GT,37.3917559,-122.0686486,,27.062368,0.1,187.14049,1591379119440
Fix,GT,37.3915121,-122.0686722,,27.245205,0.1,187.23788,1591379120440
Fix,GT,37.3912666,-122.0686966,,27.351765,0.1,187.25172,1591379121440
Fix,GT,37.3910214,-122.0687198,,27.176048,0.1,186.8608,1591379122440
Fix,GT,37.3907783,-122.0687414,,26.904312,0.1,186.81558,1591379123440
Fix,GT,37.3905364,-122.0687642,,26.951487,0.1,187.25253,1591379124440
Fix,GT,37.390293,-122.068789,,27.260454,0.1,187.4886,1591379125440
Fix,GT,37.3900467,-122.0688145,,27.574764,0.1,187.42339,1591379126440
Fix,GT,37.3897976,-122.0688392,,27.895075,0.1,187.1101,1591379127440
Fix,GT,37.3895456,-122.0688624,,28.168205,0.1,186.73448,1591379128440
Fix,GT,37.3892915,-122.0688834,,28.34615,0.1,186.28993,1591379129440
Fix,GT,37.3890364,-122.068901,,28.292715,0.1,185.53975,1591379130440
Fix,GT,37.3887841,-122.0689132,,27.701336,0.1,184.29863,1591379131440
Fix,GT,37.3885382,-122.0689172,,26.923,0.1,182.69765,1591379132440
Fix,GT,37.3882985,-122.0689124,,26.373148,0.1,181.05171,1591379133440
Fix,GT,37.3880632,-122.0688997,,26.021587,0.1,179.52237,1591379134440
Fix,GT,37.3878292,-122.0688801,,26.089008,0.1,178.393,1591379135440
Fix,GT,37.3875933,-122.0688559,,26.43663,0.1,177.75067,1591379136440
Fix,GT,37.3873549,-122.0688289,,26.661356,0.1,177.4873,1591379137440
Fix,GT,37.3871151,-122.0688016,,26.779102,0.1,177.61841,1591379138440
Fix,GT,37.3868745,-122.0687754,,26.847641,0.1,177.89099,1591379139440
Fix,GT,37.3866329,-122.0687506,,26.993876,0.1,178.09985,1591379140440
Fix,GT,37.3863893,-122.0687261,,27.252607,0.1,178.11646,1591379141440
Fix,GT,37.3861434,-122.0687006,,27.518251,0.1,177.86157,1591379142440
Fix,GT,37.3858953,-122.0686735,,27.772808,0.1,177.65472,1591379143440
Fix,GT,37.385645,-122.0686457,,28.01746,0.1,177.71332,1591379144440
Fix,GT,37.3853926,-122.0686179,,28.214252,0.1,177.62952,1591379145440
Fix,GT,37.385139,-122.0685892,,28.26788,0.1,177.48627,1591379146440
Fix,GT,37.3848858,-122.06856,,28.170132,0.1,177.45807,1591379147440
Fix,GT,37.3846338,-122.0685307,,28.022667,0.1,177.36957,1591379148440
Fix,GT,37.3843829,-122.0685015,,27.911808,0.1,177.39368,1591379149440
Fix,GT,37.3841329,-122.0684727,,27.844315,0.1,177.57892,1591379150440
Fix,GT,37.3838837,-122.0684452,,27.675346,0.1,177.81628,1591379151440
Fix,GT,37.3836366,-122.0684187,,27.366604,0.1,177.73572,1591379152440
Fix,GT,37.3833917,-122.0683911,,27.261093,0.1,177.42017,1591379153440
Fix,GT,37.3831467,-122.0683624,,27.406418,0.1,177.3664,1591379154440
Fix,GT,37.3829,-122.0683339,,27.586258,0.1,177.57343,1591379155440
Fix,GT,37.3826514,-122.0683064,,27.794327,0.1,177.69257,1591379156440
Fix,GT,37.382401,-122.068279,,27.989193,0.1,177.70135,1591379157440
Fix,GT,37.3821492,-122.0682513,,28.12195,0.1,177.72565,1591379158440
Fix,GT,37.3818964,-122.0682237,,28.215704,0.1,177.77643,1591379159440
Fix,GT,37.3816425,-122.0681965,,28.353615,0.1,177.82031,1591379160440
Fix,GT,37.3813872,-122.0681693,,28.504192,0.1,177.8501,1591379161440
Fix,GT,37.3811311,-122.0681424,,28.5136,0.1,177.78229,1591379162440
Fix,GT,37.380876,-122.0681141,,28.34615,0.1,177.38043,1591379163440
Fix,GT,37.380622,-122.0680842,,28.306309,0.1,177.29565,1591379164440
Fix,GT,37.3803674,-122.0680554,,28.422009,0.1,177.71655,1591379165440
Fix,GT,37.380112,-122.0680281,,28.426739,0.1,177.91852,1591379166440
Fix,GT,37.3798575,-122.068001,,28.235573,0.1,177.87396,1591379167440
Fix,GT,37.3796054,-122.0679739,,27.925488,0.1,177.8695,1591379168440
Fix,GT,37.3793562,-122.0679474,,27.59087,0.1,177.79303,1591379169440
Fix,GT,37.3791102,-122.0679204,,27.210354,0.1,177.65057,1591379170440
Fix,GT,37.3788677,-122.0678932,,26.801704,0.1,177.62372,1591379171440
Fix,GT,37.3786287,-122.0678674,,26.50452,0.1,177.97107,1591379172440
Fix,GT,37.3783907,-122.0678457,,26.544865,0.1,178.83386,1591379173440
Fix,GT,37.3781508,-122.0678293,,26.767666,0.1,179.93658,1591379174440
Fix,GT,37.3779093,-122.06782,,26.87682,0.1,181.32259,1591379175440
Fix,GT,37.3776671,-122.0678193,,26.899605,0.1,183.08354,1591379176440
Fix,GT,37.377425,-122.0678278,,26.87996,0.1,184.99327,1591379177440
Fix,GT,37.3771832,-122.0678445,,26.864996,0.1,186.44469,1591379178440
Fix,GT,37.376942,-122.0678669,,26.802362,0.1,187.23694,1591379179440
Fix,GT,37.3767019,-122.0678925,,26.641464,0.1,187.97115,1591379180440
Fix,GT,37.3764637,-122.0679191,,26.443493,0.1,188.40253,1591379181440
Fix,GT,37.3762272,-122.0679471,,26.289787,0.1,188.56947,1591379182440
Fix,GT,37.3759922,-122.0679773,,26.141647,0.1,188.71751,1591379183440
Fix,GT,37.3757589,-122.0680071,,25.875414,0.1,188.56625,1591379184440
Fix,GT,37.3755285,-122.0680343,,25.47256,0.1,187.89236,1591379185440
Fix,GT,37.3753018,-122.0680564,,25.04504,0.1,186.74545,1591379186440
Fix,GT,37.3750781,-122.0680708,,24.715958,0.1,184.79695,1591379187440
Fix,GT,37.374857,-122.0680736,,24.396465,0.1,182.21681,1591379188440
Fix,GT,37.3746389,-122.0680643,,24.057533,0.1,179.9792,1591379189440
Fix,GT,37.3744237,-122.0680452,,23.860851,0.1,177.99634,1591379190440
Fix,GT,37.3742102,-122.068018,,23.826946,0.1,176.0722,1591379191440
Fix,GT,37.3739979,-122.0679813,,23.8052,0.1,173.7923,1591379192440
Fix,GT,37.3737871,-122.0679333,,23.784895,0.1,171.2378,1591379193440
Fix,GT,37.3735777,-122.0678741,,23.91846,0.1,169.04639,1591379194440
Fix,GT,37.3733687,-122.0678051,,24.14116,0.1,167.06256,1591379195440
Fix,GT,37.3731596,-122.067726,,24.38081,0.1,164.86389,1591379196440
Fix,GT,37.3729514,-122.0676353,,24.608974,0.1,162.37244,1591379197440
Fix,GT,37.3727447,-122.0675327,,24.767818,0.1,160.10455,1591379198440
Fix,GT,37.3725396,-122.0674208,,24.932951,0.1,158.49188,1591379199440
Fix,GT,37.3723351,-122.0673023,,25.106441,0.1,157.3711,1591379200440
Fix,GT,37.3721312,-122.067179,,25.139091,0.1,156.51709,1591379201440
Fix,GT,37.3719285,-122.0670534,,25.048443,0.1,156.32385,1591379202440
Fix,GT,37.3717261,-122.0669289,,25.019815,0.1,156.73291,1591379203440
Fix,GT,37.3715228,-122.0668066,,25.082653,0.1,157.28748,1591379204440
Fix,GT,37.3713183,-122.0666866,,24.9948,0.1,157.76782,1591379205440
Fix,GT,37.3711151,-122.0665686,,24.728312,0.1,157.74701,1591379206440
Fix,GT,37.3709143,-122.06645,,24.580715,0.1,157.10095,1591379207440
Fix,GT,37.3707146,-122.0663289,,24.712337,0.1,156.7934,1591379208440
Fix,GT,37.3705132,-122.0662065,,24.974741,0.1,156.81128,1591379209440
Fix,GT,37.37031,-122.0660823,,25.225859,0.1,156.58899,1591379210440
Fix,GT,37.370105,-122.0659563,,25.471058,0.1,156.53125,1591379211440
Fix,GT,37.369898,-122.0658289,,25.718512,0.1,156.53088,1591379212440
Fix,GT,37.369689,-122.0657,,25.962175,0.1,156.4383,1591379213440
Fix,GT,37.3694784,-122.0655696,,26.168354,0.1,156.3778,1591379214440
Fix,GT,37.3692662,-122.065438,,26.368408,0.1,156.4223,1591379215440
Fix,GT,37.3690522,-122.0653058,,26.59317,0.1,156.56982,1591379216440
Fix,GT,37.3688358,-122.0651734,,26.825882,0.1,156.81128,1591379217440
Fix,GT,37.3686173,-122.0650409,,27.049633,0.1,156.94568,1591379218440
Fix,GT,37.3683969,-122.0649078,,27.25209,0.1,157.03552,1591379219440
Fix,GT,37.3681745,-122.0647744,,27.461552,0.1,157.13177,1591379220440
Fix,GT,37.3679506,-122.0646399,,27.631927,0.1,156.95612,1591379221440
Fix,GT,37.3677266,-122.0645041,,27.585857,0.1,156.71826,1591379222440
Fix,GT,37.3675042,-122.0643689,,27.272598,0.1,156.80396,1591379223440
Fix,GT,37.3672844,-122.0642363,,26.943592,0.1,156.99707,1591379224440
Fix,GT,37.3670662,-122.0641051,,26.788952,0.1,156.98938,1591379225440
Fix,GT,37.3668487,-122.0639743,,26.796751,0.1,157.08313,1591379226440
Fix,GT,37.3666302,-122.0638454,,26.761303,0.1,158.00653,1591379227440
Fix,GT,37.3664101,-122.0637237,,26.654034,0.1,159.8424,1591379228440
Fix,GT,37.366187,-122.0636123,,26.648613,0.1,161.89813,1591379229440
Fix,GT,37.3659607,-122.06351,,26.739876,0.1,163.64337,1591379230440
Fix,GT,37.3657313,-122.0634159,,26.824726,0.1,165.52936,1591379231440
Fix,GT,37.3654986,-122.0633324,,26.900879,0.1,167.7807,1591379232440
Fix,GT,37.3652627,-122.0632598,,27.007776,0.1,169.875,1591379233440
Fix,GT,37.3650238,-122.0631972,,27.158688,0.1,171.71777,1591379234440
Fix,GT,37.3647821,-122.0631439,,27.337685,0.1,173.72021,1591379235440
Fix,GT,37.3645371,-122.0631016,,27.539276,0.1,175.86206,1591379236440
Fix,GT,37.3642893,-122.0630701,,27.738348,0.1,177.89722,1591379237440
Fix,GT,37.364039,-122.0630498,,27.92627,0.1,179.97498,1591379238440
Fix,GT,37.3637867,-122.0630402,,28.095024,0.1,181.88766,1591379239440
Fix,GT,37.363533,-122.0630395,,28.213758,0.1,183.19069,1591379240440
Fix,GT,37.3632782,-122.0630439,,28.341534,0.1,183.69298,1591379241440
Fix,GT,37.3630223,-122.0630494,,28.474272,0.1,183.66635,1591379242440
Fix,GT,37.3627654,-122.0630543,,28.579834,0.1,183.58853,1591379243440
Fix,GT,37.3625075,-122.0630595,,28.686535,0.1,183.74556,1591379244440
Fix,GT,37.3622486,-122.0630651,,28.794807,0.1,183.71973,1591379245440
Fix,GT,37.3619886,-122.0630705,,28.910954,0.1,183.63605,1591379246440
Fix,GT,37.3617276,-122.0630754,,29.017632,0.1,183.54106,1591379247440
Fix,GT,37.3614658,-122.0630804,,29.13611,0.1,183.6556,1591379248440
Fix,GT,37.3612029,-122.0630868,,29.18409,0.1,183.91325,1591379249440
Fix,GT,37.3609407,-122.0630936,,28.945904,0.1,183.87474,1591379250440
Fix,GT,37.3606819,-122.0630995,,28.50336,0.1,183.717,1591379251440
Fix,GT,37.3604272,-122.0631045,,28.011053,0.1,183.56538,1591379252440
Fix,GT,37.3601771,-122.0631087,,27.539879,0.1,183.50359,1591379253440
Fix,GT,37.3599304,-122.0631129,,27.289654,0.1,183.48557,1591379254440
Fix,GT,37.3596848,-122.063116,,27.284702,0.1,183.06487,1591379255440
Fix,GT,37.3594387,-122.0631148,,27.339655,0.1,181.92767,1591379256440
Fix,GT,37.3591923,-122.0631067,,27.39753,0.1,180.66672,1591379257440
Fix,GT,37.3589452,-122.0630934,,27.503605,0.1,179.86339,1591379258440
Fix,GT,37.3586972,-122.063075,,27.648724,0.1,178.83209,1591379259440
Fix,GT,37.3584483,-122.0630506,,27.797527,0.1,177.73834,1591379260440
Fix,GT,37.3581983,-122.0630206,,27.948069,0.1,176.797,1591379261440
Fix,GT,37.3579482,-122.0629854,,27.91793,0.1,175.76605,1591379262440
Fix,GT,37.3577002,-122.0629444,,27.60423,0.1,174.6557,1591379263440
Fix,GT,37.3574555,-122.0628978,,27.395016,0.1,173.52814,1591379264440
Fix,GT,37.357212,-122.0628455,,27.512026,0.1,172.51373,1591379265440
Fix,GT,37.3569675,-122.0627875,,27.724052,0.1,171.51178,1591379266440
Fix,GT,37.3567222,-122.0627237,,27.914993,0.1,170.39972,1591379267440
Fix,GT,37.3564764,-122.0626532,,28.080502,0.1,169.2749,1591379268440
Fix,GT,37.3562303,-122.0625763,,28.224037,0.1,168.22107,1591379269440
Fix,GT,37.3559841,-122.0624941,,28.317522,0.1,167.3291,1591379270440
Fix,GT,37.3557387,-122.0624067,,28.35979,0.1,166.31445,1591379271440
Fix,GT,37.3554942,-122.0623132,,28.387333,0.1,165.08252,1591379272440
Fix,GT,37.3552513,-122.0622133,,28.379513,0.1,163.98785,1591379273440
Fix,GT,37.35501,-122.0621079,,28.337486,0.1,162.98499,1591379274440
Fix,GT,37.3547705,-122.061998,,28.291178,0.1,162.15393,1591379275440
Fix,GT,37.3545326,-122.0618838,,28.288986,0.1,161.30774,1591379276440
Fix,GT,37.3542958,-122.0617656,,28.32739,0.1,160.67401,1591379277440
Fix,GT,37.354059,-122.0616453,,28.3745,0.1,160.63,1591379278440
Fix,GT,37.3538216,-122.0615255,,28.43265,0.1,160.86316,1591379279440
Fix,GT,37.3535839,-122.0614066,,28.33247,0.1,160.85852,1591379280440
Fix,GT,37.3533481,-122.0612887,,27.957294,0.1,160.95728,1591379281440
Fix,GT,37.3531156,-122.0611742,,27.533829,0.1,161.56323,1591379282440
Fix,GT,37.3528844,-122.0610651,,27.316105,0.1,162.4967,1591379283440
Fix,GT,37.3526531,-122.0609621,,27.101685,0.1,163.625,1591379284440
Fix,GT,37.352423,-122.0608661,,26.748198,0.1,164.8324,1591379285440
Fix,GT,37.3521939,-122.0607768,,26.568527,0.1,165.91779,1591379286440
Fix,GT,37.3519638,-122.060693,,26.659628,0.1,167.01501,1591379287440
Fix,GT,37.3517313,-122.0606141,,26.804935,0.1,167.92609,1591379288440
Fix,GT,37.3514972,-122.0605393,,26.783102,0.1,168.7378,1591379289440
Fix,GT,37.3512627,-122.0604689,,26.758121,0.1,169.67352,1591379290440
Fix,GT,37.3510267,-122.0604035,,26.907219,0.1,170.7503,1591379291440
Fix,GT,37.3507886,-122.0603437,,26.935223,0.1,171.89502,1591379292440
Fix,GT,37.3505504,-122.0602896,,26.785942,0.1,172.89325,1591379293440
Fix,GT,37.3503122,-122.0602411,,26.820415,0.1,173.9607,1591379294440
Fix,GT,37.3500717,-122.0601979,,27.116322,0.1,175.05365,1591379295440
Fix,GT,37.349828,-122.0601598,,27.366066,0.1,176.03784,1591379296440
Fix,GT,37.3495819,-122.0601267,,27.526226,0.1,177.03851,1591379297440
Fix,GT,37.3493344,-122.0600989,,27.641266,0.1,178.10046,1591379298440
Fix,GT,37.3490854,-122.0600767,,27.76141,0.1,179.13843,1591379299440
Fix,GT,37.348835,-122.0600597,,27.893625,0.1,180.05536,1591379300440
Fix,GT,37.3485831,-122.0600476,,28.061777,0.1,180.9722,1591379301440
Fix,GT,37.3483294,-122.0600404,,28.252693,0.1,181.85486,1591379302440
Fix,GT,37.3480739,-122.0600375,,28.444633,0.1,182.48253,1591379303440
Fix,GT,37.3478168,-122.0600373,,28.648165,0.1,182.78159,1591379304440
Fix,GT,37.3475578,-122.060038,,28.838116,0.1,182.89737,1591379305440
Fix,GT,37.3472972,-122.0600391,,29.00064,0.1,182.93819,1591379306440
Fix,GT,37.3470354,-122.0600404,,29.122154,0.1,182.91405,1591379307440
Fix,GT,37.3467725,-122.0600412,,29.217228,0.1,182.73909,1591379308440
Fix,GT,37.3465088,-122.060041,,29.330658,0.1,182.59204,1591379309440
Fix,GT,37.3462439,-122.06004,,29.457165,0.1,182.52873,1591379310440
Fix,GT,37.3459779,-122.0600385,,29.574425,0.1,182.47937,1591379311440
Fix,GT,37.3457118,-122.0600369,,29.491938,0.1,182.38771,1591379312440
Fix,GT,37.3454475,-122.0600349,,29.178062,0.1,182.38481,1591379313440
Fix,GT,37.3451852,-122.0600334,,29.082003,0.1,182.48549,1591379314440
Fix,GT,37.344923,-122.0600321,,29.077152,0.1,182.43504,1591379315440
Fix,GT,37.3446622,-122.0600301,,28.779955,0.1,182.30045,1591379316440
Fix,GT,37.3444047,-122.0600275,,28.36634,0.1,182.12967,1591379317440
Fix,GT,37.344151,-122.0600235,,27.959015,0.1,181.85942,1591379318440
Fix,GT,37.3439009,-122.0600185,,27.561253,0.1,181.81094,1591379319440
Fix,GT,37.3436541,-122.0600142,,27.299488,0.1,182.02878,1591379320440
Fix,GT,37.3434083,-122.060011,,27.349472,0.1,182.19174,1591379321440
Fix,GT,37.3431606,-122.0600083,,27.612362,0.1,182.25192,1591379322440
Fix,GT,37.3429106,-122.0600056,,27.852085,0.1,182.1089,1591379323440
Fix,GT,37.3426587,-122.0600018,,28.065079,0.1,181.97008,1591379324440
Fix,GT,37.3424049,-122.0599981,,28.294336,0.1,182.15593,1591379325440
Fix,GT,37.3421488,-122.0599961,,28.555216,0.1,182.5562,1591379326440
Fix,GT,37.3418903,-122.0599957,,28.830826,0.1,182.75746,1591379327440
Fix,GT,37.3416293,-122.0599957,,29.094967,0.1,182.63574,1591379328440
Fix,GT,37.341366,-122.0599948,,29.352192,0.1,182.48383,1591379329440
Fix,GT,37.3411005,-122.0599937,,29.60257,0.1,182.55629,1591379330440
Fix,GT,37.3408327,-122.0599932,,29.803734,0.1,182.70876,1591379331440
Fix,GT,37.3405642,-122.0599932,,29.757977,0.1,182.69662,1591379332440
Fix,GT,37.3402977,-122.0599932,,29.38778,0.1,182.77151,1591379333440
Fix,GT,37.3400349,-122.059995,,28.905388,0.1,183.4019,1591379334440
Fix,GT,37.3397769,-122.0600014,,28.375181,0.1,184.3714,1591379335440
Fix,GT,37.3395239,-122.0600115,,27.814373,0.1,184.51567,1591379336440
Fix,GT,37.3392753,-122.0600183,,27.412254,0.1,183.4274,1591379337440
Fix,GT,37.3390293,-122.0600188,,27.213543,0.1,182.35698,1591379338440
Fix,GT,37.3387851,-122.0600144,,26.995487,0.1,181.49516,1591379339440
Fix,GT,37.3385433,-122.0600043,,26.717907,0.1,180.10478,1591379340440
Fix,GT,37.3383045,-122.0599858,,26.449646,0.1,178.21143,1591379341440
Fix,GT,37.3380683,-122.0599563,,26.320051,0.1,175.82733,1591379342440
Fix,GT,37.3378344,-122.0599143,,26.098747,0.1,173.32477,1591379343440
Fix,GT,37.3376044,-122.0598609,,25.895348,0.1,171.1466,1591379344440
Fix,GT,37.3373764,-122.0597985,,25.970364,0.1,169.87878,1591379345440
Fix,GT,37.337148,-122.0597318,,26.08241,0.1,169.45312,1591379346440
Fix,GT,37.3369192,-122.0596639,,26.123718,0.1,169.2934,1591379347440
Fix,GT,37.3366905,-122.0595952,,26.041054,0.1,169.08826,1591379348440
Fix,GT,37.3364636,-122.0595261,,25.748465,0.1,168.98285,1591379349440
Fix,GT,37.3362398,-122.0594582,,25.423132,0.1,169.2265,1591379350440
Fix,GT,37.3360174,-122.0593931,,25.319054,0.1,169.7514,1591379351440
Fix,GT,37.3357949,-122.0593307,,25.312485,0.1,170.35095,1591379352440
Fix,GT,37.335572,-122.0592717,,25.185047,0.1,171.15186,1591379353440
Fix,GT,37.3353507,-122.0592178,,24.711527,0.1,172.35077,1591379354440
Fix,GT,37.3351347,-122.0591715,,23.910625,0.1,173.53613,1591379355440
Fix,GT,37.3349254,-122.0591311,,23.06178,0.1,174.1925,1591379356440
Fix,GT,37.3347239,-122.0590942,,22.10559,0.1,174.37836,1591379357440
Fix,GT,37.3345322,-122.0590582,,20.959314,0.1,173.83044,1591379358440
Fix,GT,37.3343509,-122.0590207,,19.806892,0.1,172.81726,1591379359440
Fix,GT,37.3341811,-122.0589833,,18.383081,0.1,172.70569,1591379360440
Fix,GT,37.334025,-122.0589519,,16.660683,0.1,174.46655,1591379361440
Fix,GT,37.3338812,-122.058934,,15.536591,0.1,179.32489,1591379362440
Fix,GT,37.3337424,-122.058937,,15.341381,0.1,186.8712,1591379363440
Fix,GT,37.3336062,-122.0589647,,15.305025,0.1,195.29869,1591379364440
Fix,GT,37.3334753,-122.0590182,,15.275009,0.1,204.44406,1591379365440
Fix,GT,37.3333535,-122.0590978,,15.230187,0.1,214.23856,1591379366440
Fix,GT,37.3332457,-122.0592033,,15.19157,0.1,224.97733,1591379367440
Fix,GT,37.3331546,-122.0593326,,15.469149,0.1,235.13191,1591379368440
Fix,GT,37.3330799,-122.0594836,,16.117767,0.1,244.49489,1591379369440
Fix,GT,37.3330217,-122.059654,,16.712692,0.1,252.5138,1591379370440
Fix,GT,37.3329777,-122.0598374,,17.199059,0.1,257.85217,1591379371440
Fix,GT,37.3329447,-122.0600297,,17.631784,0.1,262.4555,1591379372440
Fix,GT,37.3329246,-122.0602296,,18.08031,0.1,267.82782,1591379373440
Fix,GT,37.3329205,-122.0604364,,18.581564,0.1,273.34335,1591379374440
Fix,GT,37.3329298,-122.0606487,,19.060413,0.1,277.31082,1591379375440
Fix,GT,37.3329491,-122.0608651,,19.453602,0.1,280.5285,1591379376440
Fix,GT,37.3329808,-122.0610832,,19.816555,0.1,285.15616,1591379377440
Fix,GT,37.3330287,-122.0613008,,20.196709,0.1,290.23184,1591379378440
Fix,GT,37.3330902,-122.0615183,,20.663662,0.1,293.3892,1591379379440
Fix,GT,37.3331593,-122.0617387,,21.312899,0.1,294.496,1591379380440
Fix,GT,37.333233,-122.061966,,22.167376,0.1,294.95624,1591379381440
Fix,GT,37.333311,-122.0622014,,22.985886,0.1,295.3725,1591379382440
Fix,GT,37.3333923,-122.0624442,,23.683655,0.1,295.47992,1591379383440
Fix,GT,37.3334758,-122.062694,,24.317883,0.1,295.33554,1591379384440
Fix,GT,37.3335611,-122.0629506,,24.930923,0.1,295.1505,1591379385440
Fix,GT,37.333647,-122.0632139,,25.496565,0.1,294.60278,1591379386440
Fix,GT,37.3337322,-122.0634842,,26.004019,0.1,293.81995,1591379387440
Fix,GT,37.3338164,-122.0637607,,26.428839,0.1,293.41022,1591379388440
Fix,GT,37.3339013,-122.0640416,,26.812145,0.1,293.58337,1591379389440
Fix,GT,37.3339883,-122.0643262,,27.221077,0.1,293.63257,1591379390440
Fix,GT,37.3340753,-122.0646161,,27.680405,0.1,292.8633,1591379391440
Fix,GT,37.3341586,-122.0649129,,28.107687,0.1,291.20142,1591379392440
Fix,GT,37.3342352,-122.0652172,,28.467148,0.1,289.20087,1591379393440
Fix,GT,37.3343038,-122.0655282,,28.769545,0.1,287.03964,1591379394440
Fix,GT,37.3343635,-122.0658456,,29.047194,0.1,284.82983,1591379395440
Fix,GT,37.3344144,-122.0661684,,29.289623,0.1,282.9233,1591379396440
Fix,GT,37.3344573,-122.0664956,,29.507835,0.1,281.1604,1591379397440
Fix,GT,37.334492,-122.0668266,,29.709455,0.1,279.09158,1591379398440
Fix,GT,37.3345166,-122.0671612,,29.893253,0.1,276.81674,1591379399440
Fix,GT,37.3345313,-122.0674987,,30.05075,0.1,274.90894,1591379400440
Fix,GT,37.334538,-122.0678383,,30.181461,0.1,273.26242,1591379401440
Fix,GT,37.3345369,-122.0681795,,30.310774,0.1,271.53598,1591379402440
Fix,GT,37.3345266,-122.0685205,,30.165186,0.1,269.30396,1591379403440
Fix,GT,37.3345053,-122.0688576,,29.840477,0.1,267.06323,1591379404440
Fix,GT,37.334475,-122.0691916,,29.815159,0.1,265.36395,1591379405440
Fix,GT,37.3344361,-122.0695246,,29.858082,0.1,263.26056,1591379406440
Fix,GT,37.3343874,-122.0698562,,29.917112,0.1,261.2445,1591379407440
Fix,GT,37.3343313,-122.070187,,30.047657,0.1,260.1797,1591379408440
Fix,GT,37.3342717,-122.0705185,,30.167795,0.1,259.73865,1591379409440
Fix,GT,37.3342103,-122.0708506,,30.256783,0.1,259.433,1591379410440
Fix,GT,37.3341476,-122.0711831,,30.3084,0.1,259.21057,1591379411440
Fix,GT,37.3340839,-122.0715161,,30.367043,0.1,259.06458,1591379412440
Fix,GT,37.3340196,-122.0718492,,30.344597,0.1,259.06268,1591379413440
Fix,GT,37.3339563,-122.0721815,,30.162582,0.1,259.41574,1591379414440
Fix,GT,37.3338953,-122.0725119,,29.928795,0.1,259.87036,1591379415440
Fix,GT,37.3338366,-122.0728403,,29.726706,0.1,260.2146,1591379416440
Fix,GT,37.3337808,-122.0731676,,29.611319,0.1,261.00873,1591379417440
Fix,GT,37.3337306,-122.0734953,,29.511631,0.1,262.59692,1591379418440
Fix,GT,37.3336889,-122.0738233,,29.376755,0.1,264.72385,1591379419440
Fix,GT,37.3336582,-122.0741519,,29.23822,0.1,267.38153,1591379420440
Fix,GT,37.3336401,-122.0744802,,29.101131,0.1,270.08295,1591379421440
Fix,GT,37.3336337,-122.074808,,29.019402,0.1,272.4029,1591379422440
Fix,GT,37.3336371,-122.0751351,,28.978893,0.1,274.40628,1591379423440
Fix,GT,37.33365,-122.0754616,,28.97374,0.1,276.58884,1591379424440
Fix,GT,37.333673,-122.0757874,,29.00013,0.1,278.83713,1591379425440
Fix,GT,37.333706,-122.0761123,,29.059605,0.1,280.96478,1591379426440
Fix,GT,37.3337492,-122.0764363,,29.157627,0.1,283.38763,1591379427440
Fix,GT,37.3338035,-122.076759,,29.294144,0.1,285.7876,1591379428440
Fix,GT,37.3338689,-122.0770802,,29.45123,0.1,288.16293,1591379429440
Fix,GT,37.3339457,-122.0773992,,29.585947,0.1,290.76218,1591379430440
Fix,GT,37.3340338,-122.0777154,,29.736568,0.1,293.06317,1591379431440
Fix,GT,37.3341324,-122.0780286,,29.962517,0.1,295.4351,1591379432440
Fix,GT,37.3342421,-122.078339,,30.207499,0.1,297.71695,1591379433440
Fix,GT,37.3343622,-122.0786464,,30.444324,0.1,299.88068,1591379434440
Fix,GT,37.3344931,-122.0789499,,30.703354,0.1,302.38223,1591379435440
Fix,GT,37.334636,-122.0792484,,30.965645,0.1,304.98398,1591379436440
Fix,GT,37.3347904,-122.0795402,,31.054726,0.1,307.71698,1591379437440
Fix,GT,37.3349563,-122.0798225,,31.04871,0.1,310.4372,1591379438440
Fix,GT,37.3351322,-122.0800961,,31.249252,0.1,312.6441,1591379439440
Fix,GT,37.3353175,-122.0803638,,31.525616,0.1,314.6236,1591379440440
Fix,GT,37.3355109,-122.0806261,,31.726856,0.1,316.13266,1591379441440
Fix,GT,37.335709,-122.0808854,,31.870106,0.1,316.70178,1591379442440
Fix,GT,37.3359096,-122.0811439,,31.987846,0.1,317.0458,1591379443440
Fix,GT,37.3361112,-122.0814015,,31.922892,0.1,317.24734,1591379444440
Fix,GT,37.3363123,-122.0816578,,31.763308,0.1,317.13657,1591379445440
Fix,GT,37.3365118,-122.0819144,,31.734608,0.1,316.80322,1591379446440
Fix,GT,37.3367097,-122.0821725,,31.687569,0.1,316.35474,1591379447440
Fix,GT,37.3369051,-122.0824326,,31.593414,0.1,315.46814,1591379448440
Fix,GT,37.337096,-122.0826958,,31.408806,0.1,314.2992,1591379449440
Fix,GT,37.3372804,-122.0829618,,31.022594,0.1,312.96326,1591379450440
Fix,GT,37.3374569,-122.0832305,,30.723454,0.1,311.4174,1591379451440
Fix,GT,37.3376266,-122.0835036,,30.650154,0.1,309.77567,1591379452440
Fix,GT,37.3377895,-122.083782,,30.562006,0.1,308.13696,1591379453440
Fix,GT,37.3379475,-122.0840642,,30.534037,0.1,307.5061,1591379454440
Fix,GT,37.3381048,-122.0843473,,30.59011,0.1,307.53427,1591379455440
Fix,GT,37.3382628,-122.0846305,,30.653261,0.1,307.64114,1591379456440
Fix,GT,37.3384212,-122.0849143,,30.744532,0.1,307.73816,1591379457440
Fix,GT,37.3385807,-122.0851988,,30.873653,0.1,307.70508,1591379458440
Fix,GT,37.3387406,-122.085485,,31.034958,0.1,307.618,1591379459440
Fix,GT,37.3389009,-122.0857728,,31.161106,0.1,307.5539,1591379460440
Fix,GT,37.3390614,-122.0860617,,31.243328,0.1,307.49344,1591379461440
Fix,GT,37.3392224,-122.0863515,,31.356884,0.1,307.53583,1591379462440
Fix,GT,37.3393846,-122.0866426,,31.568396,0.1,307.6036,1591379463440
Fix,GT,37.339548,-122.0869359,,31.817017,0.1,307.5524,1591379464440
Fix,GT,37.3397122,-122.0872316,,32.008644,0.1,307.41235,1591379465440
Fix,GT,37.3398763,-122.08753,,32.189434,0.1,307.0993,1591379466440
Fix,GT,37.3400394,-122.0878315,,32.367146,0.1,306.4233,1591379467440
Fix,GT,37.3401997,-122.0881374,,32.461533,0.1,305.41034,1591379468440
Fix,GT,37.3403556,-122.088447,,32.392998,0.1,304.38525,1591379469440
Fix,GT,37.340507,-122.0887585,,32.238457,0.1,303.70636,1591379470440
Fix,GT,37.3406557,-122.0890698,,32.05193,0.1,303.48257,1591379471440
Fix,GT,37.3408029,-122.0893799,,31.87798,0.1,303.45663,1591379472440
Fix,GT,37.3409499,-122.0896887,,31.863087,0.1,303.4595,1591379473440
Fix,GT,37.3410975,-122.0899985,,32.098164,0.1,303.6496,1591379474440
Fix,GT,37.3412479,-122.0903103,,32.4523,0.1,304.12463,1591379475440
Fix,GT,37.3414035,-122.0906224,,32.77577,0.1,305.2926,1591379476440
Fix,GT,37.3415672,-122.0909321,,33.04031,0.1,307.05963,1591379477440
Fix,GT,37.3417402,-122.0912372,,33.269817,0.1,309.0445,1591379478440
Fix,GT,37.341923,-122.091536,,33.417686,0.1,311.4015,1591379479440
Fix,GT,37.3421168,-122.091825,,33.4418,0.1,314.2004,1591379480440
Fix,GT,37.3423212,-122.092102,,33.35447,0.1,316.81277,1591379481440
Fix,GT,37.3425334,-122.0923667,,33.12513,0.1,318.82446,1591379482440
Fix,GT,37.3427496,-122.0926223,,32.851795,0.1,319.9798,1591379483440
Fix,GT,37.342967,-122.0928726,,32.687134,0.1,320.24524,1591379484440
Fix,GT,37.343184,-122.0931209,,32.554867,0.1,320.28217,1591379485440
Fix,GT,37.3433999,-122.0933684,,32.427444,0.1,320.19608,1591379486440
Fix,GT,37.343615,-122.0936155,,32.36042,0.1,320.20544,1591379487440
Fix,GT,37.3438296,-122.0938623,,32.320786,0.1,320.06766,1591379488440
Fix,GT,37.3440426,-122.0941105,,32.285812,0.1,319.3803,1591379489440
Fix,GT,37.3442518,-122.0943635,,32.31172,0.1,317.85223,1591379490440
Fix,GT,37.3444543,-122.0946256,,32.371502,0.1,315.59106,1591379491440
Fix,GT,37.3446489,-122.0948979,,32.37652,0.1,313.3269,1591379492440
Fix,GT,37.344834,-122.0951792,,32.22126,0.1,310.79886,1591379493440
Fix,GT,37.3450073,-122.0954691,,32.084824,0.1,308.26743,1591379494440
Fix,GT,37.3451719,-122.0957673,,32.231483,0.1,306.44202,1591379495440
Fix,GT,37.34533,-122.0960738,,32.484287,0.1,304.46707,1591379496440
Fix,GT,37.3454801,-122.09639,,32.758354,0.1,302.24066,1591379497440
Fix,GT,37.3456223,-122.0967154,,33.030556,0.1,300.62994,1591379498440
Fix,GT,37.3457612,-122.0970466,,33.263897,0.1,300.29065,1591379499440
Fix,GT,37.3459016,-122.0973795,,33.48082,0.1,300.80396,1591379500440
Fix,GT,37.3460453,-122.0977133,,33.728905,0.1,301.12515,1591379501440
Fix,GT,37.34619,-122.0980488,,33.822998,0.1,300.87936,1591379502440
Fix,GT,37.3463328,-122.0983849,,33.632504,0.1,300.47034,1591379503440
Fix,GT,37.3464732,-122.0987193,,33.28836,0.1,300.27908,1591379504440
Fix,GT,37.3466115,-122.0990499,,32.85368,0.1,300.42728,1591379505440
Fix,GT,37.346749,-122.0993755,,32.4315,0.1,300.7813,1591379506440
Fix,GT,37.3468859,-122.0996963,,32.03699,0.1,300.82263,1591379507440
Fix,GT,37.3470205,-122.1000137,,31.687805,0.1,300.54724,1591379508440
Fix,GT,37.3471537,-122.100329,,31.565594,0.1,300.59326,1591379509440
Fix,GT,37.3472873,-122.1006432,,31.493011,0.1,300.8078,1591379510440
Fix,GT,37.3474207,-122.1009553,,31.192114,0.1,300.90778,1591379511440
Fix,GT,37.3475538,-122.1012627,,30.764488,0.1,301.50064,1591379512440
Fix,GT,37.3476895,-122.1015631,,30.391344,0.1,302.9021,1591379513440
Fix,GT,37.3478307,-122.1018546,,30.002148,0.1,304.99756,1591379514440
Fix,GT,37.347979,-122.102135,,29.590805,0.1,307.52652,1591379515440
Fix,GT,37.3481348,-122.1024032,,29.189407,0.1,309.98734,1591379516440
Fix,GT,37.3482973,-122.1026598,,28.835835,0.1,312.24725,1591379517440
Fix,GT,37.3484652,-122.102905,,28.405928,0.1,314.36487,1591379518440
Fix,GT,37.3486382,-122.1031373,,27.882898,0.1,317.05035,1591379519440
Fix,GT,37.3488169,-122.1033543,,27.360239,0.1,320.04114,1591379520440
Fix,GT,37.3490002,-122.1035569,,26.899532,0.1,322.35648,1591379521440
Fix,GT,37.3491868,-122.1037481,,26.626694,0.1,324.39807,1591379522440
Fix,GT,37.3493772,-122.1039287,,26.344362,0.1,326.6268,1591379523440
Fix,GT,37.3495708,-122.1040977,,25.989075,0.1,328.9863,1591379524440
Fix,GT,37.3497664,-122.1042552,,25.627537,0.1,330.80978,1591379525440
Fix,GT,37.3499624,-122.1044049,,25.324432,0.1,331.71927,1591379526440
Fix,GT,37.3501574,-122.1045506,,25.084583,0.1,331.98688,1591379527440
Fix,GT,37.3503507,-122.104695,,24.86358,0.1,331.70575,1591379528440
Fix,GT,37.3505416,-122.1048395,,24.669838,0.1,331.39868,1591379529440
Fix,GT,37.3507315,-122.1049844,,24.77171,0.1,331.27695,1591379530440
Fix,GT,37.3509232,-122.1051311,,25.148254,0.1,331.3443,1591379531440
Fix,GT,37.3511181,-122.1052796,,25.412537,0.1,331.4607,1591379532440
Fix,GT,37.351314,-122.1054294,,25.526203,0.1,331.22372,1591379533440
Fix,GT,37.3515094,-122.1055822,,25.62347,0.1,330.36896,1591379534440
Fix,GT,37.351703,-122.1057406,,25.726194,0.1,328.8342,1591379535440
Fix,GT,37.3518934,-122.1059066,,25.793655,0.1,326.987,1591379536440
Fix,GT,37.3520801,-122.1060806,,25.90002,0.1,325.2194,1591379537440
Fix,GT,37.3522633,-122.106263,,26.090094,0.1,323.35693,1591379538440
Fix,GT,37.3524429,-122.1064545,,26.30891,0.1,321.43622,1591379539440
Fix,GT,37.3526196,-122.1066543,,26.568739,0.1,320.067,1591379540440
Fix,GT,37.3527942,-122.1068613,,26.798613,0.1,318.45187,1591379541440
Fix,GT,37.352964,-122.1070776,,26.967464,0.1,316.0419,1591379542440
Fix,GT,37.3531275,-122.1073036,,27.108913,0.1,313.81458,1591379543440
Fix,GT,37.3532852,-122.1075382,,27.271137,0.1,311.84637,1591379544440
Fix,GT,37.353438,-122.1077804,,27.472689,0.1,310.29144,1591379545440
Fix,GT,37.3535868,-122.1080293,,27.661247,0.1,308.8631,1591379546440
Fix,GT,37.353732,-122.1082844,,27.883167,0.1,307.45337,1591379547440
Fix,GT,37.3538726,-122.1085468,,28.128279,0.1,305.63812,1591379548440
Fix,GT,37.3540066,-122.1088176,,28.381552,0.1,303.36798,1591379549440
Fix,GT,37.3541329,-122.1090973,,28.558363,0.1,301.0864,1591379550440
Fix,GT,37.3542507,-122.109383,,28.34509,0.1,299.0064,1591379551440
Fix,GT,37.3543595,-122.1096685,,27.67537,0.1,297.44504,1591379552440
Fix,GT,37.3544596,-122.1099497,,26.905132,0.1,296.01776,1591379553440
Fix,GT,37.3545506,-122.1102264,,26.123642,0.1,294.11435,1591379554440
Fix,GT,37.3546314,-122.1104976,,25.230623,0.1,292.36377,1591379555440
Fix,GT,37.3547041,-122.1107624,,24.458057,0.1,291.05106,1591379556440
Fix,GT,37.3547714,-122.1110221,,23.990334,0.1,290.31403,1591379557440
Fix,GT,37.3548358,-122.1112778,,23.505001,0.1,290.04675,1591379558440
Fix,GT,37.3548985,-122.1115277,,22.915783,0.1,290.18396,1591379559440
Fix,GT,37.3549603,-122.1117714,,22.459126,0.1,290.35873,1591379560440
Fix,GT,37.3550213,-122.1120115,,22.159193,0.1,290.25165,1591379561440
Fix,GT,37.3550809,-122.1122482,,21.811974,0.1,290.1117,1591379562440
Fix,GT,37.3551393,-122.1124811,,21.44408,0.1,290.1053,1591379563440
Fix,GT,37.3551972,-122.112711,,21.28675,0.1,290.28003,1591379564440
Fix,GT,37.355256,-122.1129402,,21.416483,0.1,290.66428,1591379565440
Fix,GT,37.3553171,-122.1131707,,21.622076,0.1,291.37308,1591379566440
Fix,GT,37.3553823,-122.1134027,,21.959545,0.1,292.71826,1591379567440
Fix,GT,37.355454,-122.113636,,22.305775,0.1,294.54007,1591379568440
Fix,GT,37.3555325,-122.1138698,,22.636204,0.1,296.22195,1591379569440
Fix,GT,37.3556175,-122.1141044,,22.975845,0.1,297.80078,1591379570440
Fix,GT,37.3557087,-122.1143395,,23.303307,0.1,299.17606,1591379571440
Fix,GT,37.3558048,-122.1145751,,23.551323,0.1,300.31274,1591379572440
Fix,GT,37.3559058,-122.11481,,23.71074,0.1,301.63486,1591379573440
Fix,GT,37.3560127,-122.1150433,,23.909489,0.1,303.34326,1591379574440
Fix,GT,37.3561268,-122.1152745,,24.28506,0.1,305.31354,1591379575440
Fix,GT,37.3562492,-122.115505,,24.735157,0.1,307.1621,1591379576440
Fix,GT,37.3563792,-122.1157343,,25.085892,0.1,308.8014,1591379577440
Fix,GT,37.3565157,-122.1159617,,25.257896,0.1,310.50998,1591379578440
Fix,GT,37.3566584,-122.1161832,,25.104107,0.1,312.7241,1591379579440
Fix,GT,37.356806,-122.1163945,,24.606731,0.1,314.90717,1591379580440
Fix,GT,37.3569556,-122.1165953,,24.078304,0.1,316.35962,1591379581440
Fix,GT,37.3571054,-122.1167881,,23.678345,0.1,317.4894,1591379582440
Fix,GT,37.3572571,-122.1169749,,23.61724,0.1,318.80066,1591379583440
Fix,GT,37.3574131,-122.1171579,,23.754774,0.1,320.44836,1591379584440
Fix,GT,37.3575743,-122.1173349,,23.793736,0.1,322.48398,1591379585440
Fix,GT,37.3577402,-122.1175044,,23.661106,0.1,324.35074,1591379586440
Fix,GT,37.357909,-122.1176676,,23.688591,0.1,325.62796,1591379587440
Fix,GT,37.3580818,-122.1178277,,24.065874,0.1,326.6334,1591379588440
Fix,GT,37.3582601,-122.1179865,,24.488106,0.1,327.94852,1591379589440
Fix,GT,37.358445,-122.1181415,,24.91391,0.1,329.9043,1591379590440
Fix,GT,37.358637,-122.11829,,25.120083,0.1,332.073,1591379591440
Fix,GT,37.3588337,-122.1184302,,25.043362,0.1,333.9615,1591379592440
Fix,GT,37.3590332,-122.1185635,,25.136234,0.1,335.21176,1591379593440
Fix,GT,37.359236,-122.1186934,,25.438004,0.1,336.02682,1591379594440
Fix,GT,37.3594426,-122.1188218,,25.772383,0.1,336.66602,1591379595440
Fix,GT,37.3596534,-122.1189496,,26.226494,0.1,337.1391,1591379596440
Fix,GT,37.3598689,-122.1190779,,26.703903,0.1,337.51212,1591379597440
Fix,GT,37.3600882,-122.1192074,,27.129917,0.1,337.38385,1591379598440
Fix,GT,37.3603105,-122.1193407,,27.5349,0.1,336.94305,1591379599440
Fix,GT,37.3605349,-122.1194771,,27.803967,0.1,336.8485,1591379600440
Fix,GT,37.3607605,-122.1196144,,27.82968,0.1,336.7032,1591379601440
Fix,GT,37.3609854,-122.1197535,,27.83878,0.1,336.297,1591379602440
Fix,GT,37.3612098,-122.1198944,,27.867008,0.1,336.00787,1591379603440
Fix,GT,37.3614337,-122.1200375,,27.964458,0.1,335.40256,1591379604440
Fix,GT,37.3616574,-122.1201868,,28.351177,0.1,333.87112,1591379605440
Fix,GT,37.3618807,-122.1203476,,28.876587,0.1,331.86826,1591379606440
Fix,GT,37.3621031,-122.1205221,,29.388443,0.1,329.61838,1591379607440
Fix,GT,37.3623234,-122.1207104,,29.850296,0.1,327.2187,1591379608440
Fix,GT,37.3625398,-122.1209138,,30.230965,0.1,324.45877,1591379609440
Fix,GT,37.3627502,-122.1211329,,30.53196,0.1,321.6436,1591379610440
Fix,GT,37.3629547,-122.1213652,,30.781769,0.1,319.46652,1591379611440
Fix,GT,37.3631533,-122.1216091,,30.990494,0.1,317.01733,1591379612440
Fix,GT,37.3633438,-122.1218655,,31.127346,0.1,314.27216,1591379613440
Fix,GT,37.3635256,-122.1221336,,31.214882,0.1,311.76535,1591379614440
Fix,GT,37.363698,-122.1224113,,31.166645,0.1,309.30292,1591379615440
Fix,GT,37.363859,-122.1226976,,30.936234,0.1,306.42792,1591379616440
Fix,GT,37.3640076,-122.1229907,,30.612,0.1,303.90533,1591379617440
Fix,GT,37.3641455,-122.1232874,,30.276829,0.1,302.04776,1591379618440
Fix,GT,37.3642743,-122.1235871,,30.10365,0.1,299.90866,1591379619440
Fix,GT,37.3643925,-122.1238918,,29.95094,0.1,297.26965,1591379620440
Fix,GT,37.3644986,-122.1242005,,29.633907,0.1,294.66354,1591379621440
Fix,GT,37.3645929,-122.1245112,,29.361599,0.1,292.4231,1591379622440
Fix,GT,37.3646769,-122.1248244,,29.245586,0.1,290.0982,1591379623440
Fix,GT,37.36475,-122.1251408,,29.168297,0.1,287.59927,1591379624440
Fix,GT,37.3648122,-122.1254598,,29.039684,0.1,285.29187,1591379625440
Fix,GT,37.3648644,-122.1257802,,28.947454,0.1,283.26,1591379626440
Fix,GT,37.3649072,-122.1261021,,28.932522,0.1,281.04025,1591379627440
Fix,GT,37.3649391,-122.1264261,,28.936155,0.1,278.45224,1591379628440
Fix,GT,37.3649601,-122.1267513,,28.91653,0.1,276.2771,1591379629440
Fix,GT,37.3649727,-122.1270772,,28.925777,0.1,274.70312,1591379630440
Fix,GT,37.3649789,-122.1274035,,28.882153,0.1,273.4759,1591379631440
Fix,GT,37.3649812,-122.127728,,28.531837,0.1,272.98416,1591379632440
Fix,GT,37.3649831,-122.1280455,,27.610939,0.1,273.1377,1591379633440
Fix,GT,37.3649853,-122.1283504,,26.432413,0.1,273.2555,1591379634440
Fix,GT,37.3649874,-122.1286433,,25.537502,0.1,273.2056,1591379635440
Fix,GT,37.36499,-122.1289274,,24.785048,0.1,273.52008,1591379636440
Fix,GT,37.3649944,-122.1292031,,24.04889,0.1,274.11212,1591379637440
Fix,GT,37.3650025,-122.1294711,,23.500591,0.1,275.53604,1591379638440
Fix,GT,37.3650174,-122.1297331,,23.015827,0.1,277.849,1591379639440
Fix,GT,37.3650402,-122.1299885,,22.516136,0.1,280.06107,1591379640440
Fix,GT,37.3650697,-122.1302372,,22.030989,0.1,281.99173,1591379641440
Fix,GT,37.365105,-122.1304806,,21.809341,0.1,283.7868,1591379642440
Fix,GT,37.3651464,-122.1307216,,21.885174,0.1,285.63007,1591379643440
Fix,GT,37.3651949,-122.1309615,,21.942852,0.1,288.0404,1591379644440
Fix,GT,37.3652519,-122.1311991,,22.01169,0.1,290.4558,1591379645440
Fix,GT,37.3653154,-122.1314353,,22.171755,0.1,291.91992,1591379646440
Fix,GT,37.3653833,-122.1316724,,22.449348,0.1,292.79083,1591379647440
Fix,GT,37.3654541,-122.1319114,,22.722408,0.1,293.27792,1591379648440
Fix,GT,37.3655264,-122.1321528,,22.9628,0.1,293.27332,1591379649440
Fix,GT,37.3655992,-122.1323969,,23.20291,0.1,293.11105,1591379650440
Fix,GT,37.3656722,-122.1326437,,23.441994,0.1,293.0243,1591379651440
Fix,GT,37.365746,-122.132893,,23.666424,0.1,293.06693,1591379652440
Fix,GT,37.3658206,-122.1331447,,23.879864,0.1,293.16544,1591379653440
Fix,GT,37.3658965,-122.1333983,,24.09874,0.1,293.40863,1591379654440
Fix,GT,37.3659741,-122.1336536,,24.28926,0.1,293.65906,1591379655440
Fix,GT,37.3660522,-122.1339106,,24.44254,0.1,293.43945,1591379656440
Fix,GT,37.3661298,-122.1341698,,24.60383,0.1,293.15363,1591379657440
Fix,GT,37.3662075,-122.134431,,24.790462,0.1,293.3019,1591379658440
Fix,GT,37.3662867,-122.1346935,,24.916828,0.1,293.5197,1591379659440
Fix,GT,37.3663665,-122.1349566,,24.930485,0.1,293.3928,1591379660440
Fix,GT,37.3664453,-122.1352198,,24.881107,0.1,293.1764,1591379661440
Fix,GT,37.3665237,-122.1354826,,24.81136,0.1,293.2961,1591379662440
Fix,GT,37.3666025,-122.1357445,,24.758797,0.1,293.4021,1591379663440
Fix,GT,37.3666809,-122.1360059,,24.734291,0.1,293.19226,1591379664440
Fix,GT,37.3667585,-122.1362674,,24.728703,0.1,292.96838,1591379665440
Fix,GT,37.3668361,-122.1365292,,24.764042,0.1,293.1949,1591379666440
Fix,GT,37.3669159,-122.1367908,,24.869858,0.1,294.09955,1591379667440
Fix,GT,37.3670004,-122.1370522,,25.105724,0.1,295.31644,1591379668440
Fix,GT,37.3670908,-122.1373142,,25.478037,0.1,296.81113,1591379669440
Fix,GT,37.3671888,-122.1375769,,25.885105,0.1,298.69003,1591379670440
Fix,GT,37.3672955,-122.1378395,,26.286037,0.1,300.601,1591379671440
Fix,GT,37.3674104,-122.1381015,,26.649982,0.1,302.28235,1591379672440
Fix,GT,37.3675329,-122.1383624,,26.980934,0.1,304.1697,1591379673440
Fix,GT,37.3676641,-122.1386208,,27.27671,0.1,306.12573,1591379674440
Fix,GT,37.3678033,-122.1388766,,27.540506,0.1,307.77634,1591379675440
Fix,GT,37.3679493,-122.1391296,,27.715607,0.1,309.40613,1591379676440
Fix,GT,37.3681013,-122.1393775,,27.611708,0.1,311.11856,1591379677440
Fix,GT,37.368258,-122.139618,,27.41615,0.1,312.81012,1591379678440
Fix,GT,37.3684199,-122.139852,,27.457108,0.1,314.37817,1591379679440
Fix,GT,37.3685875,-122.1400813,,27.607492,0.1,316.03998,1591379680440
Fix,GT,37.3687613,-122.1403046,,27.619099,0.1,317.98718,1591379681440
Fix,GT,37.3689404,-122.1405196,,27.379395,0.1,319.97983,1591379682440
Fix,GT,37.369123,-122.1407247,,27.01486,0.1,321.76526,1591379683440
Fix,GT,37.3693084,-122.1409199,,26.773537,0.1,323.58057,1591379684440
Fix,GT,37.3694978,-122.141107,,26.79267,0.1,325.3498,1591379685440
Fix,GT,37.3696916,-122.1412884,,26.925262,0.1,326.44424,1591379686440
Fix,GT,37.3698882,-122.141468,,27.025478,0.1,326.7014,1591379687440
Fix,GT,37.3700855,-122.1416475,,27.107784,0.1,326.91025,1591379688440
Fix,GT,37.3702847,-122.1418264,,27.341137,0.1,327.26242,1591379689440
Fix,GT,37.3704868,-122.1420066,,27.709572,0.1,327.27286,1591379690440
Fix,GT,37.370691,-122.14219,,28.058207,0.1,326.97314,1591379691440
Fix,GT,37.370897,-122.142377,,28.410788,0.1,326.7402,1591379692440
Fix,GT,37.3711055,-122.1425668,,28.789705,0.1,326.74863,1591379693440
Fix,GT,37.3713168,-122.142759,,29.183136,0.1,326.8226,1591379694440
Fix,GT,37.3715309,-122.1429532,,29.44422,0.1,326.95807,1591379695440
Fix,GT,37.3717464,-122.1431477,,29.487345,0.1,327.05176,1591379696440
Fix,GT,37.3719623,-122.143342,,29.51927,0.1,327.01953,1591379697440
Fix,GT,37.3721784,-122.1435367,,29.494436,0.1,326.9633,1591379698440
Fix,GT,37.3723932,-122.1437313,,29.328106,0.1,326.91483,1591379699440
Fix,GT,37.3726076,-122.1439245,,29.278313,0.1,327.17908,1591379700440
Fix,GT,37.3728223,-122.1441164,,29.185944,0.1,327.28607,1591379701440
Fix,GT,37.3730358,-122.1443072,,28.980587,0.1,327.25232,1591379702440
Fix,GT,37.3732479,-122.1444964,,28.80933,0.1,327.30945,1591379703440
Fix,GT,37.3734587,-122.1446846,,28.66328,0.1,327.19107,1591379704440
