MessageType,Provider,LatitudeDegrees,LongitudeDegrees,AltitudeMeters,SpeedMps,AccuracyMeters,BearingDegrees,UnixTimeMillis
Fix,GT,37.4243447,-122.0918665,,0.0021017473,0.1,76.52307,1590084559431
Fix,GT,37.4243447,-122.0918665,,0.002565329,0.1,76.52289,1590084560431
Fix,GT,37.4243447,-122.0918665,,0.003,0.1,76.52295,1590084561431
Fix,GT,37.4243447,-122.0918665,,0.0029260507,0.1,76.5231,1590084562431
Fix,GT,37.4243447,-122.0918665,,0.0025731153,0.1,76.5228,1590084563431
Fix,GT,37.4243447,-122.0918665,,0.0017033122,0.1,76.52258,1590084564431
Fix,GT,37.4243447,-122.0918665,,0.0017880674,0.1,76.52258,1590084565431
Fix,GT,37.4243447,-122.0918665,,0.0029723195,0.1,76.52197,1590084566431
Fix,GT,37.4243447,-122.0918665,,0.0022303178,0.1,76.52127,1590084567431
Fix,GT,37.4243447,-122.0918665,,0.0014310086,0.1,76.52081,1590084568431
Fix,GT,37.4243447,-122.0918665,,0.0017475212,0.1,76.52048,1590084569431
Fix,GT,37.4243447,-122.0918665,,0.0014142136,0.1,76.52002,1590084570431
Fix,GT,37.4243447,-122.0918665,,0.002167644,0.1,76.519745,1590084571431
Fix,GT,37.4243447,-122.0918665,,0.0026613262,0.1,76.51996,1590084572431
Fix,GT,37.4243447,-122.0918665,,0.0015689917,0.1,76.52008,1590084573431
Fix,GT,37.4243447,-122.0918665,,0.001,0.1,76.51984,1590084574431
Fix,GT,37.4243447,-122.0918665,,0.001,0.1,76.51892,1590084575431
Fix,GT,37.4243447,-122.0918665,,0.001,0.1,76.5181,1590084576431
Fix,GT,37.4243447,-122.0918665,,0.0011785296,0.1,76.517914,1590084577431
Fix,GT,37.4243447,-122.0918665,,0.0014142136,0.1,76.518036,1590084578431
Fix,GT,37.4243447,-122.0918665,,0.0017684398,0.1,76.51752,1590084579431
Fix,GT,37.4243447,-122.0918665,,0.0021343208,0.1,76.516846,1590084580431
Fix,GT,37.4243447,-122.0918665,,0.0021017473,0.1,76.51657,1590084581431
Fix,GT,37.4243447,-122.0918665,,0.002565329,0.1,76.51611,1590084582431
Fix,GT,37.4243447,-122.0918665,,0.0023165126,0.1,76.5159,1590084583431
Fix,GT,37.4243447,-122.0918665,,0.001235684,0.1,76.51544,1590084584431
Fix,GT,37.4243447,-122.0918665,,0.001,0.1,76.51544,1590084585431
Fix,GT,37.4243447,-122.0918665,,0.0011785296,0.1,76.51517,1590084586431
Fix,GT,37.4243447,-122.0918665,,0.001235684,0.1,76.51459,1590084587431
Fix,GT,37.4243447,-122.0918665,,0.00056899164,0.1,76.51462,1590084588431
Fix,GT,37.4243447,-122.0918665,,0.00043100843,0.1,76.51428,1590084589431
Fix,GT,37.4243447,-122.0918665,,0.00056899164,0.1,76.51349,1590084590431
Fix,GT,37.4243447,-122.0918665,,0.0015540229,0.1,76.51276,1590084591431
Fix,GT,37.4243447,-122.0918665,,0.0030152923,0.1,76.51294,1590084592431
Fix,GT,37.4243447,-122.0918665,,0.003199832,0.1,76.51315,1590084593431
Fix,GT,37.4243447,-122.0918665,,0.003907576,0.1,76.51285,1590084594431
Fix,GT,37.4243447,-122.0918665,,0.0035764026,0.1,76.512665,1590084595431
Fix,GT,37.4243447,-122.0918665,,0.0036390377,0.1,76.512054,1590084596431
Fix,GT,37.4243447,-122.0918665,,0.0023165126,0.1,76.51141,1590084597431
Fix,GT,37.4243447,-122.0918665,,0.001235684,0.1,76.510376,1590084598431
Fix,GT,37.4243447,-122.0918665,,0.001,0.1,76.50949,1590084599431
Fix,GT,37.4243447,-122.0918665,,0.0011785296,0.1,76.50934,1590084600431
Fix,GT,37.4243447,-122.0918665,,0.0012356841,0.1,76.5094,1590084601431
Fix,GT,37.4243447,-122.0918665,,0.001,0.1,76.509,1590084602431
Fix,GT,37.4243447,-122.0918665,,0.0018620167,0.1,76.50888,1590084603431
Fix,GT,37.4243447,-122.0918665,,0.002670739,0.1,76.50864,1590084604431
Fix,GT,37.4243447,-122.0918665,,0.002236068,0.1,76.50818,1590084605431
Fix,GT,37.4243447,-122.0918665,,0.0028263268,0.1,76.50769,1590084606431
Fix,GT,37.4243447,-122.0918665,,0.0030152926,0.1,76.507385,1590084607431
Fix,GT,37.4243447,-122.0918665,,0.0017033124,0.1,76.50687,1590084608431
Fix,GT,37.4243447,-122.0918665,,0.0011785296,0.1,76.506226,1590084609431
Fix,GT,37.4243447,-122.0918665,,0.0012356841,0.1,76.506134,1590084610431
Fix,GT,37.4243447,-122.0918665,,0.0015327557,0.1,76.50595,1590084611431
Fix,GT,37.4243447,-122.0918665,,0.0024913796,0.1,76.50568,1590084612431
Fix,GT,37.4243447,-122.0918665,,0.0028284271,0.1,76.50519,1590084613431
Fix,GT,37.4243447,-122.0918665,,0.0024713683,0.1,76.50479,1590084614431
Fix,GT,37.4243447,-122.0918665,,0.0017475212,0.1,76.50464,1590084615431
Fix,GT,37.4243447,-122.0918665,,0.0017684397,0.1,76.50427,1590084616431
Fix,GT,37.4243447,-122.0918665,,0.0017033124,0.1,76.50403,1590084617431
Fix,GT,37.4243447,-122.0918665,,0.001,0.1,76.50372,1590084618431
Fix,GT,37.4243447,-122.0918665,,0.0015327556,0.1,76.50348,1590084619431
Fix,GT,37.4243447,-122.0918665,,0.0018818419,0.1,76.503235,1590084620431
Fix,GT,37.4243447,-122.0918665,,0.0017684397,0.1,76.50247,1590084621431
Fix,GT,37.4243447,-122.0918665,,0.0017033124,0.1,76.502106,1590084622431
Fix,GT,37.4243447,-122.0918665,,0.001,0.1,76.50226,1590084623431
Fix,GT,37.4243447,-122.0918665,,0.0005689917,0.1,76.50198,1590084624431
Fix,GT,37.4243447,-122.0918665,,0.0,0.1,76.501526,1590084625431
Fix,GT,37.4243447,-122.0918665,,0.0,0.1,76.501465,1590084626431
Fix,GT,37.4243447,-122.0918665,,0.00043100832,0.1,76.50168,1590084627431
Fix,GT,37.4243447,-122.0918665,,0.0015327556,0.1,76.50171,1590084628431
Fix,GT,37.4243447,-122.0918665,,0.002236068,0.1,76.501465,1590084629431
Fix,GT,37.4243447,-122.0918665,,0.0021343208,0.1,76.5011,1590084630431
Fix,GT,37.4243447,-122.0918665,,0.002,0.1,76.50073,1590084631431
Fix,GT,37.4243447,-122.0918665,,0.002,0.1,76.50058,1590084632431
Fix,GT,37.4243447,-122.0918665,,0.0021017473,0.1,76.5004,1590084633431
Fix,GT,37.4243447,-122.0918665,,0.0017033124,0.1,76.50003,1590084634431
Fix,GT,37.4243447,-122.0918665,,0.0011785296,0.1,76.499756,1590084635431
Fix,GT,37.4243447,-122.0918665,,0.001235684,0.1,76.4996,1590084636431
Fix,GT,37.4243447,-122.0918665,,0.0011785296,0.1,76.4993,1590084637431
Fix,GT,37.4243447,-122.0918665,,0.001235684,0.1,76.49893,1590084638431
Fix,GT,37.4243447,-122.0918665,,0.001,0.1,76.498535,1590084639431
Fix,GT,37.4243447,-122.0918665,,0.001,0.1,76.497925,1590084640431
Fix,GT,37.4243447,-122.0918665,,0.001,0.1,76.497314,1590084641431
Fix,GT,37.4243447,-122.0918665,,0.0015327556,0.1,76.49707,1590084642431
Fix,GT,37.4243447,-122.0918665,,0.0017033124,0.1,76.49722,1590084643431
Fix,GT,37.4243447,-122.0918665,,0.001,0.1,76.497314,1590084644431
Fix,GT,37.4243447,-122.0918665,,0.001,0.1,76.497314,1590084645431
Fix,GT,37.4243447,-122.0918665,,0.0011785296,0.1,76.497406,1590084646431
Fix,GT,37.4243447,-122.0918665,,0.001235684,0.1,76.49744,1590084647431
Fix,GT,37.4243447,-122.0918665,,0.0011785296,0.1,76.497314,1590084648431
Fix,GT,37.4243447,-122.0918665,,0.0017684397,0.1,76.49722,1590084649431
Fix,GT,37.4243447,-122.0918665,,0.0017033124,0.1,76.4971,1590084650431
Fix,GT,37.4243447,-122.0918665,,0.001,0.1,76.49664,1590084651431
Fix,GT,37.4243447,-122.0918665,,0.001,0.1,76.49631,1590084652431
Fix,GT,37.4243447,-122.0918665,,0.0005689917,0.1,76.4964,1590084653431
Fix,GT,37.4243447,-122.0918665,,0.00043100832,0.1,76.49609,1590084654431
Fix,GT,37.4243447,-122.0918665,,0.0014310083,0.1,76.495514,1590084655431
Fix,GT,37.4243447,-122.0918665,,0.0015689917,0.1,76.49548,1590084656431
Fix,GT,37.4243447,-122.0918665,,0.0011785296,0.1,76.49521,1590084657431
Fix,GT,37.4243447,-122.0918665,,0.0017684395,0.1,76.494934,1590084658431
Fix,GT,37.4243447,-122.0918665,,0.001881842,0.1,76.49478,1590084659431
Fix,GT,37.4243447,-122.0918665,,0.0014142136,0.1,76.49451,1590084660431
Fix,GT,37.4243447,-122.0918665,,0.0025817684,0.1,76.49393,1590084661431
Fix,GT,37.4243447,-122.0918665,,0.0035650884,0.1,76.49368,1590084662431
Fix,GT,37.4243447,-122.0918665,,0.0025731155,0.1,76.49344,1590084663431
Fix,GT,37.4243447,-122.0918665,,0.0024913796,0.1,76.49286,1590084664431
Fix,GT,37.4243447,-122.0918665,,0.0025731155,0.1,76.49246,1590084665431
Fix,GT,37.4243447,-122.0918665,,0.0017033126,0.1,76.49225,1590084666431
Fix,GT,37.4243447,-122.0918665,,0.0015327556,0.1,76.49191,1590084667431
Fix,GT,37.4243447,-122.0918665,,0.002635272,0.1,76.491516,1590084668431
Fix,GT,37.4243447,-122.0918665,,0.0031622776,0.1,76.49094,1590084669431
Fix,GT,37.4243447,-122.0918665,,0.0033533322,0.1,76.49011,1590084670431
Fix,GT,37.4243447,-122.0918665,,0.0032706042,0.1,76.48944,1590084671431
Fix,GT,37.4243447,-122.0918665,,0.0025731155,0.1,76.48938,1590084672431
Fix,GT,37.4243447,-122.0918665,,0.002236068,0.1,76.48895,1590084673431
Fix,GT,37.4243447,-122.0918665,,0.002236068,0.1,76.48859,1590084674431
Fix,GT,37.4243447,-122.0918665,,0.0017033125,0.1,76.48859,1590084675431
Fix,GT,37.4243447,-122.0918665,,0.0019319593,0.1,76.48822,1590084676431
Fix,GT,37.4243447,-122.0918665,,0.0027630737,0.1,76.48779,1590084677431
Fix,GT,37.4243447,-122.0918665,,0.0026352718,0.1,76.48724,1590084678431
Fix,GT,37.4243447,-122.0918665,,0.0024088477,0.1,76.486694,1590084679431
Fix,GT,37.4243447,-122.0918665,,0.0017684395,0.1,76.48663,1590084680431
Fix,GT,37.4243447,-122.0918665,,0.0017033126,0.1,76.48639,1590084681431
Fix,GT,37.4243447,-122.0918665,,0.0019319593,0.1,76.48572,1590084682431
Fix,GT,37.4243447,-122.0918665,,0.002763074,0.1,76.48517,1590084683431
Fix,GT,37.4243447,-122.0918665,,0.0017033127,0.1,76.48483,1590084684431
Fix,GT,37.4243447,-122.0918665,,0.0014310082,0.1,76.484406,1590084685431
Fix,GT,37.4243447,-122.0918665,,0.0011379839,0.1,76.4837,1590084686431
Fix,GT,37.4243447,-122.0918665,,0.0009637635,0.1,76.4834,1590084687431
Fix,GT,37.4243447,-122.0918665,,0.002236068,0.1,76.48367,1590084688431
Fix,GT,37.4243447,-122.0918665,,0.0024913796,0.1,76.48364,1590084689431
Fix,GT,37.4243447,-122.0918665,,0.0029723193,0.1,76.48337,1590084690431
Fix,GT,37.4243447,-122.0918665,,0.0033533322,0.1,76.483154,1590084691431
Fix,GT,37.4243447,-122.0918665,,0.002661067,0.1,76.48279,1590084692431
Fix,GT,37.4243447,-122.0918665,,0.0012356841,0.1,76.48233,1590084693431
Fix,GT,37.4243447,-122.0918665,,0.0011785295,0.1,76.48193,1590084694431
Fix,GT,37.4243447,-122.0918665,,0.0012356841,0.1,76.48172,1590084695431
Fix,GT,37.4243447,-122.0918665,,0.0011785295,0.1,76.4812,1590084696431
Fix,GT,37.4243447,-122.0918665,,0.0012356841,0.1,76.480896,1590084697431
Fix,GT,37.4243447,-122.0918665,,0.0015327553,0.1,76.480896,1590084698431
Fix,GT,37.4243447,-122.0918665,,0.0017033126,0.1,76.48053,1590084699431
Fix,GT,37.4243447,-122.0918665,,0.0011785295,0.1,76.47974,1590084700431
Fix,GT,37.4243447,-122.0918665,,0.0016666923,0.1,76.47876,1590084701431
Fix,GT,37.4243447,-122.0918665,,0.002,0.1,76.478546,1590084702431
Fix,GT,37.4243447,-122.0918665,,0.0021017473,0.1,76.47876,1590084703431
Fix,GT,37.4243447,-122.0918665,,0.0017033126,0.1,76.478516,1590084704431
Fix,GT,37.4243447,-122.0918665,,0.00056899193,0.1,76.47797,1590084705431
Fix,GT,37.4243447,-122.0918665,,0.0006095375,0.1,76.47766,1590084706431
Fix,GT,37.4243447,-122.0918665,,0.0017684395,0.1,76.4772,1590084707431
Fix,GT,37.4243447,-122.0918665,,0.002236068,0.1,76.476715,1590084708431
Fix,GT,37.4243447,-122.0918665,,0.002565329,0.1,76.476105,1590084709431
Fix,GT,37.4243447,-122.0918665,,0.002137984,0.1,76.47604,1590084710431
Fix,GT,37.4243447,-122.0918665,,0.001,0.1,76.47577,1590084711431
Fix,GT,37.4243447,-122.0918665,,0.001,0.1,76.47516,1590084712431
Fix,GT,37.4243447,-122.0918665,,0.001,0.1,76.47452,1590084713431
Fix,GT,37.4243447,-122.0918665,,0.001,0.1,76.474,1590084714431
Fix,GT,37.4243447,-122.0918665,,0.0015327553,0.1,76.47357,1590084715431
Fix,GT,37.4243447,-122.0918665,,0.0026352718,0.1,76.47333,1590084716431
Fix,GT,37.4243447,-122.0918665,,0.002408848,0.1,76.473175,1590084717431
Fix,GT,37.4243447,-122.0918665,,0.0014142136,0.1,76.47272,1590084718431
Fix,GT,37.4243447,-122.0918665,,0.0017684395,0.1,76.47235,1590084719431
Fix,GT,37.4243447,-122.0918665,,0.002236068,0.1,76.47217,1590084720431
Fix,GT,37.4243447,-122.0918665,,0.001881842,0.1,76.471344,1590084721431
Fix,GT,37.4243447,-122.0918665,,0.002023751,0.1,76.470764,1590084722431
Fix,GT,37.4243447,-122.0918665,,0.0025731153,0.1,76.47064,1590084723431
Fix,GT,37.4243447,-122.0918665,,0.0012723046,0.1,76.470184,1590084724431
Fix,GT,37.4243447,-122.0918665,,0.00043100808,0.1,76.46942,1590084725431
Fix,GT,37.4243447,-122.0918665,,0.0018620163,0.1,76.46912,1590084726431
Fix,GT,37.4243447,-122.0918665,,0.003,0.1,76.46887,1590084727431
Fix,GT,37.4243447,-122.0918665,,0.002670739,0.1,76.46863,1590084728431
Fix,GT,37.4243447,-122.0918665,,0.001881842,0.1,76.46854,1590084729431
Fix,GT,37.4243447,-122.0918665,,0.0014142136,0.1,76.46832,1590084730431
Fix,GT,37.4243447,-122.0918665,,0.0014142136,0.1,76.46771,1590084731431
Fix,GT,37.4243447,-122.0918665,,0.0017684394,0.1,76.4671,1590084732431
Fix,GT,37.4243447,-122.0918665,,0.0021343208,0.1,76.46646,1590084733431
Fix,GT,37.4243447,-122.0918665,,0.0015689919,0.1,76.46539,1590084734431
Fix,GT,37.4243447,-122.0918665,,0.001,0.1,76.464966,1590084735431
Fix,GT,37.4243447,-122.0918665,,0.0017880669,0.1,76.46481,1590084736431
Fix,GT,37.4243447,-122.0918665,,0.0022188895,0.1,76.46411,1590084737431
Fix,GT,37.4243447,-122.0918665,,0.0016666923,0.1,76.46344,1590084738431
Fix,GT,37.4243447,-122.0918665,,0.001568992,0.1,76.46332,1590084739431
Fix,GT,37.4243447,-122.0918665,,0.0015327553,0.1,76.46301,1590084740431
Fix,GT,37.4243447,-122.0918665,,0.002565329,0.1,76.4624,1590084741431
Fix,GT,37.4243447,-122.0918665,,0.0032609976,0.1,76.46179,1590084742431
Fix,GT,37.4243447,-122.0918665,,0.0034144968,0.1,76.46149,1590084743431
Fix,GT,37.4243447,-122.0918665,,0.002408848,0.1,76.461,1590084744431
Fix,GT,37.4243447,-122.0918665,,0.0014142136,0.1,76.46063,1590084745431
Fix,GT,37.4243447,-122.0918665,,0.0008046762,0.1,76.46039,1590084746431
Fix,GT,37.4243447,-122.0918665,,0.0009637632,0.1,76.459595,1590084747431
Fix,GT,37.4243447,-122.0918665,,0.0018818422,0.1,76.45917,1590084748431
Fix,GT,37.4243447,-122.0918665,,0.0008046762,0.1,76.45886,1590084749431
Fix,GT,37.4243447,-122.0918665,,0.0,0.1,76.45868,1590084750431
Fix,GT,37.4243447,-122.0918665,,0.001293024,0.1,76.45859,1590084751431
Fix,GT,37.4243447,-122.0918665,,0.0026707393,0.1,76.458496,1590084752431
Fix,GT,37.4243447,-122.0918665,,0.0021343208,0.1,76.45813,1590084753431
Fix,GT,37.4243447,-122.0918665,,0.0015689922,0.1,76.45801,1590084754431
Fix,GT,37.4243447,-122.0918665,,0.001,0.1,76.45801,1590084755431
Fix,GT,37.4243447,-122.0918665,,0.0011785293,0.1,76.45752,1590084756431
Fix,GT,37.4243447,-122.0918665,,0.0020977003,0.1,76.45697,1590084757431
Fix,GT,37.4243447,-122.0918665,,0.003069943,0.1,76.45676,1590084758431
Fix,GT,37.4243447,-122.0918665,,0.0024088481,0.1,76.45648,1590084759431
Fix,GT,37.4243447,-122.0918665,,0.0014142136,0.1,76.45615,1590084760431
Fix,GT,37.4243447,-122.0918665,,0.0014142136,0.1,76.45563,1590084761431
Fix,GT,37.4243447,-122.0918665,,0.0017684393,0.1,76.454865,1590084762431
Fix,GT,37.4243447,-122.0918665,,0.0024913796,0.1,76.45456,1590084763431
Fix,GT,37.4243447,-122.0918665,,0.0028284271,0.1,76.45413,1590084764431
Fix,GT,37.4243447,-122.0918665,,0.0025731155,0.1,76.4534,1590084765431
Fix,GT,37.4243447,-122.0918665,,0.0026352718,0.1,76.45276,1590084766431
Fix,GT,37.4243447,-122.0918665,,0.0024088481,0.1,76.45212,1590084767431
Fix,GT,37.4243447,-122.0918665,,0.0017684393,0.1,76.45163,1590084768431
Fix,GT,37.4243447,-122.0918665,,0.002236068,0.1,76.451324,1590084769431
Fix,GT,37.4243447,-122.0918665,,0.0018818423,0.1,76.45148,1590084770431
Fix,GT,37.4243447,-122.0918665,,0.0012356843,0.1,76.451355,1590084771431
Fix,GT,37.4243447,-122.0918665,,0.001,0.1,76.4509,1590084772431
Fix,GT,37.4243447,-122.0918665,,0.001431008,0.1,76.450745,1590084773431
Fix,GT,37.4243447,-122.0918665,,0.002,0.1,76.45065,1590084774431
Fix,GT,37.4243447,-122.0918665,,0.0021017473,0.1,76.45062,1590084775431
Fix,GT,37.4243447,-122.0918665,,0.0026352718,0.1,76.45044,1590084776431
Fix,GT,37.4243447,-122.0918665,,0.002230319,0.1,76.45029,1590084777431
Fix,GT,37.4243447,-122.0918665,,0.001431008,0.1,76.450134,1590084778431
Fix,GT,37.4243447,-122.0918665,,0.002431008,0.1,76.45026,1590084779431
Fix,GT,37.4243447,-122.0918665,,0.0021379844,0.1,76.44995,1590084780431
Fix,GT,37.4243447,-122.0918665,,0.001,0.1,76.449066,1590084781431
Fix,GT,37.4243447,-122.0918665,,0.0021230131,0.1,76.44821,1590084782431
Fix,GT,37.4243447,-122.0918665,,0.0034144968,0.1,76.44751,1590084783431
Fix,GT,37.4243447,-122.0918665,,0.0031622774,0.1,76.447205,1590084784431
Fix,GT,37.4243447,-122.0918665,,0.0030923346,0.1,76.447205,1590084785431
Fix,GT,37.4243447,-122.0918665,,0.0026707393,0.1,76.44696,1590084786431
Fix,GT,37.4243447,-122.0918665,,0.0018818423,0.1,76.4469,1590084787431
Fix,GT,37.4243447,-122.0918665,,0.0014142136,0.1,76.446594,1590084788431
Fix,GT,37.4243447,-122.0918665,,0.0008046765,0.1,76.44595,1590084789431
Fix,GT,37.4243447,-122.0918665,,0.00043100782,0.1,76.446014,1590084790431
Fix,GT,37.4243447,-122.0918665,,0.001532755,0.1,76.446075,1590084791431
Fix,GT,37.4243447,-122.0918665,,0.0025653287,0.1,76.44595,1590084792431
Fix,GT,37.4243447,-122.0918665,,0.0017069766,0.1,76.44571,1590084793431
Fix,GT,37.4243447,-122.0918665,,0.00060953706,0.1,76.445496,1590084794431
Fix,GT,37.4243447,-122.0918665,,0.0017684393,0.1,76.44519,1590084795431
Fix,GT,37.4243447,-122.0918665,,0.002826326,0.1,76.44473,1590084796431
Fix,GT,37.4243447,-122.0918665,,0.0036055516,0.1,76.44449,1590084797431
Fix,GT,37.4243447,-122.0918665,,0.0029135463,0.1,76.44412,1590084798431
Fix,GT,37.4243447,-122.0918665,,0.0017475216,0.1,76.44412,1590084799431
Fix,GT,37.4243447,-122.0918665,,0.0017684393,0.1,76.444244,1590084800431
Fix,GT,37.4243447,-122.0918665,,0.0017033131,0.1,76.443665,1590084801431
Fix,GT,37.4243447,-122.0918665,,0.0021230131,0.1,76.44321,1590084802431
Fix,GT,37.4243447,-122.0918665,,0.0029135465,0.1,76.44275,1590084803431
Fix,GT,37.4243447,-122.0918665,,0.0021017473,0.1,76.44205,1590084804431
Fix,GT,37.4243447,-122.0918665,,0.002134321,0.1,76.44174,1590084805431
Fix,GT,37.4243447,-122.0918665,,0.0026920051,0.1,76.44174,1590084806431
Fix,GT,37.4243447,-122.0918665,,0.0036055516,0.1,76.44116,1590084807431
Fix,GT,37.4243447,-122.0918665,,0.003270605,0.1,76.44055,1590084808431
Fix,GT,37.4243447,-122.0918665,,0.0022188902,0.1,76.440765,1590084809431
Fix,GT,37.4243447,-122.0918665,,0.0016666921,0.1,76.44061,1590084810431
Fix,GT,37.4243447,-122.0918665,,0.002,0.1,76.44028,1590084811431
Fix,GT,37.4243447,-122.0918665,,0.0015689924,0.1,76.440155,1590084812431
Fix,GT,37.4243447,-122.0918665,,0.001,0.1,76.43994,1590084813431
Fix,GT,37.4243447,-122.0918665,,0.0015327549,0.1,76.43985,1590084814431
Fix,GT,37.4243447,-122.0918665,,0.0012723054,0.1,76.439575,1590084815431
Fix,GT,37.4243447,-122.0918665,,0.0,0.1,76.43927,1590084816431
Fix,GT,37.4243447,-122.0918665,,0.00096376264,0.1,76.43915,1590084817431
Fix,GT,37.4243447,-122.0918665,,0.0017033131,0.1,76.438934,1590084818431
Fix,GT,37.4243447,-122.0918665,,0.0015327549,0.1,76.43866,1590084819431
Fix,GT,37.4243447,-122.0918665,,0.0024913794,0.1,76.43848,1590084820431
Fix,GT,37.4243447,-122.0918665,,0.0024713688,0.1,76.43848,1590084821431
Fix,GT,37.4243447,-122.0918665,,0.0030655097,0.1,76.43829,1590084822431
Fix,GT,37.4243447,-122.0918665,,0.0042686416,0.1,76.4375,1590084823431
Fix,GT,37.4243447,-122.0918665,,0.0034950431,0.1,76.43692,1590084824431
Fix,GT,37.4243447,-122.0918665,,0.0029723193,0.1,76.43683,1590084825431
Fix,GT,37.4243447,-122.0918665,,0.0035764019,0.1,76.43649,1590084826431
Fix,GT,37.4243447,-122.0918665,,0.0037089814,0.1,76.43616,1590084827431
Fix,GT,37.4243447,-122.0918665,,0.002661327,0.1,76.43628,1590084828431
Fix,GT,37.4243447,-122.0918665,,0.0015689923,0.1,76.43634,1590084829431
Fix,GT,37.4243447,-122.0918665,,0.0011785292,0.1,76.43646,1590084830431
Fix,GT,37.4243447,-122.0918665,,0.0014142136,0.1,76.436035,1590084831431
Fix,GT,37.4243447,-122.0918665,,0.0014142136,0.1,76.43509,1590084832431
Fix,GT,37.4243447,-122.0918665,,0.0014142136,0.1,76.43436,1590084833431
Fix,GT,37.4243447,-122.0918665,,0.0016666921,0.1,76.43396,1590084834431
Fix,GT,37.4243447,-122.0918665,,0.0025009506,0.1,76.433624,1590084835431
Fix,GT,37.4243447,-122.0918665,,0.0061308853,0.1,76.43393,1590084836431
Fix,GT,37.4243447,-122.0918665,,0.007645827,0.1,76.43396,1590084837431
Fix,GT,37.4243447,-122.0918665,,0.0052705426,0.1,76.43289,1590084838431
Fix,GT,37.4243447,-122.0918665,,0.0055261482,0.1,76.432434,1590084839431
Fix,GT,37.4243447,-122.0918665,,0.005057796,0.1,76.431274,1590084840431
Fix,GT,37.4243447,-122.0918665,,0.004871787,0.1,76.42963,1590084841431
Fix,GT,37.4243447,-122.0918665,,0.0032706046,0.1,76.42908,1590084842431
Fix,GT,37.4243447,-122.0918665,,0.0028284271,0.1,76.42923,1590084843431
Fix,GT,37.4243447,-122.0918665,,0.0029723193,0.1,76.429565,1590084844431
Fix,GT,37.4243447,-122.0918665,,0.0033533322,0.1,76.429565,1590084845431
Fix,GT,37.4243447,-122.0918665,,0.0038286215,0.1,76.42917,1590084846431
Fix,GT,37.4243447,-122.0918665,,0.004501054,0.1,76.428894,1590084847431
Fix,GT,37.4243447,-122.0918665,,0.005,0.1,76.428925,1590084848431
Fix,GT,37.4243447,-122.0918665,,0.005166009,0.1,76.42883,1590084849431
Fix,GT,37.4243447,-122.0918665,,0.005219156,0.1,76.42862,1590084850431
Fix,GT,37.4243447,-122.0918665,,0.005,0.1,76.42822,1590084851431
Fix,GT,37.4243447,-122.0918665,,0.0047724866,0.1,76.42807,1590084852431
Fix,GT,37.4243447,-122.0918665,,0.004472136,0.1,76.42798,1590084853431
Fix,GT,37.4243447,-122.0918665,,0.0054358984,0.1,76.427734,1590084854431
Fix,GT,37.4243447,-122.0918665,,0.0059719547,0.1,76.42706,1590084855431
Fix,GT,37.4243447,-122.0918665,,0.004622052,0.1,76.42624,1590084856431
Fix,GT,37.4243447,-122.0918665,,0.004543732,0.1,76.425934,1590084857431
Fix,GT,37.4243447,-122.0918665,,0.0055230204,0.1,76.42587,1590084858431
Fix,GT,37.4243447,-122.0918665,,0.0056587616,0.1,76.42575,1590084859431
Fix,GT,37.4243447,-122.0918665,,0.005056341,0.1,76.42551,1590084860431
Fix,GT,37.4243447,-122.0918665,,0.005042678,0.1,76.42514,1590084861431
Fix,GT,37.4243447,-122.0918665,,0.0056610988,0.1,76.424835,1590084862431
Fix,GT,37.4243447,-122.0918665,,0.006081476,0.1,76.42511,1590084863431
Fix,GT,37.4243447,-122.0918665,,0.0050473176,0.1,76.42587,1590084864431
Fix,GT,37.4243447,-122.0918665,,0.0048521776,0.1,76.426025,1590084865431
Fix,GT,37.4243447,-122.0918665,,0.005731892,0.1,76.42578,1590084866431
Fix,GT,37.4243447,-122.0918665,,0.0054728054,0.1,76.4259,1590084867431
Fix,GT,37.4243447,-122.0918665,,0.005,0.1,76.425476,1590084868431
Fix,GT,37.4243447,-122.0918665,,0.0045689926,0.1,76.424835,1590084869431
Fix,GT,37.4243447,-122.0918665,,0.0038299896,0.1,76.42459,1590084870431
Fix,GT,37.4243447,-122.0918665,,0.004206569,0.1,76.42441,1590084871431
Fix,GT,37.4243447,-122.0918665,,0.0046735723,0.1,76.42383,1590084872431
Fix,GT,37.4243447,-122.0918665,,0.004341555,0.1,76.423096,1590084873431
Fix,GT,37.4243447,-122.0918665,,0.005057796,0.1,76.42255,1590084874431
Fix,GT,37.4243447,-122.0918665,,0.0056388145,0.1,76.42291,1590084875431
Fix,GT,37.4243447,-122.0918665,,0.0046181376,0.1,76.423065,1590084876431
Fix,GT,37.4243447,-122.0918665,,0.003605551,0.1,76.42261,1590084877431
Fix,GT,37.4243447,-122.0918665,,0.003605551,0.1,76.42258,1590084878431
Fix,GT,37.4243447,-122.0918665,,0.0037755617,0.1,76.42264,1590084879431
Fix,GT,37.4243447,-122.0918665,,0.004,0.1,76.42255,1590084880431
Fix,GT,37.4243447,-122.0918665,,0.004,0.1,76.422485,1590084881431
Fix,GT,37.4243447,-122.0918665,,0.0036389353,0.1,76.42236,1590084882431
Fix,GT,37.4243447,-122.0918665,,0.0031622776,0.1,76.429504,1590084883431
Fix,GT,37.4243447,-122.0918665,,0.0049370946,0.1,76.43561,1590084884431
Fix,GT,37.4243448,-122.0918663,,0.090537585,0.1,76.15463,1590084885431
Fix,GT,37.4243463,-122.091864,,0.46026284,0.1,73.64075,1590084886431
Fix,GT,37.4243513,-122.0918575,,1.0850284,0.1,65.73276,1590084887431
Fix,GT,37.4243614,-122.091847,,1.9611287,0.1,53.09964,1590084888431
Fix,GT,37.4243804,-122.0918314,,3.3300729,0.1,40.453003,1590084889431
Fix,GT,37.4244117,-122.0918076,,4.803755,0.1,32.60489,1590084890431
Fix,GT,37.4244536,-122.0917781,,5.8601637,0.1,28.952637,1590084891431
Fix,GT,37.4245036,-122.091748,,6.426074,0.1,24.86502,1590084892431
Fix,GT,37.4245574,-122.0917201,,6.4480224,0.1,21.872314,1590084893431
Fix,GT,37.4246095,-122.0916944,,5.841775,0.1,21.350037,1590084894431
Fix,GT,37.4246527,-122.0916725,,4.3755045,0.1,21.815369,1590084895431
Fix,GT,37.4246829,-122.0916558,,2.999733,0.1,23.7211,1590084896431
Fix,GT,37.4247039,-122.0916379,,2.6627305,0.1,33.006622,1590084897431
Fix,GT,37.4247175,-122.0916102,,2.9313097,0.1,54.399353,1590084898431
Fix,GT,37.4247198,-122.0915684,,4.2239714,0.1,81.40668,1590084899431
Fix,GT,37.42471,-122.0915101,,6.0325356,0.1,101.21442,1590084900431
Fix,GT,37.42469,-122.0914349,,7.8425617,0.1,108.812256,1590084901431
Fix,GT,37.4246616,-122.0913433,,9.500706,0.1,112.16089,1590084902431
Fix,GT,37.4246226,-122.0912386,,10.84635,0.1,116.521484,1590084903431
Fix,GT,37.4245729,-122.0911271,,11.636345,0.1,120.642456,1590084904431
Fix,GT,37.4245158,-122.091014,,12.0334,0.1,123.20645,1590084905431
Fix,GT,37.424453,-122.0909005,,12.2875395,0.1,125.86621,1590084906431
Fix,GT,37.4243851,-122.0907906,,12.231285,0.1,128.96716,1590084907431
Fix,GT,37.4243135,-122.0906873,,11.980995,0.1,132.10345,1590084908431
Fix,GT,37.4242396,-122.0905907,,11.700159,0.1,134.65247,1590084909431
Fix,GT,37.4241648,-122.0905002,,11.284756,0.1,136.89948,1590084910431
Fix,GT,37.4240903,-122.0904198,,10.380638,0.1,140.9599,1590084911431
Fix,GT,37.4240191,-122.0903581,,8.668939,0.1,148.47067,1590084912431
Fix,GT,37.4239574,-122.0903216,,6.3581314,0.1,157.89722,1590084913431
Fix,GT,37.4239122,-122.0903059,,3.9044602,0.1,166.34729,1590084914431
Fix,GT,37.4238861,-122.0903014,,2.101616,0.1,171.5888,1590084915431
Fix,GT,37.4238693,-122.0903014,,1.9516655,0.1,176.81274,1590084916431
Fix,GT,37.4238472,-122.0903078,,3.125397,0.1,188.05222,1590084917431
Fix,GT,37.4238162,-122.0903296,,4.504856,0.1,207.24257,1590084918431
Fix,GT,37.4237844,-122.0903735,,5.7942595,0.1,228.29655,1590084919431
Fix,GT,37.423754,-122.0904387,,7.4362135,0.1,240.4234,1590084920431
Fix,GT,37.4237204,-122.0905222,,9.05262,0.1,243.67987,1590084921431
Fix,GT,37.4236834,-122.090622,,10.384281,0.1,245.32318,1590084922431
Fix,GT,37.423642,-122.0907337,,11.364311,0.1,244.24323,1590084923431
Fix,GT,37.423593,-122.09085,,11.911722,0.1,240.40422,1590084924431
Fix,GT,37.4235343,-122.0909648,,12.310892,0.1,235.26288,1590084925431
Fix,GT,37.4234651,-122.0910756,,12.722174,0.1,229.6082,1590084926431
Fix,GT,37.4233853,-122.0911809,,13.081909,0.1,224.40846,1590084927431
Fix,GT,37.4232973,-122.0912802,,13.209262,0.1,220.28008,1590084928431
Fix,GT,37.4232048,-122.091372,,13.038412,0.1,216.80917,1590084929431
Fix,GT,37.4231103,-122.0914559,,12.646553,0.1,214.42853,1590084930431
Fix,GT,37.4230192,-122.0915365,,12.099046,0.1,216.05579,1590084931431
Fix,GT,37.4229376,-122.0916229,,11.663087,0.1,222.67682,1590084932431
Fix,GT,37.4228677,-122.0917202,,11.5938835,0.1,230.40083,1590084933431
Fix,GT,37.422807,-122.0918291,,11.950674,0.1,236.70078,1590084934431
Fix,GT,37.4227526,-122.0919496,,12.532349,0.1,241.96992,1590084935431
Fix,GT,37.4227029,-122.0920811,,13.198485,0.1,245.17392,1590084936431
Fix,GT,37.4226531,-122.0922216,,13.994929,0.1,245.85588,1590084937431
Fix,GT,37.4226008,-122.0923694,,14.566587,0.1,245.61633,1590084938431
Fix,GT,37.4225465,-122.0925204,,14.656015,0.1,245.24994,1590084939431
Fix,GT,37.4224925,-122.09267,,14.390041,0.1,245.80548,1590084940431
Fix,GT,37.4224428,-122.0928184,,14.130966,0.1,247.8649,1590084941431
Fix,GT,37.422398,-122.0929672,,14.012558,0.1,249.68916,1590084942431
Fix,GT,37.4223562,-122.0931155,,13.769226,0.1,250.92804,1590084943431
Fix,GT,37.4223211,-122.0932625,,13.389914,0.1,255.05644,1590084944431
Fix,GT,37.4223009,-122.0934111,,13.37348,0.1,263.70074,1590084945431
Fix,GT,37.4223029,-122.0935639,,13.776041,0.1,274.95068,1590084946431
Fix,GT,37.4223309,-122.0937189,,14.374935,0.1,286.84326,1590084947431
Fix,GT,37.4223837,-122.0938707,,14.915415,0.1,296.77707,1590084948431
Fix,GT,37.422455,-122.0940175,,15.533841,0.1,303.09875,1590084949431
Fix,GT,37.4225388,-122.0941649,,16.60049,0.1,306.36044,1590084950431
Fix,GT,37.4226342,-122.09432,,18.072319,0.1,308.06998,1590084951431
Fix,GT,37.4227409,-122.0944851,,19.500113,0.1,309.21637,1590084952431
Fix,GT,37.4228571,-122.0946594,,20.648743,0.1,309.93796,1590084953431
Fix,GT,37.4229802,-122.0948406,,21.398073,0.1,310.3996,1590084954431
Fix,GT,37.4231077,-122.0950259,,21.900993,0.1,310.67938,1590084955431
Fix,GT,37.423238,-122.0952147,,22.306171,0.1,310.67935,1590084956431
Fix,GT,37.4233711,-122.0954069,,22.752008,0.1,311.01547,1590084957431
Fix,GT,37.4235088,-122.0956013,,23.231762,0.1,311.74432,1590084958431
Fix,GT,37.4236503,-122.0957973,,23.566236,0.1,312.1247,1590084959431
Fix,GT,37.4237939,-122.0959949,,23.811981,0.1,312.14243,1590084960431
Fix,GT,37.4239396,-122.0961951,,24.160744,0.1,312.15472,1590084961431
Fix,GT,37.4240868,-122.0963986,,24.492579,0.1,311.7502,1590084962431
Fix,GT,37.4242344,-122.0966069,,24.882092,0.1,311.1702,1590084963431
Fix,GT,37.4243843,-122.0968198,,25.3651,0.1,311.41412,1590084964431
Fix,GT,37.4245391,-122.0970345,,25.87389,0.1,312.4105,1590084965431
Fix,GT,37.4247004,-122.0972497,,26.395672,0.1,313.6519,1590084966431
Fix,GT,37.4248689,-122.0974644,,26.88937,0.1,314.86053,1590084967431
Fix,GT,37.4250433,-122.0976788,,27.316431,0.1,315.7286,1590084968431
Fix,GT,37.4252222,-122.0978936,,27.63295,0.1,316.31012,1590084969431
Fix,GT,37.4254045,-122.0981081,,27.845741,0.1,316.99805,1590084970431
Fix,GT,37.4255905,-122.0983209,,28.033566,0.1,317.87732,1590084971431
Fix,GT,37.4257803,-122.0985317,,28.221207,0.1,318.71542,1590084972431
Fix,GT,37.4259739,-122.0987402,,28.394403,0.1,319.6382,1590084973431
Fix,GT,37.426171,-122.0989463,,28.567558,0.1,320.3526,1590084974431
Fix,GT,37.4263707,-122.0991512,,28.70074,0.1,320.63055,1590084975431
Fix,GT,37.4265713,-122.0993564,,28.732456,0.1,320.5378,1590084976431
Fix,GT,37.426771,-122.0995626,,28.702217,0.1,320.14816,1590084977431
Fix,GT,37.4269694,-122.0997704,,28.685944,0.1,319.81866,1590084978431
Fix,GT,37.4271671,-122.099979,,28.663002,0.1,319.69397,1590084979431
Fix,GT,37.4273643,-122.1001878,,28.64018,0.1,319.58435,1590084980431
Fix,GT,37.4275611,-122.1003973,,28.671883,0.1,319.48926,1590084981431
Fix,GT,37.4277582,-122.1006069,,28.694025,0.1,319.58917,1590084982431
Fix,GT,37.4279557,-122.1008161,,28.7135,0.1,319.6657,1590084983431
Fix,GT,37.4281536,-122.1010252,,28.733618,0.1,319.7597,1590084984431
Fix,GT,37.428352,-122.1012341,,28.76554,0.1,319.87158,1590084985431
Fix,GT,37.428551,-122.1014425,,28.785172,0.1,320.01358,1590084986431
Fix,GT,37.4287504,-122.1016505,,28.775734,0.1,320.0661,1590084987431
Fix,GT,37.4289491,-122.1018588,,28.750301,0.1,319.79282,1590084988431
Fix,GT,37.4291472,-122.1020682,,28.755005,0.1,319.64285,1590084989431
Fix,GT,37.4293454,-122.1022777,,28.801601,0.1,319.79395,1590084990431
Fix,GT,37.4295442,-122.1024869,,28.795097,0.1,319.882,1590084991431
Fix,GT,37.4297426,-122.1026951,,28.593216,0.1,319.92792,1590084992431
Fix,GT,37.4299395,-122.1029016,,28.437973,0.1,319.94144,1590084993431
Fix,GT,37.4301364,-122.1031082,,28.599846,0.1,319.89914,1590084994431
Fix,GT,37.4303347,-122.1033166,,28.859123,0.1,319.90097,1590084995431
Fix,GT,37.4305349,-122.1035269,,29.098454,0.1,319.91425,1590084996431
Fix,GT,37.4307367,-122.1037389,,29.317562,0.1,319.8905,1590084997431
Fix,GT,37.4309397,-122.1039527,,29.509773,0.1,319.76917,1590084998431
Fix,GT,37.4311435,-122.1041682,,29.655281,0.1,319.7189,1590084999431
Fix,GT,37.4313482,-122.1043847,,29.786385,0.1,319.69577,1590085000431
Fix,GT,37.4315535,-122.1046025,,29.905815,0.1,319.51437,1590085001431
Fix,GT,37.4317593,-122.1048216,,30.04654,0.1,319.59808,1590085002431
Fix,GT,37.431967,-122.1050408,,30.234043,0.1,319.9783,1590085003431
Fix,GT,37.4321772,-122.1052601,,30.445038,0.1,320.14572,1590085004431
Fix,GT,37.4323891,-122.1054805,,30.664673,0.1,320.21094,1590085005431
Fix,GT,37.4326024,-122.1057026,,30.8917,0.1,320.15405,1590085006431
Fix,GT,37.4328173,-122.1059267,,31.160046,0.1,320.00797,1590085007431
Fix,GT,37.4330338,-122.1061532,,31.402317,0.1,319.96368,1590085008431
Fix,GT,37.4332508,-122.1063808,,31.358547,0.1,319.92184,1590085009431
Fix,GT,37.4334662,-122.1066071,,30.999107,0.1,319.87494,1590085010431
Fix,GT,37.4336787,-122.1068306,,30.541561,0.1,319.8504,1590085011431
Fix,GT,37.4338877,-122.1070507,,30.034111,0.1,319.80072,1590085012431
Fix,GT,37.434093,-122.1072671,,29.459484,0.1,319.8074,1590085013431
Fix,GT,37.4342939,-122.1074785,,28.773289,0.1,319.90845,1590085014431
Fix,GT,37.4344903,-122.1076843,,28.068188,0.1,319.96906,1590085015431
Fix,GT,37.4346819,-122.107885,,27.318453,0.1,319.9832,1590085016431
Fix,GT,37.4348683,-122.1080798,,26.57801,0.1,320.1321,1590085017431
Fix,GT,37.4350507,-122.1082697,,26.106287,0.1,320.13574,1590085018431
Fix,GT,37.4352299,-122.1084572,,25.694088,0.1,319.74365,1590085019431
Fix,GT,37.4354046,-122.1086441,,25.29579,0.1,318.98495,1590085020431
Fix,GT,37.4355761,-122.108832,,25.35799,0.1,318.5816,1590085021431
Fix,GT,37.4357496,-122.1090225,,25.831596,0.1,318.7272,1590085022431
Fix,GT,37.4359272,-122.1092157,,26.32762,0.1,318.99286,1590085023431
Fix,GT,37.4361083,-122.1094118,,26.803398,0.1,319.07675,1590085024431
Fix,GT,37.4362928,-122.1096113,,27.260122,0.1,319.12573,1590085025431
Fix,GT,37.4364808,-122.1098135,,27.712729,0.1,319.3902,1590085026431
Fix,GT,37.4366728,-122.1100176,,28.142792,0.1,319.701,1590085027431
Fix,GT,37.4368682,-122.1102237,,28.52795,0.1,319.9024,1590085028431
Fix,GT,37.4370665,-122.1104317,,28.878723,0.1,320.07806,1590085029431
Fix,GT,37.437268,-122.1106416,,29.236832,0.1,320.17722,1590085030431
Fix,GT,37.437472,-122.1108539,,29.583096,0.1,320.13397,1590085031431
Fix,GT,37.4376779,-122.1110688,,29.882103,0.1,320.04034,1590085032431
Fix,GT,37.4378854,-122.1112862,,30.139378,0.1,319.90594,1590085033431
Fix,GT,37.4380942,-122.111506,,30.354174,0.1,319.77356,1590085034431
Fix,GT,37.4383039,-122.1117277,,30.519436,0.1,319.629,1590085035431
Fix,GT,37.4385142,-122.1119511,,30.675838,0.1,319.62613,1590085036431
Fix,GT,37.4387259,-122.1121756,,30.841738,0.1,319.72485,1590085037431
Fix,GT,37.4389391,-122.1124004,,30.994444,0.1,319.89032,1590085038431
Fix,GT,37.4391539,-122.1126253,,31.127228,0.1,320.08765,1590085039431
Fix,GT,37.4393699,-122.1128507,,31.232925,0.1,320.0949,1590085040431
Fix,GT,37.4395866,-122.1130767,,31.327023,0.1,320.0767,1590085041431
Fix,GT,37.4398039,-122.1133036,,31.424026,0.1,320.02713,1590085042431
Fix,GT,37.4400214,-122.1135319,,31.543404,0.1,319.8424,1590085043431
Fix,GT,37.4402387,-122.1137617,,31.518778,0.1,319.5716,1590085044431
Fix,GT,37.4404548,-122.1139915,,31.342138,0.1,319.58994,1590085045431
Fix,GT,37.4406706,-122.1142194,,31.34145,0.1,320.0347,1590085046431
Fix,GT,37.4408883,-122.1144464,,31.475174,0.1,320.2335,1590085047431
Fix,GT,37.441107,-122.1146743,,31.649582,0.1,320.11307,1590085048431
Fix,GT,37.4413264,-122.1149041,,31.830225,0.1,319.91235,1590085049431
Fix,GT,37.4415467,-122.115136,,31.989723,0.1,319.81363,1590085050431
Fix,GT,37.4417679,-122.1153689,,32.120323,0.1,319.90375,1590085051431
Fix,GT,37.4419902,-122.1156024,,32.23767,0.1,319.99756,1590085052431
Fix,GT,37.4422134,-122.1158366,,32.35655,0.1,319.9059,1590085053431
Fix,GT,37.4424372,-122.1160721,,32.480526,0.1,319.85355,1590085054431
Fix,GT,37.4426615,-122.1163088,,32.598152,0.1,319.7795,1590085055431
Fix,GT,37.4428867,-122.1165465,,32.722477,0.1,319.85806,1590085056431
Fix,GT,37.4431131,-122.1167846,,32.853752,0.1,319.98407,1590085057431
Fix,GT,37.4433408,-122.1170229,,32.961338,0.1,320.06924,1590085058431
Fix,GT,37.4435695,-122.1172615,,33.01455,0.1,320.154,1590085059431
Fix,GT,37.4437981,-122.1174999,,33.00532,0.1,320.09875,1590085060431
Fix,GT,37.4440263,-122.1177389,,32.985554,0.1,319.8505,1590085061431
Fix,GT,37.4442537,-122.1179791,,32.98551,0.1,319.66016,1590085062431
Fix,GT,37.4444807,-122.1182201,,33.051548,0.1,319.69064,1590085063431
Fix,GT,37.4447088,-122.1184611,,33.163624,0.1,319.88306,1590085064431
Fix,GT,37.4449382,-122.118702,,33.24602,0.1,320.0236,1590085065431
Fix,GT,37.4451683,-122.1189428,,33.289474,0.1,320.03357,1590085066431
Fix,GT,37.4453986,-122.1191839,,33.25225,0.1,319.99152,1590085067431
Fix,GT,37.445628,-122.1194247,,33.14031,0.1,319.922,1590085068431
Fix,GT,37.4458564,-122.1196648,,33.044872,0.1,319.81448,1590085069431
Fix,GT,37.4460838,-122.1199052,,32.96626,0.1,319.72382,1590085070431
Fix,GT,37.4463108,-122.1201447,,32.87257,0.1,319.92224,1590085071431
Fix,GT,37.4465377,-122.1203817,,32.621605,0.1,320.18936,1590085072431
Fix,GT,37.4467628,-122.1206158,,32.28155,0.1,320.15814,1590085073431
Fix,GT,37.4469853,-122.1208481,,32.023216,0.1,320.03107,1590085074431
Fix,GT,37.4472058,-122.1210793,,31.788216,0.1,319.89423,1590085075431
Fix,GT,37.4474248,-122.1213096,,31.60263,0.1,319.81393,1590085076431
Fix,GT,37.447642,-122.1215386,,31.37668,0.1,319.80786,1590085077431
Fix,GT,37.4478573,-122.1217655,,31.032284,0.1,319.87402,1590085078431
Fix,GT,37.4480702,-122.121989,,30.581532,0.1,320.02292,1590085079431
Fix,GT,37.4482801,-122.1222087,,30.09893,0.1,320.03015,1590085080431
Fix,GT,37.4484866,-122.1224252,,29.640093,0.1,319.94995,1590085081431
Fix,GT,37.4486902,-122.1226387,,29.263739,0.1,319.96323,1590085082431
Fix,GT,37.4488917,-122.1228496,,28.994493,0.1,320.00354,1590085083431
Fix,GT,37.4490915,-122.1230586,,28.759474,0.1,320.01392,1590085084431
Fix,GT,37.4492895,-122.123266,,28.486435,0.1,319.96097,1590085085431
Fix,GT,37.4494852,-122.1234717,,28.192238,0.1,319.84372,1590085086431
Fix,GT,37.4496786,-122.1236757,,27.931751,0.1,319.7844,1590085087431
Fix,GT,37.4498706,-122.1238784,,27.80682,0.1,319.7703,1590085088431
Fix,GT,37.4500626,-122.124081,,27.911356,0.1,319.87326,1590085089431
Fix,GT,37.4502562,-122.1242845,,28.166807,0.1,320.07373,1590085090431
Fix,GT,37.4504515,-122.1244901,,28.418724,0.1,319.66718,1590085091431
Fix,GT,37.4506462,-122.1247008,,28.678158,0.1,318.53616,1590085092431
Fix,GT,37.4508395,-122.124918,,28.943848,0.1,317.7119,1590085093431
Fix,GT,37.4510328,-122.1251395,,29.174759,0.1,317.25232,1590085094431
Fix,GT,37.4512251,-122.1253652,,29.263382,0.1,316.2392,1590085095431
Fix,GT,37.4514133,-122.1255958,,29.131435,0.1,314.71622,1590085096431
Fix,GT,37.451595,-122.1258313,,28.870182,0.1,313.20563,1590085097431
Fix,GT,37.4517703,-122.1260694,,28.497559,0.1,312.0547,1590085098431
Fix,GT,37.4519399,-122.1263081,,28.091724,0.1,311.15964,1590085099431
Fix,GT,37.4521044,-122.1265469,,27.822338,0.1,310.23352,1590085100431
Fix,GT,37.4522645,-122.1267878,,27.748295,0.1,309.2726,1590085101431
Fix,GT,37.4524216,-122.1270316,,27.722588,0.1,308.37616,1590085102431
Fix,GT,37.452575,-122.1272775,,27.509586,0.1,307.49622,1590085103431
Fix,GT,37.4527236,-122.1275237,,27.163628,0.1,306.5521,1590085104431
Fix,GT,37.452868,-122.1277704,,27.030243,0.1,305.9506,1590085105431
Fix,GT,37.4530119,-122.1280177,,27.174557,0.1,306.1419,1590085106431
Fix,GT,37.4531579,-122.1282657,,27.394447,0.1,306.4749,1590085107431
Fix,GT,37.4533053,-122.1285148,,27.45591,0.1,306.40387,1590085108431
Fix,GT,37.453452,-122.1287635,,27.261532,0.1,306.29355,1590085109431
Fix,GT,37.4535975,-122.1290101,,27.044262,0.1,306.3385,1590085110431
Fix,GT,37.453742,-122.1292554,,26.946058,0.1,306.2315,1590085111431
Fix,GT,37.4538858,-122.1295008,,26.941319,0.1,306.07947,1590085112431
Fix,GT,37.4540298,-122.1297467,,27.061672,0.1,306.122,1590085113431
Fix,GT,37.4541746,-122.1299938,,27.181,0.1,306.09695,1590085114431
Fix,GT,37.4543192,-122.130242,,27.202782,0.1,305.87927,1590085115431
Fix,GT,37.4544636,-122.1304913,,27.350218,0.1,305.8937,1590085116431
Fix,GT,37.4546097,-122.1307427,,27.694582,0.1,305.97876,1590085117431
Fix,GT,37.4547575,-122.130997,,27.965132,0.1,305.87704,1590085118431
Fix,GT,37.454906,-122.1312536,,28.119396,0.1,305.74915,1590085119431
Fix,GT,37.455055,-122.1315114,,28.21713,0.1,305.9151,1590085120431
Fix,GT,37.4552057,-122.1317689,,28.325317,0.1,306.31546,1590085121431
Fix,GT,37.4553583,-122.1320266,,28.501783,0.1,306.55103,1590085122431
Fix,GT,37.4555127,-122.1322857,,28.736666,0.1,306.6562,1590085123431
Fix,GT,37.4556682,-122.1325467,,28.91042,0.1,306.60675,1590085124431
Fix,GT,37.4558242,-122.1328088,,28.963789,0.1,306.52124,1590085125431
Fix,GT,37.45598,-122.1330715,,28.976318,0.1,306.42856,1590085126431
Fix,GT,37.4561356,-122.1333347,,28.996723,0.1,306.35196,1590085127431
Fix,GT,37.456291,-122.1335981,,28.972942,0.1,306.27817,1590085128431
Fix,GT,37.4564457,-122.1338608,,28.797077,0.1,306.21735,1590085129431
Fix,GT,37.4565989,-122.1341217,,28.50939,0.1,306.15485,1590085130431
Fix,GT,37.4567506,-122.1343798,,28.286127,0.1,306.26028,1590085131431
Fix,GT,37.456902,-122.1346365,,28.2566,0.1,306.37683,1590085132431
Fix,GT,37.4570537,-122.1348934,,28.3022,0.1,306.3633,1590085133431
Fix,GT,37.4572052,-122.1351506,,28.28682,0.1,306.23337,1590085134431
Fix,GT,37.4573562,-122.1354084,,28.310007,0.1,306.08624,1590085135431
Fix,GT,37.4575071,-122.1356666,,28.337292,0.1,306.14825,1590085136431
Fix,GT,37.4576582,-122.135924,,28.218643,0.1,306.24194,1590085137431
Fix,GT,37.4578084,-122.1361794,,27.902208,0.1,306.25815,1590085138431
Fix,GT,37.4579569,-122.1364312,,27.544415,0.1,306.41592,1590085139431
Fix,GT,37.4581043,-122.13668,,27.327522,0.1,306.4474,1590085140431
Fix,GT,37.4582507,-122.1369275,,27.209478,0.1,306.42795,1590085141431
Fix,GT,37.4583964,-122.1371735,,27.01933,0.1,306.46863,1590085142431
Fix,GT,37.458541,-122.1374176,,26.807161,0.1,306.4156,1590085143431
Fix,GT,37.4586843,-122.1376604,,26.670532,0.1,306.3556,1590085144431
Fix,GT,37.4588272,-122.1379026,,26.655565,0.1,306.34506,1590085145431
Fix,GT,37.45897,-122.138145,,26.66847,0.1,306.271,1590085146430
Fix,GT,37.4591127,-122.1383877,,26.696795,0.1,306.20618,1590085147430
Fix,GT,37.4592554,-122.138631,,26.724966,0.1,306.16678,1590085148430
Fix,GT,37.459398,-122.1388742,,26.693176,0.1,306.16898,1590085149430
Fix,GT,37.4595402,-122.139117,,26.594872,0.1,306.10757,1590085150430
Fix,GT,37.4596814,-122.1393589,,26.471375,0.1,306.0585,1590085151430
Fix,GT,37.4598222,-122.1395994,,26.337818,0.1,306.19827,1590085152430
Fix,GT,37.4599629,-122.1398385,,26.262007,0.1,306.3746,1590085153430
Fix,GT,37.4601039,-122.1400769,,26.2757,0.1,306.42307,1590085154430
Fix,GT,37.4602449,-122.1403159,,26.37369,0.1,306.26172,1590085155430
Fix,GT,37.4603861,-122.1405565,,26.485117,0.1,306.14444,1590085156430
Fix,GT,37.4605276,-122.1407982,,26.542953,0.1,306.12527,1590085157430
Fix,GT,37.4606691,-122.1410398,,26.483986,0.1,306.1409,1590085158430
Fix,GT,37.46081,-122.1412806,,26.359066,0.1,306.0691,1590085159430
Fix,GT,37.4609499,-122.1415207,,26.294476,0.1,305.98724,1590085160430
Fix,GT,37.4610899,-122.1417609,,26.36246,0.1,306.05435,1590085161430
Fix,GT,37.4612312,-122.1420018,,26.581287,0.1,306.25165,1590085162430
Fix,GT,37.4613742,-122.1422447,,26.846096,0.1,306.35696,1590085163430
Fix,GT,37.4615187,-122.1424899,,27.11961,0.1,306.3221,1590085164430
Fix,GT,37.4616644,-122.1427379,,27.383144,0.1,306.2038,1590085165430
Fix,GT,37.461811,-122.1429887,,27.637531,0.1,306.07324,1590085166430
Fix,GT,37.4619585,-122.1432419,,27.847288,0.1,305.9966,1590085167430
Fix,GT,37.4621065,-122.1434968,,27.884514,0.1,305.73557,1590085168430
Fix,GT,37.4622528,-122.1437518,,27.682575,0.1,305.47937,1590085169430
Fix,GT,37.4623977,-122.1440045,,27.4099,0.1,305.6975,1590085170430
Fix,GT,37.4625424,-122.1442541,,27.18052,0.1,306.02267,1590085171430
Fix,GT,37.4626867,-122.1445003,,26.885376,0.1,306.20306,1590085172430
Fix,GT,37.4628295,-122.1447434,,26.542828,0.1,306.24796,1590085173430
Fix,GT,37.4629708,-122.1449837,,26.314175,0.1,306.19568,1590085174430
Fix,GT,37.4631114,-122.1452233,,26.376997,0.1,306.16278,1590085175430
Fix,GT,37.4632526,-122.1454643,,26.53639,0.1,306.15417,1590085176430
Fix,GT,37.4633947,-122.1457061,,26.614048,0.1,306.23773,1590085177430
Fix,GT,37.4635374,-122.1459479,,26.589334,0.1,306.38843,1590085178430
Fix,GT,37.4636796,-122.1461885,,26.404068,0.1,306.29938,1590085179430
Fix,GT,37.4638199,-122.146428,,26.20183,0.1,306.05524,1590085180430
Fix,GT,37.4639586,-122.1466662,,26.039124,0.1,305.94565,1590085181430
Fix,GT,37.4640974,-122.1469042,,26.128153,0.1,306.13757,1590085182430
Fix,GT,37.4642378,-122.1471431,,26.379307,0.1,306.38864,1590085183430
Fix,GT,37.4643794,-122.147383,,26.442127,0.1,306.36636,1590085184430
Fix,GT,37.464521,-122.1476236,,26.509172,0.1,306.231,1590085185430
Fix,GT,37.4646632,-122.1478662,,26.729492,0.1,306.19037,1590085186430
Fix,GT,37.4648061,-122.1481104,,26.813524,0.1,306.08237,1590085187430
Fix,GT,37.4649484,-122.1483547,,26.700441,0.1,305.94827,1590085188430
Fix,GT,37.4650895,-122.1485976,,26.49398,0.1,305.96323,1590085189430
Fix,GT,37.4652303,-122.1488388,,26.42772,0.1,306.17764,1590085190430
Fix,GT,37.465372,-122.1490796,,26.555687,0.1,306.32874,1590085191430
Fix,GT,37.4655147,-122.1493218,,26.746876,0.1,306.231,1590085192430
Fix,GT,37.4656577,-122.1495664,,26.881472,0.1,306.04593,1590085193430
Fix,GT,37.4658005,-122.1498116,,26.800026,0.1,305.96756,1590085194430
Fix,GT,37.4659427,-122.1500555,,26.642776,0.1,306.14206,1590085195430
Fix,GT,37.4660851,-122.1502974,,26.58839,0.1,306.4109,1590085196430
Fix,GT,37.4662278,-122.1505387,,26.610662,0.1,306.38538,1590085197430
Fix,GT,37.4663701,-122.1507811,,26.633743,0.1,306.06708,1590085198430
Fix,GT,37.4665115,-122.1510248,,26.6921,0.1,305.67218,1590085199430
Fix,GT,37.466652,-122.1512711,,26.967287,0.1,305.2809,1590085200430
Fix,GT,37.4667936,-122.1515216,,27.359173,0.1,305.1002,1590085201430
Fix,GT,37.4669366,-122.1517762,,27.740322,0.1,304.9522,1590085202430
Fix,GT,37.4670816,-122.1520353,,28.275118,0.1,304.97534,1590085203430
Fix,GT,37.4672306,-122.1522996,,29.01599,0.1,305.33447,1590085204430
Fix,GT,37.467385,-122.1525689,,29.597986,0.1,305.7685,1590085205430
Fix,GT,37.4675427,-122.152841,,29.875015,0.1,306.02704,1590085206430
Fix,GT,37.4677024,-122.1531142,,30.071787,0.1,306.16803,1590085207430
Fix,GT,37.4678637,-122.1533887,,30.264423,0.1,306.36304,1590085208430
Fix,GT,37.4680263,-122.1536643,,30.372763,0.1,306.39825,1590085209430
Fix,GT,37.4681888,-122.1539402,,30.3054,0.1,306.2613,1590085210430
Fix,GT,37.4683505,-122.1542152,,30.199032,0.1,306.40628,1590085211430
Fix,GT,37.4685128,-122.1544891,,30.171322,0.1,306.55505,1590085212430
Fix,GT,37.4686749,-122.1547619,,30.005316,0.1,306.516,1590085213430
Fix,GT,37.4688356,-122.1550331,,29.811415,0.1,306.5033,1590085214430
Fix,GT,37.4689959,-122.1553036,,29.853642,0.1,306.44357,1590085215430
Fix,GT,37.4691564,-122.1555754,,30.00981,0.1,306.23956,1590085216430
Fix,GT,37.4693165,-122.1558492,,30.05952,0.1,305.98773,1590085217430
Fix,GT,37.4694756,-122.1561238,,29.957718,0.1,305.74606,1590085218430
Fix,GT,37.469633,-122.1563977,,29.775417,0.1,305.65704,1590085219430
Fix,GT,37.4697899,-122.1566702,,29.758987,0.1,305.83163,1590085220430
Fix,GT,37.4699482,-122.1569429,,29.932674,0.1,306.06232,1590085221430
Fix,GT,37.4701081,-122.1572165,,30.083824,0.1,306.2057,1590085222430
Fix,GT,37.4702692,-122.1574907,,30.211554,0.1,306.28232,1590085223430
Fix,GT,37.4704312,-122.1577664,,30.397377,0.1,306.3222,1590085224430
Fix,GT,37.4705938,-122.1580429,,30.372513,0.1,306.23694,1590085225430
Fix,GT,37.4707551,-122.1583183,,30.051723,0.1,306.13568,1590085226430
Fix,GT,37.4709148,-122.1585907,,29.839458,0.1,306.31476,1590085227430
Fix,GT,37.4710745,-122.1588617,,29.786938,0.1,306.3554,1590085228430
Fix,GT,37.4712337,-122.1591327,,29.78218,0.1,306.19824,1590085229430
Fix,GT,37.4713926,-122.1594041,,29.810669,0.1,306.15176,1590085230430
Fix,GT,37.4715518,-122.159676,,29.876186,0.1,306.1822,1590085231430
Fix,GT,37.4717112,-122.1599486,,29.941576,0.1,306.06833,1590085232430
Fix,GT,37.4718706,-122.1602221,,29.975739,0.1,305.99594,1590085233430
Fix,GT,37.4720304,-122.1604955,,30.04665,0.1,306.21973,1590085234430
Fix,GT,37.4721915,-122.1607694,,30.18636,0.1,306.33624,1590085235430
Fix,GT,37.4723534,-122.1610447,,30.319567,0.1,306.1835,1590085236430
Fix,GT,37.4725154,-122.1613215,,30.443789,0.1,306.12442,1590085237430
Fix,GT,37.4726782,-122.1615993,,30.562168,0.1,306.28885,1590085238430
Fix,GT,37.4728422,-122.1618776,,30.693653,0.1,306.41113,1590085239430
Fix,GT,37.4730074,-122.1621571,,30.862415,0.1,306.39917,1590085240430
Fix,GT,37.4731732,-122.1624383,,31.02298,0.1,306.26462,1590085241430
Fix,GT,37.473339,-122.1627218,,31.17315,0.1,306.08844,1590085242430
Fix,GT,37.473505,-122.163007,,31.332832,0.1,305.99973,1590085243430
Fix,GT,37.4736721,-122.1632935,,31.469662,0.1,306.07028,1590085244430
Fix,GT,37.4738403,-122.1635807,,31.58878,0.1,306.22955,1590085245430
Fix,GT,37.4740094,-122.1638689,,31.71315,0.1,306.2355,1590085246430
Fix,GT,37.4741786,-122.1641582,,31.72714,0.1,306.06793,1590085247430
Fix,GT,37.4743466,-122.1644471,,31.471659,0.1,305.89062,1590085248430
Fix,GT,37.4745126,-122.1647332,,31.17036,0.1,305.99792,1590085249430
Fix,GT,37.4746784,-122.1650169,,31.113821,0.1,306.34244,1590085250430
Fix,GT,37.4748458,-122.1652995,,31.176096,0.1,306.57523,1590085251430
Fix,GT,37.4750139,-122.1655823,,31.254456,0.1,306.56152,1590085252430
Fix,GT,37.4751822,-122.1658663,,31.333216,0.1,306.45383,1590085253430
Fix,GT,37.4753506,-122.1661513,,31.424004,0.1,306.41843,1590085254430
Fix,GT,37.4755191,-122.1664373,,31.509434,0.1,306.329,1590085255430
Fix,GT,37.4756877,-122.1667243,,31.576336,0.1,306.2517,1590085256430
Fix,GT,37.4758567,-122.167012,,31.638302,0.1,306.24335,1590085257430
Fix,GT,37.4760256,-122.1673006,,31.693035,0.1,306.1556,1590085258430
Fix,GT,37.4761946,-122.1675891,,31.620823,0.1,306.28253,1590085259430
Fix,GT,37.4763637,-122.1678747,,31.227621,0.1,306.70248,1590085260430
Fix,GT,37.4765323,-122.1681541,,30.787533,0.1,307.30518,1590085261430
Fix,GT,37.4767011,-122.1684292,,30.687336,0.1,307.5631,1590085262430
Fix,GT,37.4768701,-122.1687046,,30.823294,0.1,307.33194,1590085263430
Fix,GT,37.4770382,-122.1689831,,31.006037,0.1,306.72437,1590085264430
Fix,GT,37.4772051,-122.1692657,,31.202509,0.1,306.12384,1590085265430
Fix,GT,37.4773713,-122.1695513,,31.353867,0.1,305.91412,1590085266430
Fix,GT,37.4775372,-122.1698385,,31.342613,0.1,305.74982,1590085267430
Fix,GT,37.4777019,-122.1701256,,31.218502,0.1,305.58652,1590085268430
Fix,GT,37.477866,-122.1704119,,31.224567,0.1,305.76358,1590085269430
Fix,GT,37.4780319,-122.1706986,,31.457277,0.1,306.0169,1590085270430
Fix,GT,37.4782002,-122.1709867,,31.724869,0.1,306.20847,1590085271430
Fix,GT,37.4783705,-122.1712764,,31.982613,0.1,306.3474,1590085272430
Fix,GT,37.4785424,-122.1715683,,32.24253,0.1,306.40198,1590085273430
Fix,GT,37.478716,-122.1718624,,32.50307,0.1,306.4856,1590085274430
Fix,GT,37.4788914,-122.1721583,,32.727722,0.1,306.63538,1590085275430
Fix,GT,37.4790684,-122.1724552,,32.879032,0.1,306.85284,1590085276430
Fix,GT,37.479247,-122.1727524,,32.954002,0.1,307.0978,1590085277430
Fix,GT,37.4794267,-122.1730491,,32.970062,0.1,307.22675,1590085278430
Fix,GT,37.4796064,-122.1733457,,32.97856,0.1,307.0945,1590085279430
Fix,GT,37.4797855,-122.1736436,,33.07927,0.1,306.6837,1590085280430
Fix,GT,37.4799635,-122.1739448,,33.267906,0.1,306.2855,1590085281430
Fix,GT,37.4801416,-122.1742489,,33.48451,0.1,306.1736,1590085282430
Fix,GT,37.4803207,-122.1745552,,33.732414,0.1,306.19525,1590085283430
Fix,GT,37.4805009,-122.1748638,,33.928467,0.1,306.11218,1590085284430
Fix,GT,37.4806811,-122.1751739,,33.879562,0.1,306.01346,1590085285430
Fix,GT,37.4808605,-122.175482,,33.54839,0.1,306.1339,1590085286430
Fix,GT,37.4810387,-122.1757863,,33.289497,0.1,306.3,1590085287430
Fix,GT,37.4812163,-122.1760896,,33.28993,0.1,306.1831,1590085288430
Fix,GT,37.4813933,-122.1763939,,33.34815,0.1,305.97128,1590085289430
Fix,GT,37.4815694,-122.1766992,,33.30549,0.1,305.7183,1590085290430
Fix,GT,37.4817439,-122.1770046,,33.17948,0.1,305.41055,1590085291430
Fix,GT,37.4819164,-122.1773106,,33.138943,0.1,304.96237,1590085292430
Fix,GT,37.4820862,-122.1776189,,33.148952,0.1,304.10785,1590085293430
Fix,GT,37.4822516,-122.1779306,,33.102745,0.1,302.9663,1590085294430
Fix,GT,37.4824117,-122.1782452,,32.950733,0.1,301.88095,1590085295430
Fix,GT,37.4825663,-122.1785619,,32.764618,0.1,300.8708,1590085296430
Fix,GT,37.4827155,-122.1788801,,32.573177,0.1,299.79514,1590085297430
Fix,GT,37.4828589,-122.1792002,,32.392033,0.1,298.59625,1590085298430
Fix,GT,37.4829964,-122.1795224,,32.28805,0.1,297.4906,1590085299430
Fix,GT,37.4831292,-122.1798468,,32.27262,0.1,296.70767,1590085300430
Fix,GT,37.4832588,-122.1801736,,32.29252,0.1,296.0228,1590085301430
Fix,GT,37.4833857,-122.1805023,,32.3582,0.1,295.49994,1590085302430
Fix,GT,37.4835103,-122.1808332,,32.386868,0.1,294.84143,1590085303430
Fix,GT,37.4836306,-122.181166,,32.312607,0.1,293.7798,1590085304430
Fix,GT,37.4837459,-122.1815005,,32.199238,0.1,292.8594,1590085305430
Fix,GT,37.4838572,-122.181836,,32.10218,0.1,292.17633,1590085306430
Fix,GT,37.4839656,-122.182172,,32.02501,0.1,291.7203,1590085307430
Fix,GT,37.4840721,-122.1825081,,31.957962,0.1,291.33905,1590085308430
Fix,GT,37.4841762,-122.1828444,,31.901222,0.1,290.85516,1590085309430
Fix,GT,37.4842776,-122.1831816,,31.864145,0.1,290.27628,1590085310430
Fix,GT,37.4843761,-122.1835201,,31.889595,0.1,289.50623,1590085311430
Fix,GT,37.4844708,-122.1838608,,31.968105,0.1,288.70642,1590085312430
Fix,GT,37.4845626,-122.1842039,,32.06588,0.1,288.12924,1590085313430
Fix,GT,37.4846521,-122.1845492,,32.16992,0.1,287.60925,1590085314430
Fix,GT,37.4847391,-122.1848967,,32.275738,0.1,286.94867,1590085315430
Fix,GT,37.484823,-122.1852467,,32.368828,0.1,286.25635,1590085316430
Fix,GT,37.4849037,-122.1855987,,32.446594,0.1,285.65533,1590085317430
Fix,GT,37.4849823,-122.1859524,,32.510506,0.1,285.29395,1590085318430
Fix,GT,37.4850592,-122.1863071,,32.49644,0.1,284.8919,1590085319430
Fix,GT,37.4851334,-122.186662,,32.428627,0.1,284.24353,1590085320430
Fix,GT,37.4852042,-122.1870175,,32.408722,0.1,283.4683,1590085321430
Fix,GT,37.4852709,-122.1873742,,32.418102,0.1,282.64795,1590085322430
Fix,GT,37.4853338,-122.1877324,,32.480774,0.1,281.90112,1590085323430
Fix,GT,37.4853934,-122.1880923,,32.58278,0.1,281.29535,1590085324430
Fix,GT,37.4854501,-122.1884544,,32.7041,0.1,280.70123,1590085325430
Fix,GT,37.4855043,-122.1888186,,32.83906,0.1,280.1175,1590085326430
Fix,GT,37.4855555,-122.189185,,32.965145,0.1,279.50833,1590085327430
Fix,GT,37.4856042,-122.1895533,,33.05597,0.1,279.0336,1590085328430
Fix,GT,37.4856513,-122.1899225,,33.087486,0.1,278.73083,1590085329430
Fix,GT,37.4856972,-122.1902919,,33.021576,0.1,278.64532,1590085330430
Fix,GT,37.4857428,-122.1906601,,32.893368,0.1,278.65356,1590085331430
Fix,GT,37.4857882,-122.1910269,,32.761963,0.1,278.63498,1590085332430
Fix,GT,37.4858333,-122.1913921,,32.59171,0.1,278.61795,1590085333430
Fix,GT,37.4858779,-122.1917552,,32.377453,0.1,278.58893,1590085334430
Fix,GT,37.4859221,-122.1921156,,32.125454,0.1,278.51306,1590085335430
Fix,GT,37.4859656,-122.1924734,,31.92096,0.1,278.4564,1590085336430
Fix,GT,37.486009,-122.1928297,,31.869205,0.1,278.5664,1590085337430
Fix,GT,37.4860534,-122.193186,,31.925983,0.1,278.76727,1590085338430
Fix,GT,37.4860982,-122.1935433,,32.047318,0.1,278.74384,1590085339430
Fix,GT,37.4861431,-122.1939021,,32.202885,0.1,278.77588,1590085340430
Fix,GT,37.4861885,-122.1942625,,32.32487,0.1,278.8158,1590085341430
Fix,GT,37.4862337,-122.1946232,,32.2256,0.1,278.59848,1590085342430
Fix,GT,37.4862771,-122.1949821,,32.016388,0.1,278.46158,1590085343430
Fix,GT,37.4863207,-122.1953397,,31.983053,0.1,278.62372,1590085344430
Fix,GT,37.4863651,-122.1956971,,32.00604,0.1,278.69962,1590085345430
Fix,GT,37.4864095,-122.1960547,,32.02082,0.1,278.6459,1590085346430
Fix,GT,37.4864537,-122.1964125,,32.0261,0.1,278.63028,1590085347430
Fix,GT,37.486498,-122.1967704,,32.0354,0.1,278.69653,1590085348430
Fix,GT,37.4865427,-122.1971283,,32.043724,0.1,278.75085,1590085349430
Fix,GT,37.4865876,-122.1974861,,32.036995,0.1,278.7798,1590085350430
Fix,GT,37.4866326,-122.197844,,32.0486,0.1,278.78256,1590085351430
Fix,GT,37.4866775,-122.1982021,,32.06656,0.1,278.68674,1590085352430
Fix,GT,37.4867219,-122.1985605,,32.07832,0.1,278.6247,1590085353430
Fix,GT,37.4867661,-122.198919,,32.100433,0.1,278.63748,1590085354430
Fix,GT,37.4868106,-122.1992777,,32.12056,0.1,278.67615,1590085355430
Fix,GT,37.4868551,-122.1996366,,32.127834,0.1,278.63156,1590085356430
Fix,GT,37.4868991,-122.1999952,,32.01831,0.1,278.51562,1590085357430
Fix,GT,37.4869424,-122.2003516,,31.713085,0.1,278.5018,1590085358430
Fix,GT,37.4869857,-122.2007042,,31.425735,0.1,278.72736,1590085359430
Fix,GT,37.4870296,-122.2010544,,31.309473,0.1,278.84436,1590085360430
Fix,GT,37.4870736,-122.2014041,,31.328808,0.1,278.81396,1590085361430
Fix,GT,37.4871178,-122.2017543,,31.354313,0.1,278.83014,1590085362430
Fix,GT,37.487162,-122.2021044,,31.333382,0.1,278.8092,1590085363430
Fix,GT,37.4872058,-122.2024541,,31.290682,0.1,278.74365,1590085364430
Fix,GT,37.4872494,-122.2028035,,31.257977,0.1,278.65826,1590085365430
Fix,GT,37.4872923,-122.2031527,,31.230537,0.1,278.5623,1590085366430
Fix,GT,37.4873349,-122.2035013,,31.122408,0.1,278.46686,1590085367430
Fix,GT,37.4873769,-122.2038478,,30.818127,0.1,278.41052,1590085368430
Fix,GT,37.4874183,-122.2041901,,30.400314,0.1,278.45035,1590085369430
Fix,GT,37.4874596,-122.2045275,,29.967184,0.1,278.61676,1590085370430
Fix,GT,37.4875012,-122.2048596,,29.51551,0.1,278.80728,1590085371430
Fix,GT,37.4875427,-122.2051867,,29.063908,0.1,278.86215,1590085372430
Fix,GT,37.4875836,-122.2055091,,28.69854,0.1,278.8412,1590085373430
Fix,GT,37.4876239,-122.2058281,,28.451756,0.1,278.7666,1590085374430
Fix,GT,37.4876639,-122.2061444,,28.17871,0.1,278.8091,1590085375430
Fix,GT,37.4877036,-122.2064572,,27.837944,0.1,278.93713,1590085376430
Fix,GT,37.4877433,-122.2067664,,27.564732,0.1,279.03732,1590085377430
Fix,GT,37.4877839,-122.2070732,,27.458725,0.1,279.52753,1590085378430
Fix,GT,37.4878271,-122.2073792,,27.522427,0.1,280.20093,1590085379430
Fix,GT,37.4878734,-122.207686,,27.707848,0.1,280.85443,1590085380430
Fix,GT,37.4879226,-122.2079939,,27.810051,0.1,281.51938,1590085381430
Fix,GT,37.4879746,-122.2083013,,27.725891,0.1,282.08704,1590085382430
Fix,GT,37.4880286,-122.2086069,,27.686153,0.1,282.5352,1590085383430
Fix,GT,37.4880845,-122.2089128,,27.880306,0.1,282.8783,1590085384430
Fix,GT,37.4881425,-122.2092215,,28.208286,0.1,283.35858,1590085385430
Fix,GT,37.4882035,-122.2095328,,28.459873,0.1,283.99115,1590085386430
Fix,GT,37.4882676,-122.2098451,,28.535084,0.1,284.58725,1590085387430
Fix,GT,37.4883344,-122.2101565,,28.495926,0.1,285.232,1590085388430
Fix,GT,37.4884038,-122.2104665,,28.45313,0.1,285.83295,1590085389430
Fix,GT,37.4884757,-122.210775,,28.37122,0.1,286.48358,1590085390430
Fix,GT,37.48855,-122.2110806,,28.121235,0.1,287.17014,1590085391430
Fix,GT,37.4886263,-122.2113821,,27.808453,0.1,287.71893,1590085392430
Fix,GT,37.4887039,-122.21168,,27.682144,0.1,288.18192,1590085393430
Fix,GT,37.4887836,-122.2119767,,27.726448,0.1,288.68732,1590085394430
Fix,GT,37.4888656,-122.2122733,,27.798182,0.1,289.26068,1590085395430
Fix,GT,37.4889502,-122.2125698,,27.875986,0.1,289.8605,1590085396431
Fix,GT,37.4890378,-122.2128657,,27.98117,0.1,290.60965,1590085397431
Fix,GT,37.4891291,-122.2131616,,28.162163,0.1,291.42963,1590085398431
Fix,GT,37.4892243,-122.2134581,,28.35006,0.1,292.14288,1590085399431
Fix,GT,37.4893225,-122.2137552,,28.525267,0.1,292.60934,1590085400431
Fix,GT,37.4894227,-122.2140533,,28.680237,0.1,292.80927,1590085401431
Fix,GT,37.4895241,-122.2143514,,28.609653,0.1,293.08813,1590085402431
Fix,GT,37.4896263,-122.2146466,,28.30339,0.1,293.64343,1590085403431
Fix,GT,37.4897302,-122.2149371,,28.022818,0.1,294.46432,1590085404431
Fix,GT,37.4898365,-122.2152232,,27.78809,0.1,295.2032,1590085405431
Fix,GT,37.4899444,-122.2155054,,27.574049,0.1,295.7915,1590085406431
Fix,GT,37.4900544,-122.2157848,,27.59739,0.1,296.50333,1590085407431
Fix,GT,37.4901678,-122.2160646,,27.909184,0.1,297.12808,1590085408431
Fix,GT,37.490285,-122.2163459,,28.202847,0.1,297.76785,1590085409431
Fix,GT,37.4904055,-122.2166277,,28.33281,0.1,298.40295,1590085410431
Fix,GT,37.4905282,-122.2169089,,28.366833,0.1,298.7806,1590085411431
Fix,GT,37.4906522,-122.2171896,,28.378662,0.1,298.92273,1590085412431
Fix,GT,37.4907763,-122.2174696,,28.251263,0.1,298.90555,1590085413431
Fix,GT,37.4908992,-122.2177474,,27.970287,0.1,298.8432,1590085414431
