MessageType,Provider,LatitudeDegrees,LongitudeDegrees,AltitudeMeters,SpeedMps,AccuracyMeters,BearingDegrees,UnixTimeMillis
Fix,GT,37.4282812,-122.0725339,,0.014275976,0.1,238.76598,1593045251447
Fix,GT,37.4282813,-122.0725339,,0.019225482,0.1,238.76544,1593045252447
Fix,GT,37.4282814,-122.072534,,0.025426071,0.1,238.76532,1593045253447
Fix,GT,37.4282815,-122.0725342,,0.03416305,0.1,238.76044,1593045254447
Fix,GT,37.4282803,-122.0725366,,0.5194651,0.1,237.55927,1593045255447
Fix,GT,37.4282744,-122.0725452,,1.5050517,0.1,233.99045,1593045256447
Fix,GT,37.4282655,-122.0725639,,2.2944517,0.1,237.09235,1593045257447
Fix,GT,37.4282628,-122.0725948,,3.0644848,0.1,256.90002,1593045258447
Fix,GT,37.4282746,-122.0726336,,4.2868776,0.1,285.23242,1593045259447
Fix,GT,37.428301,-122.0726813,,6.1102924,0.1,302.68744,1593045260447
Fix,GT,37.4283347,-122.0727487,,7.9047837,0.1,300.409,1593045261447
Fix,GT,37.4283631,-122.0728389,,9.273192,0.1,288.48602,1593045262447
Fix,GT,37.4283782,-122.072948,,10.436014,0.1,277.20453,1593045263447
Fix,GT,37.4283819,-122.0730716,,11.5070095,0.1,271.0876,1593045264447
Fix,GT,37.4283805,-122.0732071,,12.473016,0.1,269.01984,1593045265447
Fix,GT,37.4283783,-122.0733531,,13.352751,0.1,269.14536,1593045266447
Fix,GT,37.4283769,-122.0735091,,14.277864,0.1,269.7268,1593045267447
Fix,GT,37.428376,-122.0736741,,14.857622,0.1,269.87164,1593045268447
Fix,GT,37.4283755,-122.0738425,,14.904997,0.1,269.93466,1593045269447
Fix,GT,37.4283747,-122.0740118,,15.13356,0.1,269.82144,1593045270447
Fix,GT,37.4283738,-122.0741854,,15.615562,0.1,269.68756,1593045271447
Fix,GT,37.4283727,-122.074364,,15.978204,0.1,269.79926,1593045272447
Fix,GT,37.4283721,-122.0745471,,16.47081,0.1,270.07294,1593045273447
Fix,GT,37.4283726,-122.0747366,,17.09555,0.1,270.42615,1593045274447
Fix,GT,37.4283738,-122.0749331,,17.676006,0.1,270.64444,1593045275447
Fix,GT,37.428375,-122.075135,,18.012321,0.1,270.5617,1593045276447
Fix,GT,37.428376,-122.0753388,,18.024265,0.1,270.51242,1593045277447
Fix,GT,37.4283769,-122.0755418,,17.913237,0.1,270.48273,1593045278447
Fix,GT,37.4283775,-122.0757435,,17.778725,0.1,270.34167,1593045279447
Fix,GT,37.4283779,-122.0759431,,17.567541,0.1,270.13647,1593045280447
Fix,GT,37.4283763,-122.0761403,,17.358881,0.1,268.85205,1593045281447
Fix,GT,37.4283679,-122.0763355,,17.27613,0.1,265.43433,1593045282447
Fix,GT,37.4283479,-122.076529,,17.314356,0.1,260.62988,1593045283447
Fix,GT,37.4283148,-122.07672,,17.287304,0.1,256.09863,1593045284447
Fix,GT,37.4282727,-122.0769066,,17.018381,0.1,253.26987,1593045285447
Fix,GT,37.4282274,-122.0770866,,16.342875,0.1,252.48132,1593045286447
Fix,GT,37.4281853,-122.0772583,,15.392874,0.1,253.91154,1593045287447
Fix,GT,37.4281526,-122.0774211,,14.327278,0.1,258.06796,1593045288447
Fix,GT,37.4281329,-122.0775732,,12.921923,0.1,262.992,1593045289447
Fix,GT,37.4281236,-122.0777083,,10.989916,0.1,266.61237,1593045290447
Fix,GT,37.4281202,-122.0778193,,8.614822,0.1,268.73,1593045291447
Fix,GT,37.4281192,-122.0779034,,6.4675765,0.1,269.86417,1593045292447
Fix,GT,37.4281178,-122.0779696,,5.5197296,0.1,268.02014,1593045293447
Fix,GT,37.4281088,-122.078032,,5.7639604,0.1,257.82407,1593045294447
Fix,GT,37.4280831,-122.0780915,,6.4358845,0.1,238.9712,1593045295447
Fix,GT,37.4280369,-122.0781418,,7.369829,0.1,218.12198,1593045296447
Fix,GT,37.427971,-122.078177,,8.767117,0.1,200.35846,1593045297447
Fix,GT,37.4278865,-122.0781949,,10.408054,0.1,187.51974,1593045298447
Fix,GT,37.4277857,-122.0781988,,12.002783,0.1,180.47955,1593045299447
Fix,GT,37.4276711,-122.0781944,,13.408754,0.1,177.77179,1593045300447
Fix,GT,37.4275456,-122.0781844,,14.4210825,0.1,175.95905,1593045301447
Fix,GT,37.4274135,-122.0781687,,15.010655,0.1,174.19196,1593045302447
Fix,GT,37.4272771,-122.0781484,,15.49426,0.1,173.20209,1593045303447
Fix,GT,37.4271356,-122.0781273,,16.1655,0.1,173.78668,1593045304447
Fix,GT,37.4269869,-122.0781087,,16.97695,0.1,175.00848,1593045305447
Fix,GT,37.4268312,-122.0780938,,17.65715,0.1,176.34497,1593045306447
Fix,GT,37.4266702,-122.0780834,,18.130993,0.1,177.8703,1593045307447
Fix,GT,37.4265052,-122.0780782,,18.473057,0.1,179.271,1593045308447
Fix,GT,37.4263374,-122.0780774,,18.773808,0.1,180.30756,1593045309447
Fix,GT,37.4261667,-122.0780804,,19.121717,0.1,181.41985,1593045310447
Fix,GT,37.4259931,-122.078088,,19.401058,0.1,182.61432,1593045311447
Fix,GT,37.4258184,-122.0780998,,19.317146,0.1,183.5901,1593045312447
Fix,GT,37.4256475,-122.0781137,,18.50885,0.1,183.8877,1593045313447
Fix,GT,37.4254882,-122.078126,,16.742105,0.1,183.3184,1593045314447
Fix,GT,37.4253481,-122.0781346,,14.325472,0.1,182.57906,1593045315447
Fix,GT,37.425231,-122.0781402,,11.706583,0.1,182.17595,1593045316447
Fix,GT,37.4251375,-122.0781439,,9.071903,0.1,181.78938,1593045317447
Fix,GT,37.4250657,-122.078146,,6.8669314,0.1,181.16066,1593045318447
Fix,GT,37.4250124,-122.0781468,,4.9391346,0.1,180.51048,1593045319447
Fix,GT,37.4249772,-122.0781467,,2.9683824,0.1,179.96545,1593045320447
Fix,GT,37.4249576,-122.0781463,,1.517117,0.1,179.68042,1593045321447
Fix,GT,37.4249484,-122.0781462,,0.55506396,0.1,179.61877,1593045322447
Fix,GT,37.4249461,-122.0781462,,0.043508116,0.1,179.60626,1593045323447
Fix,GT,37.4249461,-122.0781462,,0.0016823485,0.1,179.607,1593045324447
Fix,GT,37.4249461,-122.0781462,,0.001,0.1,179.6062,1593045325447
Fix,GT,37.4249461,-122.0781462,,0.0010000002,0.1,179.60565,1593045326447
Fix,GT,37.424946,-122.0781461,,0.0005520317,0.1,179.60571,1593045327447
Fix,GT,37.4249454,-122.0781461,,0.16574888,0.1,179.60107,1593045328447
Fix,GT,37.4249437,-122.0781461,,0.26024854,0.1,179.58887,1593045329447
Fix,GT,37.4249422,-122.0781461,,0.10260159,0.1,179.58264,1593045330447
Fix,GT,37.4249415,-122.0781461,,0.096952245,0.1,179.57812,1593045331447
Fix,GT,37.4249406,-122.0781461,,0.12937948,0.1,179.57031,1593045332447
Fix,GT,37.4249387,-122.0781461,,0.37477207,0.1,179.5567,1593045333447
Fix,GT,37.4249323,-122.0781459,,1.2003249,0.1,179.21716,1593045334447
Fix,GT,37.4249153,-122.0781449,,2.7154286,0.1,178.24591,1593045335447
Fix,GT,37.4248824,-122.0781429,,4.6512833,0.1,177.61914,1593045336447
Fix,GT,37.4248303,-122.0781407,,6.9497213,0.1,178.28699,1593045337447
Fix,GT,37.4247562,-122.0781392,,9.3477745,0.1,179.24072,1593045338447
Fix,GT,37.4246638,-122.0781378,,11.110356,0.1,179.26202,1593045339447
Fix,GT,37.4245579,-122.0781348,,12.420027,0.1,178.38092,1593045340447
Fix,GT,37.4244415,-122.0781289,,13.359335,0.1,177.39777,1593045341447
Fix,GT,37.4243184,-122.0781206,,13.959301,0.1,176.57117,1593045342447
Fix,GT,37.4241917,-122.0781098,,14.137503,0.1,175.65894,1593045343447
Fix,GT,37.4240655,-122.0780968,,13.857162,0.1,175.15088,1593045344447
Fix,GT,37.4239433,-122.0780841,,13.321156,0.1,175.37408,1593045345447
Fix,GT,37.4238274,-122.0780735,,12.467649,0.1,175.94116,1593045346447
Fix,GT,37.4237209,-122.0780653,,11.112017,0.1,176.65973,1593045347447
Fix,GT,37.423628,-122.0780621,,9.510902,0.1,179.75403,1593045348447
Fix,GT,37.4235491,-122.0780714,,8.281789,0.1,188.80951,1593045349447
Fix,GT,37.4234833,-122.0781042,,7.7122726,0.1,207.09203,1593045350447
Fix,GT,37.4234369,-122.0781659,,7.7599516,0.1,232.94775,1593045351447
Fix,GT,37.4234144,-122.0782507,,8.519625,0.1,256.07846,1593045352447
Fix,GT,37.4234081,-122.0783541,,9.99633,0.1,267.2417,1593045353447
Fix,GT,37.4234054,-122.0784768,,11.719948,0.1,268.50186,1593045354447
Fix,GT,37.4234016,-122.0786186,,13.391902,0.1,268.0113,1593045355447
Fix,GT,37.4233961,-122.0787789,,14.980011,0.1,267.54163,1593045356447
Fix,GT,37.4233893,-122.0789553,,16.26214,0.1,267.3012,1593045357447
Fix,GT,37.4233818,-122.0791437,,17.137703,0.1,267.1801,1593045358447
Fix,GT,37.4233733,-122.0793406,,17.734562,0.1,266.78363,1593045359447
Fix,GT,37.4233625,-122.0795425,,18.060995,0.1,265.94946,1593045360447
Fix,GT,37.4233489,-122.079747,,18.291222,0.1,264.9254,1593045361447
Fix,GT,37.4233324,-122.079954,,18.489048,0.1,264.09048,1593045362447
Fix,GT,37.4233139,-122.0801612,,18.36871,0.1,263.55978,1593045363447
Fix,GT,37.4232942,-122.0803652,,18.037394,0.1,263.0248,1593045364447
Fix,GT,37.4232739,-122.0805654,,17.694052,0.1,263.02478,1593045365447
Fix,GT,37.4232557,-122.0807622,,17.37519,0.1,264.13556,1593045366447
Fix,GT,37.4232406,-122.0809557,,17.068054,0.1,264.8512,1593045367447
Fix,GT,37.4232263,-122.0811461,,16.792492,0.1,264.624,1593045368447
Fix,GT,37.4232111,-122.0813334,,16.544361,0.1,264.1714,1593045369447
Fix,GT,37.4231954,-122.0815179,,16.307608,0.1,263.9796,1593045370447
Fix,GT,37.4231799,-122.0816998,,16.074356,0.1,264.14554,1593045371447
Fix,GT,37.4231647,-122.081879,,15.838249,0.1,263.92035,1593045372447
Fix,GT,37.4231486,-122.0820555,,15.638151,0.1,263.38284,1593045373447
Fix,GT,37.4231321,-122.0822305,,15.559077,0.1,263.42163,1593045374447
Fix,GT,37.4231165,-122.082405,,15.495932,0.1,264.03607,1593045375447
Fix,GT,37.4231035,-122.0825782,,15.289832,0.1,265.36395,1593045376447
Fix,GT,37.4230944,-122.082749,,15.02472,0.1,266.75366,1593045377447
Fix,GT,37.423088,-122.082917,,14.750668,0.1,267.81674,1593045378447
Fix,GT,37.4230844,-122.0830819,,14.470093,0.1,269.04233,1593045379447
Fix,GT,37.4230835,-122.083245,,14.446974,0.1,269.99176,1593045380447
Fix,GT,37.423084,-122.08341,,14.83642,0.1,270.5451,1593045381447
Fix,GT,37.4230866,-122.083581,,15.451815,0.1,271.6609,1593045382447
Fix,GT,37.4230927,-122.0837594,,16.125332,0.1,273.18213,1593045383447
Fix,GT,37.4231027,-122.0839446,,16.746868,0.1,274.33536,1593045384447
Fix,GT,37.4231157,-122.084137,,17.437035,0.1,275.3864,1593045385447
Fix,GT,37.4231323,-122.0843364,,18.008507,0.1,276.59546,1593045386447
Fix,GT,37.4231526,-122.0845404,,18.338478,0.1,277.5457,1593045387447
Fix,GT,37.4231755,-122.0847468,,18.536045,0.1,278.265,1593045388447
Fix,GT,37.4232005,-122.0849546,,18.639479,0.1,279.03564,1593045389447
Fix,GT,37.4232281,-122.0851621,,18.554993,0.1,279.9155,1593045390447
Fix,GT,37.4232573,-122.0853667,,18.235981,0.1,280.4926,1593045391447
Fix,GT,37.4232878,-122.0855672,,17.897766,0.1,281.49155,1593045392447
Fix,GT,37.4233218,-122.0857636,,17.734982,0.1,283.16937,1593045393447
Fix,GT,37.4233595,-122.0859574,,17.58718,0.1,284.19305,1593045394447
Fix,GT,37.4233985,-122.0861491,,17.44619,0.1,284.58942,1593045395447
Fix,GT,37.4234381,-122.0863398,,17.461086,0.1,284.80194,1593045396447
Fix,GT,37.4234782,-122.0865315,,17.653915,0.1,284.82825,1593045397447
Fix,GT,37.4235187,-122.0867257,,17.894304,0.1,284.75742,1593045398447
Fix,GT,37.4235597,-122.0869228,,18.164848,0.1,284.66293,1593045399447
Fix,GT,37.4236009,-122.0871233,,18.508364,0.1,284.57135,1593045400447
Fix,GT,37.4236428,-122.087328,,18.908932,0.1,284.53326,1593045401447
Fix,GT,37.4236856,-122.0875372,,19.33146,0.1,284.52835,1593045402447
Fix,GT,37.4237294,-122.0877506,,19.624868,0.1,284.5878,1593045403447
Fix,GT,37.4237736,-122.0879659,,19.670902,0.1,284.6047,1593045404447
Fix,GT,37.4238172,-122.0881806,,19.52621,0.1,284.22604,1593045405447
Fix,GT,37.4238586,-122.0883932,,19.17092,0.1,283.64682,1593045406447
Fix,GT,37.4238975,-122.0886004,,18.479794,0.1,283.33206,1593045407447
Fix,GT,37.4239335,-122.0887989,,17.51009,0.1,282.60907,1593045408447
Fix,GT,37.4239632,-122.0889865,,16.303295,0.1,280.03192,1593045409447
Fix,GT,37.4239817,-122.089161,,14.885811,0.1,275.55057,1593045410447
Fix,GT,37.4239879,-122.0893202,,13.357952,0.1,271.06036,1593045411447
Fix,GT,37.4239853,-122.0894619,,11.8538,0.1,267.28992,1593045412447
Fix,GT,37.4239753,-122.0895891,,10.901467,0.1,262.5968,1593045413447
Fix,GT,37.4239568,-122.0897067,,10.32095,0.1,257.06223,1593045414447
Fix,GT,37.4239337,-122.0898143,,9.344198,0.1,254.66452,1593045415447
Fix,GT,37.4239176,-122.0899109,,8.155339,0.1,261.08856,1593045416447
Fix,GT,37.4239207,-122.0899966,,7.312954,0.1,277.7596,1593045417447
Fix,GT,37.4239471,-122.0900682,,7.0504775,0.1,300.21582,1593045418447
Fix,GT,37.423994,-122.0901233,,7.578758,0.1,320.0055,1593045419447
Fix,GT,37.4240555,-122.0901726,,8.6875515,0.1,328.1462,1593045420447
Fix,GT,37.4241264,-122.0902292,,9.99078,0.1,327.0944,1593045421447
Fix,GT,37.424205,-122.0902987,,11.352251,0.1,323.90295,1593045422447
Fix,GT,37.4242887,-122.0903829,,12.393824,0.1,320.01016,1593045423447
Fix,GT,37.4243731,-122.0904815,,13.174246,0.1,315.49225,1593045424447
Fix,GT,37.4244545,-122.0905944,,13.791935,0.1,310.22348,1593045425447
Fix,GT,37.4245301,-122.0907203,,14.07946,0.1,305.2418,1593045426447
Fix,GT,37.4245976,-122.0908555,,14.192796,0.1,300.16574,1593045427447
Fix,GT,37.4246556,-122.0909993,,14.390883,0.1,294.79376,1593045428447
Fix,GT,37.4247031,-122.0911507,,14.438747,0.1,289.71112,1593045429447
Fix,GT,37.4247416,-122.0913053,,14.229862,0.1,286.15442,1593045430447
Fix,GT,37.4247741,-122.091459,,13.931442,0.1,284.52612,1593045431447
Fix,GT,37.4248046,-122.0916105,,13.79216,0.1,284.3202,1593045432447
Fix,GT,37.4248359,-122.0917627,,14.116985,0.1,284.90613,1593045433447
Fix,GT,37.4248705,-122.0919195,,14.695491,0.1,286.2818,1593045434447
Fix,GT,37.4249107,-122.0920806,,15.160337,0.1,288.28088,1593045435447
Fix,GT,37.4249561,-122.0922432,,15.286638,0.1,290.23376,1593045436447
Fix,GT,37.4250063,-122.0924033,,15.167503,0.1,292.35162,1593045437447
Fix,GT,37.4250607,-122.0925598,,15.04912,0.1,294.52383,1593045438447
Fix,GT,37.4251191,-122.0927124,,14.906035,0.1,296.41306,1593045439447
Fix,GT,37.4251807,-122.0928614,,14.835741,0.1,298.27798,1593045440447
Fix,GT,37.4252465,-122.0930078,,14.936974,0.1,300.3291,1593045441447
Fix,GT,37.4253175,-122.0931522,,15.07113,0.1,302.7454,1593045442447
Fix,GT,37.4253938,-122.093293,,14.997236,0.1,305.14413,1593045443447
Fix,GT,37.4254725,-122.093429,,14.749245,0.1,306.50507,1593045444447
Fix,GT,37.4255522,-122.0935604,,14.479723,0.1,307.8927,1593045445447
Fix,GT,37.4256339,-122.0936862,,14.236859,0.1,309.9051,1593045446447
Fix,GT,37.4257163,-122.0938062,,13.759232,0.1,311.18335,1593045447447
Fix,GT,37.4257971,-122.0939194,,13.150482,0.1,312.3982,1593045448447
Fix,GT,37.4258777,-122.094026,,12.968586,0.1,314.2126,1593045449447
Fix,GT,37.425962,-122.0941299,,13.331594,0.1,316.3825,1593045450447
Fix,GT,37.4260532,-122.0942328,,13.904158,0.1,319.0305,1593045451447
Fix,GT,37.4261518,-122.0943346,,14.419899,0.1,321.46964,1593045452447
Fix,GT,37.4262563,-122.0944357,,14.830492,0.1,322.93137,1593045453447
Fix,GT,37.4263642,-122.0945363,,14.995399,0.1,323.7481,1593045454447
Fix,GT,37.4264744,-122.0946357,,15.103933,0.1,325.05072,1593045455447
Fix,GT,37.4265878,-122.0947299,,15.055963,0.1,327.96106,1593045456447
Fix,GT,37.4267032,-122.0948139,,14.458724,0.1,331.30725,1593045457447
Fix,GT,37.4268156,-122.0948878,,13.701464,0.1,333.0479,1593045458447
Fix,GT,37.426923,-122.0949561,,13.057659,0.1,333.05103,1593045459447
Fix,GT,37.4270237,-122.0950236,,12.344669,0.1,331.06342,1593045460447
Fix,GT,37.427117,-122.095094,,12.0007305,0.1,328.03705,1593045461447
Fix,GT,37.4272075,-122.0951708,,12.375139,0.1,325.05948,1593045462447
Fix,GT,37.4272986,-122.0952579,,13.062048,0.1,321.5769,1593045463447
Fix,GT,37.4273893,-122.0953569,,13.554047,0.1,317.52277,1593045464447
Fix,GT,37.4274758,-122.0954671,,13.775414,0.1,313.00363,1593045465447
Fix,GT,37.4275556,-122.0955861,,13.710244,0.1,308.53723,1593045466447
Fix,GT,37.4276273,-122.0957099,,13.41646,0.1,304.7984,1593045467447
Fix,GT,37.4276914,-122.0958372,,13.300773,0.1,301.06027,1593045468447
Fix,GT,37.4277479,-122.0959699,,13.372812,0.1,296.57437,1593045469447
Fix,GT,37.4277964,-122.0961082,,13.398884,0.1,292.35254,1593045470447
Fix,GT,37.4278371,-122.0962518,,13.5951,0.1,288.2219,1593045471447
Fix,GT,37.4278697,-122.0964009,,13.728262,0.1,283.98315,1593045472447
Fix,GT,37.4278937,-122.0965523,,13.628846,0.1,279.87784,1593045473447
Fix,GT,37.4279087,-122.0967046,,13.572364,0.1,275.59518,1593045474447
Fix,GT,37.4279148,-122.0968571,,13.433361,0.1,271.4015,1593045475447
Fix,GT,37.4279121,-122.0970072,,13.158064,0.1,267.3187,1593045476447
Fix,GT,37.4279007,-122.0971532,,12.672426,0.1,262.89413,1593045477447
Fix,GT,37.4278822,-122.0972886,,11.487934,0.1,259.2485,1593045478447
Fix,GT,37.4278619,-122.0974076,,10.015116,0.1,257.63226,1593045479447
Fix,GT,37.4278432,-122.0975116,,8.8215065,0.1,257.57825,1593045480447
Fix,GT,37.427827,-122.0976043,,8.069076,0.1,258.00574,1593045481447
Fix,GT,37.4278116,-122.0976926,,7.956214,0.1,257.5687,1593045482447
Fix,GT,37.4277956,-122.0977801,,7.982316,0.1,257.12567,1593045483447
Fix,GT,37.427779,-122.0978694,,8.286319,0.1,257.0619,1593045484447
Fix,GT,37.4277619,-122.0979632,,8.76498,0.1,257.3443,1593045485447
Fix,GT,37.4277454,-122.0980628,,9.258473,0.1,258.71423,1593045486447
Fix,GT,37.42773,-122.098169,,9.896376,0.1,259.93726,1593045487447
Fix,GT,37.4277134,-122.0982835,,10.709805,0.1,259.53433,1593045488447
Fix,GT,37.4276945,-122.0984066,,11.427911,0.1,259.0776,1593045489447
Fix,GT,37.427674,-122.0985358,,11.833622,0.1,258.60437,1593045490447
Fix,GT,37.4276523,-122.0986669,,11.777163,0.1,258.2303,1593045491447
Fix,GT,37.4276308,-122.0987941,,11.118555,0.1,257.9051,1593045492447
Fix,GT,37.4276106,-122.098911,,9.966551,0.1,257.55737,1593045493447
Fix,GT,37.4275924,-122.0990135,,8.624882,0.1,257.2904,1593045494447
Fix,GT,37.4275766,-122.0991007,,7.1554413,0.1,257.0238,1593045495447
Fix,GT,37.4275642,-122.099169,,5.11374,0.1,257.06845,1593045496447
Fix,GT,37.4275564,-122.0992151,,3.3334732,0.1,257.42984,1593045497447
Fix,GT,37.427551,-122.0992486,,2.844903,0.1,257.78574,1593045498447
Fix,GT,37.4275468,-122.0992808,,3.0548415,0.1,259.40967,1593045499447
Fix,GT,37.4275461,-122.0993188,,3.7008724,0.1,266.87366,1593045500447
Fix,GT,37.4275557,-122.0993647,,4.71471,0.1,283.3619,1593045501447
Fix,GT,37.4275831,-122.099413,,5.8635736,0.1,305.98553,1593045502447
Fix,GT,37.4276314,-122.0994531,,7.2293587,0.1,328.39,1593045503447
Fix,GT,37.4276982,-122.099485,,8.749105,0.1,340.54312,1593045504447
Fix,GT,37.4277797,-122.0995188,,10.235049,0.1,341.5301,1593045505447
Fix,GT,37.4278732,-122.0995601,,11.755747,0.1,340.35648,1593045506447
Fix,GT,37.4279786,-122.0996084,,13.10929,0.1,339.95203,1593045507447
Fix,GT,37.4280951,-122.0996615,,14.342062,0.1,340.17023,1593045508447
Fix,GT,37.4282212,-122.0997181,,15.40194,0.1,340.4157,1593045509447
Fix,GT,37.4283552,-122.0997781,,16.169445,0.1,340.59222,1593045510447
Fix,GT,37.428494,-122.0998395,,16.425018,0.1,340.94608,1593045511447
Fix,GT,37.4286338,-122.0998995,,16.446003,0.1,341.43594,1593045512447
Fix,GT,37.4287755,-122.0999586,,16.737665,0.1,341.87683,1593045513447
Fix,GT,37.4289201,-122.1000182,,17.055676,0.1,342.01535,1593045514447
Fix,GT,37.4290669,-122.1000787,,17.189997,0.1,341.8167,1593045515447
Fix,GT,37.4292134,-122.10014,,17.013313,0.1,341.43704,1593045516447
Fix,GT,37.4293561,-122.100201,,16.36024,0.1,341.02985,1593045517447
Fix,GT,37.4294912,-122.1002592,,15.323236,0.1,341.33926,1593045518447
Fix,GT,37.4296181,-122.1003107,,14.327193,0.1,342.76782,1593045519447
Fix,GT,37.4297392,-122.1003529,,13.655447,0.1,346.08252,1593045520447
Fix,GT,37.429858,-122.1003795,,13.157145,0.1,352.93295,1593045521447
Fix,GT,37.4299731,-122.1003833,,12.506754,0.1,2.373108,1593045522447
Fix,GT,37.4300815,-122.1003638,,11.988941,0.1,11.653931,1593045523447
Fix,GT,37.4301852,-122.1003271,,12.076083,0.1,17.895538,1593045524447
Fix,GT,37.4302895,-122.1002807,,12.469769,0.1,20.334167,1593045525447
Fix,GT,37.4303942,-122.1002301,,12.277117,0.1,21.560516,1593045526447
Fix,GT,37.430494,-122.100183,,11.251272,0.1,19.505981,1593045527447
Fix,GT,37.4305871,-122.1001545,,10.122825,0.1,9.293396,1593045528447
Fix,GT,37.4306734,-122.100157,,9.291726,0.1,352.94965,1593045529447
Fix,GT,37.4307471,-122.100189,,8.256013,0.1,334.9883,1593045530447
Fix,GT,37.4308028,-122.1002395,,7.27419,0.1,320.6536,1593045531447
Fix,GT,37.430848,-122.1002949,,6.987952,0.1,315.8233,1593045532447
Fix,GT,37.4308963,-122.1003466,,7.1546993,0.1,321.41626,1593045533447
Fix,GT,37.4309544,-122.1003836,,7.4032164,0.1,336.9938,1593045534447
Fix,GT,37.4310206,-122.1003989,,7.722618,0.1,352.69366,1593045535447
Fix,GT,37.431093,-122.1003998,,8.461914,0.1,0.8403015,1593045536447
Fix,GT,37.4311741,-122.1003938,,9.566271,0.1,3.6680603,1593045537447
Fix,GT,37.4312651,-122.100386,,10.636133,0.1,3.881775,1593045538447
Fix,GT,37.4313649,-122.1003775,,11.467002,0.1,3.8506775,1593045539447
Fix,GT,37.4314699,-122.1003669,,11.870099,0.1,4.9960938,1593045540447
Fix,GT,37.4315757,-122.1003529,,11.758894,0.1,6.3665466,1593045541447
Fix,GT,37.4316806,-122.1003375,,11.746765,0.1,6.517639,1593045542447
Fix,GT,37.4317866,-122.1003221,,11.934063,0.1,6.509094,1593045543447
Fix,GT,37.4318928,-122.1003059,,11.686453,0.1,7.0003357,1593045544447
Fix,GT,37.4319938,-122.1002884,,10.835379,0.1,7.9150696,1593045545447
Fix,GT,37.4320842,-122.1002668,,9.547753,0.1,12.756805,1593045546447
Fix,GT,37.4321583,-122.1002293,,8.447937,0.1,27.433594,1593045547447
Fix,GT,37.4322105,-122.1001674,,8.009588,0.1,49.799286,1593045548447
Fix,GT,37.4322373,-122.1000845,,8.295465,0.1,73.15573,1593045549447
Fix,GT,37.4322412,-122.0999861,,9.37852,0.1,90.66791,1593045550447
Fix,GT,37.4322311,-122.0998733,,10.741266,0.1,97.81085,1593045551447
Fix,GT,37.4322158,-122.0997461,,12.013781,0.1,98.71304,1593045552447
Fix,GT,37.4321998,-122.0996057,,13.056426,0.1,97.95709,1593045553447
Fix,GT,37.432185,-122.0994551,,13.81691,0.1,96.7453,1593045554447
Fix,GT,37.432172,-122.0992974,,14.139229,0.1,95.88495,1593045555447
Fix,GT,37.4321598,-122.0991387,,14.044585,0.1,95.63495,1593045556447
Fix,GT,37.4321475,-122.0989813,,13.966402,0.1,95.82733,1593045557447
Fix,GT,37.4321346,-122.0988237,,14.096815,0.1,96.07355,1593045558447
Fix,GT,37.432121,-122.0986644,,14.225439,0.1,96.41458,1593045559447
Fix,GT,37.432106,-122.0985051,,14.127771,0.1,97.04123,1593045560447
Fix,GT,37.4320897,-122.0983481,,13.874454,0.1,97.76236,1593045561447
Fix,GT,37.4320725,-122.0981951,,13.379728,0.1,98.0437,1593045562447
Fix,GT,37.4320567,-122.0980511,,12.230351,0.1,97.32083,1593045563447
Fix,GT,37.4320466,-122.0979228,,10.527676,0.1,93.89456,1593045564447
Fix,GT,37.4320485,-122.0978135,,8.994982,0.1,84.774475,1593045565447
Fix,GT,37.4320686,-122.0977226,,7.9631634,0.1,69.442474,1593045566447
Fix,GT,37.4321067,-122.0976533,,7.2419834,0.1,50.179626,1593045567447
Fix,GT,37.4321573,-122.0976127,,6.416752,0.1,27.066437,1593045568447
Fix,GT,37.4322074,-122.097607,,5.1800594,0.1,359.51608,1593045569447
Fix,GT,37.4322431,-122.0976319,,4.2114105,0.1,329.174,1593045570447
Fix,GT,37.4322601,-122.0976713,,3.8430467,0.1,300.94482,1593045571447
Fix,GT,37.4322659,-122.0977133,,3.7899704,0.1,283.5876,1593045572447
Fix,GT,37.4322694,-122.0977562,,4.0072255,0.1,277.91745,1593045573447
Fix,GT,37.4322738,-122.097808,,5.4102945,0.1,277.04932,1593045574447
Fix,GT,37.4322807,-122.0978807,,7.557043,0.1,277.38565,1593045575447
Fix,GT,37.4322907,-122.097975,,9.175705,0.1,278.14713,1593045576447
Fix,GT,37.4323028,-122.0980825,,9.897946,0.1,278.35785,1593045577447
Fix,GT,37.4323131,-122.0981931,,9.609991,0.1,275.49072,1593045578447
Fix,GT,37.432312,-122.0982952,,8.452924,0.1,265.1974,1593045579447
Fix,GT,37.4322928,-122.0983777,,6.9674397,0.1,248.30832,1593045580447
Fix,GT,37.4322607,-122.0984336,,5.481635,0.1,230.40822,1593045581447
Fix,GT,37.432227,-122.0984641,,3.877149,0.1,214.1885,1593045582447
Fix,GT,37.4321998,-122.0984807,,2.8643994,0.1,207.43047,1593045583447
Fix,GT,37.4321782,-122.0985027,,3.4389439,0.1,217.67079,1593045584447
Fix,GT,37.4321617,-122.098545,,5.062613,0.1,241.21252,1593045585447
Fix,GT,37.4321557,-122.0986147,,7.5982504,0.1,264.23245,1593045586447
Fix,GT,37.4321622,-122.0987158,,10.356543,0.1,275.80045,1593045587447
Fix,GT,37.4321767,-122.0988457,,12.751113,0.1,278.3802,1593045588447
Fix,GT,37.4321922,-122.0990002,,14.731466,0.1,276.52927,1593045589447
Fix,GT,37.432205,-122.0991733,,15.976326,0.1,274.7663,1593045590447
Fix,GT,37.4322161,-122.0993553,,16.139572,0.1,274.5075,1593045591447
Fix,GT,37.4322285,-122.0995326,,15.241148,0.1,275.50073,1593045592447
Fix,GT,37.432242,-122.099695,,13.56728,0.1,276.44476,1593045593447
Fix,GT,37.4322548,-122.0998368,,11.681118,0.1,276.43088,1593045594447
Fix,GT,37.4322648,-122.0999567,,9.64168,0.1,275.57208,1593045595447
Fix,GT,37.4322718,-122.1000516,,7.106988,0.1,275.37122,1593045596447
Fix,GT,37.4322765,-122.100116,,4.589732,0.1,275.17484,1593045597447
Fix,GT,37.4322766,-122.1001595,,3.6196632,0.1,269.84503,1593045598447
Fix,GT,37.4322659,-122.1002043,,4.909587,0.1,254.6435,1593045599447
Fix,GT,37.4322334,-122.1002574,,7.135977,0.1,231.66772,1593045600447
Fix,GT,37.4321723,-122.100304,,9.046383,0.1,208.11656,1593045601447
Fix,GT,37.4320862,-122.1003335,,10.950508,0.1,192.95988,1593045602447
Fix,GT,37.4319796,-122.1003526,,12.987696,0.1,187.74236,1593045603447
Fix,GT,37.4318548,-122.100373,,14.854953,0.1,188.08311,1593045604447
Fix,GT,37.4317165,-122.1004012,,16.071764,0.1,190.2635,1593045605447
Fix,GT,37.4315731,-122.1004377,,16.249352,0.1,192.46338,1593045606447
Fix,GT,37.4314323,-122.1004779,,15.74465,0.1,193.00667,1593045607447
Fix,GT,37.4312962,-122.1005142,,15.135546,0.1,191.34636,1593045608447
Fix,GT,37.4311664,-122.1005422,,14.018595,0.1,188.91426,1593045609447
Fix,GT,37.4310486,-122.1005628,,12.539667,0.1,187.69527,1593045610447
Fix,GT,37.4309403,-122.1005797,,11.955736,0.1,187.05702,1593045611447
Fix,GT,37.4308312,-122.1005952,,12.652934,0.1,186.2836,1593045612447
Fix,GT,37.4307115,-122.1006114,,14.183836,0.1,186.2273,1593045613447
Fix,GT,37.4305777,-122.1006318,,15.628065,0.1,187.65863,1593045614447
Fix,GT,37.4304343,-122.1006621,,16.532974,0.1,191.13654,1593045615447
Fix,GT,37.4302868,-122.1007084,,17.212687,0.1,195.99965,1593045616447
Fix,GT,37.4301379,-122.1007741,,17.83746,0.1,201.26521,1593045617447
Fix,GT,37.4299886,-122.1008565,,18.311111,0.1,205.12848,1593045618447
Fix,GT,37.4298407,-122.1009491,,18.28722,0.1,207.37837,1593045619447
Fix,GT,37.4296977,-122.1010474,,17.792377,0.1,209.46585,1593045620447
Fix,GT,37.429563,-122.1011497,,17.142883,0.1,212.87018,1593045621447
Fix,GT,37.4294426,-122.101264,,16.483383,0.1,220.86183,1593045622447
Fix,GT,37.4293458,-122.1013998,,16.016106,0.1,233.80664,1593045623447
Fix,GT,37.4292818,-122.1015575,,15.656096,0.1,249.68274,1593045624447
Fix,GT,37.4292574,-122.101728,,15.504122,0.1,266.7701,1593045625447
Fix,GT,37.4292758,-122.1018999,,15.770647,0.1,284.971,1593045626447
Fix,GT,37.4293374,-122.102061,,16.364464,0.1,302.58878,1593045627447
Fix,GT,37.4294343,-122.1022041,,17.243736,0.1,314.62515,1593045628447
Fix,GT,37.4295525,-122.1023403,,18.620018,0.1,318.46893,1593045629447
Fix,GT,37.4296835,-122.102487,,20.52325,0.1,318.10956,1593045630447
Fix,GT,37.429827,-122.1026517,,22.645775,0.1,317.3742,1593045631447
Fix,GT,37.4299826,-122.102833,,24.470304,0.1,317.17383,1593045632447
Fix,GT,37.4301491,-122.1030263,,25.835445,0.1,317.50815,1593045633447
Fix,GT,37.4303252,-122.1032268,,26.924196,0.1,318.1739,1593045634447
Fix,GT,37.4305097,-122.1034323,,27.766037,0.1,318.69644,1593045635447
Fix,GT,37.4306997,-122.1036408,,28.12138,0.1,319.16473,1593045636447
Fix,GT,37.4308916,-122.1038473,,27.908342,0.1,319.74277,1593045637447
Fix,GT,37.4310821,-122.1040498,,27.499454,0.1,319.81723,1593045638447
Fix,GT,37.4312679,-122.1042483,,26.68982,0.1,319.59293,1593045639447
Fix,GT,37.431447,-122.1044409,,25.749084,0.1,319.26505,1593045640447
Fix,GT,37.4316202,-122.1046312,,25.481693,0.1,318.42947,1593045641447
Fix,GT,37.4317913,-122.1048249,,25.826843,0.1,317.81384,1593045642447
Fix,GT,37.431966,-122.1050223,,26.478481,0.1,318.3695,1593045643447
Fix,GT,37.4321481,-122.1052219,,27.260956,0.1,319.44696,1593045644447
Fix,GT,37.4323383,-122.1054246,,28.244837,0.1,319.97522,1593045645447
Fix,GT,37.4325367,-122.1056334,,29.266924,0.1,320.13364,1593045646447
Fix,GT,37.4327416,-122.1058486,,29.948425,0.1,320.2231,1593045647447
Fix,GT,37.4329496,-122.1060662,,30.139742,0.1,320.31598,1593045648447
Fix,GT,37.4331587,-122.1062843,,30.194603,0.1,320.42532,1593045649447
Fix,GT,37.433368,-122.1065023,,30.171234,0.1,320.26843,1593045650447
Fix,GT,37.4335762,-122.1067211,,30.104525,0.1,319.97952,1593045651447
Fix,GT,37.433783,-122.1069396,,29.891376,0.1,320.008,1593045652447
Fix,GT,37.4339878,-122.1071559,,29.54377,0.1,320.01184,1593045653447
Fix,GT,37.4341901,-122.1073697,,29.189636,0.1,319.99228,1593045654447
Fix,GT,37.4343902,-122.1075808,,28.854969,0.1,320.10696,1593045655447
Fix,GT,37.4345883,-122.1077891,,28.52729,0.1,320.16168,1593045656447
Fix,GT,37.4347842,-122.1079949,,28.216465,0.1,320.18378,1593045657447
Fix,GT,37.434978,-122.1081979,,27.853458,0.1,320.29236,1593045658447
Fix,GT,37.4351693,-122.108398,,27.471092,0.1,320.28,1593045659447
Fix,GT,37.4353582,-122.108596,,27.175362,0.1,320.21338,1593045660447
Fix,GT,37.4355452,-122.1087918,,26.887236,0.1,320.25043,1593045661447
Fix,GT,37.4357301,-122.1089855,,26.592045,0.1,320.2718,1593045662447
Fix,GT,37.4359132,-122.1091768,,26.357481,0.1,320.30307,1593045663447
Fix,GT,37.4360955,-122.1093676,,26.424871,0.1,320.25586,1593045664447
Fix,GT,37.4362788,-122.1095598,,26.631546,0.1,320.20935,1593045665447
Fix,GT,37.4364628,-122.1097528,,26.543613,0.1,320.2002,1593045666447
Fix,GT,37.4366457,-122.1099448,,26.439152,0.1,320.19788,1593045667447
Fix,GT,37.4368287,-122.1101361,,26.442322,0.1,320.3829,1593045668447
Fix,GT,37.4370119,-122.1103271,,26.457867,0.1,320.3239,1593045669447
Fix,GT,37.4371953,-122.1105202,,26.766102,0.1,319.89435,1593045670447
Fix,GT,37.4373809,-122.110718,,27.290157,0.1,319.7117,1593045671447
Fix,GT,37.4375695,-122.1109186,,27.551136,0.1,319.93878,1593045672447
Fix,GT,37.4377597,-122.1111189,,27.547443,0.1,320.18503,1593045673447
Fix,GT,37.43795,-122.1113185,,27.525646,0.1,320.23734,1593045674447
Fix,GT,37.4381405,-122.111518,,27.573498,0.1,320.21472,1593045675447
Fix,GT,37.4383311,-122.1117179,,27.55297,0.1,320.13788,1593045676447
Fix,GT,37.4385208,-122.1119174,,27.411858,0.1,320.15866,1593045677447
Fix,GT,37.4387103,-122.1121163,,27.475433,0.1,320.2253,1593045678447
Fix,GT,37.4389008,-122.1123158,,27.596397,0.1,320.25998,1593045679447
Fix,GT,37.4390917,-122.1125156,,27.58731,0.1,320.24548,1593045680447
Fix,GT,37.4392826,-122.1127155,,27.649166,0.1,320.20966,1593045681447
Fix,GT,37.4394743,-122.1129167,,27.879454,0.1,320.10037,1593045682447
Fix,GT,37.4396683,-122.1131207,,28.339338,0.1,320.12057,1593045683447
Fix,GT,37.4398661,-122.1133285,,28.94799,0.1,320.1994,1593045684447
Fix,GT,37.4400682,-122.1135409,,29.563332,0.1,320.073,1593045685447
Fix,GT,37.4402735,-122.1137578,,29.967945,0.1,320.03265,1593045686447
Fix,GT,37.4404806,-122.1139758,,29.960812,0.1,320.16687,1593045687447
Fix,GT,37.4406869,-122.1141921,,29.73793,0.1,320.26004,1593045688447
Fix,GT,37.4408916,-122.1144067,,29.451603,0.1,320.16858,1593045689447
Fix,GT,37.4410937,-122.1146192,,29.086021,0.1,320.14294,1593045690447
Fix,GT,37.4412931,-122.114829,,28.690147,0.1,320.2251,1593045691447
Fix,GT,37.4414901,-122.1150353,,28.2789,0.1,320.28598,1593045692447
Fix,GT,37.4416843,-122.1152384,,27.87556,0.1,320.33746,1593045693447
Fix,GT,37.4418762,-122.1154387,,27.531292,0.1,320.45212,1593045694447
Fix,GT,37.4420662,-122.1156363,,27.281448,0.1,320.38034,1593045695447
Fix,GT,37.4422542,-122.1158332,,27.097,0.1,320.0642,1593045696447
Fix,GT,37.4424405,-122.1160305,,27.056137,0.1,319.9008,1593045697447
Fix,GT,37.4426271,-122.1162282,,27.176888,0.1,319.99155,1593045698447
Fix,GT,37.442815,-122.1164265,,27.30928,0.1,320.02167,1593045699447
Fix,GT,37.4430036,-122.1166257,,27.435244,0.1,319.99954,1593045700447
Fix,GT,37.4431933,-122.1168258,,27.573334,0.1,320.15018,1593045701447
Fix,GT,37.4433845,-122.1170257,,27.640907,0.1,320.44565,1593045702447
Fix,GT,37.4435763,-122.1172246,,27.59499,0.1,320.59174,1593045703447
Fix,GT,37.4437674,-122.1174229,,27.441841,0.1,320.4558,1593045704447
Fix,GT,37.4439565,-122.1176206,,27.178719,0.1,320.2045,1593045705447
Fix,GT,37.4441429,-122.117817,,26.857725,0.1,319.99496,1593045706447
Fix,GT,37.4443267,-122.1180116,,26.543945,0.1,319.9131,1593045707447
Fix,GT,37.4445083,-122.1182043,,26.252666,0.1,319.84897,1593045708447
Fix,GT,37.4446881,-122.1183947,,25.984842,0.1,320.1859,1593045709447
Fix,GT,37.4448679,-122.1185816,,25.893463,0.1,320.7207,1593045710447
Fix,GT,37.445049,-122.1187678,,26.11422,0.1,320.63507,1593045711447
Fix,GT,37.4452314,-122.1189571,,26.422775,0.1,320.3369,1593045712447
Fix,GT,37.4454151,-122.1191488,,26.572924,0.1,320.33032,1593045713447
Fix,GT,37.4455988,-122.1193404,,26.418522,0.1,320.38086,1593045714447
Fix,GT,37.4457808,-122.1195297,,26.053078,0.1,320.4887,1593045715447
Fix,GT,37.4459605,-122.1197156,,25.667454,0.1,320.67242,1593045716447
Fix,GT,37.4461383,-122.1198993,,25.506153,0.1,320.47333,1593045717447
Fix,GT,37.446315,-122.1200841,,25.585407,0.1,320.08923,1593045718447
Fix,GT,37.4464914,-122.1202699,,25.482574,0.1,320.05893,1593045719447
Fix,GT,37.4466663,-122.1204537,,25.159082,0.1,320.16843,1593045720447
Fix,GT,37.4468388,-122.1206348,,24.787176,0.1,320.1185,1593045721447
Fix,GT,37.4470084,-122.1208138,,24.424002,0.1,319.9947,1593045722447
Fix,GT,37.4471755,-122.1209904,,24.090155,0.1,319.9751,1593045723447
Fix,GT,37.4473405,-122.1211648,,23.823288,0.1,319.95346,1593045724447
Fix,GT,37.4475043,-122.1213384,,23.842579,0.1,319.86188,1593045725447
Fix,GT,37.4476695,-122.1215139,,24.282005,0.1,319.80365,1593045726447
Fix,GT,37.4478382,-122.1216929,,24.782845,0.1,319.97626,1593045727447
Fix,GT,37.4480102,-122.1218738,,24.95988,0.1,320.21973,1593045728447
Fix,GT,37.4481825,-122.1220539,,24.809069,0.1,320.35095,1593045729447
Fix,GT,37.4483531,-122.1222322,,24.480688,0.1,320.27472,1593045730447
Fix,GT,37.4485211,-122.1224082,,24.123493,0.1,320.1398,1593045731447
Fix,GT,37.4486866,-122.1225819,,23.767284,0.1,320.2775,1593045732447
Fix,GT,37.4488501,-122.1227523,,23.445412,0.1,320.44223,1593045733447
Fix,GT,37.4490123,-122.1229204,,23.33765,0.1,320.62204,1593045734447
Fix,GT,37.449175,-122.1230885,,23.486189,0.1,320.56525,1593045735447
Fix,GT,37.4493389,-122.123259,,23.783484,0.1,320.2615,1593045736447
Fix,GT,37.4495045,-122.1234327,,24.12669,0.1,320.08786,1593045737447
Fix,GT,37.4496717,-122.1236089,,24.311522,0.1,320.04553,1593045738447
Fix,GT,37.4498395,-122.1237859,,24.326601,0.1,320.05222,1593045739447
Fix,GT,37.4500073,-122.123963,,24.359306,0.1,319.99982,1593045740447
Fix,GT,37.4501756,-122.1241411,,24.532185,0.1,319.83905,1593045741447
Fix,GT,37.4503447,-122.1243217,,24.777786,0.1,319.55136,1593045742447
Fix,GT,37.4505147,-122.1245056,,25.040611,0.1,319.1126,1593045743447
Fix,GT,37.4506849,-122.1246931,,25.17295,0.1,318.56122,1593045744447
Fix,GT,37.4508521,-122.1248811,,24.533356,0.1,318.03976,1593045745447
Fix,GT,37.4510113,-122.1250624,,23.248764,0.1,317.75378,1593045746447
Fix,GT,37.4511623,-122.1252366,,22.398932,0.1,317.33047,1593045747447
Fix,GT,37.4513075,-122.1254091,,22.023857,0.1,316.08307,1593045748447
Fix,GT,37.4514466,-122.1255852,,21.89298,0.1,313.79932,1593045749447
Fix,GT,37.4515816,-122.1257715,,22.809898,0.1,311.32666,1593045750447
Fix,GT,37.45172,-122.1259761,,24.840721,0.1,309.93878,1593045751447
Fix,GT,37.4518698,-122.1262009,,27.002445,0.1,310.11676,1593045752447
Fix,GT,37.4520329,-122.126442,,28.816551,0.1,310.5676,1593045753447
Fix,GT,37.4522029,-122.1266948,,29.488081,0.1,309.83795,1593045754447
Fix,GT,37.4523702,-122.1269518,,29.24301,0.1,308.7066,1593045755447
Fix,GT,37.4525313,-122.1272124,,29.134207,0.1,307.2238,1593045756447
Fix,GT,37.4526871,-122.1274798,,29.593681,0.1,305.56662,1593045757447
Fix,GT,37.4528418,-122.1277589,,30.617641,0.1,304.47943,1593045758447
Fix,GT,37.4529999,-122.1280488,,31.400795,0.1,304.72113,1593045759447
Fix,GT,37.453163,-122.1283408,,31.60323,0.1,305.6777,1593045760447
Fix,GT,37.4533299,-122.1286302,,31.543911,0.1,306.24036,1593045761447
Fix,GT,37.4534973,-122.1289168,,31.291199,0.1,306.34955,1593045762447
Fix,GT,37.4536634,-122.1292008,,31.06073,0.1,306.38104,1593045763447
Fix,GT,37.4538285,-122.1294835,,30.993473,0.1,306.337,1593045764447
Fix,GT,37.453994,-122.1297666,,31.162888,0.1,306.34607,1593045765447
Fix,GT,37.454161,-122.1300517,,31.447216,0.1,306.45807,1593045766447
Fix,GT,37.4543298,-122.1303387,,31.642502,0.1,306.54712,1593045767447
Fix,GT,37.4544995,-122.1306272,,31.803492,0.1,306.4447,1593045768447
Fix,GT,37.4546697,-122.1309183,,32.15655,0.1,306.2693,1593045769447
Fix,GT,37.454842,-122.1312136,,32.53833,0.1,306.34384,1593045770447
Fix,GT,37.4550165,-122.1315113,,32.819736,0.1,306.59845,1593045771447
Fix,GT,37.4551939,-122.1318094,,33.000443,0.1,307.0835,1593045772447
Fix,GT,37.4553743,-122.1321065,,33.064312,0.1,307.6651,1593045773447
Fix,GT,37.4555569,-122.1324022,,33.12049,0.1,307.99405,1593045774447
Fix,GT,37.4557403,-122.1326978,,33.18182,0.1,307.9307,1593045775447
Fix,GT,37.4559234,-122.1329947,,33.241714,0.1,307.6662,1593045776447
Fix,GT,37.4561057,-122.1332931,,33.271843,0.1,307.36752,1593045777447
Fix,GT,37.4562866,-122.1335929,,33.24249,0.1,306.96472,1593045778447
Fix,GT,37.4564656,-122.1338939,,33.227802,0.1,306.66962,1593045779447
Fix,GT,37.4566437,-122.134196,,33.25641,0.1,306.43484,1593045780447
Fix,GT,37.4568213,-122.134499,,33.29452,0.1,306.36215,1593045781447
Fix,GT,37.4569992,-122.1348023,,33.320194,0.1,306.46786,1593045782447
Fix,GT,37.4571776,-122.1351052,,33.347908,0.1,306.54498,1593045783447
Fix,GT,37.4573561,-122.1354085,,33.319916,0.1,306.49414,1593045784447
Fix,GT,37.4575335,-122.1357108,,33.055077,0.1,306.4237,1593045785447
Fix,GT,37.4577088,-122.13601,,32.63012,0.1,306.38358,1593045786447
Fix,GT,37.4578818,-122.1363053,,32.21608,0.1,306.38647,1593045787447
Fix,GT,37.4580527,-122.1365966,,31.820755,0.1,306.494,1593045788447
Fix,GT,37.458222,-122.1368842,,31.452934,0.1,306.59332,1593045789447
Fix,GT,37.4583898,-122.1371682,,31.081066,0.1,306.68164,1593045790447
Fix,GT,37.4585558,-122.1374483,,30.682598,0.1,306.78952,1593045791447
Fix,GT,37.4587202,-122.1377243,,30.290804,0.1,306.9279,1593045792447
Fix,GT,37.458883,-122.1379967,,30.001583,0.1,306.8301,1593045793447
Fix,GT,37.459045,-122.1382679,,30.060658,0.1,307.03183,1593045794447
Fix,GT,37.4592111,-122.1385396,,30.667177,0.1,308.05383,1593045795447
Fix,GT,37.4593848,-122.1388156,,31.618183,0.1,308.29767,1593045796447
Fix,GT,37.4595622,-122.1391017,,32.47872,0.1,307.51544,1593045797447
Fix,GT,37.4597405,-122.139397,,32.984737,0.1,307.03265,1593045798447
Fix,GT,37.4599194,-122.1396964,,33.197655,0.1,306.83972,1593045799447
Fix,GT,37.4600979,-122.1399968,,33.064877,0.1,306.66333,1593045800447
Fix,GT,37.4602738,-122.1402955,,32.63967,0.1,306.48837,1593045801447
Fix,GT,37.4604471,-122.1405909,,32.29828,0.1,306.41833,1593045802447
Fix,GT,37.4606191,-122.1408846,,32.222694,0.1,306.26617,1593045803447
Fix,GT,37.4607904,-122.1411794,,32.3236,0.1,306.041,1593045804447
Fix,GT,37.4609618,-122.1414756,,32.48244,0.1,306.16083,1593045805447
Fix,GT,37.4611351,-122.1417729,,32.661697,0.1,306.3533,1593045806447
Fix,GT,37.46131,-122.1420714,,32.88693,0.1,306.36108,1593045807447
Fix,GT,37.4614857,-122.1423725,,33.168507,0.1,306.27188,1593045808447
Fix,GT,37.4616628,-122.1426761,,33.371834,0.1,306.3565,1593045809447
Fix,GT,37.4618411,-122.1429806,,33.467117,0.1,306.4592,1593045810447
Fix,GT,37.4620199,-122.1432855,,33.482132,0.1,306.348,1593045811447
Fix,GT,37.4621979,-122.1435906,,33.430347,0.1,306.19284,1593045812447
Fix,GT,37.4623754,-122.1438959,,33.4656,0.1,306.2038,1593045813447
Fix,GT,37.4625537,-122.1442018,,33.58799,0.1,306.26,1593045814447
Fix,GT,37.4627326,-122.1445087,,33.67226,0.1,306.3329,1593045815447
Fix,GT,37.4629125,-122.1448156,,33.725277,0.1,306.47345,1593045816447
Fix,GT,37.4630933,-122.1451227,,33.86783,0.1,306.5503,1593045817447
Fix,GT,37.4632748,-122.1454316,,34.021027,0.1,306.47833,1593045818447
Fix,GT,37.463457,-122.1457413,,34.050037,0.1,306.58603,1593045819447
Fix,GT,37.4636398,-122.1460504,,34.06102,0.1,306.62616,1593045820447
Fix,GT,37.4638227,-122.1463607,,34.230217,0.1,306.41187,1593045821447
Fix,GT,37.4640056,-122.146674,,34.501854,0.1,306.20816,1593045822447
Fix,GT,37.4641895,-122.1469902,,34.77285,0.1,306.24054,1593045823447
Fix,GT,37.4643754,-122.1473086,,35.056793,0.1,306.38187,1593045824447
Fix,GT,37.4645634,-122.1476291,,35.343655,0.1,306.4159,1593045825447
Fix,GT,37.4647525,-122.1479525,,35.632545,0.1,306.18692,1593045826447
Fix,GT,37.4649419,-122.1482793,,35.864258,0.1,306.0786,1593045827447
Fix,GT,37.4651325,-122.1486076,,35.986526,0.1,306.27298,1593045828447
Fix,GT,37.4653245,-122.1489356,,36.025753,0.1,306.48425,1593045829447
Fix,GT,37.4655178,-122.1492634,,36.104607,0.1,306.68378,1593045830447
Fix,GT,37.4657124,-122.1495917,,36.278275,0.1,306.64108,1593045831447
Fix,GT,37.465907,-122.1499224,,36.435303,0.1,306.39792,1593045832447
Fix,GT,37.4661017,-122.1502547,,36.53493,0.1,306.4326,1593045833447
Fix,GT,37.4662972,-122.1505873,,36.58994,0.1,306.49805,1593045834447
Fix,GT,37.4664927,-122.1509206,,36.607574,0.1,306.37326,1593045835447
Fix,GT,37.4666876,-122.1512541,,36.551445,0.1,306.35126,1593045836447
Fix,GT,37.4668823,-122.1515867,,36.45237,0.1,306.35,1593045837447
Fix,GT,37.4670762,-122.1519184,,36.323067,0.1,306.35687,1593045838447
Fix,GT,37.4672698,-122.1522485,,36.186726,0.1,306.5229,1593045839447
Fix,GT,37.4674635,-122.1525766,,36.049507,0.1,306.69366,1593045840447
Fix,GT,37.467657,-122.152903,,35.91104,0.1,306.7312,1593045841447
Fix,GT,37.4678496,-122.1532275,,35.647697,0.1,306.786,1593045842447
Fix,GT,37.468041,-122.1535482,,35.219086,0.1,307.04614,1593045843447
Fix,GT,37.4682308,-122.1538639,,34.75673,0.1,307.05792,1593045844447
Fix,GT,37.4684178,-122.1541765,,34.40524,0.1,306.74954,1593045845447
Fix,GT,37.4686017,-122.1544882,,34.237762,0.1,306.3749,1593045846447
Fix,GT,37.4687835,-122.1548001,,34.16361,0.1,306.1959,1593045847447
Fix,GT,37.4689646,-122.1551119,,34.092674,0.1,306.21237,1593045848447
Fix,GT,37.4691456,-122.1554227,,34.01407,0.1,306.26236,1593045849447
Fix,GT,37.4693265,-122.1557325,,33.940933,0.1,306.2525,1593045850447
Fix,GT,37.4695067,-122.1560423,,33.890175,0.1,306.07886,1593045851447
Fix,GT,37.4696856,-122.1563523,,33.8447,0.1,305.95743,1593045852447
Fix,GT,37.4698641,-122.1566616,,33.682186,0.1,306.08527,1593045853447
Fix,GT,37.4700422,-122.1569682,,33.434208,0.1,306.264,1593045854447
Fix,GT,37.4702196,-122.157272,,33.186882,0.1,306.38535,1593045855447
Fix,GT,37.4703962,-122.157573,,32.967087,0.1,306.4995,1593045856447
Fix,GT,37.4705721,-122.1578722,,32.803505,0.1,306.5539,1593045857447
Fix,GT,37.4707474,-122.1581697,,32.664,0.1,306.62057,1593045858447
Fix,GT,37.4709227,-122.1584657,,32.581802,0.1,306.72485,1593045859447
Fix,GT,37.4710979,-122.1587612,,32.559032,0.1,306.7035,1593045860447
Fix,GT,37.4712723,-122.1590567,,32.49902,0.1,306.5519,1593045861447
Fix,GT,37.4714457,-122.1593517,,32.321644,0.1,306.46356,1593045862447
Fix,GT,37.4716178,-122.1596452,,32.167816,0.1,306.37415,1593045863447
Fix,GT,37.4717888,-122.1599377,,32.014816,0.1,306.30753,1593045864447
Fix,GT,37.4719585,-122.1602286,,31.755405,0.1,306.1997,1593045865447
Fix,GT,37.4721262,-122.1605175,,31.444252,0.1,306.10437,1593045866447
Fix,GT,37.472292,-122.1608032,,31.082752,0.1,306.17096,1593045867447
Fix,GT,37.4724561,-122.1610851,,30.693445,0.1,306.25793,1593045868447
Fix,GT,37.4726185,-122.1613633,,30.310936,0.1,306.3005,1593045869447
Fix,GT,37.4727789,-122.1616381,,29.946936,0.1,306.3138,1593045870447
Fix,GT,37.4729377,-122.1619095,,29.5979,0.1,306.37405,1593045871447
Fix,GT,37.4730948,-122.1621775,,29.242313,0.1,306.4417,1593045872447
Fix,GT,37.4732501,-122.162442,,28.883457,0.1,306.48538,1593045873447
Fix,GT,37.4734036,-122.162703,,28.532654,0.1,306.49374,1593045874447
Fix,GT,37.4735553,-122.1629611,,28.190376,0.1,306.43488,1593045875447
Fix,GT,37.473705,-122.1632171,,28.036482,0.1,306.27185,1593045876447
Fix,GT,37.4738542,-122.1634757,,28.516592,0.1,305.57724,1593045877447
Fix,GT,37.4740041,-122.1637444,,29.528072,0.1,304.6529,1593045878447
Fix,GT,37.4741569,-122.164025,,30.575901,0.1,304.3196,1593045879447
Fix,GT,37.474315,-122.1643147,,31.568,0.1,304.8232,1593045880447
Fix,GT,37.4744819,-122.1646112,,32.667778,0.1,305.81848,1593045881447
Fix,GT,37.4746585,-122.1649157,,33.945522,0.1,306.32962,1593045882447
Fix,GT,37.4748425,-122.1652301,,35.026424,0.1,306.36725,1593045883447
Fix,GT,37.4750313,-122.1655527,,35.756397,0.1,306.3783,1593045884447
Fix,GT,37.4752233,-122.16588,,36.113503,0.1,306.50635,1593045885447
Fix,GT,37.4754174,-122.1662088,,36.24226,0.1,306.68808,1593045886447
Fix,GT,37.4756124,-122.166538,,36.2973,0.1,306.71033,1593045887447
Fix,GT,37.4758075,-122.1668672,,36.258682,0.1,306.72424,1593045888447
Fix,GT,37.4760029,-122.1671951,,36.144688,0.1,307.0566,1593045889447
Fix,GT,37.4761994,-122.1675192,,35.86067,0.1,307.73114,1593045890447
Fix,GT,37.4763975,-122.1678371,,35.539566,0.1,308.46313,1593045891447
Fix,GT,37.4765969,-122.1681501,,35.334866,0.1,308.97842,1593045892447
Fix,GT,37.4767961,-122.1684603,,35.166183,0.1,308.79355,1593045893447
Fix,GT,37.476992,-122.168772,,35.06864,0.1,307.76447,1593045894447
Fix,GT,37.477183,-122.1690882,,35.169834,0.1,306.6418,1593045895447
Fix,GT,37.4773709,-122.16941,,35.414703,0.1,305.94342,1593045896447
Fix,GT,37.4775576,-122.1697365,,35.68523,0.1,305.59885,1593045897447
Fix,GT,37.4777454,-122.1700665,,36.031693,0.1,305.67517,1593045898447
Fix,GT,37.4779355,-122.1703988,,36.33314,0.1,305.88644,1593045899447
Fix,GT,37.4781278,-122.1707331,,36.591476,0.1,306.02667,1593045900447
Fix,GT,37.4783223,-122.171069,,36.839653,0.1,306.14215,1593045901447
Fix,GT,37.4785184,-122.1714063,,37.00653,0.1,306.25082,1593045902447
Fix,GT,37.4787156,-122.1717443,,37.052734,0.1,306.29407,1593045903447
Fix,GT,37.4789129,-122.1720819,,36.98597,0.1,306.31018,1593045904447
Fix,GT,37.4791099,-122.1724179,,36.77712,0.1,306.51398,1593045905447
Fix,GT,37.4793061,-122.1727509,,36.465813,0.1,306.6272,1593045906447
Fix,GT,37.4795007,-122.1730805,,36.079216,0.1,306.53336,1593045907447
Fix,GT,37.4796925,-122.1734067,,35.61506,0.1,306.38107,1593045908447
Fix,GT,37.4798808,-122.1737298,,35.22776,0.1,306.1462,1593045909447
Fix,GT,37.4800667,-122.1740506,,34.953568,0.1,306.0376,1593045910447
Fix,GT,37.4802509,-122.1743696,,34.762665,0.1,306.01422,1593045911447
Fix,GT,37.4804344,-122.1746874,,34.686947,0.1,306.03363,1593045912447
Fix,GT,37.4806178,-122.1750049,,34.681797,0.1,306.10645,1593045913447
Fix,GT,37.4808016,-122.1753218,,34.651367,0.1,306.2347,1593045914447
Fix,GT,37.4809859,-122.175638,,34.607468,0.1,306.3551,1593045915447
Fix,GT,37.4811703,-122.1759531,,34.524174,0.1,306.38043,1593045916447
Fix,GT,37.4813537,-122.1762673,,34.381104,0.1,306.27914,1593045917447
Fix,GT,37.481536,-122.1765805,,34.229828,0.1,306.18118,1593045918447
Fix,GT,37.4817166,-122.1768931,,34.062748,0.1,305.8908,1593045919447
Fix,GT,37.4818946,-122.1772056,,33.88414,0.1,305.35925,1593045920447
Fix,GT,37.4820689,-122.1775191,,33.74711,0.1,304.55295,1593045921447
Fix,GT,37.4822384,-122.1778351,,33.644463,0.1,303.47665,1593045922447
Fix,GT,37.4824028,-122.1781544,,33.618576,0.1,302.39423,1593045923447
Fix,GT,37.4825624,-122.1784774,,33.620636,0.1,301.31384,1593045924447
Fix,GT,37.482717,-122.1788039,,33.544655,0.1,300.2119,1593045925447
Fix,GT,37.4828659,-122.1791332,,33.42556,0.1,298.93375,1593045926447
Fix,GT,37.4830082,-122.1794654,,33.29713,0.1,297.61438,1593045927447
Fix,GT,37.4831446,-122.1797998,,33.159294,0.1,296.75443,1593045928447
Fix,GT,37.4832777,-122.1801349,,33.064476,0.1,296.41245,1593045929447
Fix,GT,37.4834086,-122.1804706,,33.07981,0.1,295.90137,1593045930447
Fix,GT,37.4835369,-122.180809,,33.21027,0.1,295.03833,1593045931447
Fix,GT,37.4836611,-122.1811513,,33.306717,0.1,294.08673,1593045932447
Fix,GT,37.483781,-122.1814964,,33.2564,0.1,293.16736,1593045933447
Fix,GT,37.4838961,-122.1818428,,33.143208,0.1,292.3101,1593045934447
Fix,GT,37.4840073,-122.1821901,,33.042778,0.1,291.6834,1593045935447
Fix,GT,37.4841154,-122.1825377,,32.96485,0.1,291.2038,1593045936447
Fix,GT,37.4842207,-122.1828859,,32.921,0.1,290.42593,1593045937447
Fix,GT,37.4843208,-122.183236,,32.89099,0.1,289.13693,1593045938447
Fix,GT,37.4844146,-122.1835886,,32.877827,0.1,287.98248,1593045939447
Fix,GT,37.4845045,-122.1839429,,32.89978,0.1,287.57797,1593045940447
Fix,GT,37.4845935,-122.1842983,,33.006584,0.1,287.50385,1593045941447
Fix,GT,37.4846826,-122.1846554,,33.19956,0.1,287.3451,1593045942447
Fix,GT,37.4847708,-122.1850151,,33.361866,0.1,286.96234,1593045943447
Fix,GT,37.4848569,-122.1853772,,33.47547,0.1,286.3855,1593045944447
Fix,GT,37.4849403,-122.1857417,,33.622078,0.1,285.7102,1593045945447
Fix,GT,37.4850204,-122.1861096,,33.82914,0.1,284.98862,1593045946447
Fix,GT,37.4850973,-122.186481,,34.064964,0.1,284.2742,1593045947447
Fix,GT,37.4851714,-122.1868562,,34.338535,0.1,283.65732,1593045948447
Fix,GT,37.4852429,-122.1872357,,34.64066,0.1,283.08002,1593045949447
Fix,GT,37.4853119,-122.1876194,,34.921944,0.1,282.41064,1593045950447
Fix,GT,37.4853776,-122.1880072,,35.192192,0.1,281.6939,1593045951447
Fix,GT,37.4854398,-122.1883989,,35.465145,0.1,280.9213,1593045952447
Fix,GT,37.4854983,-122.1887946,,35.725204,0.1,280.17392,1593045953447
Fix,GT,37.4855533,-122.1891942,,35.97915,0.1,279.6269,1593045954447
Fix,GT,37.4856063,-122.1895968,,36.199974,0.1,279.21793,1593045955447
Fix,GT,37.4856577,-122.1900019,,36.346825,0.1,279.0876,1593045956447
Fix,GT,37.4857098,-122.1904084,,36.46346,0.1,279.40533,1593045957447
Fix,GT,37.4857644,-122.1908155,,36.57342,0.1,279.80396,1593045958447
Fix,GT,37.4858209,-122.1912236,,36.698982,0.1,279.97287,1593045959447
Fix,GT,37.4858778,-122.1916333,,36.868645,0.1,279.87872,1593045960447
Fix,GT,37.4859342,-122.1920451,,37.03105,0.1,279.61737,1593045961447
Fix,GT,37.4859894,-122.1924589,,37.16797,0.1,279.42978,1593045962447
Fix,GT,37.4860436,-122.1928743,,37.268013,0.1,279.23822,1593045963447
Fix,GT,37.4860968,-122.1932906,,37.31452,0.1,279.04807,1593045964447
Fix,GT,37.4861492,-122.1937074,,37.298035,0.1,279.0028,1593045965447
Fix,GT,37.4862014,-122.1941238,,37.25689,0.1,278.93805,1593045966447
Fix,GT,37.4862531,-122.1945398,,37.20594,0.1,278.877,1593045967447
Fix,GT,37.4863045,-122.1949551,,37.13918,0.1,278.85126,1593045968447
Fix,GT,37.4863557,-122.1953697,,37.069084,0.1,278.85614,1593045969447
Fix,GT,37.4864068,-122.1957835,,36.997772,0.1,278.81995,1593045970447
Fix,GT,37.4864574,-122.1961966,,36.9384,0.1,278.77426,1593045971447
Fix,GT,37.4865079,-122.1966091,,36.888313,0.1,278.74707,1593045972447
Fix,GT,37.4865578,-122.1970213,,36.853897,0.1,278.6242,1593045973447
Fix,GT,37.4866077,-122.1974331,,36.829655,0.1,278.76288,1593045974447
Fix,GT,37.4866586,-122.1978445,,36.811348,0.1,279.0774,1593045975447
Fix,GT,37.4867107,-122.1982555,,36.783875,0.1,279.06558,1593045976447
Fix,GT,37.4867625,-122.1986656,,36.64331,0.1,279.0214,1593045977447
Fix,GT,37.4868139,-122.1990732,,36.340176,0.1,279.10684,1593045978447
Fix,GT,37.4868653,-122.1994771,,35.999138,0.1,279.136,1593045979447
Fix,GT,37.4869161,-122.1998773,,35.681736,0.1,279.00977,1593045980447
Fix,GT,37.4869658,-122.200274,,35.347607,0.1,278.96442,1593045981447
Fix,GT,37.4870146,-122.200667,,35.001396,0.1,278.82422,1593045982447
Fix,GT,37.4870621,-122.2010563,,34.6898,0.1,278.66327,1593045983447
Fix,GT,37.4871089,-122.2014425,,34.419964,0.1,278.7091,1593045984447
Fix,GT,37.4871556,-122.201826,,34.21529,0.1,278.7859,1593045985447
Fix,GT,37.487202,-122.2022077,,34.102608,0.1,278.6752,1593045986447
Fix,GT,37.4872481,-122.2025892,,34.16117,0.1,278.75232,1593045987447
Fix,GT,37.4872954,-122.2029719,,34.322556,0.1,279.02158,1593045988447
Fix,GT,37.4873437,-122.2033556,,34.3805,0.1,278.99136,1593045989447
Fix,GT,37.4873913,-122.2037398,,34.39655,0.1,278.72388,1593045990447
Fix,GT,37.4874377,-122.2041246,,34.426804,0.1,278.60175,1593045991447
Fix,GT,37.4874843,-122.2045092,,34.37333,0.1,278.8625,1593045992447
Fix,GT,37.4875325,-122.2048923,,34.227562,0.1,279.16003,1593045993447
Fix,GT,37.4875811,-122.2052736,,34.067314,0.1,279.09692,1593045994447
Fix,GT,37.4876291,-122.205653,,33.898518,0.1,278.975,1593045995447
Fix,GT,37.4876764,-122.206031,,33.78991,0.1,278.94174,1593045996447
Fix,GT,37.4877236,-122.2064083,,33.758553,0.1,278.9922,1593045997447
Fix,GT,37.4877715,-122.2067853,,33.76096,0.1,279.346,1593045998447
Fix,GT,37.4878222,-122.2071617,,33.78549,0.1,280.15228,1593045999447
Fix,GT,37.4878779,-122.2075376,,33.837906,0.1,281.0207,1593046000447
Fix,GT,37.4879373,-122.2079131,,33.86022,0.1,281.49103,1593046001447
Fix,GT,37.4879987,-122.208288,,33.846226,0.1,281.86414,1593046002447
Fix,GT,37.4880617,-122.208663,,33.96324,0.1,281.92877,1593046003447
Fix,GT,37.4881247,-122.2090403,,34.227116,0.1,281.80176,1593046004447
Fix,GT,37.4881885,-122.2094205,,34.482258,0.1,282.2451,1593046005447
Fix,GT,37.4882569,-122.2098022,,34.7034,0.1,283.499,1593046006447
Fix,GT,37.4883339,-122.2101836,,34.90395,0.1,285.15784,1593046007447
Fix,GT,37.4884194,-122.2105645,,35.064896,0.1,286.3673,1593046008447
Fix,GT,37.4885097,-122.2109449,,35.13039,0.1,286.8886,1593046009447
Fix,GT,37.4886029,-122.2113243,,35.103184,0.1,287.5919,1593046010447
Fix,GT,37.4887002,-122.2117015,,35.0391,0.1,288.5447,1593046011447
Fix,GT,37.4888014,-122.2120764,,34.973778,0.1,289.10526,1593046012447
Fix,GT,37.4889056,-122.2124494,,34.916954,0.1,289.80145,1593046013447
Fix,GT,37.4890141,-122.2128198,,34.902615,0.1,290.8369,1593046014447
Fix,GT,37.4891286,-122.2131877,,34.98707,0.1,292.04596,1593046015447
Fix,GT,37.4892487,-122.2135544,,35.16311,0.1,292.67642,1593046016447
Fix,GT,37.4893713,-122.2139223,,35.379467,0.1,292.83765,1593046017447
Fix,GT,37.4894967,-122.2142911,,35.527534,0.1,293.5092,1593046018447
Fix,GT,37.4896259,-122.2146591,,35.621536,0.1,294.3142,1593046019447
Fix,GT,37.4897599,-122.2150262,,35.816788,0.1,295.2066,1593046020447
Fix,GT,37.4898994,-122.2153931,,36.07997,0.1,295.92172,1593046021447
Fix,GT,37.4900432,-122.2157606,,36.326355,0.1,296.53348,1593046022447
Fix,GT,37.4901913,-122.2161279,,36.443184,0.1,297.39603,1593046023447
Fix,GT,37.4903437,-122.2164927,,36.38411,0.1,298.13232,1593046024447
Fix,GT,37.490499,-122.2168547,,36.362106,0.1,298.64996,1593046025447
Fix,GT,37.4906565,-122.2172154,,36.394096,0.1,298.97705,1593046026447
Fix,GT,37.4908154,-122.2175755,,36.415882,0.1,299.0125,1593046027447
Fix,GT,37.4909745,-122.2179354,,36.366108,0.1,299.12854,1593046028447
Fix,GT,37.491134,-122.2182942,,36.289803,0.1,299.3119,1593046029447
Fix,GT,37.4912935,-122.2186521,,36.25569,0.1,299.1919,1593046030447
Fix,GT,37.4914522,-122.2190103,,36.25107,0.1,299.1507,1593046031447
Fix,GT,37.4916115,-122.2193685,,36.30078,0.1,299.36,1593046032447
Fix,GT,37.4917724,-122.2197264,,36.39644,0.1,299.59454,1593046033447
Fix,GT,37.491934,-122.2200851,,36.50563,0.1,299.45517,1593046034447
Fix,GT,37.4920951,-122.2204457,,36.617863,0.1,299.205,1593046035447
Fix,GT,37.4922562,-122.2208078,,36.730927,0.1,299.16583,1593046036447
Fix,GT,37.4924171,-122.2211716,,36.856236,0.1,298.98203,1593046037447
Fix,GT,37.492578,-122.221537,,36.984894,0.1,298.94983,1593046038447
Fix,GT,37.4927393,-122.2219036,,37.069904,0.1,299.0354,1593046039447
Fix,GT,37.4929015,-122.2222703,,37.097374,0.1,299.1215,1593046040447
Fix,GT,37.4930637,-122.2226375,,37.16723,0.1,298.92426,1593046041447
Fix,GT,37.4932245,-122.2230067,,37.24489,0.1,298.5889,1593046042447
Fix,GT,37.4933831,-122.223378,,37.273823,0.1,298.07132,1593046043447
Fix,GT,37.4935386,-122.2237517,,37.291206,0.1,297.21033,1593046044447
Fix,GT,37.4936904,-122.2241284,,37.378624,0.1,296.55804,1593046045447
Fix,GT,37.493839,-122.2245083,,37.467075,0.1,295.81387,1593046046447
Fix,GT,37.4939836,-122.2248915,,37.519203,0.1,295.05154,1593046047447
Fix,GT,37.4941244,-122.2252777,,37.613274,0.1,294.23395,1593046048447
Fix,GT,37.494261,-122.2256675,,37.75338,0.1,293.3319,1593046049447
Fix,GT,37.4943936,-122.2260616,,37.877007,0.1,292.4452,1593046050447
Fix,GT,37.4945215,-122.2264594,,37.998466,0.1,291.58563,1593046051447
Fix,GT,37.4946452,-122.226861,,38.169342,0.1,290.81348,1593046052447
Fix,GT,37.4947657,-122.2272665,,38.36474,0.1,290.15817,1593046053447
Fix,GT,37.4948838,-122.2276757,,38.627007,0.1,289.71402,1593046054447
Fix,GT,37.495001,-122.228089,,38.93219,0.1,289.60107,1593046055447
Fix,GT,37.4951189,-122.2285049,,39.140293,0.1,289.65845,1593046056447
Fix,GT,37.4952372,-122.2289222,,39.143806,0.1,289.61142,1593046057447
Fix,GT,37.4953549,-122.2293387,,38.966385,0.1,289.52264,1593046058447
Fix,GT,37.4954713,-122.2297524,,38.603577,0.1,289.50085,1593046059447
Fix,GT,37.4955861,-122.2301616,,38.149864,0.1,289.3899,1593046060447
Fix,GT,37.4956993,-122.2305668,,37.81675,0.1,289.3648,1593046061447
Fix,GT,37.4958117,-122.2309695,,37.67366,0.1,289.3603,1593046062447
Fix,GT,37.4959237,-122.2313718,,37.71142,0.1,289.31854,1593046063447
Fix,GT,37.4960363,-122.2317749,,37.81591,0.1,289.49844,1593046064447
Fix,GT,37.4961502,-122.2321785,,37.901848,0.1,289.59125,1593046065447
Fix,GT,37.4962645,-122.2325824,,37.889996,0.1,289.64294,1593046066447
Fix,GT,37.4963792,-122.2329849,,37.69751,0.1,289.84702,1593046067447
Fix,GT,37.4964944,-122.2333845,,37.466087,0.1,289.9946,1593046068447
Fix,GT,37.4966092,-122.2337821,,37.360714,0.1,289.97186,1593046069447
Fix,GT,37.4967235,-122.2341788,,37.235832,0.1,289.9571,1593046070447
Fix,GT,37.4968389,-122.234573,,37.000008,0.1,290.74304,1593046071447
Fix,GT,37.4969597,-122.2349608,,36.60839,0.1,292.2901,1593046072447
Fix,GT,37.4970875,-122.2353399,,36.208115,0.1,293.74426,1593046073447
Fix,GT,37.4972221,-122.2357109,,35.920456,0.1,295.43518,1593046074447
Fix,GT,37.4973643,-122.2360743,,35.680992,0.1,296.99893,1593046075447
Fix,GT,37.4975128,-122.2364305,,35.40766,0.1,298.49866,1593046076447
Fix,GT,37.4976676,-122.2367781,,35.04451,0.1,300.24542,1593046077447
Fix,GT,37.4978289,-122.2371158,,34.585552,0.1,302.02805,1593046078447
Fix,GT,37.4979961,-122.237442,,34.034832,0.1,303.90198,1593046079447
Fix,GT,37.4981689,-122.237755,,33.228268,0.1,305.90833,1593046080447
Fix,GT,37.4983438,-122.2380499,,31.704597,0.1,307.73767,1593046081447
Fix,GT,37.4985166,-122.2383226,,29.97613,0.1,309.4924,1593046082447
Fix,GT,37.4986875,-122.238576,,28.749645,0.1,311.09485,1593046083447
Fix,GT,37.4988568,-122.2388144,,27.808067,0.1,312.56537,1593046084447
Fix,GT,37.4990266,-122.2390409,,27.303324,0.1,314.12006,1593046085447
Fix,GT,37.4991994,-122.2392593,,27.18378,0.1,315.49838,1593046086447
Fix,GT,37.4993758,-122.2394733,,27.316372,0.1,316.50735,1593046087447
Fix,GT,37.499556,-122.2396853,,27.499502,0.1,317.20816,1593046088447
Fix,GT,37.4997386,-122.2398961,,27.545254,0.1,317.64777,1593046089447
Fix,GT,37.4999217,-122.2401048,,27.333742,0.1,317.99872,1593046090447
Fix,GT,37.5001037,-122.2403109,,27.059635,0.1,317.94824,1593046091447
Fix,GT,37.5002837,-122.240515,,26.841612,0.1,317.91025,1593046092447
Fix,GT,37.5004632,-122.2407184,,26.907455,0.1,317.95966,1593046093447
Fix,GT,37.5006443,-122.2409236,,27.320597,0.1,317.88284,1593046094447
Fix,GT,37.5008287,-122.2411331,,27.945518,0.1,317.9438,1593046095447
Fix,GT,37.5010175,-122.2413475,,28.47535,0.1,317.92654,1593046096447
Fix,GT,37.5012084,-122.2415645,,28.647158,0.1,317.9361,1593046097447
Fix,GT,37.5014004,-122.2417823,,28.876171,0.1,317.93427,1593046098447
Fix,GT,37.501595,-122.2420035,,29.423958,0.1,317.80804,1593046099447
Fix,GT,37.5017937,-122.2422304,,30.182892,0.1,317.65204,1593046100447
Fix,GT,37.5019969,-122.2424635,,30.881687,0.1,317.7177,1593046101447
Fix,GT,37.5022043,-122.2426998,,31.308674,0.1,317.9493,1593046102447
Fix,GT,37.5024145,-122.2429398,,31.77712,0.1,317.45462,1593046103447
Fix,GT,37.5026257,-122.2431882,,32.505596,0.1,316.38196,1593046104447
Fix,GT,37.5028399,-122.2434463,,33.422638,0.1,316.24243,1593046105447
Fix,GT,37.5030608,-122.2437101,,34.23714,0.1,316.88916,1593046106447
Fix,GT,37.503289,-122.2439757,,34.827198,0.1,317.5225,1593046107447
Fix,GT,37.5035229,-122.2442427,,35.346775,0.1,318.03186,1593046108447
Fix,GT,37.5037614,-122.2445119,,35.835426,0.1,318.15686,1593046109447
Fix,GT,37.5040033,-122.2447843,,36.282722,0.1,318.12823,1593046110447
Fix,GT,37.5042478,-122.24506,,36.63936,0.1,318.08585,1593046111447
Fix,GT,37.5044941,-122.2453381,,36.871056,0.1,318.14496,1593046112447
Fix,GT,37.5047423,-122.2456161,,36.92199,0.1,318.59763,1593046113447
Fix,GT,37.5049924,-122.2458909,,36.795033,0.1,319.18103,1593046114447
Fix,GT,37.5052425,-122.2461613,,36.44802,0.1,319.44556,1593046115447
