MessageType,Provider,LatitudeDegrees,LongitudeDegrees,AltitudeMeters,SpeedMps,AccuracyMeters,BearingDegrees,UnixTimeMillis
Fix,GT,37.6295153,-122.4227732,,0.000565316,0.1,245.48674,1595628926434
Fix,GT,37.6295153,-122.4227732,,0.001304052,0.1,245.48741,1595628927434
Fix,GT,37.6295153,-122.4227732,,0.0030705393,0.1,245.48795,1595628928434
Fix,GT,37.6295153,-122.4227732,,0.002402422,0.1,245.48834,1595628929434
Fix,GT,37.6295153,-122.4227732,,0.0014142136,0.1,245.489,1595628930434
Fix,GT,37.6295153,-122.4227732,,0.0017714605,0.1,245.48956,1595628931434
Fix,GT,37.6295153,-122.4227732,,0.001698769,0.1,245.49004,1595628932434
Fix,GT,37.6295153,-122.4227732,,0.001,0.1,245.49039,1595628933434
Fix,GT,37.6295153,-122.4227732,,0.001,0.1,245.49069,1595628934434
Fix,GT,37.6295153,-122.4227732,,0.00056531606,0.1,245.49094,1595628935434
Fix,GT,37.6295153,-122.4227732,,0.000614736,0.1,245.49123,1595628936434
Fix,GT,37.6295153,-122.4227732,,0.0012341616,0.1,245.49133,1595628937434
Fix,GT,37.6295153,-122.4227732,,0.0011800521,0.1,245.49112,1595628938434
Fix,GT,37.6295153,-122.4227732,,0.0012341617,0.1,245.50317,1595628991434
Fix,GT,37.6295153,-122.4227732,,0.0010000002,0.1,245.50333,1595628992434
Fix,GT,37.6295153,-122.4227732,,0.0010000002,0.1,245.50345,1595628993434
Fix,GT,37.6295153,-122.4227732,,0.0011800521,0.1,245.50383,1595628994434
Fix,GT,37.6295153,-122.4227732,,0.0016688458,0.1,245.50427,1595628995434
Fix,GT,37.6295153,-122.4227732,,0.0020000003,0.1,245.50447,1595628996434
Fix,GT,37.6295153,-122.4227732,,0.0017453681,0.1,245.50443,1595628997434
Fix,GT,37.6295153,-122.4227732,,0.0012341617,0.1,245.50432,1595628998434
Fix,GT,37.6295153,-122.4227732,,0.0010000002,0.1,245.50449,1595628999434
Fix,GT,37.6295153,-122.4227732,,0.0019399077,0.1,245.50471,1595629000434
Fix,GT,37.6295153,-122.4227732,,0.0026570542,0.1,245.50504,1595629001434
Fix,GT,37.6295153,-122.4227732,,0.002102615,0.1,245.50555,1595629002434
Fix,GT,37.6295153,-122.4227732,,0.001698769,0.1,245.50616,1595629003434
Fix,GT,37.6295153,-122.4227732,,0.000565316,0.1,245.5064,1595629004434
Fix,GT,37.6295153,-122.4227732,,0.0004346841,0.1,245.50626,1595629005434
Fix,GT,37.6295153,-122.4227732,,0.0010000002,0.1,245.50627,1595629006434
Fix,GT,37.6295153,-122.4227732,,0.0011800521,0.1,245.50668,1595629007434
Fix,GT,37.6295153,-122.4227732,,0.0012341617,0.1,245.50735,1595629008434
Fix,GT,37.6295153,-122.4227732,,0.0010000002,0.1,245.5076,1595629009434
Fix,GT,37.6295153,-122.4227732,,0.0014346843,0.1,245.50793,1595629010434
Fix,GT,37.6295153,-122.4227732,,0.002102615,0.1,245.50885,1595629011434
Fix,GT,37.6295153,-122.4227732,,0.001264085,0.1,245.5084,1595629012434
Fix,GT,37.6295153,-122.4227732,,0.0008693682,0.1,245.508,1595629013434
Fix,GT,37.6295153,-122.4227732,,0.0020000003,0.1,245.50793,1595629014434
Fix,GT,37.6295153,-122.4227732,,0.0017453681,0.1,245.5073,1595629015434
Fix,GT,37.6295152,-122.4227732,,0.0023667533,0.1,245.50836,1595629016434
Fix,GT,37.6295152,-122.4227731,,0.0033423281,0.1,245.51077,1595629017434
Fix,GT,37.6295152,-122.4227731,,0.0025653162,0.1,245.51102,1595629018434
Fix,GT,37.6295152,-122.4227731,,0.0029228805,0.1,245.51163,1595629019434
Fix,GT,37.6295152,-122.4227731,,0.0027655417,0.1,245.51263,1595629020434
Fix,GT,37.6295152,-122.4227731,,0.0017947883,0.1,245.5126,1595629021434
Fix,GT,37.6295152,-122.4227731,,0.0033376915,0.1,245.51286,1595629022434
Fix,GT,37.6295152,-122.4227731,,0.0031306322,0.1,245.5135,1595629023434
Fix,GT,37.6295152,-122.4227731,,0.0023601041,0.1,245.51372,1595629024434
Fix,GT,37.6295152,-122.4227731,,0.002570938,0.1,245.51407,1595629025434
Fix,GT,37.6295152,-122.4227731,,0.0021334533,0.1,245.51428,1595629026434
Fix,GT,37.6295152,-122.4227731,,0.0015653161,0.1,245.514,1595629027434
Fix,GT,37.6295152,-122.4227731,,0.0010000002,0.1,245.514,1595629028434
Fix,GT,37.6295152,-122.4227731,,0.0010000002,0.1,245.51416,1595629029434
Fix,GT,37.6295152,-122.4227731,,0.000565316,0.1,245.51407,1595629030434
Fix,GT,37.6295152,-122.4227731,,0.0013745918,0.1,245.51477,1595629031434
Fix,GT,37.6295152,-122.4227731,,0.0035264222,0.1,245.51553,1595629032434
Fix,GT,37.6295152,-122.4227731,,0.0044777263,0.1,245.5153,1595629033434
Fix,GT,37.6295152,-122.4227731,,0.004112029,0.1,245.5155,1595629034434
Fix,GT,37.6295152,-122.4227731,,0.0025709379,0.1,245.51555,1595629035434
Fix,GT,37.6295152,-122.4227731,,0.001878821,0.1,245.51413,1595629036434
Fix,GT,37.6295152,-122.4227731,,0.002591726,0.1,245.51297,1595629037434
Fix,GT,37.6295152,-122.422773,,0.0058353925,0.1,245.51173,1595629038434
Fix,GT,37.6295152,-122.4227731,,0.0049924063,0.1,245.51099,1595629039434
Fix,GT,37.6295152,-122.4227731,,0.001,0.1,245.51117,1595629040434
Fix,GT,37.6295152,-122.4227731,,0.001,0.1,245.51175,1595629041434
Fix,GT,37.6295152,-122.4227731,,0.0011800521,0.1,245.512,1595629042434
Fix,GT,37.6295152,-122.4227731,,0.0012341616,0.1,245.51178,1595629043434
Fix,GT,37.6295152,-122.4227731,,0.0014346843,0.1,245.51219,1595629044434
Fix,GT,37.6295152,-122.4227731,,0.001565316,0.1,245.51256,1595629045434
Fix,GT,37.6295152,-122.4227731,,0.00056531595,0.1,245.51282,1595629046434
Fix,GT,37.6295151,-122.4227731,,0.0017922485,0.1,245.51428,1595629047434
Fix,GT,37.6295149,-122.4227735,,0.120143086,0.1,245.48198,1595629048434
Fix,GT,37.6295134,-122.422776,,0.4975683,0.1,244.54013,1595629049434
Fix,GT,37.6295087,-122.4227828,,1.1244173,0.1,241.13809,1595629050434
Fix,GT,37.6294992,-122.4227947,,1.8135867,0.1,235.45645,1595629051434
Fix,GT,37.6294852,-122.4228111,,2.4333203,0.1,229.75185,1595629052434
Fix,GT,37.6294668,-122.4228323,,3.1163025,0.1,226.25659,1595629053434
Fix,GT,37.629444,-122.4228597,,3.9046407,0.1,225.7944,1595629054434
Fix,GT,37.6294186,-122.4228968,,4.7214966,0.1,230.23544,1595629055434
Fix,GT,37.6293938,-122.4229455,,5.461724,0.1,238.07837,1595629056434
Fix,GT,37.6293695,-122.4230041,,6.149207,0.1,243.35487,1595629057434
Fix,GT,37.6293454,-122.4230689,,6.3856134,0.1,246.1902,1595629058434
Fix,GT,37.6293229,-122.4231338,,6.039272,0.1,247.9205,1595629059434
Fix,GT,37.6293022,-122.423195,,5.737358,0.1,248.44785,1595629060434
Fix,GT,37.6292818,-122.423255,,5.7843385,0.1,248.32388,1595629061434
Fix,GT,37.6292608,-122.4233161,,5.930691,0.1,247.96503,1595629062434
Fix,GT,37.6292389,-122.4233776,,5.926818,0.1,247.41037,1595629063434
Fix,GT,37.6292166,-122.4234384,,5.9064054,0.1,246.79234,1595629064434
Fix,GT,37.6291938,-122.4234997,,6.0405903,0.1,246.51059,1595629065434
Fix,GT,37.6291705,-122.4235625,,6.2189527,0.1,246.33801,1595629066434
Fix,GT,37.6291464,-122.4236266,,6.2472897,0.1,246.12787,1595629067434
Fix,GT,37.6291226,-122.4236893,,5.982542,0.1,245.91202,1595629068434
Fix,GT,37.6291003,-122.4237474,,5.3910036,0.1,245.18987,1595629069434
Fix,GT,37.6290786,-122.4237972,,4.7103376,0.1,242.15097,1595629070434
Fix,GT,37.6290542,-122.4238367,,4.2073345,0.1,233.66202,1595629071434
Fix,GT,37.6290243,-122.4238633,,4.0327177,0.1,218.62523,1595629072434
Fix,GT,37.6289888,-122.4238751,,4.1741533,0.1,199.70395,1595629073434
Fix,GT,37.6289509,-122.4238715,,4.285315,0.1,180.04211,1595629074434
Fix,GT,37.6289154,-122.4238515,,4.407718,0.1,159.75378,1595629075434
Fix,GT,37.6288879,-122.4238142,,4.650873,0.1,136.70251,1595629076434
Fix,GT,37.6288752,-122.4237627,,4.9654865,0.1,110.82153,1595629077434
Fix,GT,37.6288801,-122.4237056,,5.2978272,0.1,86.67581,1595629078434
Fix,GT,37.6288981,-122.4236483,,5.6597223,0.1,70.79169,1595629079434
Fix,GT,37.6289219,-122.4235893,,6.031058,0.1,65.08835,1595629080434
Fix,GT,37.6289473,-122.4235269,,6.383836,0.1,64.41348,1595629081434
Fix,GT,37.6289742,-122.4234603,,6.8049154,0.1,64.462616,1595629082434
Fix,GT,37.6290028,-122.4233891,,7.3042145,0.1,64.584076,1595629083434
Fix,GT,37.6290335,-122.4233125,,7.8233066,0.1,64.74109,1595629084434
Fix,GT,37.6290656,-122.4232306,,8.264986,0.1,65.21576,1595629085434
Fix,GT,37.6290986,-122.4231447,,8.543401,0.1,65.76233,1595629086434
Fix,GT,37.629132,-122.4230566,,8.599787,0.1,65.84573,1595629087434
Fix,GT,37.6291652,-122.4229694,,8.411161,0.1,65.812744,1595629088434
Fix,GT,37.629198,-122.4228841,,8.363625,0.1,65.62564,1595629089434
Fix,GT,37.6292312,-122.4227982,,8.49826,0.1,65.3876,1595629090434
Fix,GT,37.6292655,-122.4227111,,8.652706,0.1,64.97742,1595629091434
Fix,GT,37.6293013,-122.4226228,,8.853577,0.1,64.39441,1595629092434
Fix,GT,37.6293382,-122.4225328,,8.997764,0.1,64.1239,1595629093434
Fix,GT,37.6293754,-122.4224417,,9.035528,0.1,64.3071,1595629094434
Fix,GT,37.6294121,-122.422351,,8.888741,0.1,64.56302,1595629095434
Fix,GT,37.6294477,-122.4222628,,8.609504,0.1,64.34604,1595629096434
Fix,GT,37.6294827,-122.4221779,,8.165585,0.1,63.85849,1595629097434
Fix,GT,37.6295144,-122.4221001,,7.1900954,0.1,64.79962,1595629098434
Fix,GT,37.6295364,-122.42203,,6.1525116,0.1,71.93033,1595629099434
Fix,GT,37.6295406,-122.4219647,,5.5891085,0.1,89.081635,1595629100434
Fix,GT,37.6295231,-122.4219065,,5.5738897,0.1,112.95163,1595629101434
Fix,GT,37.6294852,-122.4218607,,6.260022,0.1,137.30228,1595629102434
Fix,GT,37.6294307,-122.4218242,,7.4165688,0.1,153.263,1595629103434
Fix,GT,37.6293651,-122.4217892,,8.243681,0.1,158.40369,1595629104434
Fix,GT,37.6292972,-122.4217536,,7.969946,0.1,158.89001,1595629105434
Fix,GT,37.6292363,-122.4217198,,6.790521,0.1,156.84656,1595629106434
Fix,GT,37.6291873,-122.421687,,5.4664526,0.1,152.6571,1595629107434
Fix,GT,37.6291507,-122.4216577,,4.081669,0.1,149.25311,1595629108434
Fix,GT,37.629124,-122.4216356,,3.0347147,0.1,148.32504,1595629109434
Fix,GT,37.629104,-122.4216168,,2.6212072,0.1,145.81226,1595629110434
Fix,GT,37.629086,-122.4215938,,3.1468706,0.1,138.98523,1595629111434
Fix,GT,37.6290684,-122.4215586,,4.224677,0.1,126.8927,1595629112434
Fix,GT,37.6290577,-122.4215064,,5.358115,0.1,107.969574,1595629113434
Fix,GT,37.6290633,-122.4214409,,6.484345,0.1,85.58508,1595629114434
Fix,GT,37.6290874,-122.421367,,7.7390113,0.1,68.85419,1595629115434
Fix,GT,37.6291228,-122.4212833,,9.007334,0.1,63.354248,1595629116434
Fix,GT,37.6291638,-122.4211876,,10.169008,0.1,63.327484,1595629117434
Fix,GT,37.6292082,-122.4210811,,10.993137,0.1,63.848297,1595629118434
Fix,GT,37.6292559,-122.4209686,,11.44232,0.1,63.24823,1595629119434
Fix,GT,37.6293048,-122.4208529,,11.673847,0.1,63.6615,1595629120434
Fix,GT,37.6293527,-122.4207344,,11.765145,0.1,64.891754,1595629121434
Fix,GT,37.6293995,-122.4206152,,11.621445,0.1,65.057434,1595629122434
Fix,GT,37.6294451,-122.420501,,10.776813,0.1,64.47327,1595629123434
Fix,GT,37.6294863,-122.4204001,,9.13237,0.1,64.20618,1595629124434
Fix,GT,37.62952,-122.4203177,,7.166348,0.1,64.23895,1595629125434
Fix,GT,37.6295451,-122.4202562,,5.052493,0.1,64.31207,1595629126434
Fix,GT,37.6295615,-122.4202158,,3.1206267,0.1,64.37155,1595629127434
Fix,GT,37.6295724,-122.4201889,,2.4925928,0.1,64.403076,1595629128434
Fix,GT,37.629585,-122.420158,,3.833222,0.1,64.431335,1595629129434
Fix,GT,37.6296049,-122.4201078,,6.116789,0.1,64.99283,1595629130434
Fix,GT,37.6296323,-122.4200344,,8.086962,0.1,66.30051,1595629131434
Fix,GT,37.6296655,-122.4199431,,9.550336,0.1,66.78244,1595629132434
Fix,GT,37.6297046,-122.4198387,,10.82832,0.1,66.04639,1595629133434
Fix,GT,37.6297503,-122.4197232,,11.903757,0.1,64.52319,1595629134434
Fix,GT,37.6298039,-122.4196004,,12.833716,0.1,61.768738,1595629135434
Fix,GT,37.6298668,-122.4194733,,13.606556,0.1,58.4097,1595629136434
Fix,GT,37.6299393,-122.419345,,14.161049,0.1,54.658386,1595629137434
Fix,GT,37.6300204,-122.4192195,,14.351631,0.1,51.162354,1595629138434
Fix,GT,37.6301062,-122.4190983,,14.279713,0.1,49.190765,1595629139434
Fix,GT,37.6301927,-122.4189802,,14.033459,0.1,48.607788,1595629140434
Fix,GT,37.630277,-122.4188668,,13.355577,0.1,48.152344,1595629141434
Fix,GT,37.6303566,-122.4187607,,12.374038,0.1,48.151245,1595629142434
Fix,GT,37.6304291,-122.418661,,11.514992,0.1,49.812897,1595629143434
Fix,GT,37.6304918,-122.4185626,,10.695591,0.1,54.319977,1595629144434
Fix,GT,37.6305418,-122.4184668,,9.439761,0.1,59.39612,1595629145434
Fix,GT,37.6305799,-122.4183827,,7.589049,0.1,62.187653,1595629146434
Fix,GT,37.6306075,-122.4183178,,5.411734,0.1,63.47583,1595629147434
Fix,GT,37.6306257,-122.4182743,,3.2908905,0.1,63.92383,1595629148434
Fix,GT,37.6306356,-122.4182503,,1.5727066,0.1,64.0336,1595629149434
Fix,GT,37.6306395,-122.4182407,,0.47413334,0.1,64.06781,1595629150434
Fix,GT,37.6306401,-122.4182392,,0.03611449,0.1,64.07059,1595629151434
Fix,GT,37.630641,-122.4182371,,0.4468506,0.1,64.07788,1595629152434
Fix,GT,37.630645,-122.4182272,,1.5381533,0.1,64.09607,1595629153434
Fix,GT,37.630654,-122.4182053,,2.862681,0.1,64.14267,1595629154434
Fix,GT,37.6306685,-122.4181697,,4.280373,0.1,64.27719,1595629155434
Fix,GT,37.6306892,-122.4181185,,5.851923,0.1,64.50067,1595629156434
Fix,GT,37.6307165,-122.4180528,,7.120576,0.1,63.546814,1595629157434
Fix,GT,37.6307538,-122.4179824,,7.7504444,0.1,56.07379,1595629158434
Fix,GT,37.6308051,-122.417924,,7.7692738,0.1,40.15045,1595629159434
Fix,GT,37.6308682,-122.4178902,,7.760519,0.1,21.204102,1595629160434
Fix,GT,37.6309389,-122.417883,,8.269617,0.1,3.8430786,1595629161434
Fix,GT,37.6310151,-122.4178956,,8.882368,0.1,352.51816,1595629162434
Fix,GT,37.631094,-122.4179203,,9.122485,0.1,346.29114,1595629163434
Fix,GT,37.6311712,-122.4179532,,8.94799,0.1,341.8201,1595629164434
Fix,GT,37.6312447,-122.4179904,,8.666512,0.1,339.09818,1595629165434
Fix,GT,37.6313152,-122.4180289,,8.396826,0.1,337.69168,1595629166434
Fix,GT,37.631382,-122.418067,,7.870663,0.1,337.03983,1595629167434
Fix,GT,37.6314432,-122.4181017,,7.0163193,0.1,337.32895,1595629168434
Fix,GT,37.6314968,-122.4181313,,5.875594,0.1,337.7407,1595629169434
Fix,GT,37.6315388,-122.4181542,,4.266356,0.1,337.96735,1595629170434
Fix,GT,37.6315674,-122.4181698,,2.7677658,0.1,338.0022,1595629171434
Fix,GT,37.6315859,-122.4181798,,1.8192766,0.1,338.00516,1595629172434
Fix,GT,37.6315985,-122.4181866,,1.2693337,0.1,338.00204,1595629173434
Fix,GT,37.6316073,-122.4181914,,0.83705574,0.1,338.0011,1595629174434
Fix,GT,37.6316123,-122.4181941,,0.37739724,0.1,337.99942,1595629175434
Fix,GT,37.631614,-122.418195,,0.05696638,0.1,338.00247,1595629176434
Fix,GT,37.6316141,-122.418195,,0.004105472,0.1,338.00583,1595629177434
Fix,GT,37.6316141,-122.418195,,0.0028331166,0.1,338.00476,1595629178434
Fix,GT,37.6316141,-122.418195,,0.001434684,0.1,338.005,1595629179434
Fix,GT,37.6316141,-122.418195,,0.001745368,0.1,338.00574,1595629180434
Fix,GT,37.6316141,-122.418195,,0.0014142136,0.1,338.00632,1595629181434
Fix,GT,37.6316141,-122.418195,,0.0014142136,0.1,338.00696,1595629182434
Fix,GT,37.6316141,-122.418195,,0.0007994775,0.1,338.00696,1595629183434
Fix,GT,37.6316141,-122.418195,,0.000971983,0.1,338.00717,1595629184434
Fix,GT,37.6316141,-122.418195,,0.0026386764,0.1,338.00815,1595629185434
Fix,GT,37.6316141,-122.418195,,0.002759669,0.1,338.00888,1595629186434
Fix,GT,37.6316141,-122.418195,,0.0016987689,0.1,338.00928,1595629187434
Fix,GT,37.6316141,-122.418195,,0.001434684,0.1,338.00952,1595629188434
Fix,GT,37.6316141,-122.418195,,0.0023601041,0.1,338.00992,1595629189434
Fix,GT,37.6316141,-122.418195,,0.0028284271,0.1,338.01062,1595629190434
Fix,GT,37.6316141,-122.418195,,0.0029735465,0.1,338.01126,1595629191434
Fix,GT,37.631614,-122.418195,,0.003091738,0.1,338.01147,1595629192434
Fix,GT,37.6316142,-122.4181951,,0.11910328,0.1,338.0148,1595629193434
Fix,GT,37.6316171,-122.4181967,,0.6851122,0.1,338.0238,1595629194434
Fix,GT,37.6316265,-122.4182019,,1.6271229,0.1,338.0278,1595629195434
Fix,GT,37.6316448,-122.4182118,,2.8319073,0.1,338.01636,1595629196434
Fix,GT,37.6316747,-122.4182282,,4.4274435,0.1,337.8964,1595629197434
Fix,GT,37.6317186,-122.4182526,,6.206835,0.1,337.65497,1595629198434
Fix,GT,37.6317769,-122.4182852,,7.837389,0.1,337.40872,1595629199434
Fix,GT,37.631846,-122.4183242,,8.854847,0.1,337.2619,1595629200434
Fix,GT,37.631922,-122.4183667,,9.581636,0.1,337.47598,1595629201434
Fix,GT,37.6320036,-122.4184116,,10.113792,0.1,337.9096,1595629202434
Fix,GT,37.6320882,-122.4184574,,10.30991,0.1,338.0732,1595629203434
Fix,GT,37.6321737,-122.4185037,,10.335405,0.1,338.2256,1595629204434
Fix,GT,37.6322608,-122.4185462,,10.458985,0.1,341.14816,1595629205434
Fix,GT,37.6323521,-122.4185791,,10.595232,0.1,347.2007,1595629206434
Fix,GT,37.6324464,-122.4185995,,10.51199,0.1,353.55374,1595629207434
Fix,GT,37.632539,-122.4186038,,10.051592,0.1,1.791626,1595629208434
Fix,GT,37.632626,-122.4185866,,9.6028805,0.1,14.011108,1595629209434
Fix,GT,37.632703,-122.4185429,,9.414951,0.1,30.026611,1595629210434
Fix,GT,37.6327688,-122.4184732,,9.990451,0.1,44.221832,1595629211434
Fix,GT,37.6328306,-122.4183814,,11.423,0.1,52.427673,1595629212434
Fix,GT,37.6328953,-122.4182694,,12.935977,0.1,56.12677,1595629213434
Fix,GT,37.6329645,-122.4181434,,14.0287,0.1,56.805603,1595629214434
Fix,GT,37.6330378,-122.4180078,,14.898909,0.1,57.300537,1595629215434
Fix,GT,37.6331144,-122.4178633,,15.821072,0.1,57.87494,1595629216434
Fix,GT,37.6331945,-122.4177085,,16.771723,0.1,58.62387,1595629217434
Fix,GT,37.6332776,-122.4175438,,17.65622,0.1,59.277344,1595629218434
Fix,GT,37.6333642,-122.4173694,,18.647903,0.1,59.426117,1595629219434
Fix,GT,37.6334551,-122.4171848,,19.679466,0.1,59.8179,1595629220434
Fix,GT,37.6335478,-122.4169885,,20.598623,0.1,61.718903,1595629221434
Fix,GT,37.6336362,-122.4167777,,21.465015,0.1,64.903015,1595629222434
Fix,GT,37.6337187,-122.4165524,,22.352634,0.1,67.823975,1595629223434
Fix,GT,37.6337962,-122.4163146,,23.045418,0.1,70.116,1595629224434
Fix,GT,37.6338682,-122.4160663,,23.62848,0.1,72.4328,1595629225434
Fix,GT,37.6339331,-122.4158077,,24.254509,0.1,75.04639,1595629226434
Fix,GT,37.6339903,-122.4155388,,24.875341,0.1,77.637665,1595629227434
Fix,GT,37.634038,-122.4152601,,25.445683,0.1,80.545685,1595629228434
Fix,GT,37.6340753,-122.4149723,,26.038313,0.1,83.495056,1595629229434
Fix,GT,37.6341012,-122.4146763,,26.5645,0.1,86.466125,1595629230434
Fix,GT,37.6341153,-122.4143726,,27.119686,0.1,89.36658,1595629231434
Fix,GT,37.6341178,-122.4140624,,27.619522,0.1,91.99481,1595629232434
Fix,GT,37.6341097,-122.4137481,,27.890266,0.1,94.298004,1595629233434
Fix,GT,37.634092,-122.4134319,,28.058086,0.1,96.5802,1595629234434
Fix,GT,37.6340646,-122.4131147,,28.268234,0.1,98.52249,1595629235434
Fix,GT,37.6340303,-122.4127968,,28.337414,0.1,99.54059,1595629236434
Fix,GT,37.6339929,-122.4124801,,28.17469,0.1,100.10361,1595629237434
Fix,GT,37.6339534,-122.4121658,,27.998077,0.1,100.708435,1595629238434
Fix,GT,37.6339118,-122.4118538,,27.843296,0.1,101.23572,1595629239434
Fix,GT,37.6338685,-122.411544,,27.689415,0.1,101.44394,1595629240434
Fix,GT,37.6338252,-122.4112359,,27.539047,0.1,101.460205,1595629241434
Fix,GT,37.6337824,-122.4109293,,27.438663,0.1,101.31323,1595629242434
Fix,GT,37.6337403,-122.4106226,,27.517776,0.1,101.08258,1595629243434
Fix,GT,37.6336993,-122.4103132,,27.90369,0.1,100.83154,1595629244434
Fix,GT,37.6336592,-122.4099981,,28.436102,0.1,100.220764,1595629245434
Fix,GT,37.6336229,-122.4096775,,28.688679,0.1,98.671265,1595629246434
Fix,GT,37.6335956,-122.4093543,,28.714893,0.1,96.21234,1595629247434
Fix,GT,37.633581,-122.4090288,,28.92841,0.1,93.151886,1595629248434
Fix,GT,37.6335812,-122.4086994,,29.278101,0.1,89.639465,1595629249434
Fix,GT,37.6335975,-122.408367,,29.56301,0.1,86.40317,1595629250434
Fix,GT,37.6336266,-122.4080336,,29.643047,0.1,84.11124,1595629251434
Fix,GT,37.633663,-122.407701,,29.615719,0.1,83.02106,1595629252434
Fix,GT,37.6337031,-122.4073701,,29.440609,0.1,82.52103,1595629253434
Fix,GT,37.6337435,-122.4070429,,29.004242,0.1,82.611206,1595629254434
Fix,GT,37.6337812,-122.4067207,,28.508953,0.1,83.48239,1595629255434
Fix,GT,37.6338105,-122.4064018,,28.18044,0.1,86.201355,1595629256434
Fix,GT,37.6338225,-122.406085,,27.868923,0.1,91.30237,1595629257434
Fix,GT,37.6338095,-122.4057713,,27.735,0.1,97.29019,1595629258434
Fix,GT,37.6337695,-122.4054611,,27.820013,0.1,103.58667,1595629259434
Fix,GT,37.633703,-122.4051574,,27.85278,0.1,109.736145,1595629260434
Fix,GT,37.633611,-122.4048653,,27.651329,0.1,115.94586,1595629261434
Fix,GT,37.6334952,-122.4045905,,27.322582,0.1,122.424774,1595629262434
Fix,GT,37.633357,-122.4043372,,27.051231,0.1,128.9107,1595629263434
Fix,GT,37.6331983,-122.4041057,,27.023151,0.1,134.98694,1595629264434
Fix,GT,37.6330208,-122.4038952,,27.214111,0.1,140.80243,1595629265434
Fix,GT,37.6328256,-122.4037082,,27.340021,0.1,147.20618,1595629266434
Fix,GT,37.632614,-122.4035498,,27.434902,0.1,153.724,1595629267434
Fix,GT,37.6323886,-122.4034206,,27.655584,0.1,159.74402,1595629268434
Fix,GT,37.6321514,-122.4033214,,27.929604,0.1,165.87256,1595629269434
Fix,GT,37.631905,-122.4032523,,28.16859,0.1,171.28577,1595629270434
Fix,GT,37.6316529,-122.4032071,,28.382912,0.1,174.56433,1595629271434
Fix,GT,37.6313979,-122.4031721,,28.605736,0.1,175.3117,1595629272434
Fix,GT,37.6311406,-122.4031368,,28.83001,0.1,174.97937,1595629273434
Fix,GT,37.6308818,-122.4031,,28.967762,0.1,174.87079,1595629274434
Fix,GT,37.6306222,-122.4030626,,29.060982,0.1,174.79749,1595629275434
Fix,GT,37.6303615,-122.4030253,,29.158583,0.1,174.98553,1595629276434
Fix,GT,37.6301006,-122.4029892,,29.026325,0.1,175.19818,1595629277434
Fix,GT,37.6298422,-122.4029545,,28.658268,0.1,175.3371,1595629278434
Fix,GT,37.6295871,-122.4029202,,28.320572,0.1,175.2832,1595629279434
Fix,GT,37.6293343,-122.4028864,,28.161795,0.1,175.3034,1595629280434
Fix,GT,37.6290819,-122.4028524,,28.19789,0.1,175.2096,1595629281434
Fix,GT,37.6288287,-122.4028167,,28.38889,0.1,174.75385,1595629282434
Fix,GT,37.6285743,-122.4027772,,28.52139,0.1,173.96039,1595629283434
Fix,GT,37.6283199,-122.4027333,,28.437605,0.1,173.2088,1595629284434
Fix,GT,37.6280675,-122.4026849,,28.265446,0.1,172.28308,1595629285434
Fix,GT,37.6278171,-122.4026314,,28.12764,0.1,171.20874,1595629286434
Fix,GT,37.6275685,-122.4025724,,28.046345,0.1,170.17761,1595629287434
Fix,GT,37.6273215,-122.402508,,27.980665,0.1,169.14783,1595629288434
Fix,GT,37.6270756,-122.4024381,,28.009113,0.1,168.10962,1595629289434
Fix,GT,37.6268302,-122.402362,,28.089739,0.1,166.93591,1595629290434
Fix,GT,37.626586,-122.4022792,,28.035534,0.1,165.5835,1595629291434
Fix,GT,37.6263448,-122.4021888,,27.82719,0.1,163.77869,1595629292434
Fix,GT,37.6261086,-122.4020877,,27.606133,0.1,161.33722,1595629293434
Fix,GT,37.6258767,-122.4019779,,27.417408,0.1,160.39008,1595629294434
Fix,GT,37.6256452,-122.4018703,,27.376488,0.1,161.92273,1595629295434
Fix,GT,37.6254108,-122.4017719,,27.497906,0.1,163.8891,1595629296434
Fix,GT,37.6251735,-122.4016825,,27.45177,0.1,165.2926,1595629297434
Fix,GT,37.6249367,-122.4015974,,27.221554,0.1,165.25781,1595629298434
Fix,GT,37.6247017,-122.401511,,27.177105,0.1,164.75677,1595629299434
Fix,GT,37.6244667,-122.4014214,,27.388084,0.1,164.21124,1595629300434
Fix,GT,37.6242301,-122.4013278,,27.707941,0.1,163.51251,1595629301434
Fix,GT,37.6239914,-122.4012298,,28.084955,0.1,163.05609,1595629302434
Fix,GT,37.6237496,-122.4011298,,28.420948,0.1,163.3299,1595629303434
Fix,GT,37.6235051,-122.401032,,28.49098,0.1,164.10443,1595629304434
Fix,GT,37.6232597,-122.4009382,,28.4761,0.1,164.7984,1595629305434
Fix,GT,37.6230125,-122.4008478,,28.70132,0.1,165.44055,1595629306434
Fix,GT,37.622762,-122.4007584,,29.10198,0.1,165.40314,1595629307434
Fix,GT,37.6225087,-122.4006662,,29.406055,0.1,164.906,1595629308434
Fix,GT,37.6222538,-122.4005714,,29.570526,0.1,164.83386,1595629309434
Fix,GT,37.6219975,-122.4004765,,29.73526,0.1,165.10828,1595629310434
Fix,GT,37.621739,-122.4003835,,29.956373,0.1,165.68256,1595629311434
Fix,GT,37.6214779,-122.4002928,,30.105627,0.1,166.12976,1595629312434
Fix,GT,37.6212161,-122.400204,,30.074997,0.1,166.33167,1595629313434
Fix,GT,37.6209542,-122.4001157,,30.132671,0.1,166.3175,1595629314434
Fix,GT,37.6206915,-122.400027,,30.269936,0.1,166.255,1595629315434
Fix,GT,37.6204278,-122.3999372,,30.364555,0.1,166.15234,1595629316434
Fix,GT,37.6201627,-122.3998471,,30.639723,0.1,166.27448,1595629317434
Fix,GT,37.6198941,-122.3997569,,31.048502,0.1,166.42133,1595629318434
Fix,GT,37.6196226,-122.3996653,,31.311792,0.1,166.22278,1595629319434
Fix,GT,37.6193499,-122.3995722,,31.400345,0.1,166.13898,1595629320434
Fix,GT,37.6190771,-122.399479,,31.326298,0.1,166.20325,1595629321434
Fix,GT,37.6188056,-122.3993866,,31.110273,0.1,166.30286,1595629322434
Fix,GT,37.6185358,-122.3992959,,30.909136,0.1,166.47754,1595629323434
Fix,GT,37.6182668,-122.3992064,,30.889988,0.1,166.55048,1595629324434
Fix,GT,37.6179974,-122.3991171,,30.925426,0.1,166.54346,1595629325434
Fix,GT,37.6177287,-122.3990275,,30.710876,0.1,166.44928,1595629326434
Fix,GT,37.6174631,-122.3989374,,30.381405,0.1,166.0185,1595629327434
Fix,GT,37.6171998,-122.3988438,,30.41705,0.1,165.13074,1595629328434
Fix,GT,37.6169363,-122.3987446,,30.620876,0.1,164.32172,1595629329434
Fix,GT,37.6166725,-122.3986414,,30.683088,0.1,163.87787,1595629330434
Fix,GT,37.6164086,-122.3985354,,30.835266,0.1,163.15314,1595629331434
Fix,GT,37.6161446,-122.3984228,,31.04042,0.1,161.9566,1595629332434
Fix,GT,37.615881,-122.3983021,,31.25567,0.1,160.67896,1595629333434
Fix,GT,37.6156178,-122.3981725,,31.518486,0.1,159.15344,1595629334434
Fix,GT,37.6153556,-122.3980324,,31.740627,0.1,157.3515,1595629335434
Fix,GT,37.6150958,-122.3978804,,31.922451,0.1,155.4159,1595629336434
Fix,GT,37.6148383,-122.3977166,,32.154205,0.1,153.65009,1595629337434
Fix,GT,37.6145828,-122.3975426,,32.360256,0.1,152.11365,1595629338434
Fix,GT,37.6143293,-122.3973594,,32.50994,0.1,150.79211,1595629339434
Fix,GT,37.6140786,-122.397169,,32.47551,0.1,149.48651,1595629340434
Fix,GT,37.6138328,-122.396972,,32.252815,0.1,148.031,1595629341434
Fix,GT,37.6135935,-122.3967678,,31.940228,0.1,146.31879,1595629342434
Fix,GT,37.6133619,-122.3965568,,31.61023,0.1,144.48706,1595629343434
Fix,GT,37.6131371,-122.3963384,,31.465418,0.1,142.78351,1595629344434
Fix,GT,37.6129173,-122.3961123,,31.60311,0.1,141.24216,1595629345434
Fix,GT,37.6127013,-122.3958774,,31.827236,0.1,139.74384,1595629346434
Fix,GT,37.6124883,-122.3956345,,31.988716,0.1,138.45221,1595629347434
Fix,GT,37.612279,-122.3953847,,32.09111,0.1,137.1377,1595629348434
Fix,GT,37.6120736,-122.3951278,,32.232742,0.1,135.81305,1595629349434
Fix,GT,37.6118722,-122.3948642,,32.31974,0.1,134.5495,1595629350434
Fix,GT,37.6116751,-122.394595,,32.267662,0.1,133.25912,1595629351434
Fix,GT,37.6114845,-122.3943213,,31.924473,0.1,131.7558,1595629352434
Fix,GT,37.6113019,-122.3940455,,31.449844,0.1,130.45245,1595629353434
Fix,GT,37.6111251,-122.3937692,,31.191761,0.1,130.02386,1595629354434
Fix,GT,37.6109496,-122.3934943,,31.06083,0.1,130.09662,1595629355434
Fix,GT,37.6107747,-122.3932209,,30.853168,0.1,130.12183,1595629356434
Fix,GT,37.6106018,-122.3929498,,30.43172,0.1,129.9238,1595629357434
Fix,GT,37.6104329,-122.3926823,,29.863733,0.1,129.60565,1595629358434
Fix,GT,37.6102679,-122.3924184,,29.511618,0.1,129.33685,1595629359434
Fix,GT,37.6101042,-122.3921553,,29.536787,0.1,129.51926,1595629360434
Fix,GT,37.6099373,-122.391891,,30.093603,0.1,130.13669,1595629361434
Fix,GT,37.6097644,-122.3916228,,30.876862,0.1,130.53638,1595629362434
Fix,GT,37.6095871,-122.39135,,31.250755,0.1,130.65036,1595629363434
Fix,GT,37.6094081,-122.3910761,,31.331488,0.1,130.76352,1595629364434
Fix,GT,37.6092289,-122.3908024,,31.225113,0.1,130.7778,1595629365434
Fix,GT,37.6090512,-122.3905298,,30.98146,0.1,130.57935,1595629366434
Fix,GT,37.6088755,-122.390259,,30.741386,0.1,130.44995,1595629367434
Fix,GT,37.6087012,-122.3899895,,30.616943,0.1,130.44806,1595629368434
Fix,GT,37.608527,-122.3897204,,30.685545,0.1,130.51733,1595629369434
Fix,GT,37.608352,-122.3894509,,30.744934,0.1,130.64151,1595629370434
Fix,GT,37.6081767,-122.3891823,,30.5995,0.1,130.76044,1595629371434
Fix,GT,37.6080019,-122.3889153,,30.50248,0.1,130.81384,1595629372434
Fix,GT,37.6078268,-122.3886478,,30.721817,0.1,130.77734,1595629373434
Fix,GT,37.6076503,-122.3883776,,30.990105,0.1,130.71823,1595629374434
Fix,GT,37.6074731,-122.3881058,,31.04314,0.1,130.61346,1595629375434
Fix,GT,37.6072961,-122.3878336,,31.004211,0.1,130.62839,1595629376434
Fix,GT,37.6071189,-122.3875626,,30.922794,0.1,130.91095,1595629377434
Fix,GT,37.6069417,-122.3872935,,30.776527,0.1,130.97992,1595629378434
Fix,GT,37.6067652,-122.3870249,,30.748787,0.1,130.81805,1595629379434
Fix,GT,37.6065888,-122.3867555,,30.878164,0.1,130.78278,1595629380434
Fix,GT,37.6064115,-122.3864851,,30.985699,0.1,130.86343,1595629381434
Fix,GT,37.6062338,-122.3862145,,30.9807,0.1,130.77972,1595629382434
Fix,GT,37.6060567,-122.385943,,31.05861,0.1,130.5859,1595629383434
Fix,GT,37.6058792,-122.3856699,,31.22288,0.1,130.64474,1595629384434
Fix,GT,37.6057003,-122.3853958,,31.405937,0.1,130.81372,1595629385434
Fix,GT,37.6055198,-122.3851199,,31.673359,0.1,130.77655,1595629386434
Fix,GT,37.6053386,-122.3848425,,31.666779,0.1,130.74683,1595629387434
Fix,GT,37.6051582,-122.3845668,,31.365799,0.1,130.82819,1595629388434
Fix,GT,37.6049797,-122.3842941,,31.010983,0.1,130.8097,1595629389434
Fix,GT,37.6048031,-122.3840243,,30.705954,0.1,130.80493,1595629390434
Fix,GT,37.6046278,-122.3837558,,30.721457,0.1,130.63312,1595629391434
Fix,GT,37.6044522,-122.3834852,,30.98696,0.1,130.3985,1595629392434
Fix,GT,37.6042759,-122.3832114,,31.180767,0.1,130.29742,1595629393434
Fix,GT,37.604099,-122.3829359,,31.34792,0.1,130.21674,1595629394434
Fix,GT,37.6039212,-122.3826586,,31.508587,0.1,130.24878,1595629395434
Fix,GT,37.6037424,-122.3823811,,31.506195,0.1,130.48718,1595629396434
Fix,GT,37.6035633,-122.3821063,,31.230812,0.1,130.85907,1595629397434
Fix,GT,37.6033847,-122.381835,,31.005402,0.1,131.02905,1595629398434
Fix,GT,37.6032064,-122.3815646,,31.015678,0.1,130.92593,1595629399434
Fix,GT,37.6030283,-122.3812935,,31.03909,0.1,130.75531,1595629400434
Fix,GT,37.6028519,-122.3810245,,30.263859,0.1,131.06598,1595629401434
Fix,GT,37.6026803,-122.3807671,,28.897385,0.1,131.82336,1595629402434
Fix,GT,37.6025125,-122.3805229,,28.425913,0.1,132.47852,1595629403434
Fix,GT,37.602342,-122.3802769,,29.293045,0.1,132.19397,1595629404434
Fix,GT,37.6021666,-122.3800184,,30.712296,0.1,131.34381,1595629405434
Fix,GT,37.6019863,-122.379746,,31.813877,0.1,130.95178,1595629406434
Fix,GT,37.6018023,-122.3794651,,32.392223,0.1,130.72913,1595629407434
Fix,GT,37.6016169,-122.3791807,,32.483593,0.1,130.6525,1595629408434
Fix,GT,37.6014321,-122.3788971,,32.23042,0.1,130.6825,1595629409434
Fix,GT,37.6012488,-122.3786166,,31.847494,0.1,130.77875,1595629410434
Fix,GT,37.6010676,-122.3783398,,31.400707,0.1,130.74292,1595629411434
Fix,GT,37.6008901,-122.3780657,,31.02095,0.1,130.16257,1595629412434
Fix,GT,37.6007171,-122.3777909,,30.959995,0.1,129.2746,1595629413434
Fix,GT,37.6005464,-122.3775126,,31.135082,0.1,128.88559,1595629414434
Fix,GT,37.600375,-122.3772332,,31.114368,0.1,129.22284,1595629415434
Fix,GT,37.6002015,-122.376956,,31.241898,0.1,129.87897,1595629416434
Fix,GT,37.6000241,-122.3766785,,31.692112,0.1,130.40295,1595629417434
Fix,GT,37.5998426,-122.3763983,,32.041718,0.1,130.45264,1595629418434
Fix,GT,37.5996616,-122.3761154,,31.975018,0.1,129.69669,1595629419434
Fix,GT,37.5994856,-122.3758313,,31.647251,0.1,128.88159,1595629420434
Fix,GT,37.5993127,-122.3755489,,31.294235,0.1,129.07959,1595629421434
Fix,GT,37.5991397,-122.3752706,,31.130394,0.1,129.67328,1595629422434
Fix,GT,37.598965,-122.3749932,,31.446121,0.1,129.67114,1595629423434
Fix,GT,37.598788,-122.3747121,,31.935406,0.1,129.7815,1595629424434
Fix,GT,37.5986076,-122.374428,,32.221165,0.1,130.19904,1595629425434
Fix,GT,37.5984244,-122.3741432,,32.47454,0.1,130.42511,1595629426434
Fix,GT,37.5982395,-122.3738575,,32.50039,0.1,130.47675,1595629427434
Fix,GT,37.5980556,-122.3735731,,32.234203,0.1,130.40048,1595629428434
Fix,GT,37.5978736,-122.3732904,,31.994564,0.1,130.41742,1595629429434
Fix,GT,37.5976922,-122.3730101,,31.79581,0.1,130.61859,1595629430434
Fix,GT,37.5975116,-122.3727324,,31.563719,0.1,130.61047,1595629431434
Fix,GT,37.5973321,-122.3724559,,31.503944,0.1,130.54028,1595629432434
Fix,GT,37.5971522,-122.3721787,,31.678787,0.1,130.60452,1595629433434
Fix,GT,37.596971,-122.3718999,,31.904797,0.1,130.58337,1595629434434
Fix,GT,37.5967884,-122.3716189,,32.152588,0.1,130.60767,1595629435434
Fix,GT,37.5966044,-122.3713362,,32.22833,0.1,130.73822,1595629436434
Fix,GT,37.5964207,-122.3710554,,31.888514,0.1,130.84805,1595629437434
Fix,GT,37.5962398,-122.3707793,,31.310062,0.1,130.80548,1595629438434
Fix,GT,37.5960623,-122.3705081,,30.709433,0.1,130.88208,1595629439434
Fix,GT,37.5958874,-122.3702419,,30.27008,0.1,131.00925,1595629440434
Fix,GT,37.5957156,-122.369981,,29.530094,0.1,130.94739,1595629441434
Fix,GT,37.5955502,-122.3697289,,28.1644,0.1,130.82983,1595629442434
Fix,GT,37.5953936,-122.3694898,,26.586262,0.1,130.87842,1595629443434
Fix,GT,37.5952447,-122.3692632,,25.441433,0.1,130.97522,1595629444434
Fix,GT,37.5951003,-122.3690438,,24.871677,0.1,130.91962,1595629445434
Fix,GT,37.5949591,-122.368828,,24.48493,0.1,130.69666,1595629446434
Fix,GT,37.5948204,-122.3686152,,24.089424,0.1,130.70135,1595629447434
Fix,GT,37.5946836,-122.3684062,,23.730946,0.1,130.86646,1595629448434
Fix,GT,37.5945483,-122.3681999,,23.533195,0.1,130.76453,1595629449434
Fix,GT,37.5944143,-122.3679931,,23.66484,0.1,130.39584,1595629450434
Fix,GT,37.5942791,-122.3677825,,24.152988,0.1,130.26062,1595629451434
Fix,GT,37.5941395,-122.3675664,,25.021894,0.1,130.58243,1595629452434
Fix,GT,37.5939934,-122.3673424,,26.135612,0.1,130.76245,1595629453434
Fix,GT,37.5938416,-122.3671094,,27.024841,0.1,130.69492,1595629454434
Fix,GT,37.5936857,-122.3668695,,27.638771,0.1,130.66351,1595629455434
Fix,GT,37.5935265,-122.3666257,,28.07964,0.1,130.86142,1595629456434
Fix,GT,37.5933645,-122.366379,,28.417912,0.1,130.97467,1595629457434
Fix,GT,37.5932002,-122.3661292,,28.824448,0.1,130.88928,1595629458434
Fix,GT,37.5930342,-122.3658756,,29.177593,0.1,130.8034,1595629459434
Fix,GT,37.5928664,-122.3656189,,29.475418,0.1,130.7334,1595629460434
Fix,GT,37.5926979,-122.3653601,,29.564335,0.1,130.66223,1595629461434
Fix,GT,37.5925287,-122.3651012,,29.634735,0.1,130.9578,1595629462434
Fix,GT,37.5923572,-122.3648422,,29.923351,0.1,131.18689,1595629463434
Fix,GT,37.5921837,-122.3645793,,30.419006,0.1,130.92218,1595629464434
Fix,GT,37.5920079,-122.3643109,,30.998974,0.1,130.78146,1595629465434
Fix,GT,37.5918288,-122.3640372,,31.60136,0.1,130.83508,1595629466434
Fix,GT,37.5916463,-122.3637586,,32.11234,0.1,130.85925,1595629467434
Fix,GT,37.5914614,-122.3634758,,32.527008,0.1,130.77423,1595629468434
Fix,GT,37.5912742,-122.3631891,,32.99774,0.1,130.81982,1595629469434
Fix,GT,37.5910837,-122.3628987,,33.511467,0.1,131.00174,1595629470434
Fix,GT,37.5908893,-122.3626043,,34.04228,0.1,131.15176,1595629471434
Fix,GT,37.5906915,-122.3623056,,34.566353,0.1,131.09561,1595629472434
Fix,GT,37.5904916,-122.362002,,34.96077,0.1,130.90427,1595629473434
Fix,GT,37.5902908,-122.3616954,,35.156532,0.1,130.81036,1595629474434
Fix,GT,37.5900896,-122.3613879,,35.134758,0.1,130.76443,1595629475434
Fix,GT,37.5898893,-122.3610807,,35.034126,0.1,130.57205,1595629476434
Fix,GT,37.589691,-122.3607718,,35.088856,0.1,130.00958,1595629477434
Fix,GT,37.5894956,-122.3604598,,34.98692,0.1,129.1647,1595629478434
Fix,GT,37.5893055,-122.3601456,,34.766975,0.1,127.922455,1595629479434
Fix,GT,37.5891222,-122.3598263,,34.836506,0.1,126.337616,1595629480434
Fix,GT,37.5889457,-122.3594987,,35.05658,0.1,124.62265,1595629481434
Fix,GT,37.5887769,-122.3591631,,35.08457,0.1,122.666565,1595629482434
Fix,GT,37.5886178,-122.3588212,,34.866123,0.1,120.79169,1595629483434
Fix,GT,37.5884677,-122.3584766,,34.58036,0.1,119.53381,1595629484434
Fix,GT,37.5883232,-122.358131,,34.38128,0.1,118.52997,1595629485434
Fix,GT,37.5881853,-122.3577831,,34.318546,0.1,117.055756,1595629486434
Fix,GT,37.5880559,-122.3574299,,34.42373,0.1,114.93768,1595629487434
Fix,GT,37.5879369,-122.3570692,,34.575417,0.1,112.6759,1595629488434
Fix,GT,37.5878277,-122.356703,,34.497166,0.1,111.20181,1595629489434
Fix,GT,37.5877259,-122.3563361,,34.126377,0.1,109.935,1595629490434
Fix,GT,37.5876325,-122.3559704,,33.722454,0.1,108.175964,1595629491434
Fix,GT,37.5875492,-122.3556063,,33.2475,0.1,106.49762,1595629492434
Fix,GT,37.5874756,-122.3552448,,32.724083,0.1,104.93613,1595629493434
Fix,GT,37.5874104,-122.3548859,,32.32565,0.1,103.4191,1595629494434
Fix,GT,37.5873534,-122.3545291,,32.00691,0.1,101.831726,1595629495434
Fix,GT,37.587305,-122.3541724,,31.988358,0.1,100.155365,1595629496434
Fix,GT,37.5872646,-122.3538113,,32.485786,0.1,98.61569,1595629497434
Fix,GT,37.5872309,-122.353442,,33.18232,0.1,97.06903,1595629498434
Fix,GT,37.5872052,-122.3530645,,33.705376,0.1,95.32507,1595629499434
Fix,GT,37.5871878,-122.3526817,,34.010033,0.1,93.94519,1595629500434
Fix,GT,37.5871759,-122.3522965,,34.05576,0.1,93.074646,1595629501434
Fix,GT,37.5871677,-122.3519114,,33.996338,0.1,92.749176,1595629502434
Fix,GT,37.5871596,-122.3515261,,34.118557,0.1,93.08136,1595629503434
Fix,GT,37.5871496,-122.3511385,,34.38632,0.1,93.20511,1595629504434
Fix,GT,37.5871397,-122.3507481,,34.59501,0.1,93.04639,1595629505434
Fix,GT,37.5871302,-122.3503561,,34.657066,0.1,93.1178,1595629506434
Fix,GT,37.5871203,-122.3499641,,34.600147,0.1,93.18359,1595629507434
Fix,GT,37.5871103,-122.3495729,,34.556587,0.1,93.1734,1595629508434
Fix,GT,37.5871004,-122.349182,,34.490437,0.1,93.16315,1595629509434
Fix,GT,37.5870904,-122.3487926,,34.340874,0.1,93.252655,1595629510434
Fix,GT,37.5870798,-122.3484055,,34.070908,0.1,93.377045,1595629511434
Fix,GT,37.5870689,-122.3480217,,33.75375,0.1,93.366516,1595629512434
Fix,GT,37.5870587,-122.3476409,,33.58732,0.1,93.212585,1595629513434
Fix,GT,37.5870491,-122.3472607,,33.647484,0.1,93.096985,1595629514434
Fix,GT,37.5870396,-122.3468791,,33.80415,0.1,93.16165,1595629515434
Fix,GT,37.5870296,-122.3464957,,33.96461,0.1,93.28723,1595629516434
Fix,GT,37.587019,-122.3461105,,34.13406,0.1,93.34631,1595629517434
Fix,GT,37.5870083,-122.3457231,,34.315186,0.1,93.263824,1595629518434
Fix,GT,37.586998,-122.3453343,,34.435837,0.1,93.17157,1595629519434
Fix,GT,37.586988,-122.344944,,34.586254,0.1,93.11835,1595629520434
Fix,GT,37.5869782,-122.3445523,,34.610672,0.1,93.171326,1595629521434
Fix,GT,37.5869679,-122.3441611,,34.535343,0.1,93.229706,1595629522434
Fix,GT,37.5869577,-122.3437701,,34.590767,0.1,93.10034,1595629523434
Fix,GT,37.5869483,-122.3433777,,34.7934,0.1,93.01709,1595629524434
Fix,GT,37.5869386,-122.3429829,,34.97249,0.1,93.18564,1595629525434
Fix,GT,37.5869279,-122.3425861,,35.096046,0.1,93.3313,1595629526434
Fix,GT,37.5869166,-122.3421895,,34.951263,0.1,93.38797,1595629527434
Fix,GT,37.5869056,-122.3417963,,34.543213,0.1,93.24979,1595629528434
Fix,GT,37.5868956,-122.341408,,34.119785,0.1,93.065155,1595629529434
Fix,GT,37.5868864,-122.3410233,,33.928207,0.1,93.02692,1595629530434
Fix,GT,37.5868775,-122.3406386,,34.054146,0.1,92.95935,1595629531434
Fix,GT,37.5868682,-122.3402528,,34.067066,0.1,93.147125,1595629532434
Fix,GT,37.5868575,-122.3398691,,33.753544,0.1,93.513214,1595629533434
Fix,GT,37.5868458,-122.3394899,,33.193253,0.1,93.54736,1595629534434
Fix,GT,37.5868348,-122.3391191,,32.341297,0.1,93.39453,1595629535434
Fix,GT,37.5868245,-122.3387575,,31.689926,0.1,93.331055,1595629536434
Fix,GT,37.586815,-122.3384012,,31.297642,0.1,93.24768,1595629537434
Fix,GT,37.5868059,-122.338049,,30.955084,0.1,93.17288,1595629538434
Fix,GT,37.586797,-122.3377002,,30.69011,0.1,93.16785,1595629539434
Fix,GT,37.5867882,-122.3373543,,30.451614,0.1,93.19043,1595629540434
Fix,GT,37.5867794,-122.3370103,,30.376331,0.1,93.13306,1595629541434
Fix,GT,37.5867711,-122.3366655,,30.608635,0.1,92.99637,1595629542434
Fix,GT,37.5867632,-122.3363174,,30.935568,0.1,92.940765,1595629543434
Fix,GT,37.5867551,-122.3359653,,31.283716,0.1,93.07724,1595629544434
Fix,GT,37.5867462,-122.3356086,,31.767174,0.1,93.147675,1595629545434
Fix,GT,37.5867368,-122.3352465,,32.24764,0.1,93.24124,1595629546434
Fix,GT,37.5867267,-122.3348792,,32.645927,0.1,93.44916,1595629547434
Fix,GT,37.5867152,-122.3345077,,32.97337,0.1,93.71588,1595629548434
Fix,GT,37.5867,-122.3341343,,33.017975,0.1,94.89465,1595629549434
Fix,GT,37.5866763,-122.333763,,32.820713,0.1,97.14899,1595629550434
Fix,GT,37.5866405,-122.3333941,,32.919186,0.1,99.58319,1595629551434
Fix,GT,37.5865909,-122.3330258,,33.043182,0.1,102.395996,1595629552434
Fix,GT,37.5865259,-122.3326619,,32.87145,0.1,105.62833,1595629553434
Fix,GT,37.5864455,-122.3323044,,32.80218,0.1,108.794464,1595629554434
Fix,GT,37.5863496,-122.3319532,,32.79784,0.1,111.93787,1595629555434
Fix,GT,37.5862386,-122.3316106,,32.4851,0.1,115.224915,1595629556434
Fix,GT,37.5861141,-122.331281,,31.920322,0.1,118.52698,1595629557434
Fix,GT,37.5859772,-122.3309669,,31.401815,0.1,121.75403,1595629558434
Fix,GT,37.585829,-122.3306677,,30.855352,0.1,124.7312,1595629559434
Fix,GT,37.5856716,-122.3303838,,30.287653,0.1,127.6087,1595629560434
Fix,GT,37.585506,-122.3301147,,29.85298,0.1,130.45288,1595629561434
Fix,GT,37.5853326,-122.3298593,,29.468082,0.1,133.29834,1595629562434
Fix,GT,37.5851516,-122.3296183,,29.082878,0.1,136.12817,1595629563434
Fix,GT,37.5849637,-122.3293912,,28.828682,0.1,138.53214,1595629564434
Fix,GT,37.5847704,-122.3291734,,28.900417,0.1,140.01581,1595629565434
Fix,GT,37.5845731,-122.3289569,,29.276567,0.1,140.26633,1595629566434
Fix,GT,37.5843729,-122.3287365,,29.780502,0.1,140.04877,1595629567434
Fix,GT,37.5841702,-122.3285135,,29.964844,0.1,140.28915,1595629568434
Fix,GT,37.5839667,-122.3282919,,29.836815,0.1,140.59604,1595629569434
Fix,GT,37.5837629,-122.3280699,,30.123325,0.1,140.31906,1595629570434
Fix,GT,37.5835561,-122.3278434,,30.793568,0.1,140.27579,1595629571434
Fix,GT,37.5833443,-122.327612,,31.48745,0.1,140.41742,1595629572434
Fix,GT,37.5831277,-122.3273764,,32.078712,0.1,140.51843,1595629573434
Fix,GT,37.5829076,-122.3271376,,32.430683,0.1,140.61035,1595629574434
Fix,GT,37.5826858,-122.3268976,,32.559032,0.1,140.68353,1595629575434
Fix,GT,37.5824632,-122.3266571,,32.577675,0.1,140.64667,1595629576434
Fix,GT,37.5822407,-122.3264157,,32.70886,0.1,140.48407,1595629577434
Fix,GT,37.5820174,-122.3261725,,32.889187,0.1,140.41528,1595629578434
Fix,GT,37.5817924,-122.3259276,,33.201153,0.1,140.47757,1595629579434
Fix,GT,37.581565,-122.3256801,,33.569138,0.1,140.4909,1595629580434
Fix,GT,37.5813358,-122.3254313,,33.594574,0.1,140.57184,1595629581434
Fix,GT,37.5811077,-122.3251839,,33.292458,0.1,140.54474,1595629582434
Fix,GT,37.5808817,-122.3249374,,33.176933,0.1,140.24362,1595629583434
Fix,GT,37.5806555,-122.3246891,,33.57218,0.1,140.2367,1595629584434
Fix,GT,37.580425,-122.3244369,,34.284237,0.1,140.4654,1595629585434
Fix,GT,37.580189,-122.3241806,,34.946674,0.1,140.5563,1595629586434
Fix,GT,37.5799492,-122.3239204,,35.317326,0.1,140.58508,1595629587434
Fix,GT,37.5797078,-122.3236594,,35.29525,0.1,140.8097,1595629588434
Fix,GT,37.5794668,-122.3234002,,35.098866,0.1,140.7785,1595629589434
Fix,GT,37.579228,-122.3231425,,34.761395,0.1,140.61765,1595629590434
Fix,GT,37.5789923,-122.3228874,,34.24156,0.1,140.6325,1595629591434
Fix,GT,37.5787608,-122.3226372,,33.547283,0.1,140.6543,1595629592434
Fix,GT,37.5785342,-122.322392,,32.916355,0.1,140.61292,1595629593434
Fix,GT,37.5783105,-122.3221494,,32.753407,0.1,140.52649,1595629594434
Fix,GT,37.5780867,-122.3219064,,32.9374,0.1,140.53534,1595629595434
Fix,GT,37.5778613,-122.3216617,,33.110153,0.1,140.60535,1595629596434
Fix,GT,37.5776355,-122.3214176,,32.95362,0.1,140.74149,1595629597434
Fix,GT,37.5774113,-122.3211759,,32.6061,0.1,140.66846,1595629598434
Fix,GT,37.5771898,-122.3209356,,32.415657,0.1,140.37589,1595629599434
Fix,GT,37.576969,-122.3206943,,32.60049,0.1,140.25311,1595629600434
Fix,GT,37.5767473,-122.3204515,,32.53279,0.1,140.3404,1595629601434
Fix,GT,37.5765279,-122.3202127,,31.759705,0.1,140.58868,1595629602434
Fix,GT,37.5763141,-122.3199809,,30.987392,0.1,140.50174,1595629603434
Fix,GT,37.5761053,-122.3197531,,30.477541,0.1,140.24371,1595629604434
Fix,GT,37.5758998,-122.3195271,,30.166834,0.1,140.24078,1595629605434
Fix,GT,37.5756948,-122.3193031,,30.216759,0.1,140.42307,1595629606434
Fix,GT,37.5754879,-122.3190783,,30.469437,0.1,140.531,1595629607434
Fix,GT,37.5752795,-122.3188517,,30.690115,0.1,140.4906,1595629608434
Fix,GT,37.5750691,-122.3186226,,31.152523,0.1,140.37573,1595629609434
Fix,GT,37.5748548,-122.3183885,,31.920612,0.1,140.37097,1595629610434
Fix,GT,37.5746349,-122.318149,,32.70536,0.1,140.50323,1595629611434
Fix,GT,37.5744099,-122.3179053,,33.187344,0.1,140.73962,1595629612434
Fix,GT,37.5741819,-122.3176598,,33.449043,0.1,140.77875,1595629613434
Fix,GT,37.5739531,-122.3174134,,33.389294,0.1,140.74945,1595629614434
Fix,GT,37.5737255,-122.317168,,33.211452,0.1,140.63141,1595629615434
Fix,GT,37.5734993,-122.3169224,,33.158154,0.1,140.38834,1595629616434
Fix,GT,37.5732742,-122.3166763,,33.015495,0.1,140.36172,1595629617434
Fix,GT,37.5730507,-122.3164327,,32.685272,0.1,140.50433,1595629618434
Fix,GT,37.5728281,-122.3161914,,32.66988,0.1,140.55896,1595629619434
Fix,GT,37.5726046,-122.3159486,,32.9355,0.1,140.46442,1595629620434
Fix,GT,37.5723796,-122.315704,,33.06919,0.1,140.53244,1595629621434
Fix,GT,37.5721542,-122.3154597,,32.98245,0.1,140.6878,1595629622434
Fix,GT,37.5719297,-122.3152164,,32.88167,0.1,140.50482,1595629623434
Fix,GT,37.571706,-122.3149718,,32.97097,0.1,140.31369,1595629624434
Fix,GT,37.5714817,-122.3147267,,32.995506,0.1,140.52051,1595629625434
Fix,GT,37.5712567,-122.3144824,,33.003197,0.1,140.66083,1595629626434
Fix,GT,37.5710308,-122.3142382,,33.1539,0.1,140.65344,1595629627434
Fix,GT,37.5708039,-122.3139924,,33.366688,0.1,140.5373,1595629628434
Fix,GT,37.5705763,-122.3137443,,33.519318,0.1,140.33533,1595629629434
Fix,GT,37.5703477,-122.3134942,,33.784927,0.1,140.24567,1595629630434
Fix,GT,37.5701172,-122.3132422,,34.05859,0.1,140.40887,1595629631434
Fix,GT,37.5698841,-122.3129888,,34.33532,0.1,140.57227,1595629632434
Fix,GT,37.569649,-122.312734,,34.578575,0.1,140.52097,1595629633434
Fix,GT,37.5694131,-122.3124773,,34.711605,0.1,140.47919,1595629634434
Fix,GT,37.5691768,-122.3122203,,34.6351,0.1,140.54965,1595629635434
Fix,GT,37.5689414,-122.3119651,,34.350082,0.1,140.67474,1595629636434
Fix,GT,37.5687076,-122.3117134,,34.00812,0.1,140.82788,1595629637434
Fix,GT,37.5684757,-122.3114641,,33.7601,0.1,140.75946,1595629638434
Fix,GT,37.5682454,-122.3112153,,33.711727,0.1,140.56946,1595629639434
Fix,GT,37.5680154,-122.3109657,,33.731766,0.1,140.56024,1595629640434
Fix,GT,37.5677857,-122.3107168,,33.58699,0.1,140.64816,1595629641434
Fix,GT,37.5675572,-122.3104696,,33.322876,0.1,140.65967,1595629642434
Fix,GT,37.5673304,-122.3102241,,33.181763,0.1,140.56097,1595629643434
Fix,GT,37.5671036,-122.3099775,,33.483932,0.1,140.44064,1595629644434
Fix,GT,37.5668732,-122.3097266,,34.225098,0.1,140.42474,1595629645434
Fix,GT,37.5666379,-122.30947,,34.96578,0.1,140.38293,1595629646434
Fix,GT,37.5663987,-122.3092086,,35.385128,0.1,140.38031,1595629647434
Fix,GT,37.5661567,-122.3089449,,35.731388,0.1,140.47711,1595629648434
Fix,GT,37.5659116,-122.3086797,,36.089523,0.1,140.66928,1595629649434
Fix,GT,37.5656633,-122.3084119,,36.591263,0.1,140.73618,1595629650434
Fix,GT,37.5654113,-122.3081397,,37.227463,0.1,140.61719,1595629651434
Fix,GT,37.5651551,-122.3078613,,37.96359,0.1,140.49265,1595629652434
Fix,GT,37.5648945,-122.3075776,,38.52349,0.1,140.42276,1595629653434
Fix,GT,37.5646315,-122.3072909,,38.703938,0.1,140.46393,1595629654434
Fix,GT,37.5643678,-122.3070045,,38.606712,0.1,140.57825,1595629655434
Fix,GT,37.5641049,-122.3067195,,38.493153,0.1,140.69388,1595629656434
Fix,GT,37.563842,-122.3064357,,38.455376,0.1,140.75876,1595629657434
Fix,GT,37.5635794,-122.3061529,,38.297398,0.1,140.73834,1595629658434
Fix,GT,37.5633186,-122.3058707,,38.169174,0.1,140.50491,1595629659434
Fix,GT,37.5630586,-122.3055868,,38.33858,0.1,140.26752,1595629660434
Fix,GT,37.5627977,-122.3053007,,38.543655,0.1,140.24182,1595629661434
Fix,GT,37.5625354,-122.3050133,,38.75711,0.1,140.36652,1595629662434
Fix,GT,37.5622709,-122.304725,,38.960384,0.1,140.51074,1595629663434
Fix,GT,37.5620045,-122.3044361,,39.179283,0.1,140.6297,1595629664434
Fix,GT,37.5617358,-122.3041462,,39.42711,0.1,140.77078,1595629665434
Fix,GT,37.5614657,-122.3038557,,39.4816,0.1,140.78809,1595629666434
Fix,GT,37.5611959,-122.3035649,,39.413948,0.1,140.72488,1595629667434
Fix,GT,37.5609268,-122.3032753,,39.221786,0.1,140.9412,1595629668434
Fix,GT,37.5606583,-122.3029899,,38.836227,0.1,141.50244,1595629669434
Fix,GT,37.5603892,-122.3027116,,38.56531,0.1,142.3703,1595629670434
Fix,GT,37.5601183,-122.3024393,,38.463165,0.1,143.21909,1595629671434
Fix,GT,37.5598451,-122.3021724,,38.348396,0.1,143.91159,1595629672434
Fix,GT,37.5595705,-122.301911,,38.108536,0.1,144.70148,1595629673434
Fix,GT,37.5592947,-122.3016558,,37.915657,0.1,145.31903,1595629674434
Fix,GT,37.5590183,-122.3014053,,37.72008,0.1,145.73578,1595629675434
Fix,GT,37.5587429,-122.3011583,,37.351357,0.1,145.97977,1595629676434
Fix,GT,37.5584706,-122.3009153,,36.74932,0.1,146.04965,1595629677434
Fix,GT,37.5582021,-122.3006769,,36.219902,0.1,146.32202,1595629678434
Fix,GT,37.5579363,-122.3004435,,35.749413,0.1,146.65979,1595629679434
Fix,GT,37.5576735,-122.3002146,,35.28493,0.1,146.6164,1595629680434
Fix,GT,37.5574141,-122.2999872,,34.922073,0.1,146.45148,1595629681434
Fix,GT,37.5571569,-122.2997627,,34.59492,0.1,146.81635,1595629682434
Fix,GT,37.5569005,-122.2995426,,34.387356,0.1,147.10962,1595629683434
Fix,GT,37.5566449,-122.2993218,,34.56482,0.1,146.4957,1595629684434
Fix,GT,37.5563897,-122.2990959,,34.716312,0.1,145.96115,1595629685434
Fix,GT,37.5561367,-122.2988675,,34.4235,0.1,145.45178,1595629686434
Fix,GT,37.5558877,-122.298639,,34.044254,0.1,145.00867,1595629687434
Fix,GT,37.5556425,-122.2984115,,33.662033,0.1,144.96454,1595629688434
Fix,GT,37.5553995,-122.2981864,,33.33708,0.1,144.96356,1595629689434
Fix,GT,37.5551594,-122.2979632,,32.96583,0.1,144.83878,1595629690434
Fix,GT,37.5549225,-122.297742,,32.55755,0.1,144.64764,1595629691434
Fix,GT,37.5546893,-122.2975221,,32.242855,0.1,144.3367,1595629692434
Fix,GT,37.5544583,-122.2973014,,32.253136,0.1,143.85867,1595629693434
Fix,GT,37.5542281,-122.2970774,,32.36822,0.1,143.55176,1595629694434
Fix,GT,37.5539984,-122.2968529,,32.175156,0.1,143.55463,1595629695434
Fix,GT,37.5537702,-122.2966306,,31.940907,0.1,143.58542,1595629696434
Fix,GT,37.553543,-122.2964098,,31.852268,0.1,143.74066,1595629697434
Fix,GT,37.553315,-122.2961909,,31.842976,0.1,144.21436,1595629698434
Fix,GT,37.5530861,-122.2959751,,31.693287,0.1,144.67786,1595629699434
Fix,GT,37.5528579,-122.2957629,,31.270378,0.1,145.10944,1595629700434
Fix,GT,37.5526324,-122.295556,,30.702229,0.1,145.38873,1595629701434
Fix,GT,37.5524105,-122.2953534,,30.2542,0.1,145.37543,1595629702434
Fix,GT,37.5521914,-122.295152,,30.061003,0.1,145.00076,1595629703434
Fix,GT,37.5519741,-122.2949496,,30.023079,0.1,144.61728,1595629704434
Fix,GT,37.5517581,-122.2947468,,29.818588,0.1,144.68298,1595629705434
Fix,GT,37.5515438,-122.2945465,,29.473057,0.1,144.79156,1595629706434
Fix,GT,37.5513319,-122.2943488,,29.11911,0.1,144.76123,1595629707434
Fix,GT,37.5511227,-122.2941535,,28.75388,0.1,144.77646,1595629708434
Fix,GT,37.5509161,-122.2939607,,28.40952,0.1,144.7734,1595629709434
Fix,GT,37.5507118,-122.2937699,,28.092506,0.1,144.73248,1595629710434
Fix,GT,37.5505099,-122.2935811,,27.77488,0.1,144.69672,1595629711434
Fix,GT,37.5503102,-122.2933944,,27.463634,0.1,144.78558,1595629712434
Fix,GT,37.5501126,-122.2932105,,27.148886,0.1,144.84756,1595629713434
Fix,GT,37.5499173,-122.2930284,,26.821072,0.1,144.68384,1595629714434
Fix,GT,37.5497249,-122.2928473,,26.61782,0.1,144.35846,1595629715434
Fix,GT,37.5495332,-122.2926644,,26.910294,0.1,144.02917,1595629716434
Fix,GT,37.5493384,-122.2924777,,27.518997,0.1,144.0386,1595629717434
Fix,GT,37.5491389,-122.2922879,,27.995548,0.1,144.34576,1595629718434
Fix,GT,37.5489355,-122.2920962,,28.383549,0.1,144.69269,1595629719434
Fix,GT,37.5487295,-122.2919047,,28.41056,0.1,145.03076,1595629720434
Fix,GT,37.5485238,-122.2917155,,28.233494,0.1,145.24878,1595629721434
Fix,GT,37.5483178,-122.2915266,,28.492302,0.1,145.25095,1595629722434
Fix,GT,37.548108,-122.2913337,,29.309235,0.1,145.10474,1595629723434
Fix,GT,37.5478927,-122.2911352,,29.95418,0.1,145.1662,1595629724434
Fix,GT,37.5476749,-122.2909348,,29.825687,0.1,145.20532,1595629725434
Fix,GT,37.5474595,-122.2907366,,29.409122,0.1,145.10016,1595629726434
Fix,GT,37.5472468,-122.2905406,,29.20678,0.1,145.25403,1595629727434
Fix,GT,37.5470334,-122.2903464,,29.43348,0.1,145.71878,1595629728434
Fix,GT,37.5468141,-122.2901505,,30.385065,0.1,146.1955,1595629729434
Fix,GT,37.5465851,-122.2899486,,31.73682,0.1,146.262,1595629730434
Fix,GT,37.5463465,-122.2897366,,33.166286,0.1,145.8078,1595629731434
Fix,GT,37.5461003,-122.2895136,,34.10479,0.1,145.3534,1595629732434
Fix,GT,37.5458529,-122.2892862,,33.825848,0.1,145.0044,1595629733434
Fix,GT,37.5456103,-122.2890605,,33.227036,0.1,144.82162,1595629734434
Fix,GT,37.5453712,-122.2888372,,32.976654,0.1,144.77267,1595629735434
Fix,GT,37.545133,-122.2886156,,32.851913,0.1,144.92651,1595629736434
Fix,GT,37.5448957,-122.2883958,,32.52303,0.1,145.04266,1595629737434
Fix,GT,37.5446611,-122.2881791,,32.179836,0.1,145.08466,1595629738434
Fix,GT,37.5444281,-122.2879646,,31.979034,0.1,145.13232,1595629739434
Fix,GT,37.5441947,-122.2877492,,32.395813,0.1,144.94092,1595629740434
Fix,GT,37.5439568,-122.2875276,,33.434303,0.1,144.67047,1595629741434
Fix,GT,37.5437121,-122.2872964,,34.51652,0.1,144.12033,1595629742434
Fix,GT,37.5434627,-122.2870552,,35.288387,0.1,143.58444,1595629743434
Fix,GT,37.5432108,-122.286809,,35.463654,0.1,143.61969,1595629744434
Fix,GT,37.5429583,-122.2865648,,35.180355,0.1,144.0503,1595629745434
Fix,GT,37.5427069,-122.2863261,,34.769363,0.1,144.57513,1595629746434
Fix,GT,37.5424567,-122.2860926,,34.49855,0.1,144.97781,1595629747434
Fix,GT,37.542206,-122.2858606,,34.754585,0.1,145.0094,1595629748434
Fix,GT,37.541952,-122.2856255,,35.3238,0.1,145.07129,1595629749434
Fix,GT,37.5416945,-122.285389,,35.418915,0.1,145.36865,1595629750434
Fix,GT,37.5414373,-122.2851542,,35.144257,0.1,145.47409,1595629751434
Fix,GT,37.541182,-122.2849212,,34.861347,0.1,145.29016,1595629752434
Fix,GT,37.5409296,-122.284688,,34.7512,0.1,144.65955,1595629753434
Fix,GT,37.5406788,-122.2844493,,35.16382,0.1,143.80652,1595629754434
Fix,GT,37.5404271,-122.2842047,,35.48708,0.1,143.6719,1595629755434
Fix,GT,37.5401743,-122.2839606,,35.23639,0.1,144.16647,1595629756434
Fix,GT,37.539922,-122.2837221,,34.854897,0.1,144.7486,1595629757434
Fix,GT,37.5396708,-122.2834884,,34.56395,0.1,144.99341,1595629758434
Fix,GT,37.5394207,-122.2832575,,34.34874,0.1,145.15472,1595629759434
Fix,GT,37.539172,-122.283029,,34.040478,0.1,145.2828,1595629760434
Fix,GT,37.5389255,-122.2828032,,33.673187,0.1,145.2615,1595629761434
Fix,GT,37.5386819,-122.2825796,,33.291035,0.1,145.18457,1595629762434
Fix,GT,37.5384415,-122.2823579,,32.919525,0.1,145.05444,1595629763434
Fix,GT,37.5382042,-122.282138,,32.57988,0.1,144.91003,1595629764434
Fix,GT,37.5379696,-122.2819193,,32.269897,0.1,144.7633,1595629765434
Fix,GT,37.5377372,-122.281702,,32.062183,0.1,144.6659,1595629766434
Fix,GT,37.5375061,-122.2814855,,31.938099,0.1,144.66534,1595629767434
Fix,GT,37.5372756,-122.2812699,,31.909307,0.1,144.84717,1595629768434
Fix,GT,37.5370442,-122.2810546,,32.001923,0.1,145.04974,1595629769434
Fix,GT,37.5368118,-122.2808396,,32.059853,0.1,145.07541,1595629770434
Fix,GT,37.5365788,-122.2806246,,32.170723,0.1,145.07037,1595629771434
Fix,GT,37.5363446,-122.2804082,,32.386513,0.1,145.04138,1595629772434
Fix,GT,37.5361089,-122.2801905,,32.513584,0.1,145.11444,1595629773434
Fix,GT,37.5358727,-122.2799725,,32.552166,0.1,145.11597,1595629774434
Fix,GT,37.535636,-122.2797543,,32.6282,0.1,145.10486,1595629775434
Fix,GT,37.5353985,-122.2795355,,32.75127,0.1,145.22931,1595629776434
Fix,GT,37.5351594,-122.2793157,,33.036713,0.1,145.1355,1595629777434
Fix,GT,37.5349188,-122.2790931,,33.25997,0.1,144.94992,1595629778434
Fix,GT,37.5346776,-122.2788693,,33.309143,0.1,144.99469,1595629779434
Fix,GT,37.534436,-122.2786455,,33.320282,0.1,145.0357,1595629780434
Fix,GT,37.5341945,-122.2784219,,33.26914,0.1,145.00739,1595629781434
Fix,GT,37.5339542,-122.2781997,,32.941658,0.1,145.05038,1595629782434
Fix,GT,37.5337168,-122.2779804,,32.468613,0.1,145.0935,1595629783434
Fix,GT,37.5334828,-122.2777643,,31.950916,0.1,145.09125,1595629784434
Fix,GT,37.5332532,-122.2775522,,31.298952,0.1,145.03006,1595629785434
Fix,GT,37.5330301,-122.2773449,,30.32594,0.1,144.91205,1595629786434
Fix,GT,37.5328147,-122.2771438,,29.208622,0.1,144.77353,1595629787434
Fix,GT,37.5326057,-122.2769487,,28.708584,0.1,144.8483,1595629788434
Fix,GT,37.5323986,-122.276757,,28.396927,0.1,145.22507,1595629789434
Fix,GT,37.5321931,-122.2765685,,28.09602,0.1,145.26007,1595629790434
Fix,GT,37.5319904,-122.2763809,,27.79513,0.1,144.86972,1595629791434
Fix,GT,37.5317913,-122.2761941,,27.395348,0.1,144.54672,1595629792434
Fix,GT,37.5315957,-122.276009,,26.991001,0.1,144.30243,1595629793434
Fix,GT,37.5314026,-122.2758243,,26.951704,0.1,143.93109,1595629794434
Fix,GT,37.5312092,-122.2756366,,27.378529,0.1,143.43155,1595629795434
Fix,GT,37.5310131,-122.2754424,,28.100273,0.1,142.82147,1595629796434
Fix,GT,37.5308136,-122.2752403,,28.812117,0.1,142.19879,1595629797434
Fix,GT,37.5306111,-122.275031,,29.399553,0.1,141.77094,1595629798434
Fix,GT,37.5304054,-122.2748165,,29.929455,0.1,141.63068,1595629799434
Fix,GT,37.5301966,-122.2745979,,30.42986,0.1,141.3407,1595629800434
Fix,GT,37.5299862,-122.2743734,,30.823807,0.1,140.63077,1595629801434
Fix,GT,37.5297761,-122.2741423,,31.186062,0.1,139.67871,1595629802434
Fix,GT,37.5295667,-122.2739046,,31.443867,0.1,139.04156,1595629803434
Fix,GT,37.5293577,-122.2736652,,31.303125,0.1,139.08804,1595629804434
Fix,GT,37.529149,-122.2734271,,31.334835,0.1,139.11823,1595629805434
Fix,GT,37.5289392,-122.2731872,,31.709343,0.1,139.01016,1595629806434
Fix,GT,37.5287271,-122.2729443,,31.992245,0.1,139.05112,1595629807434
Fix,GT,37.528514,-122.2727006,,31.940647,0.1,139.13824,1595629808434
Fix,GT,37.5283017,-122.2724587,,31.64564,0.1,139.31287,1595629809434
Fix,GT,37.5280907,-122.2722207,,31.313332,0.1,139.60892,1595629810434
Fix,GT,37.5278815,-122.2719857,,31.01604,0.1,139.55264,1595629811434
Fix,GT,37.5276747,-122.2717508,,30.936771,0.1,139.08368,1595629812434
Fix,GT,37.5274684,-122.2715141,,31.086596,0.1,138.95782,1595629813434
Fix,GT,37.5272609,-122.2712761,,31.230042,0.1,139.00165,1595629814434
Fix,GT,37.5270532,-122.2710378,,31.203465,0.1,138.99774,1595629815434
Fix,GT,37.5268453,-122.2708005,,31.217861,0.1,139.21994,1595629816434
Fix,GT,37.5266357,-122.2705622,,31.607203,0.1,139.1565,1595629817434
Fix,GT,37.5264237,-122.2703198,,31.976326,0.1,139.08105,1595629818434
Fix,GT,37.5262098,-122.2700765,,31.981335,0.1,139.35797,1595629819434
Fix,GT,37.5259956,-122.2698357,,31.840492,0.1,139.78229,1595629820434
Fix,GT,37.5257807,-122.2695968,,31.89006,0.1,139.98749,1595629821434
Fix,GT,37.5255645,-122.2693566,,32.199562,0.1,139.83408,1595629822434
Fix,GT,37.5253467,-122.2691123,,32.60968,0.1,139.53531,1595629823434
Fix,GT,37.5251272,-122.2688649,,32.851097,0.1,139.41983,1595629824434
Fix,GT,37.5249072,-122.2686159,,32.877926,0.1,139.29947,1595629825434
Fix,GT,37.5246876,-122.2683669,,32.771122,0.1,139.35712,1595629826434
Fix,GT,37.5244692,-122.2681198,,32.38403,0.1,139.39883,1595629827434
Fix,GT,37.5242547,-122.267877,,31.666058,0.1,139.30957,1595629828434
Fix,GT,37.5240454,-122.2676393,,31.060528,0.1,139.21411,1595629829434
Fix,GT,37.5238391,-122.2674046,,30.726717,0.1,139.30032,1595629830434
Fix,GT,37.5236346,-122.2671727,,30.483688,0.1,139.37659,1595629831434
Fix,GT,37.5234307,-122.2669419,,30.546722,0.1,139.30182,1595629832434
Fix,GT,37.5232254,-122.2667086,,30.95082,0.1,139.15973,1595629833434
Fix,GT,37.5230179,-122.2664722,,31.220339,0.1,139.23734,1595629834434
Fix,GT,37.5228089,-122.2662352,,31.279032,0.1,139.39288,1595629835434
Fix,GT,37.5225996,-122.2659983,,31.263924,0.1,139.35959,1595629836434
Fix,GT,37.5223913,-122.2657623,,30.96759,0.1,139.33069,1595629837434
Fix,GT,37.5221855,-122.2655289,,30.588383,0.1,139.28021,1595629838434
