MessageType,Provider,LatitudeDegrees,LongitudeDegrees,AltitudeMeters,SpeedMps,AccuracyMeters,BearingDegrees,UnixTimeMillis
Fix,GT,37.3179093,-121.9485173,,0.0023610345,0.1,1.116272,1607640762435
Fix,GT,37.3179093,-121.9485173,,0.004246689,0.1,1.1153564,1607640763435
Fix,GT,37.3179093,-121.9485173,,0.0053808405,0.1,1.1148682,1607640764435
Fix,GT,37.3179093,-121.9485172,,0.008205376,0.1,1.1147461,1607640765435
Fix,GT,37.3179093,-121.9485171,,0.014342694,0.1,1.1140442,1607640766435
Fix,GT,37.3179094,-121.9485169,,0.020883901,0.1,1.1137695,1607640767435
Fix,GT,37.3179094,-121.9485166,,0.03102206,0.1,1.1131897,1607640768435
Fix,GT,37.3179094,-121.9485162,,0.03993494,0.1,1.1119385,1607640769435
Fix,GT,37.3179094,-121.9485159,,0.053374983,0.1,0.6609802,1607640770435
Fix,GT,37.3179087,-121.9485165,,0.18088049,0.1,358.65497,1607640771435
Fix,GT,37.3179057,-121.9485169,,0.4653455,0.1,358.1704,1607640772435
Fix,GT,37.3179004,-121.9485144,,0.7273401,0.1,3.826294,1607640773435
Fix,GT,37.3178931,-121.9485104,,0.910034,0.1,14.161102,1607640774435
Fix,GT,37.3178836,-121.9485076,,0.9684191,0.1,26.800293,1607640775435
Fix,GT,37.3178737,-121.9485071,,0.79244196,0.1,39.17163,1607640776435
Fix,GT,37.3178669,-121.9485079,,0.38662314,0.1,46.842438,1607640777435
Fix,GT,37.3178643,-121.9485077,,0.16210784,0.1,48.84247,1607640778435
Fix,GT,37.317864,-121.9485037,,0.5656998,0.1,51.906677,1607640779435
Fix,GT,37.3178665,-121.9484912,,1.4335957,0.1,61.773743,1607640780435
Fix,GT,37.3178704,-121.9484663,,2.651621,0.1,77.60913,1607640781435
Fix,GT,37.3178713,-121.9484273,,4.0842705,0.1,91.00659,1607640782435
Fix,GT,37.3178664,-121.9483747,,5.083964,0.1,95.73395,1607640783435
Fix,GT,37.3178585,-121.9483161,,5.2034307,0.1,95.029205,1607640784435
Fix,GT,37.3178521,-121.9482604,,4.600675,0.1,92.37604,1607640785435
Fix,GT,37.3178486,-121.9482149,,3.3375885,0.1,90.02948,1607640786435
Fix,GT,37.3178456,-121.9481857,,1.8639739,0.1,89.02606,1607640787435
Fix,GT,37.3178423,-121.9481684,,1.3010683,0.1,88.58472,1607640788435
Fix,GT,37.317832,-121.9481509,,1.8378172,0.1,90.153015,1607640789435
Fix,GT,37.3178018,-121.9481263,,2.3530416,0.1,103.18051,1607640790435
Fix,GT,37.3177553,-121.9480993,,3.0924735,0.1,131.41367,1607640791435
Fix,GT,37.3177258,-121.9480807,,4.419876,0.1,161.60608,1607640792435
Fix,GT,37.3177038,-121.9480686,,5.172512,0.1,178.08868,1607640793435
Fix,GT,37.3176568,-121.9480563,,5.373869,0.1,179.82805,1607640794435
Fix,GT,37.3176105,-121.9480484,,5.618643,0.1,178.79132,1607640795435
Fix,GT,37.3175652,-121.9480465,,5.1342015,0.1,177.61853,1607640796435
Fix,GT,37.3175262,-121.9480507,,4.2610087,0.1,176.99982,1607640797435
Fix,GT,37.3174973,-121.9480615,,3.9685612,0.1,177.01422,1607640798435
Fix,GT,37.3174704,-121.9480759,,4.4729433,0.1,177.51599,1607640799435
Fix,GT,37.3174316,-121.9480856,,5.5247903,0.1,178.50464,1607640800435
Fix,GT,37.3173849,-121.9480946,,5.970323,0.1,179.77856,1607640801435
Fix,GT,37.3173376,-121.9481017,,5.3077183,0.1,179.7255,1607640802435
Fix,GT,37.3172993,-121.9481061,,3.7367196,0.1,178.14899,1607640803435
Fix,GT,37.3172793,-121.9481108,,2.2207987,0.1,177.05493,1607640804435
Fix,GT,37.3172719,-121.9481149,,1.9095145,0.1,176.35083,1607640805435
Fix,GT,37.3172617,-121.9481207,,2.3098602,0.1,182.49463,1607640806435
Fix,GT,37.317245,-121.9481371,,2.5925975,0.1,204.33359,1607640807435
Fix,GT,37.3172339,-121.9481672,,3.1912353,0.1,235.05386,1607640808435
Fix,GT,37.3172313,-121.948211,,4.6705675,0.1,260.56897,1607640809435
Fix,GT,37.3172342,-121.9482752,,6.786563,0.1,272.63214,1607640810435
Fix,GT,37.3172402,-121.948364,,8.959333,0.1,274.61478,1607640811435
Fix,GT,37.3172462,-121.9484749,,10.727393,0.1,273.64203,1607640812435
Fix,GT,37.317252,-121.9486028,,11.928127,0.1,273.1899,1607640813435
Fix,GT,37.3172579,-121.948741,,12.490114,0.1,273.0011,1607640814435
Fix,GT,37.3172637,-121.9488818,,12.404785,0.1,273.10037,1607640815435
Fix,GT,37.3172703,-121.9490195,,12.059223,0.1,273.65805,1607640816435
Fix,GT,37.3172776,-121.9491533,,11.731865,0.1,274.04156,1607640817435
Fix,GT,37.3172847,-121.9492838,,11.454101,0.1,273.96454,1607640818435
Fix,GT,37.3172915,-121.949411,,11.107162,0.1,273.93634,1607640819435
Fix,GT,37.3172979,-121.9495323,,10.3466835,0.1,273.8526,1607640820435
Fix,GT,37.3173036,-121.949641,,8.887707,0.1,273.9216,1607640821435
Fix,GT,37.3173085,-121.9497309,,7.06229,0.1,273.97208,1607640822435
Fix,GT,37.3173123,-121.9498004,,5.299653,0.1,273.9002,1607640823435
Fix,GT,37.3173148,-121.9498504,,3.5873027,0.1,273.80475,1607640824435
Fix,GT,37.3173164,-121.9498821,,2.07554,0.1,273.76715,1607640825435
Fix,GT,37.3173171,-121.9498974,,0.76215225,0.1,273.69052,1607640826435
Fix,GT,37.3173172,-121.9499009,,0.04387654,0.1,273.6809,1607640827435
Fix,GT,37.3173172,-121.9499009,,0.003633107,0.1,273.68073,1607640828435
Fix,GT,37.3173172,-121.9499009,,0.0039649927,0.1,273.6789,1607640829435
Fix,GT,37.3173172,-121.9499009,,0.0034123696,0.1,273.67786,1607640830435
Fix,GT,37.3173172,-121.9499009,,0.0027586292,0.1,273.67722,1607640831435
Fix,GT,37.3173172,-121.9499009,,0.002236068,0.1,273.67786,1607640832435
Fix,GT,37.3173172,-121.9499008,,0.002133188,0.1,273.6791,1607640833435
Fix,GT,37.3173172,-121.9499008,,0.002,0.1,273.6786,1607640834435
Fix,GT,37.3173172,-121.9499008,,0.002,0.1,273.67792,1607640835435
Fix,GT,37.3173172,-121.9499009,,0.00210288,0.1,273.67725,1607640836435
Fix,GT,37.3173172,-121.9499009,,0.002494222,0.1,273.67642,1607640837435
Fix,GT,37.3173172,-121.9499009,,0.003167103,0.1,273.6756,1607640838435
Fix,GT,37.3173172,-121.9499009,,0.003605551,0.1,273.6748,1607640839435
Fix,GT,37.3173172,-121.9499009,,0.0038831988,0.1,273.67395,1607640840435
Fix,GT,37.3173172,-121.9499009,,0.0039649927,0.1,273.67328,1607640841435
Fix,GT,37.3173172,-121.9499009,,0.0038831988,0.1,273.6727,1607640842435
Fix,GT,37.3173172,-121.9499009,,0.0042426405,0.1,273.67224,1607640843435
Fix,GT,37.3173172,-121.9499009,,0.0042426405,0.1,273.67126,1607640844435
Fix,GT,37.3173172,-121.9499009,,0.004242641,0.1,273.67026,1607640845435
Fix,GT,37.3173172,-121.9499008,,0.004242641,0.1,273.66977,1607640846435
Fix,GT,37.3173172,-121.9499008,,0.004242641,0.1,273.6693,1607640847435
Fix,GT,37.3173172,-121.9499008,,0.004242641,0.1,273.66873,1607640848435
Fix,GT,37.3173172,-121.9499008,,0.004242641,0.1,273.66797,1607640849435
Fix,GT,37.3173172,-121.9499008,,0.003964993,0.1,273.66718,1607640850435
Fix,GT,37.3173172,-121.9499008,,0.0036055513,0.1,273.66647,1607640851435
Fix,GT,37.3173171,-121.9499008,,0.0036055513,0.1,273.66583,1607640852435
Fix,GT,37.3173171,-121.9499008,,0.0032668752,0.1,273.66522,1607640853435
Fix,GT,37.3173171,-121.9499008,,0.003167103,0.1,273.66464,1607640854435
Fix,GT,37.3173171,-121.9499008,,0.0032668752,0.1,273.6641,1607640855435
Fix,GT,37.3173171,-121.9499008,,0.0028284271,0.1,273.66333,1607640856435
Fix,GT,37.3173171,-121.9499008,,0.0028284271,0.1,273.66257,1607640857435
Fix,GT,37.3173171,-121.9499008,,0.0022121032,0.1,273.6619,1607640858435
Fix,GT,37.3173171,-121.9499008,,0.0014142136,0.1,273.66116,1607640859435
Fix,GT,37.3173171,-121.9499008,,0.0020305375,0.1,273.66046,1607640860435
Fix,GT,37.3173171,-121.9499008,,0.002570273,0.1,273.6596,1607640861435
Fix,GT,37.3173171,-121.9499008,,0.002236068,0.1,273.65884,1607640862435
Fix,GT,37.3173171,-121.9499008,,0.0016973813,0.1,273.65808,1607640863435
Fix,GT,37.3173172,-121.9499008,,0.0011805171,0.1,273.6573,1607640864435
Fix,GT,37.3173172,-121.9499008,,0.0014142136,0.1,273.65656,1607640865435
Fix,GT,37.3173172,-121.9499008,,0.0012336965,0.1,273.65594,1607640866435
Fix,GT,37.3173172,-121.9499008,,0.0011805171,0.1,273.65527,1607640867435
Fix,GT,37.3173172,-121.9499008,,0.0012336965,0.1,273.6546,1607640868435
Fix,GT,37.3173172,-121.9499008,,0.0005641933,0.1,273.65384,1607640869435
Fix,GT,37.3173172,-121.9499008,,0.0,0.1,273.6531,1607640870435
Fix,GT,37.3173172,-121.9499009,,0.0,0.1,273.6523,1607640871435
Fix,GT,37.3173172,-121.9499009,,0.0,0.1,273.65155,1607640872435
Fix,GT,37.3173172,-121.9499009,,0.0,0.1,273.65088,1607640873435
Fix,GT,37.3173173,-121.9499009,,0.0,0.1,273.65012,1607640874435
Fix,GT,37.3173173,-121.9499009,,0.0,0.1,273.6493,1607640875435
Fix,GT,37.3173173,-121.9499009,,0.00043580678,0.1,273.64856,1607640876435
Fix,GT,37.3173173,-121.9499009,,0.0011805171,0.1,273.64777,1607640877435
Fix,GT,37.3173173,-121.9499009,,0.0014142136,0.1,273.64697,1607640878435
Fix,GT,37.3173173,-121.9499009,,0.0012336965,0.1,273.64627,1607640879435
Fix,GT,37.3173173,-121.9499009,,0.0011805171,0.1,273.6457,1607640880435
Fix,GT,37.3173173,-121.9499009,,0.0014142136,0.1,273.6451,1607640881435
Fix,GT,37.3173173,-121.9499009,,0.0014142136,0.1,273.6443,1607640882435
Fix,GT,37.3173173,-121.9499009,,0.0014142136,0.1,273.64355,1607640883435
Fix,GT,37.3173173,-121.9499009,,0.0014142136,0.1,273.643,1607640884435
Fix,GT,37.3173173,-121.9499009,,0.0014142136,0.1,273.64243,1607640885435
Fix,GT,37.3173173,-121.9499009,,0.0014142136,0.1,273.64175,1607640886435
Fix,GT,37.3173173,-121.9499009,,0.0014142136,0.1,273.64105,1607640887435
Fix,GT,37.3173173,-121.9499009,,0.0014142136,0.1,273.64038,1607640888435
Fix,GT,37.3173173,-121.9499009,,0.0014142136,0.1,273.6397,1607640889435
Fix,GT,37.3173173,-121.9499009,,0.0014142136,0.1,273.639,1607640890435
Fix,GT,37.3173173,-121.9499009,,0.0014142136,0.1,273.63837,1607640891435
Fix,GT,37.3173173,-121.9499009,,0.0014142136,0.1,273.63773,1607640892435
Fix,GT,37.3173173,-121.9499009,,0.0014142136,0.1,273.63696,1607640893435
Fix,GT,37.3173173,-121.9499009,,0.0017723833,0.1,273.63617,1607640894435
Fix,GT,37.3173173,-121.9499009,,0.0018778984,0.1,273.63547,1607640895435
Fix,GT,37.3173173,-121.9499009,,0.0014142136,0.1,273.63483,1607640896435
Fix,GT,37.3173173,-121.9499009,,0.0014142136,0.1,273.6342,1607640897435
Fix,GT,37.3173173,-121.9499009,,0.0012336965,0.1,273.6335,1607640898435
Fix,GT,37.3173173,-121.9499009,,0.0011805171,0.1,273.6328,1607640899435
Fix,GT,37.3173173,-121.9499009,,0.0012336965,0.1,273.6322,1607640900435
Fix,GT,37.3173173,-121.9499009,,0.0011805171,0.1,273.63162,1607640901435
Fix,GT,37.3173173,-121.9499009,,0.0012336965,0.1,273.63098,1607640902435
Fix,GT,37.3173173,-121.9499009,,0.001,0.1,273.63037,1607640903435
Fix,GT,37.3173173,-121.9499009,,0.001,0.1,273.62976,1607640904435
Fix,GT,37.3173173,-121.9499009,,0.001,0.1,273.6291,1607640905435
Fix,GT,37.3173173,-121.9499009,,0.001,0.1,273.62842,1607640906435
Fix,GT,37.3173173,-121.9499009,,0.001,0.1,273.62775,1607640907435
Fix,GT,37.3173173,-121.9499009,,0.0005641933,0.1,273.62717,1607640908435
Fix,GT,37.3173173,-121.9499009,,0.00043580678,0.1,273.62637,1607640909435
Fix,GT,37.3173173,-121.9499009,,0.001,0.1,273.62564,1607640910435
Fix,GT,37.3173173,-121.9499009,,0.0014358069,0.1,273.6251,1607640911435
Fix,GT,37.3173173,-121.9499009,,0.0026997102,0.1,273.62457,1607640912435
Fix,GT,37.3173172,-121.9499009,,0.0038831988,0.1,273.62396,1607640913435
Fix,GT,37.3173172,-121.9499015,,0.23765706,0.1,273.61838,1607640914435
Fix,GT,37.3173175,-121.9499112,,1.7558649,0.1,273.47345,1607640915435
Fix,GT,37.3173186,-121.9499469,,4.6575747,0.1,272.53802,1607640916435
Fix,GT,37.3173182,-121.9500161,,7.6484184,0.1,270.00232,1607640917435
Fix,GT,37.3173139,-121.9501179,,10.602088,0.1,267.0335,1607640918435
Fix,GT,37.3173053,-121.9502537,,13.522983,0.1,265.47995,1607640919435
Fix,GT,37.3172939,-121.9504202,,16.072796,0.1,265.02734,1607640920435
Fix,GT,37.3172804,-121.9506129,,18.283234,0.1,265.00916,1607640921435
Fix,GT,37.317265,-121.9508307,,20.49917,0.1,264.93973,1607640922435
Fix,GT,37.3172473,-121.9510727,,22.520271,0.1,264.6972,1607640923435
Fix,GT,37.317227,-121.9513355,,24.250671,0.1,264.23712,1607640924435
Fix,GT,37.3172028,-121.9516167,,25.855112,0.1,263.4885,1607640925435
Fix,GT,37.3171739,-121.951914,,27.194622,0.1,262.73572,1607640926435
Fix,GT,37.3171408,-121.9522236,,28.184643,0.1,262.09152,1607640927435
Fix,GT,37.317104,-121.952543,,29.029102,0.1,261.50867,1607640928435
Fix,GT,37.317063,-121.9528708,,29.804958,0.1,260.76642,1607640929435
Fix,GT,37.3170183,-121.9532056,,30.264397,0.1,260.38257,1607640930435
Fix,GT,37.3169728,-121.9535424,,30.157814,0.1,260.48532,1607640931435
Fix,GT,37.3169292,-121.9538758,,29.734152,0.1,260.86935,1607640932435
Fix,GT,37.3168883,-121.9542051,,29.363403,0.1,261.3694,1607640933435
Fix,GT,37.3168494,-121.9545315,,29.161263,0.1,261.6129,1607640934435
Fix,GT,37.3168116,-121.9548566,,29.090977,0.1,261.86023,1607640935435
Fix,GT,37.3167756,-121.9551819,,29.150723,0.1,262.43695,1607640936435
Fix,GT,37.3167431,-121.9555095,,29.374363,0.1,263.43225,1607640937435
Fix,GT,37.3167152,-121.9558409,,29.712036,0.1,264.36966,1607640938435
Fix,GT,37.3166904,-121.9561768,,30.080057,0.1,264.83694,1607640939435
Fix,GT,37.3166665,-121.9565169,,30.414833,0.1,265.18454,1607640940435
Fix,GT,37.3166452,-121.9568602,,30.591028,0.1,265.8714,1607640941435
Fix,GT,37.3166276,-121.9572048,,30.600496,0.1,266.64575,1607640942435
Fix,GT,37.3166133,-121.9575496,,30.602158,0.1,267.40335,1607640943435
Fix,GT,37.316603,-121.9578948,,30.634834,0.1,268.26715,1607640944435
Fix,GT,37.3165973,-121.9582408,,30.702461,0.1,269.23434,1607640945435
Fix,GT,37.3165956,-121.9585878,,30.795113,0.1,270.0126,1607640946435
Fix,GT,37.3165974,-121.9589358,,30.881245,0.1,270.6686,1607640947435
Fix,GT,37.316602,-121.9592848,,30.976772,0.1,271.0307,1607640948435
Fix,GT,37.316608,-121.9596349,,31.100552,0.1,271.09512,1607640949435
Fix,GT,37.3166139,-121.9599862,,31.209545,0.1,271.13672,1607640950435
Fix,GT,37.3166195,-121.9603386,,31.292278,0.1,271.124,1607640951435
Fix,GT,37.3166249,-121.9606919,,31.34598,0.1,271.0557,1607640952435
Fix,GT,37.3166301,-121.9610455,,31.348518,0.1,271.0341,1607640953435
Fix,GT,37.3166355,-121.9613987,,31.258392,0.1,271.1803,1607640954435
Fix,GT,37.3166415,-121.9617507,,31.09193,0.1,271.26172,1607640955435
Fix,GT,37.3166474,-121.9620996,,30.74224,0.1,271.18747,1607640956435
Fix,GT,37.316653,-121.9624431,,30.173174,0.1,271.12268,1607640957435
Fix,GT,37.3166576,-121.9627802,,29.610611,0.1,270.84283,1607640958435
Fix,GT,37.3166608,-121.9631114,,29.143906,0.1,270.6392,1607640959435
Fix,GT,37.3166637,-121.9634381,,28.814285,0.1,270.67172,1607640960435
Fix,GT,37.3166656,-121.9637618,,28.593626,0.1,270.25333,1607640961435
Fix,GT,37.3166646,-121.9640835,,28.444517,0.1,269.38165,1607640962435
Fix,GT,37.3166595,-121.9644036,,28.326832,0.1,268.51517,1607640963435
Fix,GT,37.3166512,-121.9647224,,28.242607,0.1,267.94345,1607640964435
Fix,GT,37.3166412,-121.9650406,,28.234741,0.1,267.6864,1607640965435
Fix,GT,37.3166305,-121.9653594,,28.323627,0.1,267.576,1607640966435
Fix,GT,37.3166202,-121.9656789,,28.3166,0.1,267.68246,1607640967435
Fix,GT,37.3166103,-121.9659973,,28.160543,0.1,267.7185,1607640968435
Fix,GT,37.3165999,-121.9663138,,28.00398,0.1,267.58118,1607640969435
Fix,GT,37.3165892,-121.9666287,,27.880993,0.1,267.4895,1607640970435
Fix,GT,37.3165779,-121.9669425,,27.814695,0.1,267.373,1607640971435
Fix,GT,37.3165667,-121.9672556,,27.761967,0.1,267.4204,1607640972435
Fix,GT,37.3165558,-121.9675676,,27.60709,0.1,267.44748,1607640973435
Fix,GT,37.3165449,-121.9678773,,27.348206,0.1,267.4787,1607640974435
Fix,GT,37.3165353,-121.9681839,,27.025913,0.1,268.0717,1607640975435
Fix,GT,37.3165305,-121.9684869,,26.664242,0.1,269.57376,1607640976435
Fix,GT,37.3165331,-121.9687858,,26.296986,0.1,271.53967,1607640977435
Fix,GT,37.316543,-121.9690803,,25.91455,0.1,272.9855,1607640978435
Fix,GT,37.316556,-121.9693681,,25.124748,0.1,273.35236,1607640979435
Fix,GT,37.3165687,-121.9696434,,23.633827,0.1,273.09122,1607640980435
Fix,GT,37.3165792,-121.9699006,,22.035604,0.1,272.41315,1607640981435
Fix,GT,37.3165869,-121.9701417,,20.832676,0.1,271.9976,1607640982435
Fix,GT,37.3165934,-121.9703723,,20.120378,0.1,271.86578,1607640983435
Fix,GT,37.3166002,-121.9705971,,19.781181,0.1,272.28156,1607640984435
Fix,GT,37.3166089,-121.9708184,,19.495737,0.1,273.1841,1607640985435
Fix,GT,37.3166214,-121.9710363,,19.231686,0.1,274.55905,1607640986435
Fix,GT,37.3166385,-121.9712509,,18.979683,0.1,276.20715,1607640987435
Fix,GT,37.3166599,-121.9714621,,18.730309,0.1,277.6716,1607640988435
Fix,GT,37.3166848,-121.9716701,,18.509775,0.1,278.84427,1607640989435
Fix,GT,37.3167127,-121.9718751,,18.33143,0.1,280.074,1607640990435
Fix,GT,37.3167453,-121.9720773,,18.207243,0.1,282.24115,1607640991435
Fix,GT,37.3167863,-121.972276,,18.124369,0.1,285.79355,1607640992435
Fix,GT,37.3168375,-121.9724699,,18.044577,0.1,289.56277,1607640993435
Fix,GT,37.3168981,-121.9726595,,18.130165,0.1,292.7679,1607640994435
Fix,GT,37.3169662,-121.9728475,,18.400967,0.1,295.08853,1607640995435
Fix,GT,37.3170392,-121.9730346,,18.392725,0.1,296.4137,1607640996435
Fix,GT,37.3171129,-121.9732178,,17.92983,0.1,296.88586,1607640997435
Fix,GT,37.3171839,-121.9733936,,16.886902,0.1,296.84967,1607640998435
Fix,GT,37.3172491,-121.9735549,,15.106072,0.1,296.9191,1607640999435
Fix,GT,37.3173069,-121.9736976,,13.33054,0.1,296.8269,1607641000435
Fix,GT,37.3173572,-121.9738251,,11.926776,0.1,296.69672,1607641001435
Fix,GT,37.3174014,-121.9739387,,10.502647,0.1,296.86325,1607641002435
Fix,GT,37.3174425,-121.9740346,,8.685619,0.1,298.48587,1607641003435
Fix,GT,37.3174817,-121.9741104,,7.1917257,0.1,302.44217,1607641004435
Fix,GT,37.3175206,-121.974171,,6.506777,0.1,309.1563,1607641005435
Fix,GT,37.3175637,-121.974218,,5.947703,0.1,319.64972,1607641006435
Fix,GT,37.3176102,-121.9742481,,5.457959,0.1,332.61102,1607641007435
Fix,GT,37.3176554,-121.974265,,4.8198137,0.1,342.45898,1607641008435
Fix,GT,37.3176931,-121.9742773,,3.7960005,0.1,344.85336,1607641009435
Fix,GT,37.3177208,-121.9742873,,2.7066789,0.1,343.97632,1607641010435
Fix,GT,37.3177411,-121.9742947,,2.103093,0.1,343.27844,1607641011435
Fix,GT,37.3177585,-121.9743012,,2.0175676,0.1,343.03125,1607641012435
Fix,GT,37.3177766,-121.9743076,,2.1033413,0.1,343.5107,1607641013435
Fix,GT,37.3177953,-121.9743126,,2.1000507,0.1,345.74606,1607641014435
Fix,GT,37.3178148,-121.9743156,,2.282721,0.1,349.42517,1607641015435
Fix,GT,37.3178391,-121.9743174,,3.1734376,0.1,353.54706,1607641016435
Fix,GT,37.3178754,-121.9743163,,4.88731,0.1,359.25134,1607641017435
Fix,GT,37.3179279,-121.9743047,,6.794278,0.1,9.470978,1607641018435
Fix,GT,37.3179922,-121.9742731,,8.281642,0.1,22.30838,1607641019435
Fix,GT,37.3180599,-121.9742246,,8.796551,0.1,30.407745,1607641020435
Fix,GT,37.3181244,-121.9741712,,8.2315445,0.1,33.384033,1607641021435
Fix,GT,37.318181,-121.9741232,,6.8030367,0.1,33.84839,1607641022435
Fix,GT,37.3182256,-121.9740886,,4.9089117,0.1,30.132416,1607641023435
Fix,GT,37.3182601,-121.9740793,,3.488443,0.1,10.766693,1607641024435
Fix,GT,37.3182831,-121.9741013,,3.271997,0.1,333.6083,1607641025435
Fix,GT,37.3182867,-121.974141,,3.7420664,0.1,289.88873,1607641026435
Fix,GT,37.318265,-121.9741794,,4.85403,0.1,245.34595,1607641027435
Fix,GT,37.3182206,-121.9742115,,6.948096,0.1,214.85481,1607641028435
Fix,GT,37.3181553,-121.9742522,,9.322307,0.1,207.42007,1607641029435
Fix,GT,37.3180734,-121.9743095,,11.480067,0.1,209.62262,1607641030435
Fix,GT,37.3179763,-121.9743801,,13.400454,0.1,210.09515,1607641031435
Fix,GT,37.3178643,-121.97446,,15.197686,0.1,209.8685,1607641032435
Fix,GT,37.317741,-121.9745507,,16.366196,0.1,211.03983,1607641033435
Fix,GT,37.3176142,-121.974649,,16.565516,0.1,212.17024,1607641034435
Fix,GT,37.3174895,-121.9747483,,16.239437,0.1,212.62062,1607641035435
Fix,GT,37.3173686,-121.974846,,15.530572,0.1,213.06021,1607641036435
Fix,GT,37.3172573,-121.9749374,,13.81599,0.1,213.48975,1607641037435
Fix,GT,37.3171632,-121.975016,,11.297778,0.1,213.79636,1607641038435
Fix,GT,37.3170881,-121.975079,,8.816188,0.1,213.80377,1607641039435
Fix,GT,37.317031,-121.9751266,,6.3915358,0.1,213.70859,1607641040435
Fix,GT,37.3169916,-121.9751597,,4.2033997,0.1,213.63933,1607641041435
Fix,GT,37.3169674,-121.9751798,,2.3468103,0.1,213.49687,1607641042435
Fix,GT,37.3169556,-121.9751897,,0.8277845,0.1,213.42473,1607641043435
Fix,GT,37.3169524,-121.9751924,,0.095042,0.1,213.40822,1607641044435
Fix,GT,37.3169524,-121.9751925,,0.0055206805,0.1,213.40784,1607641045435
Fix,GT,37.3169524,-121.9751926,,0.0030087228,0.1,213.40598,1607641046435
Fix,GT,37.3169525,-121.9751926,,0.002236068,0.1,213.4045,1607641047435
Fix,GT,37.3169525,-121.9751926,,0.003440605,0.1,213.40358,1607641048435
Fix,GT,37.3169525,-121.9751926,,0.006518905,0.1,213.40283,1607641049435
Fix,GT,37.3169526,-121.9751926,,0.010650514,0.1,213.40208,1607641050435
Fix,GT,37.3169527,-121.9751924,,0.016306572,0.1,213.40121,1607641051435
Fix,GT,37.3169528,-121.9751923,,0.022789486,0.1,213.40047,1607641052435
Fix,GT,37.316953,-121.9751921,,0.030148357,0.1,213.39986,1607641053435
Fix,GT,37.3169531,-121.9751919,,0.12894635,0.1,213.39641,1607641054435
Fix,GT,37.3169492,-121.9751947,,1.1798165,0.1,213.28795,1607641055435
Fix,GT,37.3169325,-121.9752074,,3.414478,0.1,212.49174,1607641056435
Fix,GT,37.3168962,-121.9752306,,5.620833,0.1,207.91151,1607641057435
Fix,GT,37.3168413,-121.9752503,,7.126332,0.1,194.8738,1607641058435
Fix,GT,37.3167763,-121.9752456,,7.6291227,0.1,172.72627,1607641059435
Fix,GT,37.3167188,-121.975205,,7.6943874,0.1,145.70932,1607641060435
Fix,GT,37.3166788,-121.9751341,,8.392642,0.1,122.47894,1607641061435
Fix,GT,37.3166489,-121.9750362,,10.490557,0.1,110.03845,1607641062435
Fix,GT,37.3166189,-121.9749074,,13.256184,0.1,105.91174,1607641063435
Fix,GT,37.3165859,-121.974751,,15.374969,0.1,104.85092,1607641064435
Fix,GT,37.3165504,-121.9745763,,16.528149,0.1,104.35263,1607641065435
Fix,GT,37.3165138,-121.9743918,,17.178122,0.1,104.04108,1607641066435
Fix,GT,37.3164761,-121.9742001,,17.831455,0.1,104.06781,1607641067435
Fix,GT,37.3164369,-121.9740015,,18.425312,0.1,104.03702,1607641068435
Fix,GT,37.3163967,-121.9737967,,18.983652,0.1,103.98328,1607641069435
Fix,GT,37.3163558,-121.9735848,,19.63181,0.1,103.5618,1607641070435
Fix,GT,37.3163164,-121.9733665,,20.015,0.1,102.30249,1607641071435
Fix,GT,37.3162817,-121.9731447,,20.074799,0.1,100.38541,1607641072435
Fix,GT,37.3162547,-121.9729196,,20.351942,0.1,97.44971,1607641073435
Fix,GT,37.316237,-121.9726892,,20.74694,0.1,94.5647,1607641074435
Fix,GT,37.3162254,-121.9724534,,21.17484,0.1,93.476685,1607641075435
Fix,GT,37.3162141,-121.9722123,,21.647549,0.1,93.668915,1607641076435
Fix,GT,37.3162011,-121.9719657,,22.161373,0.1,94.087585,1607641077435
Fix,GT,37.3161866,-121.9717134,,22.705029,0.1,94.420135,1607641078435
Fix,GT,37.3161705,-121.9714547,,23.316406,0.1,94.67963,1607641079435
Fix,GT,37.3161542,-121.9711887,,23.987406,0.1,94.29669,1607641080435
Fix,GT,37.3161396,-121.9709146,,24.734764,0.1,93.59189,1607641081435
Fix,GT,37.3161283,-121.9706313,,25.562267,0.1,92.47919,1607641082435
Fix,GT,37.3161223,-121.9703382,,26.444931,0.1,90.76965,1607641083435
Fix,GT,37.3161232,-121.970035,,27.340233,0.1,89.163635,1607641084435
Fix,GT,37.3161299,-121.9697218,,28.188637,0.1,88.14432,1607641085435
Fix,GT,37.3161391,-121.9694002,,28.821604,0.1,87.88992,1607641086435
Fix,GT,37.3161487,-121.9690728,,29.26381,0.1,87.87637,1607641087435
Fix,GT,37.3161587,-121.96874,,29.768137,0.1,87.824524,1607641088435
Fix,GT,37.3161692,-121.9684015,,30.306953,0.1,87.72577,1607641089435
Fix,GT,37.3161806,-121.9680568,,30.847645,0.1,87.59845,1607641090435
Fix,GT,37.3161924,-121.9677064,,31.332556,0.1,87.64267,1607641091435
Fix,GT,37.3162038,-121.967351,,31.680864,0.1,87.76367,1607641092435
Fix,GT,37.316215,-121.9669928,,31.834255,0.1,87.78162,1607641093435
Fix,GT,37.3162264,-121.9666339,,31.847599,0.1,87.75552,1607641094435
Fix,GT,37.3162376,-121.9662752,,31.75767,0.1,87.759705,1607641095435
Fix,GT,37.3162487,-121.9659177,,31.681833,0.1,87.83148,1607641096435
Fix,GT,37.3162594,-121.9655609,,31.609127,0.1,87.91153,1607641097435
Fix,GT,37.3162697,-121.9652057,,31.364452,0.1,87.96176,1607641098435
Fix,GT,37.3162797,-121.9648543,,30.972944,0.1,87.98688,1607641099435
Fix,GT,37.3162894,-121.9645073,,30.580791,0.1,88.25763,1607641100435
Fix,GT,37.3162968,-121.9641645,,30.254759,0.1,89.00995,1607641101435
Fix,GT,37.3163,-121.9638239,,30.181694,0.1,89.792725,1607641102435
Fix,GT,37.3162996,-121.9634823,,30.392962,0.1,90.477905,1607641103435
Fix,GT,37.3162964,-121.9631374,,30.741804,0.1,90.90613,1607641104435
Fix,GT,37.3162916,-121.9627889,,31.027136,0.1,91.09509,1607641105435
Fix,GT,37.316286,-121.9624386,,31.08384,0.1,91.16751,1607641106435
Fix,GT,37.3162809,-121.9620881,,31.066284,0.1,91.01352,1607641107435
Fix,GT,37.3162767,-121.9617371,,31.182331,0.1,90.86456,1607641108435
Fix,GT,37.3162729,-121.9613845,,31.326412,0.1,90.79675,1607641109435
Fix,GT,37.3162689,-121.961031,,31.346268,0.1,90.837524,1607641110435
Fix,GT,37.3162647,-121.960678,,31.24545,0.1,90.90503,1607641111435
Fix,GT,37.3162599,-121.9603264,,31.07627,0.1,91.06952,1607641112435
Fix,GT,37.3162547,-121.9599776,,30.753235,0.1,91.13214,1607641113435
Fix,GT,37.3162499,-121.9596327,,30.403273,0.1,91.05051,1607641114435
Fix,GT,37.3162453,-121.9592911,,30.216457,0.1,90.97882,1607641115435
Fix,GT,37.3162417,-121.95895,,30.295332,0.1,90.596344,1607641116435
Fix,GT,37.3162411,-121.9586072,,30.506512,0.1,89.78482,1607641117435
Fix,GT,37.3162444,-121.9582617,,30.750065,0.1,89.02991,1607641118435
Fix,GT,37.3162507,-121.9579146,,30.76418,0.1,88.49884,1607641119435
Fix,GT,37.3162596,-121.9575694,,30.443258,0.1,87.8634,1607641120435
Fix,GT,37.3162719,-121.9572285,,30.0644,0.1,87.05295,1607641121435
Fix,GT,37.3162877,-121.956892,,29.69571,0.1,86.39679,1607641122435
Fix,GT,37.316306,-121.9565599,,29.330708,0.1,85.75305,1607641123435
Fix,GT,37.3163273,-121.956232,,28.998077,0.1,85.090576,1607641124435
Fix,GT,37.3163507,-121.9559079,,28.700062,0.1,84.8074,1607641125435
Fix,GT,37.3163741,-121.9555872,,28.395111,0.1,84.82864,1607641126435
Fix,GT,37.3163964,-121.9552699,,28.061163,0.1,85.2175,1607641127435
Fix,GT,37.3164151,-121.9549562,,27.691982,0.1,86.30972,1607641128435
Fix,GT,37.316428,-121.9546463,,27.323915,0.1,87.74695,1607641129435
Fix,GT,37.3164353,-121.9543401,,26.97779,0.1,88.67175,1607641130435
Fix,GT,37.3164402,-121.9540376,,26.657907,0.1,88.73935,1607641131435
Fix,GT,37.3164457,-121.95374,,25.986576,0.1,88.50656,1607641132435
Fix,GT,37.316452,-121.9534549,,24.402225,0.1,88.394684,1607641133435
Fix,GT,37.3164574,-121.9531921,,22.17409,0.1,88.58624,1607641134435
Fix,GT,37.3164619,-121.9529543,,20.03142,0.1,88.66052,1607641135435
Fix,GT,37.3164656,-121.9527377,,18.490204,0.1,88.649994,1607641136435
Fix,GT,37.3164691,-121.9525344,,17.73357,0.1,88.78113,1607641137435
Fix,GT,37.3164722,-121.9523365,,17.375145,0.1,88.79239,1607641138435
Fix,GT,37.3164758,-121.9521429,,16.885263,0.1,88.383575,1607641139435
Fix,GT,37.3164799,-121.9519587,,15.615703,0.1,88.32825,1607641140435
Fix,GT,37.3164821,-121.9517942,,13.420675,0.1,89.83426,1607641141435
Fix,GT,37.3164746,-121.951657,,11.040063,0.1,97.98236,1607641142435
Fix,GT,37.3164455,-121.9515506,,9.355867,0.1,116.422516,1607641143435
Fix,GT,37.3163908,-121.9514787,,8.787396,0.1,140.92001,1607641144435
Fix,GT,37.3163199,-121.9514405,,8.564725,0.1,160.86194,1607641145435
Fix,GT,37.3162479,-121.9514127,,8.160338,0.1,160.93103,1607641146435
Fix,GT,37.31619,-121.9513666,,7.5435305,0.1,142.1117,1607641147435
Fix,GT,37.3161534,-121.9513006,,7.1357007,0.1,120.34546,1607641148435
Fix,GT,37.3161373,-121.951225,,7.135276,0.1,102.18768,1607641149435
Fix,GT,37.3161344,-121.9511424,,7.738553,0.1,91.70181,1607641150435
Fix,GT,37.3161336,-121.9510511,,8.391759,0.1,91.0401,1607641151435
Fix,GT,37.3161322,-121.9509555,,8.460773,0.1,91.459656,1607641152435
Fix,GT,37.3161303,-121.9508612,,8.205429,0.1,91.84448,1607641153435
Fix,GT,37.3161276,-121.9507723,,7.4372425,0.1,92.56235,1607641154435
Fix,GT,37.3161253,-121.9506962,,5.983034,0.1,92.287994,1607641155435
Fix,GT,37.3161239,-121.9506382,,4.350889,0.1,91.93939,1607641156435
Fix,GT,37.3161227,-121.9505978,,2.8541682,0.1,92.49423,1607641157435
Fix,GT,37.3161218,-121.9505736,,1.4813507,0.1,92.688385,1607641158435
Fix,GT,37.3161216,-121.9505638,,0.4228534,0.1,92.72742,1607641159435
Fix,GT,37.3161215,-121.9505621,,0.011636658,0.1,92.724884,1607641160435
Fix,GT,37.3161215,-121.950562,,0.0045641954,0.1,92.72412,1607641161435
Fix,GT,37.3161216,-121.950562,,0.0038280974,0.1,92.72357,1607641162435
Fix,GT,37.3161216,-121.950562,,0.0030087242,0.1,92.72327,1607641163435
Fix,GT,37.3161216,-121.950562,,0.0016973837,0.1,92.722626,1607641164435
Fix,GT,37.3161216,-121.950562,,0.001,0.1,92.721924,1607641165435
Fix,GT,37.3161216,-121.950562,,0.001,0.1,92.72116,1607641166435
Fix,GT,37.3161216,-121.950562,,0.00056419545,0.1,92.72034,1607641167435
Fix,GT,37.3161216,-121.950562,,0.0,0.1,92.71936,1607641168435
Fix,GT,37.3161216,-121.950562,,0.0,0.1,92.71854,1607641169435
Fix,GT,37.3161216,-121.950562,,0.0,0.1,92.717804,1607641170435
Fix,GT,37.3161216,-121.950562,,0.00061632064,0.1,92.71704,1607641171435
Fix,GT,37.3161216,-121.950562,,0.0012336974,0.1,92.71625,1607641172435
Fix,GT,37.3161216,-121.950562,,0.0011805162,0.1,92.71542,1607641173435
Fix,GT,37.3161216,-121.950562,,0.0012336974,0.1,92.71454,1607641174435
Fix,GT,37.3161216,-121.950562,,0.0005641956,0.1,92.71399,1607641175435
Fix,GT,37.3161216,-121.950562,,0.00043580445,0.1,92.71344,1607641176435
Fix,GT,37.3161216,-121.950562,,0.0005641957,0.1,92.712585,1607641177435
Fix,GT,37.3161216,-121.950562,,0.0006163204,0.1,92.7117,1607641178435
Fix,GT,37.3161216,-121.950562,,0.0012336975,0.1,92.710846,1607641179435
Fix,GT,37.3161216,-121.950562,,0.0005641958,0.1,92.710144,1607641180435
Fix,GT,37.3161216,-121.950562,,0.00043580428,0.1,92.70929,1607641181435
Fix,GT,37.3161216,-121.950562,,0.0011805161,0.1,92.708435,1607641182435
Fix,GT,37.3161216,-121.950562,,0.0012336976,0.1,92.707306,1607641183435
Fix,GT,37.3161216,-121.950562,,0.0005641959,0.1,92.70618,1607641184435
Fix,GT,37.3161216,-121.950562,,0.00043580416,0.1,92.70557,1607641185435
Fix,GT,37.3161216,-121.950562,,0.001180516,0.1,92.70499,1607641186435
Fix,GT,37.3161216,-121.950562,,0.0012336976,0.1,92.70441,1607641187435
Fix,GT,37.3161216,-121.950562,,0.001180516,0.1,92.703674,1607641188435
Fix,GT,37.3161216,-121.950562,,0.0014142136,0.1,92.70279,1607641189435
Fix,GT,37.3161216,-121.950562,,0.0007978936,0.1,92.701996,1607641190435
Fix,GT,37.3161216,-121.950562,,0.000435804,0.1,92.70117,1607641191435
Fix,GT,37.3161216,-121.950562,,0.001180516,0.1,92.70038,1607641192435
Fix,GT,37.3161216,-121.950562,,0.0012336976,0.1,92.69977,1607641193435
Fix,GT,37.3161216,-121.950562,,0.001,0.1,92.699066,1607641194435
Fix,GT,37.3161216,-121.950562,,0.001,0.1,92.69818,1607641195435
Fix,GT,37.3161216,-121.950562,,0.00056419626,0.1,92.69708,1607641196435
Fix,GT,37.3161216,-121.950562,,0.00043580378,0.1,92.69635,1607641197435
Fix,GT,37.3161216,-121.950562,,0.001,0.1,92.69577,1607641198435
Fix,GT,37.3161216,-121.950562,,0.0011805159,0.1,92.69507,1607641199435
Fix,GT,37.3161216,-121.950562,,0.0014142136,0.1,92.69394,1607641200435
Fix,GT,37.3161216,-121.950562,,0.0012336979,0.1,92.69293,1607641201435
Fix,GT,37.3161216,-121.950562,,0.001,0.1,92.69208,1607641202435
Fix,GT,37.3161216,-121.950562,,0.00056419644,0.1,92.691315,1607641203435
Fix,GT,37.3161216,-121.950562,,0.0004358036,0.1,92.690704,1607641204435
Fix,GT,37.3161216,-121.950562,,0.0011805159,0.1,92.68994,1607641205435
Fix,GT,37.3161216,-121.950562,,0.0014142136,0.1,92.68906,1607641206435
Fix,GT,37.3161216,-121.950562,,0.0014142136,0.1,92.6882,1607641207435
Fix,GT,37.3161216,-121.950562,,0.001233698,0.1,92.68744,1607641208435
Fix,GT,37.3161216,-121.950562,,0.001,0.1,92.68677,1607641209435
Fix,GT,37.3161216,-121.950562,,0.001,0.1,92.68622,1607641210435
Fix,GT,37.3161216,-121.950562,,0.001,0.1,92.68561,1607641211435
Fix,GT,37.3161216,-121.950562,,0.0011805156,0.1,92.684814,1607641212435
Fix,GT,37.3161216,-121.950562,,0.0017723804,0.1,92.68393,1607641213435
Fix,GT,37.3161216,-121.950562,,0.002236068,0.1,92.683105,1607641214435
Fix,GT,37.3161216,-121.950562,,0.0024942202,0.1,92.68222,1607641215435
Fix,GT,37.3161216,-121.950562,,0.0028284271,0.1,92.681366,1607641216435
Fix,GT,37.3161216,-121.950562,,0.0031671003,0.1,92.68063,1607641217435
Fix,GT,37.3161216,-121.950562,,0.0039832117,0.1,92.680115,1607641218435
Fix,GT,37.3161216,-121.950562,,0.004472136,0.1,92.67938,1607641219435
Fix,GT,37.3161216,-121.950562,,0.004472136,0.1,92.67847,1607641220435
Fix,GT,37.3161216,-121.950562,,0.004472136,0.1,92.677734,1607641221435
Fix,GT,37.3161216,-121.950562,,0.0043200273,0.1,92.677124,1607641222435
Fix,GT,37.3161216,-121.950562,,0.003704374,0.1,92.67636,1607641223435
Fix,GT,37.3161216,-121.950562,,0.0022199503,0.1,92.67554,1607641224435
Fix,GT,37.3161216,-121.9505619,,0.001435803,0.1,92.67471,1607641225435
Fix,GT,37.3161215,-121.9505619,,0.0029773493,0.1,92.67383,1607641226435
Fix,GT,37.3161215,-121.9505619,,0.0067517147,0.1,92.67319,1607641227435
Fix,GT,37.3161216,-121.9505612,,0.20357761,0.1,92.669556,1607641228435
Fix,GT,37.3161215,-121.9505564,,0.7481768,0.1,92.65277,1607641229435
Fix,GT,37.3161211,-121.9505445,,1.3276957,0.1,92.61865,1607641230435
Fix,GT,37.3161206,-121.9505267,,1.884875,0.1,92.61481,1607641231435
Fix,GT,37.3161195,-121.9505003,,2.9636211,0.1,93.02542,1607641232435
Fix,GT,37.3161177,-121.9504578,,4.707105,0.1,93.29898,1607641233435
Fix,GT,37.3161169,-121.9503934,,6.6085176,0.1,90.8273,1607641234435
Fix,GT,37.3161226,-121.950312,,7.687378,0.1,83.64551,1607641235435
Fix,GT,37.3161416,-121.9502315,,7.2896137,0.1,70.55597,1607641236435
Fix,GT,37.3161752,-121.9501683,,6.4216166,0.1,53.164,1607641237435
Fix,GT,37.316219,-121.9501292,,5.87678,0.1,32.513824,1607641238435
Fix,GT,37.316269,-121.9501153,,5.961205,0.1,11.250305,1607641239435
Fix,GT,37.3163258,-121.9501157,,6.8855553,0.1,0.7180786,1607641240435
Fix,GT,37.3163929,-121.9501169,,7.984954,0.1,359.77048,1607641241435
Fix,GT,37.3164677,-121.9501179,,8.524954,0.1,359.85846,1607641242435
Fix,GT,37.3165443,-121.9501189,,8.435664,0.1,359.66998,1607641243435
Fix,GT,37.3166188,-121.9501202,,8.015591,0.1,359.5117,1607641244435
Fix,GT,37.3166869,-121.9501211,,7.003876,0.1,359.68536,1607641245435
Fix,GT,37.3167437,-121.9501216,,5.5334225,0.1,359.85135,1607641246435
Fix,GT,37.3167865,-121.9501219,,3.9972777,0.1,359.8427,1607641247435
Fix,GT,37.3168167,-121.9501222,,2.775605,0.1,359.7956,1607641248435
Fix,GT,37.3168369,-121.9501223,,1.6858528,0.1,359.84897,1607641249435
Fix,GT,37.3168466,-121.9501224,,0.548789,0.1,359.87418,1607641250435
Fix,GT,37.3168483,-121.9501224,,0.011694241,0.1,359.8772,1607641251435
Fix,GT,37.3168484,-121.9501224,,0.002236068,0.1,359.87683,1607641252435
Fix,GT,37.3168484,-121.9501224,,0.0024942192,0.1,359.87506,1607641253435
Fix,GT,37.3168484,-121.9501223,,0.00297392,0.1,359.87442,1607641254435
Fix,GT,37.3168484,-121.9501223,,0.0031622776,0.1,359.87387,1607641255435
Fix,GT,37.3168484,-121.9501223,,0.0030915565,0.1,359.87323,1607641256435
Fix,GT,37.3168484,-121.9501222,,0.003,0.1,359.8726,1607641257435
Fix,GT,37.3168484,-121.9501222,,0.0034358022,0.1,359.87167,1607641258435
Fix,GT,37.3168484,-121.9501222,,0.0035641983,0.1,359.87073,1607641259435
Fix,GT,37.3168484,-121.9501222,,0.002667077,0.1,359.87024,1607641260435
Fix,GT,37.3168484,-121.9501222,,0.002236068,0.1,359.86972,1607641261435
Fix,GT,37.3168484,-121.9501222,,0.0026397118,0.1,359.86905,1607641262435
Fix,GT,37.3168484,-121.9501222,,0.0027586338,0.1,359.86835,1607641263435
Fix,GT,37.3168484,-121.9501222,,0.002236068,0.1,359.86758,1607641264435
Fix,GT,37.3168484,-121.9501222,,0.0021331892,0.1,359.86697,1607641265435
Fix,GT,37.3168484,-121.9501222,,0.002,0.1,359.8664,1607641266435
Fix,GT,37.3168484,-121.9501222,,0.0021028789,0.1,359.86588,1607641267435
Fix,GT,37.3168484,-121.9501222,,0.0021331892,0.1,359.86517,1607641268435
Fix,GT,37.3168484,-121.9501222,,0.002,0.1,359.86447,1607641269435
Fix,GT,37.3168484,-121.9501222,,0.0021028789,0.1,359.86392,1607641270435
Fix,GT,37.3168484,-121.9501222,,0.0021331892,0.1,359.86328,1607641271435
Fix,GT,37.3168484,-121.9501222,,0.0021028789,0.1,359.86252,1607641272435
Fix,GT,37.3168484,-121.9501222,,0.0026397118,0.1,359.86182,1607641273435
Fix,GT,37.3168484,-121.9501222,,0.0031622774,0.1,359.86124,1607641274435
Fix,GT,37.3168484,-121.9501222,,0.003355457,0.1,359.86057,1607641275435
Fix,GT,37.3168484,-121.9501222,,0.0036055513,0.1,359.85992,1607641276435
Fix,GT,37.3168484,-121.9501222,,0.0042132544,0.1,359.85916,1607641277435
Fix,GT,37.3168484,-121.9501222,,0.0046699415,0.1,359.8583,1607641278435
Fix,GT,37.3168484,-121.9501222,,0.0043426547,0.1,359.85764,1607641279435
Fix,GT,37.3168484,-121.9501222,,0.0043721213,0.1,359.8571,1607641280435
Fix,GT,37.3168484,-121.9501221,,0.004572699,0.1,359.8565,1607641281435
Fix,GT,37.3168485,-121.9501221,,0.005,0.1,359.85568,1607641282435
Fix,GT,37.3168486,-121.9501221,,0.04554954,0.1,359.85577,1607641283435
Fix,GT,37.3168493,-121.950122,,0.12287221,0.1,359.8561,1607641284435
Fix,GT,37.316851,-121.950122,,0.20513171,0.1,359.85587,1607641285435
Fix,GT,37.3168532,-121.9501219,,0.2504022,0.1,359.8551,1607641286435
Fix,GT,37.3168552,-121.9501219,,0.1905827,0.1,359.85123,1607641287435
Fix,GT,37.3168566,-121.9501219,,0.10766097,0.1,359.84802,1607641288435
Fix,GT,37.3168575,-121.9501218,,0.14995974,0.1,359.84717,1607641289435
Fix,GT,37.3168598,-121.9501218,,0.39974296,0.1,359.84323,1607641290435
Fix,GT,37.3168652,-121.9501219,,0.81000954,0.1,359.82693,1607641291435
Fix,GT,37.3168749,-121.950122,,1.420984,0.1,359.73224,1607641292435
Fix,GT,37.3168917,-121.9501221,,2.4399276,0.1,359.88498,1607641293435
Fix,GT,37.3169209,-121.9501218,,4.1201406,0.1,0.3885498,1607641294435
Fix,GT,37.3169664,-121.9501212,,5.7718725,0.1,0.6255188,1607641295435
Fix,GT,37.3170225,-121.9501205,,6.4531612,0.1,0.7771301,1607641296435
Fix,GT,37.3170802,-121.9501197,,6.3140244,0.1,0.7905884,1607641297435
Fix,GT,37.3171358,-121.9501211,,6.051267,0.1,358.20898,1607641298435
Fix,GT,37.3171886,-121.9501348,,6.149864,0.1,346.33414,1607641299435
Fix,GT,37.3172357,-121.9501736,,6.8059683,0.1,324.35062,1607641300435
Fix,GT,37.3172691,-121.9502396,,7.5744677,0.1,298.93118,1607641301435
Fix,GT,37.3172799,-121.9503262,,8.511105,0.1,275.91748,1607641302435
Fix,GT,37.3172735,-121.9504289,,9.962362,0.1,264.789,1607641303435
Fix,GT,37.317262,-121.9505504,,11.822774,0.1,263.6762,1607641304435
Fix,GT,37.3172489,-121.9506941,,14.0320635,0.1,263.9221,1607641305435
Fix,GT,37.3172341,-121.9508642,,16.274391,0.1,264.07272,1607641306435
Fix,GT,37.3172179,-121.9510557,,17.426548,0.1,264.18347,1607641307435
Fix,GT,37.3172014,-121.9512524,,17.681322,0.1,264.08618,1607641308435
Fix,GT,37.317184,-121.9514545,,18.542707,0.1,263.84567,1607641309435
Fix,GT,37.3171645,-121.9516696,,20.01751,0.1,263.52924,1607641310435
Fix,GT,37.3171418,-121.9519036,,21.910477,0.1,262.87366,1607641311435
Fix,GT,37.3171141,-121.9521611,,24.16175,0.1,262.1706,1607641312435
Fix,GT,37.3170816,-121.9524439,,26.491358,0.1,261.67902,1607641313435
Fix,GT,37.3170446,-121.9527525,,28.834816,0.1,261.5668,1607641314435
Fix,GT,37.3170054,-121.9530868,,31.011703,0.1,261.86694,1607641315435
Fix,GT,37.3169658,-121.9534412,,32.22116,0.1,262.27783,1607641316435
Fix,GT,37.3169274,-121.9538021,,32.143112,0.1,262.44937,1607641317435
Fix,GT,37.3168891,-121.9541594,,31.732582,0.1,262.24426,1607641318435
Fix,GT,37.3168506,-121.9545114,,31.264189,0.1,262.09354,1607641319435
Fix,GT,37.3168123,-121.9548583,,30.821308,0.1,262.13556,1607641320435
Fix,GT,37.316775,-121.9552004,,30.397488,0.1,262.5032,1607641321435
Fix,GT,37.3167416,-121.9555386,,29.995068,0.1,263.36166,1607641322435
Fix,GT,37.3167124,-121.9558729,,29.628181,0.1,263.87756,1607641323435
Fix,GT,37.3166834,-121.9562031,,29.26964,0.1,263.5395,1607641324435
Fix,GT,37.3166533,-121.9565291,,28.913425,0.1,263.3776,1607641325435
Fix,GT,37.3166251,-121.9568513,,28.587559,0.1,264.25,1607641326435
Fix,GT,37.3166022,-121.957171,,28.33213,0.1,265.67264,1607641327435
Fix,GT,37.3165861,-121.9574891,,28.186079,0.1,266.97485,1607641328435
Fix,GT,37.3165749,-121.9578065,,28.12289,0.1,267.8947,1607641329435
Fix,GT,37.3165676,-121.9581229,,27.976385,0.1,268.6744,1607641330435
Fix,GT,37.3165635,-121.9584373,,27.80488,0.1,269.44244,1607641331435
Fix,GT,37.3165625,-121.9587509,,27.853992,0.1,270.0858,1607641332435
Fix,GT,37.3165641,-121.9590665,,28.121967,0.1,270.68073,1607641333435
Fix,GT,37.3165681,-121.959386,,28.5349,0.1,271.08588,1607641334435
Fix,GT,37.3165735,-121.9597106,,29.030533,0.1,271.26648,1607641335435
Fix,GT,37.3165797,-121.9600409,,29.57301,0.1,271.35156,1607641336435
Fix,GT,37.3165858,-121.9603779,,30.183064,0.1,271.1879,1607641337435
Fix,GT,37.3165915,-121.9607222,,30.836937,0.1,271.10883,1607641338435
Fix,GT,37.316597,-121.9610732,,31.357843,0.1,271.04523,1607641339435
Fix,GT,37.3166023,-121.961429,,31.649866,0.1,271.01807,1607641340435
Fix,GT,37.3166076,-121.9617868,,31.682749,0.1,271.05405,1607641341435
Fix,GT,37.3166131,-121.9621432,,31.413319,0.1,271.07834,1607641342435
Fix,GT,37.3166182,-121.9624947,,30.87816,0.1,271.06314,1607641343435
Fix,GT,37.316623,-121.9628401,,30.332483,0.1,271.02728,1607641344435
Fix,GT,37.3166277,-121.9631796,,29.840258,0.1,270.94888,1607641345435
Fix,GT,37.3166313,-121.9635138,,29.403885,0.1,270.52267,1607641346435
Fix,GT,37.3166317,-121.963843,,29.008877,0.1,269.7346,1607641347435
Fix,GT,37.3166286,-121.9641678,,28.672031,0.1,268.98843,1607641348435
Fix,GT,37.3166223,-121.9644891,,28.378178,0.1,268.3055,1607641349435
Fix,GT,37.3166136,-121.964808,,28.225397,0.1,267.83835,1607641350435
Fix,GT,37.3166034,-121.9651269,,28.434301,0.1,267.66812,1607641351435
Fix,GT,37.3165932,-121.9654501,,28.928225,0.1,267.8065,1607641352435
Fix,GT,37.3165835,-121.9657781,,29.24474,0.1,267.82498,1607641353435
Fix,GT,37.3165732,-121.966109,,29.530214,0.1,267.62305,1607641354435
Fix,GT,37.3165613,-121.9664456,,30.307026,0.1,267.30997,1607641355435
Fix,GT,37.3165484,-121.9667929,,31.32061,0.1,267.27948,1607641356435
Fix,GT,37.316536,-121.9671512,,32.184498,0.1,267.6996,1607641357435
Fix,GT,37.3165262,-121.9675165,,32.49202,0.1,268.65314,1607641358435
Fix,GT,37.3165226,-121.9678818,,32.250053,0.1,269.91824,1607641359435
Fix,GT,37.3165243,-121.9682438,,31.898426,0.1,270.5924,1607641360435
Fix,GT,37.3165287,-121.9686015,,31.49328,0.1,271.22327,1607641361435
Fix,GT,37.3165377,-121.9689543,,31.073792,0.1,272.3798,1607641362435
Fix,GT,37.3165519,-121.9693022,,30.661684,0.1,273.3176,1607641363435
Fix,GT,37.3165683,-121.9696453,,30.264359,0.1,273.15204,1607641364435
Fix,GT,37.3165825,-121.9699841,,29.883453,0.1,272.24594,1607641365435
Fix,GT,37.3165931,-121.9703188,,29.487076,0.1,271.95593,1607641366435
Fix,GT,37.3166036,-121.9706475,,28.832808,0.1,272.69983,1607641367435
Fix,GT,37.3166197,-121.9709682,,28.181753,0.1,274.42758,1607641368435
Fix,GT,37.3166446,-121.9712829,,27.907475,0.1,276.47653,1607641369435
Fix,GT,37.3166778,-121.9715935,,27.61937,0.1,278.51758,1607641370435
Fix,GT,37.3167197,-121.9718975,,27.071886,0.1,280.99066,1607641371435
Fix,GT,37.3167732,-121.972192,,26.517443,0.1,284.69037,1607641372435
Fix,GT,37.3168432,-121.972477,,26.375088,0.1,289.21536,1607641373435
Fix,GT,37.3169306,-121.9727525,,26.179827,0.1,293.5816,1607641374435
Fix,GT,37.3170312,-121.9730175,,25.825916,0.1,296.49277,1607641375435
Fix,GT,37.3171364,-121.9732739,,25.233456,0.1,297.32047,1607641376435
Fix,GT,37.3172382,-121.9735212,,23.848598,0.1,296.93936,1607641377435
Fix,GT,37.31733,-121.9737486,,21.049189,0.1,296.45605,1607641378435
Fix,GT,37.3174073,-121.9739416,,17.174717,0.1,296.9121,1607641379435
Fix,GT,37.3174742,-121.9740904,,13.132084,0.1,302.55795,1607641380435
Fix,GT,37.3175395,-121.9741899,,9.984111,0.1,315.17276,1607641381435
Fix,GT,37.3176049,-121.9742466,,7.8352942,0.1,330.06204,1607641382435
Fix,GT,37.3176622,-121.974273,,5.7206893,0.1,342.7119,1607641383435
Fix,GT,37.3177029,-121.9742833,,3.453918,0.1,348.43497,1607641384435
Fix,GT,37.3177244,-121.9742882,,1.5125123,0.1,348.8736,1607641385435
Fix,GT,37.3177322,-121.9742899,,0.3845567,0.1,348.9578,1607641386435
Fix,GT,37.3177337,-121.9742901,,0.0316535,0.1,348.944,1607641387435
Fix,GT,37.317734,-121.9742901,,0.028298039,0.1,348.9428,1607641388435
Fix,GT,37.3177341,-121.97429,,0.022240829,0.1,348.94144,1607641389435
Fix,GT,37.3177343,-121.97429,,0.027256627,0.1,348.93225,1607641390435
Fix,GT,37.3177348,-121.9742901,,0.08742676,0.1,348.88538,1607641391435
Fix,GT,37.317736,-121.9742905,,0.21163696,0.1,348.6467,1607641392435
Fix,GT,37.3177388,-121.9742918,,0.47476304,0.1,347.2703,1607641393435
Fix,GT,37.3177441,-121.9742956,,0.8853849,0.1,342.97205,1607641394435
Fix,GT,37.3177522,-121.9743035,,1.3747103,0.1,334.88492,1607641395435
Fix,GT,37.3177624,-121.9743177,,1.9763538,0.1,322.7417,1607641396435
Fix,GT,37.3177738,-121.9743397,,2.6645727,0.1,310.10376,1607641397435
Fix,GT,37.3177902,-121.9743671,,3.409391,0.1,308.0684,1607641398435
Fix,GT,37.3178176,-121.9743895,,3.6505873,0.1,324.59738,1607641399435
Fix,GT,37.3178491,-121.9743941,,3.192082,0.1,349.7013,1607641400435
Fix,GT,37.3178747,-121.9743852,,2.538293,0.1,9.695862,1607641401435
Fix,GT,37.3178916,-121.974372,,1.6492294,0.1,23.817719,1607641402435
Fix,GT,37.3178994,-121.9743638,,0.58168066,0.1,29.983582,1607641403435
Fix,GT,37.3179009,-121.974362,,0.066875994,0.1,30.514465,1607641404435
Fix,GT,37.3179011,-121.9743615,,0.045490768,0.1,30.51297,1607641405435
Fix,GT,37.3179013,-121.9743611,,0.03824182,0.1,30.51062,1607641406435
Fix,GT,37.3179015,-121.9743608,,0.031788662,0.1,30.509369,1607641407435
Fix,GT,37.3179016,-121.9743605,,0.02539575,0.1,30.5083,1607641408435
Fix,GT,37.3179018,-121.9743603,,0.019353162,0.1,30.507263,1607641409435
Fix,GT,37.3179019,-121.9743602,,0.0142224515,0.1,30.506073,1607641410435
Fix,GT,37.317902,-121.9743601,,0.0099464,0.1,30.504913,1607641411435
Fix,GT,37.3179021,-121.97436,,0.006497682,0.1,30.503784,1607641412435
Fix,GT,37.3179022,-121.97436,,0.0031394928,0.1,30.502533,1607641413435
Fix,GT,37.3179022,-121.9743599,,0.0025947492,0.1,30.501526,1607641414435
Fix,GT,37.3179023,-121.9743599,,0.0059199557,0.1,30.500519,1607641415435
Fix,GT,37.3179023,-121.9743598,,0.009621398,0.1,30.499298,1607641416435
Fix,GT,37.3179023,-121.9743598,,0.011246437,0.1,30.499573,1607641417435
Fix,GT,37.3179033,-121.9743591,,0.30093232,0.1,30.549957,1607641418435
Fix,GT,37.3179079,-121.9743554,,0.9775728,0.1,30.609161,1607641419435
Fix,GT,37.3179185,-121.9743473,,1.7487291,0.1,30.931854,1607641420435
Fix,GT,37.3179351,-121.9743339,,2.6420627,0.1,31.956818,1607641421435
Fix,GT,37.3179587,-121.9743141,,3.6973276,0.1,33.178772,1607641422435
Fix,GT,37.3179912,-121.9742863,,5.026656,0.1,33.8743,1607641423435
Fix,GT,37.3180338,-121.9742501,,6.2751894,0.1,33.950928,1607641424435
Fix,GT,37.3180833,-121.9742079,,6.8223276,0.1,34.00998,1607641425435
Fix,GT,37.3181339,-121.9741642,,6.7678623,0.1,34.51587,1607641426435
Fix,GT,37.3181826,-121.9741212,,6.3292036,0.1,34.874756,1607641427435
Fix,GT,37.3182266,-121.9740868,,5.0908575,0.1,29.756927,1607641428435
Fix,GT,37.3182637,-121.9740787,,3.7716975,0.1,6.4416504,1607641429435
Fix,GT,37.3182868,-121.9741038,,3.380206,0.1,326.31158,1607641430435
Fix,GT,37.3182879,-121.9741439,,3.6500711,0.1,282.81915,1607641431435
Fix,GT,37.3182654,-121.9741796,,4.4535646,0.1,241.3406,1607641432435
Fix,GT,37.3182254,-121.9742079,,5.93044,0.1,214.42567,1607641433435
Fix,GT,37.3181693,-121.9742419,,7.989246,0.1,207.12167,1607641434435
Fix,GT,37.3180964,-121.9742919,,10.45031,0.1,209.53285,1607641435435
Fix,GT,37.3180076,-121.9743602,,12.632564,0.1,212.1359,1607641436435
Fix,GT,37.3179035,-121.9744422,,14.588413,0.1,211.976,1607641437435
Fix,GT,37.3177856,-121.9745311,,15.875502,0.1,210.78601,1607641438435
Fix,GT,37.3176613,-121.9746225,,15.980793,0.1,210.56157,1607641439435
Fix,GT,37.3175385,-121.9747145,,15.764147,0.1,211.44214,1607641440435
Fix,GT,37.3174194,-121.9748079,,15.423788,0.1,212.53874,1607641441435
Fix,GT,37.3173057,-121.9748999,,14.507836,0.1,213.14323,1607641442435
Fix,GT,37.3172029,-121.9749847,,12.660084,0.1,213.55112,1607641443435
Fix,GT,37.3171166,-121.9750568,,10.372182,0.1,213.80788,1607641444435
Fix,GT,37.317048,-121.9751141,,7.9109645,0.1,213.70715,1607641445435
Fix,GT,37.3169982,-121.9751556,,5.3516994,0.1,213.67397,1607641446435
Fix,GT,37.316967,-121.9751819,,3.079042,0.1,213.77013,1607641447435
Fix,GT,37.3169515,-121.9751948,,1.1221397,0.1,213.69893,1607641448435
Fix,GT,37.3169473,-121.9751984,,0.044054803,0.1,213.61931,1607641449435
Fix,GT,37.3169474,-121.9751984,,0.0056042178,0.1,213.61917,1607641450435
Fix,GT,37.3169474,-121.9751985,,0.003,0.1,213.61624,1607641451435
Fix,GT,37.3169474,-121.9751985,,0.002667078,0.1,213.61507,1607641452435
Fix,GT,37.3169474,-121.9751986,,0.002236068,0.1,213.61417,1607641453435
Fix,GT,37.3169474,-121.9751986,,0.0025689898,0.1,213.61319,1607641454435
Fix,GT,37.3169474,-121.9751987,,0.0034358003,0.1,213.61215,1607641455435
Fix,GT,37.3169473,-121.9751987,,0.004478953,0.1,213.61108,1607641456435
Fix,GT,37.3169473,-121.9751987,,0.006195822,0.1,213.61032,1607641457435
Fix,GT,37.3169473,-121.9751988,,0.008408149,0.1,213.60954,1607641458435
Fix,GT,37.3169474,-121.9751988,,0.01064227,0.1,213.60855,1607641459435
Fix,GT,37.3169474,-121.9751988,,0.014034592,0.1,213.60745,1607641460435
Fix,GT,37.3169474,-121.9751988,,0.018237818,0.1,213.60638,1607641461435
Fix,GT,37.3169475,-121.9751988,,0.023136731,0.1,213.60548,1607641462435
Fix,GT,37.3169476,-121.9751987,,0.028847717,0.1,213.60461,1607641463435
Fix,GT,37.3169477,-121.9751986,,0.035418786,0.1,213.60376,1607641464435
Fix,GT,37.3169479,-121.9751984,,0.043227956,0.1,213.6027,1607641465435
Fix,GT,37.316948,-121.9751981,,0.07076995,0.1,213.6029,1607641466435
Fix,GT,37.3169457,-121.9751999,,0.84118396,0.1,213.60806,1607641467435
Fix,GT,37.316933,-121.9752101,,2.6380029,0.1,213.39069,1607641468435
Fix,GT,37.3169054,-121.9752296,,4.2375803,0.1,210.54378,1607641469435
Fix,GT,37.316864,-121.9752493,,5.694289,0.1,201.18967,1607641470435
Fix,GT,37.3168078,-121.9752545,,6.921022,0.1,182.82985,1607641471435
Fix,GT,37.3167485,-121.9752288,,7.4644957,0.1,157.22992,1607641472435
Fix,GT,37.3166998,-121.9751673,,8.518197,0.1,131.85608,1607641473435
Fix,GT,37.3166623,-121.975075,,10.113727,0.1,115.04581,1607641474435
Fix,GT,37.3166311,-121.9749589,,11.5932455,0.1,107.977234,1607641475435
Fix,GT,37.3166019,-121.974826,,12.853727,0.1,105.033966,1607641476435
Fix,GT,37.3165723,-121.9746792,,14.073957,0.1,104.243286,1607641477435
Fix,GT,37.3165405,-121.9745181,,15.395002,0.1,103.95099,1607641478435
Fix,GT,37.3165058,-121.974342,,16.780535,0.1,104.06836,1607641479435
Fix,GT,37.3164676,-121.9741512,,18.04799,0.1,104.375916,1607641480435
Fix,GT,37.3164266,-121.9739484,,18.942467,0.1,104.315216,1607641481435
Fix,GT,37.3163846,-121.9737381,,19.470575,0.1,104.16797,1607641482435
Fix,GT,37.3163425,-121.973522,,20.002998,0.1,103.64334,1607641483435
Fix,GT,37.3163026,-121.9732985,,20.617695,0.1,102.004364,1607641484435
Fix,GT,37.3162693,-121.9730667,,21.216993,0.1,98.99036,1607641485435
Fix,GT,37.316246,-121.9728254,,21.942097,0.1,95.83899,1607641486435
Fix,GT,37.3162302,-121.9725736,,22.874146,0.1,94.03525,1607641487435
Fix,GT,37.3162173,-121.9723112,,23.698936,0.1,93.39133,1607641488435
Fix,GT,37.3162052,-121.9720418,,24.08414,0.1,93.47974,1607641489435
Fix,GT,37.3161915,-121.9717715,,23.878952,0.1,94.18826,1607641490435
Fix,GT,37.3161759,-121.9715046,,23.575779,0.1,94.226746,1607641491435
Fix,GT,37.3161626,-121.9712406,,23.33252,0.1,93.0788,1607641492435
Fix,GT,37.3161549,-121.9709781,,23.333878,0.1,91.50375,1607641493435
Fix,GT,37.316152,-121.9707129,,23.761093,0.1,90.5253,1607641494435
Fix,GT,37.3161516,-121.9704412,,24.397793,0.1,90.06067,1607641495435
Fix,GT,37.3161531,-121.9701625,,25.039936,0.1,89.36597,1607641496435
Fix,GT,37.316158,-121.9698777,,25.432135,0.1,88.40976,1607641497435
Fix,GT,37.3161658,-121.9695908,,25.406769,0.1,88.03235,1607641498435
Fix,GT,37.3161739,-121.9693046,,25.36467,0.1,88.00052,1607641499435
Fix,GT,37.3161823,-121.9690181,,25.495182,0.1,87.8324,1607641500435
Fix,GT,37.3161916,-121.9687295,,25.713398,0.1,87.66568,1607641501435
Fix,GT,37.3162009,-121.9684386,,25.91018,0.1,87.79678,1607641502435
Fix,GT,37.3162099,-121.9681456,,26.062233,0.1,87.78601,1607641503435
Fix,GT,37.3162196,-121.9678511,,26.154522,0.1,87.60507,1607641504435
Fix,GT,37.3162296,-121.9675569,,25.995731,0.1,87.66327,1607641505435
Fix,GT,37.3162388,-121.9672661,,25.586296,0.1,87.74963,1607641506435
Fix,GT,37.3162477,-121.9669803,,25.103706,0.1,87.81528,1607641507435
Fix,GT,37.3162562,-121.9667002,,24.594578,0.1,87.87402,1607641508435
Fix,GT,37.3162645,-121.9664258,,24.091627,0.1,87.773285,1607641509435
Fix,GT,37.3162731,-121.9661567,,23.65821,0.1,87.765625,1607641510435
Fix,GT,37.3162814,-121.9658918,,23.374128,0.1,87.79578,1607641511435
Fix,GT,37.3162897,-121.9656292,,23.205065,0.1,87.74609,1607641512435
Fix,GT,37.316298,-121.9653684,,23.064274,0.1,87.68109,1607641513435
Fix,GT,37.3163066,-121.9651095,,22.863762,0.1,87.74048,1607641514435
Fix,GT,37.3163144,-121.9648533,,22.570072,0.1,88.020996,1607641515435
Fix,GT,37.3163213,-121.9646004,,22.329365,0.1,88.11215,1607641516435
Fix,GT,37.3163277,-121.9643488,,22.330076,0.1,88.27731,1607641517435
Fix,GT,37.3163328,-121.9640957,,22.570469,0.1,88.86218,1607641518435
Fix,GT,37.3163354,-121.9638393,,22.908428,0.1,89.658325,1607641519435
Fix,GT,37.3163352,-121.9635783,,23.360409,0.1,90.38995,1607641520435
Fix,GT,37.3163328,-121.9633114,,23.948647,0.1,90.84497,1607641521435
Fix,GT,37.3163291,-121.963038,,24.445225,0.1,91.12088,1607641522435
Fix,GT,37.3163249,-121.9627611,,24.570366,0.1,91.07446,1607641523435
Fix,GT,37.316321,-121.9624845,,24.47888,0.1,90.95499,1607641524435
Fix,GT,37.3163174,-121.962209,,24.376656,0.1,90.99158,1607641525435
Fix,GT,37.3163133,-121.9619344,,24.308668,0.1,91.11636,1607641526435
Fix,GT,37.3163092,-121.9616604,,24.26402,0.1,91.11517,1607641527435
Fix,GT,37.3163052,-121.9613866,,24.285267,0.1,90.930084,1607641528435
Fix,GT,37.3163019,-121.9611126,,24.30938,0.1,90.8797,1607641529435
Fix,GT,37.3162984,-121.9608388,,24.222662,0.1,90.9429,1607641530435
Fix,GT,37.3162947,-121.9605664,,24.073479,0.1,90.950745,1607641531435
Fix,GT,37.3162914,-121.9602958,,23.898106,0.1,90.84842,1607641532435
Fix,GT,37.3162884,-121.9600273,,23.716019,0.1,90.86951,1607641533435
Fix,GT,37.3162851,-121.9597611,,23.487518,0.1,90.957,1607641534435
Fix,GT,37.3162817,-121.959497,,23.392426,0.1,90.98584,1607641535435
Fix,GT,37.3162772,-121.9592317,,23.704948,0.1,91.51935,1607641536435
Fix,GT,37.3162692,-121.9589601,,24.507702,0.1,92.54474,1607641537435
Fix,GT,37.3162585,-121.9586775,,25.67081,0.1,92.71701,1607641538435
Fix,GT,37.31625,-121.9583821,,26.693214,0.1,91.40787,1607641539435
Fix,GT,37.3162485,-121.9580765,,27.422039,0.1,89.58255,1607641540435
Fix,GT,37.3162535,-121.9577637,,28.044106,0.1,88.368866,1607641541435
Fix,GT,37.3162628,-121.9574442,,28.617767,0.1,87.57687,1607641542435
Fix,GT,37.3162756,-121.9571203,,28.83551,0.1,86.8685,1607641543435
Fix,GT,37.3162917,-121.9567969,,28.571995,0.1,86.07068,1607641544435
Fix,GT,37.3163113,-121.9564774,,28.235817,0.1,85.24103,1607641545435
Fix,GT,37.3163336,-121.9561618,,27.929766,0.1,84.765015,1607641546435
Fix,GT,37.3163569,-121.95585,,27.63412,0.1,84.55597,1607641547435
Fix,GT,37.31638,-121.9555412,,27.329903,0.1,84.7561,1607641548435
Fix,GT,37.3164009,-121.9552359,,27.00016,0.1,85.48242,1607641549435
Fix,GT,37.3164175,-121.9549341,,26.65196,0.1,86.73944,1607641550435
Fix,GT,37.316428,-121.9546346,,26.529613,0.1,88.17111,1607641551435
Fix,GT,37.316434,-121.9543351,,26.57653,0.1,88.77405,1607641552435
Fix,GT,37.3164389,-121.9540359,,26.40648,0.1,88.78308,1607641553435
Fix,GT,37.3164438,-121.9537398,,26.06298,0.1,88.67728,1607641554435
Fix,GT,37.3164493,-121.9534482,,25.637936,0.1,88.49463,1607641555435
Fix,GT,37.3164555,-121.9531616,,25.18531,0.1,88.29242,1607641556435
Fix,GT,37.3164619,-121.9528802,,24.723507,0.1,88.354065,1607641557435
Fix,GT,37.3164672,-121.952605,,23.97803,0.1,88.71814,1607641558435
Fix,GT,37.3164713,-121.9523428,,22.334057,0.1,88.771545,1607641559435
Fix,GT,37.3164754,-121.9521046,,19.844532,0.1,88.431885,1607641560435
Fix,GT,37.3164797,-121.9518968,,16.991045,0.1,88.50003,1607641561435
Fix,GT,37.3164785,-121.9517226,,13.835454,0.1,93.27173,1607641562435
Fix,GT,37.3164575,-121.9515868,,11.032118,0.1,108.38507,1607641563435
Fix,GT,37.3164089,-121.9514948,,9.130288,0.1,132.4213,1607641564435
Fix,GT,37.3163442,-121.9514478,,7.896982,0.1,156.2597,1607641565435
Fix,GT,37.3162786,-121.9514268,,7.2305317,0.1,166.55359,1607641566435
Fix,GT,37.31622,-121.9513997,,6.8121376,0.1,156.84705,1607641567435
Fix,GT,37.3161744,-121.9513534,,6.524811,0.1,137.59277,1607641568435
Fix,GT,37.3161461,-121.9512928,,6.278529,0.1,117.40909,1607641569435
Fix,GT,37.3161359,-121.9512252,,6.230823,0.1,99.56354,1607641570435
Fix,GT,37.3161345,-121.9511528,,6.7530856,0.1,91.619385,1607641571435
Fix,GT,37.3161341,-121.951074,,7.198229,0.1,90.59039,1607641572435
Fix,GT,37.3161339,-121.9509926,,7.139062,0.1,90.56531,1607641573435
Fix,GT,37.316133,-121.9509147,,6.539169,0.1,91.21631,1607641574435
Fix,GT,37.3161314,-121.9508475,,5.3193536,0.1,92.17761,1607641575435
Fix,GT,37.3161296,-121.9507963,,3.7768812,0.1,92.77545,1607641576435
Fix,GT,37.3161284,-121.9507616,,2.4257817,0.1,92.82486,1607641577435
Fix,GT,37.3161278,-121.9507405,,1.3309829,0.1,92.756775,1607641578435
Fix,GT,37.3161275,-121.9507314,,0.38010117,0.1,92.72177,1607641579435
Fix,GT,37.3161275,-121.9507303,,0.0106917815,0.1,92.7142,1607641580435
Fix,GT,37.3161276,-121.9507302,,0.007969793,0.1,92.711426,1607641581435
Fix,GT,37.3161277,-121.9507302,,0.005963769,0.1,92.70996,1607641582435
Fix,GT,37.3161277,-121.9507302,,0.0047699567,0.1,92.70947,1607641583435
Fix,GT,37.3161277,-121.9507301,,0.0043200287,0.1,92.708374,1607641584435
Fix,GT,37.3161277,-121.9507301,,0.0041231057,0.1,92.707275,1607641585435
Fix,GT,37.3161277,-121.9507301,,0.0040694564,0.1,92.70618,1607641586435
Fix,GT,37.3161277,-121.9507301,,0.0035642,0.1,92.70526,1607641587435
Fix,GT,37.3161277,-121.9507301,,0.0026670783,0.1,92.70422,1607641588435
Fix,GT,37.3161277,-121.95073,,0.0018779037,0.1,92.703064,1607641589435
Fix,GT,37.3161277,-121.95073,,0.0016694993,0.1,92.701904,1607641590435
Fix,GT,37.3161277,-121.95073,,0.0026996995,0.1,92.700806,1607641591435
Fix,GT,37.3161277,-121.95073,,0.0048247343,0.1,92.69977,1607641592435
Fix,GT,37.3161277,-121.9507297,,0.13702513,0.1,92.69562,1607641593435
Fix,GT,37.3161276,-121.9507247,,0.9447239,0.1,92.653046,1607641594435
Fix,GT,37.3161269,-121.9507044,,2.756441,0.1,92.7514,1607641595435
Fix,GT,37.316125,-121.9506611,,4.7792044,0.1,93.06906,1607641596435
Fix,GT,37.3161224,-121.9505994,,6.0311923,0.1,93.10065,1607641597435
Fix,GT,37.3161198,-121.950527,,6.873352,0.1,92.66812,1607641598435
Fix,GT,37.3161176,-121.9504449,,7.6228476,0.1,91.985596,1607641599435
Fix,GT,37.3161179,-121.9503577,,7.716881,0.1,88.810486,1607641600435
Fix,GT,37.3161273,-121.9502738,,7.455937,0.1,79.46326,1607641601435
Fix,GT,37.3161523,-121.9501995,,7.1137395,0.1,64.043304,1607641602435
Fix,GT,37.3161941,-121.9501437,,6.8251553,0.1,42.505035,1607641603435
Fix,GT,37.3162494,-121.9501176,,6.8563404,0.1,17.296448,1607641604435
Fix,GT,37.3163134,-121.9501143,,7.8032193,0.1,1.8983154,1607641605435
Fix,GT,37.3163933,-121.9501169,,10.061178,0.1,359.579,1607641606435
Fix,GT,37.3164972,-121.9501193,,12.908283,0.1,359.56345,1607641607435
Fix,GT,37.3166219,-121.9501208,,14.601245,0.1,359.80804,1607641608435
Fix,GT,37.3167543,-121.9501217,,14.408011,0.1,359.96027,1607641609435
Fix,GT,37.3168769,-121.9501221,,12.463058,0.1,0.015991211,1607641610435
Fix,GT,37.316975,-121.9501221,,9.242364,0.1,0.17175293,1607641611435
Fix,GT,37.317043,-121.9501222,,5.9209557,0.1,0.27871704,1607641612435
Fix,GT,37.3170836,-121.9501221,,3.283856,0.1,0.24301147,1607641613435
Fix,GT,37.3171047,-121.9501223,,1.5418932,0.1,359.92188,1607641614435
Fix,GT,37.3171126,-121.9501225,,0.3807078,0.1,359.70364,1607641615435
Fix,GT,37.3171133,-121.9501226,,0.0034405896,0.1,359.68887,1607641616435
Fix,GT,37.3171133,-121.9501226,,0.004053628,0.1,359.688,1607641617435
Fix,GT,37.3171133,-121.9501226,,0.0028284271,0.1,359.68542,1607641618435
Fix,GT,37.3171133,-121.9501226,,0.0029739193,0.1,359.6843,1607641619435
Fix,GT,37.3171132,-121.9501226,,0.0031622776,0.1,359.6833,1607641620435
