MessageType,Provider,LatitudeDegrees,LongitudeDegrees,AltitudeMeters,SpeedMps,AccuracyMeters,BearingDegrees,UnixTimeMillis
Fix,GT,37.6289277,-122.4262952,,0.0017457237,0.1,154.26709,1590096130434
Fix,GT,37.6289277,-122.4262952,,0.0014142136,0.1,154.26709,1590096131434
Fix,GT,37.6289277,-122.4262952,,0.0017709618,0.1,154.26672,1590096132434
Fix,GT,37.6289277,-122.4262952,,0.0018793198,0.1,154.26672,1590096133434
Fix,GT,37.6289277,-122.4262952,,0.0023654231,0.1,154.26678,1590096134434
Fix,GT,37.6289277,-122.4262952,,0.00301109,0.1,154.26685,1590096135434
Fix,GT,37.6289277,-122.4262952,,0.002236068,0.1,154.26672,1590096136434
Fix,GT,37.6289277,-122.4262952,,0.0026381144,0.1,154.26721,1590096137434
Fix,GT,37.6289277,-122.4262952,,0.0027602313,0.1,154.26727,1590096138434
Fix,GT,37.6289277,-122.4262952,,0.001265442,0.1,154.26733,1590096139434
Fix,GT,37.6289277,-122.4262952,,0.000970626,0.1,154.26727,1590096140434
Fix,GT,37.6289277,-122.4262952,,0.003055188,0.1,154.2674,1590096141434
Fix,GT,37.6289277,-122.4262952,,0.0036355914,0.1,154.2674,1590096142434
Fix,GT,37.6289277,-122.4262952,,0.0029255243,0.1,154.26721,1590096143434
Fix,GT,37.6289277,-122.4262952,,0.0029029031,0.1,154.26709,1590096144434
Fix,GT,37.6289277,-122.4262952,,0.0023116462,0.1,154.2674,1590096145434
Fix,GT,37.6289277,-122.4262952,,0.0016684902,0.1,154.26782,1590096146434
Fix,GT,37.6289277,-122.4262952,,0.0015659228,0.1,154.26733,1590096147434
Fix,GT,37.6289277,-122.4262952,,0.001,0.1,154.26721,1590096148434
Fix,GT,37.6289277,-122.4262952,,0.0011798007,0.1,154.2677,1590096149434
Fix,GT,37.6289277,-122.4262952,,0.0021730084,0.1,154.26843,1590096150434
Fix,GT,37.6289277,-122.4262952,,0.0036312388,0.1,154.26874,1590096151434
Fix,GT,37.6289277,-122.4262952,,0.004738584,0.1,154.26898,1590096152434
Fix,GT,37.6289277,-122.4262952,,0.0048373337,0.1,154.26874,1590096153434
Fix,GT,37.6289277,-122.4262952,,0.0037060324,0.1,154.26868,1590096154434
Fix,GT,37.6289277,-122.4262952,,0.0017896048,0.1,154.26917,1590096155434
Fix,GT,37.6289277,-122.4262952,,0.00043407732,0.1,154.26929,1590096156434
Fix,GT,37.6289277,-122.4262952,,0.0014340774,0.1,154.26965,1590096157434
Fix,GT,37.6289277,-122.4262952,,0.0017457235,0.1,154.27032,1590096158434
Fix,GT,37.6289277,-122.4262952,,0.0014142136,0.1,154.27069,1590096159434
Fix,GT,37.6289277,-122.4262952,,0.0012344129,0.1,154.271,1590096160434
Fix,GT,37.6289277,-122.4262952,,0.0015365491,0.1,154.27136,1590096161434
Fix,GT,37.6289277,-122.4262952,,0.0025676736,0.1,154.27155,1590096162434
Fix,GT,37.6289277,-122.4262952,,0.003070441,0.1,154.27216,1590096163434
Fix,GT,37.6289277,-122.4262952,,0.0033546928,0.1,154.2732,1590096164434
Fix,GT,37.6289277,-122.4262952,,0.0046808524,0.1,154.27454,1590096165434
Fix,GT,37.6289277,-122.4262952,,0.0048150467,0.1,154.27576,1590096166434
Fix,GT,37.6289277,-122.4262952,,0.0030173608,0.1,154.27625,1590096167434
Fix,GT,37.6289277,-122.4262952,,0.0031657591,0.1,154.27698,1590096168434
Fix,GT,37.6289277,-122.4262952,,0.0037767726,0.1,154.27722,1590096169434
Fix,GT,37.6289277,-122.4262952,,0.0031318455,0.1,154.27777,1590096170434
Fix,GT,37.6289277,-122.4262952,,0.0030730981,0.1,154.27881,1590096171434
Fix,GT,37.6289277,-122.4262952,,0.003399038,0.1,154.27997,1590096172434
Fix,GT,37.6289277,-122.4262952,,0.0028681548,0.1,154.28033,1590096173434
Fix,GT,37.6289277,-122.4262952,,0.0031318457,0.1,154.2804,1590096174434
Fix,GT,37.6289277,-122.4262952,,0.002102472,0.1,154.28021,1590096175434
Fix,GT,37.6289277,-122.4262952,,0.0025676736,0.1,154.28015,1590096176434
Fix,GT,37.6289277,-122.4262952,,0.003070441,0.1,154.281,1590096177434
Fix,GT,37.6289277,-122.4262952,,0.0035259142,0.1,154.28162,1590096178434
Fix,GT,37.6289277,-122.4262952,,0.0038287789,0.1,154.28296,1590096179434
Fix,GT,37.6289277,-122.4262952,,0.0026543415,0.1,154.28406,1590096180434
Fix,GT,37.6289277,-122.4262952,,0.0020280916,0.1,154.28436,1590096181434
Fix,GT,37.6289277,-122.4262954,,0.003541924,0.1,154.28485,1590096182434
Fix,GT,37.6289277,-122.4262955,,0.0044721365,0.1,154.2846,1590096183434
Fix,GT,37.6289277,-122.4262956,,0.019437624,0.1,154.28632,1590096184434
Fix,GT,37.628927,-122.4262951,,0.21597931,0.1,154.22168,1590096185434
Fix,GT,37.6289226,-122.4262921,,0.9444876,0.1,153.71295,1590096186434
Fix,GT,37.6289101,-122.4262831,,2.359271,0.1,152.09723,1590096187434
Fix,GT,37.6288855,-122.4262644,,4.006741,0.1,149.6972,1590096188434
Fix,GT,37.6288499,-122.426236,,5.313043,0.1,147.539,1590096189434
Fix,GT,37.6288063,-122.4261996,,6.2763424,0.1,146.52173,1590096190434
Fix,GT,37.6287562,-122.4261593,,6.8199987,0.1,147.72485,1590096191434
Fix,GT,37.6287015,-122.4261195,,7.221017,0.1,150.68231,1590096192434
Fix,GT,37.6286405,-122.4260805,,8.001784,0.1,153.2207,1590096193434
Fix,GT,37.6285733,-122.4260393,,8.54179,0.1,154.11896,1590096194434
Fix,GT,37.6285036,-122.4259973,,8.555282,0.1,154.4281,1590096195434
Fix,GT,37.6284343,-122.4259559,,8.480497,0.1,154.44397,1590096196434
Fix,GT,37.6283658,-122.4259144,,8.411192,0.1,154.1623,1590096197434
Fix,GT,37.6282984,-122.4258718,,8.381336,0.1,152.72736,1590096198434
Fix,GT,37.6282311,-122.4258247,,8.7568035,0.1,150.17627,1590096199434
Fix,GT,37.628162,-122.4257718,,9.1387205,0.1,148.30032,1590096200434
Fix,GT,37.628093,-122.4257165,,8.991474,0.1,147.21173,1590096201434
Fix,GT,37.6280266,-122.4256613,,8.674473,0.1,146.00568,1590096202434
Fix,GT,37.6279632,-122.425607,,8.533329,0.1,145.72833,1590096203434
Fix,GT,37.6278978,-122.4255545,,8.547293,0.1,148.0495,1590096204434
Fix,GT,37.627834,-122.4255083,,7.4174366,0.1,150.79727,1590096205434
Fix,GT,37.627784,-122.4254749,,5.1180835,0.1,152.32,1590096206434
Fix,GT,37.6277522,-122.4254546,,2.8421276,0.1,153.01575,1590096207434
Fix,GT,37.6277365,-122.4254447,,1.1782283,0.1,153.28967,1590096208434
Fix,GT,37.6277309,-122.4254412,,0.35371047,0.1,153.37482,1590096209434
Fix,GT,37.6277301,-122.4254406,,0.0036977683,0.1,153.38367,1590096210434
Fix,GT,37.6277301,-122.4254406,,0.0025045183,0.1,153.38306,1590096211434
Fix,GT,37.6277301,-122.4254406,,0.0022236821,0.1,153.3833,1590096212434
Fix,GT,37.6277301,-122.4254406,,0.0015365491,0.1,153.38342,1590096213434
Fix,GT,37.6277301,-122.4254406,,0.0018793198,0.1,153.38403,1590096214434
Fix,GT,37.6277301,-122.4254406,,0.0014142136,0.1,153.38495,1590096215434
Fix,GT,37.6277302,-122.4254406,,0.0017709619,0.1,153.38531,1590096216434
Fix,GT,37.6277302,-122.4254406,,0.002236068,0.1,153.38501,1590096217434
Fix,GT,37.6277302,-122.4254406,,0.0021335962,0.1,153.38562,1590096218434
Fix,GT,37.6277302,-122.4254406,,0.0011318455,0.1,153.38568,1590096219434
Fix,GT,37.6277302,-122.4254406,,0.00097062637,0.1,153.38599,1590096220434
Fix,GT,37.6277302,-122.4254406,,0.0025676736,0.1,153.38635,1590096221434
Fix,GT,37.6277302,-122.4254406,,0.003262856,0.1,153.3866,1590096222434
Fix,GT,37.6277302,-122.4254406,,0.0032682195,0.1,153.38654,1590096223434
Fix,GT,37.6277302,-122.4254406,,0.0029733442,0.1,153.3866,1590096224434
Fix,GT,37.6277302,-122.4254406,,0.0035259142,0.1,153.38745,1590096225434
Fix,GT,37.6277302,-122.4254406,,0.0031318457,0.1,153.38855,1590096226434
Fix,GT,37.6277302,-122.4254406,,0.002102472,0.1,153.38928,1590096227434
Fix,GT,37.6277302,-122.4254406,,0.0022360682,0.1,153.39001,1590096228434
Fix,GT,37.6277302,-122.4254405,,0.0021335965,0.1,153.39001,1590096229434
Fix,GT,37.6277302,-122.4254405,,0.0026969335,0.1,153.3905,1590096230434
Fix,GT,37.6277302,-122.4254405,,0.00421085,0.1,153.39093,1590096231434
Fix,GT,37.6277302,-122.4254405,,0.0051671914,0.1,153.39093,1590096232434
Fix,GT,37.6277301,-122.4254405,,0.08557366,0.1,153.38959,1590096233434
Fix,GT,37.627727,-122.4254386,,0.7901381,0.1,153.31061,1590096234434
Fix,GT,37.6277149,-122.4254301,,2.3666048,0.1,151.7297,1590096235434
Fix,GT,37.6276925,-122.425409,,3.9261055,0.1,144.77676,1590096236434
Fix,GT,37.627666,-122.4253718,,5.0900154,0.1,131.97699,1590096237434
Fix,GT,37.6276428,-122.4253169,,6.195156,0.1,116.662415,1590096238434
Fix,GT,37.6276298,-122.4252444,,7.264838,0.1,99.77283,1590096239434
Fix,GT,37.627635,-122.425159,,8.272441,0.1,81.73578,1590096240434
Fix,GT,37.6276606,-122.4250668,,9.312885,0.1,67.93942,1590096241434
Fix,GT,37.6276994,-122.4249662,,10.538292,0.1,63.466522,1590096242434
Fix,GT,37.6277451,-122.4248532,,11.842144,0.1,62.89676,1590096243434
Fix,GT,37.6277955,-122.4247287,,12.743805,0.1,62.951233,1590096244434
Fix,GT,37.627848,-122.4245973,,13.144882,0.1,63.49536,1590096245434
Fix,GT,37.6278998,-122.4244613,,13.474877,0.1,64.7095,1590096246434
Fix,GT,37.6279499,-122.4243205,,13.669243,0.1,66.58014,1590096247434
Fix,GT,37.6279938,-122.4241766,,13.434118,0.1,71.20215,1590096248434
Fix,GT,37.6280217,-122.42403,,13.203398,0.1,80.304474,1590096249434
Fix,GT,37.6280274,-122.4238795,,13.453167,0.1,91.22833,1590096250434
Fix,GT,37.6280107,-122.4237259,,13.916524,0.1,101.03244,1590096251434
Fix,GT,37.6279775,-122.4235712,,14.3129015,0.1,106.61066,1590096252434
Fix,GT,37.627942,-122.4234146,,14.477124,0.1,104.157684,1590096253434
Fix,GT,37.6279207,-122.4232541,,14.50033,0.1,95.77524,1590096254434
Fix,GT,37.6279195,-122.4230932,,14.013815,0.1,86.688934,1590096255434
Fix,GT,37.6279368,-122.4229453,,12.41498,0.1,77.35858,1590096256434
Fix,GT,37.6279671,-122.4228245,,10.042728,0.1,69.34723,1590096257434
Fix,GT,37.6279978,-122.4227348,,7.204897,0.1,65.54227,1590096258434
Fix,GT,37.6280199,-122.4226757,,4.426655,0.1,64.719574,1590096259434
Fix,GT,37.6280322,-122.4226431,,2.0822155,0.1,64.69043,1590096260434
Fix,GT,37.6280378,-122.4226283,,1.0126717,0.1,64.81784,1590096261434
Fix,GT,37.6280433,-122.4226134,,2.1619344,0.1,64.8237,1590096262434
Fix,GT,37.6280557,-122.4225804,,4.309385,0.1,64.69507,1590096263434
Fix,GT,37.6280763,-122.4225256,,6.3577995,0.1,64.52164,1590096264434
Fix,GT,37.6281049,-122.4224503,,8.349686,0.1,64.397125,1590096265434
Fix,GT,37.6281411,-122.422355,,10.280353,0.1,64.24243,1590096266434
Fix,GT,37.628186,-122.422243,,11.779792,0.1,62.31488,1590096267434
Fix,GT,37.6282421,-122.4221244,,12.569841,0.1,57.01425,1590096268434
Fix,GT,37.6283116,-122.4220111,,12.899289,0.1,49.14389,1590096269434
Fix,GT,37.6283967,-122.42191,,13.336069,0.1,39.7312,1590096270434
Fix,GT,37.6284977,-122.4218252,,13.846281,0.1,30.21637,1590096271434
Fix,GT,37.6286106,-122.4217573,,14.084469,0.1,23.101807,1590096272434
Fix,GT,37.6287282,-122.4216979,,14.034395,0.1,22.185486,1590096273434
Fix,GT,37.6288425,-122.4216309,,13.91206,0.1,27.388367,1590096274434
Fix,GT,37.6289482,-122.4215465,,13.872828,0.1,36.17929,1590096275434
Fix,GT,37.6290399,-122.4214398,,13.879456,0.1,47.166595,1590096276434
Fix,GT,37.629115,-122.4213121,,14.145529,0.1,57.052948,1590096277434
Fix,GT,37.6291783,-122.4211702,,14.489576,0.1,62.157074,1590096278434
Fix,GT,37.6292376,-122.4210239,,14.489607,0.1,62.995667,1590096279434
Fix,GT,37.6292969,-122.4208787,,14.281248,0.1,62.641327,1590096280434
Fix,GT,37.6293545,-122.4207372,,13.688759,0.1,62.964264,1590096281434
Fix,GT,37.6294075,-122.4206036,,12.544443,0.1,63.64435,1590096282434
Fix,GT,37.6294542,-122.4204833,,11.112838,0.1,63.791992,1590096283434
Fix,GT,37.6294955,-122.4203782,,9.612196,0.1,63.44211,1590096284434
Fix,GT,37.6295304,-122.420291,,7.4710135,0.1,62.870544,1590096285434
Fix,GT,37.6295551,-122.4202302,,4.4622006,0.1,62.636566,1590096286434
Fix,GT,37.6295677,-122.4201992,,1.9263532,0.1,62.736786,1590096287434
Fix,GT,37.6295738,-122.4201843,,1.3974895,0.1,62.80362,1590096288434
Fix,GT,37.6295819,-122.420164,,2.8271403,0.1,62.88086,1590096289434
Fix,GT,37.6295975,-122.4201246,,4.9274354,0.1,63.113922,1590096290434
Fix,GT,37.629621,-122.420065,,6.752223,0.1,63.618713,1590096291434
Fix,GT,37.6296509,-122.4199879,,8.376337,0.1,63.817474,1590096292434
Fix,GT,37.629687,-122.4198951,,9.757038,0.1,63.79599,1590096293434
Fix,GT,37.6297272,-122.4197911,,10.555306,0.1,64.0856,1590096294434
Fix,GT,37.6297705,-122.4196808,,11.204535,0.1,63.157562,1590096295434
Fix,GT,37.6298207,-122.4195655,,12.124632,0.1,60.191742,1590096296434
Fix,GT,37.6298809,-122.4194442,,13.150728,0.1,56.514343,1590096297434
Fix,GT,37.6299518,-122.4193206,,13.780274,0.1,52.5849,1590096298434
Fix,GT,37.6300316,-122.4192003,,13.927338,0.1,48.503784,1590096299434
Fix,GT,37.6301173,-122.4190849,,13.957277,0.1,46.214294,1590096300434
Fix,GT,37.6302039,-122.4189717,,13.801481,0.1,46.016754,1590096301434
Fix,GT,37.630289,-122.4188602,,13.471361,0.1,46.25891,1590096302434
Fix,GT,37.6303706,-122.4187512,,12.899693,0.1,46.881775,1590096303434
Fix,GT,37.6304471,-122.4186454,,12.250406,0.1,48.22641,1590096304434
Fix,GT,37.6305169,-122.4185412,,11.729031,0.1,50.887573,1590096305434
Fix,GT,37.6305783,-122.4184372,,11.063522,0.1,54.970398,1590096306434
Fix,GT,37.6306291,-122.4183365,,9.844519,0.1,58.99295,1590096307434
Fix,GT,37.6306681,-122.4182482,,7.893485,0.1,61.625,1590096308434
Fix,GT,37.6306965,-122.4181804,,5.594657,0.1,62.251465,1590096309434
Fix,GT,37.630715,-122.4181368,,3.1578283,0.1,61.95401,1590096310434
Fix,GT,37.6307244,-122.4181149,,1.3393749,0.1,61.842346,1590096311434
Fix,GT,37.6307276,-122.4181074,,0.37095386,0.1,61.80371,1590096312434
Fix,GT,37.6307281,-122.4181064,,0.020665422,0.1,61.785797,1590096313434
Fix,GT,37.6307281,-122.4181065,,0.015494246,0.1,61.78534,1590096314434
Fix,GT,37.630728,-122.4181066,,0.011475151,0.1,61.785004,1590096315434
Fix,GT,37.630728,-122.4181067,,0.008561409,0.1,61.78485,1590096316434
Fix,GT,37.630728,-122.4181068,,0.006503864,0.1,61.784576,1590096317434
Fix,GT,37.6307279,-122.4181069,,0.0035015075,0.1,61.784607,1590096318434
Fix,GT,37.6307283,-122.4181058,,0.3842829,0.1,61.7623,1590096319434
Fix,GT,37.6307326,-122.4180963,,1.7527229,0.1,61.35901,1590096320434
Fix,GT,37.6307454,-122.4180699,,3.6679044,0.1,59.16519,1590096321434
Fix,GT,37.6307693,-122.4180305,,5.171871,0.1,52.466553,1590096322434
Fix,GT,37.6308061,-122.4179881,,6.1069303,0.1,40.933167,1590096323434
Fix,GT,37.6308555,-122.4179536,,6.667041,0.1,26.356598,1590096324434
Fix,GT,37.6309138,-122.4179361,,6.9462824,0.1,9.867462,1590096325434
Fix,GT,37.630976,-122.4179372,,7.1870794,0.1,356.71167,1590096326434
Fix,GT,37.6310422,-122.4179504,,7.954163,0.1,349.92883,1590096327434
Fix,GT,37.6311167,-122.4179722,,9.00173,0.1,345.87628,1590096328434
Fix,GT,37.6311968,-122.4180024,,9.524851,0.1,342.34805,1590096329434
Fix,GT,37.6312785,-122.4180383,,9.719123,0.1,340.04294,1590096330434
Fix,GT,37.6313585,-122.4180762,,9.1922245,0.1,339.12106,1590096331434
Fix,GT,37.6314302,-122.4181111,,7.8601475,0.1,338.59906,1590096332434
Fix,GT,37.6314912,-122.4181416,,6.845353,0.1,338.01285,1590096333434
Fix,GT,37.6315454,-122.4181694,,6.123911,0.1,337.57812,1590096334434
Fix,GT,37.6315928,-122.418194,,5.2463646,0.1,337.41913,1590096335434
Fix,GT,37.6316327,-122.4182148,,4.2102904,0.1,337.34982,1590096336434
Fix,GT,37.6316635,-122.4182309,,3.2444172,0.1,337.28098,1590096337434
Fix,GT,37.6316867,-122.4182432,,2.4199781,0.1,337.2048,1590096338434
Fix,GT,37.6317044,-122.4182524,,1.8696562,0.1,337.14117,1590096339434
Fix,GT,37.6317186,-122.4182599,,1.6531324,0.1,337.1849,1590096340434
Fix,GT,37.6317318,-122.4182667,,1.4630557,0.1,337.30298,1590096341434
Fix,GT,37.6317425,-122.4182723,,1.0635473,0.1,337.3756,1590096342434
Fix,GT,37.6317497,-122.4182761,,0.67659795,0.1,337.40723,1590096343434
Fix,GT,37.6317537,-122.4182782,,0.29534137,0.1,337.3983,1590096344434
Fix,GT,37.631755,-122.4182788,,0.044890422,0.1,337.38937,1590096345434
Fix,GT,37.6317551,-122.4182789,,0.0034131357,0.1,337.38535,1590096346434
Fix,GT,37.6317551,-122.4182788,,0.0033546933,0.1,337.3849,1590096347434
Fix,GT,37.6317551,-122.4182788,,0.002654338,0.1,337.38602,1590096348434
Fix,GT,37.6317551,-122.4182788,,0.0008003334,0.1,337.38644,1590096349434
Fix,GT,37.6317551,-122.4182788,,0.0,0.1,337.38693,1590096350434
Fix,GT,37.6317551,-122.4182788,,0.0013726776,0.1,337.3876,1590096351434
Fix,GT,37.6317551,-122.4182788,,0.0026577576,0.1,337.38745,1590096352434
Fix,GT,37.6317551,-122.4182788,,0.0017457225,0.1,337.388,1590096353434
Fix,GT,37.6317551,-122.4182788,,0.0017709632,0.1,337.389,1590096354434
Fix,GT,37.6317551,-122.4182788,,0.0016995171,0.1,337.38962,1590096355434
Fix,GT,37.6317551,-122.4182788,,0.0017936815,0.1,337.38983,1590096356434
Fix,GT,37.6317551,-122.4182788,,0.0022145468,0.1,337.39044,1590096357434
Fix,GT,37.6317551,-122.4182788,,0.0014142136,0.1,337.39154,1590096358434
Fix,GT,37.6317551,-122.4182788,,0.0017709632,0.1,337.39224,1590096359434
Fix,GT,37.6317551,-122.4182788,,0.002236068,0.1,337.3931,1590096360434
Fix,GT,37.6317551,-122.4182789,,0.001699517,0.1,337.39346,1590096361434
Fix,GT,37.6317551,-122.4182789,,0.0014340789,0.1,337.39346,1590096362434
Fix,GT,37.6317551,-122.4182789,,0.0017457225,0.1,337.39438,1590096363434
Fix,GT,37.6317551,-122.4182788,,0.0008003333,0.1,337.3946,1590096364434
Fix,GT,37.6317551,-122.4182788,,0.0009706301,0.1,337.39505,1590096365434
Fix,GT,37.6317556,-122.4182791,,0.26509476,0.1,337.38324,1590096366434
Fix,GT,37.6317626,-122.4182828,,1.6342278,0.1,337.26013,1590096367434
Fix,GT,37.6317857,-122.418295,,3.9456892,0.1,337.0405,1590096368434
Fix,GT,37.6318275,-122.4183172,,6.066388,0.1,337.0109,1590096369434
Fix,GT,37.6318862,-122.4183481,,8.062117,0.1,337.1994,1590096370434
Fix,GT,37.6319608,-122.418387,,9.860922,0.1,337.41904,1590096371434
Fix,GT,37.6320481,-122.4184324,,10.986785,0.1,337.42337,1590096372434
Fix,GT,37.6321421,-122.4184812,,11.43475,0.1,337.58905,1590096373434
Fix,GT,37.6322384,-122.4185284,,11.403034,0.1,339.42136,1590096374434
Fix,GT,37.632334,-122.4185683,,10.908228,0.1,342.94,1590096375434
Fix,GT,37.6324268,-122.4185975,,10.330994,0.1,347.91568,1590096376434
Fix,GT,37.6325179,-122.4186104,,10.006956,0.1,357.22275,1590096377434
Fix,GT,37.6326067,-122.4185976,,9.888924,0.1,12.05307,1590096378434
Fix,GT,37.632689,-122.4185522,,10.179886,0.1,29.18811,1590096379434
Fix,GT,37.6327626,-122.4184761,,11.06477,0.1,43.353577,1590096380434
Fix,GT,37.6328314,-122.4183753,,12.338549,0.1,51.37909,1590096381434
Fix,GT,37.6328997,-122.4182564,,13.513851,0.1,55.33618,1590096382434
Fix,GT,37.6329696,-122.4181234,,14.581855,0.1,56.82596,1590096383434
Fix,GT,37.6330432,-122.4179802,,15.4840355,0.1,57.12784,1590096384434
Fix,GT,37.6331209,-122.4178288,,16.330875,0.1,57.015533,1590096385434
Fix,GT,37.6332033,-122.4176692,,17.297037,0.1,56.9097,1590096386434
Fix,GT,37.6332907,-122.4174995,,18.383625,0.1,57.07263,1590096387434
Fix,GT,37.6333828,-122.4173187,,19.53077,0.1,57.41217,1590096388434
Fix,GT,37.6334786,-122.4171251,,20.678127,0.1,58.664886,1590096389434
Fix,GT,37.6335739,-122.416917,,21.615116,0.1,61.021515,1590096390434
Fix,GT,37.6336643,-122.4166967,,22.004639,0.1,63.719177,1590096391434
Fix,GT,37.6337472,-122.4164704,,21.892754,0.1,66.324554,1590096392434
Fix,GT,37.6338211,-122.4162416,,21.681087,0.1,69.093506,1590096393434
Fix,GT,37.6338852,-122.4160102,,21.591225,0.1,72.036896,1590096394434
Fix,GT,37.6339403,-122.4157749,,21.693811,0.1,74.59271,1590096395434
Fix,GT,37.6339884,-122.4155358,,21.828762,0.1,76.52652,1590096396434
Fix,GT,37.6340302,-122.4152942,,21.799374,0.1,78.726746,1590096397434
Fix,GT,37.6340632,-122.4150512,,21.684025,0.1,81.68622,1590096398434
Fix,GT,37.6340859,-122.4148063,,21.848911,0.1,84.48685,1590096399434
Fix,GT,37.6341001,-122.414556,,22.468933,0.1,86.654144,1590096400434
Fix,GT,37.6341075,-122.4142974,,23.214176,0.1,88.809296,1590096401434
Fix,GT,37.6341078,-122.4140302,,23.937035,0.1,90.6998,1590096402434
Fix,GT,37.6341011,-122.4137551,,24.620556,0.1,92.58414,1590096403434
Fix,GT,37.6340862,-122.4134729,,25.284311,0.1,94.81836,1590096404434
Fix,GT,37.6340626,-122.4131848,,25.842781,0.1,96.70532,1590096405434
Fix,GT,37.6340324,-122.4128921,,26.272228,0.1,97.84863,1590096406434
Fix,GT,37.6339981,-122.4125954,,26.65115,0.1,98.5871,1590096407434
Fix,GT,37.6339606,-122.412295,,27.022102,0.1,99.147675,1590096408434
Fix,GT,37.6339207,-122.4119909,,27.37999,0.1,99.493805,1590096409434
Fix,GT,37.6338793,-122.4116833,,27.656513,0.1,99.64801,1590096410434
Fix,GT,37.633837,-122.4113736,,27.77148,0.1,99.75937,1590096411434
Fix,GT,37.6337945,-122.4110636,,27.72005,0.1,99.838684,1590096412434
Fix,GT,37.6337525,-122.4107545,,27.60876,0.1,99.74231,1590096413434
Fix,GT,37.6337114,-122.4104473,,27.370743,0.1,99.41254,1590096414434
Fix,GT,37.633672,-122.4101425,,27.157436,0.1,99.045166,1590096415434
Fix,GT,37.6336357,-122.4098393,,27.031887,0.1,97.99997,1590096416434
Fix,GT,37.6336058,-122.4095368,,26.823524,0.1,96.03363,1590096417434
Fix,GT,37.6335866,-122.4092353,,26.645298,0.1,93.065674,1590096418434
Fix,GT,37.6335806,-122.4089344,,26.595196,0.1,89.82251,1590096419434
Fix,GT,37.6335875,-122.4086325,,26.817566,0.1,87.07306,1590096420434
Fix,GT,37.6336052,-122.4083274,,27.226435,0.1,84.743866,1590096421434
Fix,GT,37.6336324,-122.4080193,,27.491205,0.1,82.53638,1590096422434
Fix,GT,37.6336675,-122.4077112,,27.43972,0.1,81.188354,1590096423434
Fix,GT,37.633705,-122.4074053,,27.176485,0.1,81.17175,1590096424434
Fix,GT,37.6337404,-122.4071027,,26.814156,0.1,81.69214,1590096425434
Fix,GT,37.6337727,-122.4068039,,26.400764,0.1,82.49072,1590096426434
Fix,GT,37.6338,-122.406509,,25.9915,0.1,83.99466,1590096427434
Fix,GT,37.6338173,-122.4062173,,25.626822,0.1,87.11957,1590096428434
Fix,GT,37.6338175,-122.4059289,,25.33221,0.1,92.5621,1590096429434
Fix,GT,37.633794,-122.4056445,,25.166298,0.1,98.62134,1590096430434
Fix,GT,37.6337482,-122.4053652,,25.196795,0.1,104.03027,1590096431434
Fix,GT,37.6336813,-122.4050917,,25.30484,0.1,109.61151,1590096432434
Fix,GT,37.6335927,-122.4048273,,25.34135,0.1,115.58801,1590096433434
Fix,GT,37.6334823,-122.4045765,,25.263187,0.1,121.818695,1590096434434
Fix,GT,37.6333517,-122.4043424,,25.195831,0.1,127.73779,1590096435434
Fix,GT,37.6332031,-122.4041264,,25.177101,0.1,133.32532,1590096436434
Fix,GT,37.6330388,-122.4039296,,25.19698,0.1,138.84085,1590096437434
Fix,GT,37.63286,-122.4037537,,25.220926,0.1,144.46912,1590096438434
Fix,GT,37.6326681,-122.4036008,,25.226969,0.1,150.25354,1590096439434
Fix,GT,37.6324647,-122.4034734,,25.224968,0.1,156.33899,1590096440434
Fix,GT,37.6322515,-122.4033737,,25.270979,0.1,162.12823,1590096441434
Fix,GT,37.6320307,-122.4032989,,25.517895,0.1,166.72174,1590096442434
Fix,GT,37.6318034,-122.4032433,,25.893635,0.1,170.37817,1590096443434
Fix,GT,37.631571,-122.4032017,,26.150791,0.1,172.66675,1590096444434
Fix,GT,37.6313366,-122.4031673,,26.203747,0.1,173.32678,1590096445434
Fix,GT,37.6311022,-122.4031342,,26.176846,0.1,173.30469,1590096446434
Fix,GT,37.6308676,-122.4031001,,26.252357,0.1,173.31494,1590096447434
Fix,GT,37.6306324,-122.4030661,,26.27665,0.1,173.36676,1590096448434
Fix,GT,37.6303983,-122.4030324,,25.988794,0.1,173.45044,1590096449434
Fix,GT,37.6301672,-122.4029992,,25.713648,0.1,173.4198,1590096450434
Fix,GT,37.629937,-122.4029677,,25.756493,0.1,173.82684,1590096451434
Fix,GT,37.6297051,-122.402938,,25.982023,0.1,174.21326,1590096452434
Fix,GT,37.6294712,-122.4029089,,26.210306,0.1,174.23962,1590096453434
Fix,GT,37.6292354,-122.4028786,,26.42922,0.1,173.8161,1590096454434
Fix,GT,37.6289977,-122.4028448,,26.658205,0.1,173.1117,1590096455434
Fix,GT,37.6287583,-122.4028077,,26.914062,0.1,172.70764,1590096456434
Fix,GT,37.6285164,-122.4027686,,27.199577,0.1,172.3758,1590096457434
Fix,GT,37.6282726,-122.4027259,,27.480497,0.1,171.50208,1590096458434
Fix,GT,37.628027,-122.4026768,,27.727602,0.1,170.38538,1590096459434
Fix,GT,37.6277799,-122.4026216,,27.981665,0.1,169.51685,1590096460434
Fix,GT,37.6275314,-122.4025614,,28.221634,0.1,168.5434,1590096461434
Fix,GT,37.6272818,-122.4024947,,28.439003,0.1,167.37341,1590096462434
Fix,GT,37.6270316,-122.4024212,,28.636837,0.1,166.21582,1590096463434
Fix,GT,37.6267808,-122.4023411,,28.818787,0.1,165.10193,1590096464434
Fix,GT,37.6265299,-122.402254,,28.93472,0.1,163.74744,1590096465434
Fix,GT,37.6262813,-122.4021578,,28.798439,0.1,161.76764,1590096466434
Fix,GT,37.6260372,-122.4020536,,28.459755,0.1,160.56714,1590096467434
Fix,GT,37.6257964,-122.401948,,28.202082,0.1,160.7348,1590096468434
Fix,GT,37.6255565,-122.401845,,28.08125,0.1,161.38379,1590096469434
Fix,GT,37.6253161,-122.4017469,,27.9948,0.1,162.2649,1590096470434
Fix,GT,37.6250757,-122.4016529,,27.87318,0.1,162.73132,1590096471434
Fix,GT,37.6248359,-122.4015614,,27.732937,0.1,163.13867,1590096472434
Fix,GT,37.6245971,-122.4014716,,27.636627,0.1,163.19159,1590096473434
Fix,GT,37.6243585,-122.4013818,,27.64141,0.1,163.19568,1590096474434
Fix,GT,37.6241203,-122.401292,,27.521555,0.1,163.05463,1590096475434
Fix,GT,37.6238844,-122.4012016,,27.198902,0.1,162.7909,1590096476434
Fix,GT,37.623652,-122.4011119,,26.75582,0.1,162.80298,1590096477434
Fix,GT,37.6234237,-122.4010235,,26.298912,0.1,162.73047,1590096478434
Fix,GT,37.6231986,-122.4009357,,26.099455,0.1,162.53418,1590096479434
Fix,GT,37.6229738,-122.4008477,,26.218567,0.1,162.56268,1590096480434
Fix,GT,37.6227469,-122.4007602,,26.453903,0.1,163.09155,1590096481434
Fix,GT,37.622517,-122.4006751,,26.73819,0.1,163.6781,1590096482434
Fix,GT,37.6222842,-122.4005915,,26.995323,0.1,163.8003,1590096483434
Fix,GT,37.622049,-122.4005051,,27.420307,0.1,163.41864,1590096484434
Fix,GT,37.6218088,-122.4004158,,28.162977,0.1,163.48285,1590096485434
Fix,GT,37.6215621,-122.400326,,28.845642,0.1,163.97021,1590096486434
Fix,GT,37.6213098,-122.4002368,,29.296637,0.1,164.3811,1590096487434
Fix,GT,37.621054,-122.4001489,,29.512749,0.1,164.77362,1590096488434
Fix,GT,37.620797,-122.4000619,,29.582489,0.1,164.8695,1590096489434
Fix,GT,37.6205391,-122.3999749,,29.681927,0.1,164.83856,1590096490434
Fix,GT,37.6202804,-122.3998876,,29.793514,0.1,164.87933,1590096491434
Fix,GT,37.6200205,-122.3998003,,29.93992,0.1,164.90881,1590096492434
Fix,GT,37.6197592,-122.3997123,,30.099504,0.1,164.8263,1590096493434
Fix,GT,37.6194967,-122.3996236,,30.206848,0.1,164.80432,1590096494434
Fix,GT,37.6192337,-122.3995345,,30.228256,0.1,164.84692,1590096495434
Fix,GT,37.6189709,-122.3994456,,30.149513,0.1,164.8573,1590096496434
Fix,GT,37.6187093,-122.3993574,,29.974752,0.1,164.91345,1590096497434
Fix,GT,37.6184494,-122.3992701,,29.728275,0.1,164.96533,1590096498434
Fix,GT,37.6181914,-122.3991836,,29.55619,0.1,164.99805,1590096499434
Fix,GT,37.6179342,-122.3990976,,29.558733,0.1,165.01587,1590096500434
Fix,GT,37.6176767,-122.3990113,,29.621086,0.1,165.0028,1590096501434
Fix,GT,37.617419,-122.3989245,,29.561485,0.1,164.98114,1590096502434
Fix,GT,37.617162,-122.3988379,,29.500072,0.1,164.8836,1590096503434
Fix,GT,37.6169058,-122.3987502,,29.43032,0.1,164.52136,1590096504434
Fix,GT,37.616651,-122.39866,,29.383713,0.1,163.94043,1590096505434
Fix,GT,37.6163972,-122.3985652,,29.462315,0.1,162.8175,1590096506434
Fix,GT,37.6161441,-122.3984626,,29.604034,0.1,161.3258,1590096507434
Fix,GT,37.6158921,-122.3983508,,29.756031,0.1,159.66968,1590096508434
Fix,GT,37.6156417,-122.3982291,,29.87494,0.1,157.98645,1590096509434
Fix,GT,37.6153931,-122.398098,,29.99125,0.1,156.39429,1590096510434
Fix,GT,37.6151466,-122.3979573,,30.131012,0.1,154.62585,1590096511434
Fix,GT,37.6149026,-122.3978062,,30.261345,0.1,152.84283,1590096512434
Fix,GT,37.614661,-122.3976459,,30.414097,0.1,151.36719,1590096513434
Fix,GT,37.6144211,-122.3974776,,30.560677,0.1,150.18384,1590096514434
Fix,GT,37.6141835,-122.3973025,,30.645985,0.1,148.85461,1590096515434
Fix,GT,37.6139489,-122.3971193,,30.743603,0.1,147.12329,1590096516434
Fix,GT,37.613718,-122.3969265,,30.787354,0.1,145.28638,1590096517434
Fix,GT,37.6134922,-122.3967251,,30.720528,0.1,143.82294,1590096518434
Fix,GT,37.6132705,-122.396517,,30.749454,0.1,142.57922,1590096519434
Fix,GT,37.6130518,-122.3963025,,30.831646,0.1,141.28409,1590096520434
Fix,GT,37.6128365,-122.396081,,30.925426,0.1,139.86737,1590096521434
Fix,GT,37.6126248,-122.3958522,,31.086657,0.1,138.46002,1590096522434
Fix,GT,37.6124167,-122.3956151,,31.297966,0.1,136.88849,1590096523434
Fix,GT,37.6122122,-122.3953695,,31.507282,0.1,135.45819,1590096524434
Fix,GT,37.6120115,-122.3951158,,31.69935,0.1,133.94733,1590096525434
Fix,GT,37.6118151,-122.3948539,,31.8516,0.1,132.42096,1590096526434
Fix,GT,37.6116235,-122.394585,,31.93693,0.1,131.09216,1590096527434
Fix,GT,37.6114362,-122.3943103,,31.959282,0.1,129.98694,1590096528434
Fix,GT,37.611252,-122.3940318,,31.997028,0.1,129.24924,1590096529434
Fix,GT,37.6110695,-122.3937509,,32.056335,0.1,128.914,1590096530434
Fix,GT,37.6108879,-122.3934683,,32.107704,0.1,128.71954,1590096531434
Fix,GT,37.6107065,-122.3931847,,32.138508,0.1,128.4476,1590096532434
Fix,GT,37.6105263,-122.3929,,32.08275,0.1,128.12112,1590096533434
Fix,GT,37.610348,-122.3926155,,31.837475,0.1,127.97351,1590096534434
Fix,GT,37.6101718,-122.3923337,,31.459702,0.1,128.18323,1590096535434
Fix,GT,37.6099962,-122.3920563,,31.126781,0.1,128.59299,1590096536434
Fix,GT,37.609821,-122.3917829,,30.890472,0.1,128.82532,1590096537434
Fix,GT,37.6096462,-122.3915118,,30.75484,0.1,128.87119,1590096538434
Fix,GT,37.6094719,-122.3912416,,30.678062,0.1,128.87201,1590096539434
Fix,GT,37.6092977,-122.390972,,30.614243,0.1,128.97931,1590096540434
Fix,GT,37.6091238,-122.3907032,,30.545956,0.1,128.96536,1590096541434
Fix,GT,37.6089505,-122.3904351,,30.471588,0.1,128.9317,1590096542434
Fix,GT,37.6087774,-122.3901676,,30.430801,0.1,129.06995,1590096543434
Fix,GT,37.6086037,-122.3899008,,30.470673,0.1,129.22882,1590096544434
Fix,GT,37.6084289,-122.3896338,,30.590734,0.1,129.36841,1590096545434
Fix,GT,37.6082532,-122.389366,,30.701962,0.1,129.32983,1590096546434
Fix,GT,37.6080775,-122.389097,,30.749008,0.1,129.16437,1590096547434
Fix,GT,37.6079019,-122.3888274,,30.806614,0.1,129.17462,1590096548434
Fix,GT,37.6077256,-122.3885574,,30.894375,0.1,129.27698,1590096549434
Fix,GT,37.6075484,-122.3882866,,31.02343,0.1,129.28925,1590096550434
Fix,GT,37.6073705,-122.3880147,,31.155827,0.1,129.25446,1590096551434
Fix,GT,37.6071922,-122.3877414,,31.210573,0.1,129.10379,1590096552434
Fix,GT,37.6070147,-122.3874679,,31.105717,0.1,128.969,1590096553434
Fix,GT,37.6068382,-122.3871956,,30.89452,0.1,129.0362,1590096554434
Fix,GT,37.6066625,-122.386926,,30.677925,0.1,129.25763,1590096555434
Fix,GT,37.6064871,-122.386659,,30.45348,0.1,129.4494,1590096556434
Fix,GT,37.6063127,-122.3863948,,30.19014,0.1,129.51605,1590096557434
Fix,GT,37.6061401,-122.3861326,,29.927593,0.1,129.2879,1590096558434
Fix,GT,37.6059694,-122.3858713,,29.800562,0.1,129.15143,1590096559434
Fix,GT,37.6057992,-122.3856106,,29.764345,0.1,129.2663,1590096560434
Fix,GT,37.6056292,-122.3853504,,29.67281,0.1,129.1637,1590096561434
Fix,GT,37.6054607,-122.3850908,,29.455761,0.1,128.90485,1590096562434
Fix,GT,37.6052943,-122.3848334,,29.109314,0.1,128.95517,1590096563434
Fix,GT,37.6051292,-122.3845801,,28.749859,0.1,129.20929,1590096564434
Fix,GT,37.6049662,-122.3843297,,28.380138,0.1,129.01733,1590096565434
Fix,GT,37.6048059,-122.384082,,28.001564,0.1,128.94217,1590096566434
Fix,GT,37.6046475,-122.3838381,,27.61157,0.1,129.1236,1590096567434
Fix,GT,37.6044909,-122.3835984,,27.165598,0.1,129.1586,1590096568434
Fix,GT,37.6043371,-122.3833626,,26.663208,0.1,129.1766,1590096569434
Fix,GT,37.6041864,-122.3831309,,26.180199,0.1,129.05426,1590096570434
Fix,GT,37.6040389,-122.3829025,,25.837036,0.1,128.80826,1590096571434
Fix,GT,37.603893,-122.3826755,,25.778889,0.1,128.78955,1590096572434
Fix,GT,37.6037465,-122.3824479,,25.92872,0.1,129.02255,1590096573434
Fix,GT,37.6035986,-122.38222,,26.01446,0.1,129.17535,1590096574434
Fix,GT,37.60345,-122.3819917,,26.12056,0.1,129.23822,1590096575434
Fix,GT,37.6032999,-122.3817618,,26.40879,0.1,129.33832,1590096576434
Fix,GT,37.6031481,-122.3815298,,26.61039,0.1,129.33374,1590096577434
Fix,GT,37.6029956,-122.3812968,,26.609112,0.1,129.28296,1590096578434
Fix,GT,37.6028434,-122.3810647,,26.510927,0.1,129.51099,1590096579434
Fix,GT,37.6026909,-122.3808336,,26.53761,0.1,129.6467,1590096580434
Fix,GT,37.6025377,-122.3806018,,26.722023,0.1,129.4892,1590096581434
Fix,GT,37.6023839,-122.3803671,,27.001583,0.1,129.23486,1590096582434
Fix,GT,37.602229,-122.3801291,,27.28093,0.1,129.05731,1590096583434
Fix,GT,37.6020731,-122.3798885,,27.533365,0.1,128.89069,1590096584434
Fix,GT,37.6019171,-122.3796453,,27.636847,0.1,128.57666,1590096585434
Fix,GT,37.601762,-122.3794014,,27.48558,0.1,128.54132,1590096586434
Fix,GT,37.6016073,-122.3791598,,27.280722,0.1,128.95258,1590096587434
Fix,GT,37.6014524,-122.3789212,,27.122879,0.1,129.34949,1590096588434
Fix,GT,37.6012975,-122.3786845,,27.001408,0.1,129.22409,1590096589434
Fix,GT,37.6011434,-122.3784486,,26.885769,0.1,129.32599,1590096590434
Fix,GT,37.6009895,-122.3782144,,26.735886,0.1,129.48575,1590096591434
Fix,GT,37.600836,-122.3779819,,26.638813,0.1,129.45294,1590096592434
Fix,GT,37.6006827,-122.3777494,,26.711735,0.1,129.52203,1590096593434
Fix,GT,37.6005288,-122.3775157,,26.866966,0.1,129.4538,1590096594434
Fix,GT,37.6003747,-122.3772801,,27.013847,0.1,129.18625,1590096595434
Fix,GT,37.6002203,-122.3770427,,27.123873,0.1,129.20367,1590096596434
Fix,GT,37.6000649,-122.3768054,,27.1093,0.1,129.51569,1590096597434
Fix,GT,37.5999092,-122.3765695,,27.005558,0.1,129.60297,1590096598434
Fix,GT,37.5997544,-122.3763344,,26.902822,0.1,129.38562,1590096599434
Fix,GT,37.5996012,-122.3760986,,26.875265,0.1,128.98502,1590096600434
Fix,GT,37.5994484,-122.3758621,,26.958965,0.1,128.9018,1590096601434
Fix,GT,37.5992955,-122.3756242,,27.066172,0.1,128.77084,1590096602434
Fix,GT,37.5991423,-122.3753848,,27.192577,0.1,128.68408,1590096603434
Fix,GT,37.5989883,-122.3751443,,27.334146,0.1,128.80948,1590096604434
Fix,GT,37.5988329,-122.3749029,,27.49402,0.1,128.93335,1590096605434
Fix,GT,37.5986765,-122.3746608,,27.573456,0.1,128.95099,1590096606434
Fix,GT,37.5985201,-122.3744184,,27.553267,0.1,128.93512,1590096607434
Fix,GT,37.5983638,-122.3741761,,27.56369,0.1,128.91473,1590096608434
Fix,GT,37.5982071,-122.3739332,,27.689648,0.1,128.91473,1590096609434
Fix,GT,37.5980492,-122.3736882,,27.960278,0.1,128.90009,1590096610434
Fix,GT,37.5978898,-122.3734405,,28.28933,0.1,128.9159,1590096611434
Fix,GT,37.5977288,-122.3731904,,28.531616,0.1,128.92819,1590096612434
Fix,GT,37.5975663,-122.3729384,,28.72005,0.1,128.8963,1590096613434
Fix,GT,37.597403,-122.3726854,,28.807251,0.1,128.94861,1590096614434
Fix,GT,37.5972395,-122.3724326,,28.74253,0.1,129.0177,1590096615434
Fix,GT,37.5970762,-122.3721808,,28.676651,0.1,129.20969,1590096616434
Fix,GT,37.5969123,-122.3719295,,28.730968,0.1,129.41162,1590096617434
Fix,GT,37.596747,-122.3716782,,28.841206,0.1,129.48703,1590096618434
Fix,GT,37.5965813,-122.3714261,,28.906788,0.1,129.48297,1590096619434
Fix,GT,37.5964155,-122.3711735,,28.956406,0.1,129.40363,1590096620434
Fix,GT,37.5962493,-122.3709201,,29.056602,0.1,129.36237,1590096621434
Fix,GT,37.5960827,-122.3706655,,29.18734,0.1,129.28992,1590096622434
Fix,GT,37.5959154,-122.3704096,,29.288969,0.1,129.24213,1590096623434
Fix,GT,37.5957481,-122.3701529,,29.271759,0.1,129.09998,1590096624434
Fix,GT,37.5955819,-122.3698962,,29.18069,0.1,129.01868,1590096625434
Fix,GT,37.5954158,-122.3696402,,29.193394,0.1,129.1846,1590096626434
Fix,GT,37.5952486,-122.3693845,,29.263126,0.1,129.29791,1590096627434
Fix,GT,37.5950814,-122.3691285,,29.23226,0.1,129.30359,1590096628434
Fix,GT,37.5949144,-122.3688726,,29.240496,0.1,129.28995,1590096629434
Fix,GT,37.5947471,-122.368617,,29.195456,0.1,129.32162,1590096630434
Fix,GT,37.5945805,-122.3683627,,28.957859,0.1,129.33911,1590096631434
Fix,GT,37.5944159,-122.3681109,,28.613918,0.1,129.31006,1590096632434
Fix,GT,37.5942532,-122.3678623,,28.253834,0.1,129.39209,1590096633434
Fix,GT,37.5940919,-122.3676169,,27.98268,0.1,129.58496,1590096634434
Fix,GT,37.5939312,-122.3673738,,27.87441,0.1,129.56583,1590096635434
Fix,GT,37.5937712,-122.3671306,,27.896696,0.1,129.38281,1590096636434
Fix,GT,37.5936111,-122.3668862,,28.041252,0.1,129.30145,1590096637434
Fix,GT,37.5934503,-122.3666397,,28.25602,0.1,129.18774,1590096638434
Fix,GT,37.5932886,-122.3663907,,28.517727,0.1,129.06528,1590096639434
Fix,GT,37.5931254,-122.3661393,,28.80353,0.1,129.16379,1590096640434
Fix,GT,37.5929603,-122.3658856,,29.08603,0.1,129.17975,1590096641434
Fix,GT,37.5927942,-122.3656289,,29.336887,0.1,128.83575,1590096642434
Fix,GT,37.5926277,-122.3653691,,29.570438,0.1,128.80927,1590096643434
Fix,GT,37.5924592,-122.3651089,,29.648724,0.1,129.17108,1590096644434
Fix,GT,37.5922895,-122.3648509,,29.429386,0.1,129.62094,1590096645434
Fix,GT,37.5921199,-122.3645962,,29.228588,0.1,129.94006,1590096646434
Fix,GT,37.5919508,-122.3643433,,29.120695,0.1,129.95047,1590096647434
Fix,GT,37.5917827,-122.3640913,,28.957016,0.1,129.80215,1590096648434
Fix,GT,37.591616,-122.3638406,,28.746311,0.1,129.71402,1590096649434
Fix,GT,37.5914506,-122.3635916,,28.57816,0.1,129.76773,1590096650434
Fix,GT,37.5912861,-122.3633433,,28.51839,0.1,129.59485,1590096651434
Fix,GT,37.591122,-122.3630946,,28.566484,0.1,129.55847,1590096652434
Fix,GT,37.5909573,-122.3628452,,28.687916,0.1,129.61938,1590096653434
Fix,GT,37.5907918,-122.3625944,,28.888298,0.1,129.52979,1590096654434
Fix,GT,37.5906254,-122.362341,,29.148891,0.1,129.33969,1590096655434
Fix,GT,37.5904581,-122.3620843,,29.427101,0.1,129.1175,1590096656434
Fix,GT,37.5902903,-122.3618248,,29.624538,0.1,128.86993,1590096657434
Fix,GT,37.5901225,-122.3615633,,29.680908,0.1,128.71991,1590096658434
Fix,GT,37.5899549,-122.3613015,,29.670605,0.1,128.73407,1590096659434
Fix,GT,37.5897879,-122.3610396,,29.61542,0.1,128.42786,1590096660434
Fix,GT,37.5896226,-122.3607768,,29.58411,0.1,128.15588,1590096661434
Fix,GT,37.5894574,-122.3605134,,29.69221,0.1,128.14334,1590096662434
Fix,GT,37.5892927,-122.3602476,,29.802998,0.1,127.334595,1590096663434
Fix,GT,37.5891325,-122.359977,,29.79057,0.1,125.67737,1590096664434
Fix,GT,37.5889792,-122.3597005,,29.759533,0.1,123.882324,1590096665434
Fix,GT,37.588833,-122.3594189,,29.639408,0.1,122.197266,1590096666434
Fix,GT,37.5886948,-122.3591338,,29.319954,0.1,120.36038,1590096667434
Fix,GT,37.5885644,-122.3588477,,28.930836,0.1,119.18967,1590096668434
Fix,GT,37.588439,-122.3585629,,28.579895,0.1,118.51422,1590096669434
Fix,GT,37.5883186,-122.3582792,,28.24044,0.1,117.52197,1590096670434
Fix,GT,37.5882041,-122.357996,,27.885254,0.1,116.22629,1590096671434
Fix,GT,37.5880966,-122.3577132,,27.511486,0.1,114.634674,1590096672434
Fix,GT,37.5879966,-122.3574304,,27.19188,0.1,113.03693,1590096673434
Fix,GT,37.5879032,-122.3571471,,27.010025,0.1,111.80002,1590096674434
Fix,GT,37.5878147,-122.3568628,,26.938066,0.1,110.73599,1590096675434
Fix,GT,37.5877312,-122.3565763,,27.005024,0.1,109.23093,1590096676434
Fix,GT,37.5876531,-122.3562857,,27.220398,0.1,107.94275,1590096677434
Fix,GT,37.5875791,-122.3559905,,27.462078,0.1,106.82544,1590096678434
Fix,GT,37.5875093,-122.355691,,27.704071,0.1,105.520325,1590096679434
Fix,GT,37.5874445,-122.3553867,,27.952307,0.1,104.25748,1590096680434
Fix,GT,37.5873848,-122.3550784,,28.091316,0.1,102.84515,1590096681434
Fix,GT,37.5873317,-122.3547682,,27.926437,0.1,101.147095,1590096682434
Fix,GT,37.5872858,-122.3544593,,27.62331,0.1,99.82364,1590096683434
Fix,GT,37.587245,-122.3541513,,27.604305,0.1,98.90167,1590096684434
Fix,GT,37.587208,-122.353841,,27.808823,0.1,97.80243,1590096685434
Fix,GT,37.587177,-122.3535284,,27.854149,0.1,96.05548,1590096686434
Fix,GT,37.5871542,-122.3532144,,27.901697,0.1,94.14987,1590096687434
Fix,GT,37.5871382,-122.3528991,,27.911585,0.1,92.9032,1590096688434
Fix,GT,37.5871272,-122.3525836,,27.876335,0.1,91.89551,1590096689434
Fix,GT,37.5871199,-122.3522678,,27.954414,0.1,91.251526,1590096690434
Fix,GT,37.5871139,-122.3519504,,28.14142,0.1,91.12659,1590096691434
Fix,GT,37.5871075,-122.3516302,,28.440418,0.1,91.45407,1590096692434
Fix,GT,37.5870994,-122.3513065,,28.742962,0.1,91.72232,1590096693434
Fix,GT,37.5870903,-122.3509795,,29.052917,0.1,91.87033,1590096694434
Fix,GT,37.5870807,-122.3506491,,29.347178,0.1,91.86749,1590096695434
Fix,GT,37.5870714,-122.3503156,,29.590927,0.1,91.683075,1590096696434
Fix,GT,37.5870628,-122.3499795,,29.811378,0.1,91.60626,1590096697434
Fix,GT,37.5870541,-122.3496408,,30.031998,0.1,91.67688,1590096698434
Fix,GT,37.5870453,-122.3492997,,30.251741,0.1,91.64572,1590096699434
Fix,GT,37.5870366,-122.3489561,,30.460262,0.1,91.63971,1590096700434
Fix,GT,37.5870277,-122.3486105,,30.572056,0.1,91.67294,1590096701434
Fix,GT,37.5870188,-122.3482651,,30.418125,0.1,91.68881,1590096702434
Fix,GT,37.5870099,-122.347923,,30.023228,0.1,91.692474,1590096703434
Fix,GT,37.5870009,-122.3475855,,29.673697,0.1,91.76788,1590096704434
Fix,GT,37.5869918,-122.3472506,,29.595741,0.1,91.780396,1590096705434
Fix,GT,37.5869828,-122.346915,,29.726814,0.1,91.80182,1590096706434
Fix,GT,37.5869734,-122.3465779,,29.864954,0.1,91.951294,1590096707434
Fix,GT,37.5869631,-122.3462394,,29.934883,0.1,92.122925,1590096708434
Fix,GT,37.5869521,-122.3459011,,29.849697,0.1,92.20099,1590096709434
Fix,GT,37.5869414,-122.3455645,,29.649864,0.1,91.97992,1590096710434
Fix,GT,37.586932,-122.3452303,,29.42277,0.1,91.75424,1590096711434
Fix,GT,37.5869234,-122.3448988,,29.176098,0.1,91.677185,1590096712434
Fix,GT,37.5869151,-122.3445702,,28.923746,0.1,91.61847,1590096713434
Fix,GT,37.586907,-122.3442435,,28.869358,0.1,91.60919,1590096714434
Fix,GT,37.586899,-122.343916,,29.032928,0.1,91.58441,1590096715434
Fix,GT,37.5868907,-122.3435862,,29.210138,0.1,91.68881,1590096716434
Fix,GT,37.5868816,-122.3432544,,29.451477,0.1,91.868225,1590096717434
Fix,GT,37.5868723,-122.3429198,,29.687057,0.1,91.77402,1590096718434
Fix,GT,37.5868635,-122.3425825,,29.924366,0.1,91.62195,1590096719434
Fix,GT,37.5868555,-122.3422426,,30.160309,0.1,91.44174,1590096720434
Fix,GT,37.5868482,-122.3418999,,30.391651,0.1,91.328674,1590096721434
Fix,GT,37.5868408,-122.3415545,,30.63633,0.1,91.48822,1590096722434
Fix,GT,37.5868323,-122.3412061,,30.906315,0.1,91.72061,1590096723434
Fix,GT,37.5868232,-122.3408549,,31.132423,0.1,91.678986,1590096724434
Fix,GT,37.5868142,-122.3405019,,31.237387,0.1,91.75229,1590096725434
Fix,GT,37.5868045,-122.3401482,,31.270336,0.1,91.892395,1590096726434
Fix,GT,37.5867947,-122.3397942,,31.304,0.1,91.77484,1590096727434
Fix,GT,37.5867855,-122.3394397,,31.350422,0.1,91.66351,1590096728434
Fix,GT,37.5867766,-122.3390847,,31.388357,0.1,91.727264,1590096729434
Fix,GT,37.5867672,-122.3387293,,31.415863,0.1,91.86139,1590096730434
Fix,GT,37.5867571,-122.3383738,,31.443436,0.1,91.93646,1590096731434
Fix,GT,37.5867469,-122.3380179,,31.42004,0.1,91.851074,1590096732434
Fix,GT,37.5867373,-122.3376632,,31.222088,0.1,91.77017,1590096733434
Fix,GT,37.5867275,-122.3373117,,30.907043,0.1,91.9483,1590096734434
Fix,GT,37.5867171,-122.3369636,,30.665976,0.1,92.01312,1590096735434
Fix,GT,37.5867068,-122.3366174,,30.538994,0.1,91.84061,1590096736434
Fix,GT,37.5866976,-122.3362725,,30.416033,0.1,91.61624,1590096737434
Fix,GT,37.5866893,-122.3359291,,30.309471,0.1,91.523834,1590096738434
Fix,GT,37.5866814,-122.3355866,,30.213644,0.1,91.45746,1590096739434
Fix,GT,37.5866743,-122.3352455,,30.039755,0.1,91.31348,1590096740434
Fix,GT,37.586667,-122.3349069,,29.775043,0.1,91.62604,1590096741434
Fix,GT,37.5866575,-122.3345718,,29.447609,0.1,92.07919,1590096742434
Fix,GT,37.5866462,-122.3342408,,29.057457,0.1,92.619446,1590096743434
Fix,GT,37.5866302,-122.3339147,,28.646896,0.1,94.393555,1590096744434
Fix,GT,37.5866038,-122.333594,,28.285635,0.1,97.12048,1590096745434
Fix,GT,37.5865662,-122.3332784,,28.08601,0.1,99.50641,1590096746434
Fix,GT,37.586519,-122.3329661,,28.070023,0.1,101.59802,1590096747434
Fix,GT,37.5864625,-122.3326564,,28.029968,0.1,103.931366,1590096748434
Fix,GT,37.5863952,-122.332351,,27.903502,0.1,106.898865,1590096749434
Fix,GT,37.586315,-122.3320516,,27.917944,0.1,109.96234,1590096750434
Fix,GT,37.5862222,-122.3317567,,28.108915,0.1,112.76117,1590096751434
Fix,GT,37.586117,-122.3314659,,28.290888,0.1,115.73236,1590096752434
Fix,GT,37.5859993,-122.3311805,,28.483414,0.1,118.51926,1590096753434
Fix,GT,37.5858707,-122.3309,,28.647709,0.1,121.013916,1590096754434
Fix,GT,37.5857317,-122.3306265,,28.649345,0.1,123.820496,1590096755434
Fix,GT,37.5855822,-122.3303625,,28.578234,0.1,126.85452,1590096756434
Fix,GT,37.5854224,-122.3301094,,28.468966,0.1,129.67865,1590096757434
Fix,GT,37.5852541,-122.3298675,,28.252922,0.1,132.2572,1590096758434
Fix,GT,37.5850789,-122.3296371,,28.009731,0.1,134.8505,1590096759434
Fix,GT,37.5848972,-122.3294181,,27.873642,0.1,137.29926,1590096760434
Fix,GT,37.5847094,-122.3292081,,27.931187,0.1,138.89264,1590096761434
Fix,GT,37.5845184,-122.3290004,,28.170303,0.1,139.04822,1590096762434
Fix,GT,37.5843259,-122.3287901,,28.462212,0.1,138.77579,1590096763434
Fix,GT,37.5841323,-122.3285769,,28.640484,0.1,138.49829,1590096764434
Fix,GT,37.5839388,-122.3283622,,28.625572,0.1,138.3848,1590096765434
Fix,GT,37.5837457,-122.328148,,28.535797,0.1,138.50641,1590096766434
Fix,GT,37.5835531,-122.3279352,,28.384499,0.1,138.56506,1590096767434
Fix,GT,37.5833614,-122.3277241,,28.217537,0.1,138.703,1590096768434
Fix,GT,37.5831697,-122.3275148,,28.186378,0.1,138.92065,1590096769434
Fix,GT,37.5829775,-122.3273056,,28.275133,0.1,139.02258,1590096770434
Fix,GT,37.5827842,-122.327096,,28.406052,0.1,139.13501,1590096771434
Fix,GT,37.5825899,-122.3268862,,28.459156,0.1,139.11624,1590096772434
Fix,GT,37.5823955,-122.3266754,,28.546822,0.1,138.97021,1590096773434
Fix,GT,37.5822005,-122.3264627,,28.791256,0.1,138.89545,1590096774434
Fix,GT,37.582004,-122.3262481,,28.97663,0.1,138.88873,1590096775434
Fix,GT,37.5818064,-122.3260331,,29.042439,0.1,139.08307,1590096776434
Fix,GT,37.5816082,-122.3258181,,29.096323,0.1,139.00363,1590096777434
Fix,GT,37.5814098,-122.325602,,29.21502,0.1,138.96848,1590096778434
Fix,GT,37.5812104,-122.3253854,,29.271114,0.1,139.10223,1590096779434
Fix,GT,37.5810108,-122.3251694,,29.14619,0.1,139.12845,1590096780434
Fix,GT,37.5808126,-122.3249552,,28.877653,0.1,139.16507,1590096781434
Fix,GT,37.5806166,-122.3247433,,28.507149,0.1,139.09314,1590096782434
Fix,GT,37.5804236,-122.3245336,,28.10913,0.1,139.01239,1590096783434
Fix,GT,37.5802334,-122.3243272,,27.710503,0.1,139.12598,1590096784434
Fix,GT,37.5800454,-122.3241236,,27.414593,0.1,139.11688,1590096785434
Fix,GT,37.5798591,-122.3239207,,27.3535,0.1,138.9031,1590096786434
Fix,GT,37.5796727,-122.3237173,,27.479378,0.1,138.9432,1590096787434
Fix,GT,37.5794848,-122.3235131,,27.649668,0.1,138.99808,1590096788434
Fix,GT,37.579296,-122.3233076,,27.803993,0.1,138.95004,1590096789434
Fix,GT,37.5791063,-122.3231012,,27.880474,0.1,138.95657,1590096790434
Fix,GT,37.5789161,-122.3228946,,27.944355,0.1,139.03244,1590096791434
Fix,GT,37.5787248,-122.3226875,,28.137049,0.1,139.18878,1590096792434
Fix,GT,37.5785315,-122.3224794,,28.370651,0.1,139.25519,1590096793434
Fix,GT,37.5783366,-122.3222694,,28.625732,0.1,139.15118,1590096794434
Fix,GT,37.5781403,-122.3220572,,28.86298,0.1,139.14035,1590096795434
Fix,GT,37.5779423,-122.3218431,,29.088837,0.1,139.177,1590096796434
Fix,GT,37.5777428,-122.3216276,,29.318203,0.1,139.25067,1590096797434
Fix,GT,37.5775416,-122.3214107,,29.526342,0.1,139.17767,1590096798434
Fix,GT,37.5773398,-122.3211917,,29.635738,0.1,138.99689,1590096799434
Fix,GT,37.5771381,-122.3209719,,29.62194,0.1,138.93613,1590096800434
Fix,GT,37.5769367,-122.3207525,,29.546505,0.1,138.95474,1590096801434
Fix,GT,37.5767356,-122.320534,,29.49524,0.1,139.08832,1590096802434
Fix,GT,37.576534,-122.3203159,,29.562326,0.1,139.17523,1590096803434
Fix,GT,37.5763316,-122.3200966,,29.75542,0.1,139.0152,1590096804434
Fix,GT,37.5761286,-122.3198751,,29.913181,0.1,138.90002,1590096805434
Fix,GT,37.5759247,-122.3196526,,30.035294,0.1,138.9819,1590096806434
Fix,GT,37.5757197,-122.3194296,,30.168873,0.1,138.93594,1590096807434
Fix,GT,37.5755138,-122.3192054,,30.294073,0.1,138.98782,1590096808434
Fix,GT,37.5753073,-122.3189811,,30.27701,0.1,139.02048,1590096809434
Fix,GT,37.5751017,-122.3187577,,30.01468,0.1,138.97614,1590096810434
Fix,GT,37.5748987,-122.3185368,,29.604067,0.1,138.94159,1590096811434
Fix,GT,37.5746987,-122.3183189,,29.16357,0.1,138.92578,1590096812434
Fix,GT,37.5745015,-122.3181045,,28.721695,0.1,139.08386,1590096813434
Fix,GT,37.5743071,-122.3178938,,28.29826,0.1,139.16122,1590096814434
Fix,GT,37.574115,-122.3176856,,28.048183,0.1,139.02667,1590096815434
Fix,GT,37.5739241,-122.3174779,,28.0337,0.1,138.94977,1590096816434
Fix,GT,37.5737333,-122.3172701,,27.978165,0.1,138.91797,1590096817434
Fix,GT,37.573544,-122.3170631,,27.744984,0.1,138.80984,1590096818434
Fix,GT,37.5733567,-122.3168576,,27.456436,0.1,138.6907,1590096819434
Fix,GT,37.5731713,-122.3166542,,27.204895,0.1,138.80496,1590096820434
Fix,GT,37.5729867,-122.3164529,,27.071205,0.1,139.0729,1590096821434
Fix,GT,37.5728019,-122.3162527,,27.137447,0.1,139.23782,1590096822434
Fix,GT,37.5726157,-122.3160519,,27.34617,0.1,139.3252,1590096823434
Fix,GT,37.572428,-122.3158491,,27.587008,0.1,139.06992,1590096824434
Fix,GT,37.5722394,-122.3156439,,27.799194,0.1,138.99301,1590096825434
Fix,GT,37.5720493,-122.3154371,,28.017744,0.1,139.06396,1590096826434
Fix,GT,37.5718576,-122.3152285,,28.277592,0.1,138.96625,1590096827434
Fix,GT,37.5716643,-122.3150174,,28.58193,0.1,138.86792,1590096828434
Fix,GT,37.5714688,-122.3148041,,28.896935,0.1,139.06647,1590096829434
Fix,GT,37.5712705,-122.3145896,,29.205524,0.1,139.34082,1590096830434
Fix,GT,37.5710699,-122.3143735,,29.406548,0.1,139.19919,1590096831434
Fix,GT,37.5708695,-122.3141557,,29.380198,0.1,138.87231,1590096832434
Fix,GT,37.5706703,-122.3139377,,29.231417,0.1,138.87656,1590096833434
Fix,GT,37.570472,-122.3137219,,29.01044,0.1,139.13934,1590096834434
Fix,GT,37.570275,-122.3135088,,28.68416,0.1,139.17627,1590096835434
Fix,GT,37.5700807,-122.3132979,,28.308376,0.1,138.89569,1590096836434
Fix,GT,37.5698895,-122.3130884,,28.029423,0.1,138.7037,1590096837434
Fix,GT,37.5697,-122.3128803,,27.840376,0.1,138.82477,1590096838434
Fix,GT,37.569511,-122.3126749,,27.61592,0.1,139.30157,1590096839434
Fix,GT,37.5693227,-122.3124729,,27.343216,0.1,139.41754,1590096840434
Fix,GT,37.5691367,-122.3122722,,27.065578,0.1,138.97717,1590096841434
Fix,GT,37.5689532,-122.3120723,,26.861652,0.1,138.93701,1590096842434
Fix,GT,37.5687701,-122.3118743,,26.836256,0.1,139.37775,1590096843434
Fix,GT,37.5685852,-122.3116768,,27.063622,0.1,139.57495,1590096844434
Fix,GT,37.5683983,-122.3114771,,27.396206,0.1,139.47101,1590096845434
Fix,GT,37.5682099,-122.3112745,,27.617363,0.1,139.06378,1590096846434
Fix,GT,37.5680217,-122.3110694,,27.68699,0.1,138.77182,1590096847434
Fix,GT,37.5678337,-122.3108632,,27.712719,0.1,138.77917,1590096848434
Fix,GT,37.5676451,-122.3106567,,27.838966,0.1,138.84998,1590096849434
Fix,GT,37.567455,-122.3104492,,28.06309,0.1,138.94879,1590096850434
Fix,GT,37.5672629,-122.3102404,,28.341072,0.1,139.09204,1590096851434
Fix,GT,37.5670685,-122.31003,,28.612007,0.1,139.16336,1590096852434
Fix,GT,37.5668723,-122.309818,,28.821127,0.1,139.18362,1590096853434
Fix,GT,37.5666749,-122.3096045,,29.007877,0.1,139.11102,1590096854434
Fix,GT,37.5664765,-122.3093889,,29.210018,0.1,139.01129,1590096855434
Fix,GT,37.5662774,-122.3091719,,29.277872,0.1,138.8266,1590096856434
Fix,GT,37.5660786,-122.308955,,29.153786,0.1,139.06912,1590096857434
Fix,GT,37.5658793,-122.3087402,,29.193165,0.1,139.58209,1590096858434
Fix,GT,37.5656782,-122.308525,,29.481731,0.1,139.33087,1590096859434
Fix,GT,37.5654757,-122.3083064,,29.801083,0.1,139.1449,1590096860434
Fix,GT,37.5652712,-122.308085,,30.114422,0.1,139.12445,1590096861434
Fix,GT,37.5650648,-122.307861,,30.423447,0.1,139.0994,1590096862434
Fix,GT,37.5648561,-122.3076347,,30.77412,0.1,139.10641,1590096863434
Fix,GT,37.5646451,-122.3074056,,31.114286,0.1,139.05463,1590096864434
Fix,GT,37.5644319,-122.3071744,,31.406197,0.1,139.07953,1590096865434
Fix,GT,37.5642172,-122.3069414,,31.493233,0.1,139.04297,1590096866434
Fix,GT,37.5640027,-122.3067084,,31.41722,0.1,139.01672,1590096867434
Fix,GT,37.5637888,-122.3064762,,31.340689,0.1,139.12976,1590096868434
Fix,GT,37.5635757,-122.3062451,,31.069344,0.1,139.02832,1590096869434
Fix,GT,37.5633648,-122.3060158,,30.902105,0.1,138.95978,1590096870434
Fix,GT,37.563154,-122.3057865,,31.012772,0.1,139.04251,1590096871434
Fix,GT,37.5629429,-122.305557,,30.91626,0.1,138.97919,1590096872434
Fix,GT,37.5627336,-122.3053291,,30.57543,0.1,138.93286,1590096873434
Fix,GT,37.5625264,-122.3051032,,30.368269,0.1,138.91043,1590096874434
Fix,GT,37.5623203,-122.3048779,,30.312733,0.1,138.85687,1590096875434
Fix,GT,37.5621146,-122.304653,,30.21032,0.1,138.8479,1590096876434
Fix,GT,37.5619094,-122.3044299,,29.99828,0.1,139.09698,1590096877434
Fix,GT,37.5617056,-122.3042091,,29.74899,0.1,139.19305,1590096878434
Fix,GT,37.5615036,-122.3039907,,29.393967,0.1,139.14532,1590096879434
Fix,GT,37.5613045,-122.303775,,28.960417,0.1,139.11874,1590096880434
Fix,GT,37.5611084,-122.3035627,,28.525517,0.1,139.24121,1590096881434
Fix,GT,37.5609135,-122.3033535,,28.411892,0.1,139.5675,1590096882434
Fix,GT,37.560717,-122.3031455,,28.674503,0.1,140.00146,1590096883434
Fix,GT,37.5605167,-122.3029378,,28.958017,0.1,140.66748,1590096884434
Fix,GT,37.5603127,-122.3027309,,29.22416,0.1,141.26422,1590096885434
Fix,GT,37.5601057,-122.3025244,,29.427254,0.1,141.60657,1590096886434
Fix,GT,37.5598966,-122.3023185,,29.506151,0.1,141.99835,1590096887434
Fix,GT,37.5596862,-122.3021151,,29.417221,0.1,142.66107,1590096888434
Fix,GT,37.5594747,-122.3019151,,29.360214,0.1,143.25653,1590096889434
Fix,GT,37.5592614,-122.3017175,,29.450247,0.1,143.69702,1590096890434
Fix,GT,37.5590465,-122.3015216,,29.44489,0.1,144.13678,1590096891434
Fix,GT,37.5588316,-122.301328,,29.278843,0.1,144.4444,1590096892434
Fix,GT,37.5586175,-122.3011362,,29.106735,0.1,144.42166,1590096893434
Fix,GT,37.5584042,-122.300946,,28.972662,0.1,144.64673,1590096894434
Fix,GT,37.5581908,-122.3007572,,28.981293,0.1,144.92749,1590096895434
Fix,GT,37.5579756,-122.300569,,29.218266,0.1,145.2359,1590096896434
Fix,GT,37.5577581,-122.3003801,,29.49612,0.1,145.11163,1590096897434
Fix,GT,37.557539,-122.300188,,29.78223,0.1,144.81195,1590096898434
Fix,GT,37.5573193,-122.2999933,,29.865688,0.1,144.63611,1590096899434
Fix,GT,37.5571001,-122.2997978,,29.781649,0.1,144.32907,1590096900434
Fix,GT,37.5568826,-122.2996007,,29.77304,0.1,143.85153,1590096901434
Fix,GT,37.5566665,-122.2994016,,29.694033,0.1,143.45819,1590096902434
Fix,GT,37.5564519,-122.2992023,,29.52283,0.1,143.4104,1590096903434
Fix,GT,37.556239,-122.2990045,,29.263727,0.1,143.46295,1590096904434
Fix,GT,37.5560274,-122.2988088,,29.130539,0.1,143.5065,1590096905434
Fix,GT,37.5558164,-122.2986135,,29.074413,0.1,143.47827,1590096906434
Fix,GT,37.5556063,-122.298419,,28.835339,0.1,143.55487,1590096907434
Fix,GT,37.5553983,-122.2982266,,28.489536,0.1,143.45044,1590096908434
Fix,GT,37.5551934,-122.2980361,,28.074562,0.1,143.29144,1590096909434
Fix,GT,37.554992,-122.2978482,,27.612932,0.1,143.31696,1590096910434
Fix,GT,37.5547937,-122.2976635,,27.187021,0.1,143.28247,1590096911434
Fix,GT,37.554599,-122.2974806,,26.780867,0.1,142.7641,1590096912434
Fix,GT,37.554409,-122.2972977,,26.366077,0.1,142.0611,1590096913434
Fix,GT,37.5542232,-122.2971155,,26.038616,0.1,141.86288,1590096914434
Fix,GT,37.5540384,-122.2969342,,26.05518,0.1,141.91754,1590096915434
Fix,GT,37.5538527,-122.2967525,,26.14683,0.1,142.05219,1590096916434
Fix,GT,37.5536672,-122.2965716,,25.959038,0.1,142.18219,1590096917434
Fix,GT,37.5534829,-122.2963927,,25.772861,0.1,142.47931,1590096918434
Fix,GT,37.5532985,-122.2962164,,25.65201,0.1,142.85727,1590096919434
Fix,GT,37.5531138,-122.2960431,,25.475653,0.1,143.33875,1590096920434
Fix,GT,37.5529298,-122.2958737,,25.203379,0.1,143.86664,1590096921434
Fix,GT,37.5527469,-122.2957076,,24.892868,0.1,144.0556,1590096922434
Fix,GT,37.5525665,-122.2955431,,24.5722,0.1,143.75586,1590096923434
Fix,GT,37.5523893,-122.2953794,,24.275085,0.1,143.28586,1590096924434
Fix,GT,37.5522151,-122.2952161,,24.008547,0.1,143.16907,1590096925434
Fix,GT,37.5520427,-122.2950543,,23.750963,0.1,143.17676,1590096926434
Fix,GT,37.5518718,-122.2948946,,23.500988,0.1,143.3728,1590096927434
Fix,GT,37.5517027,-122.294737,,23.247993,0.1,143.25568,1590096928434
Fix,GT,37.5515355,-122.2945808,,23.005814,0.1,143.2605,1590096929434
Fix,GT,37.5513691,-122.2944267,,22.863987,0.1,143.67627,1590096930434
Fix,GT,37.551203,-122.2942743,,22.796522,0.1,143.70447,1590096931434
Fix,GT,37.5510377,-122.2941218,,22.73833,0.1,143.5112,1590096932434
Fix,GT,37.5508732,-122.2939688,,22.699112,0.1,143.3988,1590096933434
Fix,GT,37.5507095,-122.293816,,22.57483,0.1,143.18384,1590096934434
Fix,GT,37.5505473,-122.2936632,,22.425192,0.1,142.93225,1590096935434
Fix,GT,37.5503862,-122.2935111,,22.32116,0.1,142.98996,1590096936434
Fix,GT,37.5502256,-122.2933601,,22.23793,0.1,143.12604,1590096937434
Fix,GT,37.5500646,-122.2932095,,22.33047,0.1,143.3104,1590096938434
Fix,GT,37.5499018,-122.2930582,,22.632729,0.1,143.4494,1590096939434
Fix,GT,37.5497367,-122.2929049,,22.94981,0.1,143.4289,1590096940434
Fix,GT,37.5495694,-122.2927492,,23.264404,0.1,143.27051,1590096941434
Fix,GT,37.5494003,-122.2925905,,23.59932,0.1,143.07397,1590096942434
Fix,GT,37.5492292,-122.2924286,,23.950544,0.1,142.78217,1590096943434
Fix,GT,37.5490561,-122.2922634,,24.307392,0.1,142.6596,1590096944434
Fix,GT,37.5488802,-122.2920961,,24.676321,0.1,142.94653,1590096945434
Fix,GT,37.5487007,-122.2919277,,25.053288,0.1,143.38757,1590096946434
Fix,GT,37.5485178,-122.2917583,,25.394855,0.1,143.62585,1590096947434
Fix,GT,37.5483322,-122.2915871,,25.699839,0.1,143.60327,1590096948434
Fix,GT,37.5481446,-122.2914136,,25.994865,0.1,143.61023,1590096949434
Fix,GT,37.547955,-122.2912383,,26.257605,0.1,143.57776,1590096950434
Fix,GT,37.5477638,-122.2910611,,26.47259,0.1,143.44006,1590096951434
Fix,GT,37.5475712,-122.2908822,,26.697357,0.1,143.41858,1590096952434
Fix,GT,37.5473771,-122.2907016,,26.944046,0.1,143.41559,1590096953434
Fix,GT,37.547181,-122.2905193,,27.20787,0.1,143.44122,1590096954434
Fix,GT,37.546983,-122.2903351,,27.4679,0.1,143.43195,1590096955434
Fix,GT,37.5467832,-122.2901493,,27.72866,0.1,143.5122,1590096956434
Fix,GT,37.5465811,-122.2899622,,27.959764,0.1,143.55573,1590096957434
Fix,GT,37.5463783,-122.2897742,,28.017834,0.1,143.47372,1590096958434
Fix,GT,37.5461754,-122.2895858,,27.992779,0.1,143.41187,1590096959434
Fix,GT,37.5459725,-122.2893975,,27.953949,0.1,143.49698,1590096960434
Fix,GT,37.5457704,-122.28921,,27.805286,0.1,143.4223,1590096961434
Fix,GT,37.5455689,-122.2890228,,27.842407,0.1,143.49197,1590096962434
Fix,GT,37.5453665,-122.2888356,,27.960075,0.1,143.65833,1590096963434
Fix,GT,37.5451631,-122.2886482,,28.047585,0.1,143.71228,1590096964434
Fix,GT,37.5449589,-122.28846,,28.156631,0.1,143.70654,1590096965434
Fix,GT,37.5447542,-122.2882717,,28.1554,0.1,143.73676,1590096966434
Fix,GT,37.5445496,-122.2880836,,28.112473,0.1,143.68646,1590096967434
Fix,GT,37.544346,-122.2878956,,27.95904,0.1,143.57117,1590096968434
Fix,GT,37.5441443,-122.2877088,,27.666676,0.1,143.44513,1590096969434
Fix,GT,37.543945,-122.2875234,,27.398539,0.1,143.33624,1590096970434
Fix,GT,37.5437476,-122.2873389,,27.264114,0.1,143.21844,1590096971434
Fix,GT,37.5435506,-122.2871541,,27.331669,0.1,143.13501,1590096972434
Fix,GT,37.5433525,-122.2869684,,27.552803,0.1,143.33264,1590096973434
Fix,GT,37.543152,-122.2867821,,27.798916,0.1,143.58533,1590096974434
Fix,GT,37.5429496,-122.2865946,,28.029446,0.1,143.56296,1590096975434
Fix,GT,37.5427454,-122.2864058,,28.249153,0.1,143.63458,1590096976434
Fix,GT,37.5425391,-122.2862158,,28.520231,0.1,143.73676,1590096977434
Fix,GT,37.5423305,-122.286024,,28.856466,0.1,143.69763,1590096978434
Fix,GT,37.5421197,-122.2858297,,29.171751,0.1,143.68585,1590096979434
Fix,GT,37.5419066,-122.2856339,,29.41874,0.1,143.85114,1590096980434
Fix,GT,37.5416921,-122.2854379,,29.383718,0.1,143.94437,1590096981434
Fix,GT,37.541479,-122.2852437,,29.062008,0.1,144.05966,1590096982434
Fix,GT,37.5412677,-122.2850523,,28.783304,0.1,144.0581,1590096983434
Fix,GT,37.5410582,-122.2848617,,28.674423,0.1,143.86136,1590096984434
Fix,GT,37.5408492,-122.2846705,,28.768856,0.1,143.86667,1590096985434
Fix,GT,37.5406392,-122.2844785,,28.81586,0.1,143.93109,1590096986434
Fix,GT,37.5404297,-122.2842868,,28.714321,0.1,143.72595,1590096987434
Fix,GT,37.5402214,-122.2840943,,28.66105,0.1,143.2652,1590096988434
Fix,GT,37.5400144,-122.2839004,,28.63981,0.1,143.17447,1590096989434
