MessageType,Provider,LatitudeDegrees,LongitudeDegrees,AltitudeMeters,SpeedMps,AccuracyMeters,BearingDegrees,UnixTimeMillis
Fix,GT,37.428043,-122.0699262,,0.0011842556,0.1,358.57648,1594247310444
Fix,GT,37.428043,-122.0699262,,0.0017798011,0.1,358.57635,1594247311444
Fix,GT,37.428043,-122.0699262,,0.0022360678,0.1,358.5764,1594247312444
Fix,GT,37.428043,-122.0699262,,0.002236068,0.1,358.57605,1594247313444
Fix,GT,37.428043,-122.0699262,,0.0018704804,0.1,358.57553,1594247314444
Fix,GT,37.428043,-122.0699262,,0.0014142136,0.1,358.57538,1594247315444
Fix,GT,37.428043,-122.0699262,,0.002043302,0.1,358.57587,1594247316444
Fix,GT,37.428043,-122.0699262,,0.0024599156,0.1,358.5772,1594247317444
Fix,GT,37.428043,-122.0699261,,0.0011103346,0.1,358.578,1594247318444
Fix,GT,37.428043,-122.0699262,,0.00062908843,0.1,358.57773,1594247319444
Fix,GT,37.428043,-122.0699263,,0.0012299579,0.1,358.57748,1594247320444
Fix,GT,37.428043,-122.0699263,,0.001,0.1,358.57718,1594247321444
Fix,GT,37.428043,-122.0699263,,0.001,0.1,358.5773,1594247322444
Fix,GT,37.428043,-122.0699263,,0.0014448328,0.1,358.5775,1594247323444
Fix,GT,37.428043,-122.0699263,,0.0015551673,0.1,358.57742,1594247324444
Fix,GT,37.428043,-122.0699263,,0.0005551672,0.1,358.57742,1594247325444
Fix,GT,37.428043,-122.0699263,,0.00044483278,0.1,358.57755,1594247326444
Fix,GT,37.428043,-122.0699263,,0.0011842558,0.1,358.57764,1594247327444
Fix,GT,37.428043,-122.0699263,,0.00078512495,0.1,358.5774,1594247328444
Fix,GT,37.428043,-122.0699263,,0.0008896655,0.1,358.57758,1594247329444
Fix,GT,37.428043,-122.0699263,,0.001739423,0.1,358.57767,1594247330444
Fix,GT,37.428043,-122.0699263,,0.0012299578,0.1,358.57736,1594247331444
Fix,GT,37.428043,-122.0699263,,0.001,0.1,358.57715,1594247332444
Fix,GT,37.428043,-122.0699263,,0.001,0.1,358.5771,1594247333444
Fix,GT,37.428043,-122.0699263,,0.0005551673,0.1,358.5773,1594247334444
Fix,GT,37.428043,-122.0699263,,0.0,0.1,358.57748,1594247335444
Fix,GT,37.428043,-122.0699263,,0.0,0.1,358.57745,1594247336444
Fix,GT,37.428043,-122.0699263,,0.00044483275,0.1,358.5775,1594247337444
Fix,GT,37.428043,-122.0699263,,0.00055516727,0.1,358.5774,1594247338444
Fix,GT,37.428043,-122.0699263,,0.00044483275,0.1,358.57724,1594247339444
Fix,GT,37.428043,-122.0699263,,0.0011842558,0.1,358.5769,1594247340444
Fix,GT,37.428043,-122.0699263,,0.00078512507,0.1,358.5765,1594247341444
Fix,GT,37.428043,-122.0699263,,0.0,0.1,358.57657,1594247342444
Fix,GT,37.428043,-122.0699263,,0.00044483278,0.1,358.57666,1594247343444
Fix,GT,37.428043,-122.0699263,,0.001,0.1,358.57632,1594247344444
Fix,GT,37.428043,-122.0699263,,0.001,0.1,358.57614,1594247345444
Fix,GT,37.428043,-122.0699263,,0.001,0.1,358.57626,1594247346444
Fix,GT,37.428043,-122.0699263,,0.0011842558,0.1,358.5763,1594247347444
Fix,GT,37.428043,-122.0699263,,0.0012299578,0.1,358.57635,1594247348444
Fix,GT,37.428043,-122.0699263,,0.001,0.1,358.5767,1594247349444
Fix,GT,37.428043,-122.0699263,,0.0005551672,0.1,358.5768,1594247350444
Fix,GT,37.428043,-122.0699263,,0.0013344984,0.1,358.57654,1594247351444
Fix,GT,37.428043,-122.0699263,,0.0040609995,0.1,358.57642,1594247352444
Fix,GT,37.428043,-122.0699263,,0.004324165,0.1,358.57605,1594247353444
Fix,GT,37.428043,-122.0699263,,0.0021103346,0.1,358.57593,1594247354444
Fix,GT,37.428043,-122.0699263,,0.0014448329,0.1,358.57623,1594247355444
Fix,GT,37.428043,-122.0699263,,0.0015551673,0.1,358.57626,1594247356444
Fix,GT,37.428043,-122.0699263,,0.0014448329,0.1,358.5767,1594247357444
Fix,GT,37.428043,-122.0699263,,0.0015551673,0.1,358.57626,1594247358444
Fix,GT,37.428043,-122.0699263,,0.0015498437,0.1,358.5763,1594247359444
Fix,GT,37.428043,-122.0699263,,0.0018704802,0.1,358.57617,1594247360444
Fix,GT,37.428043,-122.0699263,,0.0012299578,0.1,358.57614,1594247361444
Fix,GT,37.428043,-122.0699263,,0.00055516715,0.1,358.576,1594247362444
Fix,GT,37.428043,-122.0699263,,0.0,0.1,358.57587,1594247363444
Fix,GT,37.428043,-122.0699263,,0.0,0.1,358.5758,1594247364444
Fix,GT,37.428043,-122.0699263,,0.00062908867,0.1,358.57587,1594247365444
Fix,GT,37.428043,-122.0699263,,0.0023889926,0.1,358.5758,1594247366444
Fix,GT,37.428043,-122.0699263,,0.0038889498,0.1,358.57593,1594247367444
Fix,GT,37.428043,-122.0699263,,0.004344728,0.1,358.57614,1594247368444
Fix,GT,37.428043,-122.0699263,,0.005957038,0.1,358.576,1594247369444
Fix,GT,37.428043,-122.0699263,,0.008162591,0.1,358.57455,1594247370444
Fix,GT,37.4280429,-122.0699263,,0.0063795955,0.1,358.57593,1594247371444
Fix,GT,37.4280429,-122.0699264,,0.0092430385,0.1,358.47845,1594247372444
Fix,GT,37.428043,-122.0699266,,0.06244891,0.1,358.17172,1594247373444
Fix,GT,37.4280448,-122.0699278,,0.4588663,0.1,355.85025,1594247374444
Fix,GT,37.4280515,-122.0699315,,1.2176157,0.1,350.12006,1594247375444
Fix,GT,37.428065,-122.0699373,,1.9566567,0.1,345.90878,1594247376444
Fix,GT,37.4280855,-122.0699433,,2.6543913,0.1,346.75824,1594247377444
Fix,GT,37.4281125,-122.0699477,,3.4072142,0.1,350.9934,1594247378444
Fix,GT,37.4281471,-122.0699495,,4.2283626,0.1,356.6487,1594247379444
Fix,GT,37.428188,-122.0699488,,4.729187,0.1,359.97772,1594247380444
Fix,GT,37.4282309,-122.0699495,,4.723841,0.1,357.74426,1594247381444
Fix,GT,37.4282703,-122.0699609,,4.5122104,0.1,343.66327,1594247382444
Fix,GT,37.4282997,-122.0699912,,4.424933,0.1,318.23,1594247383444
Fix,GT,37.4283148,-122.0700355,,4.49175,0.1,292.36377,1594247384444
Fix,GT,37.4283132,-122.0700842,,4.4578786,0.1,266.65567,1594247385444
Fix,GT,37.4282932,-122.0701244,,4.4168224,0.1,237.60144,1594247386444
Fix,GT,37.4282585,-122.0701466,,4.671262,0.1,208.7072,1594247387444
Fix,GT,37.4282161,-122.0701521,,5.109476,0.1,187.6739,1594247388444
Fix,GT,37.4281681,-122.0701501,,5.7182946,0.1,179.42055,1594247389444
Fix,GT,37.4281129,-122.0701474,,6.5108438,0.1,178.63855,1594247390444
Fix,GT,37.4280521,-122.0701448,,6.930172,0.1,178.62927,1594247391444
Fix,GT,37.4279897,-122.0701424,,6.9199305,0.1,178.65393,1594247392444
Fix,GT,37.4279278,-122.07014,,6.8846273,0.1,178.5263,1594247393444
Fix,GT,37.4278649,-122.0701376,,7.1372952,0.1,178.4928,1594247394444
Fix,GT,37.4277981,-122.0701356,,7.7045336,0.1,178.8075,1594247395444
Fix,GT,37.4277261,-122.0701343,,8.27855,0.1,179.36462,1594247396444
Fix,GT,37.4276499,-122.0701336,,8.571791,0.1,179.61261,1594247397444
Fix,GT,37.427573,-122.0701325,,8.3960285,0.1,179.15564,1594247398444
Fix,GT,37.4274998,-122.0701307,,7.8005524,0.1,178.68042,1594247399444
Fix,GT,37.4274334,-122.07013,,6.8973284,0.1,180.23584,1594247400444
Fix,GT,37.4273772,-122.0701378,,5.615915,0.1,189.86021,1594247401444
Fix,GT,37.4273374,-122.0701649,,4.561227,0.1,213.86014,1594247402444
Fix,GT,37.427319,-122.0702087,,4.2769394,0.1,244.2024,1594247403444
Fix,GT,37.4273137,-122.0702572,,4.3013988,0.1,260.41922,1594247404444
Fix,GT,37.4273041,-122.0703024,,4.077997,0.1,252.44449,1594247405444
Fix,GT,37.4272804,-122.0703349,,4.153698,0.1,227.91762,1594247406444
Fix,GT,37.4272444,-122.0703519,,4.7934566,0.1,202.22005,1594247407444
Fix,GT,37.4271982,-122.0703587,,5.7384024,0.1,187.4484,1594247408444
Fix,GT,37.427142,-122.0703621,,6.7986717,0.1,183.22815,1594247409444
Fix,GT,37.4270776,-122.0703644,,7.4787397,0.1,181.6376,1594247410444
Fix,GT,37.4270108,-122.0703649,,7.3044686,0.1,179.97346,1594247411444
Fix,GT,37.4269482,-122.0703608,,6.550064,0.1,175.15973,1594247412444
Fix,GT,37.4268961,-122.0703415,,5.824436,0.1,158.89136,1594247413444
Fix,GT,37.4268617,-122.0703,,5.4124603,0.1,131.73608,1594247414444
Fix,GT,37.4268456,-122.070246,,5.169196,0.1,109.91434,1594247415444
Fix,GT,37.426832,-122.0701918,,4.89844,0.1,110.39868,1594247416444
Fix,GT,37.426805,-122.0701501,,4.73835,0.1,132.62567,1594247417444
Fix,GT,37.4267639,-122.0701293,,5.2520447,0.1,158.7857,1594247418444
Fix,GT,37.4267115,-122.070122,,6.3871064,0.1,173.93994,1594247419444
Fix,GT,37.4266487,-122.0701203,,7.41463,0.1,178.9524,1594247420444
Fix,GT,37.4265798,-122.0701204,,7.7270184,0.1,179.95386,1594247421444
Fix,GT,37.4265117,-122.0701209,,7.284137,0.1,180.21217,1594247422444
Fix,GT,37.4264504,-122.0701239,,6.2947536,0.1,183.14757,1594247423444
Fix,GT,37.4263996,-122.0701393,,5.3629036,0.1,197.235,1594247424444
Fix,GT,37.4263643,-122.0701769,,5.010768,0.1,224.09805,1594247425444
Fix,GT,37.4263486,-122.0702301,,4.98358,0.1,251.88676,1594247426444
Fix,GT,37.4263509,-122.0702862,,4.875551,0.1,275.87125,1594247427444
Fix,GT,37.4263727,-122.0703317,,4.58747,0.1,305.27325,1594247428444
Fix,GT,37.426411,-122.0703538,,4.908428,0.1,337.09802,1594247429444
Fix,GT,37.4264586,-122.0703594,,5.7025485,0.1,355.47205,1594247430444
Fix,GT,37.4265129,-122.07036,,6.256833,0.1,0.5259094,1594247431444
Fix,GT,37.4265707,-122.0703593,,6.5371885,0.1,1.5700684,1594247432444
Fix,GT,37.4266303,-122.0703578,,6.665729,0.1,1.5811157,1594247433444
Fix,GT,37.4266905,-122.0703577,,6.685515,0.1,0.28527832,1594247434444
Fix,GT,37.4267502,-122.0703591,,6.5711436,0.1,359.1279,1594247435444
Fix,GT,37.4268092,-122.0703611,,6.5558844,0.1,358.66028,1594247436444
Fix,GT,37.4268692,-122.0703635,,6.8209877,0.1,358.50076,1594247437444
Fix,GT,37.4269324,-122.0703655,,7.251771,0.1,358.96152,1594247438444
Fix,GT,37.4270004,-122.0703666,,7.8238845,0.1,359.4416,1594247439444
Fix,GT,37.4270736,-122.0703674,,8.353506,0.1,359.65805,1594247440444
Fix,GT,37.4271499,-122.0703681,,8.462585,0.1,359.79413,1594247441444
Fix,GT,37.4272252,-122.0703681,,8.180344,0.1,0.39590454,1594247442444
Fix,GT,37.4272983,-122.0703669,,8.134489,0.1,1.0038147,1594247443444
Fix,GT,37.4273733,-122.0703654,,8.618271,0.1,0.94329834,1594247444444
Fix,GT,37.4274538,-122.0703646,,9.190163,0.1,0.46514893,1594247445444
Fix,GT,37.4275383,-122.0703644,,9.533678,0.1,0.14105225,1594247446444
Fix,GT,37.4276255,-122.0703644,,9.832727,0.1,0.21688843,1594247447444
Fix,GT,37.4277155,-122.070364,,10.097932,0.1,0.3935547,1594247448444
Fix,GT,37.4278068,-122.0703631,,10.099229,0.1,0.60528564,1594247449444
Fix,GT,37.427897,-122.0703617,,9.902155,0.1,0.8403015,1594247450444
Fix,GT,37.4279848,-122.0703597,,9.550014,0.1,1.2371216,1594247451444
Fix,GT,37.4280676,-122.0703566,,8.720338,0.1,1.9659424,1594247452444
Fix,GT,37.4281403,-122.0703525,,7.371548,0.1,2.5620422,1594247453444
Fix,GT,37.4281999,-122.0703504,,5.942762,0.1,0.26867676,1594247454444
Fix,GT,37.4282477,-122.0703574,,4.9986167,0.1,350.25143,1594247455444
Fix,GT,37.428285,-122.0703806,,4.6016765,0.1,330.5591,1594247456444
Fix,GT,37.4283086,-122.0704211,,4.7232475,0.1,305.31348,1594247457444
Fix,GT,37.4283185,-122.0704755,,5.5041943,0.1,283.4418,1594247458444
Fix,GT,37.4283209,-122.0705407,,6.0709567,0.1,273.14203,1594247459444
Fix,GT,37.428322,-122.070609,,5.9505005,0.1,271.90707,1594247460444
Fix,GT,37.4283228,-122.0706747,,5.758156,0.1,271.45392,1594247461444
Fix,GT,37.428323,-122.0707418,,6.262526,0.1,270.67365,1594247462444
Fix,GT,37.4283227,-122.0708185,,7.3340263,0.1,270.00525,1594247463444
Fix,GT,37.4283218,-122.0709067,,8.242306,0.1,269.36368,1594247464444
Fix,GT,37.4283202,-122.0710029,,8.751288,0.1,269.0947,1594247465444
Fix,GT,37.4283186,-122.0711023,,8.742234,0.1,268.92892,1594247466444
Fix,GT,37.4283169,-122.0711982,,8.178401,0.1,269.05157,1594247467444
Fix,GT,37.4283163,-122.0712869,,7.4976482,0.1,269.95218,1594247468444
Fix,GT,37.4283171,-122.0713699,,7.220439,0.1,270.9935,1594247469444
Fix,GT,37.4283191,-122.071452,,7.38993,0.1,272.05667,1594247470444
Fix,GT,37.428323,-122.0715374,,7.7128296,0.1,273.4199,1594247471444
Fix,GT,37.4283279,-122.0716239,,7.588683,0.1,273.92633,1594247472444
Fix,GT,37.4283318,-122.0717074,,7.227885,0.1,272.5447,1594247473444
Fix,GT,37.4283294,-122.0717857,,6.734765,0.1,264.70538,1594247474444
Fix,GT,37.4283114,-122.0718523,,6.1182613,0.1,245.69449,1594247475444
Fix,GT,37.4282752,-122.0718972,,5.860585,0.1,220.13913,1594247476444
Fix,GT,37.4282261,-122.0719175,,6.155831,0.1,195.67482,1594247477444
Fix,GT,37.4281684,-122.0719191,,6.8884416,0.1,180.78459,1594247478444
Fix,GT,37.4281032,-122.0719146,,7.6636662,0.1,177.55566,1594247479444
Fix,GT,37.4280312,-122.0719102,,8.293804,0.1,177.50922,1594247480444
Fix,GT,37.4279554,-122.0719055,,8.449109,0.1,177.41156,1594247481444
Fix,GT,37.4278806,-122.0719015,,8.100343,0.1,177.73553,1594247482444
Fix,GT,37.4278105,-122.0718991,,7.3828278,0.1,178.59705,1594247483444
Fix,GT,37.427749,-122.0719001,,6.1616383,0.1,181.56506,1594247484444
Fix,GT,37.4277,-122.0719082,,4.8408413,0.1,189.04512,1594247485444
Fix,GT,37.4276639,-122.0719284,,3.9415617,0.1,205.31865,1594247486444
Fix,GT,37.4276428,-122.0719635,,3.7102427,0.1,232.4739,1594247487444
Fix,GT,37.4276392,-122.0720076,,3.9535484,0.1,262.21814,1594247488444
Fix,GT,37.4276489,-122.072053,,4.301427,0.1,283.9524,1594247489444
Fix,GT,37.4276662,-122.0721003,,4.838978,0.1,295.11877,1594247490444
Fix,GT,37.4276948,-122.0721459,,5.3264074,0.1,311.0494,1594247491444
Fix,GT,37.4277394,-122.0721733,,5.838273,0.1,337.631,1594247492444
Fix,GT,37.4277949,-122.0721819,,6.6025968,0.1,355.25317,1594247493444
Fix,GT,37.4278574,-122.0721837,,7.1888103,0.1,359.59882,1594247494444
Fix,GT,37.427924,-122.0721833,,7.510878,0.1,0.93634033,1594247495444
Fix,GT,37.4279925,-122.0721819,,7.6199985,0.1,1.386261,1594247496444
Fix,GT,37.4280602,-122.0721799,,7.344303,0.1,1.6126404,1594247497444
Fix,GT,37.428124,-122.0721774,,6.7947974,0.1,1.9347534,1594247498444
Fix,GT,37.4281824,-122.0721749,,6.140708,0.1,1.3320618,1594247499444
Fix,GT,37.4282333,-122.0721759,,5.2028694,0.1,357.17783,1594247500444
Fix,GT,37.4282742,-122.0721866,,4.2791944,0.1,344.7826,1594247501444
Fix,GT,37.4283031,-122.072212,,3.954714,0.1,323.49728,1594247502444
Fix,GT,37.4283191,-122.0722505,,4.1477346,0.1,298.73343,1594247503444
Fix,GT,37.4283231,-122.0722985,,4.705119,0.1,277.64893,1594247504444
Fix,GT,37.4283205,-122.0723534,,5.1009517,0.1,267.5417,1594247505444
Fix,GT,37.4283147,-122.0724096,,4.87564,0.1,262.5318,1594247506444
Fix,GT,37.4283039,-122.0724586,,4.1359353,0.1,253.81873,1594247507444
Fix,GT,37.4282903,-122.0724943,,2.8835568,0.1,244.78363,1594247508444
Fix,GT,37.4282795,-122.0725143,,1.4483973,0.1,239.06107,1594247509444
Fix,GT,37.4282748,-122.072522,,0.42186785,0.1,237.47083,1594247510444
Fix,GT,37.428274,-122.0725231,,0.03151104,0.1,237.43053,1594247511444
Fix,GT,37.4282738,-122.072523,,0.0307936,0.1,237.42497,1594247512444
Fix,GT,37.4282739,-122.0725228,,0.017050657,0.1,237.42578,1594247513444
Fix,GT,37.4282739,-122.0725227,,0.005054972,0.1,237.42564,1594247514444
Fix,GT,37.4282739,-122.0725228,,0.0041103326,0.1,237.4253,1594247515444
Fix,GT,37.4282739,-122.0725228,,0.0035527684,0.1,237.42505,1594247516444
Fix,GT,37.4282739,-122.0725228,,0.0048717307,0.1,237.42523,1594247517444
Fix,GT,37.4282739,-122.0725228,,0.0063482365,0.1,237.42506,1594247518444
Fix,GT,37.4282739,-122.0725228,,0.007589725,0.1,237.42487,1594247519444
Fix,GT,37.4282739,-122.0725228,,0.0068713957,0.1,237.42508,1594247520444
Fix,GT,37.4282739,-122.0725228,,0.0052578775,0.1,237.42511,1594247521444
Fix,GT,37.4282739,-122.0725228,,0.0046649002,0.1,237.42506,1594247522444
Fix,GT,37.4282739,-122.0725228,,0.003695697,0.1,237.42511,1594247523444
Fix,GT,37.4282739,-122.0725228,,0.0026452574,0.1,237.42477,1594247524444
Fix,GT,37.4282739,-122.0725228,,0.0015551662,0.1,237.42465,1594247525444
Fix,GT,37.4282739,-122.0725228,,0.001,0.1,-122.57536,1594247526444
Fix,GT,37.4282739,-122.0725228,,0.0005551662,0.1,237.42482,1594247527444
Fix,GT,37.4282739,-122.0725228,,0.00044483383,0.1,237.42473,1594247528444
Fix,GT,37.4282739,-122.0725228,,0.0011842563,0.1,237.42438,1594247529444
Fix,GT,37.4282739,-122.0725228,,0.0014142136,0.1,237.42426,1594247530444
Fix,GT,37.4282739,-122.0725228,,0.0012299573,0.1,237.42427,1594247531444
Fix,GT,37.4282739,-122.0725228,,0.001,0.1,237.42474,1594247532444
Fix,GT,37.4282739,-122.0725228,,0.001,0.1,237.42474,1594247533444
Fix,GT,37.4282739,-122.0725228,,0.001,0.1,237.42473,1594247534444
Fix,GT,37.4282739,-122.0725228,,0.0011842563,0.1,237.4249,1594247535444
Fix,GT,37.4282739,-122.0725228,,0.0012299573,0.1,237.42525,1594247536444
Fix,GT,37.4282739,-122.0725228,,0.0011842563,0.1,237.42508,1594247537444
Fix,GT,37.4282739,-122.0725228,,0.00078512344,0.1,237.42426,1594247538444
Fix,GT,37.4282739,-122.0725228,,0.0004448339,0.1,237.42404,1594247539444
Fix,GT,37.4282739,-122.0725228,,0.0011842563,0.1,237.42424,1594247540444
Fix,GT,37.4282739,-122.0725228,,0.0014142136,0.1,237.42432,1594247541444
Fix,GT,37.4282739,-122.0725228,,0.0012299573,0.1,237.42438,1594247542444
Fix,GT,37.4282739,-122.0725228,,0.001,0.1,237.42462,1594247543444
Fix,GT,37.4282739,-122.0725228,,0.0011842563,0.1,237.42453,1594247544444
Fix,GT,37.4282739,-122.0725228,,0.0012299573,0.1,237.42459,1594247545444
Fix,GT,37.4282739,-122.0725228,,0.0011842563,0.1,237.42465,1594247546444
Fix,GT,37.4282739,-122.0725228,,0.0007851234,0.1,237.42442,1594247547444
Fix,GT,37.4282739,-122.0725228,,0.0006290902,0.1,237.42448,1594247548444
Fix,GT,37.4282739,-122.0725228,,0.0007851234,0.1,237.42459,1594247549444
Fix,GT,37.4282739,-122.0725228,,0.0,0.1,237.4244,1594247550444
Fix,GT,37.4282739,-122.0725228,,0.0006290902,0.1,237.42429,1594247551444
Fix,GT,37.4282739,-122.0725228,,0.0014142136,0.1,237.42465,1594247552444
Fix,GT,37.4282739,-122.0725228,,0.0012299573,0.1,237.42493,1594247553444
Fix,GT,37.4282739,-122.0725228,,0.001,0.1,237.42511,1594247554444
Fix,GT,37.4282739,-122.0725228,,0.001,0.1,237.4252,1594247555444
Fix,GT,37.4282739,-122.0725228,,0.00055516604,0.1,237.42523,1594247556444
Fix,GT,37.4282739,-122.0725228,,0.0,0.1,237.42534,1594247557444
Fix,GT,37.4282739,-122.0725228,,0.00044483398,0.1,237.42534,1594247558444
Fix,GT,37.4282739,-122.0725228,,0.001,0.1,237.42465,1594247559444
Fix,GT,37.4282739,-122.0725228,,0.00055516604,0.1,237.42432,1594247560444
Fix,GT,37.4282739,-122.0725228,,0.0,0.1,237.42438,1594247561444
Fix,GT,37.4282739,-122.0725228,,0.0,0.1,237.42435,1594247562444
Fix,GT,37.4282739,-122.0725228,,0.00062909024,0.1,237.42438,1594247563444
Fix,GT,37.4282739,-122.0725228,,0.0007851233,0.1,237.42442,1594247564444
Fix,GT,37.4282739,-122.0725228,,0.0,0.1,237.42445,1594247565444
Fix,GT,37.4282739,-122.0725228,,0.0,0.1,237.42444,1594247566444
Fix,GT,37.4282739,-122.0725228,,0.00062909024,0.1,237.42477,1594247567444
Fix,GT,37.4282739,-122.0725228,,0.0007851233,0.1,237.42485,1594247568444
Fix,GT,37.4282739,-122.0725228,,0.0,0.1,237.42496,1594247569444
Fix,GT,37.4282739,-122.0725228,,0.000444834,0.1,237.425,1594247570444
Fix,GT,37.4282739,-122.0725228,,0.001,0.1,237.42493,1594247571444
Fix,GT,37.4282739,-122.0725228,,0.001,0.1,237.42497,1594247572444
Fix,GT,37.4282739,-122.0725228,,0.001,0.1,237.42493,1594247573444
Fix,GT,37.4282739,-122.0725228,,0.001,0.1,237.4249,1594247574444
Fix,GT,37.4282739,-122.0725228,,0.001,0.1,237.42487,1594247575444
Fix,GT,37.4282739,-122.0725228,,0.0011842563,0.1,237.42476,1594247576444
Fix,GT,37.4282739,-122.0725228,,0.0007851233,0.1,237.4249,1594247577444
Fix,GT,37.4282739,-122.0725228,,0.0,0.1,237.42487,1594247578444
Fix,GT,37.4282739,-122.0725228,,0.0,0.1,237.4252,1594247579444
Fix,GT,37.4282739,-122.0725228,,0.0,0.1,237.42578,1594247580444
Fix,GT,37.4282739,-122.0725228,,0.000444834,0.1,237.42606,1594247581444
Fix,GT,37.4282739,-122.0725228,,0.001,0.1,237.42586,1594247582444
Fix,GT,37.4282739,-122.0725228,,0.001,0.1,237.42535,1594247583444
Fix,GT,37.4282739,-122.0725228,,0.00055516604,0.1,237.42523,1594247584444
Fix,GT,37.4282739,-122.0725228,,0.000444834,0.1,237.4252,1594247585444
Fix,GT,37.4282739,-122.0725228,,0.00055516604,0.1,237.42511,1594247586444
Fix,GT,37.4282739,-122.0725228,,0.00044483403,0.1,237.42542,1594247587444
Fix,GT,37.4282739,-122.0725228,,0.00055516604,0.1,237.42564,1594247588444
Fix,GT,37.4282739,-122.0725228,,0.00044483403,0.1,237.4253,1594247589444
Fix,GT,37.4282739,-122.0725228,,0.001,0.1,237.42502,1594247590444
Fix,GT,37.4282739,-122.0725228,,0.0015498452,0.1,237.42517,1594247591444
Fix,GT,37.4282739,-122.0725228,,0.0018704792,0.1,237.4256,1594247592444
Fix,GT,37.4282739,-122.0725228,,0.0012299573,0.1,237.42554,1594247593444
Fix,GT,37.4282739,-122.0725228,,0.00055516604,0.1,237.42514,1594247594444
Fix,GT,37.4282739,-122.0725228,,0.00062909035,0.1,237.42532,1594247595444
Fix,GT,37.4282739,-122.0725228,,0.0012299572,0.1,237.42525,1594247596444
Fix,GT,37.4282739,-122.0725228,,0.0011842563,0.1,237.42526,1594247597444
Fix,GT,37.4282739,-122.0725228,,0.0007851232,0.1,237.42545,1594247598444
Fix,GT,37.4282739,-122.0725228,,0.0,0.1,237.42535,1594247599444
Fix,GT,37.4282739,-122.0725228,,0.00044483406,0.1,237.42531,1594247600444
Fix,GT,37.4282739,-122.0725228,,0.000555166,0.1,237.42526,1594247601444
Fix,GT,37.4282739,-122.0725228,,0.00044483406,0.1,237.42513,1594247602444
Fix,GT,37.4282739,-122.0725228,,0.000555166,0.1,237.4249,1594247603444
Fix,GT,37.4282739,-122.0725228,,0.0,0.1,237.42479,1594247604444
Fix,GT,37.4282739,-122.0725228,,0.0,0.1,237.42474,1594247605444
Fix,GT,37.4282739,-122.0725228,,0.00044483406,0.1,237.42484,1594247606444
Fix,GT,37.4282739,-122.0725228,,0.001,0.1,237.42477,1594247607444
Fix,GT,37.4282739,-122.0725228,,0.001,0.1,237.42471,1594247608444
Fix,GT,37.4282739,-122.0725228,,0.0011842563,0.1,237.42468,1594247609444
Fix,GT,37.4282739,-122.0725228,,0.0014142136,0.1,237.42462,1594247610444
Fix,GT,37.4282739,-122.0725228,,0.0014142136,0.1,237.42484,1594247611444
Fix,GT,37.4282739,-122.0725228,,0.0014142136,0.1,237.4249,1594247612444
Fix,GT,37.4282739,-122.0725228,,0.0014142136,0.1,237.42499,1594247613444
Fix,GT,37.4282739,-122.0725228,,0.0012299572,0.1,237.4252,1594247614444
Fix,GT,37.4282739,-122.0725228,,0.001,0.1,237.42523,1594247615444
Fix,GT,37.4282739,-122.0725228,,0.001,0.1,237.42517,1594247616444
Fix,GT,37.4282739,-122.0725228,,0.001,0.1,237.42511,1594247617444
Fix,GT,37.4282739,-122.0725228,,0.001,0.1,237.42545,1594247618444
Fix,GT,37.4282739,-122.0725228,,0.001,0.1,237.4255,1594247619444
Fix,GT,37.4282739,-122.0725228,,0.001,0.1,237.42537,1594247620444
Fix,GT,37.4282739,-122.0725228,,0.0005551659,0.1,237.42538,1594247621444
Fix,GT,37.4282739,-122.0725228,,0.0,0.1,237.42532,1594247622444
Fix,GT,37.4282739,-122.0725228,,0.0,0.1,237.42532,1594247623444
Fix,GT,37.4282739,-122.0725228,,0.0004448341,0.1,237.42538,1594247624444
Fix,GT,37.4282739,-122.0725228,,0.001,0.1,237.42569,1594247625444
Fix,GT,37.4282739,-122.0725228,,0.001,0.1,237.42624,1594247626444
Fix,GT,37.4282739,-122.0725228,,0.0005551659,0.1,237.4263,1594247627444
Fix,GT,37.4282739,-122.0725228,,0.00044483412,0.1,237.42618,1594247628444
Fix,GT,37.4282739,-122.0725228,,0.001,0.1,237.42636,1594247629444
Fix,GT,37.4282739,-122.0725228,,0.001,0.1,237.42609,1594247630444
Fix,GT,37.4282739,-122.0725228,,0.0011842563,0.1,237.42589,1594247631444
Fix,GT,37.4282739,-122.0725228,,0.0017798024,0.1,237.42612,1594247632444
Fix,GT,37.4282739,-122.0725228,,0.0026480777,0.1,237.42606,1594247633444
Fix,GT,37.4282739,-122.0725228,,0.0031622776,0.1,237.42586,1594247634444
Fix,GT,37.4282739,-122.0725228,,0.002750268,0.1,237.42564,1594247635444
Fix,GT,37.4282739,-122.0725228,,0.0024995697,0.1,237.42574,1594247636444
Fix,GT,37.4282739,-122.0725228,,0.0025649257,0.1,237.42604,1594247637444
Fix,GT,37.4282739,-122.0725228,,0.0018704792,0.1,237.42636,1594247638444
Fix,GT,37.4282739,-122.0725228,,0.002043304,0.1,237.42642,1594247639444
Fix,GT,37.4282739,-122.0725228,,0.0037944168,0.1,237.42618,1594247640444
Fix,GT,37.4282739,-122.0725228,,0.0077492264,0.1,237.42566,1594247641444
Fix,GT,37.428274,-122.0725229,,0.0133381765,0.1,237.42621,1594247642444
Fix,GT,37.428274,-122.0725231,,0.01825209,0.1,237.42683,1594247643444
Fix,GT,37.428274,-122.0725233,,0.025461555,0.1,237.4254,1594247644444
Fix,GT,37.428274,-122.0725237,,0.051978417,0.1,237.41753,1594247645444
Fix,GT,37.4282731,-122.0725256,,0.35572118,0.1,237.13324,1594247646444
Fix,GT,37.4282698,-122.0725318,,0.975863,0.1,236.24628,1594247647444
Fix,GT,37.4282637,-122.0725443,,1.5924141,0.1,236.84879,1594247648444
Fix,GT,37.4282584,-122.0725656,,2.1942158,0.1,246.93294,1594247649444
Fix,GT,37.4282615,-122.072596,,2.9876106,0.1,269.66498,1594247650444
Fix,GT,37.4282775,-122.0726327,,4.233779,0.1,294.32187,1594247651444
Fix,GT,37.4283044,-122.0726795,,5.898168,0.1,304.75934,1594247652444
Fix,GT,37.4283345,-122.0727455,,7.5442176,0.1,298.16443,1594247653444
Fix,GT,37.4283587,-122.0728319,,8.767611,0.1,287.16052,1594247654444
Fix,GT,37.4283726,-122.0729339,,9.670994,0.1,277.35425,1594247655444
Fix,GT,37.4283767,-122.0730466,,10.37726,0.1,271.3279,1594247656444
Fix,GT,37.4283753,-122.0731679,,11.142315,0.1,268.83926,1594247657444
Fix,GT,37.4283721,-122.0732981,,11.912703,0.1,268.5651,1594247658444
Fix,GT,37.42837,-122.0734359,,12.480183,0.1,269.34842,1594247659444
Fix,GT,37.4283701,-122.0735794,,12.914837,0.1,270.39316,1594247660444
Fix,GT,37.4283718,-122.0737285,,13.497898,0.1,271.02664,1594247661444
Fix,GT,37.428373,-122.0738836,,13.909204,0.1,270.5678,1594247662444
Fix,GT,37.4283734,-122.0740409,,13.900509,0.1,270.3337,1594247663444
Fix,GT,37.4283737,-122.0741971,,13.766329,0.1,270.14166,1594247664444
Fix,GT,37.4283731,-122.074352,,13.660668,0.1,269.83057,1594247665444
Fix,GT,37.4283723,-122.0745057,,13.535457,0.1,269.6548,1594247666444
Fix,GT,37.4283712,-122.074658,,13.448833,0.1,269.79828,1594247667444
Fix,GT,37.4283712,-122.0748101,,13.474585,0.1,270.39548,1594247668444
Fix,GT,37.4283723,-122.0749628,,13.534106,0.1,270.74536,1594247669444
Fix,GT,37.4283733,-122.0751159,,13.530506,0.1,270.46466,1594247670444
Fix,GT,37.4283735,-122.0752686,,13.5466385,0.1,270.1291,1594247671444
Fix,GT,37.4283732,-122.0754229,,13.837032,0.1,269.98788,1594247672444
Fix,GT,37.4283727,-122.0755816,,14.211586,0.1,269.84134,1594247673444
Fix,GT,37.4283721,-122.0757429,,14.306593,0.1,269.9127,1594247674444
Fix,GT,37.4283716,-122.0759039,,14.186053,0.1,270.00717,1594247675444
Fix,GT,37.4283714,-122.0760634,,14.06089,0.1,269.97827,1594247676444
Fix,GT,37.42837,-122.0762216,,13.938204,0.1,268.8378,1594247677444
Fix,GT,37.4283635,-122.0763776,,13.768166,0.1,265.5531,1594247678444
Fix,GT,37.4283479,-122.0765301,,13.538544,0.1,260.91083,1594247679444
Fix,GT,37.4283226,-122.076678,,13.345689,0.1,256.29022,1594247680444
Fix,GT,37.4282896,-122.0768226,,13.315502,0.1,253.05981,1594247681444
Fix,GT,37.4282526,-122.0769663,,13.426937,0.1,251.716,1594247682444
Fix,GT,37.4282142,-122.0771107,,13.4919815,0.1,252.0723,1594247683444
Fix,GT,37.4281793,-122.0772566,,13.430645,0.1,254.68839,1594247684444
Fix,GT,37.4281521,-122.0774024,,12.9725685,0.1,258.34045,1594247685444
Fix,GT,37.4281326,-122.0775418,,11.9534445,0.1,261.19147,1594247686444
Fix,GT,37.4281199,-122.0776678,,10.441128,0.1,264.0578,1594247687444
Fix,GT,37.4281142,-122.0777747,,8.448667,0.1,267.5733,1594247688444
Fix,GT,37.4281131,-122.0778579,,6.1946373,0.1,269.4753,1594247689444
Fix,GT,37.4281127,-122.0779163,,4.3691506,0.1,269.43472,1594247690444
Fix,GT,37.4281118,-122.0779603,,3.7957747,0.1,268.4132,1594247691444
Fix,GT,37.4281079,-122.0780046,,4.2006683,0.1,263.0011,1594247692444
Fix,GT,37.4280948,-122.0780515,,4.832011,0.1,249.78864,1594247693444
Fix,GT,37.4280681,-122.0780979,,5.609536,0.1,233.1557,1594247694444
Fix,GT,37.4280257,-122.078139,,6.60028,0.1,215.37616,1594247695444
Fix,GT,37.4279674,-122.0781652,,7.4924746,0.1,196.65024,1594247696444
Fix,GT,37.427897,-122.0781732,,8.403582,0.1,183.41893,1594247697444
Fix,GT,37.427816,-122.0781718,,9.62969,0.1,179.06934,1594247698444
Fix,GT,37.4277235,-122.0781674,,10.882811,0.1,177.90979,1594247699444
Fix,GT,37.4276213,-122.0781601,,11.793247,0.1,176.63397,1594247700444
Fix,GT,37.4275122,-122.0781494,,12.494953,0.1,175.30829,1594247701444
Fix,GT,37.4273973,-122.0781353,,13.114799,0.1,174.3797,1594247702444
Fix,GT,37.427277,-122.0781207,,13.723515,0.1,175.03693,1594247703444
Fix,GT,37.4271509,-122.0781095,,14.295777,0.1,176.7201,1594247704444
Fix,GT,37.4270197,-122.0781011,,14.84901,0.1,177.36774,1594247705444
Fix,GT,37.426883,-122.0780926,,15.558218,0.1,177.21252,1594247706444
Fix,GT,37.4267393,-122.0780833,,16.389437,0.1,177.23688,1594247707444
Fix,GT,37.4265884,-122.078075,,17.069067,0.1,177.95245,1594247708444
Fix,GT,37.4264325,-122.0780691,,17.49805,0.1,178.68652,1594247709444
Fix,GT,37.4262739,-122.0780672,,17.618055,0.1,180.28741,1594247710444
Fix,GT,37.4261157,-122.078072,,17.458307,0.1,182.38708,1594247711444
Fix,GT,37.4259592,-122.0780821,,17.379845,0.1,183.50461,1594247712444
Fix,GT,37.4258023,-122.078095,,17.556248,0.1,184.15952,1594247713444
Fix,GT,37.4256436,-122.0781092,,17.738892,0.1,184.15794,1594247714444
Fix,GT,37.4254837,-122.0781221,,17.83002,0.1,183.33868,1594247715444
Fix,GT,37.4253233,-122.0781318,,17.850641,0.1,182.31158,1594247716444
Fix,GT,37.4251625,-122.0781379,,17.873777,0.1,181.34935,1594247717444
Fix,GT,37.4250014,-122.0781402,,17.952099,0.1,180.18222,1594247718444
Fix,GT,37.4248392,-122.0781382,,18.051434,0.1,179.0683,1594247719444
Fix,GT,37.4246764,-122.0781328,,18.07061,0.1,178.25232,1594247720444
Fix,GT,37.4245138,-122.0781251,,17.985596,0.1,177.547,1594247721444
Fix,GT,37.4243526,-122.0781148,,17.838165,0.1,176.79895,1594247722444
Fix,GT,37.4241929,-122.0781027,,17.67276,0.1,176.2489,1594247723444
Fix,GT,37.4240349,-122.0780889,,17.46533,0.1,175.90582,1594247724444
Fix,GT,37.4238817,-122.0780756,,16.43525,0.1,176.20654,1594247725444
Fix,GT,37.4237437,-122.0780661,,14.033147,0.1,177.28387,1594247726444
Fix,GT,37.4236303,-122.078062,,11.11371,0.1,179.37823,1594247727444
Fix,GT,37.4235427,-122.0780689,,8.576555,0.1,187.48624,1594247728444
Fix,GT,37.4234776,-122.0780996,,7.3089705,0.1,207.41852,1594247729444
Fix,GT,37.4234346,-122.0781592,,7.235655,0.1,234.67638,1594247730444
Fix,GT,37.4234155,-122.0782388,,7.735255,0.1,257.3605,1594247731444
Fix,GT,37.4234099,-122.0783308,,8.607211,0.1,267.03912,1594247732444
Fix,GT,37.4234065,-122.0784328,,9.473328,0.1,267.95175,1594247733444
Fix,GT,37.4234017,-122.0785446,,10.349163,0.1,266.82184,1594247734444
Fix,GT,37.4233942,-122.0786656,,11.145636,0.1,265.6145,1594247735444
Fix,GT,37.4233863,-122.0787953,,11.881363,0.1,266.2869,1594247736444
Fix,GT,37.4233805,-122.0789335,,12.639106,0.1,267.633,1594247737444
Fix,GT,37.423376,-122.0790802,,13.36639,0.1,267.95367,1594247738444
Fix,GT,37.4233711,-122.0792346,,13.958487,0.1,267.78482,1594247739444
Fix,GT,37.4233653,-122.0793945,,14.351515,0.1,267.22656,1594247740444
Fix,GT,37.4233575,-122.0795573,,14.484934,0.1,266.36923,1594247741444
Fix,GT,37.4233475,-122.0797184,,14.019226,0.1,265.34277,1594247742444
Fix,GT,37.4233361,-122.0798694,,12.747002,0.1,264.4464,1594247743444
Fix,GT,37.4233248,-122.0800026,,10.928779,0.1,263.8908,1594247744444
Fix,GT,37.4233144,-122.0801179,,9.67708,0.1,263.55908,1594247745444
Fix,GT,37.4233043,-122.0802252,,9.620729,0.1,263.4338,1594247746444
Fix,GT,37.4232938,-122.080337,,10.45293,0.1,263.3966,1594247747444
Fix,GT,37.4232817,-122.080462,,11.821771,0.1,263.21783,1594247748444
Fix,GT,37.4232682,-122.0806013,,12.98525,0.1,263.1292,1594247749444
Fix,GT,37.4232538,-122.0807525,,13.937186,0.1,263.27628,1594247750444
Fix,GT,37.4232384,-122.0809135,,14.73675,0.1,263.42877,1594247751444
Fix,GT,37.4232228,-122.0810825,,15.345056,0.1,263.7093,1594247752444
Fix,GT,37.4232075,-122.0812575,,15.790842,0.1,263.9317,1594247753444
Fix,GT,37.4231922,-122.0814366,,16.07161,0.1,264.0791,1594247754444
Fix,GT,37.4231771,-122.0816184,,16.285603,0.1,264.25452,1594247755444
Fix,GT,37.4231618,-122.0818025,,16.484713,0.1,264.14026,1594247756444
Fix,GT,37.4231459,-122.0819891,,16.753864,0.1,264.03082,1594247757444
Fix,GT,37.4231297,-122.0821793,,17.127148,0.1,264.22058,1594247758444
Fix,GT,37.4231142,-122.0823742,,17.536598,0.1,264.6734,1594247759444
Fix,GT,37.4231003,-122.0825739,,17.923706,0.1,265.62936,1594247760444
Fix,GT,37.4230896,-122.0827781,,18.277275,0.1,267.0142,1594247761444
Fix,GT,37.4230826,-122.0829863,,18.58738,0.1,268.4148,1594247762444
Fix,GT,37.4230797,-122.0831978,,18.87207,0.1,269.6698,1594247763444
Fix,GT,37.4230801,-122.0834127,,19.144175,0.1,270.7803,1594247764444
Fix,GT,37.4230839,-122.0836303,,19.374699,0.1,271.98047,1594247765444
Fix,GT,37.4230915,-122.08385,,19.539165,0.1,273.19714,1594247766444
Fix,GT,37.4231031,-122.0840706,,19.549488,0.1,274.56552,1594247767444
Fix,GT,37.4231191,-122.0842903,,19.501184,0.1,276.10382,1594247768444
Fix,GT,37.4231397,-122.0845097,,19.648224,0.1,277.40247,1594247769444
Fix,GT,37.423164,-122.084731,,19.857841,0.1,278.43073,1594247770444
Fix,GT,37.4231912,-122.0849534,,19.937338,0.1,279.1812,1594247771444
Fix,GT,37.4232212,-122.0851754,,19.951448,0.1,280.25146,1594247772444
Fix,GT,37.4232552,-122.085397,,19.987427,0.1,281.62427,1594247773444
Fix,GT,37.4232924,-122.0856178,,19.958252,0.1,282.51147,1594247774444
Fix,GT,37.4233318,-122.0858383,,20.089989,0.1,283.03165,1594247775444
Fix,GT,37.4233732,-122.0860614,,20.435215,0.1,283.4934,1594247776444
Fix,GT,37.4234171,-122.0862872,,20.691536,0.1,284.0673,1594247777444
Fix,GT,37.4234631,-122.0865152,,20.981245,0.1,284.59497,1594247778444
Fix,GT,37.4235113,-122.0867464,,21.333782,0.1,285.00262,1594247779444
Fix,GT,37.4235607,-122.0869812,,21.626486,0.1,284.81677,1594247780444
Fix,GT,37.4236092,-122.087219,,21.823393,0.1,284.24994,1594247781444
Fix,GT,37.4236567,-122.0874588,,21.89983,0.1,283.9595,1594247782444
Fix,GT,37.4237034,-122.0876991,,21.867348,0.1,283.8282,1594247783444
Fix,GT,37.4237504,-122.0879382,,21.721786,0.1,284.29785,1594247784444
Fix,GT,37.4237991,-122.0881745,,21.471638,0.1,284.8419,1594247785444
Fix,GT,37.4238475,-122.0884071,,21.046238,0.1,284.59732,1594247786444
Fix,GT,37.4238933,-122.0886341,,20.301739,0.1,283.95102,1594247787444
Fix,GT,37.4239334,-122.0888508,,19.009182,0.1,282.20264,1594247788444
Fix,GT,37.4239632,-122.0890516,,17.173328,0.1,278.81024,1594247789444
Fix,GT,37.423979,-122.0892334,,15.303468,0.1,273.9119,1594247790444
Fix,GT,37.4239809,-122.0893961,,13.631908,0.1,268.7938,1594247791444
Fix,GT,37.4239731,-122.0895402,,12.001929,0.1,264.5474,1594247792444
Fix,GT,37.4239588,-122.0896644,,10.226917,0.1,260.13977,1594247793444
Fix,GT,37.4239405,-122.0897652,,8.025763,0.1,255.9266,1594247794444
Fix,GT,37.4239237,-122.0898376,,5.3995757,0.1,253.34108,1594247795444
Fix,GT,37.4239111,-122.0898863,,3.8171241,0.1,252.2038,1594247796444
Fix,GT,37.4238996,-122.0899288,,4.384349,0.1,251.67029,1594247797444
Fix,GT,37.423884,-122.0899846,,6.2817564,0.1,251.00912,1594247798444
Fix,GT,37.4238615,-122.0900626,,8.348452,0.1,250.09201,1594247799444
Fix,GT,37.4238323,-122.0901595,,9.982678,0.1,249.26971,1594247800444
Fix,GT,37.4237972,-122.090272,,11.344006,0.1,248.64194,1594247801444
Fix,GT,37.4237571,-122.0903974,,12.495562,0.1,248.13672,1594247802444
Fix,GT,37.4237124,-122.0905324,,13.383746,0.1,247.09067,1594247803444
Fix,GT,37.4236607,-122.0906738,,14.14609,0.1,244.17513,1594247804444
Fix,GT,37.4235984,-122.0908158,,14.577261,0.1,239.25763,1594247805444
Fix,GT,37.423525,-122.0909537,,14.827312,0.1,234.3884,1594247806444
Fix,GT,37.4234413,-122.0910857,,15.078499,0.1,229.68475,1594247807444
Fix,GT,37.4233474,-122.0912097,,15.285438,0.1,224.38553,1594247808444
Fix,GT,37.4232439,-122.0913238,,15.329242,0.1,219.45453,1594247809444
Fix,GT,37.4231348,-122.0914277,,15.094078,0.1,216.10388,1594247810444
Fix,GT,37.4230257,-122.0915262,,14.740635,0.1,216.30165,1594247811444
Fix,GT,37.4229235,-122.091629,,14.342627,0.1,221.50664,1594247812444
Fix,GT,37.4228358,-122.0917459,,14.199068,0.1,230.79099,1594247813444
Fix,GT,37.4227642,-122.0918807,,14.629912,0.1,239.77512,1594247814444
Fix,GT,37.4227032,-122.0920322,,15.455723,0.1,245.0849,1594247815444
Fix,GT,37.4226449,-122.0921962,,16.30717,0.1,246.37173,1594247816444
Fix,GT,37.4225851,-122.0923686,,16.971931,0.1,246.73462,1594247817444
Fix,GT,37.4225241,-122.0925467,,17.237806,0.1,246.93625,1594247818444
Fix,GT,37.4224636,-122.0927253,,17.045576,0.1,247.34653,1594247819444
Fix,GT,37.4224054,-122.0929025,,16.879873,0.1,248.27036,1594247820444
Fix,GT,37.4223528,-122.0930809,,16.80101,0.1,251.14603,1594247821444
Fix,GT,37.4223125,-122.0932621,,16.485382,0.1,257.42477,1594247822444
Fix,GT,37.4222928,-122.0934443,,16.155966,0.1,266.21692,1594247823444
Fix,GT,37.4222997,-122.0936254,,16.10417,0.1,277.74707,1594247824444
Fix,GT,37.4223379,-122.0938025,,16.597063,0.1,290.33804,1594247825444
Fix,GT,37.4224065,-122.093974,,17.532692,0.1,300.8453,1594247826444
Fix,GT,37.4224993,-122.0941428,,18.831024,0.1,306.93753,1594247827444
Fix,GT,37.4226085,-122.0943173,,20.429146,0.1,308.94864,1594247828444
Fix,GT,37.4227299,-122.0945025,,21.990978,0.1,310.09073,1594247829444
Fix,GT,37.422862,-122.0946978,,23.290031,0.1,310.75708,1594247830444
Fix,GT,37.423002,-122.0949016,,24.316372,0.1,311.0879,1594247831444
Fix,GT,37.4231488,-122.0951126,,25.196997,0.1,311.39508,1594247832444
Fix,GT,37.4233006,-122.0953294,,25.87775,0.1,311.44464,1594247833444
Fix,GT,37.423456,-122.095552,,26.526283,0.1,311.15866,1594247834444
Fix,GT,37.4236142,-122.0957818,,27.212917,0.1,310.7569,1594247835444
Fix,GT,37.4237753,-122.0960183,,27.847656,0.1,310.635,1594247836444
Fix,GT,37.4239404,-122.0962591,,28.330112,0.1,311.11298,1594247837444
Fix,GT,37.4241102,-122.0965003,,28.594753,0.1,312.1434,1594247838444
Fix,GT,37.4242848,-122.0967388,,28.685974,0.1,313.2523,1594247839444
Fix,GT,37.4244632,-122.0969737,,28.724573,0.1,314.20584,1594247840444
Fix,GT,37.4246443,-122.0972051,,28.668922,0.1,314.99353,1594247841444
Fix,GT,37.4248273,-122.0974327,,28.57641,0.1,315.73758,1594247842444
Fix,GT,37.4250124,-122.0976573,,28.58006,0.1,316.41846,1594247843444
Fix,GT,37.4251997,-122.0978794,,28.635195,0.1,317.08838,1594247844444
Fix,GT,37.4253894,-122.098099,,28.67356,0.1,317.75842,1594247845444
Fix,GT,37.4255812,-122.0983162,,28.679413,0.1,318.41638,1594247846444
Fix,GT,37.425775,-122.0985303,,28.628433,0.1,319.11646,1594247847444
Fix,GT,37.4259702,-122.0987408,,28.474657,0.1,319.80566,1594247848444
Fix,GT,37.4261657,-122.098947,,28.191372,0.1,320.33154,1594247849444
Fix,GT,37.4263603,-122.0991485,,27.841404,0.1,320.74753,1594247850444
Fix,GT,37.4265532,-122.0993465,,27.484343,0.1,320.86075,1594247851444
Fix,GT,37.4267435,-122.0995422,,27.151913,0.1,320.5591,1594247852444
Fix,GT,37.4269307,-122.0997375,,26.927872,0.1,320.21805,1594247853444
Fix,GT,37.427116,-122.0999331,,26.859087,0.1,319.96545,1594247854444
Fix,GT,37.4273011,-122.1001291,,26.927979,0.1,319.88818,1594247855444
Fix,GT,37.4274864,-122.1003262,,27.013432,0.1,319.8205,1594247856444
Fix,GT,37.4276718,-122.1005243,,27.069855,0.1,319.67496,1594247857444
Fix,GT,37.427858,-122.1007236,,27.286602,0.1,319.6296,1594247858444
Fix,GT,37.4280465,-122.100924,,27.561398,0.1,320.0193,1594247859444
Fix,GT,37.4282372,-122.1011239,,27.600565,0.1,320.4855,1594247860444
Fix,GT,37.4284283,-122.1013221,,27.44031,0.1,320.6901,1594247861444
Fix,GT,37.4286186,-122.1015192,,27.380909,0.1,320.40683,1594247862444
Fix,GT,37.4288079,-122.101718,,27.449001,0.1,320.02936,1594247863444
Fix,GT,37.4289973,-122.1019187,,27.609589,0.1,319.90366,1594247864444
Fix,GT,37.4291879,-122.102121,,27.817616,0.1,319.9519,1594247865444
Fix,GT,37.4293803,-122.102324,,28.005123,0.1,320.13974,1594247866444
Fix,GT,37.4295741,-122.102528,,28.14333,0.1,320.13104,1594247867444
Fix,GT,37.4297683,-122.1027332,,28.219612,0.1,320.00452,1594247868444
Fix,GT,37.429963,-122.1029385,,28.241096,0.1,320.1712,1594247869444
Fix,GT,37.4301583,-122.1031433,,28.259308,0.1,320.36728,1594247870444
Fix,GT,37.430354,-122.1033471,,28.205448,0.1,320.5408,1594247871444
Fix,GT,37.4305493,-122.1035499,,28.087437,0.1,320.55505,1594247872444
Fix,GT,37.4307436,-122.1037524,,28.025322,0.1,320.24243,1594247873444
Fix,GT,37.4309369,-122.1039563,,28.065145,0.1,319.87766,1594247874444
Fix,GT,37.4311302,-122.1041617,,28.1926,0.1,319.95667,1594247875444
Fix,GT,37.4313252,-122.1043672,,28.323109,0.1,320.17874,1594247876444
Fix,GT,37.4315209,-122.1045733,,28.427864,0.1,320.10788,1594247877444
Fix,GT,37.4317171,-122.1047806,,28.514011,0.1,320.02667,1594247878444
Fix,GT,37.4319136,-122.1049883,,28.501757,0.1,320.09744,1594247879444
Fix,GT,37.4321104,-122.1051952,,28.508556,0.1,320.28204,1594247880444
Fix,GT,37.4323083,-122.105402,,28.697716,0.1,320.3839,1594247881444
Fix,GT,37.4325082,-122.1056109,,29.120491,0.1,320.2449,1594247882444
Fix,GT,37.432711,-122.1058243,,29.704119,0.1,320.08337,1594247883444
Fix,GT,37.4329176,-122.1060424,,30.216917,0.1,320.09637,1594247884444
Fix,GT,37.4331275,-122.1062629,,30.519005,0.1,320.30426,1594247885444
Fix,GT,37.4333398,-122.106484,,30.699474,0.1,320.51248,1594247886444
Fix,GT,37.4335533,-122.1067053,,30.767935,0.1,320.5264,1594247887444
Fix,GT,37.4337664,-122.1069266,,30.639362,0.1,320.43912,1594247888444
Fix,GT,37.4339776,-122.1071466,,30.267292,0.1,320.43948,1594247889444
Fix,GT,37.4341858,-122.1073636,,29.78275,0.1,320.38205,1594247890444
Fix,GT,37.4343899,-122.1075773,,29.233719,0.1,320.19717,1594247891444
Fix,GT,37.4345895,-122.1077879,,28.662247,0.1,320.08035,1594247892444
Fix,GT,37.4347853,-122.1079944,,28.134274,0.1,320.07983,1594247893444
Fix,GT,37.4349778,-122.1081973,,27.687653,0.1,320.11142,1594247894444
Fix,GT,37.4351673,-122.1083972,,27.309868,0.1,320.1241,1594247895444
Fix,GT,37.4353553,-122.1085948,,27.183075,0.1,320.16556,1594247896444
Fix,GT,37.4355436,-122.1087929,,27.427202,0.1,320.09778,1594247897444
Fix,GT,37.4357341,-122.108994,,27.867825,0.1,319.95584,1594247898444
Fix,GT,37.4359273,-122.1091988,,28.262249,0.1,319.93185,1594247899444
Fix,GT,37.436123,-122.1094054,,28.480373,0.1,320.16782,1594247900444
Fix,GT,37.4363203,-122.1096119,,28.567432,0.1,320.44604,1594247901444
Fix,GT,37.4365187,-122.1098182,,28.64664,0.1,320.46158,1594247902444
Fix,GT,37.4367175,-122.1100259,,28.822657,0.1,320.22372,1594247903444
Fix,GT,37.4369173,-122.1102367,,29.153683,0.1,319.97043,1594247904444
Fix,GT,37.4371195,-122.1104508,,29.59038,0.1,319.94162,1594247905444
Fix,GT,37.4373245,-122.1106681,,29.974812,0.1,319.99435,1594247906444
Fix,GT,37.4375322,-122.1108876,,30.277464,0.1,320.12817,1594247907444
Fix,GT,37.4377423,-122.111108,,30.521688,0.1,320.32648,1594247908444
Fix,GT,37.437954,-122.1113292,,30.621542,0.1,320.39566,1594247909444
Fix,GT,37.4381661,-122.1115501,,30.549282,0.1,320.4929,1594247910444
Fix,GT,37.4383774,-122.1117694,,30.284933,0.1,320.52475,1594247911444
Fix,GT,37.438586,-122.1119867,,29.927246,0.1,320.37933,1594247912444
Fix,GT,37.4387919,-122.1122027,,29.71489,0.1,320.12488,1594247913444
Fix,GT,37.4389967,-122.1124191,,29.774412,0.1,319.97937,1594247914444
Fix,GT,37.4392025,-122.1126368,,29.989155,0.1,320.03268,1594247915444
Fix,GT,37.4394101,-122.1128554,,30.177837,0.1,320.1546,1594247916444
Fix,GT,37.4396189,-122.1130748,,30.241695,0.1,320.20575,1594247917444
Fix,GT,37.4398275,-122.1132939,,30.140747,0.1,320.24683,1594247918444
Fix,GT,37.4400352,-122.1135119,,29.991234,0.1,320.22565,1594247919444
Fix,GT,37.4402422,-122.1137297,,29.99425,0.1,320.1559,1594247920444
Fix,GT,37.4404495,-122.1139481,,30.099056,0.1,320.21487,1594247921444
Fix,GT,37.4406581,-122.1141663,,30.2196,0.1,320.4597,1594247922444
Fix,GT,37.4408684,-122.1143847,,30.375149,0.1,320.56207,1594247923444
Fix,GT,37.4410796,-122.1146045,,30.546896,0.1,320.40033,1594247924444
Fix,GT,37.4412916,-122.1148261,,30.727093,0.1,320.28967,1594247925444
Fix,GT,37.4415047,-122.1150493,,30.883327,0.1,320.2626,1594247926444
Fix,GT,37.4417184,-122.1152732,,30.911821,0.1,320.27133,1594247927444
Fix,GT,37.4419318,-122.1154969,,30.821976,0.1,320.2247,1594247928444
Fix,GT,37.4421444,-122.1157199,,30.705246,0.1,320.2079,1594247929444
Fix,GT,37.4423564,-122.1159422,,30.65067,0.1,320.2025,1594247930444
Fix,GT,37.4425677,-122.1161647,,30.576645,0.1,320.04736,1594247931444
Fix,GT,37.4427778,-122.1163871,,30.452204,0.1,319.90463,1594247932444
Fix,GT,37.4429868,-122.1166089,,30.34053,0.1,319.88913,1594247933444
Fix,GT,37.4431951,-122.1168302,,30.282143,0.1,319.8883,1594247934444
Fix,GT,37.4434032,-122.1170515,,30.268303,0.1,319.92664,1594247935444
Fix,GT,37.4436115,-122.1172721,,30.249817,0.1,320.11783,1594247936444
Fix,GT,37.4438203,-122.1174915,,30.19234,0.1,320.2446,1594247937444
Fix,GT,37.444029,-122.1177102,,30.162937,0.1,320.3351,1594247938444
Fix,GT,37.4442378,-122.1179285,,30.181627,0.1,320.3546,1594247939444
Fix,GT,37.4444468,-122.1181471,,30.224728,0.1,320.29907,1594247940444
Fix,GT,37.444656,-122.1183663,,30.265255,0.1,320.30823,1594247941444
Fix,GT,37.4448659,-122.118586,,30.451174,0.1,320.34314,1594247942444
Fix,GT,37.4450777,-122.118808,,30.820372,0.1,320.29047,1594247943444
Fix,GT,37.4452918,-122.1190327,,31.131252,0.1,320.22025,1594247944444
Fix,GT,37.4455073,-122.1192599,,31.367651,0.1,320.0615,1594247945444
Fix,GT,37.4457242,-122.1194893,,31.569775,0.1,320.0037,1594247946444
Fix,GT,37.4459426,-122.1197197,,31.805141,0.1,320.1556,1594247947444
Fix,GT,37.4461633,-122.1199521,,32.145805,0.1,320.1738,1594247948444
Fix,GT,37.4463863,-122.1201867,,32.446148,0.1,320.33597,1594247949444
Fix,GT,37.4466122,-122.1204218,,32.703938,0.1,320.67798,1594247950444
Fix,GT,37.4468402,-122.1206572,,32.794655,0.1,320.6874,1594247951444
Fix,GT,37.4470673,-122.1208927,,32.546745,0.1,320.49146,1594247952444
Fix,GT,37.4472915,-122.1211266,,32.214127,0.1,320.28467,1594247953444
Fix,GT,37.4475135,-122.1213599,,32.12856,0.1,320.0982,1594247954444
Fix,GT,37.4477354,-122.121594,,32.25426,0.1,320.12305,1594247955444
Fix,GT,37.4479587,-122.1218282,,32.374207,0.1,320.38983,1594247956444
Fix,GT,37.4481834,-122.1220623,,32.46554,0.1,320.38318,1594247957444
Fix,GT,37.4484083,-122.1222973,,32.491966,0.1,320.28433,1594247958444
Fix,GT,37.4486329,-122.1225329,,32.50341,0.1,320.28772,1594247959444
Fix,GT,37.4488579,-122.1227686,,32.51846,0.1,320.3014,1594247960444
Fix,GT,37.4490827,-122.123003,,32.3473,0.1,320.48904,1594247961444
Fix,GT,37.4493061,-122.1232345,,31.951857,0.1,320.54974,1594247962444
Fix,GT,37.4495264,-122.1234638,,31.626287,0.1,320.239,1594247963444
Fix,GT,37.4497438,-122.1236923,,31.342918,0.1,319.96857,1594247964444
Fix,GT,37.4499581,-122.1239197,,30.936586,0.1,319.8866,1594247965444
Fix,GT,37.4501692,-122.1241445,,30.507256,0.1,319.91714,1594247966444
Fix,GT,37.4503775,-122.1243656,,30.067055,0.1,319.92404,1594247967444
Fix,GT,37.450582,-122.1245845,,29.632473,0.1,319.41922,1594247968444
Fix,GT,37.4507816,-122.1248034,,29.232704,0.1,318.53473,1594247969444
Fix,GT,37.4509757,-122.1250234,,28.849712,0.1,317.55975,1594247970444
Fix,GT,37.4511641,-122.1252448,,28.4518,0.1,316.43665,1594247971444
Fix,GT,37.4513463,-122.1254676,,28.032837,0.1,315.4082,1594247972444
Fix,GT,37.4515226,-122.125691,,27.626637,0.1,314.36636,1594247973444
Fix,GT,37.4516935,-122.1259149,,27.2515,0.1,313.41052,1594247974444
Fix,GT,37.4518594,-122.1261404,,27.06223,0.1,312.4239,1594247975444
Fix,GT,37.4520223,-122.1263704,,27.422249,0.1,311.2665,1594247976444
Fix,GT,37.4521849,-122.1266095,,28.147995,0.1,309.93976,1594247977444
Fix,GT,37.4523466,-122.1268579,,28.502846,0.1,308.82074,1594247978444
Fix,GT,37.4525056,-122.1271106,,28.429531,0.1,308.03085,1594247979444
Fix,GT,37.4526611,-122.1273648,,28.27265,0.1,307.33618,1594247980444
Fix,GT,37.4528131,-122.1276196,,28.056797,0.1,306.64783,1594247981444
Fix,GT,37.4529616,-122.1278741,,27.774689,0.1,306.2056,1594247982444
Fix,GT,37.4531078,-122.1281266,,27.45118,0.1,306.2564,1594247983444
Fix,GT,37.4532531,-122.1283756,,27.159838,0.1,306.427,1594247984444
Fix,GT,37.4533972,-122.1286214,,26.843473,0.1,306.55347,1594247985444
Fix,GT,37.45354,-122.1288641,,26.529217,0.1,306.60364,1594247986444
Fix,GT,37.4536815,-122.1291047,,26.447222,0.1,306.51437,1594247987444
Fix,GT,37.4538225,-122.1293458,,26.460005,0.1,306.36203,1594247988444
Fix,GT,37.4539628,-122.1295862,,26.231842,0.1,306.4288,1594247989444
Fix,GT,37.4541021,-122.1298235,,25.928923,0.1,306.5371,1594247990444
Fix,GT,37.4542399,-122.130058,,25.65472,0.1,306.53455,1594247991444
Fix,GT,37.4543766,-122.1302912,,25.649693,0.1,306.45346,1594247992444
Fix,GT,37.4545144,-122.1305264,,26.00924,0.1,306.4108,1594247993444
Fix,GT,37.4546538,-122.1307647,,26.21613,0.1,306.3904,1594247994444
Fix,GT,37.4547932,-122.1310028,,26.029438,0.1,306.42853,1594247995444
Fix,GT,37.4549312,-122.1312386,,25.725258,0.1,306.44437,1594247996444
Fix,GT,37.4550679,-122.1314726,,25.61972,0.1,306.32678,1594247997444
Fix,GT,37.455204,-122.1317066,,25.67087,0.1,306.22858,1594247998444
Fix,GT,37.4553398,-122.1319404,,25.48079,0.1,306.27704,1594247999444
Fix,GT,37.4554748,-122.1321716,,25.217648,0.1,306.40283,1594248000444
Fix,GT,37.4556091,-122.1324009,,25.174799,0.1,306.4943,1594248001444
Fix,GT,37.455744,-122.1326304,,25.277922,0.1,306.57907,1594248002444
Fix,GT,37.4558793,-122.1328597,,25.141106,0.1,306.73126,1594248003444
Fix,GT,37.4560142,-122.133087,,25.073616,0.1,306.8244,1594248004444
Fix,GT,37.4561495,-122.1333151,,25.26482,0.1,306.68213,1594248005444
Fix,GT,37.4562851,-122.1335467,,25.583172,0.1,306.09738,1594248006444
Fix,GT,37.4564202,-122.1337847,,26.195839,0.1,305.0139,1594248007444
Fix,GT,37.4565558,-122.1340327,,27.07133,0.1,304.31067,1594248008444
Fix,GT,37.4566955,-122.1342893,,27.89037,0.1,304.76334,1594248009444
Fix,GT,37.4568421,-122.1345504,,28.636885,0.1,305.79077,1594248010444
Fix,GT,37.4569959,-122.1348158,,29.41919,0.1,306.36246,1594248011444
Fix,GT,37.457155,-122.1350864,,30.040958,0.1,306.69284,1594248012444
Fix,GT,37.4573178,-122.1353605,,30.433762,0.1,306.96072,1594248013444
Fix,GT,37.4574824,-122.135637,,30.61686,0.1,306.83282,1594248014444
Fix,GT,37.4576468,-122.1359156,,30.701496,0.1,306.4754,1594248015444
Fix,GT,37.4578107,-122.1361959,,30.770956,0.1,306.35797,1594248016444
Fix,GT,37.4579747,-122.1364767,,30.852726,0.1,306.41623,1594248017444
Fix,GT,37.4581396,-122.1367581,,30.968468,0.1,306.5445,1594248018444
Fix,GT,37.4583055,-122.1370399,,30.957304,0.1,306.6326,1594248019444
Fix,GT,37.4584711,-122.1373204,,30.817192,0.1,306.73492,1594248020444
Fix,GT,37.4586363,-122.137599,,30.610485,0.1,306.8051,1594248021444
Fix,GT,37.4588002,-122.1378757,,30.389996,0.1,306.70465,1594248022444
Fix,GT,37.4589626,-122.1381507,,30.177155,0.1,306.6463,1594248023444
Fix,GT,37.4591239,-122.1384238,,29.967499,0.1,306.70212,1594248024444
Fix,GT,37.4592842,-122.138695,,29.788052,0.1,306.64093,1594248025444
Fix,GT,37.4594434,-122.138965,,29.643806,0.1,306.55078,1594248026444
Fix,GT,37.4596017,-122.1392339,,29.492592,0.1,306.64563,1594248027444
Fix,GT,37.4597596,-122.1395008,,29.32913,0.1,306.81934,1594248028444
Fix,GT,37.4599173,-122.1397658,,29.193127,0.1,306.82227,1594248029444
Fix,GT,37.4600738,-122.1400308,,29.21804,0.1,306.40167,1594248030444
Fix,GT,37.4602291,-122.1402987,,29.425636,0.1,305.97308,1594248031444
Fix,GT,37.4603852,-122.1405692,,29.661594,0.1,306.06036,1594248032444
Fix,GT,37.4605431,-122.1408415,,29.936157,0.1,306.27115,1594248033444
Fix,GT,37.4607032,-122.1411158,,30.184412,0.1,306.32523,1594248034444
Fix,GT,37.4608638,-122.1413917,,30.27259,0.1,306.21704,1594248035444
Fix,GT,37.4610246,-122.1416685,,30.349808,0.1,306.21146,1594248036444
Fix,GT,37.4611863,-122.1419462,,30.495756,0.1,306.37195,1594248037444
Fix,GT,37.461349,-122.1422245,,30.567863,0.1,306.4255,1594248038444
Fix,GT,37.4615118,-122.1425025,,30.46609,0.1,306.48856,1594248039444
Fix,GT,37.4616744,-122.1427791,,30.324059,0.1,306.63644,1594248040444
Fix,GT,37.4618369,-122.1430544,,30.303999,0.1,306.59882,1594248041444
Fix,GT,37.4619989,-122.1433303,,30.34487,0.1,306.3703,1594248042444
Fix,GT,37.4621601,-122.1436076,,30.392387,0.1,306.11426,1594248043444
Fix,GT,37.462321,-122.1438862,,30.468925,0.1,306.0448,1594248044444
Fix,GT,37.4624826,-122.1441652,,30.578924,0.1,306.25354,1594248045444
Fix,GT,37.4626458,-122.1444444,,30.66224,0.1,306.4766,1594248046444
Fix,GT,37.4628098,-122.1447236,,30.71234,0.1,306.53757,1594248047444
Fix,GT,37.462974,-122.1450034,,30.749798,0.1,306.3564,1594248048444
Fix,GT,37.4631376,-122.145284,,30.783695,0.1,306.25574,1594248049444
Fix,GT,37.4633015,-122.1455654,,30.89566,0.1,306.26346,1594248050444
Fix,GT,37.4634666,-122.1458484,,31.139027,0.1,306.3169,1594248051444
Fix,GT,37.4636332,-122.1461331,,31.3488,0.1,306.54913,1594248052444
Fix,GT,37.4638015,-122.1464182,,31.405571,0.1,306.71793,1594248053444
Fix,GT,37.4639698,-122.1467034,,31.417366,0.1,306.59125,1594248054444
Fix,GT,37.4641382,-122.1469898,,31.552893,0.1,306.5686,1594248055444
Fix,GT,37.4643076,-122.1472775,,31.677006,0.1,306.63397,1594248056444
Fix,GT,37.4644771,-122.1475656,,31.695625,0.1,306.51575,1594248057444
Fix,GT,37.4646465,-122.1478546,,31.779203,0.1,306.4119,1594248058444
Fix,GT,37.4648163,-122.1481448,,31.93174,0.1,306.44745,1594248059444
Fix,GT,37.4649869,-122.1484365,,32.0838,0.1,306.46185,1594248060444
Fix,GT,37.4651583,-122.1487295,,32.21027,0.1,306.43298,1594248061444
Fix,GT,37.4653303,-122.1490235,,32.301617,0.1,306.406,1594248062444
Fix,GT,37.4655029,-122.1493183,,32.456894,0.1,306.50012,1594248063444
Fix,GT,37.4656772,-122.1496146,,32.685814,0.1,306.59674,1594248064444
Fix,GT,37.4658527,-122.1499123,,32.804264,0.1,306.66077,1594248065444
Fix,GT,37.4660287,-122.1502106,,32.852875,0.1,306.6659,1594248066444
Fix,GT,37.4662048,-122.1505094,,32.890465,0.1,306.5704,1594248067444
Fix,GT,37.4663808,-122.1508088,,32.931778,0.1,306.50916,1594248068444
Fix,GT,37.4665567,-122.1511089,,32.976982,0.1,306.43115,1594248069444
Fix,GT,37.4667325,-122.1514098,,33.032463,0.1,306.3323,1594248070444
Fix,GT,37.4669083,-122.1517114,,33.085663,0.1,306.33804,1594248071444
Fix,GT,37.4670848,-122.152013,,33.10373,0.1,306.54376,1594248072444
Fix,GT,37.4672622,-122.1523137,,33.06505,0.1,306.7538,1594248073444
Fix,GT,37.4674397,-122.1526132,,32.94605,0.1,306.8211,1594248074444
Fix,GT,37.4676167,-122.1529107,,32.71607,0.1,306.91217,1594248075444
Fix,GT,37.4677924,-122.1532056,,32.43773,0.1,306.91476,1594248076444
Fix,GT,37.4679668,-122.1534987,,32.282913,0.1,306.82648,1594248077444
Fix,GT,37.4681403,-122.1537913,,32.248203,0.1,306.72507,1594248078444
Fix,GT,37.4683136,-122.1540844,,32.353134,0.1,306.61032,1594248079444
Fix,GT,37.468487,-122.1543795,,32.486195,0.1,306.41415,1594248080444
Fix,GT,37.4686599,-122.1546756,,32.394352,0.1,306.34,1594248081444
Fix,GT,37.468832,-122.1549695,,32.14606,0.1,306.50403,1594248082444
Fix,GT,37.4690032,-122.1552602,,31.783543,0.1,306.62015,1594248083444
Fix,GT,37.4691722,-122.1555473,,31.370178,0.1,306.51474,1594248084444
Fix,GT,37.4693383,-122.1558312,,30.94106,0.1,306.30197,1594248085444
Fix,GT,37.4695014,-122.1561116,,30.477192,0.1,306.21198,1594248086444
Fix,GT,37.4696619,-122.1563878,,30.018337,0.1,306.2403,1594248087444
Fix,GT,37.4698204,-122.1566603,,29.680605,0.1,306.2469,1594248088444
Fix,GT,37.4699776,-122.1569302,,29.457275,0.1,306.3258,1594248089444
Fix,GT,37.4701339,-122.1571979,,29.22345,0.1,306.44592,1594248090444
Fix,GT,37.4702895,-122.1574628,,29.062605,0.1,306.56186,1594248091444
Fix,GT,37.4704453,-122.1577275,,29.233639,0.1,306.56213,1594248092444
Fix,GT,37.4706026,-122.1579953,,29.605785,0.1,306.44806,1594248093444
Fix,GT,37.4707616,-122.158267,,30.014685,0.1,306.3575,1594248094444
Fix,GT,37.4709226,-122.1585427,,30.477423,0.1,306.33655,1594248095444
Fix,GT,37.4710858,-122.1588224,,30.830322,0.1,306.4222,1594248096444
Fix,GT,37.4712509,-122.1591038,,31.006184,0.1,306.52594,1594248097444
Fix,GT,37.4714171,-122.1593871,,31.234617,0.1,306.44604,1594248098444
Fix,GT,37.4715842,-122.1596732,,31.523933,0.1,306.28146,1594248099444
Fix,GT,37.4717524,-122.1599624,,31.832447,0.1,306.228,1594248100444
Fix,GT,37.4719222,-122.1602542,,32.095806,0.1,306.29312,1594248101444
Fix,GT,37.4720936,-122.1605479,,32.255264,0.1,306.40524,1594248102444
Fix,GT,37.472266,-122.1608414,,32.210567,0.1,306.60947,1594248103444
Fix,GT,37.4724381,-122.1611326,,31.904686,0.1,306.78964,1594248104444
Fix,GT,37.472609,-122.1614204,,31.61847,0.1,306.84186,1594248105444
Fix,GT,37.4727789,-122.1617064,,31.522367,0.1,306.76324,1594248106444
Fix,GT,37.4729491,-122.1619921,,31.570173,0.1,307.30103,1594248107444
Fix,GT,37.473123,-122.1622758,,31.745926,0.1,308.36377,1594248108444
Fix,GT,37.4733015,-122.1625585,,32.095818,0.1,308.47894,1594248109444
Fix,GT,37.4734809,-122.1628462,,32.523396,0.1,307.7324,1594248110444
Fix,GT,37.4736592,-122.1631407,,32.891827,0.1,306.923,1594248111444
Fix,GT,37.4738369,-122.1634401,,33.152195,0.1,306.6391,1594248112444
Fix,GT,37.4740149,-122.1637423,,33.32067,0.1,306.42023,1594248113444
Fix,GT,37.4741926,-122.1640468,,33.446896,0.1,306.25513,1594248114444
Fix,GT,37.4743701,-122.1643528,,33.50563,0.1,306.2212,1594248115444
Fix,GT,37.4745485,-122.1646588,,33.539017,0.1,306.3525,1594248116444
Fix,GT,37.4747275,-122.1649644,,33.558678,0.1,306.46506,1594248117444
Fix,GT,37.4749067,-122.1652701,,33.559162,0.1,306.4005,1594248118444
Fix,GT,37.4750853,-122.1655761,,33.550247,0.1,306.27084,1594248119444
Fix,GT,37.4752637,-122.1658822,,33.481213,0.1,306.39243,1594248120444
Fix,GT,37.4754418,-122.1661861,,33.253906,0.1,306.5114,1594248121444
Fix,GT,37.4756185,-122.1664873,,32.895405,0.1,306.4145,1594248122444
Fix,GT,37.4757927,-122.1667854,,32.494858,0.1,306.3673,1594248123444
Fix,GT,37.4759649,-122.16708,,32.151817,0.1,306.45547,1594248124444
Fix,GT,37.4761359,-122.1673715,,31.8746,0.1,306.54822,1594248125444
Fix,GT,37.4763057,-122.1676598,,31.53622,0.1,306.67557,1594248126444
Fix,GT,37.4764743,-122.1679443,,31.17875,0.1,306.88284,1594248127444
Fix,GT,37.476642,-122.1682246,,30.84528,0.1,307.41882,1594248128444
Fix,GT,37.4768102,-122.1684991,,30.304234,0.1,307.95984,1594248129444
Fix,GT,37.4769742,-122.1687646,,29.014042,0.1,307.6037,1594248130444
Fix,GT,37.4771271,-122.1690189,,27.448513,0.1,306.8039,1594248131444
Fix,GT,37.4772709,-122.1692638,,26.495876,0.1,306.25235,1594248132444
Fix,GT,37.477409,-122.1695051,,26.204357,0.1,305.2846,1594248133444
Fix,GT,37.4775435,-122.1697507,,26.659662,0.1,304.0105,1594248134444
Fix,GT,37.4776786,-122.1700054,,27.485992,0.1,303.84094,1594248135444
Fix,GT,37.4778199,-122.1702668,,28.407387,0.1,304.8359,1594248136444
Fix,GT,37.4779695,-122.1705333,,29.225666,0.1,305.7022,1594248137444
Fix,GT,37.4781247,-122.1708035,,29.64798,0.1,306.1337,1594248138444
Fix,GT,37.4782825,-122.1710754,,29.852058,0.1,306.27054,1594248139444
Fix,GT,37.4784419,-122.1713492,,30.146294,0.1,306.33084,1594248140444
Fix,GT,37.4786042,-122.1716247,,30.457947,0.1,307.0598,1594248141444
Fix,GT,37.4787716,-122.1718993,,30.682268,0.1,308.09488,1594248142444
Fix,GT,37.4789433,-122.1721736,,31.01332,0.1,308.48172,1594248143444
Fix,GT,37.4791174,-122.1724509,,31.421186,0.1,308.1133,1594248144444
Fix,GT,37.4792912,-122.1727338,,31.759426,0.1,307.26968,1594248145444
Fix,GT,37.4794632,-122.1730226,,32.016747,0.1,306.5601,1594248146444
Fix,GT,37.4796342,-122.1733151,,32.13833,0.1,306.23297,1594248147444
Fix,GT,37.4798047,-122.1736092,,32.155144,0.1,306.12592,1594248148444
Fix,GT,37.4799749,-122.1739034,,32.173126,0.1,306.15335,1594248149444
Fix,GT,37.4801456,-122.1741977,,32.222702,0.1,306.23904,1594248150444
Fix,GT,37.480317,-122.1744927,,32.381344,0.1,306.20325,1594248151444
Fix,GT,37.4804891,-122.1747898,,32.590286,0.1,306.15164,1594248152444
Fix,GT,37.4806623,-122.1750885,,32.727882,0.1,306.3219,1594248153444
Fix,GT,37.4808364,-122.1753877,,32.80589,0.1,306.43655,1594248154444
Fix,GT,37.4810111,-122.175687,,32.79957,0.1,306.436,1594248155444
Fix,GT,37.4811858,-122.1759856,,32.7143,0.1,306.4166,1594248156444
Fix,GT,37.4813595,-122.1762831,,32.50054,0.1,306.32104,1594248157444
Fix,GT,37.4815309,-122.1765786,,32.131973,0.1,306.13312,1594248158444
Fix,GT,37.4816993,-122.1768722,,31.91353,0.1,305.67358,1594248159444
Fix,GT,37.4818658,-122.1771675,,32.143673,0.1,305.21338,1594248160444
Fix,GT,37.4820321,-122.1774679,,32.53503,0.1,304.60495,1594248161444
Fix,GT,37.4821967,-122.1777738,,32.757893,0.1,303.69318,1594248162444
Fix,GT,37.4823581,-122.1780846,,32.852207,0.1,302.6907,1594248163444
Fix,GT,37.4825154,-122.1783996,,32.924026,0.1,301.6811,1594248164444
Fix,GT,37.4826685,-122.1787189,,33.003113,0.1,300.61725,1594248165444
Fix,GT,37.482817,-122.1790423,,33.04708,0.1,299.51453,1594248166444
Fix,GT,37.4829607,-122.1793692,,32.978134,0.1,298.43207,1594248167444
Fix,GT,37.4830989,-122.1796983,,32.826942,0.1,297.40283,1594248168444
Fix,GT,37.4832322,-122.1800283,,32.6428,0.1,296.59454,1594248169444
Fix,GT,37.4833613,-122.1803583,,32.370636,0.1,295.9678,1594248170444
Fix,GT,37.4834866,-122.1806865,,31.970833,0.1,295.43533,1594248171444
