MessageType,Provider,LatitudeDegrees,LongitudeDegrees,AltitudeMeters,SpeedMps,AccuracyMeters,BearingDegrees,UnixTimeMillis
Fix,GT,37.6267563,-122.427417,,0.0036055513,0.1,67.78815,1591388313904
Fix,GT,37.6267563,-122.427417,,0.003605551,0.1,67.78812,1591388314444
Fix,GT,37.6267563,-122.427417,,0.0032600951,0.1,67.78845,1591388315444
Fix,GT,37.6267563,-122.427417,,0.0028284271,0.1,67.789154,1591388316444
Fix,GT,37.6267563,-122.427417,,0.003793759,0.1,67.78906,1591388317444
Fix,GT,37.6267563,-122.427417,,0.005369384,0.1,67.78897,1591388318444
Fix,GT,37.6267563,-122.427417,,0.005461568,0.1,67.789276,1591388319444
Fix,GT,37.6267563,-122.427417,,0.004765348,0.1,67.78964,1591388320444
Fix,GT,37.6267563,-122.427417,,0.0038898634,0.1,67.79025,1591388321444
Fix,GT,37.6267563,-122.427417,,0.0033593266,0.1,67.79004,1591388322444
Fix,GT,37.6267563,-122.427417,,0.0039907754,0.1,67.79016,1591388323444
Fix,GT,37.6267563,-122.427417,,0.0044721365,0.1,67.79022,1591388324444
Fix,GT,37.6267563,-122.427417,,0.004706788,0.1,67.78992,1591388325444
Fix,GT,37.6267563,-122.427417,,0.005171218,0.1,67.79053,1591388326444
Fix,GT,37.6267563,-122.427417,,0.005385165,0.1,67.79108,1591388327444
Fix,GT,37.6267563,-122.427417,,0.0045940713,0.1,67.79108,1591388328444
Fix,GT,37.6267563,-122.427417,,0.0045948112,0.1,67.79117,1591388329444
Fix,GT,37.6267563,-122.427417,,0.006220918,0.1,67.79068,1591388330444
Fix,GT,37.6267563,-122.427417,,0.0065725865,0.1,67.789825,1591388331444
Fix,GT,37.6267563,-122.427417,,0.005950609,0.1,67.78967,1591388332444
Fix,GT,37.6267563,-122.427417,,0.0047694156,0.1,67.79065,1591388333444
Fix,GT,37.6267563,-122.427417,,0.004615749,0.1,67.79129,1591388334444
Fix,GT,37.6267563,-122.427417,,0.0061346013,0.1,67.79117,1591388335444
Fix,GT,37.6267563,-122.427417,,0.0067392197,0.1,67.7908,1591388336444
Fix,GT,37.6267563,-122.427417,,0.0061051333,0.1,67.79086,1591388337444
Fix,GT,37.6267563,-122.427417,,0.006444472,0.1,67.79074,1591388338444
Fix,GT,37.6267563,-122.427417,,0.0071488526,0.1,67.789856,1591388339444
Fix,GT,37.6267563,-122.427417,,0.0069097634,0.1,67.78961,1591388340444
Fix,GT,37.6267563,-122.427417,,0.006430175,0.1,67.79071,1591388341444
Fix,GT,37.6267563,-122.427417,,0.0056454577,0.1,67.79071,1591388342444
Fix,GT,37.6267563,-122.427417,,0.0056438083,0.1,67.791534,1591388343444
Fix,GT,37.6267563,-122.427417,,0.006495099,0.1,67.79297,1591388344444
Fix,GT,37.6267563,-122.427417,,0.0065725865,0.1,67.79199,1591388345444
Fix,GT,37.6267563,-122.427417,,0.006071384,0.1,67.792175,1591388346444
Fix,GT,37.6267563,-122.427417,,0.004975055,0.1,67.79266,1591388347444
Fix,GT,37.6267563,-122.427417,,0.0041762427,0.1,67.79227,1591388348444
Fix,GT,37.6267563,-122.427417,,0.003959434,0.1,67.79245,1591388349444
Fix,GT,37.6267563,-122.427417,,0.0032600951,0.1,67.79242,1591388350444
Fix,GT,37.6267563,-122.427417,,0.0034570894,0.1,67.79135,1591388351444
Fix,GT,37.6267563,-122.427417,,0.0042426405,0.1,67.79019,1591388352444
Fix,GT,37.6267563,-122.427417,,0.0037623853,0.1,67.79028,1591388353444
Fix,GT,37.6267563,-122.427417,,0.003744551,0.1,67.790985,1591388354444
Fix,GT,37.6267563,-122.427417,,0.004998781,0.1,67.79147,1591388355444
Fix,GT,37.6267563,-122.427417,,0.0056568542,0.1,67.79132,1591388356444
Fix,GT,37.6267563,-122.427417,,0.0059536686,0.1,67.78998,1591388357444
Fix,GT,37.6267563,-122.427417,,0.0063245557,0.1,67.78848,1591388358444
Fix,GT,37.6267563,-122.427417,,0.005779766,0.1,67.789825,1591388359444
Fix,GT,37.6267563,-122.427417,,0.0046651955,0.1,67.790344,1591388360444
Fix,GT,37.6267563,-122.427417,,0.0040683816,0.1,67.78967,1591388361444
Fix,GT,37.6267563,-122.427417,,0.0031109375,0.1,67.789795,1591388362444
Fix,GT,37.6267563,-122.427417,,0.0025166688,0.1,67.78961,1591388363444
Fix,GT,37.6267563,-122.427417,,0.0027505485,0.1,67.789734,1591388364444
Fix,GT,37.6267563,-122.427417,,0.002647797,0.1,67.78946,1591388365444
Fix,GT,37.6267563,-122.427417,,0.003589396,0.1,67.78961,1591388366444
Fix,GT,37.6267563,-122.427417,,0.0038930366,0.1,67.78897,1591388367444
Fix,GT,37.6267563,-122.427417,,0.003990775,0.1,67.78949,1591388368444
Fix,GT,37.6267563,-122.427417,,0.0047508054,0.1,67.791046,1591388369444
Fix,GT,37.6267563,-122.427417,,0.00482035,0.1,67.79068,1591388370444
Fix,GT,37.6267563,-122.427417,,0.004316981,0.1,67.79074,1591388371444
Fix,GT,37.6267563,-122.427417,,0.0038930366,0.1,67.79111,1591388372444
Fix,GT,37.6267563,-122.427417,,0.002996773,0.1,67.791016,1591388373444
Fix,GT,37.6267563,-122.427417,,0.003020191,0.1,67.791016,1591388374444
Fix,GT,37.6267563,-122.427417,,0.0042098793,0.1,67.790985,1591388375444
Fix,GT,37.6267563,-122.427417,,0.0037414562,0.1,67.79114,1591388376444
Fix,GT,37.6267563,-122.427417,,0.003173883,0.1,67.79077,1591388377444
Fix,GT,37.6267563,-122.427417,,0.0032600951,0.1,67.79065,1591388378444
Fix,GT,37.6267563,-122.427417,,0.002565105,0.1,67.79089,1591388379444
Fix,GT,37.6267563,-122.427417,,0.0025756597,0.1,67.790375,1591388380444
Fix,GT,37.6267563,-122.427417,,0.0030721375,0.1,67.79016,1591388381444
Fix,GT,37.6267563,-122.427417,,0.003589396,0.1,67.79016,1591388382444
Fix,GT,37.6267563,-122.427417,,0.0041231057,0.1,67.78992,1591388383444
Fix,GT,37.6267563,-122.427417,,0.0040683816,0.1,67.790344,1591388384444
Fix,GT,37.6267563,-122.427417,,0.0036276062,0.1,67.79077,1591388385444
Fix,GT,37.6267563,-122.427417,,0.0030901402,0.1,67.79031,1591388386444
Fix,GT,37.6267563,-122.427417,,0.0030721375,0.1,67.7905,1591388387444
Fix,GT,37.6267563,-122.427417,,0.0027505485,0.1,67.79059,1591388388444
Fix,GT,37.6267563,-122.427417,,0.002236068,0.1,67.790344,1591388389444
Fix,GT,37.6267563,-122.427417,,0.0016865971,0.1,67.790405,1591388390444
Fix,GT,37.6267563,-122.427417,,0.0014445314,0.1,67.79068,1591388391444
Fix,GT,37.6267563,-122.427417,,0.0021049397,0.1,67.79089,1591388392444
Fix,GT,37.6267563,-122.427417,,0.0016865971,0.1,67.7912,1591388393444
Fix,GT,37.6267563,-122.427417,,0.0005554687,0.1,67.790955,1591388394444
Fix,GT,37.6267563,-122.427417,,0.00062866224,0.1,67.79047,1591388395444
Fix,GT,37.6267563,-122.427417,,0.0012300827,0.1,67.79013,1591388396444
Fix,GT,37.6267563,-122.427417,,0.0014445314,0.1,67.79004,1591388397444
Fix,GT,37.6267563,-122.427417,,0.0015554688,0.1,67.79028,1591388398444
Fix,GT,37.6267563,-122.427417,,0.001549471,0.1,67.790436,1591388399444
Fix,GT,37.6267563,-122.427417,,0.0024993904,0.1,67.7901,1591388400444
Fix,GT,37.6267563,-122.427417,,0.0029046969,0.1,67.78989,1591388401444
Fix,GT,37.6267563,-122.427417,,0.0026604084,0.1,67.78967,1591388402444
Fix,GT,37.6267563,-122.427417,,0.0028448463,0.1,67.789795,1591388403444
Fix,GT,37.6267563,-122.427417,,0.0026314328,0.1,67.78998,1591388404444
Fix,GT,37.6267563,-122.427417,,0.0021912828,0.1,67.7894,1591388405444
Fix,GT,37.6267563,-122.427417,,0.003589396,0.1,67.78876,1591388406444
Fix,GT,37.6267563,-122.427417,,0.0041231057,0.1,67.78894,1591388407444
Fix,GT,37.6267563,-122.427417,,0.0041231057,0.1,67.7897,1591388408444
Fix,GT,37.6267563,-122.427417,,0.004994235,0.1,67.78992,1591388409444
Fix,GT,37.6267563,-122.427417,,0.004636108,0.1,67.7901,1591388410444
Fix,GT,37.6267563,-122.427417,,0.002565105,0.1,67.7905,1591388411444
Fix,GT,37.6267563,-122.427417,,0.0028448463,0.1,67.79089,1591388412444
Fix,GT,37.6267563,-122.427417,,0.0033363649,0.1,67.79071,1591388413444
Fix,GT,37.6267563,-122.427417,,0.002295068,0.1,67.79059,1591388414444
Fix,GT,37.6267563,-122.427417,,0.002618401,0.1,67.79083,1591388415444
Fix,GT,37.6267563,-122.427417,,0.004994235,0.1,67.790344,1591388416444
Fix,GT,37.6267563,-122.427417,,0.0067642336,0.1,67.79022,1591388417444
Fix,GT,37.6267563,-122.427417,,0.0072123297,0.1,67.79022,1591388418444
Fix,GT,37.6267563,-122.427417,,0.0064301756,0.1,67.79016,1591388419444
Fix,GT,37.6267563,-122.427417,,0.005772658,0.1,67.789856,1591388420444
Fix,GT,37.6267563,-122.427417,,0.0043970216,0.1,67.78967,1591388421444
Fix,GT,37.6267563,-122.427417,,0.0035346716,0.1,67.79004,1591388422444
Fix,GT,37.6267563,-122.427417,,0.0040547242,0.1,67.78989,1591388423444
Fix,GT,37.6267563,-122.427417,,0.0041231057,0.1,67.7894,1591388424444
Fix,GT,37.6267563,-122.427417,,0.0036959876,0.1,67.78943,1591388425444
Fix,GT,37.6267563,-122.427417,,0.003589396,0.1,67.7894,1591388426444
Fix,GT,37.6267563,-122.427417,,0.0045129126,0.1,67.789215,1591388427444
Fix,GT,37.6267563,-122.427417,,0.006162793,0.1,67.789,1591388428444
Fix,GT,37.6267563,-122.427417,,0.0064969966,0.1,67.788574,1591388429444
Fix,GT,37.6267563,-122.427417,,0.0060685826,0.1,67.78818,1591388430444
Fix,GT,37.6267563,-122.427417,,0.006855336,0.1,67.78793,1591388431444
Fix,GT,37.6267563,-122.427417,,0.0066564037,0.1,67.78732,1591388432444
Fix,GT,37.6267563,-122.427417,,0.007039476,0.1,67.78702,1591388433444
Fix,GT,37.6267563,-122.427417,,0.0072737304,0.1,67.78812,1591388434444
Fix,GT,37.6267563,-122.427417,,0.0072123297,0.1,67.787964,1591388435444
Fix,GT,37.6267563,-122.427417,,0.0077516,0.1,67.78784,1591388436444
Fix,GT,37.6267563,-122.427417,,0.0085862335,0.1,67.78836,1591388437444
Fix,GT,37.6267563,-122.427417,,0.008444531,0.1,67.78848,1591388438444
Fix,GT,37.6267563,-122.427417,,0.008110937,0.1,67.78815,1591388439444
Fix,GT,37.6267563,-122.427417,,0.0070315916,0.1,67.78653,1591388440444
Fix,GT,37.6267563,-122.427417,,0.007163993,0.1,67.785034,1591388441444
Fix,GT,37.6267563,-122.427417,,0.0066359136,0.1,67.78485,1591388442444
Fix,GT,37.6267563,-122.427417,,0.0054615675,0.1,67.7847,1591388443444
Fix,GT,37.6267563,-122.427417,,0.005044017,0.1,67.78433,1591388444444
Fix,GT,37.6267563,-122.427417,,0.0054243864,0.1,67.78262,1591388445444
Fix,GT,37.6267563,-122.427417,,0.005505585,0.1,67.78113,1591388446444
Fix,GT,37.6267562,-122.427417,,0.005099019,0.1,67.78192,1591388447444
Fix,GT,37.6267562,-122.427417,,0.005536324,0.1,67.78302,1591388448444
Fix,GT,37.6267561,-122.4274171,,0.006190247,0.1,67.783264,1591388449444
Fix,GT,37.6267561,-122.4274171,,0.005779766,0.1,67.78174,1591388450444
Fix,GT,37.6267561,-122.4274171,,0.0058143525,0.1,67.78174,1591388451444
Fix,GT,37.626756,-122.427417,,0.049209815,0.1,67.782776,1591388452444
Fix,GT,37.6267567,-122.4274151,,0.3723585,0.1,67.698425,1591388453444
Fix,GT,37.6267599,-122.427408,,1.0899731,0.1,66.46112,1591388454444
Fix,GT,37.6267672,-122.4273929,,2.1149502,0.1,64.107605,1591388455444
Fix,GT,37.6267801,-122.4273662,,3.4500537,0.1,62.222473,1591388456444
Fix,GT,37.6268004,-122.4273272,,4.765072,0.1,59.79959,1591388457444
Fix,GT,37.6268277,-122.4272778,,5.8258204,0.1,58.45514,1591388458444
Fix,GT,37.6268578,-122.4272167,,6.7979345,0.1,61.68689,1591388459444
Fix,GT,37.6268883,-122.4271433,,7.7921753,0.1,65.697784,1591388460444
Fix,GT,37.6269205,-122.4270585,,8.689356,0.1,66.97925,1591388461444
Fix,GT,37.626955,-122.4269656,,9.252047,0.1,67.422,1591388462444
Fix,GT,37.6269908,-122.4268689,,9.550192,0.1,67.85681,1591388463444
Fix,GT,37.6270271,-122.4267691,,9.800136,0.1,68.27289,1591388464444
Fix,GT,37.6270641,-122.4266669,,10.027393,0.1,68.13696,1591388465444
Fix,GT,37.6271033,-122.4265633,,10.247805,0.1,66.87372,1591388466444
Fix,GT,37.6271447,-122.4264583,,10.468285,0.1,66.41962,1591388467444
Fix,GT,37.6271861,-122.4263504,,10.659126,0.1,67.37518,1591388468444
Fix,GT,37.6272266,-122.4262404,,10.690846,0.1,68.286194,1591388469444
Fix,GT,37.6272648,-122.42613,,10.566015,0.1,69.94464,1591388470444
Fix,GT,37.6272999,-122.4260202,,10.307091,0.1,71.29901,1591388471444
Fix,GT,37.6273331,-122.425914,,9.776178,0.1,71.06125,1591388472444
Fix,GT,37.627366,-122.4258162,,8.9383,0.1,69.22418,1591388473444
Fix,GT,37.6273977,-122.4257307,,7.646428,0.1,67.3121,1591388474444
Fix,GT,37.6274245,-122.4256612,,6.006543,0.1,66.670166,1591388475444
Fix,GT,37.6274456,-122.4256078,,4.5801234,0.1,66.35336,1591388476444
Fix,GT,37.627462,-122.4255668,,3.6169355,0.1,66.28265,1591388477444
Fix,GT,37.6274745,-122.4255342,,2.7937725,0.1,66.997314,1591388478444
Fix,GT,37.6274834,-122.4255102,,1.8244566,0.1,67.95325,1591388479444
Fix,GT,37.6274882,-122.4254967,,0.83300304,0.1,68.38022,1591388480444
Fix,GT,37.6274899,-122.4254921,,0.18099187,0.1,68.56851,1591388481444
Fix,GT,37.62749,-122.425492,,0.02137411,0.1,68.56964,1591388482444
Fix,GT,37.6274901,-122.425492,,0.081898496,0.1,68.5726,1591388483444
Fix,GT,37.6274909,-122.4254894,,0.6288818,0.1,69.105225,1591388484444
Fix,GT,37.6274934,-122.4254751,,2.028554,0.1,73.9306,1591388485444
Fix,GT,37.6274933,-122.4254415,,3.5784037,0.1,88.21307,1591388486444
Fix,GT,37.6274803,-122.4253962,,4.594903,0.1,111.84094,1591388487444
Fix,GT,37.6274479,-122.4253549,,5.4633718,0.1,138.64032,1591388488444
Fix,GT,37.6273999,-122.4253214,,6.551728,0.1,154.29993,1591388489444
Fix,GT,37.6273419,-122.4252852,,7.740685,0.1,155.83887,1591388490444
Fix,GT,37.6272752,-122.4252422,,8.849624,0.1,155.49158,1591388491444
Fix,GT,37.627201,-122.4251937,,9.689829,0.1,155.17426,1591388492444
Fix,GT,37.6271215,-122.4251421,,10.0459,0.1,155.47498,1591388493444
Fix,GT,37.6270412,-122.425092,,9.804735,0.1,156.65656,1591388494444
Fix,GT,37.6269632,-122.4250456,,9.437187,0.1,157.67322,1591388495444
Fix,GT,37.6268854,-122.4250009,,9.6078005,0.1,158.28217,1591388496444
Fix,GT,37.6268046,-122.4249545,,10.140007,0.1,158.15643,1591388497444
Fix,GT,37.6267197,-122.4249045,,10.658907,0.1,157.45886,1591388498444
Fix,GT,37.6266311,-122.4248515,,11.140821,0.1,157.17676,1591388499444
Fix,GT,37.6265391,-122.424796,,11.500338,0.1,157.11829,1591388500444
Fix,GT,37.6264453,-122.4247394,,11.4988785,0.1,157.0556,1591388501444
Fix,GT,37.6263539,-122.4246837,,10.906895,0.1,156.87024,1591388502444
Fix,GT,37.6262702,-122.4246322,,9.780479,0.1,156.58289,1591388503444
Fix,GT,37.6261964,-122.4245863,,8.484891,0.1,156.24567,1591388504444
Fix,GT,37.6261326,-122.4245472,,7.276881,0.1,157.27979,1591388505444
Fix,GT,37.6260773,-122.4245177,,5.947099,0.1,161.26385,1591388506444
Fix,GT,37.6260334,-122.4245013,,4.064786,0.1,167.84204,1591388507444
Fix,GT,37.6260061,-122.4244963,,2.0706773,0.1,174.36652,1591388508444
Fix,GT,37.6259945,-122.4244958,,0.654925,0.1,177.8606,1591388509444
Fix,GT,37.6259919,-122.4244959,,0.07072276,0.1,178.7384,1591388510444
Fix,GT,37.6259925,-122.4244958,,0.0496956,0.1,178.60754,1591388511444
Fix,GT,37.6259918,-122.4244958,,0.31010807,0.1,178.8476,1591388512444
Fix,GT,37.6259844,-122.4244965,,1.4044235,0.1,181.51477,1591388513444
Fix,GT,37.625965,-122.4245018,,2.830049,0.1,190.17302,1591388514444
Fix,GT,37.6259367,-122.4245192,,3.861596,0.1,206.39859,1591388515444
Fix,GT,37.6259079,-122.4245548,,4.917573,0.1,226.42638,1591388516444
Fix,GT,37.6258808,-122.4246098,,6.327673,0.1,241.07443,1591388517444
Fix,GT,37.625852,-122.4246811,,7.6704044,0.1,245.85318,1591388518444
Fix,GT,37.6258191,-122.4247649,,8.809576,0.1,246.4228,1591388519444
Fix,GT,37.6257817,-122.4248605,,9.982032,0.1,246.47571,1591388520444
Fix,GT,37.6257396,-122.4249672,,11.054392,0.1,246.16637,1591388521444
Fix,GT,37.625693,-122.4250832,,11.874969,0.1,245.69194,1591388522444
Fix,GT,37.6256422,-122.4252063,,12.634478,0.1,244.99493,1591388523444
Fix,GT,37.6255871,-122.4253361,,13.353964,0.1,244.65756,1591388524444
Fix,GT,37.6255312,-122.4254738,,13.901169,0.1,246.6773,1591388525444
Fix,GT,37.6254812,-122.4256209,,14.304503,0.1,251.60861,1591388526444
Fix,GT,37.6254432,-122.4257777,,14.619079,0.1,258.1719,1591388527444
Fix,GT,37.6254168,-122.425942,,14.91456,0.1,262.70947,1591388528444
Fix,GT,37.6253964,-122.4261106,,15.15774,0.1,264.45493,1591388529444
Fix,GT,37.6253777,-122.4262817,,15.340937,0.1,264.92554,1591388530444
Fix,GT,37.6253575,-122.4264542,,15.469439,0.1,263.71036,1591388531444
Fix,GT,37.6253315,-122.4266265,,15.59375,0.1,260.55704,1591388532444
Fix,GT,37.6252958,-122.4267976,,15.748716,0.1,256.26468,1591388533444
Fix,GT,37.6252501,-122.4269672,,15.9548,0.1,252.62442,1591388534444
Fix,GT,37.6251976,-122.4271358,,16.006908,0.1,250.46292,1591388535444
Fix,GT,37.6251426,-122.4273014,,15.643551,0.1,249.91522,1591388536444
Fix,GT,37.6250894,-122.4274625,,15.154852,0.1,250.48709,1591388537444
Fix,GT,37.6250392,-122.4276192,,14.646461,0.1,250.90228,1591388538444
Fix,GT,37.62499,-122.42777,,14.21643,0.1,249.58908,1591388539444
Fix,GT,37.6249355,-122.4279142,,14.118071,0.1,245.49133,1591388540444
Fix,GT,37.6248705,-122.4280502,,14.022259,0.1,239.06903,1591388541444
Fix,GT,37.6247948,-122.4281745,,13.723075,0.1,233.00227,1591388542444
Fix,GT,37.6247134,-122.4282884,,13.3803,0.1,229.82677,1591388543444
Fix,GT,37.6246316,-122.4283955,,12.750769,0.1,228.45149,1591388544444
Fix,GT,37.6245532,-122.4284922,,11.5929,0.1,226.2292,1591388545444
Fix,GT,37.62448,-122.4285736,,10.113878,0.1,223.07008,1591388546444
Fix,GT,37.6244149,-122.4286393,,8.484587,0.1,220.59792,1591388547444
Fix,GT,37.6243592,-122.428691,,7.061668,0.1,218.40645,1591388548444
Fix,GT,37.6243099,-122.4287325,,6.4633617,0.1,215.94829,1591388549444
Fix,GT,37.6242592,-122.4287715,,6.9669113,0.1,213.49437,1591388550444
Fix,GT,37.6241999,-122.4288076,,7.780759,0.1,206.79413,1591388551444
Fix,GT,37.6241315,-122.4288281,,8.163556,0.1,192.01424,1591388552444
Fix,GT,37.6240591,-122.4288205,,8.60511,0.1,173.49197,1591388553444
Fix,GT,37.6239845,-122.4287842,,9.609955,0.1,158.81787,1591388554444
Fix,GT,37.6239042,-122.4287273,,10.971604,0.1,152.19641,1591388555444
Fix,GT,37.6238153,-122.4286572,,12.322199,0.1,150.41309,1591388556444
Fix,GT,37.6237169,-122.428578,,13.594753,0.1,150.24939,1591388557444
Fix,GT,37.6236088,-122.428492,,14.778814,0.1,150.60794,1591388558444
Fix,GT,37.6234915,-122.4283997,,15.880848,0.1,150.64935,1591388559444
Fix,GT,37.6233668,-122.4283,,16.914036,0.1,149.98724,1591388560444
Fix,GT,37.6232353,-122.428192,,18.008682,0.1,149.50589,1591388561444
Fix,GT,37.6230951,-122.4280767,,19.174543,0.1,149.82495,1591388562444
Fix,GT,37.6229455,-122.4279559,,20.208744,0.1,150.14447,1591388563444
Fix,GT,37.6227889,-122.4278303,,20.949484,0.1,150.37247,1591388564444
Fix,GT,37.6226264,-122.4277024,,21.622974,0.1,150.91064,1591388565444
Fix,GT,37.6224572,-122.4275724,,22.374054,0.1,151.57587,1591388566444
Fix,GT,37.6222812,-122.42744,,23.151482,0.1,152.0166,1591388567444
Fix,GT,37.6220983,-122.427305,,23.921762,0.1,152.53271,1591388568444
Fix,GT,37.6219086,-122.427168,,24.62384,0.1,153.11475,1591388569444
Fix,GT,37.6217125,-122.4270295,,25.286749,0.1,153.55579,1591388570444
Fix,GT,37.6215111,-122.4268879,,25.935392,0.1,153.37366,1591388571444
Fix,GT,37.6213055,-122.4267413,,26.514301,0.1,153.04156,1591388572444
Fix,GT,37.6210957,-122.4265917,,27.016577,0.1,153.41187,1591388573444
Fix,GT,37.620881,-122.4264422,,27.47744,0.1,154.21625,1591388574444
Fix,GT,37.6206611,-122.4262946,,27.837568,0.1,155.02527,1591388575444
Fix,GT,37.6204377,-122.4261487,,28.031563,0.1,155.42871,1591388576444
Fix,GT,37.6202127,-122.4260032,,28.111483,0.1,155.51727,1591388577444
Fix,GT,37.6199873,-122.4258575,,28.145477,0.1,155.46484,1591388578444
Fix,GT,37.6197629,-122.4257099,,28.085932,0.1,154.64404,1591388579444
Fix,GT,37.6195419,-122.4255572,,27.900131,0.1,153.34692,1591388580444
Fix,GT,37.6193239,-122.4254022,,27.708784,0.1,153.44562,1591388581444
Fix,GT,37.6191053,-122.425252,,27.589886,0.1,154.91907,1591388582444
Fix,GT,37.618884,-122.4251111,,27.46275,0.1,156.88092,1591388583444
Fix,GT,37.6186598,-122.4249821,,27.258942,0.1,159.48004,1591388584444
Fix,GT,37.6184325,-122.4248681,,27.04583,0.1,162.44653,1591388585444
Fix,GT,37.618203,-122.4247685,,26.845196,0.1,164.92548,1591388586444
Fix,GT,37.6179722,-122.4246813,,26.63677,0.1,167.09955,1591388587444
Fix,GT,37.6177406,-122.4246062,,26.44434,0.1,169.38794,1591388588444
Fix,GT,37.6175085,-122.424543,,26.234585,0.1,171.58203,1591388589444
Fix,GT,37.6172763,-122.4244918,,26.050102,0.1,173.94476,1591388590444
Fix,GT,37.6170443,-122.424452,,25.876476,0.1,175.91254,1591388591444
Fix,GT,37.6168128,-122.4244217,,25.75853,0.1,177.65552,1591388592444
Fix,GT,37.6165811,-122.4244012,,25.809944,0.1,179.7898,1591388593444
Fix,GT,37.616348,-122.424392,,25.937916,0.1,181.9864,1591388594444
Fix,GT,37.6161136,-122.4243942,,26.068378,0.1,184.19524,1591388595444
Fix,GT,37.6158784,-122.4244082,,26.182114,0.1,186.53532,1591388596444
Fix,GT,37.6156428,-122.4244334,,26.28928,0.1,188.53249,1591388597444
Fix,GT,37.6154068,-122.4244682,,26.424225,0.1,190.33275,1591388598444
Fix,GT,37.615171,-122.4245136,,26.515755,0.1,192.68544,1591388599444
Fix,GT,37.6149364,-122.4245722,,26.543049,0.1,195.27141,1591388600444
Fix,GT,37.6147041,-122.4246434,,26.522936,0.1,197.61743,1591388601444
Fix,GT,37.6144746,-122.4247259,,26.448824,0.1,199.78944,1591388602444
Fix,GT,37.6142483,-122.4248192,,26.402872,0.1,202.03699,1591388603444
Fix,GT,37.6140252,-122.4249235,,26.412422,0.1,204.12036,1591388604444
Fix,GT,37.6138049,-122.4250373,,26.451889,0.1,206.02502,1591388605444
Fix,GT,37.6135875,-122.4251616,,26.53948,0.1,208.38217,1591388606444
Fix,GT,37.6133737,-122.4252976,,26.625566,0.1,210.6917,1591388607444
Fix,GT,37.6131629,-122.4254424,,26.693436,0.1,211.97633,1591388608444
Fix,GT,37.6129534,-122.4255917,,26.769753,0.1,212.51518,1591388609444
Fix,GT,37.6127439,-122.4257428,,26.826857,0.1,212.62802,1591388610444
Fix,GT,37.612534,-122.425894,,26.884491,0.1,212.50789,1591388611444
Fix,GT,37.6123231,-122.4260446,,26.939354,0.1,212.18343,1591388612444
Fix,GT,37.6121113,-122.4261938,,26.933556,0.1,211.91336,1591388613444
Fix,GT,37.6118995,-122.426342,,26.873142,0.1,211.92886,1591388614444
Fix,GT,37.6116882,-122.4264897,,26.820648,0.1,211.74327,1591388615444
Fix,GT,37.6114761,-122.4266347,,26.788227,0.1,210.84918,1591388616444
Fix,GT,37.6112618,-122.4267739,,26.810324,0.1,209.414,1591388617444
Fix,GT,37.6110439,-122.4269067,,27.03136,0.1,207.99915,1591388618444
Fix,GT,37.6108211,-122.4270347,,27.39987,0.1,206.68855,1591388619444
Fix,GT,37.6105929,-122.4271578,,27.742725,0.1,205.37135,1591388620444
Fix,GT,37.6103597,-122.4272759,,28.071354,0.1,204.20602,1591388621444
Fix,GT,37.6101222,-122.42739,,28.38285,0.1,203.26219,1591388622444
Fix,GT,37.609881,-122.4275006,,28.616943,0.1,202.34793,1591388623444
Fix,GT,37.6096366,-122.4276065,,28.787266,0.1,201.18716,1591388624444
Fix,GT,37.6093889,-122.4277058,,28.94792,0.1,199.6791,1591388625444
Fix,GT,37.6091381,-122.4277981,,29.095507,0.1,198.49217,1591388626444
Fix,GT,37.6088846,-122.4278849,,29.266235,0.1,197.3917,1591388627444
Fix,GT,37.6086279,-122.4279646,,29.458124,0.1,195.90921,1591388628444
Fix,GT,37.6083684,-122.4280373,,29.60759,0.1,194.81943,1591388629444
Fix,GT,37.6081065,-122.4281046,,29.736721,0.1,193.87112,1591388630444
Fix,GT,37.6078427,-122.428166,,29.849258,0.1,192.65558,1591388631444
Fix,GT,37.6075769,-122.4282199,,29.952208,0.1,191.17453,1591388632444
Fix,GT,37.607309,-122.4282651,,30.09557,0.1,189.6115,1591388633444
Fix,GT,37.6070386,-122.4283012,,30.277294,0.1,188.08685,1591388634444
Fix,GT,37.606766,-122.4283282,,30.462435,0.1,186.38155,1591388635444
Fix,GT,37.6064913,-122.4283434,,30.635223,0.1,184.0879,1591388636444
Fix,GT,37.6062147,-122.4283436,,30.780901,0.1,181.42888,1591388637444
Fix,GT,37.6059373,-122.4283282,,30.916477,0.1,179.12671,1591388638444
Fix,GT,37.6056592,-122.4283,,31.062033,0.1,177.18274,1591388639444
Fix,GT,37.6053809,-122.4282593,,31.215382,0.1,175.01862,1591388640444
Fix,GT,37.6051026,-122.428205,,31.36089,0.1,172.81128,1591388641444
Fix,GT,37.6048249,-122.4281374,,31.473011,0.1,170.81006,1591388642444
Fix,GT,37.6045483,-122.4280576,,31.562113,0.1,168.8623,1591388643444
Fix,GT,37.6042734,-122.4279652,,31.637268,0.1,166.74457,1591388644444
Fix,GT,37.604001,-122.4278592,,31.677286,0.1,164.4701,1591388645444
Fix,GT,37.6037321,-122.4277397,,31.661057,0.1,162.25354,1591388646444
Fix,GT,37.6034669,-122.4276082,,31.640224,0.1,160.23975,1591388647444
Fix,GT,37.6032056,-122.4274658,,31.64264,0.1,158.18579,1591388648444
Fix,GT,37.6029485,-122.4273115,,31.646599,0.1,156.09271,1591388649444
Fix,GT,37.6026962,-122.4271451,,31.67586,0.1,153.83069,1591388650444
Fix,GT,37.6024494,-122.426965,,31.705101,0.1,151.26526,1591388651444
Fix,GT,37.6022089,-122.4267715,,31.710337,0.1,148.99432,1591388652444
Fix,GT,37.6019744,-122.4265668,,31.696335,0.1,146.96307,1591388653444
Fix,GT,37.601746,-122.4263519,,31.671461,0.1,144.93982,1591388654444
Fix,GT,37.6015231,-122.4261279,,31.68192,0.1,143.30127,1591388655444
Fix,GT,37.601306,-122.4258949,,31.70409,0.1,141.18451,1591388656444
Fix,GT,37.6010957,-122.4256516,,31.782166,0.1,139.00183,1591388657444
Fix,GT,37.6008907,-122.425399,,31.941229,0.1,137.76196,1591388658444
Fix,GT,37.6006868,-122.4251419,,32.131916,0.1,137.68378,1591388659444
Fix,GT,37.6004805,-122.4248846,,32.319275,0.1,138.20105,1591388660444
Fix,GT,37.6002716,-122.4246278,,32.526615,0.1,138.48831,1591388661444
Fix,GT,37.6000608,-122.4243698,,32.762836,0.1,138.33267,1591388662444
Fix,GT,37.59985,-122.4241081,,32.979656,0.1,137.7911,1591388663444
Fix,GT,37.5996393,-122.4238428,,33.180367,0.1,137.62585,1591388664444
Fix,GT,37.5994271,-122.4235765,,33.393646,0.1,138.03552,1591388665444
Fix,GT,37.599212,-122.4233106,,33.583885,0.1,138.38641,1591388666444
Fix,GT,37.5989948,-122.4230442,,33.756065,0.1,138.48938,1591388667444
Fix,GT,37.5987764,-122.4227765,,33.954018,0.1,138.3952,1591388668444
Fix,GT,37.598557,-122.4225064,,34.199554,0.1,138.32977,1591388669444
Fix,GT,37.5983359,-122.4222343,,34.4918,0.1,138.35706,1591388670444
Fix,GT,37.5981126,-122.4219601,,34.815567,0.1,138.43616,1591388671444
Fix,GT,37.5978868,-122.4216837,,35.144455,0.1,138.4837,1591388672444
Fix,GT,37.5976599,-122.4214053,,35.210735,0.1,138.29181,1591388673444
Fix,GT,37.5974352,-122.4211256,,34.956894,0.1,137.68091,1591388674444
Fix,GT,37.5972139,-122.4208455,,34.79232,0.1,137.64908,1591388675444
Fix,GT,37.5969913,-122.4205683,,34.767475,0.1,138.79852,1591388676444
Fix,GT,37.5967632,-122.420298,,34.844025,0.1,140.12805,1591388677444
Fix,GT,37.5965293,-122.4200334,,34.996445,0.1,141.27734,1591388678444
Fix,GT,37.5962905,-122.4197731,,35.15632,0.1,142.28006,1591388679444
Fix,GT,37.5960475,-122.4195166,,35.295284,0.1,143.12598,1591388680444
Fix,GT,37.5958006,-122.4192634,,35.426823,0.1,143.78357,1591388681444
Fix,GT,37.5955508,-122.4190123,,35.551224,0.1,144.23337,1591388682444
Fix,GT,37.595299,-122.4187623,,35.63686,0.1,144.48346,1591388683444
Fix,GT,37.5950468,-122.4185127,,35.616245,0.1,144.38379,1591388684444
Fix,GT,37.5947957,-122.4182628,,35.477104,0.1,144.23169,1591388685444
Fix,GT,37.5945461,-122.4180138,,35.251457,0.1,144.37616,1591388686444
Fix,GT,37.5942971,-122.4177679,,35.01297,0.1,144.68909,1591388687444
Fix,GT,37.5940492,-122.4175253,,34.763374,0.1,144.85333,1591388688444
Fix,GT,37.5938027,-122.4172846,,34.54225,0.1,144.79843,1591388689444
Fix,GT,37.593558,-122.4170446,,34.35064,0.1,144.59009,1591388690444
Fix,GT,37.5933155,-122.4168045,,34.164948,0.1,144.35822,1591388691444
Fix,GT,37.5930748,-122.4165649,,34.000618,0.1,144.34088,1591388692444
Fix,GT,37.5928351,-122.4163268,,33.804398,0.1,144.5185,1591388693444
Fix,GT,37.5925963,-122.4160911,,33.593437,0.1,144.72614,1591388694444
Fix,GT,37.5923585,-122.4158575,,33.397865,0.1,144.66058,1591388695444
Fix,GT,37.5921224,-122.4156247,,33.19892,0.1,144.64386,1591388696444
Fix,GT,37.5918875,-122.4153939,,32.999294,0.1,144.88947,1591388697444
Fix,GT,37.5916532,-122.4151654,,32.81433,0.1,144.8681,1591388698444
Fix,GT,37.5914207,-122.4149374,,32.621647,0.1,144.62735,1591388699444
Fix,GT,37.59119,-122.41471,,32.416794,0.1,144.66364,1591388700444
Fix,GT,37.5909606,-122.4144847,,32.21532,0.1,144.7143,1591388701444
Fix,GT,37.5907328,-122.4142604,,32.02477,0.1,144.54688,1591388702444
Fix,GT,37.5905067,-122.4140366,,31.857916,0.1,144.4704,1591388703444
Fix,GT,37.5902818,-122.4138141,,31.703362,0.1,144.60742,1591388704444
Fix,GT,37.5900573,-122.4135933,,31.574783,0.1,144.7724,1591388705444
Fix,GT,37.5898335,-122.4133739,,31.434433,0.1,144.749,1591388706444
Fix,GT,37.5896111,-122.4131551,,31.272919,0.1,144.58255,1591388707444
Fix,GT,37.5893902,-122.4129366,,31.143417,0.1,144.55853,1591388708444
Fix,GT,37.5891699,-122.4127192,,31.027739,0.1,144.70032,1591388709444
Fix,GT,37.5889501,-122.412503,,30.926113,0.1,144.73685,1591388710444
Fix,GT,37.5887308,-122.4122877,,30.84119,0.1,144.77313,1591388711444
Fix,GT,37.5885119,-122.4120731,,30.812704,0.1,144.85767,1591388712444
Fix,GT,37.5882927,-122.4118585,,30.879189,0.1,144.78522,1591388713444
Fix,GT,37.5880733,-122.4116428,,30.94833,0.1,144.6005,1591388714444
Fix,GT,37.5878546,-122.4114257,,30.923897,0.1,144.22705,1591388715444
Fix,GT,37.587638,-122.4112058,,30.904884,0.1,143.33447,1591388716444
Fix,GT,37.587425,-122.4109803,,30.95339,0.1,141.83862,1591388717444
Fix,GT,37.5872168,-122.4107467,,31.029154,0.1,140.20697,1591388718444
Fix,GT,37.5870136,-122.4105048,,31.137333,0.1,138.58694,1591388719444
Fix,GT,37.5868148,-122.410255,,31.288258,0.1,136.96942,1591388720444
Fix,GT,37.5866195,-122.4099984,,31.467432,0.1,136.02155,1591388721444
Fix,GT,37.5864253,-122.4097375,,31.640274,0.1,135.78027,1591388722444
Fix,GT,37.5862301,-122.4094752,,31.766567,0.1,135.88727,1591388723444
Fix,GT,37.5860337,-122.4092128,,31.8716,0.1,136.01971,1591388724444
Fix,GT,37.5858364,-122.4089496,,31.994732,0.1,136.01123,1591388725444
Fix,GT,37.5856384,-122.4086853,,32.132896,0.1,136.00629,1591388726444
Fix,GT,37.5854395,-122.40842,,32.26418,0.1,136.04965,1591388727444
Fix,GT,37.5852393,-122.4081544,,32.36338,0.1,136.3547,1591388728444
Fix,GT,37.5850364,-122.4078904,,32.449203,0.1,137.21616,1591388729444
Fix,GT,37.5848287,-122.407631,,32.54306,0.1,138.66663,1591388730444
Fix,GT,37.5846148,-122.4073779,,32.655922,0.1,140.30502,1591388731444
Fix,GT,37.5843947,-122.4071312,,32.796207,0.1,141.74054,1591388732444
Fix,GT,37.5841689,-122.4068901,,32.97703,0.1,142.98358,1591388733444
Fix,GT,37.5839377,-122.4066536,,33.19969,0.1,144.22614,1591388734444
Fix,GT,37.5837007,-122.4064217,,33.459534,0.1,145.44885,1591388735444
Fix,GT,37.583458,-122.4061942,,33.74415,0.1,146.60925,1591388736444
Fix,GT,37.58321,-122.4059715,,33.852722,0.1,147.85498,1591388737444
Fix,GT,37.5829578,-122.4057556,,33.825726,0.1,149.16217,1591388738444
Fix,GT,37.5827017,-122.4055467,,33.96998,0.1,150.35669,1591388739444
Fix,GT,37.5824406,-122.4053435,,34.204285,0.1,151.60815,1591388740444
Fix,GT,37.5821741,-122.4051461,,34.453865,0.1,152.81616,1591388741444
Fix,GT,37.5819028,-122.4049541,,34.65261,0.1,153.96326,1591388742444
Fix,GT,37.5816265,-122.404769,,34.821877,0.1,155.46936,1591388743444
Fix,GT,37.5813449,-122.4045928,,35.007687,0.1,157.05957,1591388744444
Fix,GT,37.5810588,-122.4044233,,35.164,0.1,157.91821,1591388745444
Fix,GT,37.5807703,-122.4042561,,35.305042,0.1,158.0686,1591388746444
Fix,GT,37.5804804,-122.404089,,35.492935,0.1,158.17236,1591388747444
Fix,GT,37.5801886,-122.4039217,,35.710938,0.1,158.25354,1591388748444
Fix,GT,37.579895,-122.4037532,,35.930496,0.1,158.15002,1591388749444
Fix,GT,37.5795998,-122.4035834,,36.141018,0.1,158.14581,1591388750444
Fix,GT,37.5793029,-122.4034125,,36.365532,0.1,158.11804,1591388751444
Fix,GT,37.579004,-122.4032403,,36.615707,0.1,158.11987,1591388752444
Fix,GT,37.5787031,-122.403067,,36.875664,0.1,158.17383,1591388753444
Fix,GT,37.5783999,-122.4028927,,37.14666,0.1,158.25543,1591388754444
Fix,GT,37.578094,-122.4027178,,37.46403,0.1,158.33783,1591388755444
Fix,GT,37.5777852,-122.4025415,,37.8294,0.1,158.21411,1591388756444
Fix,GT,37.5774741,-122.402362,,38.12468,0.1,157.97693,1591388757444
Fix,GT,37.577162,-122.4021806,,38.19586,0.1,157.90314,1591388758444
Fix,GT,37.5768492,-122.4019997,,38.260067,0.1,158.1377,1591388759444
Fix,GT,37.5765353,-122.4018199,,38.31536,0.1,158.28394,1591388760444
Fix,GT,37.5762221,-122.4016405,,38.069,0.1,158.18896,1591388761444
Fix,GT,37.5759117,-122.401462,,37.709778,0.1,158.11292,1591388762444
Fix,GT,37.5756046,-122.4012848,,37.326073,0.1,158.05988,1591388763444
Fix,GT,37.5753008,-122.401109,,36.93549,0.1,158.0523,1591388764444
Fix,GT,37.575,-122.4009355,,36.548676,0.1,158.1178,1591388765444
Fix,GT,37.5747023,-122.4007642,,36.155506,0.1,158.1366,1591388766444
Fix,GT,37.5744081,-122.4005942,,35.798298,0.1,157.93585,1591388767444
Fix,GT,37.5741169,-122.4004227,,35.690495,0.1,157.1778,1591388768444
Fix,GT,37.5738288,-122.4002426,,35.78483,0.1,155.10559,1591388769444
Fix,GT,37.5735473,-122.4000468,,35.688923,0.1,152.12555,1591388770444
Fix,GT,37.5732769,-122.3998342,,35.17428,0.1,149.16467,1591388771444
Fix,GT,37.5730193,-122.3996089,,34.55663,0.1,146.61981,1591388772444
Fix,GT,37.5727728,-122.3993745,,34.087257,0.1,144.71405,1591388773444
Fix,GT,37.5725347,-122.3991367,,33.37311,0.1,144.01093,1591388774444
Fix,GT,37.5723029,-122.3989039,,32.534435,0.1,144.2966,1591388775444
Fix,GT,37.5720751,-122.3986781,,31.918339,0.1,144.55829,1591388776444
Fix,GT,37.5718514,-122.3984569,,31.224741,0.1,144.46194,1591388777444
Fix,GT,37.5716342,-122.3982404,,30.346733,0.1,144.17316,1591388778444
Fix,GT,37.5714233,-122.3980286,,29.679852,0.1,144.03757,1591388779444
Fix,GT,37.5712161,-122.3978204,,29.219482,0.1,144.1944,1591388780444
Fix,GT,37.5710109,-122.3976164,,28.90797,0.1,144.62402,1591388781444
Fix,GT,37.5708058,-122.3974154,,28.85032,0.1,144.86441,1591388782444
Fix,GT,37.5706007,-122.3972147,,28.879763,0.1,144.74133,1591388783444
Fix,GT,37.5703954,-122.3970127,,29.000721,0.1,144.5784,1591388784444
Fix,GT,37.5701895,-122.3968089,,29.205412,0.1,144.47095,1591388785444
Fix,GT,37.5699821,-122.3966037,,29.380768,0.1,144.59305,1591388786444
Fix,GT,37.5697731,-122.3963982,,29.555317,0.1,144.81638,1591388787444
Fix,GT,37.5695625,-122.3961919,,29.720848,0.1,144.70496,1591388788444
Fix,GT,37.5693519,-122.3959834,,29.817402,0.1,144.36969,1591388789444
Fix,GT,37.5691415,-122.3957734,,29.847237,0.1,144.29199,1591388790444
Fix,GT,37.5689306,-122.3955638,,29.81823,0.1,144.64587,1591388791444
Fix,GT,37.5687196,-122.3953556,,29.732655,0.1,144.60901,1591388792444
Fix,GT,37.5685109,-122.3951457,,29.647476,0.1,143.5322,1591388793444
Fix,GT,37.5683071,-122.3949295,,29.605593,0.1,141.57648,1591388794444
Fix,GT,37.5681105,-122.3947036,,29.607914,0.1,139.11572,1591388795444
Fix,GT,37.5679216,-122.3944675,,29.58291,0.1,136.76184,1591388796444
Fix,GT,37.5677407,-122.3942226,,29.49526,0.1,134.47504,1591388797444
Fix,GT,37.5675682,-122.3939697,,29.421604,0.1,132.33966,1591388798444
Fix,GT,37.5674025,-122.3937102,,29.396162,0.1,130.66519,1591388799444
Fix,GT,37.5672436,-122.3934452,,29.242886,0.1,128.7319,1591388800444
Fix,GT,37.5670943,-122.3931754,,28.825176,0.1,126.3342,1591388801444
Fix,GT,37.5669569,-122.3929029,,28.235836,0.1,123.88739,1591388802444
Fix,GT,37.5668309,-122.3926296,,27.617777,0.1,121.848175,1591388803444
Fix,GT,37.5667144,-122.3923568,,27.160063,0.1,120.13159,1591388804444
Fix,GT,37.566606,-122.3920835,,26.840244,0.1,118.41739,1591388805444
Fix,GT,37.5665054,-122.3918099,,26.402048,0.1,116.623535,1591388806444
Fix,GT,37.5664126,-122.3915379,,25.963928,0.1,115.374146,1591388807444
Fix,GT,37.5663234,-122.3912676,,25.820217,0.1,115.33417,1591388808444
Fix,GT,37.5662328,-122.3909978,,25.939365,0.1,115.85419,1591388809444
Fix,GT,37.5661399,-122.3907275,,26.08271,0.1,116.13379,1591388810444
Fix,GT,37.5660463,-122.3904564,,26.13139,0.1,116.17801,1591388811444
Fix,GT,37.565952,-122.3901855,,26.089762,0.1,116.439026,1591388812444
Fix,GT,37.5658554,-122.3899169,,25.988731,0.1,117.64404,1591388813444
Fix,GT,37.5657531,-122.3896532,,25.829308,0.1,119.74042,1591388814444
Fix,GT,37.5656431,-122.3893959,,25.786394,0.1,122.01599,1591388815444
Fix,GT,37.565525,-122.3891441,,25.831732,0.1,124.21518,1591388816444
Fix,GT,37.5653988,-122.3888982,,25.869492,0.1,126.8219,1591388817444
Fix,GT,37.5652629,-122.3886599,,25.92495,0.1,129.74112,1591388818444
Fix,GT,37.565117,-122.3884299,,26.023159,0.1,132.5552,1591388819444
Fix,GT,37.5649621,-122.3882077,,26.17921,0.1,135.12964,1591388820444
Fix,GT,37.5647984,-122.3879927,,26.371948,0.1,137.60736,1591388821444
Fix,GT,37.5646261,-122.3877855,,26.570827,0.1,140.0603,1591388822444
Fix,GT,37.5644465,-122.3875853,,26.703262,0.1,142.02155,1591388823444
Fix,GT,37.5642618,-122.3873907,,26.774185,0.1,143.33118,1591388824444
Fix,GT,37.5640739,-122.3871997,,26.90358,0.1,144.04462,1591388825444
Fix,GT,37.5638837,-122.3870093,,27.103943,0.1,144.33337,1591388826444
Fix,GT,37.5636912,-122.3868183,,27.34739,0.1,144.44586,1591388827444
Fix,GT,37.5634973,-122.3866253,,27.604198,0.1,144.24298,1591388828444
Fix,GT,37.5633022,-122.3864291,,27.831453,0.1,143.92001,1591388829444
Fix,GT,37.5631064,-122.3862306,,28.013988,0.1,143.84491,1591388830444
Fix,GT,37.5629093,-122.3860312,,28.1744,0.1,144.00027,1591388831444
Fix,GT,37.5627108,-122.3858312,,28.31403,0.1,144.02441,1591388832444
Fix,GT,37.5625114,-122.3856303,,28.440247,0.1,144.08264,1591388833444
Fix,GT,37.5623107,-122.3854288,,28.582653,0.1,144.1831,1591388834444
Fix,GT,37.5621087,-122.3852266,,28.75948,0.1,144.1983,1591388835444
Fix,GT,37.5619053,-122.3850232,,28.96037,0.1,144.30634,1591388836444
Fix,GT,37.5617002,-122.3848188,,29.173752,0.1,144.37836,1591388837444
Fix,GT,37.5614931,-122.3846133,,29.385544,0.1,144.48651,1591388838444
Fix,GT,37.5612843,-122.3844072,,29.566742,0.1,144.64432,1591388839444
Fix,GT,37.5610744,-122.3841997,,29.736408,0.1,144.4035,1591388840444
Fix,GT,37.5608644,-122.3839891,,29.896399,0.1,143.86731,1591388841444
Fix,GT,37.5606548,-122.3837756,,30.009243,0.1,143.62292,1591388842444
Fix,GT,37.5604448,-122.383561,,30.065899,0.1,143.68585,1591388843444
Fix,GT,37.5602341,-122.383347,,30.051268,0.1,143.95178,1591388844444
Fix,GT,37.5600232,-122.3831348,,29.919537,0.1,144.16605,1591388845444
Fix,GT,37.5598136,-122.3829255,,29.512161,0.1,144.37158,1591388846444
Fix,GT,37.5596073,-122.3827203,,28.913584,0.1,144.31787,1591388847444
Fix,GT,37.5594048,-122.3825184,,28.549076,0.1,144.28973,1591388848444
Fix,GT,37.5592035,-122.3823185,,28.437603,0.1,144.59167,1591388849444
Fix,GT,37.5590013,-122.3821216,,28.366508,0.1,145.42609,1591388850444
Fix,GT,37.5587965,-122.3819303,,28.244139,0.1,146.83179,1591388851444
Fix,GT,37.5585885,-122.3817468,,28.17147,0.1,148.43158,1591388852444
Fix,GT,37.5583768,-122.38157,,28.250027,0.1,149.73102,1591388853444
Fix,GT,37.5581614,-122.3813975,,28.43917,0.1,150.7479,1591388854444
Fix,GT,37.5579421,-122.3812287,,28.656425,0.1,151.79971,1591388855444
Fix,GT,37.5577181,-122.381065,,28.868305,0.1,153.36237,1591388856444
Fix,GT,37.557489,-122.3809074,,29.097265,0.1,154.70001,1591388857444
Fix,GT,37.5572564,-122.3807536,,29.207869,0.1,155.1466,1591388858444
Fix,GT,37.5570237,-122.3806012,,28.95467,0.1,155.1903,1591388859444
Fix,GT,37.5567945,-122.3804502,,28.51733,0.1,154.88062,1591388860444
Fix,GT,37.5565681,-122.3803001,,28.383635,0.1,154.91296,1591388861444
Fix,GT,37.5563411,-122.3801501,,28.58155,0.1,155.02393,1591388862444
Fix,GT,37.5561125,-122.379999,,28.780188,0.1,154.88,1591388863444
Fix,GT,37.5558822,-122.3798462,,29.03056,0.1,154.99023,1591388864444
Fix,GT,37.5556497,-122.3796929,,29.238792,0.1,155.07483,1591388865444
Fix,GT,37.5554165,-122.3795393,,29.160625,0.1,155.08948,1591388866444
Fix,GT,37.555185,-122.3793867,,28.853512,0.1,155.0387,1591388867444
Fix,GT,37.5549563,-122.3792359,,28.494724,0.1,155.03815,1591388868444
Fix,GT,37.5547298,-122.3790868,,28.356258,0.1,155.12573,1591388869444
Fix,GT,37.554503,-122.3789377,,28.509426,0.1,155.1919,1591388870444
Fix,GT,37.5542746,-122.378788,,28.65447,0.1,155.17041,1591388871444
Fix,GT,37.5540457,-122.3786375,,28.709553,0.1,155.16278,1591388872444
Fix,GT,37.5538165,-122.3784872,,28.652332,0.1,155.26733,1591388873444
Fix,GT,37.5535882,-122.3783377,,28.512144,0.1,155.09106,1591388874444
Fix,GT,37.553362,-122.3781868,,28.373447,0.1,154.50275,1591388875444
Fix,GT,37.5531384,-122.378033,,28.215336,0.1,153.7063,1591388876444
Fix,GT,37.5529183,-122.3778765,,27.900547,0.1,152.77759,1591388877444
Fix,GT,37.5527038,-122.3777177,,27.369183,0.1,151.7543,1591388878444
Fix,GT,37.5524955,-122.3775578,,26.882591,0.1,151.00983,1591388879444
Fix,GT,37.5522909,-122.3773973,,26.737957,0.1,150.5257,1591388880444
Fix,GT,37.5520885,-122.3772335,,26.693127,0.1,149.23608,1591388881444
Fix,GT,37.5518913,-122.3770637,,26.389225,0.1,147.39273,1591388882444
Fix,GT,37.5517006,-122.3768894,,26.00824,0.1,146.19467,1591388883444
Fix,GT,37.5515144,-122.3767146,,25.546413,0.1,145.76556,1591388884444
Fix,GT,37.5513325,-122.3765427,,24.954994,0.1,145.80914,1591388885444
Fix,GT,37.5511543,-122.3763753,,24.457066,0.1,146.02087,1591388886444
Fix,GT,37.5509786,-122.3762114,,24.142128,0.1,146.21313,1591388887444
Fix,GT,37.5508044,-122.3760498,,23.941479,0.1,146.22467,1591388888444
Fix,GT,37.5506311,-122.3758888,,23.973776,0.1,146.22046,1591388889444
Fix,GT,37.5504564,-122.3757268,,24.305943,0.1,146.36948,1591388890444
Fix,GT,37.5502783,-122.3755626,,24.742401,0.1,146.47748,1591388891444
Fix,GT,37.5500971,-122.3753952,,25.172894,0.1,146.32242,1591388892444
Fix,GT,37.5499135,-122.3752237,,25.604303,0.1,145.9455,1591388893444
Fix,GT,37.5497279,-122.3750489,,25.846851,0.1,145.9729,1591388894444
Fix,GT,37.5495411,-122.3748743,,25.807762,0.1,146.1496,1591388895444
Fix,GT,37.549355,-122.3747007,,25.624058,0.1,146.09888,1591388896444
Fix,GT,37.5491704,-122.3745284,,25.41306,0.1,146.27582,1591388897444
Fix,GT,37.5489863,-122.3743588,,25.280087,0.1,146.48724,1591388898444
Fix,GT,37.5488029,-122.3741899,,25.208733,0.1,146.46558,1591388899444
Fix,GT,37.5486198,-122.3740208,,25.219643,0.1,146.33643,1591388900444
Fix,GT,37.5484369,-122.3738511,,25.262592,0.1,146.14374,1591388901444
Fix,GT,37.5482541,-122.3736802,,25.322113,0.1,146.01068,1591388902444
Fix,GT,37.5480712,-122.3735085,,25.365871,0.1,145.9606,1591388903444
Fix,GT,37.5478879,-122.3733366,,25.407814,0.1,146.01807,1591388904444
Fix,GT,37.5477041,-122.373165,,25.417545,0.1,146.19843,1591388905444
Fix,GT,37.54752,-122.3729939,,25.38971,0.1,146.28589,1591388906444
Fix,GT,37.5473361,-122.3728232,,25.371857,0.1,146.2558,1591388907444
Fix,GT,37.5471524,-122.3726523,,25.380947,0.1,146.16077,1591388908444
Fix,GT,37.5469691,-122.3724812,,25.295347,0.1,146.01917,1591388909444
Fix,GT,37.5467878,-122.3723108,,24.958326,0.1,145.8927,1591388910444
Fix,GT,37.5466093,-122.3721435,,24.52282,0.1,146.10126,1591388911444
Fix,GT,37.5464325,-122.37198,,24.234102,0.1,146.50742,1591388912444
Fix,GT,37.5462573,-122.3718186,,23.987604,0.1,146.41638,1591388913444
Fix,GT,37.5460842,-122.3716581,,23.753975,0.1,146.20099,1591388914444
Fix,GT,37.545913,-122.3714986,,23.567713,0.1,146.16364,1591388915444
Fix,GT,37.5457433,-122.3713403,,23.33632,0.1,146.13657,1591388916444
Fix,GT,37.5455754,-122.3711837,,23.071953,0.1,146.1177,1591388917444
Fix,GT,37.5454096,-122.3710288,,22.790354,0.1,146.10364,1591388918444
Fix,GT,37.5452457,-122.370876,,22.513378,0.1,146.18713,1591388919444
Fix,GT,37.5450831,-122.3707252,,22.350914,0.1,146.36237,1591388920444
Fix,GT,37.544921,-122.3705754,,22.339886,0.1,146.3753,1591388921444
Fix,GT,37.5447592,-122.3704252,,22.31707,0.1,146.09985,1591388922444
Fix,GT,37.5445977,-122.3702737,,22.497234,0.1,145.94998,1591388923444
Fix,GT,37.5444335,-122.3701202,,23.006058,0.1,146.21411,1591388924444
Fix,GT,37.5442647,-122.3699639,,23.50974,0.1,146.40234,1591388925444
Fix,GT,37.5440923,-122.3698046,,23.982983,0.1,146.37305,1591388926444
Fix,GT,37.5439167,-122.369642,,24.44453,0.1,146.2998,1591388927444
Fix,GT,37.5437385,-122.3694767,,24.684937,0.1,146.23514,1591388928444
Fix,GT,37.5435599,-122.3693105,,24.64582,0.1,146.13995,1591388929444
Fix,GT,37.5433818,-122.3691443,,24.621702,0.1,146.06107,1591388930444
Fix,GT,37.5432034,-122.3689775,,24.767365,0.1,146.00226,1591388931444
Fix,GT,37.5430237,-122.3688093,,24.998472,0.1,146.03424,1591388932444
Fix,GT,37.542842,-122.3686393,,25.324596,0.1,146.11224,1591388933444
Fix,GT,37.5426571,-122.3684674,,25.759876,0.1,146.35742,1591388934444
Fix,GT,37.5424678,-122.3682942,,26.21738,0.1,146.95581,1591388935444
Fix,GT,37.5422737,-122.3681213,,26.583015,0.1,147.83826,1591388936444
Fix,GT,37.5420752,-122.3679508,,26.745316,0.1,148.75885,1591388937444
Fix,GT,37.5418742,-122.367783,,26.855186,0.1,149.40726,1591388938444
Fix,GT,37.5416707,-122.3676163,,27.118845,0.1,149.87784,1591388939444
Fix,GT,37.5414631,-122.3674505,,27.471237,0.1,150.62964,1591388940444
Fix,GT,37.5412513,-122.3672866,,27.716412,0.1,151.61292,1591388941444
Fix,GT,37.5410364,-122.3671264,,27.704578,0.1,152.4682,1591388942444
Fix,GT,37.540821,-122.3669701,,27.483158,0.1,152.90723,1591388943444
Fix,GT,37.5406071,-122.3668165,,27.21751,0.1,153.1026,1591388944444
Fix,GT,37.5403946,-122.3666657,,26.951778,0.1,153.45795,1591388945444
Fix,GT,37.5401834,-122.3665182,,26.703678,0.1,153.89069,1591388946444
Fix,GT,37.5399733,-122.3663737,,26.485767,0.1,154.16162,1591388947444
Fix,GT,37.5397645,-122.3662309,,26.292938,0.1,154.16425,1591388948444
Fix,GT,37.5395573,-122.3660888,,26.125072,0.1,154.0653,1591388949444
Fix,GT,37.5393514,-122.3659472,,25.988617,0.1,154.09454,1591388950444
Fix,GT,37.5391464,-122.3658068,,25.863783,0.1,154.28467,1591388951444
Fix,GT,37.5389419,-122.3656684,,25.714855,0.1,154.5036,1591388952444
Fix,GT,37.5387381,-122.3655312,,25.585651,0.1,154.58563,1591388953444
Fix,GT,37.5385354,-122.3653947,,25.500774,0.1,154.55005,1591388954444
Fix,GT,37.5383332,-122.3652586,,25.429115,0.1,154.52545,1591388955444
Fix,GT,37.5381318,-122.365122,,25.380669,0.1,154.17468,1591388956444
Fix,GT,37.5379316,-122.364984,,25.348648,0.1,153.87482,1591388957444
Fix,GT,37.5377313,-122.3648459,,25.375526,0.1,154.15082,1591388958444
Fix,GT,37.5375298,-122.3647094,,25.453434,0.1,154.55371,1591388959444
Fix,GT,37.5373272,-122.3645734,,25.528816,0.1,154.64337,1591388960444
Fix,GT,37.5371241,-122.364437,,25.585812,0.1,154.55542,1591388961444
Fix,GT,37.536921,-122.3642998,,25.62138,0.1,154.4206,1591388962444
Fix,GT,37.5367178,-122.364162,,25.642124,0.1,154.2945,1591388963444
Fix,GT,37.5365145,-122.3640238,,25.679817,0.1,154.34784,1591388964444
Fix,GT,37.5363107,-122.363886,,25.69803,0.1,154.44867,1591388965444
Fix,GT,37.5361071,-122.3637481,,25.640522,0.1,154.28345,1591388966444
Fix,GT,37.5359045,-122.3636099,,25.528986,0.1,154.18854,1591388967444
Fix,GT,37.535703,-122.3634724,,25.371239,0.1,154.26062,1591388968444
Fix,GT,37.5355025,-122.3633361,,25.264618,0.1,154.31421,1591388969444
Fix,GT,37.5353024,-122.3632002,,25.281927,0.1,154.396,1591388970444
Fix,GT,37.5351013,-122.3630647,,25.367146,0.1,154.60242,1591388971444
Fix,GT,37.534899,-122.3629299,,25.461761,0.1,155.0553,1591388972444
Fix,GT,37.5346945,-122.3627976,,25.561823,0.1,155.93799,1591388973444
Fix,GT,37.5344875,-122.3626696,,25.66203,0.1,157.09668,1591388974444
Fix,GT,37.5342776,-122.3625463,,25.756271,0.1,158.13385,1591388975444
Fix,GT,37.5340655,-122.3624267,,25.842903,0.1,158.95398,1591388976444
Fix,GT,37.5338514,-122.3623106,,25.921284,0.1,159.75275,1591388977444
Fix,GT,37.5336355,-122.3621981,,25.93031,0.1,160.7456,1591388978444
Fix,GT,37.5334182,-122.3620914,,25.823399,0.1,161.95349,1591388979444
Fix,GT,37.5332007,-122.3619906,,25.614155,0.1,162.94183,1591388980444
Fix,GT,37.5329841,-122.3618944,,25.360872,0.1,163.56299,1591388981444
Fix,GT,37.5327689,-122.3618015,,25.219776,0.1,164.00952,1591388982444
Fix,GT,37.5325539,-122.3617106,,25.062958,0.1,164.1847,1591388983444
Fix,GT,37.5323416,-122.3616207,,24.651178,0.1,164.05652,1591388984444
Fix,GT,37.532133,-122.3615314,,24.289629,0.1,163.8883,1591388985444
Fix,GT,37.5319266,-122.3614427,,24.17399,0.1,163.85992,1591388986444
Fix,GT,37.5317209,-122.3613547,,24.06437,0.1,163.96307,1591388987444
Fix,GT,37.5315162,-122.3612674,,23.929255,0.1,163.9898,1591388988444
Fix,GT,37.5313127,-122.3611806,,23.81503,0.1,164.12115,1591388989444
Fix,GT,37.5311094,-122.361095,,23.76886,0.1,164.44037,1591388990444
Fix,GT,37.530906,-122.3610109,,23.751625,0.1,164.49976,1591388991444
Fix,GT,37.5307029,-122.3609263,,23.717808,0.1,164.27057,1591388992444
Fix,GT,37.5305008,-122.3608401,,23.66205,0.1,163.79828,1591388993444
Fix,GT,37.5302996,-122.3607526,,23.600601,0.1,163.58789,1591388994444
Fix,GT,37.5300987,-122.3606655,,23.556984,0.1,163.82031,1591388995444
Fix,GT,37.529898,-122.3605798,,23.50531,0.1,164.00366,1591388996444
Fix,GT,37.5296978,-122.3604942,,23.431347,0.1,163.95306,1591388997444
Fix,GT,37.5294983,-122.3604088,,23.36085,0.1,163.98322,1591388998444
Fix,GT,37.5292993,-122.360324,,23.29707,0.1,164.09192,1591388999444
Fix,GT,37.5291005,-122.3602396,,23.29222,0.1,164.13306,1591389000444
Fix,GT,37.5289013,-122.3601558,,23.344791,0.1,164.35577,1591389001444
Fix,GT,37.528701,-122.3600726,,23.504211,0.1,164.42737,1591389002444
Fix,GT,37.5284991,-122.3599879,,23.77116,0.1,164.25897,1591389003444
Fix,GT,37.5282948,-122.359902,,24.071833,0.1,164.28052,1591389004444
Fix,GT,37.5280877,-122.3598154,,24.391054,0.1,164.40839,1591389005444
Fix,GT,37.527878,-122.359728,,24.655296,0.1,164.41571,1591389006444
Fix,GT,37.5276664,-122.3596389,,24.87283,0.1,164.04083,1591389007444
Fix,GT,37.527454,-122.359546,,25.061897,0.1,163.15009,1591389008444
Fix,GT,37.5272415,-122.3594469,,25.281143,0.1,161.69214,1591389009444
Fix,GT,37.5270295,-122.3593394,,25.493954,0.1,159.92029,1591389010444
Fix,GT,37.526819,-122.3592226,,25.631273,0.1,158.00012,1591389011444
Fix,GT,37.5266109,-122.359096,,25.716053,0.1,155.90808,1591389012444
Fix,GT,37.5264062,-122.3589595,,25.777946,0.1,153.73315,1591389013444
Fix,GT,37.5262053,-122.3588131,,25.824928,0.1,151.57501,1591389014444
Fix,GT,37.526009,-122.3586576,,25.70845,0.1,149.53119,1591389015444
Fix,GT,37.5258186,-122.358496,,25.300737,0.1,148.00064,1591389016444
Fix,GT,37.5256343,-122.3583327,,24.776432,0.1,147.2312,1591389017444
Fix,GT,37.5254552,-122.3581706,,24.242514,0.1,146.70477,1591389018444
Fix,GT,37.5252804,-122.358011,,23.750566,0.1,146.77258,1591389019444
Fix,GT,37.5251081,-122.3578555,,23.382795,0.1,147.24274,1591389020444
Fix,GT,37.5249373,-122.3577031,,23.099201,0.1,147.35919,1591389021444
Fix,GT,37.5247688,-122.357553,,22.749664,0.1,147.35498,1591389022444
Fix,GT,37.5246032,-122.3574054,,22.3249,0.1,147.38806,1591389023444
Fix,GT,37.5244404,-122.3572613,,21.881172,0.1,147.7219,1591389024444
Fix,GT,37.5242797,-122.3571217,,21.520496,0.1,148.37704,1591389025444
Fix,GT,37.5241196,-122.356987,,21.28598,0.1,149.3099,1591389026444
Fix,GT,37.5239589,-122.3568569,,21.135141,0.1,150.43896,1591389027444
Fix,GT,37.5237969,-122.3567322,,21.056833,0.1,151.84369,1591389028444
Fix,GT,37.5236328,-122.3566129,,21.050385,0.1,153.23138,1591389029444
Fix,GT,37.5234664,-122.3564978,,21.134026,0.1,154.42102,1591389030444
Fix,GT,37.523297,-122.3563871,,21.230835,0.1,155.94806,1591389031444
Fix,GT,37.5231249,-122.3562822,,21.209663,0.1,157.60242,1591389032444
Fix,GT,37.5229517,-122.3561835,,20.95351,0.1,158.8526,1591389033444
Fix,GT,37.5227799,-122.3560899,,20.607744,0.1,159.60016,1591389034444
Fix,GT,37.5226104,-122.3560002,,20.25138,0.1,160.11804,1591389035444
Fix,GT,37.5224425,-122.3559138,,20.049763,0.1,160.73914,1591389036444
Fix,GT,37.5222744,-122.3558291,,20.221294,0.1,160.93054,1591389037444
Fix,GT,37.5221035,-122.355743,,20.691372,0.1,160.8042,1591389038444
Fix,GT,37.5219294,-122.3556548,,20.960846,0.1,160.87549,1591389039444
Fix,GT,37.5217543,-122.3555666,,20.888672,0.1,160.82428,1591389040444
Fix,GT,37.5215806,-122.3554783,,20.685707,0.1,160.52002,1591389041444
Fix,GT,37.5214095,-122.3553902,,20.353962,0.1,160.36975,1591389042444
Fix,GT,37.5212415,-122.3553037,,19.969795,0.1,160.55048,1591389043444
Fix,GT,37.521076,-122.3552188,,19.72079,0.1,160.56091,1591389044444
Fix,GT,37.520912,-122.3551341,,19.696735,0.1,160.22455,1591389045444
Fix,GT,37.5207477,-122.3550474,,19.923866,0.1,159.77075,1591389046444
Fix,GT,37.5205815,-122.3549574,,20.227654,0.1,159.19348,1591389047444
Fix,GT,37.5204148,-122.3548646,,20.241081,0.1,158.68964,1591389048444
Fix,GT,37.5202503,-122.3547715,,19.79398,0.1,158.37067,1591389049444
Fix,GT,37.5200905,-122.354679,,19.263323,0.1,157.61987,1591389050444
Fix,GT,37.5199345,-122.3545842,,19.305773,0.1,156.55945,1591389051444
Fix,GT,37.5197772,-122.3544853,,19.796417,0.1,155.89941,1591389052444
Fix,GT,37.5196169,-122.3543812,,20.253803,0.1,154.97589,1591389053444
Fix,GT,37.5194555,-122.3542712,,20.472153,0.1,153.69928,1591389054444
Fix,GT,37.5192954,-122.3541569,,20.375336,0.1,152.82666,1591389055444
Fix,GT,37.5191379,-122.3540415,,20.105083,0.1,152.4096,1591389056444
Fix,GT,37.5189831,-122.3539264,,19.828747,0.1,151.86285,1591389057444
Fix,GT,37.5188311,-122.3538108,,19.675327,0.1,151.3028,1591389058444
Fix,GT,37.51868,-122.3536933,,19.850386,0.1,150.72949,1591389059444
Fix,GT,37.5185277,-122.3535712,,20.2892,0.1,149.86456,1591389060444
Fix,GT,37.5183742,-122.3534434,,20.608894,0.1,148.65424,1591389061444
Fix,GT,37.5182208,-122.3533104,,20.77296,0.1,147.82153,1591389062444
Fix,GT,37.5180668,-122.3531744,,21.051556,0.1,147.57611,1591389063444
Fix,GT,37.517911,-122.3530356,,21.348965,0.1,147.1922,1591389064444
Fix,GT,37.5177547,-122.352893,,21.497543,0.1,146.40265,1591389065444
Fix,GT,37.5175997,-122.3527474,,21.468555,0.1,145.53516,1591389066444
Fix,GT,37.5174471,-122.3525994,,21.359848,0.1,144.53992,1591389067444
Fix,GT,37.5172977,-122.3524482,,21.249119,0.1,143.25189,1591389068444
Fix,GT,37.5171513,-122.3522933,,21.328527,0.1,142.13177,1591389069444
Fix,GT,37.5170049,-122.3521342,,21.704685,0.1,141.69977,1591389070444
Fix,GT,37.516856,-122.3519717,,22.075626,0.1,141.80688,1591389071444
Fix,GT,37.5167043,-122.3518079,,22.300549,0.1,142.19897,1591389072444
Fix,GT,37.5165508,-122.3516441,,22.395344,0.1,142.42462,1591389073444
Fix,GT,37.5163968,-122.3514804,,22.384377,0.1,142.39197,1591389074444
Fix,GT,37.5162432,-122.3513167,,22.33966,0.1,142.34879,1591389075444
Fix,GT,37.5160899,-122.3511531,,22.329014,0.1,142.28058,1591389076444
Fix,GT,37.5159364,-122.3509888,,22.488178,0.1,142.2337,1591389077444
Fix,GT,37.5157811,-122.3508226,,22.818817,0.1,142.26447,1591389078444
Fix,GT,37.5156236,-122.3506543,,23.077473,0.1,142.25925,1591389079444
Fix,GT,37.5154663,-122.3504851,,22.857906,0.1,141.92865,1591389080444
Fix,GT,37.5153123,-122.3503173,,22.413431,0.1,141.5986,1591389081444
Fix,GT,37.5151598,-122.3501506,,22.61245,0.1,141.87433,1591389082444
Fix,GT,37.5150028,-122.3499822,,23.256657,0.1,142.50748,1591389083444
Fix,GT,37.5148399,-122.3498109,,23.88541,0.1,142.85779,1591389084444
Fix,GT,37.5146727,-122.3496355,,24.475838,0.1,142.79987,1591389085444
Fix,GT,37.5145021,-122.3494551,,25.036396,0.1,142.50903,1591389086444
Fix,GT,37.5143284,-122.3492698,,25.567097,0.1,142.20221,1591389087444
Fix,GT,37.5141518,-122.3490794,,26.124317,0.1,141.9295,1591389088444
Fix,GT,37.5139721,-122.348884,,26.65131,0.1,141.74423,1591389089444
Fix,GT,37.5137892,-122.3486842,,27.121876,0.1,141.65094,1591389090444
Fix,GT,37.5136034,-122.3484807,,27.607727,0.1,141.66144,1591389091444
Fix,GT,37.513414,-122.3482739,,28.118176,0.1,141.75293,1591389092444
Fix,GT,37.5132211,-122.3480634,,28.625486,0.1,141.7345,1591389093444
Fix,GT,37.5130251,-122.3478483,,29.165638,0.1,141.43802,1591389094444
Fix,GT,37.5128269,-122.3476274,,29.629543,0.1,140.83878,1591389095444
Fix,GT,37.5126286,-122.3474013,,29.785883,0.1,140.09003,1591389096444
Fix,GT,37.5124319,-122.3471715,,29.860703,0.1,139.4964,1591389097444
Fix,GT,37.5122358,-122.3469384,,30.101887,0.1,139.10785,1591389098444
Fix,GT,37.5120397,-122.3467016,,30.305307,0.1,138.54102,1591389099444
Fix,GT,37.5118443,-122.3464604,,30.527071,0.1,137.8407,1591389100444
Fix,GT,37.5116501,-122.3462142,,30.732061,0.1,137.0271,1591389101444
Fix,GT,37.5114577,-122.3459632,,30.870926,0.1,136.26245,1591389102444
Fix,GT,37.5112665,-122.3457087,,30.958717,0.1,135.87881,1591389103444
Fix,GT,37.5110761,-122.3454525,,31.026169,0.1,135.62488,1591389104444
Fix,GT,37.5108868,-122.3451938,,31.100334,0.1,135.03632,1591389105444
Fix,GT,37.5106993,-122.3449319,,31.193317,0.1,134.33768,1591389106444
Fix,GT,37.5105135,-122.3446662,,31.323881,0.1,133.67755,1591389107444
Fix,GT,37.5103291,-122.3443969,,31.477125,0.1,133.1774,1591389108444
Fix,GT,37.5101455,-122.3441246,,31.607931,0.1,132.69052,1591389109444
Fix,GT,37.5099629,-122.3438493,,31.736076,0.1,132.16473,1591389110444
Fix,GT,37.5097819,-122.3435706,,31.86448,0.1,131.58426,1591389111444
Fix,GT,37.5096026,-122.3432883,,31.986835,0.1,130.92014,1591389112444
Fix,GT,37.509425,-122.3430025,,32.101883,0.1,130.33817,1591389113444
Fix,GT,37.5092488,-122.3427137,,32.216606,0.1,130.0209,1591389114444
Fix,GT,37.5090726,-122.3424233,,32.317513,0.1,129.93417,1591389115444
Fix,GT,37.5088963,-122.3421318,,32.39242,0.1,129.8529,1591389116444
Fix,GT,37.5087196,-122.3418393,,32.493797,0.1,129.89536,1591389117444
Fix,GT,37.5085423,-122.3415458,,32.629044,0.1,129.8807,1591389118444
Fix,GT,37.5083641,-122.3412511,,32.767365,0.1,129.91138,1591389119444
Fix,GT,37.5081844,-122.3409559,,32.94361,0.1,130.27826,1591389120444
Fix,GT,37.5080028,-122.3406596,,33.1327,0.1,130.23761,1591389121444
Fix,GT,37.5078206,-122.340361,,33.337555,0.1,130.14648,1591389122444
Fix,GT,37.5076369,-122.3400608,,33.58443,0.1,130.37158,1591389123444
Fix,GT,37.5074509,-122.3397594,,33.75602,0.1,130.49521,1591389124444
Fix,GT,37.5072645,-122.3394573,,33.781475,0.1,130.29626,1591389125444
Fix,GT,37.507079,-122.3391537,,33.840004,0.1,130.0,1591389126444
Fix,GT,37.506894,-122.3388486,,33.883923,0.1,129.91602,1591389127444
Fix,GT,37.5067095,-122.3385445,,33.624718,0.1,130.09277,1591389128444
Fix,GT,37.506527,-122.3382456,,32.975555,0.1,130.22882,1591389129444
Fix,GT,37.5063482,-122.3379534,,32.17407,0.1,130.195,1591389130444
Fix,GT,37.5061736,-122.3376676,,31.444141,0.1,130.09302,1591389131444
Fix,GT,37.5060037,-122.3373889,,30.540062,0.1,130.07343,1591389132444
Fix,GT,37.5058393,-122.3371195,,29.454098,0.1,130.15671,1591389133444
Fix,GT,37.50568,-122.3368598,,28.528385,0.1,130.30719,1591389134444
Fix,GT,37.5055242,-122.3366072,,27.95665,0.1,130.44101,1591389135444
Fix,GT,37.5053708,-122.3363594,,27.499342,0.1,130.63257,1591389136444
Fix,GT,37.5052189,-122.3361168,,27.023933,0.1,131.15408,1591389137444
Fix,GT,37.5050676,-122.3358806,,26.542093,0.1,131.79419,1591389138444
Fix,GT,37.5049172,-122.3356507,,26.047056,0.1,132.3909,1591389139444
Fix,GT,37.5047677,-122.3354269,,25.570412,0.1,132.80661,1591389140444
Fix,GT,37.5046201,-122.3352078,,25.123886,0.1,132.87616,1591389141444
Fix,GT,37.5044741,-122.3349929,,24.732048,0.1,133.2709,1591389142444
Fix,GT,37.5043288,-122.3347826,,24.413342,0.1,133.7583,1591389143444
Fix,GT,37.5041847,-122.334576,,24.114391,0.1,133.75482,1591389144444
Fix,GT,37.5040428,-122.3343716,,23.778725,0.1,133.72504,1591389145444
Fix,GT,37.5039026,-122.3341703,,23.42814,0.1,133.92328,1591389146444
Fix,GT,37.5037642,-122.3339726,,23.092068,0.1,133.93393,1591389147444
Fix,GT,37.5036277,-122.3337771,,22.89792,0.1,133.84485,1591389148444
Fix,GT,37.5034915,-122.3335822,,23.018211,0.1,134.03394,1591389149444
Fix,GT,37.503353,-122.3333861,,23.307339,0.1,134.35449,1591389150444
Fix,GT,37.5032122,-122.3331881,,23.609665,0.1,134.4194,1591389151444
Fix,GT,37.5030698,-122.3329874,,23.905743,0.1,134.3125,1591389152444
Fix,GT,37.5029258,-122.3327837,,24.23842,0.1,134.23761,1591389153444
Fix,GT,37.5027799,-122.3325767,,24.66749,0.1,134.20477,1591389154444
Fix,GT,37.5026314,-122.3323655,,25.164953,0.1,134.17865,1591389155444
Fix,GT,37.5024803,-122.3321499,,25.631645,0.1,134.00897,1591389156444
Fix,GT,37.5023275,-122.3319295,,26.027948,0.1,133.60403,1591389157444
Fix,GT,37.5021742,-122.3317041,,26.401096,0.1,132.78552,1591389158444
Fix,GT,37.5020224,-122.3314716,,26.763126,0.1,131.22754,1591389159444
Fix,GT,37.5018752,-122.3312301,,27.058842,0.1,129.04395,1591389160444
Fix,GT,37.5017343,-122.3309793,,27.262775,0.1,126.963196,1591389161444
Fix,GT,37.5015989,-122.3307211,,27.41386,0.1,125.32907,1591389162444
Fix,GT,37.5014685,-122.3304572,,27.569153,0.1,123.7793,1591389163444
Fix,GT,37.5013437,-122.3301868,,27.751469,0.1,121.97302,1591389164444
Fix,GT,37.5012248,-122.3299099,,27.946201,0.1,120.22659,1591389165444
Fix,GT,37.5011117,-122.3296266,,28.159996,0.1,118.572174,1591389166444
Fix,GT,37.5010045,-122.3293371,,28.349855,0.1,116.80667,1591389167444
Fix,GT,37.5009037,-122.3290418,,28.519897,0.1,115.085266,1591389168444
Fix,GT,37.5008092,-122.3287411,,28.69765,0.1,113.37341,1591389169444
Fix,GT,37.5007215,-122.3284349,,28.881075,0.1,111.65399,1591389170444
Fix,GT,37.5006404,-122.3281235,,29.106945,0.1,110.026184,1591389171444
Fix,GT,37.5005657,-122.3278068,,29.345108,0.1,108.342224,1591389172444
