MessageType,Provider,LatitudeDegrees,LongitudeDegrees,AltitudeMeters,SpeedMps,AccuracyMeters,BearingDegrees,UnixTimeMillis
Fix,GT,37.4166201,-122.0820448,,0.0028284271,0.1,95.18945,1599239488637
Fix,GT,37.4166201,-122.0820448,,0.00332995,0.1,95.18915,1599239489645
Fix,GT,37.4166201,-122.0820448,,0.0031048302,0.1,95.18909,1599239490644
Fix,GT,37.4166201,-122.0820448,,0.0024385145,0.1,95.1893,1599239491658
Fix,GT,37.4166201,-122.0820448,,0.0031267533,0.1,95.18927,1599239492650
Fix,GT,37.4166201,-122.0820448,,0.0019446346,0.1,95.18881,1599239493637
Fix,GT,37.4166201,-122.0820448,,0.0018005183,0.1,95.18909,1599239494647
Fix,GT,37.4166201,-122.0820448,,0.002236068,0.1,95.18939,1599239495645
Fix,GT,37.4166201,-122.0820448,,0.0017020262,0.1,95.18939,1599239496649
Fix,GT,37.4166201,-122.0820448,,0.0014142136,0.1,95.18945,1599239497651
Fix,GT,37.4166201,-122.0820448,,0.0005123677,0.1,95.18964,1599239498637
Fix,GT,37.4166201,-122.0820448,,0.0,0.1,95.18973,1599239499645
Fix,GT,37.4166201,-122.0820448,,0.0,0.1,95.1897,1599239500644
Fix,GT,37.4166201,-122.0820448,,0.0,0.1,95.189575,1599239501629
Fix,GT,37.4166201,-122.0820448,,0.0006455524,0.1,95.189514,1599239502645
Fix,GT,37.4166201,-122.0820448,,0.0012621646,0.1,95.19,1599239503632
Fix,GT,37.4166201,-122.0820448,,0.0011453216,0.1,95.19,1599239504649
Fix,GT,37.4166201,-122.0820448,,0.001264977,0.1,95.18991,1599239505639
Fix,GT,37.4166201,-122.0820448,,0.0014142136,0.1,95.19,1599239506655
Fix,GT,37.4166201,-122.0820448,,0.0011453133,0.1,95.19,1599239507649
Fix,GT,37.4166201,-122.0820448,,0.00036291816,0.1,95.190094,1599239508637
Fix,GT,37.4166201,-122.0820448,,0.00091472385,0.1,95.190125,1599239509646
Fix,GT,37.4166201,-122.0820448,,0.0011467226,0.1,95.190155,1599239510645
Fix,GT,37.4166201,-122.0820448,,0.0016582387,0.1,95.190674,1599239511658
Fix,GT,37.4166201,-122.0820448,,0.003604158,0.1,95.190125,1599239512648
Fix,GT,37.4166201,-122.0820448,,0.002193307,0.1,95.1922,1599239513656
Fix,GT,37.4166201,-122.0820432,,0.35906583,0.1,95.113556,1599239514648
Fix,GT,37.4166203,-122.0820328,,1.8699901,0.1,92.482086,1599239515643
Fix,GT,37.4166226,-122.0819959,,4.7234383,0.1,88.17282,1599239516659
Fix,GT,37.4166254,-122.0819281,,7.454383,0.1,87.2876,1599239517650
Fix,GT,37.4166282,-122.0818313,,9.756942,0.1,88.32587,1599239518636
Fix,GT,37.4166289,-122.0817117,,11.15386,0.1,90.33331,1599239519645
Fix,GT,37.416626,-122.0815806,,12.212841,0.1,91.995605,1599239520642
Fix,GT,37.4166204,-122.0814369,,13.624043,0.1,92.93967,1599239521629
Fix,GT,37.4166125,-122.0812743,,14.791364,0.1,93.495605,1599239522642
Fix,GT,37.4166034,-122.0811053,,15.392035,0.1,93.81213,1599239523633
Fix,GT,37.4165934,-122.0809276,,15.817596,0.1,94.028046,1599239524644
Fix,GT,37.4165826,-122.0807457,,16.606518,0.1,94.17639,1599239525643
Fix,GT,37.4165709,-122.0805509,,17.571173,0.1,94.17868,1599239526655
Fix,GT,37.4165589,-122.0803496,,18.389595,0.1,94.167114,1599239527647
Fix,GT,37.4165451,-122.0801207,,18.915913,0.1,94.19568,1599239528736
Fix,GT,37.4165359,-122.0799699,,18.893278,0.1,94.246765,1599239529444
Fix,GT,37.4165206,-122.079717,,18.488052,0.1,94.36615,1599239530643
Fix,GT,37.4165071,-122.0795092,,17.985987,0.1,94.70325,1599239531654
Fix,GT,37.4164934,-122.0793125,,17.157866,0.1,94.93701,1599239532647
Fix,GT,37.4164797,-122.0791238,,16.077087,0.1,95.23276,1599239533655
Fix,GT,37.4164668,-122.078951,,14.844165,0.1,95.27194,1599239534647
Fix,GT,37.4164552,-122.0787927,,13.366048,0.1,94.983215,1599239535644
Fix,GT,37.4164454,-122.0786511,,11.56687,0.1,94.935,1599239536650
Fix,GT,37.4164368,-122.0785323,,9.48088,0.1,95.20395,1599239537651
Fix,GT,37.4164296,-122.0784365,,7.8168926,0.1,95.50226,1599239538636
Fix,GT,37.4164225,-122.078357,,6.344647,0.1,96.61774,1599239539644
Fix,GT,37.4164152,-122.0782946,,4.929938,0.1,98.88324,1599239540647
Fix,GT,37.4164044,-122.0782459,,4.230967,0.1,106.95245,1599239541629
Fix,GT,37.4163836,-122.0782075,,3.8425941,0.1,125.79422,1599239542646
Fix,GT,37.4163531,-122.0781869,,4.179024,0.1,150.93204,1599239543633
Fix,GT,37.4163088,-122.0781819,,5.6115026,0.1,173.20819,1599239544647
Fix,GT,37.4162535,-122.0781838,,6.4824514,0.1,181.43372,1599239545648
Fix,GT,37.4161941,-122.0781865,,6.477669,0.1,181.67636,1599239546657
Fix,GT,37.4161374,-122.0781882,,6.1574116,0.1,181.25055,1599239547649
Fix,GT,37.4160857,-122.0781898,,5.49409,0.1,181.61423,1599239548634
Fix,GT,37.4160396,-122.0781926,,4.562142,0.1,182.70695,1599239549646
Fix,GT,37.416004,-122.0781955,,3.301025,0.1,183.452,1599239550645
Fix,GT,37.4159811,-122.0781976,,1.6769185,0.1,183.63911,1599239551658
Fix,GT,37.4159729,-122.0781982,,0.4010072,0.1,183.66724,1599239552649
Fix,GT,37.4159717,-122.0781984,,0.012546884,0.1,183.67688,1599239553634
Fix,GT,37.4159717,-122.0781984,,0.0039503896,0.1,183.67783,1599239554645
Fix,GT,37.4159717,-122.0781983,,0.0030576515,0.1,183.67699,1599239555644
Fix,GT,37.4159717,-122.0781983,,0.0023444449,0.1,183.67688,1599239556655
Fix,GT,37.4159717,-122.0781983,,0.002,0.1,183.67685,1599239557647
Fix,GT,37.4159717,-122.0781983,,0.002,0.1,183.67705,1599239558633
Fix,GT,37.4159717,-122.0781983,,0.0013538589,0.1,183.67717,1599239559646
Fix,GT,37.4159717,-122.0781983,,0.0012673633,0.1,183.67711,1599239560645
Fix,GT,37.4159717,-122.0781983,,0.0014142136,0.1,183.67712,1599239561629
Fix,GT,37.4159717,-122.0781983,,0.001941111,0.1,183.67726,1599239562641
Fix,GT,37.4159717,-122.0781983,,0.0026119966,0.1,183.67712,1599239563634
Fix,GT,37.4159717,-122.0781983,,0.003044276,0.1,183.67688,1599239564646
Fix,GT,37.4159717,-122.0781983,,0.0031622776,0.1,183.67697,1599239565645
Fix,GT,37.4159717,-122.0781983,,0.005733006,0.1,183.67749,1599239566657
Fix,GT,37.4159698,-122.0781985,,0.66709954,0.1,183.71669,1599239567649
Fix,GT,37.4159548,-122.0781999,,2.787748,0.1,183.75673,1599239568635
Fix,GT,37.4159165,-122.0782031,,5.5027523,0.1,183.57272,1599239569645
Fix,GT,37.4158559,-122.0782076,,7.9476666,0.1,183.23329,1599239570644
Fix,GT,37.415774,-122.0782123,,10.033751,0.1,182.18074,1599239571655
Fix,GT,37.4156756,-122.0782146,,12.021054,0.1,180.7133,1599239572647
Fix,GT,37.4155607,-122.0782147,,13.696027,0.1,179.7738,1599239573633
Fix,GT,37.4154326,-122.0782143,,14.231582,0.1,179.83765,1599239574645
Fix,GT,37.4153054,-122.0782148,,14.014372,0.1,180.14471,1599239575642
Fix,GT,37.4151808,-122.0782156,,13.359123,0.1,180.28726,1599239576651
Fix,GT,37.4150654,-122.078216,,12.135923,0.1,180.04979,1599239577650
Fix,GT,37.4149651,-122.0782159,,10.604589,0.1,179.90393,1599239578635
Fix,GT,37.4148726,-122.0782164,,9.846667,0.1,180.2456,1599239579645
Fix,GT,37.4147851,-122.0782171,,9.601042,0.1,180.2412,1599239580642
Fix,GT,37.414701,-122.0782172,,9.289796,0.1,179.74713,1599239581629
Fix,GT,37.4146183,-122.0782162,,8.7719965,0.1,179.19275,1599239582642
Fix,GT,37.4145444,-122.0782148,,7.7043295,0.1,178.86682,1599239583633
Fix,GT,37.4144807,-122.0782136,,6.2317934,0.1,179.12274,1599239584646
Fix,GT,37.4144317,-122.0782134,,4.6428385,0.1,179.76367,1599239585645
Fix,GT,37.4143964,-122.0782137,,3.1880982,0.1,180.1826,1599239586654
Fix,GT,37.4143712,-122.0782139,,2.5979338,0.1,180.2069,1599239587647
Fix,GT,37.4143481,-122.0782141,,2.7020931,0.1,180.15176,1599239588635
Fix,GT,37.4143212,-122.0782152,,3.2951217,0.1,181.69862,1599239589646
Fix,GT,37.4142878,-122.0782193,,4.17968,0.1,185.12572,1599239590643
Fix,GT,37.4142447,-122.078227,,5.4051285,0.1,188.03743,1599239591658
Fix,GT,37.4141911,-122.0782391,,6.905442,0.1,190.08018,1599239592647
Fix,GT,37.4141227,-122.0782556,,8.6541395,0.1,190.86325,1599239593633
Fix,GT,37.4140389,-122.078276,,9.94334,0.1,190.8323,1599239594645
Fix,GT,37.4139481,-122.0782973,,10.600836,0.1,190.2979,1599239595646
Fix,GT,37.4138497,-122.0783174,,11.406335,0.1,188.51562,1599239596656
Fix,GT,37.4137443,-122.0783353,,12.350448,0.1,187.25737,1599239597650
Fix,GT,37.4136318,-122.0783533,,13.107979,0.1,187.19777,1599239598636
Fix,GT,37.4135107,-122.0783737,,13.732285,0.1,187.92853,1599239599645
Fix,GT,37.4133867,-122.0783995,,14.172106,0.1,190.34248,1599239600643
Fix,GT,37.4132632,-122.078436,,14.396231,0.1,195.37791,1599239601629
Fix,GT,37.4131401,-122.078494,,14.472048,0.1,204.3958,1599239602642
Fix,GT,37.4130309,-122.0785792,,14.505789,0.1,216.56084,1599239603633
Fix,GT,37.4129377,-122.0786951,,14.403189,0.1,230.0523,1599239604646
Fix,GT,37.4128728,-122.0788331,,14.2717705,0.1,245.11052,1599239605646
Fix,GT,37.4128372,-122.0789891,,14.361496,0.1,259.68066,1599239606658
Fix,GT,37.4128309,-122.0791509,,14.824358,0.1,271.485,1599239607649
Fix,GT,37.4128484,-122.079317,,15.419852,0.1,280.80182,1599239608633
Fix,GT,37.4128851,-122.0794914,,16.206966,0.1,287.30414,1599239609646
Fix,GT,37.4129378,-122.079668,,17.309809,0.1,292.37912,1599239610643
Fix,GT,37.4130057,-122.0798531,,18.364489,0.1,295.7906,1599239611654
Fix,GT,37.4130818,-122.0800423,,19.354256,0.1,297.18454,1599239612649
Fix,GT,37.4131652,-122.0802373,,20.322018,0.1,298.73123,1599239613635
Fix,GT,37.4132583,-122.080442,,20.827599,0.1,300.30484,1599239614646
Fix,GT,37.413356,-122.0806464,,21.253119,0.1,301.30334,1599239615647
Fix,GT,37.4134583,-122.0808538,,21.39277,0.1,301.96005,1599239616657
Fix,GT,37.4135613,-122.0810545,,21.154991,0.1,303.40225,1599239617649
Fix,GT,37.4136667,-122.0812468,,20.86281,0.1,305.677,1599239618633
Fix,GT,37.4137825,-122.0814362,,21.012217,0.1,308.93448,1599239619645
Fix,GT,37.4139055,-122.0816165,,21.244577,0.1,311.6154,1599239620638
Fix,GT,37.4140342,-122.0817915,,21.278784,0.1,313.21432,1599239621629
Fix,GT,37.4141677,-122.0819691,,21.303764,0.1,313.15396,1599239622643
Fix,GT,37.4142947,-122.0821443,,21.117369,0.1,311.16577,1599239623632
Fix,GT,37.4144163,-122.0823296,,20.809994,0.1,308.03754,1599239624647
Fix,GT,37.4145253,-122.0825192,,20.607485,0.1,304.02374,1599239625647
Fix,GT,37.4146243,-122.0827183,,20.693747,0.1,300.29156,1599239626655
Fix,GT,37.4147146,-122.082924,,21.216753,0.1,297.73392,1599239627650
Fix,GT,37.4148025,-122.0831393,,22.09739,0.1,296.62537,1599239628638
Fix,GT,37.4148955,-122.0833669,,22.686203,0.1,297.3949,1599239629647
Fix,GT,37.4149943,-122.0835931,,22.856853,0.1,299.57944,1599239630649
Fix,GT,37.4151022,-122.0838152,,22.9846,0.1,302.7472,1599239631655
Fix,GT,37.4152188,-122.0840302,,23.438206,0.1,305.24554,1599239632647
Fix,GT,37.4153437,-122.0842433,,23.892342,0.1,307.10776,1599239633636
Fix,GT,37.4154794,-122.0844587,,24.217487,0.1,309.10446,1599239634646
Fix,GT,37.41562,-122.0846692,,24.428835,0.1,310.4126,1599239635645
Fix,GT,37.4157666,-122.0848828,,24.86311,0.1,310.6352,1599239636658
Fix,GT,37.4159129,-122.0850962,,25.367117,0.1,310.56674,1599239637650
Fix,GT,37.4160612,-122.0853115,,25.683449,0.1,310.96667,1599239638636
Fix,GT,37.4162161,-122.085532,,25.82428,0.1,311.52347,1599239639645
Fix,GT,37.4163709,-122.0857492,,25.937826,0.1,311.77487,1599239640642
Fix,GT,37.4165254,-122.0859651,,26.015854,0.1,311.77667,1599239641630
Fix,GT,37.4166838,-122.0861863,,26.024612,0.1,311.83472,1599239642641
Fix,GT,37.416839,-122.0864033,,26.044102,0.1,311.72607,1599239643632
Fix,GT,37.416997,-122.0866284,,26.294176,0.1,310.73434,1599239644648
Fix,GT,37.4171512,-122.0868548,,26.620789,0.1,310.23035,1599239645644
Fix,GT,37.4173058,-122.087081,,26.797577,0.1,310.88382,1599239646630
Fix,GT,37.4174677,-122.0873137,,26.853638,0.1,311.2003,1599239647649
Fix,GT,37.4176259,-122.087539,,26.949945,0.1,311.32867,1599239648637
Fix,GT,37.4177891,-122.08777,,27.13758,0.1,311.52173,1599239649647
Fix,GT,37.4179516,-122.0879974,,27.365776,0.1,311.99274,1599239650639
Fix,GT,37.418121,-122.0882306,,27.59372,0.1,312.42075,1599239651655
Fix,GT,37.4182885,-122.088459,,27.734318,0.1,312.62866,1599239652648
Fix,GT,37.4184555,-122.0886882,,27.838955,0.1,311.90942,1599239653637
Fix,GT,37.4186247,-122.0889269,,28.049355,0.1,311.306,1599239654649
Fix,GT,37.4187912,-122.089163,,28.4374,0.1,311.49405,1599239655637
Fix,GT,37.418966,-122.0894081,,28.920319,0.1,311.89673,1599239656652
Fix,GT,37.419142,-122.0896519,,29.362072,0.1,312.1764,1599239657651
Fix,GT,37.4193187,-122.0898956,,29.814072,0.1,312.2027,1599239658636
Fix,GT,37.4195028,-122.0901491,,30.197817,0.1,312.343,1599239659647
Fix,GT,37.4196868,-122.0904005,,30.479744,0.1,312.4497,1599239660643
Fix,GT,37.4198702,-122.0906519,,30.7101,0.1,312.3021,1599239661629
Fix,GT,37.4200603,-122.0909133,,30.83891,0.1,312.23267,1599239662646
Fix,GT,37.4202448,-122.0911673,,30.857162,0.1,312.23877,1599239663632
Fix,GT,37.4204348,-122.0914288,,30.827118,0.1,312.23016,1599239664647
Fix,GT,37.4206221,-122.0916866,,30.797003,0.1,312.22635,1599239665648
Fix,GT,37.4208119,-122.0919479,,30.723324,0.1,312.30774,1599239666664
Fix,GT,37.420995,-122.0921995,,30.606358,0.1,312.33322,1599239667647
Fix,GT,37.4211813,-122.0924554,,30.424534,0.1,312.2009,1599239668652
Fix,GT,37.4213636,-122.0927075,,30.300056,0.1,312.031,1599239669644
Fix,GT,37.4215463,-122.0929607,,30.208643,0.1,312.02774,1599239670643
Fix,GT,37.4217271,-122.0932106,,30.048058,0.1,312.16708,1599239671635
Fix,GT,37.4219107,-122.0934634,,29.904465,0.1,312.3062,1599239672644
Fix,GT,37.4220907,-122.0937103,,29.82201,0.1,312.36926,1599239673635
Fix,GT,37.4222738,-122.093961,,29.733425,0.1,312.45325,1599239674646
Fix,GT,37.422455,-122.094208,,29.661106,0.1,312.60544,1599239675646
Fix,GT,37.4226382,-122.0944579,,29.668995,0.1,312.23,1599239676659
Fix,GT,37.4228193,-122.0947093,,29.77378,0.1,311.71155,1599239677668
Fix,GT,37.4229972,-122.0949583,,29.880882,0.1,311.85223,1599239678660
Fix,GT,37.4231752,-122.0952052,,29.933966,0.1,312.23453,1599239679645
Fix,GT,37.423361,-122.0954603,,30.101671,0.1,312.3128,1599239680664
Fix,GT,37.4235411,-122.0957088,,30.401842,0.1,312.02795,1599239681647
Fix,GT,37.4237249,-122.0959644,,30.707132,0.1,311.877,1599239682644
Fix,GT,37.4239128,-122.0962256,,31.011028,0.1,312.178,1599239683654
Fix,GT,37.4241009,-122.0964827,,31.215261,0.1,312.78735,1599239684646
Fix,GT,37.424298,-122.0967464,,31.29993,0.1,313.36853,1599239685669
Fix,GT,37.424492,-122.0970006,,31.338518,0.1,314.00516,1599239686663
Fix,GT,37.4246902,-122.0972541,,31.393604,0.1,314.84106,1599239687665
Fix,GT,37.4248893,-122.0975015,,31.52104,0.1,315.54813,1599239688654
Fix,GT,37.4250925,-122.0977474,,31.615124,0.1,316.3432,1599239689647
Fix,GT,37.4253062,-122.097998,,31.642006,0.1,317.3808,1599239690673
Fix,GT,37.4255128,-122.0982323,,31.678528,0.1,318.1712,1599239691650
Fix,GT,37.425731,-122.098474,,31.789604,0.1,318.82864,1599239692669
Fix,GT,37.4259461,-122.0987063,,31.854776,0.1,319.56824,1599239693658
Fix,GT,37.4261629,-122.0989349,,31.836357,0.1,320.09198,1599239694645
Fix,GT,37.4263867,-122.0991672,,31.825418,0.1,320.4807,1599239695659
Fix,GT,37.4266083,-122.0993951,,31.813004,0.1,320.4369,1599239696658
Fix,GT,37.42683,-122.0996256,,31.69643,0.1,319.93268,1599239697665
Fix,GT,37.4270468,-122.0998546,,31.540133,0.1,319.68216,1599239698660
Fix,GT,37.4272614,-122.1000822,,31.56166,0.1,319.72372,1599239699649
Fix,GT,37.4274815,-122.1003152,,31.496773,0.1,319.6323,1599239700663
Fix,GT,37.4276948,-122.1005422,,31.407322,0.1,319.4941,1599239701650
Fix,GT,37.4279082,-122.1007695,,31.282303,0.1,319.6407,1599239702641
Fix,GT,37.4281257,-122.1009993,,31.03194,0.1,319.95096,1599239703654
Fix,GT,37.4283381,-122.1012222,,31.041826,0.1,319.9733,1599239704646
Fix,GT,37.4285575,-122.1014523,,31.36256,0.1,320.0204,1599239705664
Fix,GT,37.4287721,-122.1016775,,31.509563,0.1,319.94345,1599239706652
Fix,GT,37.4289934,-122.1019105,,31.541376,0.1,319.89117,1599239707669
Fix,GT,37.4292087,-122.1021372,,31.78579,0.1,319.83582,1599239708655
Fix,GT,37.4294272,-122.1023672,,32.068954,0.1,319.93353,1599239709646
Fix,GT,37.4296541,-122.1026051,,32.421715,0.1,319.9964,1599239710664
Fix,GT,37.4298776,-122.1028392,,32.855156,0.1,320.0729,1599239711655
Fix,GT,37.4301083,-122.1030799,,33.29982,0.1,320.17468,1599239712662
Fix,GT,37.4303392,-122.1033206,,33.76214,0.1,320.15756,1599239713656
Fix,GT,37.4305723,-122.1035641,,34.214275,0.1,320.08414,1599239714647
Fix,GT,37.4308129,-122.1038163,,34.538475,0.1,319.98605,1599239715659
Fix,GT,37.4310512,-122.1040666,,34.630505,0.1,319.92627,1599239716656
Fix,GT,37.4312868,-122.1043147,,34.58414,0.1,319.80136,1599239717642
Fix,GT,37.4315277,-122.1045696,,34.6565,0.1,319.73257,1599239718653
Fix,GT,37.4317649,-122.1048208,,34.710503,0.1,319.80264,1599239719646
Fix,GT,37.4320083,-122.1050776,,34.627396,0.1,319.92047,1599239720664
Fix,GT,37.4322435,-122.1053247,,34.52492,0.1,320.03625,1599239721649
Fix,GT,37.432481,-122.1055732,,34.634563,0.1,320.10284,1599239722643
Fix,GT,37.4327241,-122.1058272,,34.927338,0.1,320.1162,1599239723653
Fix,GT,37.4329653,-122.1060793,,35.21527,0.1,320.00586,1599239724646
Fix,GT,37.4332132,-122.1063397,,35.41791,0.1,319.92584,1599239725662
Fix,GT,37.4334573,-122.106596,,35.58161,0.1,319.99136,1599239726657
Fix,GT,37.433707,-122.1068578,,35.654068,0.1,320.05368,1599239727671
Fix,GT,37.4339503,-122.1071128,,35.68692,0.1,319.98853,1599239728658
Fix,GT,37.4341946,-122.1073694,,35.753624,0.1,319.97787,1599239729648
Fix,GT,37.4344471,-122.1076337,,35.762196,0.1,320.1809,1599239730669
Fix,GT,37.4346928,-122.1078897,,35.840157,0.1,320.15732,1599239731659
Fix,GT,37.4349443,-122.1081529,,35.93783,0.1,320.01627,1599239732672
Fix,GT,37.4351893,-122.1084105,,36.054764,0.1,319.9487,1599239733658
Fix,GT,37.4354361,-122.1086694,,36.087013,0.1,320.02573,1599239734647
Fix,GT,37.4356916,-122.1089369,,36.14065,0.1,320.09567,1599239735671
Fix,GT,37.435939,-122.1091957,,36.247437,0.1,320.10602,1599239736659
Fix,GT,37.4361914,-122.1094592,,36.312805,0.1,320.17017,1599239737664
Fix,GT,37.4364431,-122.1097217,,36.27873,0.1,320.18274,1599239738664
Fix,GT,37.436689,-122.1099791,,36.178894,0.1,319.93845,1599239739646
Fix,GT,37.4369431,-122.1102473,,36.049644,0.1,319.71017,1599239740666
Fix,GT,37.4371865,-122.1105048,,35.937546,0.1,319.92053,1599239741648
Fix,GT,37.4374335,-122.1107635,,35.88215,0.1,320.24158,1599239742643
Fix,GT,37.4376872,-122.1110263,,35.831482,0.1,320.41418,1599239743662
Fix,GT,37.4379321,-122.1112815,,35.83336,0.1,319.99786,1599239744647
Fix,GT,37.4381818,-122.1115448,,35.79242,0.1,319.757,1599239745659
Fix,GT,37.4384299,-122.1118069,,35.714836,0.1,319.7665,1599239746665
Fix,GT,37.438676,-122.112068,,35.64185,0.1,319.60764,1599239747668
Fix,GT,37.4389193,-122.1123266,,35.577965,0.1,319.63303,1599239748662
Fix,GT,37.4391599,-122.1125817,,35.61623,0.1,319.84622,1599239749645
Fix,GT,37.4394119,-122.1128463,,35.717552,0.1,320.02872,1599239750668
Fix,GT,37.4396567,-122.1131022,,35.704086,0.1,320.14014,1599239751658
Fix,GT,37.4399055,-122.1133624,,35.594894,0.1,320.0153,1599239752666
Fix,GT,37.4401497,-122.1136187,,35.510223,0.1,319.9495,1599239753661
Fix,GT,37.4403911,-122.1138726,,35.46493,0.1,319.91623,1599239754647
Fix,GT,37.4406408,-122.1141352,,35.53175,0.1,319.9658,1599239755666
Fix,GT,37.4408843,-122.1143913,,35.686783,0.1,319.94064,1599239756656
Fix,GT,37.4411288,-122.1146488,,35.71109,0.1,319.8727,1599239757648
Fix,GT,37.4413788,-122.1149123,,35.694344,0.1,319.85562,1599239758664
Fix,GT,37.441621,-122.1151677,,35.786713,0.1,319.8146,1599239759647
Fix,GT,37.4418734,-122.1154343,,35.967384,0.1,319.815,1599239760668
Fix,GT,37.4421177,-122.115692,,36.13655,0.1,319.87274,1599239761650
Fix,GT,37.4423706,-122.1159582,,36.251286,0.1,319.9154,1599239762663
Fix,GT,37.4426209,-122.1162214,,36.321392,0.1,320.0131,1599239763662
Fix,GT,37.4428683,-122.1164805,,36.395077,0.1,320.04987,1599239764646
Fix,GT,37.4431255,-122.1167499,,36.4109,0.1,320.02402,1599239765667
Fix,GT,37.443375,-122.1170116,,36.425556,0.1,319.98618,1599239766659
Fix,GT,37.4436311,-122.1172799,,36.35464,0.1,320.08344,1599239767675
Fix,GT,37.4438784,-122.117538,,36.129612,0.1,320.24323,1599239768661
Fix,GT,37.4441247,-122.1177942,,35.942204,0.1,320.287,1599239769646
Fix,GT,37.4443783,-122.1180583,,35.779556,0.1,320.1137,1599239770666
Fix,GT,37.4446226,-122.1183145,,35.566246,0.1,319.94687,1599239771657
Fix,GT,37.4448699,-122.1185743,,35.26218,0.1,319.99002,1599239772668
Fix,GT,37.4451122,-122.1188285,,34.954834,0.1,320.0619,1599239773666
Fix,GT,37.4453483,-122.1190754,,34.66734,0.1,320.09894,1599239774646
Fix,GT,37.4455931,-122.1193314,,34.345184,0.1,320.06927,1599239775672
Fix,GT,37.445826,-122.1195749,,33.95441,0.1,320.03387,1599239776657
Fix,GT,37.4460625,-122.119823,,33.49276,0.1,319.94415,1599239777672
Fix,GT,37.4462897,-122.1200617,,33.032097,0.1,319.97336,1599239778660
Fix,GT,37.4465137,-122.1202965,,32.56835,0.1,320.08627,1599239779648
Fix,GT,37.4467415,-122.1205344,,31.973063,0.1,320.1455,1599239780667
Fix,GT,37.4469566,-122.1207601,,31.248314,0.1,319.88748,1599239781652
Fix,GT,37.4471671,-122.1209821,,30.447348,0.1,319.8341,1599239782641
Fix,GT,37.4473736,-122.1212005,,29.644865,0.1,319.73013,1599239783639
Fix,GT,37.4475768,-122.1214157,,29.035088,0.1,319.85144,1599239784646
Fix,GT,37.4477796,-122.1216288,,28.603191,0.1,320.1352,1599239785665
Fix,GT,37.4479755,-122.121833,,28.287548,0.1,320.16052,1599239786659
Fix,GT,37.4481683,-122.1220344,,28.018686,0.1,320.11288,1599239787648
Fix,GT,37.4483623,-122.1222376,,27.727715,0.1,320.03983,1599239788654
Fix,GT,37.4485511,-122.1224358,,27.423466,0.1,319.98706,1599239789646
Fix,GT,37.4487437,-122.1226384,,27.248543,0.1,319.8837,1599239790667
Fix,GT,37.4489295,-122.1228345,,27.376804,0.1,319.8236,1599239791655
Fix,GT,37.4491222,-122.1230373,,27.779102,0.1,320.04953,1599239792667
Fix,GT,37.449314,-122.1232383,,28.084488,0.1,319.91135,1599239793660
Fix,GT,37.4495052,-122.12344,,28.176767,0.1,319.84573,1599239794645
Fix,GT,37.4497002,-122.1236449,,28.16626,0.1,320.1137,1599239795647
Fix,GT,37.4498965,-122.1238491,,28.216106,0.1,320.25888,1599239796652
Fix,GT,37.4500906,-122.1240516,,28.351536,0.1,320.09485,1599239797642
Fix,GT,37.4502864,-122.1242564,,28.303862,0.1,320.11615,1599239798640
Fix,GT,37.4504823,-122.1244623,,28.091179,0.1,319.78836,1599239799646
Fix,GT,37.4506734,-122.1246678,,27.898903,0.1,318.83798,1599239800644
Fix,GT,37.4508583,-122.1248744,,27.92225,0.1,317.59186,1599239801630
Fix,GT,37.451046,-122.1250928,,28.214363,0.1,316.62582,1599239802643
Fix,GT,37.4512306,-122.1253135,,28.506762,0.1,316.0264,1599239803640
Fix,GT,37.451415,-122.1255402,,28.429937,0.1,315.04633,1599239804646
Fix,GT,37.4515925,-122.1257662,,28.121696,0.1,313.9473,1599239805639
Fix,GT,37.4517696,-122.1260008,,27.84491,0.1,312.7223,1599239806661
Fix,GT,37.4519349,-122.1262299,,27.815609,0.1,311.52148,1599239807644
Fix,GT,37.4520991,-122.1264667,,27.883488,0.1,310.38107,1599239808641
Fix,GT,37.4522606,-122.1267097,,27.846321,0.1,309.18332,1599239809646
Fix,GT,37.4524176,-122.1269539,,27.647415,0.1,308.46826,1599239810645
Fix,GT,37.4525693,-122.127196,,27.296955,0.1,307.66876,1599239811637
Fix,GT,37.4527188,-122.1274433,,26.927816,0.1,306.7318,1599239812650
Fix,GT,37.4528601,-122.1276837,,26.660997,0.1,306.11932,1599239813637
Fix,GT,37.4530025,-122.1279285,,26.456036,0.1,306.12106,1599239814647
Fix,GT,37.4531428,-122.1281685,,26.36747,0.1,306.3287,1599239815644
Fix,GT,37.4532855,-122.1284108,,26.35225,0.1,306.34464,1599239816656
Fix,GT,37.4534262,-122.12865,,26.358025,0.1,306.28473,1599239817654
Fix,GT,37.4535656,-122.1288872,,26.314632,0.1,306.31696,1599239818644
Fix,GT,37.4537067,-122.1291273,,26.195862,0.1,306.2663,1599239819649
Fix,GT,37.4538454,-122.1293649,,26.13329,0.1,306.07822,1599239820645
Fix,GT,37.453983,-122.129601,,26.318592,0.1,306.07886,1599239821633
Fix,GT,37.4541253,-122.1298439,,26.543167,0.1,306.28,1599239822641
Fix,GT,37.4542673,-122.1300852,,26.739317,0.1,306.32346,1599239823638
Fix,GT,37.4544124,-122.1303325,,27.073997,0.1,306.12698,1599239824648
Fix,GT,37.4545567,-122.1305805,,27.472889,0.1,305.91104,1599239825644
Fix,GT,37.4547043,-122.1308356,,27.675316,0.1,305.89172,1599239826654
Fix,GT,37.4548498,-122.1310861,,27.618412,0.1,306.06924,1599239827646
Fix,GT,37.4549958,-122.131336,,27.628872,0.1,306.18597,1599239828639
Fix,GT,37.4551443,-122.1315899,,27.689812,0.1,306.15842,1599239829646
Fix,GT,37.4552917,-122.131842,,27.600174,0.1,306.17407,1599239830646
Fix,GT,37.4554366,-122.1320895,,27.444359,0.1,306.27515,1599239831634
Fix,GT,37.4555847,-122.1323408,,27.342007,0.1,306.5,1599239832643
Fix,GT,37.4557309,-122.1325875,,27.40755,0.1,306.56976,1599239833637
Fix,GT,37.4558801,-122.1328385,,27.47489,0.1,306.6364,1599239834646
Fix,GT,37.4560277,-122.1330866,,27.418829,0.1,306.59,1599239835644
Fix,GT,37.4561773,-122.1333394,,27.509037,0.1,306.32385,1599239836659
Fix,GT,37.4563232,-122.133588,,27.577724,0.1,306.23334,1599239837650
Fix,GT,37.4564692,-122.1338363,,27.537193,0.1,306.3708,1599239838641
Fix,GT,37.4566176,-122.1340875,,27.495518,0.1,306.46826,1599239839646
Fix,GT,37.4567636,-122.1343348,,27.479965,0.1,306.37036,1599239840637
Fix,GT,37.4569093,-122.1345827,,27.46946,0.1,306.339,1599239841629
Fix,GT,37.4570586,-122.1348355,,27.466145,0.1,306.54446,1599239842642
Fix,GT,37.4572078,-122.1350875,,27.433895,0.1,306.42245,1599239843654
Fix,GT,37.4573533,-122.1353354,,27.439533,0.1,306.1922,1599239844646
Fix,GT,37.4575029,-122.1355914,,27.445553,0.1,306.14893,1599239845670
Fix,GT,37.4576474,-122.1358375,,27.368797,0.1,306.41165,1599239846656
Fix,GT,37.4577967,-122.1360894,,27.226429,0.1,306.65784,1599239847674
Fix,GT,37.457941,-122.1363321,,27.116007,0.1,306.52057,1599239848660
Fix,GT,37.4580844,-122.1365752,,27.134068,0.1,306.35138,1599239849646
Fix,GT,37.4582322,-122.1368266,,27.107643,0.1,306.35086,1599239850665
Fix,GT,37.458376,-122.1370705,,26.96388,0.1,306.421,1599239851657
Fix,GT,37.4585215,-122.137318,,26.959845,0.1,306.22012,1599239852667
Fix,GT,37.4586653,-122.1375639,,27.00684,0.1,306.17172,1599239853667
Fix,GT,37.4588064,-122.1378049,,27.025978,0.1,306.26508,1599239854646
Fix,GT,37.4589546,-122.1380575,,27.193253,0.1,306.2708,1599239855671
Fix,GT,37.4590984,-122.1383028,,27.427052,0.1,306.22217,1599239856656
Fix,GT,37.4592472,-122.1385564,,27.523705,0.1,306.3028,1599239857670
Fix,GT,37.4593949,-122.1388076,,27.601763,0.1,306.31085,1599239858672
Fix,GT,37.459539,-122.1390531,,27.614445,0.1,306.2744,1599239859649
Fix,GT,37.4596875,-122.1393058,,27.45058,0.1,306.33795,1599239860657
Fix,GT,37.4598331,-122.1395531,,27.200363,0.1,306.40125,1599239861652
Fix,GT,37.4599765,-122.1397964,,26.938274,0.1,306.37515,1599239862642
Fix,GT,37.460122,-122.140044,,26.665268,0.1,306.2546,1599239863656
Fix,GT,37.4602621,-122.1402837,,26.401611,0.1,306.0813,1599239864648
Fix,GT,37.4604039,-122.1405278,,26.081556,0.1,305.97482,1599239865666
Fix,GT,37.4605397,-122.1407616,,25.672184,0.1,306.08032,1599239866654
Fix,GT,37.4606771,-122.1409965,,25.168278,0.1,306.32544,1599239867668
Fix,GT,37.4609139,-122.1413976,,24.442572,0.1,306.51657,1599239869449
Fix,GT,37.4610442,-122.1416177,,24.055347,0.1,306.53235,1599239870449
Fix,GT,37.4611726,-122.141834,,23.665565,0.1,306.59106,1599239871449
Fix,GT,37.4612989,-122.1420469,,23.30027,0.1,306.46808,1599239872449
Fix,GT,37.4614227,-122.1422574,,22.989326,0.1,306.23755,1599239873449
Fix,GT,37.4615447,-122.1424659,,22.801895,0.1,306.11166,1599239874449
Fix,GT,37.461666,-122.1426739,,22.852388,0.1,306.1417,1599239875449
Fix,GT,37.4617879,-122.142882,,22.833458,0.1,306.2798,1599239876449
Fix,GT,37.4619092,-122.1430889,,22.588562,0.1,306.19833,1599239877449
Fix,GT,37.4620287,-122.1432943,,22.460554,0.1,305.93643,1599239878449
Fix,GT,37.462148,-122.1435001,,22.599747,0.1,305.99915,1599239879449
Fix,GT,37.4622689,-122.1437078,,22.920597,0.1,306.0263,1599239880449
Fix,GT,37.4623912,-122.1439193,,23.32606,0.1,305.7084,1599239881449
Fix,GT,37.4625149,-122.144135,,23.65445,0.1,305.61313,1599239882449
Fix,GT,37.4626402,-122.1443524,,23.758121,0.1,305.93982,1599239883449
Fix,GT,37.4627667,-122.1445688,,23.722176,0.1,306.3742,1599239884449
Fix,GT,37.4628941,-122.1447837,,23.676636,0.1,306.65027,1599239885449
Fix,GT,37.4630217,-122.1449981,,23.639118,0.1,306.49066,1599239886449
Fix,GT,37.463148,-122.1452126,,23.549007,0.1,306.18222,1599239887449
Fix,GT,37.4632731,-122.1454267,,23.402002,0.1,306.1392,1599239888449
Fix,GT,37.4633975,-122.1456391,,23.240955,0.1,306.2496,1599239889449
Fix,GT,37.4635214,-122.1458499,,23.164513,0.1,306.33176,1599239890449
Fix,GT,37.4636456,-122.146061,,23.268383,0.1,306.26147,1599239891449
Fix,GT,37.4637702,-122.1462735,,23.397888,0.1,306.14487,1599239892449
Fix,GT,37.4638948,-122.146487,,23.40373,0.1,306.08926,1599239893449
Fix,GT,37.4640189,-122.1467002,,23.32274,0.1,306.06522,1599239894449
Fix,GT,37.4641432,-122.1469131,,23.383,0.1,306.21622,1599239895449
Fix,GT,37.4642693,-122.147127,,23.708397,0.1,306.47702,1599239896449
Fix,GT,37.4643978,-122.147344,,24.137663,0.1,306.4476,1599239897449
Fix,GT,37.464528,-122.1475651,,24.49924,0.1,306.22653,1599239898449
Fix,GT,37.4646591,-122.1477891,,24.662342,0.1,306.17963,1599239899449
Fix,GT,37.4647909,-122.1480143,,24.778084,0.1,306.25732,1599239900449
Fix,GT,37.4649236,-122.1482402,,24.894302,0.1,306.32477,1599239901449
Fix,GT,37.4650572,-122.1484673,,25.049152,0.1,306.35483,1599239902449
Fix,GT,37.465192,-122.1486962,,25.30056,0.1,306.34225,1599239903449
Fix,GT,37.4653278,-122.1489272,,25.487623,0.1,306.26843,1599239904449
Fix,GT,37.4654641,-122.1491598,,25.571404,0.1,306.17157,1599239905449
Fix,GT,37.4656007,-122.1493933,,25.660686,0.1,306.1892,1599239906449
Fix,GT,37.4657677,-122.1496778,,25.745396,0.1,306.2895,1599239907665
Fix,GT,37.4659042,-122.1499101,,25.800343,0.1,306.27975,1599239908656
Fix,GT,37.4660403,-122.150142,,25.748264,0.1,306.25946,1599239909644
Fix,GT,37.4661786,-122.1503775,,25.619179,0.1,306.27335,1599239910651
Fix,GT,37.4663154,-122.1506108,,25.545977,0.1,306.24884,1599239911653
Fix,GT,37.4664536,-122.1508465,,25.564999,0.1,306.17725,1599239912666
Fix,GT,37.4665893,-122.1510787,,25.676712,0.1,306.1244,1599239913661
Fix,GT,37.4667241,-122.1513091,,25.879534,0.1,306.20694,1599239914642
Fix,GT,37.4668626,-122.1515452,,26.011814,0.1,306.2858,1599239915641
Fix,GT,37.4670035,-122.1517849,,26.039787,0.1,306.3304,1599239916653
Fix,GT,37.4671418,-122.1520201,,26.235775,0.1,306.29333,1599239917643
Fix,GT,37.4672838,-122.1522625,,26.524073,0.1,306.1922,1599239918651
Fix,GT,37.4674243,-122.1525028,,26.744799,0.1,306.12955,1599239919641
Fix,GT,37.4675663,-122.1527458,,26.967213,0.1,306.24713,1599239920633
Fix,GT,37.4677133,-122.1529947,,27.094994,0.1,306.67133,1599239921646
Fix,GT,37.4678584,-122.1532372,,27.058594,0.1,306.70474,1599239922637
Fix,GT,37.4680029,-122.1534803,,26.994675,0.1,306.5887,1599239923629
Fix,GT,37.4681496,-122.1537277,,26.902584,0.1,306.6025,1599239924641
Fix,GT,37.4682926,-122.1539685,,26.694164,0.1,306.5625,1599239925632
Fix,GT,37.4684379,-122.1542142,,26.363567,0.1,306.3752,1599239926652
Fix,GT,37.4685771,-122.1544512,,26.006361,0.1,306.20428,1599239927646
Fix,GT,37.4687151,-122.1546873,,25.652561,0.1,306.13657,1599239928649
Fix,GT,37.4688496,-122.1549175,,25.303196,0.1,306.19528,1599239929640
Fix,GT,37.4689993,-122.1551726,,25.054974,0.1,306.34213,1599239930754
Fix,GT,37.4692249,-122.155555,,24.926367,0.1,306.40457,1599239932440
Fix,GT,37.4693587,-122.155782,,25.071728,0.1,306.30927,1599239933440
Fix,GT,37.4694933,-122.1560115,,25.365776,0.1,306.1347,1599239934440
Fix,GT,37.4696288,-122.1562443,,25.644775,0.1,305.93277,1599239935440
Fix,GT,37.469765,-122.1564797,,25.804893,0.1,305.85385,1599239936440
Fix,GT,37.4699019,-122.1567161,,25.88545,0.1,305.9449,1599239937440
Fix,GT,37.4700393,-122.1569528,,25.927067,0.1,306.00833,1599239938440
Fix,GT,37.4701775,-122.1571901,,26.10508,0.1,306.11557,1599239939440
Fix,GT,37.4703178,-122.1574286,,26.3559,0.1,306.62845,1599239940440
Fix,GT,37.4704609,-122.1576672,,26.42528,0.1,306.9547,1599239941440
Fix,GT,37.4706039,-122.1579057,,26.375546,0.1,306.6001,1599239942440
Fix,GT,37.4707454,-122.1581454,,26.440094,0.1,306.2841,1599239943440
Fix,GT,37.4708869,-122.1583872,,26.590553,0.1,306.118,1599239944440
Fix,GT,37.4710288,-122.1586301,,26.680672,0.1,306.1418,1599239945440
Fix,GT,37.4711712,-122.1588736,,26.747816,0.1,306.10126,1599239946440
Fix,GT,37.4713133,-122.159118,,26.764244,0.1,305.94208,1599239947440
Fix,GT,37.4714549,-122.1593629,,26.750435,0.1,305.90283,1599239948440
Fix,GT,37.4715965,-122.1596078,,26.755487,0.1,305.8544,1599239949440
Fix,GT,37.4717382,-122.1598523,,26.753258,0.1,305.99048,1599239950440
Fix,GT,37.4718804,-122.1600962,,26.668106,0.1,306.17673,1599239951440
Fix,GT,37.4720221,-122.1603383,,26.460184,0.1,306.16534,1599239952440
Fix,GT,37.4721625,-122.1605783,,26.20855,0.1,306.18054,1599239953440
Fix,GT,37.4723018,-122.1608163,,26.038792,0.1,306.20575,1599239954440
Fix,GT,37.4724408,-122.1610531,,26.02443,0.1,306.27563,1599239955440
Fix,GT,37.4725799,-122.16129,,26.054222,0.1,306.28162,1599239956440
Fix,GT,37.472719,-122.1615271,,25.991333,0.1,306.23264,1599239957440
Fix,GT,37.4728576,-122.1617637,,25.962849,0.1,306.14935,1599239958440
Fix,GT,37.4729959,-122.162001,,26.06176,0.1,306.08606,1599239959440
Fix,GT,37.4731352,-122.1622388,,26.151379,0.1,306.34454,1599239960440
Fix,GT,37.4732758,-122.1624766,,26.2251,0.1,306.60312,1599239961440
Fix,GT,37.4734173,-122.1627147,,26.298477,0.1,306.5748,1599239962440
Fix,GT,37.4735587,-122.1629535,,26.325588,0.1,306.42142,1599239963440
Fix,GT,37.4736995,-122.163193,,26.326134,0.1,306.19553,1599239964440
Fix,GT,37.4738398,-122.1634342,,26.590107,0.1,305.80835,1599239965440
Fix,GT,37.4739811,-122.1636802,,27.053265,0.1,305.65533,1599239966440
Fix,GT,37.4741246,-122.1639292,,27.256006,0.1,305.9894,1599239967440
Fix,GT,37.47427,-122.1641776,,27.28608,0.1,306.34036,1599239968440
Fix,GT,37.4744476,-122.1644781,,27.452984,0.1,306.50626,1599239969649
Fix,GT,37.4745982,-122.1647326,,27.576511,0.1,306.4704,1599239970668
Fix,GT,37.4747454,-122.1649819,,27.709808,0.1,306.38092,1599239971662
Fix,GT,37.4748926,-122.1652319,,27.87062,0.1,306.2947,1599239972651
Fix,GT,37.4750444,-122.1654907,,28.079391,0.1,306.24155,1599239973667
Fix,GT,37.4751921,-122.1657426,,28.224613,0.1,306.2498,1599239974649
Fix,GT,37.475346,-122.1660049,,28.220396,0.1,306.24847,1599239975669
Fix,GT,37.4754947,-122.1662587,,28.052746,0.1,306.15567,1599239976659
Fix,GT,37.4756423,-122.1665122,,27.905626,0.1,305.9869,1599239977653
Fix,GT,37.475792,-122.1667704,,27.778448,0.1,305.9589,1599239978667
Fix,GT,37.475936,-122.1670186,,27.576635,0.1,305.99973,1599239979648
Fix,GT,37.4760843,-122.1672731,,27.322992,0.1,306.1813,1599239980663
Fix,GT,37.476228,-122.1675181,,27.075031,0.1,306.38663,1599239981653
Fix,GT,37.476372,-122.1677615,,26.871147,0.1,306.54904,1599239982647
Fix,GT,37.4765179,-122.1680067,,26.697422,0.1,306.88303,1599239983658
Fix,GT,37.4766624,-122.1682438,,26.55126,0.1,307.74124,1599239984650
Fix,GT,37.4768093,-122.1684786,,26.454136,0.1,308.1623,1599239985646
Fix,GT,37.4769575,-122.1687172,,26.408163,0.1,307.46,1599239986659
Fix,GT,37.4771014,-122.168956,,26.399666,0.1,306.62152,1599239987662
Fix,GT,37.4772429,-122.1691966,,26.31009,0.1,306.15857,1599239988664
Fix,GT,37.4773798,-122.1694325,,26.109722,0.1,305.9223,1599239989649
Fix,GT,37.4775198,-122.1696755,,25.878195,0.1,305.76593,1599239990669
Fix,GT,37.4776554,-122.1699106,,25.68177,0.1,305.93677,1599239991665
Fix,GT,37.4777894,-122.1701414,,25.519243,0.1,306.1068,1599239992651
Fix,GT,37.4779264,-122.1703764,,25.576832,0.1,306.10764,1599239993660
Fix,GT,37.4780612,-122.1706082,,25.787235,0.1,306.05273,1599239994649
Fix,GT,37.4782011,-122.1708488,,25.93425,0.1,305.98007,1599239995667
Fix,GT,37.4783371,-122.1710845,,26.00166,0.1,305.77747,1599239996658
Fix,GT,37.4784733,-122.1713219,,26.157455,0.1,305.62515,1599239997650
Fix,GT,37.4786132,-122.1715662,,26.28799,0.1,305.7418,1599239998665
Fix,GT,37.4787473,-122.1717983,,26.306793,0.1,305.99786,1599239999628
Fix,GT,37.4788896,-122.1720426,,26.300003,0.1,306.1483,1599240000646
Fix,GT,37.4790281,-122.1722792,,26.340126,0.1,306.15732,1599240001633
Fix,GT,37.4791707,-122.172522,,26.38432,0.1,306.26428,1599240002646
Fix,GT,37.4793106,-122.1727602,,26.480793,0.1,306.31738,1599240003636
Fix,GT,37.4794518,-122.1730003,,26.637764,0.1,306.45285,1599240004629
Fix,GT,37.4795971,-122.1732461,,26.619255,0.1,306.4453,1599240005645
Fix,GT,37.4797388,-122.1734872,,26.47271,0.1,306.2521,1599240006643
Fix,GT,37.4798804,-122.1737294,,26.286371,0.1,306.11884,1599240007650
Fix,GT,37.4800184,-122.1739669,,26.046623,0.1,305.94476,1599240008644
Fix,GT,37.4801536,-122.1742006,,25.73362,0.1,305.9198,1599240009629
Fix,GT,37.4802913,-122.1744384,,25.36047,0.1,306.00153,1599240010647
Fix,GT,37.4804242,-122.1746669,,25.030891,0.1,306.19073,1599240011640
Fix,GT,37.480559,-122.1748967,,24.714573,0.1,306.4768,1599240012655
Fix,GT,37.4806902,-122.1751181,,24.571575,0.1,306.73328,1599240013646
Fix,GT,37.48082,-122.175337,,24.4838,0.1,306.49426,1599240014629
Fix,GT,37.4809528,-122.1755635,,24.369617,0.1,306.12668,1599240015648
Fix,GT,37.4810805,-122.1757841,,24.478611,0.1,305.8529,1599240016636
Fix,GT,37.4812119,-122.1760127,,24.575912,0.1,305.73666,1599240017652
Fix,GT,37.4813402,-122.1762358,,24.550547,0.1,305.91705,1599240018642
Fix,GT,37.4814686,-122.1764574,,24.602514,0.1,306.08145,1599240019629
Fix,GT,37.481601,-122.1766858,,24.80521,0.1,305.8768,1599240020641
Fix,GT,37.4817313,-122.1769134,,25.207405,0.1,305.461,1599240021633
Fix,GT,37.4818657,-122.177151,,25.620995,0.1,305.16537,1599240022647
Fix,GT,37.4819983,-122.1773878,,26.034594,0.1,304.89725,1599240023638
Fix,GT,37.4821309,-122.1776297,,26.391108,0.1,303.98492,1599240024628
Fix,GT,37.4822659,-122.1778854,,26.654587,0.1,302.9319,1599240025651
Fix,GT,37.4823943,-122.1781379,,26.82976,0.1,302.1186,1599240026641
Fix,GT,37.4825233,-122.1783993,,26.935692,0.1,301.38065,1599240027653
Fix,GT,37.4826477,-122.178658,,26.921864,0.1,300.76538,1599240028645
Fix,GT,37.482771,-122.1789217,,26.876747,0.1,299.87598,1599240029650
Fix,GT,37.4828918,-122.1791908,,26.763634,0.1,298.82782,1599240030668
Fix,GT,37.4830054,-122.1794541,,26.519352,0.1,297.8662,1599240031662
Fix,GT,37.4831143,-122.1797159,,26.181856,0.1,297.2339,1599240032653
Fix,GT,37.4832222,-122.1799805,,25.814358,0.1,296.88358,1599240033664
Fix,GT,37.4833239,-122.1802358,,25.470951,0.1,296.07324,1599240034649
Fix,GT,37.4834249,-122.1804985,,25.31633,0.1,295.37225,1599240035665
Fix,GT,37.4835205,-122.1807553,,25.113554,0.1,294.68774,1599240036659
Fix,GT,37.4836127,-122.181011,,24.793983,0.1,293.92224,1599240037654
Fix,GT,37.4837031,-122.1812699,,24.459393,0.1,293.4008,1599240038669
Fix,GT,37.4837877,-122.1815176,,24.13926,0.1,292.99265,1599240039650
Fix,GT,37.4838709,-122.1817661,,23.82351,0.1,292.56293,1599240040644
Fix,GT,37.4839527,-122.1820155,,23.519604,0.1,292.15753,1599240041653
Fix,GT,37.4840315,-122.1822605,,23.437567,0.1,291.74283,1599240042648
Fix,GT,37.4841096,-122.1825096,,23.478294,0.1,291.19522,1599240043658
Fix,GT,37.4841848,-122.1827561,,23.598787,0.1,290.76755,1599240044649
Fix,GT,37.4842614,-122.1830111,,23.780039,0.1,290.53088,1599240045667
Fix,GT,37.484336,-122.1832624,,24.023537,0.1,290.26636,1599240046659
Fix,GT,37.4844103,-122.1835174,,24.427315,0.1,289.78464,1599240047651
Fix,GT,37.4844854,-122.1837839,,24.831913,0.1,289.0513,1599240048666
Fix,GT,37.4845565,-122.1840479,,25.341396,0.1,288.2674,1599240049649
Fix,GT,37.4846296,-122.1843294,,25.936487,0.1,287.82214,1599240050671
Fix,GT,37.4847006,-122.1846083,,26.553852,0.1,287.4818,1599240051657
Fix,GT,37.4847721,-122.1848962,,27.10025,0.1,287.01105,1599240052651
Fix,GT,37.4848443,-122.1851964,,27.563362,0.1,286.51584,1599240053665
Fix,GT,37.4849135,-122.1854931,,27.820343,0.1,285.97827,1599240054652
Fix,GT,37.4849826,-122.1858013,,27.879343,0.1,285.3847,1599240055669
Fix,GT,37.4850481,-122.1861036,,27.863008,0.1,284.93573,1599240056663
Fix,GT,37.4851114,-122.1864055,,27.919819,0.1,284.4553,1599240057653
Fix,GT,37.4851744,-122.1867146,,28.207485,0.1,284.16724,1599240058660
Fix,GT,37.4852355,-122.187023,,28.549961,0.1,283.54498,1599240059649
Fix,GT,37.4852942,-122.1873378,,28.709831,0.1,282.70743,1599240060647
Fix,GT,37.4853504,-122.1876566,,28.654245,0.1,282.2486,1599240061653
Fix,GT,37.4854041,-122.1879694,,28.388828,0.1,281.86075,1599240062646
Fix,GT,37.4854558,-122.1882866,,28.038994,0.1,281.2001,1599240063660
Fix,GT,37.4855028,-122.1885927,,27.773743,0.1,280.46802,1599240064649
Fix,GT,37.4855472,-122.1889025,,27.760544,0.1,279.8207,1599240065652
Fix,GT,37.4855894,-122.189214,,27.769459,0.1,279.40625,1599240066659
Fix,GT,37.4856295,-122.1895201,,27.616135,0.1,279.19922,1599240067649
Fix,GT,37.4856694,-122.1898312,,27.333076,0.1,278.8838,1599240068663
Fix,GT,37.4857067,-122.1901319,,27.065685,0.1,278.6765,1599240069652
Fix,GT,37.4857443,-122.1904385,,26.807343,0.1,278.65298,1599240070670
Fix,GT,37.4857804,-122.1907329,,26.553123,0.1,278.67886,1599240071658
Fix,GT,37.4858166,-122.191027,,26.356953,0.1,278.67987,1599240072653
Fix,GT,37.4858532,-122.1913253,,26.202496,0.1,278.626,1599240073669
Fix,GT,37.4858881,-122.1916117,,26.07455,0.1,278.55234,1599240074650
Fix,GT,37.4859241,-122.1919087,,25.969246,0.1,278.5869,1599240075671
Fix,GT,37.4859592,-122.192196,,25.97369,0.1,278.72205,1599240076661
Fix,GT,37.4859947,-122.1924826,,26.101692,0.1,278.7406,1599240077647
Fix,GT,37.4860316,-122.1927815,,26.339127,0.1,278.6486,1599240078667
Fix,GT,37.4860674,-122.1930717,,26.506805,0.1,278.76697,1599240079650
Fix,GT,37.4861046,-122.1933677,,26.643703,0.1,278.8729,1599240080647
Fix,GT,37.4861422,-122.1936689,,26.752872,0.1,278.8381,1599240081657
Fix,GT,37.486179,-122.1939646,,26.819923,0.1,278.8167,1599240082645
Fix,GT,37.4862171,-122.1942688,,26.888838,0.1,278.8403,1599240083660
Fix,GT,37.4862542,-122.1945674,,27.032005,0.1,278.76614,1599240084651
Fix,GT,37.4862926,-122.1948774,,27.087414,0.1,278.7223,1599240085676
Fix,GT,37.4863295,-122.1951764,,27.117558,0.1,278.69635,1599240086664
Fix,GT,37.4863664,-122.195476,,27.228203,0.1,278.65018,1599240087651
Fix,GT,37.4864041,-122.1957846,,27.35193,0.1,278.64767,1599240088662
Fix,GT,37.4864413,-122.1960875,,27.454983,0.1,278.70837,1599240089652
Fix,GT,37.4864793,-122.1963936,,27.4993,0.1,278.81613,1599240090648
Fix,GT,37.4865174,-122.1966968,,27.42879,0.1,278.87067,1599240091637
Fix,GT,37.4865563,-122.1970073,,27.291199,0.1,278.7904,1599240092653
Fix,GT,37.4865934,-122.1973089,,27.059784,0.1,278.70886,1599240093645
Fix,GT,37.4866301,-122.1976047,,26.734085,0.1,278.82364,1599240094630
Fix,GT,37.4866677,-122.1979051,,26.421366,0.1,278.88892,1599240095642
Fix,GT,37.4867048,-122.1982,,26.241226,0.1,278.8058,1599240096645
Fix,GT,37.4867415,-122.1984947,,26.222118,0.1,278.81772,1599240097651
Fix,GT,37.4867779,-122.1987863,,26.232414,0.1,278.82385,1599240098646
Fix,GT,37.486814,-122.1990748,,26.144209,0.1,278.80856,1599240099632
Fix,GT,37.4868506,-122.1993707,,26.014046,0.1,278.75467,1599240100647
Fix,GT,37.486886,-122.1996577,,25.898201,0.1,278.6791,1599240101637
Fix,GT,37.4869218,-122.1999494,,25.775143,0.1,278.7207,1599240102647
Fix,GT,37.486957,-122.200235,,25.650383,0.1,278.74765,1599240103641
Fix,GT,37.486992,-122.2005175,,25.514462,0.1,278.7946,1599240104629
Fix,GT,37.4870283,-122.2008082,,25.393757,0.1,278.96716,1599240105652
Fix,GT,37.487064,-122.2010871,,25.18153,0.1,279.0663,1599240106640
Fix,GT,37.4871001,-122.20137,,24.86823,0.1,279.00323,1599240107652
Fix,GT,37.4871347,-122.2016439,,24.742802,0.1,278.84607,1599240108642
Fix,GT,37.4871685,-122.2019175,,24.686157,0.1,278.59064,1599240109632
Fix,GT,37.4872022,-122.2021976,,24.578823,0.1,278.53656,1599240110649
Fix,GT,37.4872352,-122.2024688,,24.535656,0.1,278.7259,1599240111637
Fix,GT,37.4872698,-122.2027468,,24.46567,0.1,278.79987,1599240112653
Fix,GT,37.4873032,-122.2030169,,24.391056,0.1,278.68787,1599240113643
Fix,GT,37.4873363,-122.2032856,,24.403873,0.1,278.7768,1599240114629
Fix,GT,37.4873714,-122.2035657,,24.47683,0.1,278.8217,1599240115655
Fix,GT,37.4874048,-122.2038361,,24.557838,0.1,278.63684,1599240116642
Fix,GT,37.4874387,-122.2041151,,24.612755,0.1,278.56644,1599240117658
Fix,GT,37.4874718,-122.2043862,,24.646124,0.1,278.73096,1599240118643
Fix,GT,37.4875057,-122.2046581,,24.662106,0.1,278.83212,1599240119630
Fix,GT,37.4875407,-122.2049391,,24.731657,0.1,278.74503,1599240120648
Fix,GT,37.4875744,-122.2052117,,24.725933,0.1,278.7704,1599240121634
Fix,GT,37.4876094,-122.2054902,,24.57586,0.1,278.90582,1599240122645
Fix,GT,37.4876439,-122.2057618,,24.393425,0.1,278.97214,1599240123639
Fix,GT,37.4876791,-122.2060377,,24.249294,0.1,278.95297,1599240124655
Fix,GT,37.4877131,-122.2063068,,24.208965,0.1,278.84412,1599240125650
Fix,GT,37.4877466,-122.2065746,,24.21584,0.1,278.8031,1599240126640
Fix,GT,37.4877813,-122.206848,,24.415802,0.1,279.1844,1599240127648
Fix,GT,37.4878182,-122.2071206,,24.7602,0.1,279.96613,1599240128643
Fix,GT,37.4878598,-122.2074013,,25.097626,0.1,280.77954,1599240129656
Fix,GT,37.4879035,-122.2076788,,25.27518,0.1,281.30502,1599240130648
Fix,GT,37.4879489,-122.2079561,,25.296955,0.1,281.7304,1599240131638
Fix,GT,37.4879974,-122.2082404,,25.245811,0.1,282.2182,1599240132655
Fix,GT,37.4880464,-122.2085181,,25.331255,0.1,282.46185,1599240133650
Fix,GT,37.488097,-122.2088003,,25.506447,0.1,282.6777,1599240134656
Fix,GT,37.4881481,-122.2090795,,25.634432,0.1,283.08722,1599240135647
Fix,GT,37.4882017,-122.2093599,,25.720562,0.1,283.68042,1599240136640
Fix,GT,37.4882588,-122.2096452,,25.82573,0.1,284.33954,1599240137650
Fix,GT,37.488318,-122.2099274,,26.050161,0.1,284.89392,1599240138645
Fix,GT,37.4883805,-122.2102152,,26.300966,0.1,285.44574,1599240139652
Fix,GT,37.4884447,-122.2104994,,26.439138,0.1,286.01453,1599240140642
Fix,GT,37.4885116,-122.2107838,,26.267223,0.1,286.69022,1599240141637
Fix,GT,37.4885821,-122.2110703,,25.854784,0.1,287.45773,1599240142654
Fix,GT,37.488652,-122.2113436,,25.394608,0.1,287.96893,1599240143644
Fix,GT,37.4887218,-122.2116093,,24.834423,0.1,288.27167,1599240144629
Fix,GT,37.4887929,-122.2118768,,24.272167,0.1,288.50284,1599240145645
Fix,GT,37.4888622,-122.2121322,,23.867432,0.1,288.8888,1599240146637
Fix,GT,37.4889336,-122.2123897,,23.535078,0.1,289.40433,1599240147654
Fix,GT,37.489004,-122.2126355,,23.389645,0.1,290.00497,1599240148639
Fix,GT,37.4890771,-122.2128809,,23.413397,0.1,290.81494,1599240149630
Fix,GT,37.4891554,-122.2131314,,23.579672,0.1,291.72684,1599240150643
Fix,GT,37.489235,-122.2133793,,23.845886,0.1,291.80786,1599240151640
Fix,GT,37.4893164,-122.2136332,,23.971333,0.1,291.94202,1599240152652
Fix,GT,37.4893979,-122.2138817,,23.93874,0.1,292.6884,1599240153644
Fix,GT,37.4894809,-122.2141267,,23.903223,0.1,293.18225,1599240154629
Fix,GT,37.4895683,-122.2143795,,23.822548,0.1,293.55652,1599240155649
Fix,GT,37.4896539,-122.2146225,,23.794605,0.1,293.9401,1599240156637
Fix,GT,37.4897435,-122.2148718,,23.81213,0.1,294.4718,1599240157653
Fix,GT,37.4898328,-122.215113,,23.820528,0.1,295.21408,1599240158640
Fix,GT,37.4899249,-122.2153536,,24.027264,0.1,295.84305,1599240159629
Fix,GT,37.490022,-122.215602,,24.239397,0.1,296.21997,1599240160643
Fix,GT,37.4901188,-122.2158454,,24.256706,0.1,296.60458,1599240161634
Fix,GT,37.4902186,-122.2160925,,24.192844,0.1,296.98755,1599240162645
Fix,GT,37.4903176,-122.2163332,,24.129066,0.1,297.3663,1599240163637
Fix,GT,37.490418,-122.216573,,24.159855,0.1,297.8418,1599240164630
Fix,GT,37.4905233,-122.2168195,,24.397112,0.1,298.34924,1599240165649
Fix,GT,37.4906284,-122.2170598,,24.572783,0.1,298.90558,1599240166638
Fix,GT,37.490738,-122.2173055,,24.639997,0.1,299.4149,1599240167650
Fix,GT,37.4908467,-122.2175465,,24.611164,0.1,299.3309,1599240168644
Fix,GT,37.4909537,-122.2177849,,24.514027,0.1,299.19644,1599240169630
Fix,GT,37.4910629,-122.2180296,,24.423512,0.1,299.1411,1599240170643
Fix,GT,37.49117,-122.2182697,,24.34085,0.1,299.11365,1599240171642
Fix,GT,37.4912781,-122.2185125,,24.27644,0.1,298.9403,1599240172653
Fix,GT,37.4913849,-122.2187545,,24.134892,0.1,298.85577,1599240173664
Fix,GT,37.4914889,-122.2189895,,23.942188,0.1,299.03406,1599240174652
Fix,GT,37.4915956,-122.2192287,,23.827057,0.1,299.2159,1599240175668
Fix,GT,37.4916998,-122.2194624,,23.692703,0.1,299.06,1599240176665
Fix,GT,37.491802,-122.2196931,,23.501902,0.1,298.95355,1599240177653
Fix,GT,37.4919055,-122.2199271,,23.32982,0.1,299.00647,1599240178665
Fix,GT,37.4920059,-122.2201534,,23.216816,0.1,299.08716,1599240179650
Fix,GT,37.4921078,-122.2203828,,23.100275,0.1,299.01056,1599240180652
Fix,GT,37.4922083,-122.2206103,,22.921654,0.1,298.82962,1599240181652
Fix,GT,37.4923074,-122.2208347,,22.782894,0.1,299.0056,1599240182645
Fix,GT,37.4924069,-122.2210574,,22.748344,0.1,299.26508,1599240183637
Fix,GT,37.4925069,-122.2212801,,22.854233,0.1,299.22232,1599240184629
Fix,GT,37.4926111,-122.2215138,,22.97298,0.1,299.11276,1599240185661
Fix,GT,37.4927124,-122.2217412,,22.943474,0.1,299.16125,1599240186665
Fix,GT,37.4928118,-122.2219652,,23.052841,0.1,298.8749,1599240187651
Fix,GT,37.4929134,-122.2221981,,23.339151,0.1,298.43994,1599240188663
Fix,GT,37.4930131,-122.2224278,,23.60936,0.1,298.74466,1599240189649
Fix,GT,37.4931187,-122.2226685,,24.14316,0.1,298.85666,1599240190668
Fix,GT,37.4932238,-122.2229091,,24.723284,0.1,298.59027,1599240191662
Fix,GT,37.4933305,-122.2231564,,25.401272,0.1,298.36157,1599240192654
Fix,GT,37.4934408,-122.2234145,,26.031456,0.1,297.99255,1599240193660
Fix,GT,37.4935497,-122.223675,,26.502502,0.1,297.31314,1599240194650
Fix,GT,37.4936596,-122.2239464,,26.635983,0.1,296.55054,1599240195662
Fix,GT,37.4937656,-122.2242155,,26.542366,0.1,296.07724,1599240196660
Fix,GT,37.4938687,-122.2244814,,26.366081,0.1,295.7948,1599240197649
Fix,GT,37.4939725,-122.2247545,,26.117775,0.1,295.1678,1599240198668
Fix,GT,37.4940687,-122.2250157,,25.775848,0.1,294.42575,1599240199649
Fix,GT,37.4941629,-122.2252794,,25.375504,0.1,293.84387,1599240200649
Fix,GT,37.4942545,-122.2255418,,25.030603,0.1,293.49475,1599240201654
Fix,GT,37.4943426,-122.225798,,24.734545,0.1,293.20572,1599240202646
Fix,GT,37.4944298,-122.2260569,,24.425869,0.1,292.59204,1599240203657
Fix,GT,37.4945118,-122.2263091,,24.105885,0.1,291.77902,1599240204650
Fix,GT,37.4945917,-122.2265645,,23.773079,0.1,291.0921,1599240205664
Fix,GT,37.4946673,-122.2268136,,23.458447,0.1,290.61517,1599240206661
Fix,GT,37.4947402,-122.2270583,,23.150677,0.1,290.42792,1599240207653
Fix,GT,37.4948127,-122.2273056,,22.853477,0.1,289.92346,1599240208666
Fix,GT,37.4948813,-122.2275436,,22.62262,0.1,289.7558,1599240209651
Fix,GT,37.4949513,-122.227788,,22.433672,0.1,289.728,1599240210670
Fix,GT,37.4950195,-122.2280246,,22.438618,0.1,289.8588,1599240211663
Fix,GT,37.4950875,-122.2282611,,22.55585,0.1,289.60834,1599240212651
Fix,GT,37.4951565,-122.2285035,,22.505035,0.1,289.51538,1599240213660
Fix,GT,37.4952234,-122.2287395,,22.262432,0.1,289.3724,1599240214650
Fix,GT,37.49529,-122.2289782,,21.944118,0.1,289.03387,1599240215662
Fix,GT,37.4953542,-122.2292112,,21.603245,0.1,289.02728,1599240216663
Fix,GT,37.4954174,-122.2294389,,21.453125,0.1,289.16605,1599240217654
Fix,GT,37.4954816,-122.2296707,,21.609623,0.1,288.90985,1599240218663
Fix,GT,37.4955445,-122.2298997,,21.864706,0.1,288.94205,1599240219649
Fix,GT,37.4956105,-122.2301386,,22.033596,0.1,289.087,1599240220667
Fix,GT,37.495675,-122.2303715,,22.229275,0.1,288.9512,1599240221653
Fix,GT,37.49574,-122.2306093,,22.553368,0.1,288.7645,1599240222645
Fix,GT,37.4958069,-122.2308539,,22.60183,0.1,289.04456,1599240223657
Fix,GT,37.4958739,-122.2310924,,22.413055,0.1,289.6589,1599240224650
Fix,GT,37.4959428,-122.2313302,,22.310112,0.1,290.16122,1599240225651
Fix,GT,37.4960133,-122.2315702,,22.28929,0.1,290.04132,1599240226665
Fix,GT,37.4960813,-122.2318039,,22.243893,0.1,289.761,1599240227653
Fix,GT,37.4961499,-122.2320436,,22.076794,0.1,289.51355,1599240228669
Fix,GT,37.4962149,-122.232273,,21.845917,0.1,289.37573,1599240229650
Fix,GT,37.4962809,-122.2325074,,21.645803,0.1,289.3013,1599240230661
Fix,GT,37.4963455,-122.232736,,21.451643,0.1,289.56412,1599240231656
Fix,GT,37.4964117,-122.232966,,21.172184,0.1,289.99164,1599240232671
Fix,GT,37.4964766,-122.233188,,20.961327,0.1,289.8653,1599240233664
Fix,GT,37.4965396,-122.2334068,,20.817879,0.1,289.60333,1599240234649
Fix,GT,37.4966022,-122.2336259,,20.608051,0.1,289.70123,1599240235642
Fix,GT,37.496666,-122.2338475,,20.379505,0.1,289.615,1599240236660
Fix,GT,37.4967273,-122.2340628,,20.275019,0.1,289.55765,1599240237654
Fix,GT,37.4967897,-122.2342809,,20.255573,0.1,289.6919,1599240238666
Fix,GT,37.4968512,-122.2344936,,20.473137,0.1,290.18567,1599240239649
Fix,GT,37.4969174,-122.2347084,,20.595325,0.1,291.7208,1599240240642
Fix,GT,37.4969897,-122.2349281,,20.807327,0.1,292.73633,1599240241657
Fix,GT,37.4970627,-122.2351426,,20.963644,0.1,293.32956,1599240242645
Fix,GT,37.4971404,-122.2353636,,21.059772,0.1,293.95572,1599240243661
Fix,GT,37.4972181,-122.2355784,,21.052738,0.1,294.6242,1599240244651
Fix,GT,37.4972979,-122.2357915,,20.982094,0.1,295.3919,1599240245642
Fix,GT,37.4973822,-122.2360083,,20.845438,0.1,296.27695,1599240246661
Fix,GT,37.497466,-122.2362159,,20.66121,0.1,297.11536,1599240247652
Fix,GT,37.4975531,-122.2364237,,20.505316,0.1,298.13458,1599240248662
Fix,GT,37.4976417,-122.2366244,,20.469757,0.1,299.44226,1599240249652
Fix,GT,37.4977336,-122.2368234,,20.43692,0.1,300.45026,1599240250647
Fix,GT,37.4978297,-122.2370241,,20.404144,0.1,301.32162,1599240251661
Fix,GT,37.497928,-122.2372218,,20.331114,0.1,302.36377,1599240252673
Fix,GT,37.4980269,-122.2374124,,20.297958,0.1,303.5871,1599240253664
Fix,GT,37.498129,-122.2376002,,20.538761,0.1,304.7031,1599240254649
Fix,GT,37.4982362,-122.2377897,,20.874414,0.1,305.6709,1599240255642
Fix,GT,37.4983483,-122.2379807,,21.099432,0.1,306.89832,1599240256640
Fix,GT,37.4984657,-122.238171,,21.063433,0.1,308.2588,1599240257649
Fix,GT,37.498588,-122.2383592,,20.986483,0.1,309.70923,1599240258672
Fix,GT,37.4987085,-122.2385365,,21.046333,0.1,310.91245,1599240259653
Fix,GT,37.4988341,-122.2387141,,21.203173,0.1,312.05832,1599240260647
Fix,GT,37.4989661,-122.2388932,,21.603403,0.1,313.21262,1599240261657
Fix,GT,37.4991026,-122.2390713,,21.957224,0.1,314.29407,1599240262659
Fix,GT,37.4992441,-122.2392491,,22.32443,0.1,315.40564,1599240263664
Fix,GT,37.4993889,-122.2394243,,22.632444,0.1,316.40515,1599240264656
Fix,GT,37.4995394,-122.239601,,22.71781,0.1,317.15805,1599240265664
Fix,GT,37.4996889,-122.2397728,,22.753872,0.1,317.58316,1599240266653
Fix,GT,37.4998396,-122.239945,,22.911629,0.1,317.58508,1599240267645
Fix,GT,37.4999933,-122.2401217,,23.319307,0.1,317.3845,1599240268646
Fix,GT,37.5001478,-122.2402997,,23.694557,0.1,317.3941,1599240269635
Fix,GT,37.5003088,-122.2404842,,23.919682,0.1,317.6403,1599240270651
Fix,GT,37.5004674,-122.2406649,,24.032703,0.1,317.69324,1599240271641
Fix,GT,37.5006292,-122.2408494,,24.017979,0.1,317.60168,1599240272651
Fix,GT,37.5007875,-122.2410302,,24.024548,0.1,317.71115,1599240273641
Fix,GT,37.5009469,-122.2412108,,24.155117,0.1,318.0055,1599240274630
Fix,GT,37.5011122,-122.241397,,24.325779,0.1,318.03088,1599240275647
Fix,GT,37.5012739,-122.2415796,,24.614775,0.1,317.86884,1599240276634
Fix,GT,37.5014421,-122.2417702,,24.910942,0.1,317.84232,1599240277650
Fix,GT,37.5016086,-122.2419587,,25.051384,0.1,317.92307,1599240278645
Fix,GT,37.5017736,-122.2421451,,25.026068,0.1,318.03717,1599240279629
Fix,GT,37.5019436,-122.242336,,24.950813,0.1,318.10345,1599240280642
Fix,GT,37.5021096,-122.2425226,,24.913233,0.1,317.97018,1599240281634
Fix,GT,37.5022788,-122.2427138,,24.88456,0.1,317.82986,1599240282649
Fix,GT,37.5024448,-122.2429022,,24.957819,0.1,317.7548,1599240283646
Fix,GT,37.5026091,-122.243089,,25.105684,0.1,317.71262,1599240284629
Fix,GT,37.5027801,-122.2432831,,25.234287,0.1,317.85873,1599240285647
Fix,GT,37.5029478,-122.2434725,,25.40432,0.1,317.9057,1599240286636
Fix,GT,37.5031206,-122.2436683,,25.353943,0.1,317.69708,1599240287652
Fix,GT,37.5032877,-122.2438591,,25.189377,0.1,317.56873,1599240288645
Fix,GT,37.5034533,-122.2440481,,25.098469,0.1,317.75266,1599240289633
Fix,GT,37.5036243,-122.2442412,,25.057423,0.1,318.12292,1599240290651
Fix,GT,37.5037906,-122.2444272,,24.990717,0.1,318.08322,1599240291639
Fix,GT,37.5039601,-122.2446182,,24.868217,0.1,317.85413,1599240292653
Fix,GT,37.5041252,-122.2448048,,24.768253,0.1,317.95935,1599240293646
Fix,GT,37.5042885,-122.2449879,,24.639542,0.1,318.1904,1599240294630
Fix,GT,37.5044567,-122.2451762,,24.489235,0.1,318.16034,1599240295648
Fix,GT,37.50462,-122.2453593,,24.33242,0.1,318.14563,1599240296644
Fix,GT,37.5047844,-122.2455445,,24.158695,0.1,317.80176,1599240297654
Fix,GT,37.5049458,-122.2457272,,23.95091,0.1,318.24924,1599240298657
Fix,GT,37.505101,-122.245903,,23.731426,0.1,317.92535,1599240299630
Fix,GT,37.5052613,-122.2460849,,23.465132,0.1,317.62646,1599240300646
Fix,GT,37.5054149,-122.2462598,,23.17659,0.1,317.65506,1599240301633
Fix,GT,37.5055708,-122.2464373,,22.846748,0.1,317.81082,1599240302648
Fix,GT,37.5057213,-122.2466073,,22.607418,0.1,317.89246,1599240303638
Fix,GT,37.5058712,-122.246777,,22.440048,0.1,317.7434,1599240304632
Fix,GT,37.5060227,-122.2469502,,22.365313,0.1,317.49908,1599240305648
Fix,GT,37.5061704,-122.2471198,,22.44496,0.1,317.51575,1599240306640
Fix,GT,37.5063229,-122.2472933,,22.593498,0.1,317.82147,1599240307654
Fix,GT,37.5064729,-122.2474631,,22.72239,0.1,317.8889,1599240308643
Fix,GT,37.506624,-122.2476336,,22.841549,0.1,317.92145,1599240309633
Fix,GT,37.5067794,-122.2478093,,23.136253,0.1,317.89276,1599240310644
Fix,GT,37.5069347,-122.247985,,23.533268,0.1,317.86078,1599240311638
Fix,GT,37.5070954,-122.2481666,,23.73397,0.1,317.9395,1599240312652
Fix,GT,37.5072532,-122.2483445,,23.680069,0.1,317.92987,1599240313644
Fix,GT,37.5074095,-122.2485209,,23.715845,0.1,317.9123,1599240314629
Fix,GT,37.5075709,-122.2487036,,23.773907,0.1,317.839,1599240315645
Fix,GT,37.5077293,-122.248883,,23.817928,0.1,317.83676,1599240316640
Fix,GT,37.5078898,-122.2490643,,23.7776,0.1,317.95587,1599240317646
Fix,GT,37.508015,-122.2492055,,23.778744,0.1,317.92374,1599240318431
Fix,GT,37.5081743,-122.249386,,23.861046,0.1,317.7524,1599240319431
Fix,GT,37.5083339,-122.2495675,,23.94559,0.1,317.6842,1599240320431
Fix,GT,37.5084941,-122.2497498,,24.0652,0.1,317.76996,1599240321431
Fix,GT,37.5086556,-122.249933,,24.296513,0.1,317.90225,1599240322431
Fix,GT,37.5088194,-122.2501178,,24.55431,0.1,317.99826,1599240323431
Fix,GT,37.5089845,-122.2503036,,24.644112,0.1,318.03326,1599240324431
Fix,GT,37.5091496,-122.2504897,,24.57765,0.1,317.92194,1599240325431
Fix,GT,37.5093135,-122.2506754,,24.390045,0.1,317.8094,1599240326431
Fix,GT,37.5094755,-122.2508593,,24.094254,0.1,317.76944,1599240327431
Fix,GT,37.5096353,-122.2510411,,23.781927,0.1,317.747,1599240328431
Fix,GT,37.509793,-122.2512204,,23.468996,0.1,317.7926,1599240329431
Fix,GT,37.5099491,-122.2513973,,23.230179,0.1,317.88837,1599240330431
Fix,GT,37.5101042,-122.2515727,,23.111828,0.1,317.85974,1599240331431
Fix,GT,37.5102581,-122.2517479,,22.960121,0.1,317.5193,1599240332431
Fix,GT,37.5104098,-122.2519228,,22.756203,0.1,317.24948,1599240333431
Fix,GT,37.5105598,-122.2520965,,22.541273,0.1,317.25958,1599240334431
Fix,GT,37.5107085,-122.2522683,,22.338104,0.1,317.28876,1599240335431
Fix,GT,37.510856,-122.2524397,,22.329586,0.1,316.86105,1599240336431
Fix,GT,37.5110035,-122.2526144,,22.739874,0.1,316.12183,1599240337431
Fix,GT,37.5111536,-122.2527959,,23.564873,0.1,316.0381,1599240338431
Fix,GT,37.5113105,-122.2529841,,24.642277,0.1,316.4009,1599240339431
Fix,GT,37.5114757,-122.2531794,,25.755205,0.1,316.83954,1599240340431
Fix,GT,37.5116494,-122.2533818,,26.805052,0.1,317.15723,1599240341431
Fix,GT,37.5118295,-122.2535906,,27.57498,0.1,317.123,1599240342431
Fix,GT,37.5120135,-122.2538048,,28.090912,0.1,317.12442,1599240343431
Fix,GT,37.512201,-122.2540217,,28.470715,0.1,317.51813,1599240344431
Fix,GT,37.5123915,-122.2542385,,28.577427,0.1,317.83035,1599240345431
Fix,GT,37.5125835,-122.2544542,,28.588036,0.1,318.43616,1599240346431
Fix,GT,37.5127781,-122.254667,,28.674082,0.1,319.33167,1599240347431
Fix,GT,37.512975,-122.254878,,28.76068,0.1,319.44647,1599240348431
Fix,GT,37.5131717,-122.2550897,,28.790112,0.1,319.07938,1599240349431
Fix,GT,37.5133682,-122.255304,,29.06144,0.1,318.6626,1599240350431
Fix,GT,37.5135662,-122.2555228,,29.489187,0.1,318.37286,1599240351431
Fix,GT,37.5137659,-122.2557454,,29.698635,0.1,318.24927,1599240352431
Fix,GT,37.5139653,-122.2559686,,29.518045,0.1,318.09714,1599240353431
