MessageType,Provider,LatitudeDegrees,LongitudeDegrees,AltitudeMeters,SpeedMps,AccuracyMeters,BearingDegrees,UnixTimeMillis
Fix,GT,37.6554325,-122.408488,,0.0041231057,0.1,88.64606,1591313194448
Fix,GT,37.6554325,-122.408488,,0.0032761802,0.1,88.646454,1591313195448
Fix,GT,37.6554325,-122.408488,,0.002130118,0.1,88.64685,1591313196448
Fix,GT,37.6554325,-122.408488,,0.0015511892,0.1,88.64642,1591313197448
Fix,GT,37.6554325,-122.408488,,0.0011859033,0.1,88.64642,1591313198448
Fix,GT,37.6554325,-122.408488,,0.0017830695,0.1,88.64633,1591313199448
Fix,GT,37.6554325,-122.408488,,0.002236068,0.1,88.64661,1591313200448
Fix,GT,37.6554325,-122.408488,,0.002850703,0.1,88.64731,1591313201448
Fix,GT,37.6554325,-122.408488,,0.004604327,0.1,88.647644,1591313202448
Fix,GT,37.6554325,-122.408488,,0.0060524843,0.1,88.64673,1591313203448
Fix,GT,37.6554326,-122.4084879,,0.03229715,0.1,88.6091,1591313204448
Fix,GT,37.6554333,-122.4084856,,0.5010994,0.1,86.40549,1591313205448
Fix,GT,37.6554365,-122.4084752,,1.5706384,0.1,79.634705,1591313206448
Fix,GT,37.6554414,-122.4084528,,2.5004306,0.1,74.94464,1591313207448
Fix,GT,37.6554441,-122.4084216,,2.8857517,0.1,80.004395,1591313208448
Fix,GT,37.6554421,-122.4083891,,2.604388,0.1,89.204315,1591313209448
Fix,GT,37.6554389,-122.4083621,,2.1423588,0.1,93.39578,1591313210448
Fix,GT,37.6554384,-122.4083386,,2.1596284,0.1,89.4931,1591313211448
Fix,GT,37.6554438,-122.4083132,,2.7672958,0.1,76.74994,1591313212448
Fix,GT,37.6554621,-122.408285,,4.1560774,0.1,53.808838,1591313213448
Fix,GT,37.6554984,-122.408257,,5.662554,0.1,29.977966,1591313214448
Fix,GT,37.6555497,-122.4082304,,6.666696,0.1,19.514221,1591313215448
Fix,GT,37.6556066,-122.4082005,,6.720315,0.1,19.973114,1591313216448
Fix,GT,37.6556563,-122.4081705,,5.250184,0.1,23.45694,1591313217448
Fix,GT,37.6556876,-122.4081484,,2.5935826,0.1,26.93103,1591313218448
Fix,GT,37.6556989,-122.4081394,,0.5491476,0.1,28.334198,1591313219448
Fix,GT,37.6557001,-122.4081385,,0.012788213,0.1,28.493011,1591313220448
Fix,GT,37.6557007,-122.4081381,,0.12861948,0.1,28.569122,1591313221448
Fix,GT,37.6557029,-122.4081362,,0.50228643,0.1,29.08197,1591313222448
Fix,GT,37.65571,-122.4081287,,1.6532292,0.1,32.21231,1591313223448
Fix,GT,37.6557243,-122.4081048,,3.4520264,0.1,44.64035,1591313224448
Fix,GT,37.6557363,-122.408058,,4.8682714,0.1,68.25641,1591313225448
Fix,GT,37.6557348,-122.4079952,,5.964473,0.1,89.42447,1591313226448
Fix,GT,37.6557233,-122.4079241,,6.6729045,0.1,98.613434,1591313227448
Fix,GT,37.6557091,-122.407851,,6.479299,0.1,100.9621,1591313228448
Fix,GT,37.6556954,-122.4077847,,5.5162497,0.1,101.47208,1591313229448
Fix,GT,37.6556839,-122.4077304,,4.420144,0.1,101.85535,1591313230448
Fix,GT,37.6556746,-122.4076871,,3.4964812,0.1,101.97705,1591313231448
Fix,GT,37.6556678,-122.4076554,,2.1821616,0.1,102.03436,1591313232448
Fix,GT,37.6556645,-122.4076406,,0.6757249,0.1,102.13431,1591313233448
Fix,GT,37.6556639,-122.4076382,,0.02068313,0.1,102.156006,1591313234448
Fix,GT,37.6556638,-122.4076381,,0.012204535,0.1,102.1528,1591313235448
Fix,GT,37.6556638,-122.4076381,,0.009780998,0.1,102.15439,1591313236448
Fix,GT,37.6556637,-122.4076381,,0.006687971,0.1,102.1546,1591313237448
Fix,GT,37.6556637,-122.4076382,,0.0041752644,0.1,102.15335,1591313238448
Fix,GT,37.6556637,-122.4076382,,0.0027466128,0.1,102.15167,1591313239448
Fix,GT,37.6556637,-122.4076382,,0.0028506648,0.1,102.15091,1591313240448
Fix,GT,37.6556637,-122.4076382,,0.003605551,0.1,102.15146,1591313241448
Fix,GT,37.6556637,-122.4076382,,0.0042313496,0.1,102.15112,1591313242448
Fix,GT,37.6556637,-122.4076382,,0.006616643,0.1,102.15085,1591313243448
Fix,GT,37.6556637,-122.4076383,,0.009161741,0.1,102.150055,1591313244448
Fix,GT,37.6556638,-122.4076383,,0.011263017,0.1,102.149475,1591313245448
Fix,GT,37.6556638,-122.4076383,,0.013,0.1,102.14996,1591313246448
Fix,GT,37.6556639,-122.4076384,,0.014016178,0.1,102.14908,1591313247448
Fix,GT,37.655664,-122.4076385,,0.029057708,0.1,102.149536,1591313248448
Fix,GT,37.6556639,-122.4076373,,0.32348016,0.1,102.15164,1591313249448
Fix,GT,37.6556617,-122.4076276,,1.6183562,0.1,102.450165,1591313250448
Fix,GT,37.6556544,-122.4075991,,3.6368327,0.1,104.41626,1591313251448
Fix,GT,37.6556377,-122.4075535,,4.967546,0.1,112.391815,1591313252448
Fix,GT,37.6556064,-122.4075065,,5.615101,0.1,129.4018,1591313253448
Fix,GT,37.6555588,-122.4074745,,6.1720495,0.1,152.47876,1591313254448
Fix,GT,37.6555016,-122.4074678,,6.440214,0.1,175.66827,1591313255448
Fix,GT,37.6554443,-122.4074832,,6.412284,0.1,190.9314,1591313256448
Fix,GT,37.65539,-122.4075059,,6.191861,0.1,195.71313,1591313257448
Fix,GT,37.655339,-122.4075281,,5.7196045,0.1,196.10713,1591313258448
Fix,GT,37.6552939,-122.4075483,,4.7628026,0.1,196.57004,1591313259448
Fix,GT,37.6552583,-122.4075646,,3.7412004,0.1,196.79723,1591313260448
Fix,GT,37.6552284,-122.407578,,3.499349,0.1,196.44662,1591313261448
Fix,GT,37.6551977,-122.4075914,,3.73976,0.1,196.05934,1591313262448
Fix,GT,37.6551642,-122.4076061,,4.1818523,0.1,196.1983,1591313263448
Fix,GT,37.6551246,-122.407624,,5.2329273,0.1,196.61208,1591313264448
Fix,GT,37.6550738,-122.4076475,,6.78759,0.1,197.10841,1591313265448
Fix,GT,37.6550101,-122.4076779,,8.32764,0.1,197.7429,1591313266448
Fix,GT,37.654934,-122.4077157,,9.803318,0.1,198.61516,1591313267448
Fix,GT,37.6548465,-122.4077611,,11.101907,0.1,199.4906,1591313268448
Fix,GT,37.6547507,-122.4078118,,11.853527,0.1,199.65695,1591313269448
Fix,GT,37.6546511,-122.4078638,,12.031197,0.1,199.26437,1591313270448
Fix,GT,37.6545506,-122.4079153,,12.031078,0.1,199.08313,1591313271448
Fix,GT,37.6544505,-122.4079671,,12.004257,0.1,199.3161,1591313272448
Fix,GT,37.6543505,-122.4080193,,12.097322,0.1,199.4127,1591313273448
Fix,GT,37.6542483,-122.4080722,,12.542435,0.1,199.18051,1591313274448
Fix,GT,37.6541408,-122.4081274,,13.220989,0.1,198.99356,1591313275448
Fix,GT,37.6540277,-122.408185,,13.849781,0.1,198.91988,1591313276448
Fix,GT,37.6539096,-122.4082453,,14.443291,0.1,199.01685,1591313277448
Fix,GT,37.6537867,-122.4083087,,15.033619,0.1,199.2609,1591313278448
Fix,GT,37.6536592,-122.4083751,,15.612385,0.1,199.3784,1591313279448
Fix,GT,37.653527,-122.4084439,,16.152481,0.1,199.26439,1591313280448
Fix,GT,37.6533902,-122.4085143,,16.670244,0.1,198.96315,1591313281448
Fix,GT,37.6532489,-122.4085858,,17.159843,0.1,198.68304,1591313282448
Fix,GT,37.6531032,-122.4086586,,17.636812,0.1,198.38454,1591313283448
Fix,GT,37.652953,-122.4087315,,18.134302,0.1,197.51622,1591313284448
Fix,GT,37.6527973,-122.4088025,,18.67778,0.1,196.28183,1591313285448
Fix,GT,37.6526365,-122.4088717,,19.086643,0.1,195.35904,1591313286448
Fix,GT,37.6524721,-122.4089385,,19.282797,0.1,193.99208,1591313287448
Fix,GT,37.6523043,-122.4089978,,19.455082,0.1,191.07553,1591313288448
Fix,GT,37.6521326,-122.4090442,,19.640049,0.1,187.10672,1591313289448
Fix,GT,37.6519567,-122.4090756,,19.913307,0.1,183.09723,1591313290448
Fix,GT,37.6517763,-122.4090922,,20.298496,0.1,179.27098,1591313291448
Fix,GT,37.6515923,-122.4090932,,20.622078,0.1,175.22156,1591313292448
Fix,GT,37.6514066,-122.4090774,,20.76202,0.1,171.15735,1591313293448
Fix,GT,37.6512233,-122.4090464,,20.1998,0.1,167.53485,1591313294448
Fix,GT,37.6510544,-122.4090044,,17.98909,0.1,164.03345,1591313295448
Fix,GT,37.6509112,-122.4089579,,14.969622,0.1,160.8822,1591313296448
Fix,GT,37.6507933,-122.4089116,,12.576326,0.1,158.612,1591313297448
Fix,GT,37.6506953,-122.4088679,,10.587036,0.1,156.53168,1591313298448
Fix,GT,37.6506146,-122.408828,,8.639353,0.1,154.67554,1591313299448
Fix,GT,37.6505531,-122.4087949,,6.162301,0.1,153.28851,1591313300448
Fix,GT,37.6505147,-122.4087732,,3.2227612,0.1,152.6217,1591313301448
Fix,GT,37.6504965,-122.4087627,,1.3963665,0.1,152.56274,1591313302448
Fix,GT,37.6504868,-122.4087573,,1.2686881,0.1,152.65955,1591313303448
Fix,GT,37.6504708,-122.4087497,,2.639901,0.1,154.84229,1591313304448
Fix,GT,37.6504375,-122.4087381,,4.949357,0.1,159.62341,1591313305448
Fix,GT,37.6503864,-122.4087211,,6.6755624,0.1,161.0625,1591313306448
Fix,GT,37.6503242,-122.4086931,,8.073281,0.1,155.97278,1591313307448
Fix,GT,37.650254,-122.4086504,,9.380173,0.1,149.89465,1591313308448
Fix,GT,37.6501751,-122.4085959,,10.655746,0.1,147.59384,1591313309448
Fix,GT,37.6500869,-122.4085327,,11.862054,0.1,146.93744,1591313310448
Fix,GT,37.6499908,-122.408461,,12.933172,0.1,145.79077,1591313311448
Fix,GT,37.6498876,-122.4083809,,13.9836,0.1,144.86316,1591313312448
Fix,GT,37.6497768,-122.4082935,,15.046527,0.1,144.78494,1591313313448
Fix,GT,37.6496595,-122.4082002,,15.738632,0.1,144.23145,1591313314448
Fix,GT,37.6495414,-122.4081002,,15.876947,0.1,141.77783,1591313315448
Fix,GT,37.6494257,-122.407994,,15.947044,0.1,140.25708,1591313316448
Fix,GT,37.6493086,-122.4078872,,16.168736,0.1,141.51794,1591313317448
Fix,GT,37.6491875,-122.4077817,,16.548983,0.1,142.53714,1591313318448
Fix,GT,37.6490625,-122.4076751,,16.956383,0.1,142.85938,1591313319448
Fix,GT,37.6489347,-122.4075671,,17.176113,0.1,143.05176,1591313320448
Fix,GT,37.6488062,-122.4074591,,17.01608,0.1,143.09485,1591313321448
Fix,GT,37.6486793,-122.4073546,,16.581364,0.1,144.07059,1591313322448
Fix,GT,37.6485531,-122.4072559,,16.385517,0.1,145.6062,1591313323448
Fix,GT,37.6484249,-122.4071608,,16.663025,0.1,147.14679,1591313324448
Fix,GT,37.6482895,-122.4070713,,17.261452,0.1,151.16028,1591313325448
Fix,GT,37.6481427,-122.4069956,,17.930058,0.1,157.09009,1591313326448
Fix,GT,37.6479847,-122.4069381,,18.581081,0.1,163.36365,1591313327448
Fix,GT,37.647817,-122.4069,,19.242722,0.1,169.11908,1591313328448
Fix,GT,37.6476415,-122.4068777,,19.878922,0.1,172.21875,1591313329448
Fix,GT,37.6474601,-122.4068614,,20.421412,0.1,172.83801,1591313330448
Fix,GT,37.6472752,-122.4068448,,20.732292,0.1,172.80725,1591313331448
Fix,GT,37.6470884,-122.4068284,,20.769527,0.1,172.8916,1591313332448
Fix,GT,37.6469023,-122.4068119,,20.6131,0.1,172.70099,1591313333448
Fix,GT,37.6467182,-122.4067953,,20.349163,0.1,172.93616,1591313334448
Fix,GT,37.6465364,-122.4067802,,20.094902,0.1,172.97693,1591313335448
Fix,GT,37.6463568,-122.4067639,,19.87059,0.1,172.42865,1591313336448
Fix,GT,37.6461795,-122.4067452,,19.634457,0.1,171.57831,1591313337448
Fix,GT,37.6460047,-122.4067221,,19.410625,0.1,170.21503,1591313338448
Fix,GT,37.6458317,-122.4066947,,19.33429,0.1,169.41296,1591313339448
Fix,GT,37.6456587,-122.406666,,19.405354,0.1,169.42755,1591313340448
Fix,GT,37.6454849,-122.406637,,19.537224,0.1,169.24121,1591313341448
Fix,GT,37.6453098,-122.4066083,,19.6624,0.1,169.73041,1591313342448
Fix,GT,37.6451336,-122.4065823,,19.689987,0.1,170.49371,1591313343448
Fix,GT,37.6449575,-122.4065587,,19.593102,0.1,170.82996,1591313344448
Fix,GT,37.6447824,-122.4065363,,19.455145,0.1,171.18811,1591313345448
Fix,GT,37.6446084,-122.406515,,19.413681,0.1,171.33887,1591313346448
Fix,GT,37.6444331,-122.4064932,,19.762943,0.1,171.11572,1591313347448
Fix,GT,37.6442528,-122.4064709,,20.490227,0.1,171.39667,1591313348448
Fix,GT,37.6440653,-122.4064497,,21.294716,0.1,171.95398,1591313349448
Fix,GT,37.6438705,-122.4064294,,22.115997,0.1,172.04114,1591313350448
Fix,GT,37.6436685,-122.4064069,,22.909992,0.1,171.51306,1591313351448
Fix,GT,37.6434601,-122.4063808,,23.511395,0.1,171.00952,1591313352448
Fix,GT,37.6432485,-122.4063535,,23.570107,0.1,171.02917,1591313353448
Fix,GT,37.6430393,-122.4063276,,23.043386,0.1,171.3789,1591313354448
Fix,GT,37.6428356,-122.4063043,,22.339508,0.1,172.01764,1591313355448
Fix,GT,37.6426377,-122.4062848,,21.759598,0.1,172.59717,1591313356448
Fix,GT,37.6424434,-122.4062669,,21.588797,0.1,172.6908,1591313357448
Fix,GT,37.6422487,-122.4062493,,21.765923,0.1,172.81616,1591313358448
Fix,GT,37.6420523,-122.4062318,,21.965513,0.1,172.71411,1591313359448
Fix,GT,37.6418542,-122.4062117,,22.156433,0.1,171.78345,1591313360448
Fix,GT,37.6416548,-122.4061866,,22.353304,0.1,170.61658,1591313361448
Fix,GT,37.6414541,-122.4061562,,22.551281,0.1,169.51135,1591313362448
Fix,GT,37.6412519,-122.4061208,,22.794018,0.1,168.419,1591313363448
Fix,GT,37.6410479,-122.4060802,,23.07136,0.1,167.36414,1591313364448
Fix,GT,37.6408419,-122.4060347,,23.384596,0.1,166.52338,1591313365448
Fix,GT,37.6406335,-122.4059849,,23.717556,0.1,165.69037,1591313366448
Fix,GT,37.640423,-122.4059301,,24.005024,0.1,164.63123,1591313367448
Fix,GT,37.640211,-122.4058694,,24.259699,0.1,163.49725,1591313368448
Fix,GT,37.6399979,-122.4058032,,24.491575,0.1,162.5625,1591313369448
Fix,GT,37.6397836,-122.4057325,,24.682953,0.1,161.74438,1591313370448
Fix,GT,37.6395688,-122.4056569,,24.839012,0.1,160.7649,1591313371448
Fix,GT,37.6393538,-122.4055759,,24.981876,0.1,159.66052,1591313372448
Fix,GT,37.6391387,-122.4054895,,25.13551,0.1,158.67749,1591313373448
Fix,GT,37.6389233,-122.4053985,,25.285831,0.1,157.93884,1591313374448
Fix,GT,37.6387077,-122.4053039,,25.41923,0.1,157.29468,1591313375448
Fix,GT,37.6384919,-122.405205,,25.57283,0.1,156.36829,1591313376448
Fix,GT,37.638276,-122.4051007,,25.794205,0.1,155.34521,1591313377448
Fix,GT,37.6380595,-122.4049908,,26.039463,0.1,154.37793,1591313378448
Fix,GT,37.637842,-122.4048762,,26.312908,0.1,153.87823,1591313379448
Fix,GT,37.6376225,-122.4047592,,26.59744,0.1,153.78455,1591313380448
Fix,GT,37.6374007,-122.4046411,,26.861958,0.1,153.93921,1591313381448
Fix,GT,37.6371765,-122.4045233,,27.082584,0.1,154.26733,1591313382448
Fix,GT,37.6369503,-122.4044057,,27.231148,0.1,154.32751,1591313383448
Fix,GT,37.6367234,-122.4042884,,27.211277,0.1,154.54419,1591313384448
Fix,GT,37.6364969,-122.404174,,26.981504,0.1,155.32397,1591313385448
Fix,GT,37.6362711,-122.4040655,,26.690413,0.1,156.43463,1591313386448
Fix,GT,37.6360463,-122.403963,,26.380993,0.1,157.34772,1591313387448
Fix,GT,37.6358231,-122.4038665,,25.969275,0.1,158.422,1591313388448
Fix,GT,37.6356026,-122.4037777,,25.39848,0.1,159.85345,1591313389448
Fix,GT,37.6353853,-122.4036979,,24.854418,0.1,161.195,1591313390448
Fix,GT,37.6351708,-122.4036248,,24.466366,0.1,162.12494,1591313391448
Fix,GT,37.6349587,-122.4035562,,24.139202,0.1,162.6966,1591313392448
Fix,GT,37.6347487,-122.4034911,,23.87912,0.1,163.24487,1591313393448
Fix,GT,37.6345399,-122.4034296,,23.72548,0.1,164.11243,1591313394448
Fix,GT,37.6343311,-122.403373,,23.658398,0.1,165.27258,1591313395448
Fix,GT,37.6341223,-122.4033219,,23.54271,0.1,166.25793,1591313396448
Fix,GT,37.6339144,-122.4032748,,23.331875,0.1,166.91345,1591313397448
Fix,GT,37.633708,-122.4032315,,23.114866,0.1,167.9646,1591313398448
Fix,GT,37.6335023,-122.4031939,,23.077555,0.1,169.0509,1591313399448
Fix,GT,37.6332953,-122.4031605,,23.234877,0.1,169.83606,1591313400448
Fix,GT,37.6330865,-122.4031301,,23.417744,0.1,170.65424,1591313401448
Fix,GT,37.6328757,-122.4031034,,23.607376,0.1,171.49774,1591313402448
Fix,GT,37.6326628,-122.4030798,,23.79747,0.1,172.09747,1591313403448
Fix,GT,37.6324486,-122.4030578,,23.867743,0.1,172.1673,1591313404448
Fix,GT,37.6322346,-122.4030351,,23.76659,0.1,171.90668,1591313405448
Fix,GT,37.6320218,-122.4030114,,23.672482,0.1,171.80481,1591313406448
Fix,GT,37.6318093,-122.4029882,,23.711365,0.1,172.04108,1591313407448
Fix,GT,37.6315957,-122.4029663,,23.863335,0.1,172.21582,1591313408448
Fix,GT,37.6313807,-122.4029438,,24.021042,0.1,171.94373,1591313409448
Fix,GT,37.6311648,-122.4029194,,24.08694,0.1,171.5163,1591313410448
Fix,GT,37.630949,-122.4028936,,24.002337,0.1,171.38684,1591313411448
Fix,GT,37.6307346,-122.4028676,,23.795263,0.1,171.20862,1591313412448
Fix,GT,37.6305227,-122.4028408,,23.489006,0.1,171.01965,1591313413448
Fix,GT,37.6303139,-122.4028138,,23.13495,0.1,170.92456,1591313414448
Fix,GT,37.6301078,-122.4027869,,22.889668,0.1,171.07642,1591313415448
Fix,GT,37.6299031,-122.4027618,,22.814587,0.1,171.60461,1591313416448
Fix,GT,37.629698,-122.4027392,,22.86848,0.1,172.05835,1591313417448
Fix,GT,37.6294926,-122.4027178,,22.891003,0.1,172.0664,1591313418448
Fix,GT,37.6292875,-122.4026955,,22.78392,0.1,171.7392,1591313419448
Fix,GT,37.6290838,-122.402671,,22.64056,0.1,171.12457,1591313420448
Fix,GT,37.6288818,-122.4026437,,22.487684,0.1,170.41956,1591313421448
Fix,GT,37.6286812,-122.4026134,,22.368603,0.1,169.70624,1591313422448
Fix,GT,37.6284816,-122.4025802,,22.36024,0.1,169.00726,1591313423448
Fix,GT,37.628282,-122.4025439,,22.44463,0.1,168.32867,1591313424448
Fix,GT,37.6280818,-122.4025044,,22.526829,0.1,167.59827,1591313425448
Fix,GT,37.6278815,-122.402461,,22.605606,0.1,166.61157,1591313426448
Fix,GT,37.6276813,-122.4024124,,22.691036,0.1,165.3349,1591313427448
Fix,GT,37.6274814,-122.4023579,,22.700987,0.1,163.97815,1591313428448
Fix,GT,37.6272831,-122.4022975,,22.61096,0.1,162.6206,1591313429448
Fix,GT,37.6270868,-122.4022321,,22.490301,0.1,161.59686,1591313430448
Fix,GT,37.6268922,-122.4021642,,22.32473,0.1,161.25177,1591313431448
Fix,GT,37.6266994,-122.4020968,,22.112368,0.1,161.41418,1591313432448
Fix,GT,37.6265083,-122.402031,,21.884901,0.1,161.63495,1591313433448
Fix,GT,37.6263188,-122.4019668,,21.660376,0.1,161.85602,1591313434448
Fix,GT,37.6261311,-122.4019043,,21.437447,0.1,162.10852,1591313435448
Fix,GT,37.6259453,-122.4018428,,21.207226,0.1,162.00818,1591313436448
Fix,GT,37.6257618,-122.4017807,,20.984972,0.1,161.73853,1591313437448
Fix,GT,37.6255791,-122.4017182,,21.043465,0.1,161.71167,1591313438448
Fix,GT,37.6253948,-122.4016549,,21.363693,0.1,161.37842,1591313439448
Fix,GT,37.6252078,-122.40159,,21.738806,0.1,161.52124,1591313440448
Fix,GT,37.6250165,-122.4015253,,22.205305,0.1,161.94,1591313441448
Fix,GT,37.6248224,-122.4014599,,22.35283,0.1,161.6601,1591313442448
Fix,GT,37.6246283,-122.4013948,,22.227924,0.1,162.20105,1591313443448
Fix,GT,37.6244343,-122.4013322,,22.246395,0.1,162.68,1591313444448
Fix,GT,37.6242402,-122.401269,,22.231712,0.1,161.93939,1591313445448
Fix,GT,37.6240475,-122.4012047,,21.9752,0.1,161.90881,1591313446448
Fix,GT,37.6238569,-122.4011418,,21.860476,0.1,162.16461,1591313447448
Fix,GT,37.6236657,-122.4010776,,22.124422,0.1,161.5672,1591313448448
Fix,GT,37.6234725,-122.4010103,,22.409409,0.1,161.22229,1591313449448
Fix,GT,37.6232773,-122.4009403,,22.720726,0.1,160.55847,1591313450448
Fix,GT,37.6230795,-122.4008652,,23.159826,0.1,159.49182,1591313451448
Fix,GT,37.6228791,-122.4007856,,23.498571,0.1,159.27368,1591313452448
Fix,GT,37.6226754,-122.4007065,,23.828163,0.1,160.05334,1591313453448
Fix,GT,37.6224679,-122.4006301,,24.190155,0.1,160.78845,1591313454448
Fix,GT,37.6222569,-122.4005535,,24.5458,0.1,160.50415,1591313455448
Fix,GT,37.6220437,-122.4004731,,24.878042,0.1,159.79211,1591313456448
Fix,GT,37.6218283,-122.4003894,,25.175001,0.1,159.61395,1591313457448
Fix,GT,37.6216098,-122.4003058,,25.53378,0.1,160.18835,1591313458448
Fix,GT,37.6213872,-122.4002236,,25.986654,0.1,160.72119,1591313459448
Fix,GT,37.6211599,-122.4001426,,26.433624,0.1,161.29602,1591313460448
Fix,GT,37.6209281,-122.4000633,,26.877705,0.1,161.91101,1591313461448
Fix,GT,37.6206919,-122.3999852,,27.327473,0.1,162.08057,1591313462448
Fix,GT,37.6204518,-122.399906,,27.80075,0.1,162.0647,1591313463448
Fix,GT,37.6202077,-122.399825,,28.21137,0.1,162.02252,1591313464448
Fix,GT,37.619961,-122.3997427,,28.382545,0.1,161.854,1591313465448
Fix,GT,37.6197143,-122.3996589,,28.336353,0.1,161.57068,1591313466448
Fix,GT,37.6194686,-122.3995748,,28.196993,0.1,161.6565,1591313467448
Fix,GT,37.6192237,-122.3994922,,28.074333,0.1,161.98627,1591313468448
Fix,GT,37.6189793,-122.3994108,,28.064707,0.1,161.99243,1591313469448
Fix,GT,37.6187344,-122.399329,,28.175175,0.1,161.88525,1591313470448
Fix,GT,37.6184882,-122.3992461,,28.387413,0.1,161.79608,1591313471448
Fix,GT,37.6182402,-122.3991622,,28.639385,0.1,161.76294,1591313472448
Fix,GT,37.6179902,-122.3990774,,28.810047,0.1,161.74738,1591313473448
Fix,GT,37.6177394,-122.3989925,,28.801018,0.1,161.83752,1591313474448
Fix,GT,37.6174893,-122.3989086,,28.626667,0.1,161.9784,1591313475448
Fix,GT,37.6172405,-122.3988258,,28.526321,0.1,162.05133,1591313476448
Fix,GT,37.6169921,-122.3987429,,28.553596,0.1,161.91095,1591313477448
Fix,GT,37.6167438,-122.3986575,,28.589233,0.1,161.16931,1591313478448
Fix,GT,37.6164968,-122.3985662,,28.592674,0.1,159.75781,1591313479448
Fix,GT,37.6162517,-122.3984671,,28.59298,0.1,158.32959,1591313480448
Fix,GT,37.616008,-122.3983607,,28.722578,0.1,157.06592,1591313481448
Fix,GT,37.6157647,-122.3982469,,28.94781,0.1,155.70117,1591313482448
Fix,GT,37.6155217,-122.3981241,,29.223492,0.1,154.06049,1591313483448
Fix,GT,37.6152798,-122.3979904,,29.491726,0.1,152.09894,1591313484448
Fix,GT,37.6150395,-122.397845,,29.72522,0.1,150.12634,1591313485448
Fix,GT,37.6148013,-122.3976887,,29.978672,0.1,148.51788,1591313486448
Fix,GT,37.6145638,-122.397524,,30.264318,0.1,147.46179,1591313487448
Fix,GT,37.614326,-122.3973528,,30.555996,0.1,146.59518,1591313488448
Fix,GT,37.6140886,-122.3971749,,30.79509,0.1,145.34415,1591313489448
Fix,GT,37.6138534,-122.3969879,,31.04034,0.1,143.54767,1591313490448
Fix,GT,37.6136211,-122.3967898,,31.324549,0.1,141.65604,1591313491448
Fix,GT,37.613392,-122.3965804,,31.585121,0.1,139.93817,1591313492448
Fix,GT,37.6131658,-122.3963613,,31.83094,0.1,138.43625,1591313493448
Fix,GT,37.6129425,-122.3961336,,32.045044,0.1,137.01453,1591313494448
Fix,GT,37.6127225,-122.3958977,,32.20019,0.1,135.60822,1591313495448
Fix,GT,37.6125059,-122.3956537,,32.386387,0.1,134.29321,1591313496448
Fix,GT,37.6122926,-122.395402,,32.57912,0.1,132.8825,1591313497448
Fix,GT,37.6120833,-122.3951418,,32.771713,0.1,131.38663,1591313498448
Fix,GT,37.6118779,-122.3948738,,32.975628,0.1,130.01428,1591313499448
Fix,GT,37.6116766,-122.3945979,,33.18367,0.1,128.58221,1591313500448
Fix,GT,37.6114796,-122.3943141,,33.377407,0.1,127.17447,1591313501448
Fix,GT,37.6112863,-122.3940232,,33.55664,0.1,126.16254,1591313502448
Fix,GT,37.6110951,-122.3937276,,33.72901,0.1,125.70447,1591313503448
Fix,GT,37.610904,-122.3934294,,33.861305,0.1,125.4899,1591313504448
Fix,GT,37.6107136,-122.3931299,,33.77777,0.1,125.22388,1591313505448
Fix,GT,37.6105259,-122.3928312,,33.415363,0.1,124.87714,1591313506448
Fix,GT,37.6103417,-122.3925351,,32.96062,0.1,124.7561,1591313507448
Fix,GT,37.6101598,-122.3922431,,32.537003,0.1,125.02045,1591313508448
Fix,GT,37.6099782,-122.3919562,,32.229523,0.1,125.586365,1591313509448
Fix,GT,37.609796,-122.3916735,,32.055363,0.1,126.03061,1591313510448
Fix,GT,37.6096133,-122.3913929,,31.996502,0.1,126.03717,1591313511448
Fix,GT,37.6094311,-122.3911122,,31.980051,0.1,125.92163,1591313512448
Fix,GT,37.6092494,-122.3908312,,31.957153,0.1,125.86774,1591313513448
Fix,GT,37.6090678,-122.3905505,,31.941326,0.1,125.93176,1591313514448
Fix,GT,37.608886,-122.3902702,,31.937405,0.1,126.040924,1591313515448
Fix,GT,37.6087038,-122.3899901,,31.920042,0.1,126.09363,1591313516448
Fix,GT,37.6085215,-122.3897107,,31.898136,0.1,126.17786,1591313517448
Fix,GT,37.608339,-122.3894316,,31.880114,0.1,126.279724,1591313518448
Fix,GT,37.6081563,-122.3891532,,31.81749,0.1,126.37903,1591313519448
Fix,GT,37.607974,-122.3888759,,31.723083,0.1,126.33664,1591313520448
Fix,GT,37.6077926,-122.3885989,,31.611866,0.1,126.14441,1591313521448
Fix,GT,37.6076125,-122.3883224,,31.495724,0.1,126.099396,1591313522448
Fix,GT,37.6074329,-122.3880471,,31.37627,0.1,126.21002,1591313523448
Fix,GT,37.6072537,-122.3877733,,31.251482,0.1,126.29059,1591313524448
Fix,GT,37.6070749,-122.3875009,,31.108711,0.1,126.282745,1591313525448
Fix,GT,37.6068972,-122.3872293,,30.961231,0.1,126.09131,1591313526448
Fix,GT,37.6067212,-122.3869584,,30.847008,0.1,126.012695,1591313527448
Fix,GT,37.6065453,-122.3866884,,30.773354,0.1,126.23663,1591313528448
Fix,GT,37.606369,-122.3864199,,30.720535,0.1,126.410065,1591313529448
Fix,GT,37.6061926,-122.3861522,,30.678467,0.1,126.41318,1591313530448
Fix,GT,37.6060165,-122.3858844,,30.67062,0.1,126.257416,1591313531448
Fix,GT,37.6058411,-122.3856158,,30.706873,0.1,126.04315,1591313532448
Fix,GT,37.6056661,-122.385346,,30.789589,0.1,125.99301,1591313533448
Fix,GT,37.6054906,-122.3850755,,30.854126,0.1,126.02231,1591313534448
Fix,GT,37.6053148,-122.3848047,,30.877516,0.1,126.06464,1591313535448
Fix,GT,37.6051387,-122.3845337,,30.92568,0.1,126.03241,1591313536448
Fix,GT,37.6049623,-122.384262,,30.98299,0.1,126.01697,1591313537448
Fix,GT,37.6047854,-122.3839902,,31.011448,0.1,126.19617,1591313538448
Fix,GT,37.6046078,-122.3837191,,30.997051,0.1,126.32074,1591313539448
Fix,GT,37.6044302,-122.3834483,,30.969059,0.1,126.20947,1591313540448
Fix,GT,37.6042538,-122.3831768,,30.94445,0.1,125.82214,1591313541448
Fix,GT,37.6040787,-122.3829042,,30.92538,0.1,125.61627,1591313542448
Fix,GT,37.603904,-122.3826321,,30.812004,0.1,125.81912,1591313543448
Fix,GT,37.6037296,-122.3823624,,30.564018,0.1,125.93622,1591313544448
Fix,GT,37.6035564,-122.3820954,,30.282253,0.1,125.99219,1591313545448
Fix,GT,37.6033846,-122.3818309,,29.986584,0.1,126.053345,1591313546448
Fix,GT,37.6032143,-122.3815692,,29.7047,0.1,126.07599,1591313547448
Fix,GT,37.6030456,-122.3813101,,29.424084,0.1,126.15747,1591313548448
Fix,GT,37.6028779,-122.3810541,,29.141594,0.1,126.48004,1591313549448
Fix,GT,37.6027108,-122.3808016,,28.89024,0.1,126.597565,1591313550448
Fix,GT,37.6025452,-122.3805508,,28.670616,0.1,126.35156,1591313551448
Fix,GT,37.6023815,-122.3803009,,28.50825,0.1,126.11505,1591313552448
Fix,GT,37.6022194,-122.3800513,,28.39906,0.1,125.90637,1591313553448
Fix,GT,37.6020585,-122.3798019,,28.332506,0.1,125.81659,1591313554448
Fix,GT,37.6018979,-122.3795525,,28.35263,0.1,125.80298,1591313555448
Fix,GT,37.601737,-122.3793027,,28.414701,0.1,125.88574,1591313556448
Fix,GT,37.6015752,-122.3790528,,28.492496,0.1,126.10748,1591313557448
Fix,GT,37.601412,-122.378803,,28.583172,0.1,126.35632,1591313558448
Fix,GT,37.6012478,-122.3785532,,28.673964,0.1,126.41235,1591313559448
Fix,GT,37.601083,-122.3783023,,28.787434,0.1,126.26349,1591313560448
Fix,GT,37.6009179,-122.3780501,,28.908249,0.1,126.27878,1591313561448
Fix,GT,37.600752,-122.3777968,,29.00108,0.1,126.2319,1591313562448
Fix,GT,37.6005866,-122.3775427,,28.957474,0.1,125.92871,1591313563448
Fix,GT,37.6004229,-122.3772888,,28.748924,0.1,125.79132,1591313564448
Fix,GT,37.6002601,-122.3770371,,28.54257,0.1,126.14325,1591313565448
Fix,GT,37.6000969,-122.3767881,,28.46295,0.1,126.48715,1591313566448
Fix,GT,37.599933,-122.3765397,,28.534132,0.1,126.47992,1591313567448
Fix,GT,37.5997688,-122.3762902,,28.647102,0.1,126.314514,1591313568448
Fix,GT,37.5996046,-122.3760391,,28.758598,0.1,126.07416,1591313569448
Fix,GT,37.599441,-122.375786,,28.87471,0.1,125.746155,1591313570448
Fix,GT,37.5992772,-122.3755311,,29.01873,0.1,125.70886,1591313571448
Fix,GT,37.5991121,-122.3752749,,29.212242,0.1,125.962524,1591313572448
Fix,GT,37.5989452,-122.3750176,,29.411629,0.1,125.99048,1591313573448
Fix,GT,37.5987777,-122.3747582,,29.579964,0.1,125.69183,1591313574448
Fix,GT,37.5986106,-122.3744965,,29.663807,0.1,125.50928,1591313575448
Fix,GT,37.5984432,-122.3742345,,29.63663,0.1,125.68933,1591313576448
Fix,GT,37.5982753,-122.3739738,,29.605732,0.1,125.89993,1591313577448
Fix,GT,37.5981069,-122.3737137,,29.611387,0.1,125.989624,1591313578448
Fix,GT,37.5979383,-122.3734537,,29.651917,0.1,126.01608,1591313579448
Fix,GT,37.5977693,-122.3731932,,29.723652,0.1,126.01022,1591313580448
Fix,GT,37.5975999,-122.372932,,29.790367,0.1,125.92905,1591313581448
Fix,GT,37.5974305,-122.3726699,,29.83854,0.1,125.82544,1591313582448
Fix,GT,37.5972613,-122.3724073,,29.86651,0.1,125.77478,1591313583448
Fix,GT,37.5970918,-122.3721445,,29.901134,0.1,125.92316,1591313584448
Fix,GT,37.5969211,-122.3718821,,29.966774,0.1,126.21243,1591313585448
Fix,GT,37.5967493,-122.3716199,,30.034418,0.1,126.272705,1591313586448
Fix,GT,37.5965773,-122.3713569,,30.095985,0.1,126.11789,1591313587448
Fix,GT,37.5964054,-122.3710928,,30.16631,0.1,126.14795,1591313588448
Fix,GT,37.5962327,-122.3708285,,30.237823,0.1,126.37479,1591313589448
Fix,GT,37.5960588,-122.3705646,,30.304626,0.1,126.538635,1591313590448
Fix,GT,37.5958841,-122.3703003,,30.384129,0.1,126.50882,1591313591448
Fix,GT,37.5957092,-122.3700349,,30.486263,0.1,126.33157,1591313592448
Fix,GT,37.5955343,-122.3697679,,30.588768,0.1,126.14548,1591313593448
Fix,GT,37.5953597,-122.3694993,,30.703672,0.1,126.02234,1591313594448
Fix,GT,37.5951845,-122.3692295,,30.819134,0.1,126.05493,1591313595448
Fix,GT,37.5950082,-122.3689588,,30.93591,0.1,126.14365,1591313596448
Fix,GT,37.594831,-122.3686874,,31.06384,0.1,126.240204,1591313597448
Fix,GT,37.5946527,-122.3684153,,31.204716,0.1,126.30792,1591313598448
Fix,GT,37.5944733,-122.368142,,31.368034,0.1,126.29901,1591313599448
Fix,GT,37.5942933,-122.3678672,,31.50993,0.1,126.18707,1591313600448
Fix,GT,37.594113,-122.3675906,,31.645742,0.1,126.07959,1591313601448
Fix,GT,37.5939325,-122.3673124,,31.78113,0.1,125.983215,1591313602448
Fix,GT,37.5937512,-122.3670327,,31.918007,0.1,125.979614,1591313603448
Fix,GT,37.5935689,-122.3667522,,32.063675,0.1,126.1496,1591313604448
Fix,GT,37.5933851,-122.3664711,,32.189957,0.1,126.28613,1591313605448
Fix,GT,37.5932005,-122.3661892,,32.30927,0.1,126.22211,1591313606448
Fix,GT,37.5930155,-122.3659057,,32.436802,0.1,126.06897,1591313607448
Fix,GT,37.5928307,-122.3656206,,32.53192,0.1,125.88306,1591313608448
Fix,GT,37.5926455,-122.3653345,,32.596405,0.1,126.0155,1591313609448
Fix,GT,37.5924587,-122.3650492,,32.658092,0.1,126.4989,1591313610448
Fix,GT,37.5922697,-122.3647654,,32.70687,0.1,126.81604,1591313611448
Fix,GT,37.5920801,-122.3644815,,32.772003,0.1,126.70352,1591313612448
Fix,GT,37.5918911,-122.364196,,32.832394,0.1,126.51477,1591313613448
Fix,GT,37.5917021,-122.3639098,,32.861942,0.1,126.513916,1591313614448
Fix,GT,37.5915129,-122.3636238,,32.8511,0.1,126.53827,1591313615448
Fix,GT,37.5913237,-122.3633376,,32.848286,0.1,126.46396,1591313616448
Fix,GT,37.591135,-122.3630509,,32.872444,0.1,126.34451,1591313617448
Fix,GT,37.5909464,-122.3627635,,32.924946,0.1,126.26398,1591313618448
Fix,GT,37.5907576,-122.3624752,,33.013855,0.1,126.279785,1591313619448
Fix,GT,37.5905682,-122.3621863,,33.10709,0.1,126.32208,1591313620448
Fix,GT,37.5903781,-122.3618967,,33.206146,0.1,126.23773,1591313621448
Fix,GT,37.5901883,-122.3616053,,33.330803,0.1,126.02139,1591313622448
Fix,GT,37.5899984,-122.3613118,,33.4797,0.1,125.82376,1591313623448
Fix,GT,37.5898082,-122.3610162,,33.631203,0.1,125.64148,1591313624448
Fix,GT,37.5896187,-122.3607183,,33.758415,0.1,125.23636,1591313625448
Fix,GT,37.5894305,-122.3604172,,33.853916,0.1,124.64877,1591313626448
Fix,GT,37.5892454,-122.3601121,,33.947205,0.1,123.45996,1591313627448
Fix,GT,37.5890668,-122.3597997,,34.04779,0.1,121.40872,1591313628448
Fix,GT,37.588897,-122.3594784,,34.134457,0.1,119.359955,1591313629448
Fix,GT,37.5887355,-122.3591495,,34.197052,0.1,117.53815,1591313630448
Fix,GT,37.5885817,-122.3588139,,34.23715,0.1,115.92029,1591313631448
Fix,GT,37.5884344,-122.3584733,,34.274574,0.1,114.81619,1591313632448
Fix,GT,37.5882916,-122.3581289,,34.328133,0.1,113.67084,1591313633448
Fix,GT,37.5881552,-122.3577799,,34.368645,0.1,112.01416,1591313634448
Fix,GT,37.5880274,-122.3574256,,34.380314,0.1,110.29123,1591313635448
Fix,GT,37.5879076,-122.3570668,,34.372856,0.1,108.601074,1591313636448
Fix,GT,37.587797,-122.3567038,,34.319103,0.1,106.687195,1591313637448
Fix,GT,37.5876966,-122.3563372,,34.20442,0.1,104.76117,1591313638448
Fix,GT,37.5876055,-122.3559682,,34.062916,0.1,103.29346,1591313639448
Fix,GT,37.5875215,-122.3555982,,33.92718,0.1,101.93222,1591313640448
Fix,GT,37.5874465,-122.3552268,,33.832756,0.1,99.86682,1591313641448
Fix,GT,37.5873816,-122.354853,,33.80841,0.1,98.24332,1591313642448
Fix,GT,37.5873233,-122.3544773,,33.812344,0.1,97.1962,1591313643448
Fix,GT,37.5872724,-122.3541002,,33.804306,0.1,95.38422,1591313644448
Fix,GT,37.5872312,-122.3537212,,33.808167,0.1,93.65369,1591313645448
Fix,GT,37.5871987,-122.3533408,,33.79809,0.1,91.99591,1591313646448
Fix,GT,37.5871754,-122.3529596,,33.775833,0.1,90.28226,1591313647448
Fix,GT,37.5871599,-122.3525778,,33.78421,0.1,89.07715,1591313648448
Fix,GT,37.5871492,-122.3521956,,33.78907,0.1,88.563446,1591313649448
Fix,GT,37.5871399,-122.3518131,,33.81178,0.1,88.55884,1591313650448
Fix,GT,37.58713,-122.3514304,,33.84836,0.1,88.63867,1591313651448
Fix,GT,37.5871201,-122.3510471,,33.876053,0.1,88.51907,1591313652448
Fix,GT,37.5871108,-122.3506636,,33.90689,0.1,88.499084,1591313653448
Fix,GT,37.5871016,-122.3502797,,33.93339,0.1,88.45215,1591313654448
Fix,GT,37.5870924,-122.3498954,,33.958775,0.1,88.49869,1591313655448
Fix,GT,37.5870827,-122.349511,,33.960667,0.1,88.646576,1591313656448
Fix,GT,37.587073,-122.3491269,,33.92578,0.1,88.57233,1591313657448
Fix,GT,37.5870632,-122.3487431,,33.870434,0.1,88.6413,1591313658448
Fix,GT,37.587053,-122.3483602,,33.795876,0.1,88.67258,1591313659448
Fix,GT,37.5870432,-122.347978,,33.732597,0.1,88.52048,1591313660448
Fix,GT,37.5870339,-122.3475965,,33.66493,0.1,88.53076,1591313661448
Fix,GT,37.5870239,-122.3472161,,33.569664,0.1,88.78439,1591313662448
Fix,GT,37.5870125,-122.3468367,,33.470997,0.1,89.05414,1591313663448
Fix,GT,37.5870004,-122.3464585,,33.386513,0.1,89.009125,1591313664448
Fix,GT,37.5869892,-122.3460813,,33.31168,0.1,88.727844,1591313665448
Fix,GT,37.5869795,-122.3457048,,33.234802,0.1,88.49817,1591313666448
Fix,GT,37.5869704,-122.3453291,,33.168583,0.1,88.532715,1591313667448
Fix,GT,37.5869605,-122.3449541,,33.114285,0.1,88.78119,1591313668448
Fix,GT,37.5869495,-122.3445796,,33.10307,0.1,88.9314,1591313669448
Fix,GT,37.5869383,-122.3442049,,33.119995,0.1,88.86194,1591313670448
Fix,GT,37.5869277,-122.3438302,,33.112663,0.1,88.69794,1591313671448
Fix,GT,37.586918,-122.3434557,,33.076836,0.1,88.51166,1591313672448
Fix,GT,37.5869092,-122.3430817,,33.028328,0.1,88.32532,1591313673448
Fix,GT,37.5869009,-122.3427082,,32.95981,0.1,88.45529,1591313674448
Fix,GT,37.5868918,-122.3423356,,32.890522,0.1,88.60434,1591313675448
Fix,GT,37.5868822,-122.3419637,,32.84732,0.1,88.62561,1591313676448
Fix,GT,37.5868728,-122.3415922,,32.821507,0.1,88.57849,1591313677448
Fix,GT,37.5868633,-122.341221,,32.79083,0.1,88.65039,1591313678448
Fix,GT,37.5868533,-122.3408502,,32.753178,0.1,88.7016,1591313679448
Fix,GT,37.5868436,-122.34048,,32.704285,0.1,88.59119,1591313680448
Fix,GT,37.5868344,-122.3401104,,32.632942,0.1,88.54263,1591313681448
Fix,GT,37.586825,-122.3397417,,32.532555,0.1,88.6597,1591313682448
Fix,GT,37.586815,-122.3393742,,32.43048,0.1,88.82709,1591313683448
Fix,GT,37.5868042,-122.3390079,,32.32632,0.1,88.83008,1591313684448
Fix,GT,37.5867941,-122.3386429,,32.21893,0.1,88.61328,1591313685448
Fix,GT,37.5867853,-122.3382789,,32.123405,0.1,88.38367,1591313686448
Fix,GT,37.5867772,-122.3379157,,32.084946,0.1,88.41693,1591313687448
Fix,GT,37.5867683,-122.3375523,,32.161118,0.1,88.64075,1591313688448
Fix,GT,37.5867584,-122.3371875,,32.323296,0.1,88.884,1591313689448
Fix,GT,37.5867471,-122.3368207,,32.505455,0.1,89.07214,1591313690448
Fix,GT,37.5867356,-122.3364521,,32.694122,0.1,88.831055,1591313691448
Fix,GT,37.5867259,-122.336081,,32.884735,0.1,88.538666,1591313692448
Fix,GT,37.5867169,-122.3357078,,33.06919,0.1,88.49945,1591313693448
Fix,GT,37.5867079,-122.3353329,,33.16958,0.1,88.50055,1591313694448
Fix,GT,37.5866983,-122.3349578,,33.067863,0.1,88.81302,1591313695448
Fix,GT,37.5866866,-122.3345852,,32.755974,0.1,89.28171,1591313696448
Fix,GT,37.5866719,-122.3342174,,32.269268,0.1,90.12317,1591313697448
Fix,GT,37.5866505,-122.333856,,31.72787,0.1,92.15076,1591313698448
Fix,GT,37.5866181,-122.333502,,31.214115,0.1,94.60083,1591313699448
Fix,GT,37.586575,-122.3331554,,30.714455,0.1,96.84369,1591313700448
Fix,GT,37.5865208,-122.332817,,30.245564,0.1,99.642975,1591313701448
Fix,GT,37.5864534,-122.3324872,,29.88126,0.1,102.77222,1591313702448
Fix,GT,37.586373,-122.3321658,,29.625664,0.1,105.7063,1591313703448
Fix,GT,37.5862807,-122.3318522,,29.43011,0.1,108.57089,1591313704448
Fix,GT,37.5861758,-122.3315461,,29.314035,0.1,111.52081,1591313705448
Fix,GT,37.5860583,-122.3312479,,29.282166,0.1,114.61542,1591313706448
Fix,GT,37.585929,-122.3309585,,29.269524,0.1,117.49042,1591313707448
Fix,GT,37.5857894,-122.3306775,,29.244425,0.1,120.14612,1591313708448
Fix,GT,37.5856397,-122.3304056,,29.21978,0.1,123.06781,1591313709448
Fix,GT,37.5854792,-122.3301444,,29.205631,0.1,126.0022,1591313710448
Fix,GT,37.5853084,-122.3298933,,29.195768,0.1,128.69049,1591313711448
Fix,GT,37.5851283,-122.3296524,,29.140198,0.1,131.4028,1591313712448
Fix,GT,37.5849399,-122.3294232,,29.050537,0.1,133.97089,1591313713448
Fix,GT,37.5847454,-122.3292032,,29.012924,0.1,135.32751,1591313714448
Fix,GT,37.5845491,-122.3289864,,28.982393,0.1,135.49268,1591313715448
Fix,GT,37.5843532,-122.3287695,,28.948677,0.1,135.37451,1591313716448
Fix,GT,37.5841572,-122.3285527,,29.02209,0.1,135.56342,1591313717448
Fix,GT,37.5839596,-122.3283358,,29.222618,0.1,135.70874,1591313718448
Fix,GT,37.5837605,-122.3281173,,29.451248,0.1,135.5852,1591313719448
Fix,GT,37.5835594,-122.3278976,,29.697811,0.1,136.21869,1591313720448
Fix,GT,37.5833536,-122.3276807,,29.9407,0.1,137.4096,1591313721448
Fix,GT,37.5831437,-122.3274656,,30.18335,0.1,137.59961,1591313722448
Fix,GT,37.5829331,-122.3272473,,30.436174,0.1,136.94693,1591313723448
Fix,GT,37.5827227,-122.3270241,,30.697933,0.1,136.41083,1591313724448
Fix,GT,37.5825115,-122.3267976,,30.955769,0.1,136.20978,1591313725448
Fix,GT,37.5822992,-122.3265682,,31.186668,0.1,136.04147,1591313726448
Fix,GT,37.5820858,-122.3263365,,31.397987,0.1,135.84863,1591313727448
Fix,GT,37.581872,-122.3261031,,31.449442,0.1,135.79547,1591313728448
Fix,GT,37.5816585,-122.3258703,,31.259235,0.1,135.89862,1591313729448
Fix,GT,37.5814464,-122.32564,,30.953463,0.1,136.0188,1591313730448
Fix,GT,37.5812363,-122.3254128,,30.572414,0.1,136.11987,1591313731448
Fix,GT,37.5810286,-122.3251888,,30.207024,0.1,136.1236,1591313732448
Fix,GT,37.5808232,-122.3249669,,29.94645,0.1,136.09302,1591313733448
Fix,GT,37.5806192,-122.3247465,,29.782364,0.1,136.14267,1591313734448
Fix,GT,37.580416,-122.3245273,,29.681662,0.1,136.12662,1591313735448
Fix,GT,37.5802138,-122.3243085,,29.544619,0.1,135.86847,1591313736448
Fix,GT,37.5800135,-122.3240895,,29.41188,0.1,135.6557,1591313737448
Fix,GT,37.579814,-122.323871,,29.339193,0.1,135.81503,1591313738448
Fix,GT,37.5796141,-122.3236538,,29.323772,0.1,136.10577,1591313739448
Fix,GT,37.5794134,-122.3234373,,29.405676,0.1,136.17828,1591313740448
Fix,GT,37.5792116,-122.3232199,,29.596481,0.1,136.16669,1591313741448
Fix,GT,37.5790084,-122.323001,,29.831156,0.1,136.20557,1591313742448
Fix,GT,37.5788035,-122.3227803,,30.071562,0.1,136.18958,1591313743448
Fix,GT,37.5785972,-122.3225574,,30.307945,0.1,136.02405,1591313744448
Fix,GT,37.5783901,-122.3223319,,30.509186,0.1,135.81924,1591313745448
Fix,GT,37.5781823,-122.322105,,30.58508,0.1,135.83679,1591313746448
Fix,GT,37.5779741,-122.3218784,,30.506231,0.1,135.94421,1591313747448
Fix,GT,37.5777666,-122.321653,,30.363443,0.1,135.96844,1591313748448
Fix,GT,37.57756,-122.321429,,30.200089,0.1,135.99127,1591313749448
Fix,GT,37.5773545,-122.3212062,,30.042576,0.1,136.0456,1591313750448
Fix,GT,37.5771497,-122.3209847,,29.917046,0.1,136.12842,1591313751448
Fix,GT,37.5769456,-122.3207641,,29.871294,0.1,136.07776,1591313752448
Fix,GT,37.5767418,-122.3205429,,29.93343,0.1,135.9155,1591313753448
Fix,GT,37.5765375,-122.3203205,,30.090973,0.1,135.8736,1591313754448
Fix,GT,37.5763319,-122.3200964,,30.308266,0.1,135.84225,1591313755448
Fix,GT,37.5761252,-122.3198703,,30.534496,0.1,135.83347,1591313756448
Fix,GT,37.5759165,-122.3196429,,30.757154,0.1,135.97446,1591313757448
Fix,GT,37.5757059,-122.3194149,,30.979355,0.1,136.07672,1591313758448
Fix,GT,37.5754938,-122.3191852,,31.182127,0.1,135.98926,1591313759448
Fix,GT,37.5752807,-122.3189538,,31.33432,0.1,135.98035,1591313760448
Fix,GT,37.5750667,-122.3187216,,31.436628,0.1,135.9802,1591313761448
Fix,GT,37.5748523,-122.3184884,,31.50784,0.1,135.85928,1591313762448
Fix,GT,37.5746375,-122.3182543,,31.585182,0.1,135.90012,1591313763448
Fix,GT,37.574422,-122.31802,,31.665386,0.1,136.00809,1591313764448
Fix,GT,37.5742058,-122.3177855,,31.73275,0.1,136.01593,1591313765448
Fix,GT,37.5739894,-122.3175504,,31.77333,0.1,135.95386,1591313766448
Fix,GT,37.5737731,-122.3173148,,31.784843,0.1,135.83072,1591313767448
Fix,GT,37.573557,-122.3170786,,31.78828,0.1,135.76569,1591313768448
Fix,GT,37.5733411,-122.3168422,,31.77858,0.1,135.73505,1591313769448
Fix,GT,37.5731252,-122.3166059,,31.78431,0.1,135.77893,1591313770448
Fix,GT,37.5729089,-122.31637,,31.788166,0.1,135.91754,1591313771448
Fix,GT,37.5726923,-122.3161348,,31.76065,0.1,136.00946,1591313772448
Fix,GT,37.5724759,-122.3159002,,31.67073,0.1,135.95941,1591313773448
Fix,GT,37.5722607,-122.3156659,,31.559704,0.1,135.84155,1591313774448
Fix,GT,37.5720465,-122.3154317,,31.494892,0.1,135.77588,1591313775448
Fix,GT,37.5718327,-122.3151974,,31.477451,0.1,135.70407,1591313776448
Fix,GT,37.571619,-122.3149631,,31.490952,0.1,135.74841,1591313777448
Fix,GT,37.5714045,-122.3147293,,31.530264,0.1,136.0112,1591313778448
Fix,GT,37.571189,-122.3144965,,31.585855,0.1,136.26282,1591313779448
Fix,GT,37.5709728,-122.3142641,,31.572447,0.1,136.29004,1591313780448
Fix,GT,37.5707574,-122.3140321,,31.370117,0.1,136.07135,1591313781448
Fix,GT,37.5705449,-122.3138011,,31.009037,0.1,135.84827,1591313782448
Fix,GT,37.5703356,-122.3135722,,30.590525,0.1,135.78314,1591313783448
Fix,GT,37.570129,-122.3133463,,30.212494,0.1,135.82727,1591313784448
Fix,GT,37.5699242,-122.313123,,29.996223,0.1,135.93536,1591313785448
Fix,GT,37.5697204,-122.3129008,,29.940731,0.1,135.64825,1591313786448
Fix,GT,37.5695186,-122.3126761,,29.949842,0.1,134.80225,1591313787448
Fix,GT,37.5693185,-122.3124481,,30.032995,0.1,134.51544,1591313788448
Fix,GT,37.5691174,-122.3122199,,30.111649,0.1,134.97452,1591313789448
Fix,GT,37.5689144,-122.311994,,30.084213,0.1,135.53937,1591313790448
Fix,GT,37.5687102,-122.3117704,,30.026838,0.1,135.88065,1591313791448
Fix,GT,37.5685059,-122.3115477,,30.054235,0.1,135.80005,1591313792448
Fix,GT,37.5683013,-122.3113239,,30.175348,0.1,135.75165,1591313793448
Fix,GT,37.5680956,-122.3110991,,30.355034,0.1,135.80936,1591313794448
Fix,GT,37.5678881,-122.3108732,,30.587818,0.1,135.83499,1591313795448
Fix,GT,37.5676793,-122.3106455,,30.808994,0.1,135.81714,1591313796448
Fix,GT,37.5674689,-122.310416,,31.028515,0.1,135.862,1591313797448
Fix,GT,37.5672569,-122.3101853,,31.237293,0.1,135.94489,1591313798448
Fix,GT,37.5670436,-122.3099534,,31.357178,0.1,136.00659,1591313799448
Fix,GT,37.5668295,-122.3097212,,31.42144,0.1,136.10574,1591313800448
Fix,GT,37.5666146,-122.3094892,,31.463188,0.1,136.16254,1591313801448
Fix,GT,37.5663995,-122.3092574,,31.447468,0.1,136.20032,1591313802448
Fix,GT,37.5661843,-122.3090262,,31.417816,0.1,136.2934,1591313803448
Fix,GT,37.565969,-122.3087952,,31.442482,0.1,136.3205,1591313804448
Fix,GT,37.5657536,-122.3085636,,31.499668,0.1,136.1795,1591313805448
Fix,GT,37.5655383,-122.3083308,,31.558693,0.1,135.98178,1591313806448
Fix,GT,37.5653231,-122.3080968,,31.61858,0.1,135.87006,1591313807448
Fix,GT,37.5651077,-122.3078621,,31.676353,0.1,135.8819,1591313808448
Fix,GT,37.5648916,-122.3076272,,31.752232,0.1,135.99872,1591313809448
Fix,GT,37.5646748,-122.307392,,31.828106,0.1,135.95605,1591313810448
Fix,GT,37.564458,-122.3071559,,31.894398,0.1,135.8356,1591313811448
Fix,GT,37.5642405,-122.3069191,,31.966583,0.1,135.98163,1591313812448
Fix,GT,37.5640214,-122.3066833,,32.074184,0.1,136.45868,1591313813448
Fix,GT,37.5637997,-122.3064492,,32.20809,0.1,137.091,1591313814448
Fix,GT,37.5635756,-122.3062166,,32.33134,0.1,137.3338,1591313815448
Fix,GT,37.5633506,-122.3059831,,32.451725,0.1,137.06079,1591313816448
Fix,GT,37.5631261,-122.3057471,,32.555588,0.1,136.6106,1591313817448
Fix,GT,37.5629026,-122.3055079,,32.63678,0.1,136.24738,1591313818448
Fix,GT,37.5626792,-122.3052668,,32.72744,0.1,136.1466,1591313819448
Fix,GT,37.5624551,-122.3050251,,32.83596,0.1,136.25879,1591313820448
Fix,GT,37.5622302,-122.304783,,32.91678,0.1,136.13147,1591313821448
Fix,GT,37.5620055,-122.3045393,,32.980087,0.1,135.88937,1591313822448
Fix,GT,37.5617805,-122.3042948,,33.051098,0.1,136.06586,1591313823448
Fix,GT,37.5615546,-122.3040509,,33.051514,0.1,136.1579,1591313824448
Fix,GT,37.5613294,-122.3038068,,32.93094,0.1,135.87457,1591313825448
Fix,GT,37.561106,-122.3035631,,32.752823,0.1,135.84686,1591313826448
Fix,GT,37.560883,-122.3033217,,32.599323,0.1,136.4071,1591313827448
Fix,GT,37.5606589,-122.3030844,,32.464043,0.1,136.99814,1591313828448
Fix,GT,37.5604338,-122.3028512,,32.311405,0.1,137.64001,1591313829448
Fix,GT,37.5602073,-122.3026224,,32.21227,0.1,138.45587,1591313830448
Fix,GT,37.5599788,-122.3023981,,32.168304,0.1,139.18188,1591313831448
Fix,GT,37.5597488,-122.3021769,,32.13744,0.1,139.63422,1591313832448
Fix,GT,37.5595173,-122.3019584,,32.11393,0.1,140.14703,1591313833448
Fix,GT,37.5592846,-122.3017424,,32.1083,0.1,140.6737,1591313834448
Fix,GT,37.5590504,-122.3015289,,32.141384,0.1,141.02588,1591313835448
Fix,GT,37.5588151,-122.3013168,,32.130074,0.1,141.13672,1591313836448
Fix,GT,37.5585803,-122.3011049,,32.027966,0.1,141.17139,1591313837448
Fix,GT,37.5583459,-122.3008945,,31.90392,0.1,141.45868,1591313838448
Fix,GT,37.5581113,-122.3006868,,31.839,0.1,141.80261,1591313839448
Fix,GT,37.5578763,-122.3004803,,31.855904,0.1,141.89862,1591313840448
Fix,GT,37.5576408,-122.3002736,,31.927351,0.1,141.76645,1591313841448
Fix,GT,37.5574048,-122.300066,,32.02166,0.1,141.72037,1591313842448
Fix,GT,37.5571687,-122.2998566,,32.123615,0.1,141.36768,1591313843448
Fix,GT,37.5569336,-122.299644,,32.219803,0.1,140.70392,1591313844448
Fix,GT,37.5566993,-122.2994277,,32.333183,0.1,140.28888,1591313845448
Fix,GT,37.5564647,-122.2992094,,32.454365,0.1,140.3808,1591313846448
Fix,GT,37.5562286,-122.2989919,,32.530064,0.1,140.72052,1591313847448
Fix,GT,37.5559916,-122.2987748,,32.569756,0.1,140.69897,1591313848448
Fix,GT,37.5557549,-122.2985567,,32.58191,0.1,140.43134,1591313849448
Fix,GT,37.5555189,-122.298338,,32.46003,0.1,140.38068,1591313850448
Fix,GT,37.5552848,-122.2981205,,32.144844,0.1,140.28906,1591313851448
Fix,GT,37.5550534,-122.2979051,,31.793598,0.1,140.21924,1591313852448
Fix,GT,37.5548248,-122.2976912,,31.504253,0.1,139.97546,1591313853448
Fix,GT,37.5545993,-122.2974773,,31.231281,0.1,139.44366,1591313854448
Fix,GT,37.5543773,-122.2972624,,30.96436,0.1,138.9101,1591313855448
Fix,GT,37.5541578,-122.2970479,,30.76957,0.1,138.95105,1591313856448
Fix,GT,37.5539387,-122.2968353,,30.716297,0.1,139.29285,1591313857448
Fix,GT,37.553719,-122.2966234,,30.767958,0.1,139.26013,1591313858448
Fix,GT,37.5534988,-122.2964111,,30.853806,0.1,139.37738,1591313859448
Fix,GT,37.5532772,-122.296199,,30.954594,0.1,139.69272,1591313860448
Fix,GT,37.5530536,-122.2959883,,31.070702,0.1,140.15637,1591313861448
Fix,GT,37.5528279,-122.2957788,,31.19347,0.1,140.56165,1591313862448
Fix,GT,37.5526009,-122.29557,,31.23751,0.1,140.69406,1591313863448
Fix,GT,37.5523738,-122.2953609,,31.241932,0.1,140.55884,1591313864448
Fix,GT,37.5521478,-122.2951516,,31.081543,0.1,140.27307,1591313865448
Fix,GT,37.5519252,-122.294943,,30.516058,0.1,139.94354,1591313866448
Fix,GT,37.5517082,-122.2947382,,29.699512,0.1,139.956,1591313867448
Fix,GT,37.5514964,-122.2945401,,28.929428,0.1,140.28601,1591313868448
Fix,GT,37.5512887,-122.2943477,,28.393295,0.1,140.46307,1591313869448
Fix,GT,37.5510846,-122.2941585,,27.985132,0.1,140.20776,1591313870448
Fix,GT,37.550885,-122.2939715,,27.260078,0.1,140.00385,1591313871448
Fix,GT,37.5506913,-122.2937894,,26.388145,0.1,139.99026,1591313872448
Fix,GT,37.5505026,-122.2936121,,25.992626,0.1,139.98547,1591313873448
Fix,GT,37.5503158,-122.2934364,,25.833351,0.1,140.03491,1591313874448
Fix,GT,37.5501292,-122.293262,,25.798244,0.1,140.31253,1591313875448
Fix,GT,37.5499421,-122.2930884,,25.830212,0.1,140.39154,1591313876448
Fix,GT,37.5497547,-122.2929143,,25.903578,0.1,140.18219,1591313877448
Fix,GT,37.5495674,-122.2927387,,26.014254,0.1,139.97546,1591313878448
Fix,GT,37.5493792,-122.2925615,,26.182423,0.1,139.91055,1591313879448
Fix,GT,37.54919,-122.2923828,,26.370502,0.1,139.82993,1591313880448
Fix,GT,37.5489996,-122.2922024,,26.561653,0.1,139.79712,1591313881448
Fix,GT,37.5488075,-122.2920214,,26.765337,0.1,140.06387,1591313882448
Fix,GT,37.548613,-122.2918402,,26.984138,0.1,140.47711,1591313883448
Fix,GT,37.5484158,-122.2916593,,27.211514,0.1,140.76852,1591313884448
Fix,GT,37.548217,-122.2914777,,27.321892,0.1,140.7243,1591313885448
Fix,GT,37.5480187,-122.2912952,,27.188177,0.1,140.422,1591313886448
Fix,GT,37.5478227,-122.2911133,,26.888401,0.1,140.26636,1591313887448
Fix,GT,37.5476293,-122.2909335,,26.561756,0.1,140.37979,1591313888448
Fix,GT,37.5474376,-122.2907556,,26.394798,0.1,140.30469,1591313889448
Fix,GT,37.5472463,-122.2905776,,26.447838,0.1,140.19989,1591313890448
Fix,GT,37.5470543,-122.2903989,,26.59185,0.1,140.2955,1591313891448
Fix,GT,37.5468613,-122.2902192,,26.758045,0.1,140.28455,1591313892448
Fix,GT,37.5466669,-122.2900385,,26.897013,0.1,140.43274,1591313893448
Fix,GT,37.5464716,-122.2898582,,26.86868,0.1,140.49225,1591313894448
Fix,GT,37.5462773,-122.2896786,,26.693123,0.1,140.3414,1591313895448
Fix,GT,37.5460842,-122.2894995,,26.612148,0.1,140.33032,1591313896448
Fix,GT,37.5458912,-122.2893206,,26.665844,0.1,140.31726,1591313897448
Fix,GT,37.5456979,-122.2891405,,26.761126,0.1,140.14905,1591313898448
Fix,GT,37.5455041,-122.2889593,,26.867004,0.1,140.20197,1591313899448
Fix,GT,37.545309,-122.288778,,27.01113,0.1,140.4867,1591313900448
Fix,GT,37.5451123,-122.2885966,,27.15707,0.1,140.48944,1591313901448
Fix,GT,37.544915,-122.2884136,,27.295246,0.1,140.264,1591313902448
Fix,GT,37.5447169,-122.2882289,,27.45824,0.1,140.3216,1591313903448
Fix,GT,37.544517,-122.2880445,,27.606392,0.1,140.71893,1591313904448
Fix,GT,37.5443153,-122.2878603,,27.745369,0.1,140.80963,1591313905448
Fix,GT,37.5441131,-122.2876745,,27.857742,0.1,140.49487,1591313906448
Fix,GT,37.5439112,-122.2874871,,27.867859,0.1,140.25745,1591313907448
Fix,GT,37.5437101,-122.2872994,,27.761753,0.1,140.17508,1591313908448
Fix,GT,37.5435099,-122.2871125,,27.61388,0.1,140.22278,1591313909448
Fix,GT,37.5433107,-122.2869272,,27.432571,0.1,140.34943,1591313910448
Fix,GT,37.5431124,-122.2867434,,27.266626,0.1,140.35654,1591313911448
Fix,GT,37.5429153,-122.2865602,,27.180683,0.1,140.36304,1591313912448
Fix,GT,37.5427182,-122.2863779,,27.184607,0.1,140.65125,1591313913448
Fix,GT,37.5425198,-122.2861965,,27.300468,0.1,140.86572,1591313914448
Fix,GT,37.5423203,-122.2860139,,27.51297,0.1,140.68936,1591313915448
Fix,GT,37.5421194,-122.2858295,,27.719633,0.1,140.69342,1591313916448
Fix,GT,37.5419166,-122.2856445,,27.906822,0.1,140.9123,1591313917448
Fix,GT,37.5417126,-122.2854583,,28.05983,0.1,140.70868,1591313918448
Fix,GT,37.5415083,-122.2852703,,28.12202,0.1,140.47626,1591313919448
Fix,GT,37.5413042,-122.285082,,28.09341,0.1,140.4325,1591313920448
Fix,GT,37.5411005,-122.2848935,,28.066013,0.1,140.36768,1591313921448
Fix,GT,37.5408967,-122.2847052,,28.10934,0.1,140.62115,1591313922448
Fix,GT,37.5406917,-122.2845179,,28.13989,0.1,140.85718,1591313923448
Fix,GT,37.5404867,-122.2843311,,28.057348,0.1,140.77753,1591313924448
Fix,GT,37.5402833,-122.2841447,,27.827919,0.1,140.58228,1591313925448
Fix,GT,37.5400824,-122.2839592,,27.535498,0.1,140.36719,1591313926448
Fix,GT,37.5398838,-122.2837745,,27.386724,0.1,140.27667,1591313927448
Fix,GT,37.5396852,-122.2835902,,27.466818,0.1,140.46143,1591313928448
Fix,GT,37.539485,-122.2834058,,27.64312,0.1,140.60559,1591313929448
Fix,GT,37.5392837,-122.2832198,,27.83073,0.1,140.25159,1591313930448
Fix,GT,37.5390827,-122.28303,,28.018314,0.1,139.49417,1591313931448
Fix,GT,37.5388818,-122.2828362,,28.220837,0.1,139.11755,1591313932448
Fix,GT,37.5386798,-122.2826401,,28.44683,0.1,139.19281,1591313933448
Fix,GT,37.5384753,-122.2824434,,28.702831,0.1,139.5669,1591313934448
Fix,GT,37.5382681,-122.2822469,,28.95988,0.1,139.86932,1591313935448
Fix,GT,37.5380586,-122.2820493,,29.2187,0.1,139.94702,1591313936448
Fix,GT,37.5378472,-122.2818501,,29.45429,0.1,140.02393,1591313937448
Fix,GT,37.5376335,-122.2816499,,29.706009,0.1,140.1998,1591313938448
Fix,GT,37.5374174,-122.2814492,,29.956001,0.1,140.3714,1591313939448
Fix,GT,37.5371996,-122.2812473,,30.105103,0.1,140.31232,1591313940448
Fix,GT,37.5369814,-122.2810447,,30.120937,0.1,140.31348,1591313941448
Fix,GT,37.5367632,-122.2808424,,30.07069,0.1,140.35968,1591313942448
Fix,GT,37.5365455,-122.2806404,,30.011295,0.1,140.35107,1591313943448
Fix,GT,37.5363281,-122.2804389,,29.960754,0.1,140.36633,1591313944448
Fix,GT,37.5361111,-122.2802373,,29.964336,0.1,140.25696,1591313945448
Fix,GT,37.5358942,-122.2800351,,30.03443,0.1,140.19305,1591313946448
Fix,GT,37.5356763,-122.2798325,,30.164341,0.1,140.37476,1591313947448
Fix,GT,37.5354569,-122.2796296,,30.317501,0.1,140.51398,1591313948448
Fix,GT,37.5352362,-122.2794258,,30.469397,0.1,140.3869,1591313949448
Fix,GT,37.5350151,-122.2792204,,30.560062,0.1,140.27075,1591313950448
Fix,GT,37.5347936,-122.2790147,,30.57745,0.1,140.44788,1591313951448
Fix,GT,37.5345717,-122.2788104,,30.471619,0.1,140.63782,1591313952448
Fix,GT,37.5343509,-122.278608,,30.15397,0.1,140.65344,1591313953448
Fix,GT,37.5341331,-122.2784081,,29.727215,0.1,140.6076,1591313954448
Fix,GT,37.5339182,-122.2782105,,29.426956,0.1,140.54242,1591313955448
Fix,GT,37.5337049,-122.2780135,,29.370136,0.1,140.39069,1591313956448
Fix,GT,37.5334919,-122.2778159,,29.43664,0.1,140.36322,1591313957448
Fix,GT,37.5332782,-122.2776177,,29.536697,0.1,140.35022,1591313958448
Fix,GT,37.5330638,-122.2774185,,29.66354,0.1,140.30536,1591313959448
Fix,GT,37.5328486,-122.2772187,,29.723778,0.1,140.42401,1591313960448
Fix,GT,37.5326333,-122.2770194,,29.622414,0.1,140.41437,1591313961448
Fix,GT,37.5324194,-122.2768205,,29.46312,0.1,140.25531,1591313962448
Fix,GT,37.5322065,-122.276622,,29.42683,0.1,140.15106,1591313963448
Fix,GT,37.5319934,-122.2764232,,29.5332,0.1,140.21283,1591313964448
Fix,GT,37.5317791,-122.2762234,,29.722927,0.1,140.19727,1591313965448
Fix,GT,37.531564,-122.2760215,,29.853832,0.1,139.8504,1591313966448
Fix,GT,37.53135,-122.2758171,,29.801304,0.1,139.36267,1591313967448
Fix,GT,37.5311384,-122.275611,,29.62709,0.1,138.7804,1591313968448
Fix,GT,37.5309298,-122.2754033,,29.470963,0.1,138.07938,1591313969448
Fix,GT,37.5307236,-122.275194,,29.394405,0.1,137.67645,1591313970448
Fix,GT,37.5305188,-122.2749834,,29.39011,0.1,137.38196,1591313971448
Fix,GT,37.5303146,-122.2747714,,29.390266,0.1,137.07715,1591313972448
Fix,GT,37.5301119,-122.2745581,,29.298927,0.1,136.53174,1591313973448
Fix,GT,37.5299126,-122.2743425,,29.119617,0.1,135.63715,1591313974448
Fix,GT,37.5297174,-122.2741246,,28.885277,0.1,134.68396,1591313975448
Fix,GT,37.5295261,-122.273905,,28.646034,0.1,134.23676,1591313976448
Fix,GT,37.5293363,-122.2736871,,28.472164,0.1,134.50638,1591313977448
Fix,GT,37.5291468,-122.2734709,,28.379799,0.1,134.46533,1591313978448
Fix,GT,37.5289583,-122.2732545,,28.328913,0.1,134.29681,1591313979448
Fix,GT,37.5287697,-122.2730385,,28.337635,0.1,134.46216,1591313980448
Fix,GT,37.5285807,-122.2728225,,28.411797,0.1,134.43408,1591313981448
Fix,GT,37.5283914,-122.2726053,,28.526451,0.1,134.41473,1591313982448
Fix,GT,37.5282007,-122.2723875,,28.697834,0.1,134.611,1591313983448
Fix,GT,37.5280081,-122.2721692,,28.8793,0.1,134.80655,1591313984448
Fix,GT,37.527814,-122.2719501,,29.044888,0.1,134.82144,1591313985448
Fix,GT,37.5276194,-122.2717301,,29.04139,0.1,134.73886,1591313986448
Fix,GT,37.5274263,-122.2715106,,28.749283,0.1,134.52097,1591313987448
Fix,GT,37.5272364,-122.271293,,28.314676,0.1,134.33472,1591313988448
Fix,GT,37.5270498,-122.2710784,,27.858727,0.1,134.42075,1591313989448
Fix,GT,37.5268658,-122.270868,,27.388468,0.1,134.48605,1591313990448
Fix,GT,37.5266849,-122.2706604,,27.021004,0.1,134.34125,1591313991448
Fix,GT,37.5265059,-122.2704543,,26.945036,0.1,134.40686,1591313992448
Fix,GT,37.5263255,-122.2702492,,27.114311,0.1,134.94293,1591313993448
Fix,GT,37.5261424,-122.2700441,,27.345098,0.1,135.142,1591313994448
Fix,GT,37.5259578,-122.2698374,,27.56483,0.1,135.06372,1591313995448
Fix,GT,37.5257715,-122.2696294,,27.776806,0.1,135.23648,1591313996448
Fix,GT,37.5255835,-122.26942,,28.004356,0.1,135.09613,1591313997448
Fix,GT,37.5253947,-122.269208,,28.232096,0.1,134.9552,1591313998448
Fix,GT,37.5252044,-122.2689941,,28.471668,0.1,134.98181,1591313999448
Fix,GT,37.5250128,-122.2687778,,28.740923,0.1,134.71704,1591314000448
Fix,GT,37.5248203,-122.268558,,29.007305,0.1,134.42032,1591314001448
Fix,GT,37.5246267,-122.2683357,,29.24598,0.1,134.52151,1591314002448
Fix,GT,37.5244306,-122.2681125,,29.496868,0.1,134.8794,1591314003448
Fix,GT,37.5242316,-122.2678888,,29.78038,0.1,135.1134,1591314004448
Fix,GT,37.5240304,-122.2676635,,30.049582,0.1,135.09521,1591314005448
Fix,GT,37.5238277,-122.2674362,,30.27243,0.1,134.96912,1591314006448
Fix,GT,37.5236243,-122.2672074,,30.353699,0.1,135.0213,1591314007448
Fix,GT,37.5234207,-122.2669786,,30.269285,0.1,134.96399,1591314008448
Fix,GT,37.5232182,-122.2667505,,30.116344,0.1,134.83789,1591314009448
Fix,GT,37.5230173,-122.2665232,,29.900648,0.1,134.71286,1591314010448
Fix,GT,37.5228185,-122.2662971,,29.65946,0.1,134.6153,1591314011448
Fix,GT,37.5226214,-122.2660725,,29.410465,0.1,134.61078,1591314012448
Fix,GT,37.5224257,-122.2658502,,29.17104,0.1,134.7619,1591314013448
Fix,GT,37.5222308,-122.2656297,,29.105843,0.1,134.87885,1591314014448
Fix,GT,37.5220354,-122.265409,,29.283337,0.1,134.82623,1591314015448
Fix,GT,37.5218387,-122.2651863,,29.496563,0.1,134.76569,1591314016448
Fix,GT,37.5216408,-122.264962,,29.677692,0.1,134.71027,1591314017448
Fix,GT,37.5214423,-122.2647363,,29.756523,0.1,134.59036,1591314018448
Fix,GT,37.5212437,-122.2645102,,29.707527,0.1,134.66104,1591314019448
Fix,GT,37.5210453,-122.2642855,,29.610228,0.1,134.83752,1591314020448
Fix,GT,37.5208475,-122.2640617,,29.472975,0.1,134.74442,1591314021448
Fix,GT,37.5206508,-122.2638391,,29.31754,0.1,134.84348,1591314022448
Fix,GT,37.5204548,-122.263618,,29.199635,0.1,134.92456,1591314023448
Fix,GT,37.5202595,-122.2633974,,29.145977,0.1,134.83331,1591314024448
Fix,GT,37.5200637,-122.2631767,,29.291618,0.1,134.97827,1591314025448
Fix,GT,37.5198661,-122.2629547,,29.55666,0.1,135.01706,1591314026448
Fix,GT,37.5196671,-122.2627305,,29.796818,0.1,134.81067,1591314027448
Fix,GT,37.5194668,-122.2625035,,30.07896,0.1,134.73944,1591314028448
Fix,GT,37.5192646,-122.2622744,,30.389809,0.1,134.79166,1591314029448
Fix,GT,37.5190601,-122.2620433,,30.656443,0.1,134.73743,1591314030448
Fix,GT,37.5188547,-122.2618101,,30.774181,0.1,134.68457,1591314031448
Fix,GT,37.5186492,-122.2615769,,30.670982,0.1,134.73914,1591314032448
Fix,GT,37.5184448,-122.2613452,,30.45943,0.1,134.70084,1591314033448
Fix,GT,37.5182419,-122.2611146,,30.283134,0.1,134.66968,1591314034448
Fix,GT,37.5180399,-122.2608854,,30.153904,0.1,134.85275,1591314035448
Fix,GT,37.517838,-122.2606581,,30.042686,0.1,134.97092,1591314036448
Fix,GT,37.5176371,-122.2604316,,29.909704,0.1,134.79675,1591314037448
Fix,GT,37.5174377,-122.260205,,29.784645,0.1,134.68567,1591314038448
Fix,GT,37.5172387,-122.2599793,,29.771011,0.1,134.88013,1591314039448
Fix,GT,37.5170387,-122.2597543,,29.861794,0.1,135.03802,1591314040448
Fix,GT,37.5168378,-122.2595285,,29.975729,0.1,134.90921,1591314041448
Fix,GT,37.5166365,-122.2593012,,30.11995,0.1,134.77362,1591314042448
Fix,GT,37.5164347,-122.2590727,,30.186417,0.1,134.79141,1591314043448
Fix,GT,37.516233,-122.2588441,,30.095314,0.1,134.71716,1591314044448
Fix,GT,37.5160327,-122.2586162,,29.920864,0.1,134.60641,1591314045448
Fix,GT,37.5158337,-122.2583896,,29.723415,0.1,134.63812,1591314046448
Fix,GT,37.5156356,-122.2581647,,29.526146,0.1,134.78638,1591314047448
Fix,GT,37.5154385,-122.2579419,,29.386936,0.1,134.92761,1591314048448
Fix,GT,37.5152414,-122.2577204,,29.359404,0.1,135.08844,1591314049448
Fix,GT,37.515044,-122.2574995,,29.314737,0.1,135.03894,1591314050448
Fix,GT,37.5148478,-122.2572787,,29.153145,0.1,134.81775,1591314051448
Fix,GT,37.5146533,-122.2570588,,28.945621,0.1,134.83575,1591314052448
Fix,GT,37.5144601,-122.2568408,,28.721329,0.1,134.95862,1591314053448
Fix,GT,37.5142679,-122.2566247,,28.54516,0.1,134.97449,1591314054448
Fix,GT,37.5140765,-122.2564095,,28.51971,0.1,134.95554,1591314055448
