MessageType,Provider,LatitudeDegrees,LongitudeDegrees,AltitudeMeters,SpeedMps,AccuracyMeters,BearingDegrees,UnixTimeMillis
Fix,GT,37.7770066,-122.3934237,,10.499121,0.1,232.40677,1590701018438
Fix,GT,37.7769413,-122.3935097,,10.636532,0.1,231.0139,1590701019438
Fix,GT,37.7768714,-122.3935979,,11.496742,0.1,230.19377,1590701020438
Fix,GT,37.7767944,-122.393695,,12.575672,0.1,230.3305,1590701021438
Fix,GT,37.7767126,-122.3937981,,12.9486065,0.1,230.07704,1590701022438
Fix,GT,37.7766293,-122.3939012,,12.947929,0.1,229.52214,1590701023438
Fix,GT,37.7765458,-122.3940035,,12.906632,0.1,229.39983,1590701024438
Fix,GT,37.7764623,-122.3941049,,12.881731,0.1,229.12596,1590701025438
Fix,GT,37.7763782,-122.3942055,,12.898031,0.1,228.61601,1590701026438
Fix,GT,37.7762929,-122.3943062,,13.02627,0.1,228.39516,1590701027438
Fix,GT,37.7762072,-122.3944088,,13.257787,0.1,229.01587,1590701028438
Fix,GT,37.7761203,-122.3945146,,13.573441,0.1,229.53023,1590701029438
Fix,GT,37.7760317,-122.3946237,,13.925116,0.1,229.66692,1590701030438
Fix,GT,37.7759415,-122.3947361,,14.230421,0.1,230.10643,1590701031438
Fix,GT,37.7758498,-122.394852,,14.582921,0.1,230.51692,1590701032438
Fix,GT,37.7757566,-122.3949713,,14.891453,0.1,230.85588,1590701033438
Fix,GT,37.7756624,-122.3950933,,15.063036,0.1,230.98975,1590701034438
Fix,GT,37.7755679,-122.3952149,,14.816486,0.1,230.7752,1590701035438
Fix,GT,37.7754764,-122.3953315,,14.009275,0.1,230.39633,1590701036438
Fix,GT,37.7753904,-122.3954398,,13.035566,0.1,230.07623,1590701037438
Fix,GT,37.7753102,-122.3955399,,12.127924,0.1,229.92741,1590701038438
Fix,GT,37.7752345,-122.3956343,,11.679202,0.1,229.92625,1590701039438
Fix,GT,37.7751597,-122.3957277,,11.751697,0.1,229.97807,1590701040438
Fix,GT,37.7750832,-122.3958238,,12.303174,0.1,230.1569,1590701041438
Fix,GT,37.7750021,-122.3959264,,13.210309,0.1,230.48637,1590701042438
Fix,GT,37.7749157,-122.3960367,,14.084816,0.1,230.60747,1590701043438
Fix,GT,37.7748237,-122.3961535,,14.8713045,0.1,230.45564,1590701044438
Fix,GT,37.7747272,-122.3962756,,15.46987,0.1,230.44342,1590701045438
Fix,GT,37.7746278,-122.3964021,,15.861784,0.1,230.70587,1590701046438
Fix,GT,37.774527,-122.396532,,16.17966,0.1,230.9236,1590701047438
Fix,GT,37.7744239,-122.396665,,16.595058,0.1,230.92041,1590701048438
Fix,GT,37.7743176,-122.3968011,,17.059612,0.1,230.58043,1590701049438
Fix,GT,37.7742075,-122.3969399,,17.524448,0.1,230.18872,1590701050438
Fix,GT,37.7740942,-122.397082,,17.931492,0.1,230.28271,1590701051438
Fix,GT,37.7739792,-122.3972272,,18.195438,0.1,230.364,1590701052438
Fix,GT,37.7738619,-122.3973726,,18.347424,0.1,229.39891,1590701053438
Fix,GT,37.7737411,-122.3975152,,18.39004,0.1,227.63518,1590701054438
Fix,GT,37.7736157,-122.3976498,,18.215836,0.1,224.18784,1590701055438
Fix,GT,37.7734835,-122.3977691,,18.051558,0.1,218.52292,1590701056438
Fix,GT,37.773343,-122.3978718,,18.126827,0.1,213.1508,1590701057438
Fix,GT,37.7731947,-122.3979584,,18.307678,0.1,207.90561,1590701058438
Fix,GT,37.7730391,-122.3980273,,18.456202,0.1,202.29216,1590701059438
Fix,GT,37.7728776,-122.3980767,,18.599386,0.1,196.48506,1590701060438
Fix,GT,37.7727114,-122.3981057,,18.825449,0.1,190.9263,1590701061438
Fix,GT,37.7725405,-122.398116,,19.236301,0.1,186.08824,1590701062438
Fix,GT,37.7723655,-122.3981096,,19.709652,0.1,181.95981,1590701063438
Fix,GT,37.7721868,-122.39809,,20.235989,0.1,179.6629,1590701064438
Fix,GT,37.772002,-122.398068,,21.058632,0.1,180.44287,1590701065438
Fix,GT,37.7718074,-122.3980514,,22.18993,0.1,181.92944,1590701066438
Fix,GT,37.7716031,-122.3980367,,23.203053,0.1,181.97089,1590701067438
Fix,GT,37.7713921,-122.3980192,,23.65406,0.1,181.10863,1590701068438
Fix,GT,37.7711798,-122.3979961,,23.618607,0.1,179.76521,1590701069438
Fix,GT,37.7709678,-122.3979689,,23.770058,0.1,179.31628,1590701070438
Fix,GT,37.7707541,-122.3979412,,23.873314,0.1,179.58191,1590701071438
Fix,GT,37.7705409,-122.3979133,,23.716106,0.1,179.35187,1590701072438
Fix,GT,37.7703284,-122.3978845,,23.795853,0.1,179.17719,1590701073438
Fix,GT,37.7701141,-122.3978544,,24.112026,0.1,178.70996,1590701074438
Fix,GT,37.7698976,-122.3978185,,24.370575,0.1,176.93127,1590701075438
Fix,GT,37.7696807,-122.3977708,,24.574581,0.1,173.94916,1590701076438
Fix,GT,37.7694648,-122.397706,,24.787582,0.1,170.1518,1590701077438
Fix,GT,37.7692512,-122.3976219,,24.993504,0.1,166.14246,1590701078438
Fix,GT,37.7690414,-122.397518,,25.168633,0.1,161.80945,1590701079438
Fix,GT,37.7688368,-122.3973935,,25.361956,0.1,157.93127,1590701080438
Fix,GT,37.7686363,-122.3972536,,25.573818,0.1,155.11597,1590701081438
Fix,GT,37.7684401,-122.3970999,,25.788698,0.1,151.83423,1590701082438
Fix,GT,37.7682501,-122.3969298,,26.053394,0.1,148.08246,1590701083438
Fix,GT,37.768068,-122.3967418,,26.349218,0.1,144.13513,1590701084438
Fix,GT,37.7678935,-122.3965378,,26.587542,0.1,141.39233,1590701085438
Fix,GT,37.7677219,-122.3963253,,26.813396,0.1,140.39429,1590701086438
Fix,GT,37.7675507,-122.3961087,,27.056873,0.1,139.97968,1590701087438
Fix,GT,37.7673791,-122.3958888,,27.297287,0.1,139.64108,1590701088438
Fix,GT,37.7672063,-122.3956664,,27.508038,0.1,139.82626,1590701089438
Fix,GT,37.7670313,-122.3954441,,27.678219,0.1,140.38391,1590701090438
Fix,GT,37.7668536,-122.3952224,,27.849712,0.1,140.74084,1590701091438
Fix,GT,37.766674,-122.3950002,,28.041862,0.1,140.79883,1590701092438
Fix,GT,37.7664927,-122.3947763,,28.300629,0.1,141.04056,1590701093438
Fix,GT,37.7663065,-122.3945544,,28.574705,0.1,142.79797,1590701094438
Fix,GT,37.766112,-122.3943403,,28.72261,0.1,145.42294,1590701095438
Fix,GT,37.7659087,-122.3941381,,28.754711,0.1,148.70734,1590701096438
Fix,GT,37.7656953,-122.3939531,,28.744244,0.1,152.77124,1590701097438
Fix,GT,37.7654722,-122.3937875,,28.70974,0.1,156.63715,1590701098438
Fix,GT,37.7652423,-122.3936384,,28.718433,0.1,159.29462,1590701099438
Fix,GT,37.7650068,-122.3934998,,28.98294,0.1,161.16254,1590701100438
Fix,GT,37.7647642,-122.3933698,,29.519785,0.1,163.37585,1590701101438
Fix,GT,37.7645134,-122.3932507,,29.986267,0.1,166.10345,1590701102438
Fix,GT,37.7642545,-122.3931471,,30.31707,0.1,169.47101,1590701103438
Fix,GT,37.7639887,-122.393063,,30.544867,0.1,172.94208,1590701104438
Fix,GT,37.7637178,-122.3929971,,30.676422,0.1,175.73523,1590701105438
Fix,GT,37.7634439,-122.3929463,,30.756664,0.1,178.02167,1590701106438
Fix,GT,37.7631684,-122.3929079,,30.773167,0.1,179.76697,1590701107438
Fix,GT,37.7628925,-122.3928763,,30.67691,0.1,180.26463,1590701108438
Fix,GT,37.7626184,-122.3928456,,30.384682,0.1,180.10538,1590701109438
Fix,GT,37.7623474,-122.3928141,,30.01976,0.1,179.8349,1590701110438
Fix,GT,37.7620794,-122.3927817,,29.753696,0.1,179.74677,1590701111438
Fix,GT,37.7618136,-122.3927497,,29.544975,0.1,179.92108,1590701112438
Fix,GT,37.7615492,-122.3927193,,29.376295,0.1,180.20622,1590701113438
Fix,GT,37.761286,-122.3926904,,29.25283,0.1,180.37636,1590701114438
Fix,GT,37.761024,-122.3926619,,29.150246,0.1,180.37918,1590701115438
Fix,GT,37.7607624,-122.3926336,,29.119562,0.1,180.51886,1590701116438
Fix,GT,37.7605008,-122.3926064,,29.140104,0.1,180.63423,1590701117438
Fix,GT,37.7602389,-122.3925803,,29.198002,0.1,181.01686,1590701118438
Fix,GT,37.7599761,-122.3925578,,29.258595,0.1,181.93921,1590701119438
Fix,GT,37.7597127,-122.3925409,,29.235918,0.1,182.8867,1590701120438
Fix,GT,37.7594501,-122.3925296,,29.027618,0.1,183.83484,1590701121438
Fix,GT,37.7591899,-122.3925246,,28.717777,0.1,184.92662,1590701122438
Fix,GT,37.7589324,-122.3925253,,28.42585,0.1,185.75174,1590701123438
Fix,GT,37.7586775,-122.3925287,,28.116852,0.1,186.0308,1590701124438
Fix,GT,37.7584252,-122.3925336,,27.89309,0.1,186.27158,1590701125438
Fix,GT,37.7581744,-122.3925391,,27.80774,0.1,186.24551,1590701126438
Fix,GT,37.7579245,-122.3925434,,27.593357,0.1,186.0703,1590701127438
Fix,GT,37.7576776,-122.3925479,,27.23686,0.1,186.34103,1590701128438
Fix,GT,37.7574331,-122.3925531,,27.048979,0.1,186.30556,1590701129438
Fix,GT,37.7571894,-122.3925574,,26.99213,0.1,186.05936,1590701130438
Fix,GT,37.7569465,-122.3925599,,26.955767,0.1,185.56438,1590701131438
Fix,GT,37.7567035,-122.3925571,,27.039906,0.1,183.94887,1590701132438
Fix,GT,37.7564593,-122.3925443,,27.23566,0.1,181.9244,1590701133438
Fix,GT,37.7562139,-122.3925194,,27.452703,0.1,179.55678,1590701134438
Fix,GT,37.7559678,-122.3924813,,27.642958,0.1,177.17682,1590701135438
Fix,GT,37.7557216,-122.3924309,,27.761879,0.1,175.05798,1590701136438
Fix,GT,37.7554763,-122.392368,,27.88755,0.1,172.6463,1590701137438
Fix,GT,37.7552316,-122.3922924,,28.07166,0.1,170.62634,1590701138438
Fix,GT,37.7549869,-122.3922085,,28.254066,0.1,169.69458,1590701139438
Fix,GT,37.7547412,-122.3921212,,28.43486,0.1,169.34375,1590701140438
Fix,GT,37.7544942,-122.3920322,,28.620005,0.1,169.43732,1590701141438
Fix,GT,37.7542452,-122.3919446,,28.763958,0.1,170.06708,1590701142438
Fix,GT,37.7539938,-122.3918619,,28.895195,0.1,171.34875,1590701143438
Fix,GT,37.7537393,-122.3917892,,29.073664,0.1,173.88336,1590701144438
Fix,GT,37.7534802,-122.3917326,,29.300583,0.1,176.98267,1590701145438
Fix,GT,37.7532169,-122.3916914,,29.57561,0.1,179.15369,1590701146438
Fix,GT,37.7529502,-122.3916612,,29.89587,0.1,181.09973,1590701147438
Fix,GT,37.7526798,-122.3916444,,30.17069,0.1,183.85738,1590701148438
Fix,GT,37.7524071,-122.391645,,30.366835,0.1,186.86598,1590701149438
Fix,GT,37.7521327,-122.3916629,,30.66985,0.1,189.52304,1590701150438
Fix,GT,37.7518562,-122.3916972,,30.919596,0.1,192.3538,1590701151438
Fix,GT,37.7515806,-122.3917498,,30.86745,0.1,195.52264,1590701152438
Fix,GT,37.7513092,-122.3918209,,30.660793,0.1,198.47458,1590701153438
Fix,GT,37.7510429,-122.3919077,,30.389828,0.1,201.3744,1590701154438
Fix,GT,37.7507837,-122.392011,,29.9068,0.1,204.44041,1590701155438
Fix,GT,37.7505339,-122.3921272,,29.12682,0.1,206.43773,1590701156438
Fix,GT,37.7502931,-122.3922461,,28.318169,0.1,206.83548,1590701157438
Fix,GT,37.7500585,-122.3923614,,27.599016,0.1,206.27563,1590701158438
Fix,GT,37.7498291,-122.3924713,,26.880737,0.1,206.09465,1590701159438
Fix,GT,37.7496061,-122.3925787,,26.12418,0.1,206.47801,1590701160438
Fix,GT,37.74939,-122.3926864,,25.46774,0.1,207.14352,1590701161438
Fix,GT,37.7491785,-122.3927927,,25.166862,0.1,206.79257,1590701162438
Fix,GT,37.7489673,-122.3928955,,25.141415,0.1,206.16579,1590701163438
Fix,GT,37.7487558,-122.3929968,,25.084833,0.1,206.30437,1590701164438
Fix,GT,37.748545,-122.3930988,,25.068588,0.1,206.18481,1590701165438
Fix,GT,37.7483326,-122.3931983,,25.28231,0.1,205.30144,1590701166438
Fix,GT,37.7481157,-122.3932947,,25.783176,0.1,204.44496,1590701167438
Fix,GT,37.7478944,-122.3933921,,26.235344,0.1,204.87843,1590701168438
Fix,GT,37.747671,-122.3934952,,26.563892,0.1,206.00728,1590701169438
Fix,GT,37.747447,-122.3936046,,26.748398,0.1,206.7904,1590701170438
Fix,GT,37.7472223,-122.393716,,26.857111,0.1,206.64784,1590701171438
Fix,GT,37.7469956,-122.3938257,,27.04315,0.1,206.06093,1590701172438
Fix,GT,37.7467673,-122.3939354,,27.163446,0.1,206.47798,1590701173438
Fix,GT,37.7465398,-122.394051,,27.236137,0.1,208.09995,1590701174438
Fix,GT,37.7463149,-122.3941761,,27.305532,0.1,210.00058,1590701175438
Fix,GT,37.7460929,-122.3943107,,27.38546,0.1,211.89218,1590701176438
Fix,GT,37.745874,-122.3944544,,27.418652,0.1,213.62605,1590701177438
Fix,GT,37.7456584,-122.3946061,,27.415405,0.1,215.33429,1590701178438
Fix,GT,37.7454462,-122.3947657,,27.447643,0.1,216.95486,1590701179438
Fix,GT,37.7452373,-122.3949327,,27.456142,0.1,218.34807,1590701180438
Fix,GT,37.7450316,-122.3951056,,27.44587,0.1,219.62758,1590701181438
Fix,GT,37.7448289,-122.3952838,,27.44283,0.1,220.71848,1590701182438
Fix,GT,37.7446281,-122.3954654,,27.45168,0.1,221.15636,1590701183438
Fix,GT,37.7444271,-122.3956471,,27.501766,0.1,220.65034,1590701184438
Fix,GT,37.7442237,-122.3958261,,27.576096,0.1,219.97102,1590701185438
Fix,GT,37.7440194,-122.3960044,,27.639091,0.1,220.10233,1590701186438
Fix,GT,37.7438155,-122.3961854,,27.740555,0.1,220.89685,1590701187438
Fix,GT,37.7436122,-122.3963696,,27.851982,0.1,221.3175,1590701188438
Fix,GT,37.7434092,-122.3965555,,27.885073,0.1,221.2379,1590701189438
Fix,GT,37.7432053,-122.3967405,,27.931456,0.1,220.8558,1590701190438
Fix,GT,37.7429998,-122.3969241,,28.008556,0.1,220.51694,1590701191438
Fix,GT,37.7427929,-122.3971088,,28.301392,0.1,220.72835,1590701192438
Fix,GT,37.7425833,-122.3972979,,28.900782,0.1,221.04742,1590701193438
Fix,GT,37.7423697,-122.3974911,,29.471527,0.1,220.84435,1590701194438
Fix,GT,37.742151,-122.3976858,,29.94944,0.1,220.20961,1590701195438
Fix,GT,37.7419274,-122.3978795,,30.277567,0.1,219.49216,1590701196438
Fix,GT,37.7417,-122.3980719,,30.563898,0.1,219.02655,1590701197438
Fix,GT,37.7414703,-122.3982655,,30.757078,0.1,219.26123,1590701198438
Fix,GT,37.7412416,-122.3984619,,30.60147,0.1,219.96489,1590701199438
Fix,GT,37.7410175,-122.3986599,,30.156082,0.1,220.6394,1590701200438
Fix,GT,37.7407977,-122.3988575,,29.818363,0.1,220.887,1590701201438
Fix,GT,37.7405793,-122.3990538,,29.841831,0.1,220.67004,1590701202438
Fix,GT,37.7403594,-122.3992501,,29.983255,0.1,220.65048,1590701203438
Fix,GT,37.7401392,-122.3994477,,30.010424,0.1,220.90154,1590701204438
Fix,GT,37.7399198,-122.3996465,,29.971056,0.1,221.08589,1590701205438
Fix,GT,37.739701,-122.3998452,,29.89303,0.1,221.06735,1590701206438
Fix,GT,37.7394826,-122.4000426,,29.760002,0.1,220.8116,1590701207438
Fix,GT,37.7392648,-122.4002378,,29.570807,0.1,220.70709,1590701208438
Fix,GT,37.7390487,-122.4004322,,29.380127,0.1,221.14331,1590701209438
Fix,GT,37.7388357,-122.4006285,,29.172834,0.1,221.97774,1590701210438
Fix,GT,37.738627,-122.4008277,,28.92305,0.1,223.1865,1590701211438
Fix,GT,37.7384241,-122.4010311,,28.689795,0.1,224.61916,1590701212438
Fix,GT,37.7382265,-122.4012407,,28.744335,0.1,226.16922,1590701213438
Fix,GT,37.7380314,-122.4014583,,29.108276,0.1,227.48439,1590701214438
Fix,GT,37.7378372,-122.4016834,,29.435055,0.1,228.25809,1590701215438
Fix,GT,37.7376437,-122.4019141,,29.68282,0.1,229.30373,1590701216438
Fix,GT,37.7374531,-122.4021517,,29.837345,0.1,230.94905,1590701217438
Fix,GT,37.7372679,-122.4023982,,29.939838,0.1,232.81691,1590701218438
Fix,GT,37.7370888,-122.4026524,,29.960724,0.1,234.55807,1590701219438
Fix,GT,37.7369149,-122.4029117,,29.86361,0.1,235.66714,1590701220438
Fix,GT,37.7367443,-122.4031728,,29.782045,0.1,235.97829,1590701221438
Fix,GT,37.7365733,-122.4034335,,29.83313,0.1,235.45346,1590701222438
Fix,GT,37.7363976,-122.4036901,,29.957947,0.1,233.45703,1590701223438
Fix,GT,37.7362112,-122.4039364,,30.094715,0.1,229.69109,1590701224438
Fix,GT,37.7360098,-122.4041648,,30.178778,0.1,224.79288,1590701225438
Fix,GT,37.7357929,-122.40437,,30.197031,0.1,219.63957,1590701226438
Fix,GT,37.7355624,-122.4045503,,30.17,0.1,214.75038,1590701227438
Fix,GT,37.7353211,-122.4047057,,30.106451,0.1,210.14204,1590701228438
Fix,GT,37.7350712,-122.4048351,,30.021812,0.1,205.21658,1590701229438
Fix,GT,37.7348139,-122.4049368,,29.992489,0.1,200.33572,1590701230438
Fix,GT,37.7345506,-122.4050114,,30.035763,0.1,195.66693,1590701231438
Fix,GT,37.7342829,-122.405058,,30.096575,0.1,190.75197,1590701232438
Fix,GT,37.7340123,-122.405076,,30.175804,0.1,186.02745,1590701233438
Fix,GT,37.7337406,-122.4050664,,30.274334,0.1,181.40727,1590701234438
Fix,GT,37.7334699,-122.4050277,,30.389734,0.1,176.15771,1590701235438
Fix,GT,37.7332024,-122.4049558,,30.497637,0.1,170.51196,1590701236438
Fix,GT,37.7329403,-122.4048532,,30.575068,0.1,165.90967,1590701237438
Fix,GT,37.7326831,-122.4047298,,30.609852,0.1,163.43304,1590701238438
Fix,GT,37.732428,-122.4045974,,30.65797,0.1,162.81909,1590701239438
Fix,GT,37.7321724,-122.404464,,30.761467,0.1,163.19818,1590701240438
Fix,GT,37.7319147,-122.4043328,,30.91124,0.1,163.56152,1590701241438
Fix,GT,37.7316551,-122.4042033,,31.04598,0.1,164.04907,1590701242438
Fix,GT,37.7313931,-122.4040773,,31.195066,0.1,165.12964,1590701243438
Fix,GT,37.7311269,-122.4039593,,31.450733,0.1,167.01459,1590701244438
Fix,GT,37.7308548,-122.4038531,,31.794231,0.1,169.52002,1590701245438
Fix,GT,37.7305759,-122.4037619,,32.189106,0.1,172.19073,1590701246438
Fix,GT,37.7302905,-122.4036845,,32.639023,0.1,173.92505,1590701247438
Fix,GT,37.7300002,-122.4036118,,33.091022,0.1,174.08618,1590701248438
Fix,GT,37.7297066,-122.4035357,,33.442116,0.1,173.3523,1590701249438
Fix,GT,37.7294114,-122.4034533,,33.656044,0.1,172.42719,1590701250438
Fix,GT,37.7291159,-122.4033643,,33.75933,0.1,171.37946,1590701251438
Fix,GT,37.7288218,-122.4032671,,33.73062,0.1,169.92883,1590701252438
Fix,GT,37.7285304,-122.4031626,,33.544704,0.1,169.09967,1590701253438
Fix,GT,37.728241,-122.4030565,,33.40181,0.1,169.27545,1590701254438
Fix,GT,37.7279516,-122.4029524,,33.411137,0.1,169.56506,1590701255438
Fix,GT,37.727662,-122.4028501,,33.367683,0.1,169.75403,1590701256438
Fix,GT,37.7273727,-122.4027481,,33.289703,0.1,169.6792,1590701257438
Fix,GT,37.7270848,-122.4026446,,33.233627,0.1,169.19788,1590701258438
Fix,GT,37.7267978,-122.4025378,,33.21622,0.1,168.63678,1590701259438
Fix,GT,37.7265111,-122.4024281,,33.32551,0.1,168.24927,1590701260438
Fix,GT,37.7262234,-122.4023162,,33.519566,0.1,168.05408,1590701261438
Fix,GT,37.7259343,-122.402203,,33.685646,0.1,168.07703,1590701262438
Fix,GT,37.7256438,-122.4020901,,33.794052,0.1,168.35431,1590701263438
Fix,GT,37.7253521,-122.4019788,,33.846447,0.1,168.60425,1590701264438
Fix,GT,37.7250601,-122.4018687,,33.797302,0.1,168.70068,1590701265438
Fix,GT,37.7247692,-122.4017587,,33.599262,0.1,168.60126,1590701266438
Fix,GT,37.7244811,-122.4016483,,33.247475,0.1,168.15186,1590701267438
Fix,GT,37.7241969,-122.401535,,32.947506,0.1,167.29327,1590701268438
Fix,GT,37.7239158,-122.4014177,,32.811165,0.1,166.79633,1590701269438
Fix,GT,37.7236361,-122.4012997,,32.6874,0.1,166.95569,1590701270438
Fix,GT,37.7233575,-122.4011825,,32.51819,0.1,166.91382,1590701271438
Fix,GT,37.7230805,-122.4010658,,32.343468,0.1,166.90332,1590701272438
Fix,GT,37.7228045,-122.4009512,,32.19619,0.1,167.33252,1590701273438
Fix,GT,37.7225288,-122.4008396,,32.0735,0.1,167.73083,1590701274438
Fix,GT,37.7222536,-122.4007309,,31.969193,0.1,168.24243,1590701275438
Fix,GT,37.7219779,-122.4006274,,31.865314,0.1,169.39124,1590701276438
Fix,GT,37.7217014,-122.4005318,,31.783726,0.1,170.5658,1590701277438
Fix,GT,37.7214245,-122.4004408,,31.75466,0.1,170.78503,1590701278438
Fix,GT,37.7211476,-122.4003504,,31.74406,0.1,170.89075,1590701279438
Fix,GT,37.7208704,-122.4002614,,31.759954,0.1,171.25793,1590701280438
Fix,GT,37.7205925,-122.4001747,,31.779644,0.1,171.59949,1590701281438
Fix,GT,37.720314,-122.4000896,,31.824245,0.1,171.8601,1590701282438
Fix,GT,37.7200346,-122.4000065,,31.907198,0.1,172.33093,1590701283438
Fix,GT,37.7197539,-122.3999261,,31.979454,0.1,172.81421,1590701284438
Fix,GT,37.7194721,-122.3998489,,32.020645,0.1,173.33252,1590701285438
Fix,GT,37.7191893,-122.3997755,,32.06954,0.1,173.89331,1590701286438
Fix,GT,37.7189056,-122.3997046,,32.12561,0.1,174.40485,1590701287438
Fix,GT,37.7186211,-122.3996364,,32.172188,0.1,174.73523,1590701288438
Fix,GT,37.7183362,-122.3995694,,32.152874,0.1,174.77252,1590701289438
Fix,GT,37.7180521,-122.3995017,,32.021564,0.1,174.60352,1590701290438
Fix,GT,37.7177698,-122.3994325,,31.84064,0.1,174.11902,1590701291438
Fix,GT,37.7174895,-122.3993609,,31.659685,0.1,173.74194,1590701292438
Fix,GT,37.7172111,-122.3992869,,31.548605,0.1,173.03967,1590701293438
Fix,GT,37.7169342,-122.3992055,,31.610065,0.1,171.44312,1590701294438
Fix,GT,37.7166586,-122.3991124,,31.783627,0.1,169.27429,1590701295438
Fix,GT,37.7163853,-122.399005,,31.787365,0.1,166.89166,1590701296438
Fix,GT,37.7161158,-122.3988845,,31.775911,0.1,164.8125,1590701297438
Fix,GT,37.715849,-122.3987519,,31.945911,0.1,162.69482,1590701298438
Fix,GT,37.7155851,-122.398605,,32.169147,0.1,160.23853,1590701299438
Fix,GT,37.7153247,-122.3984422,,32.417385,0.1,157.59924,1590701300438
Fix,GT,37.715069,-122.3982631,,32.560493,0.1,155.03448,1590701301438
Fix,GT,37.714819,-122.3980708,,32.42506,0.1,152.89557,1590701302438
Fix,GT,37.7145761,-122.397871,,31.89187,0.1,151.59735,1590701303438
Fix,GT,37.7143402,-122.3976709,,31.330978,0.1,151.23608,1590701304438
Fix,GT,37.7141074,-122.3974737,,30.96374,0.1,151.48871,1590701305438
Fix,GT,37.7138767,-122.3972805,,30.49723,0.1,151.94415,1590701306438
Fix,GT,37.7136478,-122.3970934,,30.112347,0.1,152.79382,1590701307438
Fix,GT,37.7134181,-122.3969133,,29.943571,0.1,154.38965,1590701308438
Fix,GT,37.7131843,-122.3967442,,29.925121,0.1,156.77075,1590701309438
Fix,GT,37.7129448,-122.3965875,,29.986252,0.1,158.9917,1590701310438
Fix,GT,37.7127007,-122.3964416,,29.978394,0.1,160.71204,1590701311438
Fix,GT,37.7124536,-122.3963049,,29.927477,0.1,162.49036,1590701312438
Fix,GT,37.7122034,-122.396178,,29.941093,0.1,164.40039,1590701313438
Fix,GT,37.711949,-122.3960633,,29.949684,0.1,166.89178,1590701314438
Fix,GT,37.7116944,-122.3959642,,29.002048,0.1,169.59637,1590701315438
Fix,GT,37.7114502,-122.3958836,,27.082632,0.1,171.84772,1590701316438
Fix,GT,37.7112182,-122.3958181,,25.799664,0.1,173.54309,1590701317438
Fix,GT,37.710993,-122.3957615,,25.161224,0.1,174.44006,1590701318438
Fix,GT,37.7107726,-122.3957096,,24.670254,0.1,174.95886,1590701319438
Fix,GT,37.7105548,-122.39566,,24.489594,0.1,175.09326,1590701320438
Fix,GT,37.7103376,-122.3956107,,24.533169,0.1,175.12152,1590701321438
Fix,GT,37.7101191,-122.3955619,,24.73526,0.1,175.40887,1590701322438
Fix,GT,37.7098986,-122.3955131,,24.981766,0.1,175.26355,1590701323438
Fix,GT,37.7096771,-122.3954624,,24.924187,0.1,174.88904,1590701324438
Fix,GT,37.7094581,-122.3954115,,24.489586,0.1,174.98584,1590701325438
Fix,GT,37.709243,-122.3953626,,24.068209,0.1,175.18744,1590701326438
Fix,GT,37.7090311,-122.3953154,,23.667702,0.1,175.3656,1590701327438
Fix,GT,37.7088225,-122.3952693,,23.391872,0.1,175.35193,1590701328438
Fix,GT,37.7086151,-122.3952235,,23.371422,0.1,175.58435,1590701329438
Fix,GT,37.7084072,-122.3951794,,23.439255,0.1,176.09705,1590701330438
Fix,GT,37.7081979,-122.395137,,23.621605,0.1,176.2489,1590701331438
Fix,GT,37.7079868,-122.3950938,,23.84094,0.1,176.0481,1590701332438
Fix,GT,37.7077744,-122.3950493,,23.927055,0.1,175.74854,1590701333438
Fix,GT,37.7075617,-122.3950037,,23.956575,0.1,175.6419,1590701334438
Fix,GT,37.7073483,-122.3949577,,24.131044,0.1,175.65802,1590701335438
Fix,GT,37.7071326,-122.3949116,,24.458698,0.1,175.8424,1590701336438
Fix,GT,37.7069139,-122.3948661,,24.740776,0.1,176.18048,1590701337438
Fix,GT,37.7066929,-122.3948213,,24.93582,0.1,176.21057,1590701338438
Fix,GT,37.7064704,-122.3947756,,25.117302,0.1,175.94617,1590701339438
Fix,GT,37.7062467,-122.394729,,25.192719,0.1,175.98853,1590701340438
Fix,GT,37.7060227,-122.394682,,25.210808,0.1,175.78082,1590701341438
Fix,GT,37.7057984,-122.3946333,,25.345577,0.1,175.42358,1590701342438
Fix,GT,37.7055729,-122.394583,,25.522285,0.1,175.24988,1590701343438
Fix,GT,37.7053456,-122.3945319,,25.745647,0.1,175.25592,1590701344438
Fix,GT,37.7051158,-122.3944805,,26.028759,0.1,175.29529,1590701345438
Fix,GT,37.7048838,-122.3944283,,26.323347,0.1,175.21613,1590701346438
Fix,GT,37.7046491,-122.3943751,,26.61715,0.1,175.16461,1590701347438
Fix,GT,37.7044117,-122.3943217,,26.921997,0.1,175.23163,1590701348438
Fix,GT,37.7041721,-122.3942678,,27.088589,0.1,175.16632,1590701349438
Fix,GT,37.7039323,-122.3942132,,26.935843,0.1,175.04205,1590701350438
Fix,GT,37.7036948,-122.394159,,26.67326,0.1,175.11066,1590701351438
Fix,GT,37.7034585,-122.3941059,,26.638714,0.1,175.28314,1590701352438
Fix,GT,37.7032211,-122.3940534,,26.87949,0.1,175.52301,1590701353438
Fix,GT,37.7029812,-122.3940015,,27.178768,0.1,175.63855,1590701354438
Fix,GT,37.7027385,-122.3939489,,27.474007,0.1,175.41394,1590701355438
Fix,GT,37.7024937,-122.3938939,,27.738945,0.1,175.04376,1590701356438
Fix,GT,37.7022469,-122.3938365,,27.957954,0.1,174.79169,1590701357438
Fix,GT,37.7019983,-122.3937783,,28.197681,0.1,174.93945,1590701358438
Fix,GT,37.7017471,-122.3937207,,28.481133,0.1,175.09265,1590701359438
Fix,GT,37.7014934,-122.3936626,,28.766983,0.1,175.0028,1590701360438
Fix,GT,37.7012372,-122.3936037,,29.05175,0.1,175.05591,1590701361438
Fix,GT,37.7009783,-122.3935448,,29.337933,0.1,175.10736,1590701362438
Fix,GT,37.7007169,-122.3934856,,29.597767,0.1,175.18762,1590701363438
Fix,GT,37.7004533,-122.3934266,,29.792458,0.1,175.29517,1590701364438
Fix,GT,37.7001884,-122.3933677,,29.91489,0.1,175.32855,1590701365438
Fix,GT,37.6999226,-122.3933087,,29.993416,0.1,175.29034,1590701366438
Fix,GT,37.6996563,-122.3932489,,30.075369,0.1,175.18127,1590701367438
Fix,GT,37.699389,-122.3931884,,30.239574,0.1,175.05365,1590701368438
Fix,GT,37.69912,-122.3931268,,30.446014,0.1,175.00317,1590701369438
Fix,GT,37.6988492,-122.3930649,,30.587616,0.1,175.06299,1590701370438
Fix,GT,37.6985781,-122.3930033,,30.517338,0.1,175.04242,1590701371438
Fix,GT,37.6983089,-122.3929416,,30.22606,0.1,174.94904,1590701372438
Fix,GT,37.6980418,-122.3928803,,30.073326,0.1,175.1015,1590701373438
Fix,GT,37.6977747,-122.3928205,,30.167439,0.1,175.37732,1590701374438
Fix,GT,37.6975063,-122.3927618,,30.328903,0.1,175.54321,1590701375438
Fix,GT,37.6972365,-122.3927029,,30.420376,0.1,175.4242,1590701376438
Fix,GT,37.6969671,-122.3926429,,30.303102,0.1,175.20148,1590701377438
Fix,GT,37.6966996,-122.3925824,,30.026558,0.1,175.13702,1590701378438
Fix,GT,37.6964343,-122.3925224,,29.801632,0.1,175.14014,1590701379438
Fix,GT,37.6961707,-122.3924626,,29.686274,0.1,175.06561,1590701380438
Fix,GT,37.6959081,-122.3924025,,29.565674,0.1,175.0304,1590701381438
Fix,GT,37.6956468,-122.3923429,,29.348736,0.1,175.15771,1590701382438
Fix,GT,37.6953877,-122.3922848,,29.049147,0.1,175.25446,1590701383438
Fix,GT,37.6951316,-122.3922273,,28.698444,0.1,175.18372,1590701384438
Fix,GT,37.6948788,-122.3921701,,28.320332,0.1,175.13062,1590701385438
Fix,GT,37.6946294,-122.3921137,,27.923182,0.1,175.16864,1590701386438
Fix,GT,37.6943837,-122.3920584,,27.466492,0.1,175.22144,1590701387438
Fix,GT,37.6941417,-122.3920044,,27.090492,0.1,175.29315,1590701388438
Fix,GT,37.6939022,-122.391951,,26.971756,0.1,175.24841,1590701389438
Fix,GT,37.6936628,-122.3918972,,27.032063,0.1,175.18,1590701390438
Fix,GT,37.6934223,-122.391843,,27.20141,0.1,175.1217,1590701391438
Fix,GT,37.6931803,-122.391788,,27.387356,0.1,175.04993,1590701392438
Fix,GT,37.692937,-122.3917323,,27.484055,0.1,174.97534,1590701393438
Fix,GT,37.6926938,-122.3916758,,27.38376,0.1,174.73462,1590701394438
Fix,GT,37.6924524,-122.3916193,,27.149158,0.1,174.89587,1590701395438
Fix,GT,37.6922117,-122.3915652,,27.143227,0.1,175.46039,1590701396438
Fix,GT,37.69197,-122.3915125,,27.31276,0.1,175.57147,1590701397438
Fix,GT,37.6917268,-122.3914596,,27.486324,0.1,175.52148,1590701398438
Fix,GT,37.691482,-122.3914056,,27.674206,0.1,175.29602,1590701399438
Fix,GT,37.691236,-122.3913499,,27.834572,0.1,175.01672,1590701400438
Fix,GT,37.6909888,-122.391293,,27.916729,0.1,174.98132,1590701401438
Fix,GT,37.6907412,-122.3912364,,27.931711,0.1,175.17444,1590701402438
Fix,GT,37.6904933,-122.3911806,,28.00619,0.1,175.19196,1590701403438
Fix,GT,37.6902443,-122.3911246,,28.165585,0.1,175.22974,1590701404438
Fix,GT,37.6899938,-122.3910684,,28.327116,0.1,175.26947,1590701405438
Fix,GT,37.6897418,-122.3910121,,28.479347,0.1,175.25183,1590701406438
Fix,GT,37.6894885,-122.3909553,,28.64455,0.1,175.23749,1590701407438
Fix,GT,37.6892336,-122.3908981,,28.825016,0.1,175.21875,1590701408438
Fix,GT,37.6889774,-122.3908404,,28.947933,0.1,175.19714,1590701409438
Fix,GT,37.6887209,-122.3907824,,28.899479,0.1,175.10742,1590701410438
Fix,GT,37.6884652,-122.3907242,,28.79338,0.1,175.05939,1590701411438
Fix,GT,37.6882098,-122.390666,,28.865292,0.1,175.11487,1590701412438
Fix,GT,37.6879529,-122.3906083,,29.084328,0.1,175.22626,1590701413438
Fix,GT,37.6876938,-122.39055,,29.308514,0.1,175.15063,1590701414438
Fix,GT,37.687433,-122.3904905,,29.506392,0.1,175.02313,1590701415438
Fix,GT,37.6871706,-122.3904304,,29.684162,0.1,175.07947,1590701416438
Fix,GT,37.6869068,-122.3903702,,29.81831,0.1,175.07416,1590701417438
Fix,GT,37.6866419,-122.3903101,,29.910717,0.1,175.125,1590701418438
Fix,GT,37.6863764,-122.3902506,,29.96249,0.1,175.23462,1590701419438
Fix,GT,37.686111,-122.390191,,29.851822,0.1,175.20471,1590701420438
Fix,GT,37.685847,-122.3901314,,29.690193,0.1,175.13336,1590701421438
Fix,GT,37.685584,-122.3900719,,29.633709,0.1,175.13739,1590701422438
Fix,GT,37.6853215,-122.3900129,,29.560919,0.1,175.24176,1590701423438
Fix,GT,37.6850594,-122.3899543,,29.527351,0.1,175.21356,1590701424438
Fix,GT,37.6847975,-122.3898951,,29.562712,0.1,175.10583,1590701425438
Fix,GT,37.6845351,-122.3898355,,29.621624,0.1,175.06152,1590701426438
Fix,GT,37.6842723,-122.3897757,,29.654888,0.1,175.10437,1590701427438
Fix,GT,37.6840092,-122.3897165,,29.69774,0.1,175.2533,1590701428438
Fix,GT,37.6837451,-122.3896581,,29.805264,0.1,175.4007,1590701429438
Fix,GT,37.6834804,-122.3895992,,29.841576,0.1,175.16931,1590701430438
Fix,GT,37.6832166,-122.389539,,29.647194,0.1,174.9325,1590701431438
Fix,GT,37.6829553,-122.3894789,,29.302578,0.1,175.06091,1590701432438
Fix,GT,37.682697,-122.3894209,,28.93261,0.1,175.25366,1590701433438
Fix,GT,37.682442,-122.3893642,,28.518888,0.1,175.2815,1590701434438
Fix,GT,37.6821912,-122.3893074,,28.05495,0.1,174.94153,1590701435438
Fix,GT,37.6819448,-122.3892502,,27.56741,0.1,174.74152,1590701436438
Fix,GT,37.681703,-122.3891931,,27.056416,0.1,174.59613,1590701437438
Fix,GT,37.6814657,-122.3891361,,26.575573,0.1,174.29968,1590701438438
Fix,GT,37.6812327,-122.3890784,,26.164242,0.1,174.0149,1590701439438
Fix,GT,37.6810026,-122.3890201,,26.01567,0.1,173.83527,1590701440438
Fix,GT,37.6807722,-122.3889616,,26.17714,0.1,174.03796,1590701441438
Fix,GT,37.6805397,-122.3889046,,26.373672,0.1,174.45856,1590701442438
Fix,GT,37.6803056,-122.3888487,,26.519241,0.1,174.66272,1590701443438
Fix,GT,37.6800699,-122.3887938,,26.671238,0.1,174.96173,1590701444438
Fix,GT,37.6798324,-122.3887409,,26.836285,0.1,175.62317,1590701445438
Fix,GT,37.679593,-122.3886918,,26.966465,0.1,176.44275,1590701446438
Fix,GT,37.6793521,-122.3886471,,27.074327,0.1,177.37451,1590701447438
Fix,GT,37.6791097,-122.3886086,,27.108908,0.1,178.805,1590701448438
Fix,GT,37.6788667,-122.388579,,27.116543,0.1,180.73975,1590701449438
Fix,GT,37.6786222,-122.38856,,27.269012,0.1,182.7494,1590701450438
Fix,GT,37.6783763,-122.3885515,,27.278786,0.1,184.76382,1590701451438
Fix,GT,37.6781314,-122.388554,,27.034908,0.1,186.75133,1590701452438
Fix,GT,37.6778895,-122.3885663,,26.663326,0.1,188.42331,1590701453438
Fix,GT,37.6776516,-122.3885864,,26.237127,0.1,189.85133,1590701454438
Fix,GT,37.6774182,-122.3886134,,25.769636,0.1,191.24057,1590701455438
Fix,GT,37.6771896,-122.3886467,,25.270355,0.1,192.6072,1590701456438
Fix,GT,37.6769663,-122.3886866,,24.860367,0.1,194.25583,1590701457438
Fix,GT,37.6767468,-122.3887354,,24.650368,0.1,196.3305,1590701458438
Fix,GT,37.6765301,-122.3887933,,24.485706,0.1,198.07056,1590701459438
Fix,GT,37.6763164,-122.3888573,,24.272425,0.1,199.33208,1590701460438
Fix,GT,37.6761056,-122.3889264,,24.062714,0.1,200.55092,1590701461438
Fix,GT,37.6758979,-122.3890008,,23.88105,0.1,201.91524,1590701462438
Fix,GT,37.6756929,-122.3890814,,23.814678,0.1,203.42271,1590701463438
Fix,GT,37.6754896,-122.3891679,,23.860374,0.1,204.50002,1590701464438
Fix,GT,37.6752867,-122.3892578,,23.936092,0.1,204.94698,1590701465438
Fix,GT,37.6750835,-122.38935,,24.021172,0.1,205.4917,1590701466438
Fix,GT,37.6748802,-122.3894456,,24.146317,0.1,206.14452,1590701467438
Fix,GT,37.6746769,-122.3895438,,24.156425,0.1,206.56046,1590701468438
Fix,GT,37.674475,-122.3896436,,23.960415,0.1,207.04901,1590701469438
Fix,GT,37.6742758,-122.389745,,23.770649,0.1,207.74559,1590701470438
Fix,GT,37.6740785,-122.3898494,,23.756344,0.1,208.5634,1590701471438
Fix,GT,37.6738823,-122.3899567,,23.718401,0.1,209.056,1590701472438
Fix,GT,37.6736876,-122.3900653,,23.537401,0.1,209.47243,1590701473438
Fix,GT,37.6734953,-122.3901758,,23.37736,0.1,210.30646,1590701474438
Fix,GT,37.6733056,-122.3902891,,23.266232,0.1,211.00261,1590701475438
Fix,GT,37.6731173,-122.390404,,23.181015,0.1,211.47394,1590701476438
Fix,GT,37.6729303,-122.3905206,,23.132267,0.1,211.97255,1590701477438
Fix,GT,37.6727443,-122.3906393,,23.163063,0.1,212.52116,1590701478438
Fix,GT,37.6725586,-122.3907603,,23.24025,0.1,212.99837,1590701479438
Fix,GT,37.6723734,-122.3908831,,23.26046,0.1,213.3271,1590701480438
Fix,GT,37.6721893,-122.3910084,,23.196728,0.1,214.18909,1590701481438
Fix,GT,37.6720075,-122.3911377,,23.126554,0.1,215.40956,1590701482438
Fix,GT,37.6718279,-122.3912698,,23.045681,0.1,215.87396,1590701483438
Fix,GT,37.6716497,-122.3914027,,22.875786,0.1,216.1236,1590701484438
Fix,GT,37.6714742,-122.391535,,22.53382,0.1,216.56964,1590701485438
Fix,GT,37.6713024,-122.3916679,,22.272152,0.1,217.43741,1590701486438
Fix,GT,37.6711338,-122.3918037,,22.195911,0.1,218.37823,1590701487438
Fix,GT,37.6709664,-122.3919421,,22.322676,0.1,218.98311,1590701488438
Fix,GT,37.6707983,-122.3920836,,22.582891,0.1,219.36536,1590701489438
Fix,GT,37.6706288,-122.3922282,,22.832943,0.1,219.70898,1590701490438
Fix,GT,37.670458,-122.3923756,,23.165493,0.1,220.02844,1590701491438
Fix,GT,37.6702851,-122.392527,,23.640984,0.1,220.406,1590701492438
Fix,GT,37.6701092,-122.3926837,,24.203506,0.1,220.96857,1590701493438
Fix,GT,37.6699305,-122.3928466,,24.752789,0.1,221.73546,1590701494438
Fix,GT,37.6697501,-122.3930162,,25.198898,0.1,222.58522,1590701495438
Fix,GT,37.6695686,-122.3931917,,25.545374,0.1,223.25868,1590701496438
Fix,GT,37.6693862,-122.3933707,,25.779633,0.1,223.41766,1590701497438
Fix,GT,37.6692024,-122.3935497,,25.74939,0.1,222.88298,1590701498438
Fix,GT,37.6690185,-122.3937256,,25.520401,0.1,222.44496,1590701499438
Fix,GT,37.6688355,-122.3938996,,25.440145,0.1,222.59956,1590701500438
Fix,GT,37.6686526,-122.3940748,,25.567429,0.1,222.76411,1590701501438
Fix,GT,37.6684695,-122.3942509,,25.613173,0.1,222.81813,1590701502438
Fix,GT,37.668286,-122.3944275,,25.66504,0.1,222.77245,1590701503438
Fix,GT,37.6681018,-122.3946041,,25.745436,0.1,222.72803,1590701504438
Fix,GT,37.6679178,-122.3947808,,25.656496,0.1,222.91214,1590701505438
Fix,GT,37.6677353,-122.3949579,,25.481215,0.1,223.15517,1590701506438
Fix,GT,37.6675548,-122.3951334,,25.145039,0.1,223.00368,1590701507438
Fix,GT,37.6673764,-122.3953056,,24.756706,0.1,222.80565,1590701508438
Fix,GT,37.6672005,-122.3954749,,24.424011,0.1,222.86345,1590701509438
Fix,GT,37.6670264,-122.3956429,,24.31443,0.1,222.93576,1590701510438
Fix,GT,37.6668524,-122.3958113,,24.439596,0.1,222.9489,1590701511438
Fix,GT,37.6666773,-122.3959805,,24.574692,0.1,222.86456,1590701512438
Fix,GT,37.6665013,-122.3961494,,24.544088,0.1,222.60764,1590701513438
Fix,GT,37.6663263,-122.3963158,,24.080563,0.1,222.55023,1590701514438
Fix,GT,37.666156,-122.3964793,,23.439472,0.1,222.95332,1590701515438
Fix,GT,37.6659907,-122.3966405,,23.013653,0.1,223.37085,1590701516438
Fix,GT,37.6658286,-122.3968005,,22.696098,0.1,223.71881,1590701517438
Fix,GT,37.6656696,-122.39696,,22.494667,0.1,224.29715,1590701518438
Fix,GT,37.6655136,-122.3971216,,22.407011,0.1,225.46054,1590701519438
Fix,GT,37.6653615,-122.3972865,,22.08445,0.1,226.71368,1590701520438
Fix,GT,37.6652149,-122.3974502,,21.369164,0.1,227.3337,1590701521438
Fix,GT,37.6650758,-122.3976096,,20.355396,0.1,228.14922,1590701522438
Fix,GT,37.6649466,-122.3977629,,19.028925,0.1,229.21274,1590701523438
Fix,GT,37.6648287,-122.3979071,,17.42432,0.1,229.89035,1590701524438
Fix,GT,37.6647226,-122.3980388,,15.625227,0.1,230.2002,1590701525438
Fix,GT,37.6646275,-122.398158,,14.279173,0.1,230.47691,1590701526438
Fix,GT,37.6645391,-122.3982702,,13.663423,0.1,230.87256,1590701527438
Fix,GT,37.6644547,-122.3983797,,13.183889,0.1,231.52092,1590701528438
Fix,GT,37.6643745,-122.3984859,,12.651299,0.1,232.20221,1590701529438
Fix,GT,37.6642983,-122.3985893,,12.260873,0.1,232.79129,1590701530438
Fix,GT,37.6642248,-122.3986908,,11.990925,0.1,233.21497,1590701531438
Fix,GT,37.664153,-122.398791,,11.8286,0.1,233.50919,1590701532438
Fix,GT,37.6640822,-122.3988907,,11.724578,0.1,233.76694,1590701533438
Fix,GT,37.6640127,-122.3989898,,11.6322,0.1,234.1313,1590701534438
Fix,GT,37.663944,-122.3990892,,11.625584,0.1,234.6904,1590701535438
Fix,GT,37.663876,-122.39919,,11.702176,0.1,235.30136,1590701536438
Fix,GT,37.6638083,-122.3992923,,11.758858,0.1,235.90137,1590701537438
Fix,GT,37.6637413,-122.3993956,,11.766245,0.1,236.34442,1590701538438
Fix,GT,37.6636747,-122.3994991,,11.733583,0.1,236.5348,1590701539438
Fix,GT,37.6636085,-122.3996024,,11.649235,0.1,236.61182,1590701540438
Fix,GT,37.663543,-122.3997047,,11.528908,0.1,236.62357,1590701541438
Fix,GT,37.6634782,-122.3998059,,11.418831,0.1,236.60045,1590701542438
Fix,GT,37.663414,-122.399906,,11.283569,0.1,236.49957,1590701543438
Fix,GT,37.6633508,-122.400004,,10.949837,0.1,236.266,1590701544438
Fix,GT,37.6632895,-122.4000981,,10.49861,0.1,236.17606,1590701545438
Fix,GT,37.6632309,-122.4001889,,10.131119,0.1,236.54948,1590701546438
Fix,GT,37.6631754,-122.4002766,,9.65113,0.1,237.00533,1590701547438
Fix,GT,37.6631226,-122.4003607,,9.261915,0.1,237.11992,1590701548438
Fix,GT,37.6630711,-122.4004423,,9.141236,0.1,236.95392,1590701549438
Fix,GT,37.6630198,-122.4005226,,9.038271,0.1,236.50536,1590701550438
Fix,GT,37.6629688,-122.4006016,,8.927446,0.1,236.23607,1590701551438
Fix,GT,37.6629179,-122.4006802,,8.973907,0.1,236.45166,1590701552438
Fix,GT,37.6628666,-122.4007607,,9.218301,0.1,236.83908,1590701553438
Fix,GT,37.6628145,-122.4008431,,9.310737,0.1,236.89682,1590701554438
Fix,GT,37.6627622,-122.4009247,,9.163453,0.1,236.4538,1590701555438
Fix,GT,37.6627106,-122.4010042,,8.942881,0.1,236.10858,1590701556438
Fix,GT,37.6626603,-122.4010818,,8.718475,0.1,236.28603,1590701557438
Fix,GT,37.6626112,-122.4011579,,8.576185,0.1,236.5672,1590701558438
Fix,GT,37.662563,-122.4012334,,8.493037,0.1,236.76941,1590701559438
Fix,GT,37.6625156,-122.4013076,,8.294434,0.1,236.6311,1590701560438
Fix,GT,37.6624692,-122.4013797,,8.08428,0.1,236.49054,1590701561438
Fix,GT,37.6624232,-122.401451,,8.234632,0.1,236.52615,1590701562438
Fix,GT,37.6623745,-122.401527,,9.122955,0.1,236.67754,1590701563438
Fix,GT,37.6623197,-122.4016133,,10.353859,0.1,236.92152,1590701564438
Fix,GT,37.6622588,-122.40171,,11.367493,0.1,237.2047,1590701565438
Fix,GT,37.6621928,-122.4018154,,12.29488,0.1,237.31665,1590701566438
Fix,GT,37.6621217,-122.4019288,,13.1833725,0.1,237.10446,1590701567438
Fix,GT,37.6620449,-122.4020494,,14.081449,0.1,236.66884,1590701568438
Fix,GT,37.6619624,-122.4021771,,14.964731,0.1,236.24594,1590701569438
Fix,GT,37.6618749,-122.4023119,,15.683354,0.1,236.2498,1590701570438
Fix,GT,37.661785,-122.4024513,,15.903236,0.1,236.57674,1590701571438
Fix,GT,37.6616956,-122.402591,,15.721676,0.1,236.68597,1590701572438
Fix,GT,37.6616071,-122.4027293,,15.661999,0.1,236.65749,1590701573438
Fix,GT,37.6615176,-122.402868,,15.954974,0.1,236.30647,1590701574438
Fix,GT,37.6614243,-122.4030095,,16.500998,0.1,235.448,1590701575438
Fix,GT,37.6613254,-122.4031534,,17.09272,0.1,234.03745,1590701576438
Fix,GT,37.66122,-122.4032985,,17.57343,0.1,232.48914,1590701577438
Fix,GT,37.6611097,-122.4034429,,17.719278,0.1,231.10591,1590701578438
Fix,GT,37.6609965,-122.4035841,,17.663078,0.1,229.72043,1590701579438
Fix,GT,37.6608815,-122.4037215,,17.56369,0.1,228.5398,1590701580438
Fix,GT,37.6607653,-122.4038554,,17.431648,0.1,227.56079,1590701581438
Fix,GT,37.660648,-122.4039856,,17.327785,0.1,226.48058,1590701582438
Fix,GT,37.6605286,-122.404113,,17.47345,0.1,225.32045,1590701583438
Fix,GT,37.6604056,-122.4042388,,17.711117,0.1,224.15868,1590701584438
Fix,GT,37.6602795,-122.4043618,,17.71194,0.1,222.58302,1590701585438
Fix,GT,37.6601508,-122.4044797,,17.693718,0.1,220.7981,1590701586438
Fix,GT,37.6600189,-122.4045934,,17.839565,0.1,219.41246,1590701587438
Fix,GT,37.6598835,-122.404705,,18.080168,0.1,218.26978,1590701588438
Fix,GT,37.6597453,-122.404814,,18.12303,0.1,217.0111,1590701589438
Fix,GT,37.6596052,-122.4049189,,18.094902,0.1,215.71599,1590701590438
Fix,GT,37.6594631,-122.4050205,,18.272953,0.1,214.65697,1590701591438
Fix,GT,37.6593171,-122.40512,,18.61539,0.1,213.40616,1590701592438
Fix,GT,37.6591665,-122.4052162,,18.896622,0.1,211.62791,1590701593438
Fix,GT,37.6590119,-122.4053075,,18.9872,0.1,209.87962,1590701594438
Fix,GT,37.6588554,-122.4053934,,18.928154,0.1,208.45375,1590701595438
Fix,GT,37.6586984,-122.4054753,,18.799358,0.1,207.71754,1590701596438
Fix,GT,37.6585421,-122.4055555,,18.688509,0.1,207.5592,1590701597438
Fix,GT,37.6583864,-122.4056351,,18.64014,0.1,207.53769,1590701598438
Fix,GT,37.6582308,-122.4057148,,18.68489,0.1,207.61299,1590701599438
Fix,GT,37.6580744,-122.4057954,,18.807251,0.1,207.76508,1590701600438
Fix,GT,37.6579171,-122.4058771,,18.99028,0.1,207.91985,1590701601438
Fix,GT,37.657758,-122.4059599,,19.23219,0.1,207.86496,1590701602438
Fix,GT,37.6575967,-122.406043,,19.459824,0.1,207.54169,1590701603438
Fix,GT,37.6574336,-122.4061259,,19.574469,0.1,207.36981,1590701604438
Fix,GT,37.65727,-122.4062089,,19.551056,0.1,207.47609,1590701605438
Fix,GT,37.6571073,-122.4062919,,19.444778,0.1,207.5815,1590701606438
Fix,GT,37.6569451,-122.4063747,,19.428377,0.1,207.57246,1590701607438
Fix,GT,37.6567822,-122.4064576,,19.580765,0.1,207.3847,1590701608438
Fix,GT,37.6566177,-122.4065394,,19.69028,0.1,206.64958,1590701609438
Fix,GT,37.6564518,-122.4066177,,19.63763,0.1,205.52058,1590701610438
Fix,GT,37.6562856,-122.406691,,19.480036,0.1,204.18066,1590701611438
Fix,GT,37.6561195,-122.4067582,,19.29747,0.1,202.58313,1590701612438
Fix,GT,37.6559535,-122.4068194,,19.11908,0.1,201.22003,1590701613438
Fix,GT,37.655788,-122.4068759,,18.965595,0.1,200.20729,1590701614438
Fix,GT,37.655623,-122.4069282,,18.809086,0.1,199.12549,1590701615438
Fix,GT,37.6554586,-122.4069759,,18.662659,0.1,197.94159,1590701616438
Fix,GT,37.6552944,-122.4070192,,18.588076,0.1,196.8143,1590701617438
Fix,GT,37.65513,-122.4070582,,18.542793,0.1,195.59215,1590701618438
Fix,GT,37.6549649,-122.4070925,,18.65509,0.1,194.30046,1590701619438
Fix,GT,37.6547973,-122.4071229,,18.972528,0.1,193.30443,1590701620438
Fix,GT,37.6546261,-122.4071505,,19.363209,0.1,192.37392,1590701621438
Fix,GT,37.6544509,-122.4071745,,19.78856,0.1,191.13716,1590701622438
Fix,GT,37.6542714,-122.4071939,,20.239967,0.1,189.78413,1590701623438
Fix,GT,37.6540872,-122.4072082,,20.741594,0.1,188.41861,1590701624438
Fix,GT,37.6538983,-122.4072175,,21.247086,0.1,187.10576,1590701625438
Fix,GT,37.6537047,-122.4072215,,21.763958,0.1,185.75987,1590701626438
Fix,GT,37.6535063,-122.4072194,,22.290447,0.1,184.30246,1590701627438
Fix,GT,37.6533035,-122.4072107,,22.766008,0.1,182.91019,1590701628438
Fix,GT,37.6530977,-122.407197,,23.007416,0.1,182.0462,1590701629438
Fix,GT,37.6528906,-122.4071805,,23.066637,0.1,181.6163,1590701630438
Fix,GT,37.6526827,-122.4071625,,23.204544,0.1,181.40088,1590701631438
Fix,GT,37.6524739,-122.4071435,,23.283337,0.1,181.23798,1590701632438
Fix,GT,37.6522649,-122.4071239,,23.234531,0.1,181.1102,1590701633438
Fix,GT,37.6520563,-122.4071046,,23.18143,0.1,181.28133,1590701634438
Fix,GT,37.6518481,-122.4070861,,23.091862,0.1,181.38226,1590701635438
Fix,GT,37.6516417,-122.4070677,,22.759556,0.1,181.42035,1590701636438
Fix,GT,37.6514393,-122.4070505,,22.248043,0.1,181.66699,1590701637438
Fix,GT,37.6512408,-122.4070349,,21.936348,0.1,181.70984,1590701638438
Fix,GT,37.6510443,-122.407019,,21.755165,0.1,181.6846,1590701639438
Fix,GT,37.6508494,-122.4070032,,21.616013,0.1,181.70387,1590701640438
Fix,GT,37.650655,-122.4069871,,21.635311,0.1,181.4079,1590701641438
Fix,GT,37.6504605,-122.4069694,,21.681156,0.1,181.20697,1590701642438
Fix,GT,37.6502655,-122.4069515,,21.72443,0.1,181.28587,1590701643438
Fix,GT,37.65007,-122.4069339,,21.77819,0.1,181.16559,1590701644438
Fix,GT,37.6498745,-122.4069149,,21.727486,0.1,180.92949,1590701645438
Fix,GT,37.64968,-122.4068963,,21.5836,0.1,181.27963,1590701646438
Fix,GT,37.6494862,-122.4068796,,21.534695,0.1,181.66182,1590701647438
Fix,GT,37.6492925,-122.4068637,,21.552483,0.1,181.64447,1590701648438
Fix,GT,37.6490987,-122.4068472,,21.572556,0.1,181.42389,1590701649438
Fix,GT,37.6489049,-122.4068293,,21.558405,0.1,180.97568,1590701650438
Fix,GT,37.6487114,-122.4068103,,21.544502,0.1,180.95029,1590701651438
Fix,GT,37.6485172,-122.4067922,,21.705103,0.1,181.41646,1590701652438
Fix,GT,37.6483206,-122.4067759,,22.047874,0.1,181.73341,1590701653438
Fix,GT,37.6481213,-122.4067607,,22.236916,0.1,181.90712,1590701654438
Fix,GT,37.6479216,-122.4067445,,22.110008,0.1,181.58617,1590701655438
Fix,GT,37.6477237,-122.4067277,,21.920261,0.1,181.58708,1590701656438
Fix,GT,37.6475266,-122.4067118,,21.958527,0.1,181.87128,1590701657438
Fix,GT,37.6473282,-122.4066965,,22.180954,0.1,181.83784,1590701658438
Fix,GT,37.6471277,-122.4066802,,22.440638,0.1,181.52545,1590701659438
Fix,GT,37.6469249,-122.406662,,22.710148,0.1,181.22134,1590701660438
Fix,GT,37.6467198,-122.4066428,,22.947868,0.1,181.16106,1590701661438
Fix,GT,37.6465125,-122.4066237,,23.189873,0.1,181.29723,1590701662438
Fix,GT,37.6463028,-122.4066051,,23.437836,0.1,181.43257,1590701663438
Fix,GT,37.6460912,-122.4065866,,23.649029,0.1,181.43182,1590701664438
Fix,GT,37.645878,-122.4065675,,23.781054,0.1,181.23778,1590701665438
Fix,GT,37.6456646,-122.4065474,,23.707382,0.1,181.0513,1590701666438
Fix,GT,37.6454526,-122.4065272,,23.477749,0.1,181.15088,1590701667438
Fix,GT,37.6452434,-122.4065083,,22.998775,0.1,181.40752,1590701668438
Fix,GT,37.6450401,-122.4064909,,22.226984,0.1,181.59985,1590701669438
Fix,GT,37.6448433,-122.4064749,,21.57476,0.1,181.67314,1590701670438
Fix,GT,37.6446515,-122.406459,,21.08129,0.1,181.54172,1590701671438
Fix,GT,37.6444635,-122.4064427,,20.905645,0.1,181.35042,1590701672438
Fix,GT,37.6442746,-122.4064261,,21.222729,0.1,181.40868,1590701673438
Fix,GT,37.6440813,-122.4064095,,21.77631,0.1,181.59555,1590701674438
Fix,GT,37.6438833,-122.406393,,22.241066,0.1,181.5652,1590701675438
Fix,GT,37.6436817,-122.4063756,,22.616627,0.1,181.38936,1590701676438
Fix,GT,37.6434767,-122.406357,,23.056015,0.1,181.21474,1590701677438
Fix,GT,37.6432675,-122.4063375,,23.527891,0.1,181.11696,1590701678438
Fix,GT,37.6430541,-122.4063172,,23.950008,0.1,181.07889,1590701679438
Fix,GT,37.6428374,-122.4062967,,24.275473,0.1,181.24422,1590701680438
Fix,GT,37.6426181,-122.4062771,,24.49852,0.1,181.50864,1590701681438
Fix,GT,37.6423972,-122.406258,,24.648891,0.1,181.54883,1590701682438
Fix,GT,37.6421752,-122.4062387,,24.736252,0.1,181.45987,1590701683438
Fix,GT,37.6419528,-122.406218,,24.81975,0.1,181.00272,1590701684438
Fix,GT,37.6417295,-122.4061935,,24.962067,0.1,179.9352,1590701685438
Fix,GT,37.6415052,-122.4061632,,25.142958,0.1,178.6847,1590701686438
Fix,GT,37.6412797,-122.4061264,,25.340467,0.1,177.42389,1590701687438
Fix,GT,37.6410532,-122.4060832,,25.507381,0.1,176.21692,1590701688438
Fix,GT,37.6408265,-122.4060343,,25.505718,0.1,175.185,1590701689438
Fix,GT,37.6406014,-122.4059803,,25.352728,0.1,174.08679,1590701690438
Fix,GT,37.6403789,-122.4059209,,25.144894,0.1,172.72626,1590701691438
Fix,GT,37.6401596,-122.4058556,,24.882122,0.1,171.46289,1590701692438
Fix,GT,37.639944,-122.4057859,,24.55112,0.1,170.66296,1590701693438
Fix,GT,37.6397321,-122.4057138,,24.194155,0.1,169.96484,1590701694438
Fix,GT,37.6395239,-122.4056391,,23.874409,0.1,169.02936,1590701695438
Fix,GT,37.6393194,-122.4055612,,23.580982,0.1,168.16486,1590701696438
Fix,GT,37.6391184,-122.4054804,,23.272238,0.1,167.23138,1590701697438
Fix,GT,37.638921,-122.4053965,,22.986511,0.1,166.37659,1590701698438
Fix,GT,37.6387265,-122.4053106,,22.815304,0.1,165.784,1590701699438
Fix,GT,37.6385331,-122.4052224,,22.893053,0.1,165.057,1590701700438
Fix,GT,37.6383393,-122.4051296,,23.151333,0.1,164.18274,1590701701438
Fix,GT,37.6381445,-122.4050324,,23.341179,0.1,163.43927,1590701702438
Fix,GT,37.6379495,-122.4049318,,23.453873,0.1,162.81824,1590701703438
Fix,GT,37.6377544,-122.4048292,,23.517212,0.1,162.54602,1590701704438
Fix,GT,37.6375593,-122.4047261,,23.416878,0.1,162.55255,1590701705438
Fix,GT,37.6373652,-122.4046235,,23.347153,0.1,162.50195,1590701706438
Fix,GT,37.637171,-122.4045204,,23.482204,0.1,162.42657,1590701707438
Fix,GT,37.6369748,-122.4044168,,23.74551,0.1,162.59705,1590701708438
Fix,GT,37.6367763,-122.4043127,,24.002289,0.1,162.87659,1590701709438
Fix,GT,37.6365751,-122.4042092,,24.257484,0.1,163.34344,1590701710438
Fix,GT,37.6363706,-122.404108,,24.537739,0.1,164.45398,1590701711438
Fix,GT,37.6361618,-122.4040114,,24.840736,0.1,165.78009,1590701712438
Fix,GT,37.6359489,-122.4039195,,25.080956,0.1,166.88574,1590701713438
Fix,GT,37.6357338,-122.4038311,,25.11035,0.1,167.58789,1590701714438
Fix,GT,37.6355184,-122.4037466,,24.96222,0.1,168.45068,1590701715438
Fix,GT,37.6353027,-122.4036668,,24.979424,0.1,169.5075,1590701716438
Fix,GT,37.6350846,-122.4035916,,25.222057,0.1,170.47437,1590701717438
Fix,GT,37.6348633,-122.4035195,,25.490973,0.1,171.2489,1590701718438
Fix,GT,37.6346388,-122.4034508,,25.783997,0.1,172.28949,1590701719438
Fix,GT,37.6344105,-122.4033876,,26.101196,0.1,173.54803,1590701720438
Fix,GT,37.6341785,-122.4033295,,26.394407,0.1,174.62756,1590701721438
Fix,GT,37.6339432,-122.4032762,,26.66111,0.1,175.70996,1590701722438
Fix,GT,37.6337049,-122.4032279,,26.878109,0.1,176.74817,1590701723438
Fix,GT,37.6334648,-122.403185,,26.910776,0.1,177.81555,1590701724438
Fix,GT,37.6332241,-122.4031472,,26.960274,0.1,178.64447,1590701725438
Fix,GT,37.6329816,-122.4031121,,27.225723,0.1,179.1095,1590701726438
Fix,GT,37.6327365,-122.40308,,27.480724,0.1,179.71143,1590701727438
Fix,GT,37.6324892,-122.4030509,,27.63343,0.1,180.34978,1590701728438
Fix,GT,37.6322411,-122.4030238,,27.577393,0.1,180.51208,1590701729438
Fix,GT,37.6319946,-122.402997,,27.310598,0.1,180.31186,1590701730438
Fix,GT,37.6317512,-122.4029696,,26.967442,0.1,180.23401,1590701731438
Fix,GT,37.6315102,-122.4029425,,26.798746,0.1,180.38828,1590701732438
Fix,GT,37.63127,-122.4029162,,26.718178,0.1,180.36615,1590701733438
Fix,GT,37.6310312,-122.4028891,,26.488022,0.1,180.0523,1590701734438
Fix,GT,37.6307952,-122.402861,,26.165749,0.1,179.9613,1590701735438
Fix,GT,37.630562,-122.4028337,,25.83183,0.1,180.21564,1590701736438
Fix,GT,37.6303318,-122.4028075,,25.463501,0.1,180.17812,1590701737438
Fix,GT,37.6301052,-122.4027807,,25.103764,0.1,179.95056,1590701738438
Fix,GT,37.629881,-122.4027545,,24.872986,0.1,180.16309,1590701739438
Fix,GT,37.629658,-122.4027292,,24.879368,0.1,180.37578,1590701740438
Fix,GT,37.6294342,-122.4027041,,24.976545,0.1,180.28749,1590701741438
Fix,GT,37.6292096,-122.4026783,,25.089699,0.1,180.1235,1590701742438
Fix,GT,37.6289839,-122.4026508,,25.258116,0.1,179.7409,1590701743438
Fix,GT,37.6287565,-122.4026211,,25.470053,0.1,179.25885,1590701744438
Fix,GT,37.6285276,-122.4025875,,25.687805,0.1,178.28796,1590701745438
Fix,GT,37.6282976,-122.4025476,,25.883368,0.1,176.91602,1590701746438
Fix,GT,37.6280666,-122.4025008,,26.053587,0.1,175.73865,1590701747438
Fix,GT,37.6278349,-122.4024478,,26.255203,0.1,174.56598,1590701748438
Fix,GT,37.6276022,-122.4023882,,26.493868,0.1,173.2666,1590701749438
Fix,GT,37.6273686,-122.4023208,,26.727335,0.1,171.7699,1590701750438
Fix,GT,37.6271341,-122.4022457,,26.997818,0.1,170.51648,1590701751438
Fix,GT,37.6268987,-122.4021649,,27.143723,0.1,169.85376,1590701752438
Fix,GT,37.626663,-122.4020816,,27.215572,0.1,169.60724,1590701753438
Fix,GT,37.626426,-122.4019978,,27.454985,0.1,169.8883,1590701754438
Fix,GT,37.6261872,-122.4019153,,27.506641,0.1,170.16809,1590701755438
Fix,GT,37.6259486,-122.4018341,,27.315853,0.1,170.38159,1590701756438
Fix,GT,37.6257119,-122.401754,,27.097809,0.1,170.4624,1590701757438
Fix,GT,37.6254766,-122.4016751,,27.007826,0.1,170.63953,1590701758438
Fix,GT,37.6252408,-122.4015969,,27.134426,0.1,170.71014,1590701759438
Fix,GT,37.6250039,-122.4015179,,27.272774,0.1,170.5094,1590701760438
Fix,GT,37.6247659,-122.4014386,,27.374355,0.1,170.58301,1590701761438
Fix,GT,37.6245269,-122.4013594,,27.472748,0.1,170.66876,1590701762438
Fix,GT,37.6242875,-122.4012804,,27.456371,0.1,170.65057,1590701763438
Fix,GT,37.624049,-122.4012018,,27.211193,0.1,170.64087,1590701764438
Fix,GT,37.6238144,-122.4011244,,26.575203,0.1,170.62683,1590701765438
Fix,GT,37.6235878,-122.4010492,,25.343147,0.1,170.505,1590701766438
Fix,GT,37.6233736,-122.4009773,,23.882252,0.1,170.46246,1590701767438
Fix,GT,37.6231715,-122.4009095,,22.610844,0.1,170.34546,1590701768438
Fix,GT,37.6229802,-122.4008445,,21.3708,0.1,170.06348,1590701769438
Fix,GT,37.6228008,-122.4007824,,19.885517,0.1,169.94507,1590701770438
Fix,GT,37.622635,-122.4007249,,18.428469,0.1,169.96417,1590701771438
Fix,GT,37.6224794,-122.4006709,,17.593292,0.1,169.91058,1590701772438
Fix,GT,37.6223279,-122.4006188,,17.260492,0.1,170.1308,1590701773438
Fix,GT,37.6221791,-122.4005682,,16.96648,0.1,170.27618,1590701774438
Fix,GT,37.6220321,-122.4005185,,16.887318,0.1,170.34375,1590701775438
Fix,GT,37.6218843,-122.4004688,,17.154613,0.1,170.46155,1590701776438
Fix,GT,37.6217328,-122.4004184,,17.63715,0.1,170.58368,1590701777438
Fix,GT,37.6215778,-122.400367,,17.905533,0.1,170.55286,1590701778438
Fix,GT,37.6214219,-122.4003147,,17.86947,0.1,170.26178,1590701779438
Fix,GT,37.6212669,-122.4002614,,17.841955,0.1,169.97656,1590701780438
Fix,GT,37.6211112,-122.4002074,,18.029343,0.1,169.97913,1590701781438
Fix,GT,37.6209533,-122.4001532,,18.319921,0.1,170.2041,1590701782438
Fix,GT,37.620793,-122.400099,,18.467548,0.1,170.4112,1590701783438
Fix,GT,37.6206321,-122.4000454,,18.463667,0.1,170.54712,1590701784438
Fix,GT,37.6204712,-122.3999921,,18.469893,0.1,170.63293,1590701785438
Fix,GT,37.62031,-122.3999388,,18.55176,0.1,170.63123,1590701786438
Fix,GT,37.6201475,-122.399885,,18.790482,0.1,170.5633,1590701787438
Fix,GT,37.6199822,-122.39983,,19.16954,0.1,170.50873,1590701788438
Fix,GT,37.6198135,-122.3997735,,19.567434,0.1,170.47253,1590701789438
Fix,GT,37.6196414,-122.3997158,,19.98328,0.1,170.4253,1590701790438
Fix,GT,37.6194655,-122.3996567,,20.428421,0.1,170.41693,1590701791438
Fix,GT,37.6192861,-122.3995965,,20.748692,0.1,170.44635,1590701792438
Fix,GT,37.6191052,-122.3995357,,20.778416,0.1,170.3869,1590701793438
Fix,GT,37.6189251,-122.3994748,,20.622967,0.1,170.28625,1590701794438
Fix,GT,37.6187459,-122.399414,,20.601696,0.1,170.25531,1590701795438
Fix,GT,37.6185659,-122.3993529,,20.826523,0.1,170.29633,1590701796438
Fix,GT,37.6183833,-122.3992912,,21.15123,0.1,170.40326,1590701797438
Fix,GT,37.6181978,-122.3992291,,21.45314,0.1,170.50928,1590701798438
Fix,GT,37.6180096,-122.3991664,,21.761805,0.1,170.60468,1590701799438
Fix,GT,37.6178186,-122.3991033,,22.047766,0.1,170.62268,1590701800438
Fix,GT,37.6176255,-122.3990393,,22.278362,0.1,170.49158,1590701801438
Fix,GT,37.6174304,-122.3989736,,22.577854,0.1,170.33759,1590701802438
Fix,GT,37.6172321,-122.3989061,,23.054974,0.1,170.15698,1590701803438
Fix,GT,37.6170293,-122.3988371,,23.58889,0.1,170.35779,1590701804438
Fix,GT,37.6168214,-122.3987681,,24.160166,0.1,170.85748,1590701805438
Fix,GT,37.6166087,-122.3986963,,24.757698,0.1,169.93506,1590701806438
Fix,GT,37.6163927,-122.3986156,,25.259636,0.1,167.9107,1590701807438
Fix,GT,37.6161754,-122.3985254,,25.524918,0.1,166.56848,1590701808438
Fix,GT,37.6159585,-122.3984292,,25.48251,0.1,165.47388,1590701809438
Fix,GT,37.6157446,-122.3983282,,25.225433,0.1,164.22473,1590701810438
Fix,GT,37.6155351,-122.3982226,,24.937584,0.1,162.97357,1590701811438
Fix,GT,37.6153298,-122.398112,,24.68453,0.1,161.42773,1590701812438
Fix,GT,37.6151289,-122.3979947,,24.521742,0.1,159.6966,1590701813438
Fix,GT,37.6149313,-122.3978712,,24.533073,0.1,158.3429,1590701814438
Fix,GT,37.6147349,-122.3977421,,24.718708,0.1,157.29211,1590701815438
Fix,GT,37.6145382,-122.3976071,,25.040169,0.1,156.26117,1590701816438
Fix,GT,37.6143406,-122.3974657,,25.460001,0.1,155.18097,1590701817438
Fix,GT,37.6141418,-122.3973172,,25.881203,0.1,154.12567,1590701818438
Fix,GT,37.6139424,-122.3971619,,26.25439,0.1,153.09155,1590701819438
Fix,GT,37.6137424,-122.3969994,,26.61809,0.1,151.80682,1590701820438
Fix,GT,37.6135429,-122.3968285,,26.97141,0.1,150.29053,1590701821438
Fix,GT,37.6133447,-122.3966487,,27.30098,0.1,148.74048,1590701822438
Fix,GT,37.6131485,-122.3964599,,27.563509,0.1,147.22711,1590701823438
Fix,GT,37.6129542,-122.3962637,,27.779325,0.1,145.9502,1590701824438
Fix,GT,37.6127623,-122.3960601,,27.961315,0.1,144.4566,1590701825438
Fix,GT,37.6125737,-122.3958489,,28.131443,0.1,143.06018,1590701826438
Fix,GT,37.612387,-122.3956321,,28.319204,0.1,142.22467,1590701827438
Fix,GT,37.612202,-122.3954098,,28.50408,0.1,141.05084,1590701828438
Fix,GT,37.6120195,-122.3951812,,28.685322,0.1,139.88205,1590701829438
Fix,GT,37.6118396,-122.3949465,,28.919243,0.1,138.64746,1590701830438
Fix,GT,37.6116621,-122.394704,,29.337675,0.1,137.2959,1590701831438
Fix,GT,37.6114859,-122.3944523,,29.851562,0.1,136.07419,1590701832438
Fix,GT,37.6113108,-122.3941922,,30.322693,0.1,135.14706,1590701833438
Fix,GT,37.6111358,-122.3939254,,30.746384,0.1,134.56717,1590701834438
Fix,GT,37.6109599,-122.3936532,,31.180975,0.1,134.2652,1590701835438
Fix,GT,37.6107824,-122.3933762,,31.617266,0.1,134.11108,1590701836438
Fix,GT,37.6106028,-122.3930955,,31.990063,0.1,134.09528,1590701837438
Fix,GT,37.6104216,-122.3928117,,32.253536,0.1,133.89795,1590701838438
Fix,GT,37.6102409,-122.3925255,,32.221764,0.1,133.55637,1590701839438
Fix,GT,37.6100621,-122.3922404,,31.877838,0.1,133.5827,1590701840438
Fix,GT,37.6098842,-122.3919589,,31.634266,0.1,133.91577,1590701841438
Fix,GT,37.6097059,-122.3916795,,31.63632,0.1,134.09949,1590701842438
Fix,GT,37.6095266,-122.3914004,,31.712585,0.1,134.32098,1590701843438
Fix,GT,37.6093463,-122.3911215,,31.768574,0.1,134.4765,1590701844438
Fix,GT,37.6091655,-122.3908424,,31.790924,0.1,134.4065,1590701845438
Fix,GT,37.608985,-122.3905627,,31.7779,0.1,134.29211,1590701846438
Fix,GT,37.6088049,-122.3902833,,31.710285,0.1,134.31671,1590701847438
Fix,GT,37.6086251,-122.3900044,,31.66571,0.1,134.31818,1590701848438
Fix,GT,37.6084457,-122.389726,,31.583385,0.1,134.31427,1590701849438
Fix,GT,37.6082669,-122.389449,,31.372744,0.1,134.39545,1590701850438
Fix,GT,37.6080894,-122.3891748,,31.081877,0.1,134.48422,1590701851438
Fix,GT,37.6079131,-122.3889029,,30.879404,0.1,134.51984,1590701852438
Fix,GT,37.6077375,-122.3886324,,30.77742,0.1,134.58386,1590701853438
Fix,GT,37.6075622,-122.388363,,30.674856,0.1,134.61255,1590701854438
Fix,GT,37.6073875,-122.3880947,,30.55054,0.1,134.61548,1590701855438
Fix,GT,37.6072139,-122.3878272,,30.41433,0.1,134.46625,1590701856438
Fix,GT,37.6070412,-122.387561,,30.236649,0.1,134.63727,1590701857438
Fix,GT,37.6068685,-122.3872975,,30.022587,0.1,134.88953,1590701858438
Fix,GT,37.6066972,-122.3870362,,29.79737,0.1,134.69757,1590701859438
Fix,GT,37.6065269,-122.3867761,,29.711262,0.1,134.75629,1590701860438
Fix,GT,37.6063565,-122.3865164,,29.752808,0.1,134.8941,1590701861438
Fix,GT,37.6061858,-122.3862568,,29.67819,0.1,134.80481,1590701862438
Fix,GT,37.6060166,-122.3859982,,29.476147,0.1,134.6795,1590701863438
Fix,GT,37.6058485,-122.3857408,,29.320982,0.1,134.7338,1590701864438
Fix,GT,37.6056806,-122.385485,,29.270882,0.1,134.88531,1590701865438
Fix,GT,37.6055128,-122.3852296,,29.210531,0.1,134.71863,1590701866438
Fix,GT,37.6053466,-122.3849745,,28.956585,0.1,134.56366,1590701867438
Fix,GT,37.6051826,-122.3847224,,28.542725,0.1,134.63055,1590701868438
Fix,GT,37.6050209,-122.3844748,,28.005486,0.1,134.66257,1590701869438
Fix,GT,37.6048632,-122.3842332,,27.130272,0.1,134.66568,1590701870438
Fix,GT,37.6047112,-122.3839993,,26.216621,0.1,134.57544,1590701871438
Fix,GT,37.6045633,-122.383772,,25.701645,0.1,134.71832,1590701872438
Fix,GT,37.6044169,-122.3835491,,25.314344,0.1,134.84766,1590701873438
Fix,GT,37.6042732,-122.3833297,,24.887222,0.1,134.68402,1590701874438
Fix,GT,37.6041323,-122.3831134,,24.481823,0.1,134.4646,1590701875438
Fix,GT,37.6039943,-122.3828997,,24.154465,0.1,134.22388,1590701876438
Fix,GT,37.6038583,-122.3826884,,23.855236,0.1,134.32227,1590701877438
Fix,GT,37.6037233,-122.3824803,,23.601658,0.1,134.62021,1590701878438
Fix,GT,37.6035888,-122.3822743,,23.472404,0.1,134.63153,1590701879438
