MessageType,Provider,LatitudeDegrees,LongitudeDegrees,AltitudeMeters,SpeedMps,AccuracyMeters,BearingDegrees,UnixTimeMillis
Fix,GT,37.4159482,-122.0801333,,0.025493568,0.1,346.99893,1606178943999
Fix,GT,37.4159483,-122.080133,,0.03201289,0.1,347.00104,1606178944999
Fix,GT,37.4159481,-122.0801326,,0.18455735,0.1,346.99088,1606178945999
Fix,GT,37.4159433,-122.0801336,,0.8437719,0.1,344.6108,1606178946999
Fix,GT,37.415932,-122.0801358,,1.5714856,0.1,337.7827,1606178947999
Fix,GT,37.4159124,-122.0801368,,2.4108856,0.1,323.8683,1606178948999
Fix,GT,37.4158842,-122.0801279,,3.4171398,0.1,302.23572,1606178949999
Fix,GT,37.4158548,-122.0800959,,4.6815867,0.1,279.21332,1606178950999
Fix,GT,37.4158361,-122.0800371,,6.2333145,0.1,262.99066,1606178951999
Fix,GT,37.4158295,-122.0799591,,7.5698414,0.1,260.1355,1606178952999
Fix,GT,37.4158251,-122.0798714,,7.836589,0.1,258.36118,1606178953999
Fix,GT,37.4158226,-122.0797835,,7.644177,0.1,257.42282,1606178954999
Fix,GT,37.4158212,-122.0796979,,7.477969,0.1,257.05353,1606178955999
Fix,GT,37.4158202,-122.079614,,7.3154426,0.1,256.94217,1606178956999
Fix,GT,37.4158194,-122.0795345,,6.6584783,0.1,256.87823,1606178957999
Fix,GT,37.4158187,-122.0794652,,5.577668,0.1,256.7751,1606178958999
Fix,GT,37.4158197,-122.079407,,4.783005,0.1,262.60086,1606178959999
Fix,GT,37.4158187,-122.0793576,,4.0783763,0.1,281.15097,1606178960999
Fix,GT,37.415808,-122.0793151,,4.005538,0.1,308.38998,1606178961999
Fix,GT,37.4157782,-122.0792819,,5.126626,0.1,335.5227,1606178962999
Fix,GT,37.4157271,-122.0792718,,6.5808477,0.1,350.21124,1606178963999
Fix,GT,37.4156651,-122.0792785,,7.048553,0.1,352.43732,1606178964999
Fix,GT,37.4156051,-122.0792871,,6.322442,0.1,352.07846,1606178965999
Fix,GT,37.4155524,-122.0792951,,5.4602127,0.1,350.12424,1606178966999
Fix,GT,37.4155088,-122.0793012,,4.052459,0.1,341.71307,1606178967999
Fix,GT,37.4154754,-122.0793029,,3.1643426,0.1,326.61954,1606178968999
Fix,GT,37.4154446,-122.0792955,,3.3476374,0.1,305.80438,1606178969999
Fix,GT,37.4154127,-122.079268,,4.509015,0.1,278.8214,1606178970999
Fix,GT,37.4153934,-122.0792117,,5.845526,0.1,254.37437,1606178971999
Fix,GT,37.4153963,-122.0791403,,6.6838255,0.1,249.76776,1606178972999
Fix,GT,37.4154028,-122.0790613,,7.2238708,0.1,246.01064,1606178973999
Fix,GT,37.4154155,-122.0789779,,7.826152,0.1,239.89555,1606178974999
Fix,GT,37.4154371,-122.0788885,,8.66768,0.1,237.8397,1606178975999
Fix,GT,37.4154622,-122.0787928,,8.989412,0.1,238.01205,1606178976999
Fix,GT,37.4154868,-122.0786984,,8.42927,0.1,238.7997,1606178977999
Fix,GT,37.4155087,-122.0786119,,7.7510395,0.1,242.74377,1606178978999
Fix,GT,37.4155231,-122.0785332,,6.5345926,0.1,252.27762,1606178979999
Fix,GT,37.4155264,-122.0784671,,5.4147763,0.1,258.243,1606178980999
Fix,GT,37.4155251,-122.0784144,,3.9750826,0.1,261.95642,1606178981999
Fix,GT,37.4155227,-122.0783769,,2.6107962,0.1,265.34702,1606178982999
Fix,GT,37.415521,-122.0783556,,1.2942951,0.1,269.57584,1606178983999
Fix,GT,37.4155197,-122.0783394,,1.8623531,0.1,275.52902,1606178984999
Fix,GT,37.4155146,-122.0783065,,4.1883893,0.1,292.16748,1606178985999
Fix,GT,37.4154894,-122.0782601,,5.8746896,0.1,321.20312,1606178986999
Fix,GT,37.4154343,-122.0782328,,7.784054,0.1,345.38715,1606178987999
Fix,GT,37.4153558,-122.0782371,,9.63847,0.1,348.40564,1606178988999
Fix,GT,37.4152626,-122.078243,,11.130337,0.1,346.79428,1606178989999
Fix,GT,37.4151558,-122.0782457,,12.532948,0.1,346.06735,1606178990999
Fix,GT,37.4150368,-122.078247,,13.798603,0.1,346.3958,1606178991999
Fix,GT,37.4149088,-122.0782487,,14.618656,0.1,346.0263,1606178992999
Fix,GT,37.4147736,-122.0782498,,15.305895,0.1,345.69498,1606178993999
Fix,GT,37.414634,-122.0782494,,15.691231,0.1,346.54938,1606178994999
Fix,GT,37.4144912,-122.0782548,,16.000456,0.1,349.18997,1606178995999
Fix,GT,37.414346,-122.0782681,,16.269667,0.1,351.6728,1606178996999
Fix,GT,37.4142016,-122.0782889,,15.94852,0.1,353.34738,1606178997999
Fix,GT,37.4140614,-122.0783132,,15.456973,0.1,354.6196,1606178998999
Fix,GT,37.413926,-122.0783407,,14.939583,0.1,355.08936,1606178999999
Fix,GT,37.4137952,-122.0783669,,14.430134,0.1,354.19934,1606179000999
Fix,GT,37.4136678,-122.0783902,,14.216453,0.1,354.24634,1606179001999
Fix,GT,37.4135405,-122.0784142,,14.326501,0.1,354.67743,1606179002999
Fix,GT,37.4134111,-122.0784396,,14.677432,0.1,355.75348,1606179003999
Fix,GT,37.4132808,-122.0784714,,14.7316675,0.1,1.5867004,1606179004999
Fix,GT,37.413156,-122.0785223,,14.529751,0.1,10.561401,1606179005999
Fix,GT,37.4130384,-122.0785982,,14.972411,0.1,22.413055,1606179006999
Fix,GT,37.4129356,-122.0787084,,15.377993,0.1,38.09442,1606179007999
Fix,GT,37.4128585,-122.0788534,,15.821794,0.1,53.54904,1606179008999
Fix,GT,37.4128142,-122.0790235,,16.12379,0.1,67.97601,1606179009999
Fix,GT,37.4128016,-122.0792059,,16.58193,0.1,79.01166,1606179010999
Fix,GT,37.412818,-122.0793955,,17.426558,0.1,90.06879,1606179011999
Fix,GT,37.4128646,-122.079589,,18.587807,0.1,98.27704,1606179012999
Fix,GT,37.4129335,-122.0797875,,19.947912,0.1,101.643005,1606179013999
Fix,GT,37.4130179,-122.0799967,,21.583336,0.1,104.0293,1606179014999
Fix,GT,37.4131136,-122.0802174,,22.992224,0.1,105.4964,1606179015999
Fix,GT,37.4132196,-122.0804484,,24.156538,0.1,106.8461,1606179016999
Fix,GT,37.4133346,-122.0806864,,25.0539,0.1,107.61252,1606179017999
Fix,GT,37.4134541,-122.0809284,,25.245316,0.1,108.20709,1606179018999
Fix,GT,37.4135762,-122.0811678,,25.052837,0.1,110.15985,1606179019999
Fix,GT,37.4137065,-122.0813961,,24.809399,0.1,114.96985,1606179020999
Fix,GT,37.4138508,-122.0816106,,24.93533,0.1,117.933655,1606179021999
Fix,GT,37.4140021,-122.0818179,,24.81065,0.1,119.25116,1606179022999
Fix,GT,37.4141543,-122.0820222,,24.712055,0.1,118.793365,1606179023999
Fix,GT,37.414304,-122.0822292,,24.806833,0.1,116.924164,1606179024999
Fix,GT,37.4144461,-122.0824473,,25.008684,0.1,112.26715,1606179025999
Fix,GT,37.4145745,-122.0826817,,25.348587,0.1,108.38519,1606179026999
Fix,GT,37.4146936,-122.0829297,,25.904356,0.1,105.19293,1606179027999
Fix,GT,37.4148071,-122.0831893,,26.515736,0.1,103.84796,1606179028999
Fix,GT,37.41492,-122.0834565,,27.015528,0.1,104.10889,1606179029999
Fix,GT,37.4150386,-122.0837246,,27.289427,0.1,107.23697,1606179030999
Fix,GT,37.4151708,-122.0839846,,27.438555,0.1,110.32468,1606179031999
Fix,GT,37.4153141,-122.0842381,,27.654612,0.1,113.72101,1606179032999
Fix,GT,37.4154697,-122.0844837,,27.983757,0.1,115.48404,1606179033999
Fix,GT,37.4156331,-122.0847278,,28.499588,0.1,116.63623,1606179034999
Fix,GT,37.4158023,-122.0849748,,29.187271,0.1,116.518036,1606179035999
Fix,GT,37.4159749,-122.0852261,,29.567242,0.1,116.802185,1606179036999
Fix,GT,37.4161506,-122.0854785,,29.773947,0.1,117.48068,1606179037999
Fix,GT,37.4163292,-122.0857295,,29.834843,0.1,118.02408,1606179038999
Fix,GT,37.4165098,-122.0859803,,30.096716,0.1,117.6846,1606179039999
Fix,GT,37.4166908,-122.0862363,,30.516062,0.1,117.18753,1606179040999
Fix,GT,37.4168721,-122.0864982,,30.886753,0.1,116.43741,1606179041999
Fix,GT,37.4170532,-122.0867653,,31.080975,0.1,116.712494,1606179042999
Fix,GT,37.4172363,-122.0870301,,30.99821,0.1,117.64801,1606179043999
Fix,GT,37.4174237,-122.0872911,,31.273266,0.1,118.27606,1606179044999
Fix,GT,37.4176143,-122.087554,,31.607632,0.1,118.229614,1606179045999
Fix,GT,37.4178069,-122.0878193,,31.969093,0.1,118.282104,1606179046999
Fix,GT,37.4180017,-122.0880873,,32.24043,0.1,118.37393,1606179047999
Fix,GT,37.4181983,-122.0883577,,32.560062,0.1,118.1861,1606179048999
Fix,GT,37.4183958,-122.0886318,,32.855213,0.1,117.927155,1606179049999
Fix,GT,37.4185943,-122.088909,,33.091904,0.1,117.93222,1606179050999
Fix,GT,37.4187946,-122.0891869,,33.226273,0.1,118.449036,1606179051999
Fix,GT,37.4189974,-122.0894637,,33.32545,0.1,118.80899,1606179052999
Fix,GT,37.4192011,-122.0897397,,33.16747,0.1,118.80417,1606179053999
Fix,GT,37.4194028,-122.0900133,,32.810215,0.1,118.542206,1606179054999
Fix,GT,37.4196016,-122.0902858,,32.588417,0.1,118.30612,1606179055999
Fix,GT,37.419799,-122.0905572,,32.417084,0.1,118.42728,1606179056999
Fix,GT,37.4199959,-122.0908272,,32.37401,0.1,118.45178,1606179057999
Fix,GT,37.4201926,-122.0910968,,32.303555,0.1,118.48007,1606179058999
Fix,GT,37.4203883,-122.0913657,,32.09534,0.1,118.18851,1606179059999
Fix,GT,37.4205811,-122.0916332,,31.619215,0.1,118.09854,1606179060999
Fix,GT,37.4207673,-122.0918914,,29.845715,0.1,118.31537,1606179061999
Fix,GT,37.4209413,-122.0921317,,27.719124,0.1,118.35251,1606179062999
Fix,GT,37.4211078,-122.0923614,,27.305046,0.1,118.34976,1606179063999
Fix,GT,37.4212722,-122.0925885,,27.007267,0.1,118.372406,1606179064999
Fix,GT,37.4214367,-122.0928149,,27.280895,0.1,118.45413,1606179065999
Fix,GT,37.4216037,-122.0930441,,27.620047,0.1,118.77954,1606179066999
Fix,GT,37.4217732,-122.0932736,,27.661943,0.1,118.9577,1606179067999
Fix,GT,37.4219421,-122.0935014,,27.389986,0.1,119.031555,1606179068999
Fix,GT,37.4221095,-122.0937287,,27.344307,0.1,118.435486,1606179069999
Fix,GT,37.4222747,-122.0939574,,27.220007,0.1,118.01514,1606179070999
Fix,GT,37.4224383,-122.0941865,,27.213146,0.1,117.99249,1606179071999
Fix,GT,37.4226025,-122.0944159,,27.326113,0.1,118.28607,1606179072999
Fix,GT,37.4227687,-122.0946459,,27.556822,0.1,118.30615,1606179073999
Fix,GT,37.4229364,-122.0948776,,27.763876,0.1,118.35062,1606179074999
Fix,GT,37.4231057,-122.0951116,,28.087164,0.1,118.45087,1606179075999
Fix,GT,37.4232779,-122.0953484,,28.496876,0.1,118.681946,1606179076999
Fix,GT,37.4234521,-122.0955866,,28.527647,0.1,118.701294,1606179077999
Fix,GT,37.4236252,-122.0958231,,28.22174,0.1,118.937805,1606179078999
Fix,GT,37.4237972,-122.096056,,27.8902,0.1,119.06268,1606179079999
Fix,GT,37.423968,-122.0962865,,27.80821,0.1,119.12952,1606179080999
Fix,GT,37.4241393,-122.0965171,,27.941826,0.1,119.117645,1606179081999
Fix,GT,37.4243117,-122.0967487,,28.076298,0.1,119.331665,1606179082999
Fix,GT,37.4244859,-122.0969799,,28.169676,0.1,120.01633,1606179083999
Fix,GT,37.4246628,-122.0972076,,28.048868,0.1,121.234436,1606179084999
Fix,GT,37.4248422,-122.0974298,,27.855616,0.1,121.92093,1606179085999
Fix,GT,37.4250217,-122.0976472,,27.519346,0.1,122.614105,1606179086999
Fix,GT,37.4252011,-122.0978589,,27.15424,0.1,123.25418,1606179087999
Fix,GT,37.4253801,-122.0980657,,26.912733,0.1,123.778534,1606179088999
Fix,GT,37.4255603,-122.0982706,,27.152592,0.1,124.12076,1606179089999
Fix,GT,37.4257435,-122.0984764,,27.397182,0.1,124.61401,1606179090999
Fix,GT,37.4259308,-122.0986819,,27.842947,0.1,125.484924,1606179091999
Fix,GT,37.4261231,-122.0988871,,28.162426,0.1,126.091034,1606179092999
Fix,GT,37.4263185,-122.0990916,,28.3413,0.1,126.46942,1606179093999
Fix,GT,37.4265162,-122.099296,,28.509491,0.1,126.84961,1606179094999
Fix,GT,37.4267159,-122.0994998,,28.616938,0.1,126.993164,1606179095999
Fix,GT,37.4269159,-122.0997048,,28.704412,0.1,126.43936,1606179096999
Fix,GT,37.427115,-122.0999124,,28.733284,0.1,126.32648,1606179097999
Fix,GT,37.4273128,-122.1001195,,28.35406,0.1,126.02042,1606179098999
Fix,GT,37.4275054,-122.1003237,,27.59798,0.1,125.73251,1606179099999
Fix,GT,37.4276929,-122.1005246,,27.159155,0.1,125.53989,1606179100999
Fix,GT,37.4278775,-122.1007226,,26.765722,0.1,125.76703,1606179101999
Fix,GT,37.4280603,-122.1009168,,26.434586,0.1,126.03989,1606179102999
Fix,GT,37.4282424,-122.1011088,,26.455065,0.1,126.05087,1606179103999
Fix,GT,37.428426,-122.1013026,,26.84013,0.1,125.95123,1606179104999
Fix,GT,37.4286129,-122.1015003,,27.367386,0.1,126.104645,1606179105999
Fix,GT,37.4288025,-122.1016996,,27.530937,0.1,126.28485,1606179106999
Fix,GT,37.428994,-122.1018999,,27.864807,0.1,126.22415,1606179107999
Fix,GT,37.4291881,-122.1021035,,28.241005,0.1,126.21466,1606179108999
Fix,GT,37.4293839,-122.1023087,,28.397524,0.1,126.26041,1606179109999
Fix,GT,37.4295795,-122.1025135,,28.119715,0.1,126.3349,1606179110999
Fix,GT,37.4297727,-122.1027157,,27.788525,0.1,126.16077,1606179111999
Fix,GT,37.4299648,-122.1029179,,27.941761,0.1,126.05383,1606179112999
Fix,GT,37.4301585,-122.1031222,,28.189816,0.1,126.042114,1606179113999
Fix,GT,37.4303528,-122.1033269,,28.098679,0.1,126.27377,1606179114999
Fix,GT,37.4305466,-122.103529,,27.822214,0.1,126.44873,1606179115999
Fix,GT,37.4307384,-122.1037288,,27.52743,0.1,126.38101,1606179116999
Fix,GT,37.4309289,-122.1039274,,27.550732,0.1,126.221985,1606179117999
Fix,GT,37.4311196,-122.1041279,,27.631054,0.1,126.00763,1606179118999
Fix,GT,37.4313089,-122.1043281,,27.301432,0.1,126.039185,1606179119999
Fix,GT,37.431496,-122.1045253,,26.993776,0.1,126.1279,1606179120999
Fix,GT,37.4316824,-122.1047215,,27.112104,0.1,126.00717,1606179121999
Fix,GT,37.4318693,-122.1049196,,27.16825,0.1,125.92218,1606179122999
Fix,GT,37.4320566,-122.1051179,,27.209324,0.1,126.03717,1606179123999
Fix,GT,37.4322439,-122.1053152,,27.105072,0.1,126.37338,1606179124999
Fix,GT,37.4324308,-122.1055097,,26.801676,0.1,126.483765,1606179125999
Fix,GT,37.4326154,-122.105702,,26.490196,0.1,126.31177,1606179126999
Fix,GT,37.4327978,-122.1058928,,26.222212,0.1,126.260925,1606179127999
Fix,GT,37.4329783,-122.106082,,25.995066,0.1,126.25418,1606179128999
Fix,GT,37.4331576,-122.1062698,,25.891346,0.1,126.14838,1606179129999
Fix,GT,37.4333365,-122.1064585,,26.002064,0.1,125.90317,1606179130999
Fix,GT,37.4335153,-122.1066479,,25.933458,0.1,126.11426,1606179131999
Fix,GT,37.433694,-122.1068352,,25.783356,0.1,126.502716,1606179132999
Fix,GT,37.4338732,-122.1070213,,25.867641,0.1,126.29794,1606179133999
Fix,GT,37.434052,-122.1072086,,25.81764,0.1,126.322754,1606179134999
Fix,GT,37.4342306,-122.1073951,,25.822992,0.1,126.28485,1606179135999
Fix,GT,37.4344099,-122.1075832,,26.094069,0.1,126.04022,1606179136999
Fix,GT,37.4345909,-122.1077748,,26.419485,0.1,125.909424,1606179137999
Fix,GT,37.4347734,-122.1079683,,26.57939,0.1,126.04007,1606179138999
Fix,GT,37.4349568,-122.1081615,,26.586117,0.1,126.285736,1606179139999
Fix,GT,37.4351408,-122.1083536,,26.568546,0.1,126.50305,1606179140999
Fix,GT,37.4353257,-122.1085458,,26.73794,0.1,126.43912,1606179141999
Fix,GT,37.4355115,-122.1087392,,26.840618,0.1,126.42334,1606179142999
Fix,GT,37.4356979,-122.1089335,,26.990528,0.1,126.21051,1606179143999
Fix,GT,37.4358851,-122.1091305,,27.278864,0.1,126.02789,1606179144999
Fix,GT,37.4360734,-122.1093298,,27.375496,0.1,126.01224,1606179145999
Fix,GT,37.4362624,-122.109529,,27.441198,0.1,126.212524,1606179146999
Fix,GT,37.4364524,-122.1097282,,27.56412,0.1,126.31189,1606179147999
Fix,GT,37.4366438,-122.1099284,,27.77239,0.1,126.34854,1606179148999
Fix,GT,37.4368368,-122.11013,,28.005445,0.1,126.26596,1606179149999
Fix,GT,37.4370316,-122.1103344,,28.358353,0.1,126.16431,1606179150999
Fix,GT,37.4372283,-122.1105416,,28.683044,0.1,126.122314,1606179151999
Fix,GT,37.4374274,-122.1107513,,29.013796,0.1,126.09543,1606179152999
Fix,GT,37.4376281,-122.1109627,,29.124191,0.1,126.25226,1606179153999
Fix,GT,37.4378296,-122.1111733,,29.12723,0.1,126.50751,1606179154999
Fix,GT,37.438032,-122.1113833,,29.184412,0.1,126.48163,1606179155999
Fix,GT,37.4382345,-122.1115943,,29.225304,0.1,126.24832,1606179156999
Fix,GT,37.4384363,-122.1118065,,29.250406,0.1,126.11517,1606179157999
Fix,GT,37.4386385,-122.1120189,,29.31019,0.1,126.30005,1606179158999
Fix,GT,37.4388417,-122.1122312,,29.36627,0.1,126.25046,1606179159999
Fix,GT,37.4390446,-122.1124446,,29.4412,0.1,126.137054,1606179160999
Fix,GT,37.4392487,-122.1126593,,29.735777,0.1,126.09433,1606179161999
Fix,GT,37.4394549,-122.1128769,,29.998592,0.1,125.98407,1606179162999
Fix,GT,37.439661,-122.1130947,,29.798237,0.1,126.16559,1606179163999
Fix,GT,37.4398662,-122.1133099,,29.592228,0.1,126.37698,1606179164999
Fix,GT,37.4400706,-122.1135231,,29.42875,0.1,126.449036,1606179165999
Fix,GT,37.4402741,-122.1137351,,29.283659,0.1,126.22177,1606179166999
Fix,GT,37.4404758,-122.1139474,,29.136423,0.1,126.01697,1606179167999
Fix,GT,37.4406757,-122.1141585,,28.862394,0.1,126.06299,1606179168999
Fix,GT,37.4408739,-122.1143671,,28.579535,0.1,126.18762,1606179169999
Fix,GT,37.4410705,-122.1145732,,28.300644,0.1,126.21835,1606179170999
Fix,GT,37.4412649,-122.1147774,,27.967482,0.1,126.02985,1606179171999
Fix,GT,37.4414562,-122.1149799,,27.58719,0.1,125.7854,1606179172999
Fix,GT,37.4416441,-122.1151806,,27.211767,0.1,125.72357,1606179173999
Fix,GT,37.4418298,-122.1153782,,26.870634,0.1,126.077484,1606179174999
Fix,GT,37.4420149,-122.115573,,26.789968,0.1,126.30521,1606179175999
Fix,GT,37.4422002,-122.1157665,,26.714859,0.1,126.478485,1606179176999
Fix,GT,37.4423854,-122.1159588,,26.678244,0.1,126.53375,1606179177999
Fix,GT,37.4425705,-122.1161514,,26.69532,0.1,126.25598,1606179178999
Fix,GT,37.4427552,-122.1163456,,26.843098,0.1,126.10071,1606179179999
Fix,GT,37.442941,-122.1165417,,27.01526,0.1,126.065216,1606179180999
Fix,GT,37.4431273,-122.116738,,26.967394,0.1,126.20679,1606179181999
Fix,GT,37.4433132,-122.1169331,,26.8177,0.1,126.34845,1606179182999
Fix,GT,37.4434979,-122.117126,,26.519386,0.1,126.37775,1606179183999
Fix,GT,37.4436807,-122.1173165,,26.287601,0.1,126.51495,1606179184999
Fix,GT,37.4438628,-122.1175053,,26.158827,0.1,126.55603,1606179185999
Fix,GT,37.4440437,-122.1176939,,26.073399,0.1,126.12253,1606179186999
Fix,GT,37.4442234,-122.1178836,,26.084497,0.1,125.844696,1606179187999
Fix,GT,37.4444029,-122.1180745,,26.160686,0.1,125.88983,1606179188999
Fix,GT,37.4445833,-122.1182657,,26.255577,0.1,126.03787,1606179189999
Fix,GT,37.4447643,-122.1184564,,26.196943,0.1,126.19516,1606179190999
Fix,GT,37.4449452,-122.1186458,,26.15119,0.1,126.41098,1606179191999
Fix,GT,37.4451269,-122.1188352,,26.274578,0.1,126.14969,1606179192999
Fix,GT,37.4453086,-122.1190264,,26.351425,0.1,126.099915,1606179193999
Fix,GT,37.4454907,-122.1192178,,26.390186,0.1,126.23526,1606179194999
Fix,GT,37.4456735,-122.1194091,,26.456882,0.1,126.25018,1606179195999
Fix,GT,37.4458569,-122.119601,,26.54868,0.1,126.2337,1606179196999
Fix,GT,37.4460408,-122.1197938,,26.648249,0.1,126.140076,1606179197999
Fix,GT,37.4462248,-122.1199877,,26.68569,0.1,126.09259,1606179198999
Fix,GT,37.4464082,-122.1201808,,26.41822,0.1,126.33807,1606179199999
Fix,GT,37.44659,-122.1203705,,26.058006,0.1,126.40277,1606179200999
Fix,GT,37.4467692,-122.1205574,,25.698952,0.1,126.30563,1606179201999
Fix,GT,37.4469465,-122.1207429,,25.596554,0.1,126.24481,1606179202999
Fix,GT,37.4471233,-122.1209283,,25.550297,0.1,126.225555,1606179203999
Fix,GT,37.4472994,-122.1211127,,25.332195,0.1,126.30475,1606179204999
Fix,GT,37.4474734,-122.1212952,,25.005125,0.1,126.086,1606179205999
Fix,GT,37.4476445,-122.1214764,,24.709862,0.1,125.795654,1606179206999
Fix,GT,37.4478138,-122.1216566,,24.682974,0.1,126.06497,1606179207999
Fix,GT,37.4479839,-122.1218353,,24.505203,0.1,126.41327,1606179208999
Fix,GT,37.4481536,-122.1220128,,24.612432,0.1,126.083374,1606179209999
Fix,GT,37.4483237,-122.122193,,24.723331,0.1,126.074036,1606179210999
Fix,GT,37.4484951,-122.1223733,,24.909826,0.1,126.22919,1606179211999
Fix,GT,37.4486677,-122.1225543,,25.01708,0.1,126.38754,1606179212999
Fix,GT,37.448841,-122.1227347,,24.964157,0.1,126.490814,1606179213999
Fix,GT,37.4490138,-122.1229147,,24.902449,0.1,126.38809,1606179214999
Fix,GT,37.4491862,-122.1230943,,24.817635,0.1,126.49408,1606179215999
Fix,GT,37.4493582,-122.1232726,,24.714108,0.1,126.28876,1606179216999
Fix,GT,37.4495285,-122.1234515,,24.561703,0.1,126.05493,1606179217999
Fix,GT,37.4496972,-122.1236297,,24.400387,0.1,126.03906,1606179218999
Fix,GT,37.4498648,-122.1238069,,24.256483,0.1,126.03473,1606179219999
Fix,GT,37.4500319,-122.1239833,,24.269165,0.1,126.194305,1606179220999
Fix,GT,37.4502007,-122.1241605,,24.60931,0.1,126.40036,1606179221999
Fix,GT,37.4503726,-122.1243402,,25.089874,0.1,126.14453,1606179222999
Fix,GT,37.4505465,-122.124525,,25.454792,0.1,125.44754,1606179223999
Fix,GT,37.4507205,-122.1247148,,25.677465,0.1,124.648834,1606179224999
Fix,GT,37.4508932,-122.1249088,,25.78366,0.1,123.84131,1606179225999
Fix,GT,37.4510648,-122.1251064,,25.927273,0.1,123.242645,1606179226999
Fix,GT,37.4512353,-122.1253089,,26.173218,0.1,121.96484,1606179227999
Fix,GT,37.4514045,-122.1255179,,26.582813,0.1,121.12283,1606179228999
Fix,GT,37.4515739,-122.1257334,,26.877611,0.1,120.24161,1606179229999
Fix,GT,37.4517413,-122.125954,,26.993864,0.1,119.02026,1606179230999
Fix,GT,37.4519053,-122.12618,,27.07555,0.1,117.7872,1606179231999
Fix,GT,37.4520665,-122.1264103,,27.159418,0.1,116.975525,1606179232999
Fix,GT,37.4522252,-122.1266453,,27.352291,0.1,115.72598,1606179233999
Fix,GT,37.4523819,-122.1268862,,27.631393,0.1,114.85886,1606179234999
Fix,GT,37.4525372,-122.1271322,,27.873844,0.1,114.12454,1606179235999
Fix,GT,37.4526901,-122.1273816,,27.770844,0.1,113.09445,1606179236999
Fix,GT,37.4528392,-122.1276328,,27.657839,0.1,112.687195,1606179237999
Fix,GT,37.4529864,-122.1278842,,27.513319,0.1,112.44162,1606179238999
Fix,GT,37.4531322,-122.1281346,,27.387333,0.1,112.20926,1606179239999
Fix,GT,37.4532776,-122.1283861,,27.603943,0.1,111.96451,1606179240999
Fix,GT,37.4534243,-122.1286399,,27.880106,0.1,112.263214,1606179241999
Fix,GT,37.4535735,-122.1288952,,28.117853,0.1,112.40692,1606179242999
Fix,GT,37.453724,-122.1291525,,28.360117,0.1,112.51752,1606179243999
Fix,GT,37.4538763,-122.1294105,,28.450647,0.1,112.67764,1606179244999
Fix,GT,37.4540295,-122.1296698,,28.671028,0.1,112.716644,1606179245999
Fix,GT,37.4541835,-122.1299299,,28.552227,0.1,112.612915,1606179246999
Fix,GT,37.4543352,-122.1301882,,28.24147,0.1,112.2457,1606179247999
Fix,GT,37.4544851,-122.130446,,28.311394,0.1,112.115906,1606179248999
Fix,GT,37.4546358,-122.1307062,,28.59518,0.1,112.24069,1606179249999
Fix,GT,37.4547881,-122.1309673,,28.58318,0.1,112.48068,1606179250999
Fix,GT,37.45494,-122.131226,,28.297125,0.1,112.4577,1606179251999
Fix,GT,37.4550909,-122.1314843,,28.380499,0.1,112.16858,1606179252999
Fix,GT,37.4552416,-122.1317437,,28.421467,0.1,112.30768,1606179253999
Fix,GT,37.4553933,-122.1320035,,28.564177,0.1,112.46649,1606179254999
Fix,GT,37.4555462,-122.132264,,28.656347,0.1,112.49863,1606179255999
Fix,GT,37.4556998,-122.1325252,,28.826054,0.1,112.53189,1606179256999
Fix,GT,37.4558545,-122.1327882,,29.006626,0.1,112.594635,1606179257999
Fix,GT,37.4560103,-122.133052,,29.069891,0.1,112.86792,1606179258999
Fix,GT,37.4561673,-122.133315,,29.077404,0.1,112.99811,1606179259999
Fix,GT,37.456324,-122.1335776,,28.953676,0.1,112.73993,1606179260999
Fix,GT,37.4564792,-122.1338396,,28.794832,0.1,112.84723,1606179261999
Fix,GT,37.4566339,-122.1340996,,28.618479,0.1,112.751465,1606179262999
Fix,GT,37.4567869,-122.1343587,,28.44075,0.1,112.44693,1606179263999
Fix,GT,37.4569381,-122.1346169,,28.238472,0.1,112.343994,1606179264999
Fix,GT,37.4570879,-122.1348736,,28.058252,0.1,112.47876,1606179265999
Fix,GT,37.4572376,-122.1351279,,27.899385,0.1,112.7113,1606179266999
Fix,GT,37.4573871,-122.1353804,,27.732555,0.1,112.41528,1606179267999
Fix,GT,37.4575345,-122.1356322,,27.556036,0.1,112.49234,1606179268999
Fix,GT,37.4576814,-122.1358821,,27.395205,0.1,112.56036,1606179269999
Fix,GT,37.4578278,-122.1361304,,27.2436,0.1,112.61624,1606179270999
Fix,GT,37.4579733,-122.1363773,,27.085844,0.1,112.59036,1606179271999
Fix,GT,37.4581177,-122.136623,,26.942122,0.1,112.33795,1606179272999
Fix,GT,37.4582609,-122.1368681,,26.800985,0.1,112.39938,1606179273999
Fix,GT,37.4584035,-122.1371114,,26.637642,0.1,112.54407,1606179274999
Fix,GT,37.4585457,-122.1373527,,26.480827,0.1,112.65552,1606179275999
Fix,GT,37.4586875,-122.1375924,,26.35377,0.1,112.72766,1606179276999
Fix,GT,37.4588293,-122.1378322,,26.499256,0.1,112.518616,1606179277999
Fix,GT,37.4589714,-122.1380739,,26.644659,0.1,112.51465,1606179278999
Fix,GT,37.4591144,-122.1383169,,26.801619,0.1,112.58014,1606179279999
Fix,GT,37.4592586,-122.1385618,,27.06296,0.1,112.400085,1606179280999
Fix,GT,37.4594032,-122.1388095,,27.24779,0.1,112.2699,1606179281999
Fix,GT,37.4595485,-122.1390585,,27.354937,0.1,112.36984,1606179282999
Fix,GT,37.4596948,-122.1393078,,27.418922,0.1,112.64484,1606179283999
Fix,GT,37.459842,-122.1395569,,27.429434,0.1,112.74835,1606179284999
Fix,GT,37.4599893,-122.1398052,,27.329441,0.1,112.75064,1606179285999
Fix,GT,37.4601359,-122.1400524,,27.179342,0.1,112.723816,1606179286999
Fix,GT,37.4602814,-122.1402985,,27.021503,0.1,112.557465,1606179287999
Fix,GT,37.4604254,-122.1405438,,26.899033,0.1,112.29355,1606179288999
Fix,GT,37.460568,-122.1407895,,26.877579,0.1,112.09253,1606179289999
Fix,GT,37.4607102,-122.1410349,,26.834688,0.1,112.28815,1606179290999
Fix,GT,37.4608531,-122.1412793,,26.80618,0.1,112.464386,1606179291999
Fix,GT,37.4609963,-122.1415235,,26.78073,0.1,112.39624,1606179292999
Fix,GT,37.4611387,-122.1417668,,26.646744,0.1,112.3573,1606179293999
Fix,GT,37.4612808,-122.1420096,,26.629868,0.1,112.42346,1606179294999
Fix,GT,37.4614228,-122.1422523,,26.689507,0.1,112.36142,1606179295999
Fix,GT,37.4615658,-122.1424971,,27.019981,0.1,112.30316,1606179296999
Fix,GT,37.4617105,-122.1427452,,27.371214,0.1,112.23041,1606179297999
Fix,GT,37.4618565,-122.1429957,,27.514376,0.1,112.47943,1606179298999
Fix,GT,37.4620048,-122.1432475,,27.990404,0.1,112.65369,1606179299999
Fix,GT,37.4621564,-122.1435044,,28.581741,0.1,112.59683,1606179300999
Fix,GT,37.4623112,-122.1437675,,29.259293,0.1,112.43866,1606179301999
Fix,GT,37.4624688,-122.1440359,,29.734581,0.1,112.29007,1606179302999
Fix,GT,37.4626282,-122.1443097,,30.181105,0.1,112.08984,1606179303999
Fix,GT,37.4627877,-122.1445856,,30.028387,0.1,112.18509,1606179304999
Fix,GT,37.4629467,-122.1448577,,29.658676,0.1,112.47571,1606179305999
Fix,GT,37.4631041,-122.145126,,29.288523,0.1,112.40488,1606179306999
Fix,GT,37.4632601,-122.1453928,,29.366186,0.1,112.25519,1606179307999
Fix,GT,37.463417,-122.1456626,,29.681599,0.1,112.144226,1606179308999
Fix,GT,37.4635752,-122.1459342,,29.824509,0.1,112.37131,1606179309999
Fix,GT,37.4637344,-122.1462054,,29.728893,0.1,112.63663,1606179310999
Fix,GT,37.4638939,-122.1464744,,29.592558,0.1,112.80261,1606179311999
Fix,GT,37.4640525,-122.1467417,,29.333136,0.1,112.71887,1606179312999
Fix,GT,37.4642093,-122.1470066,,29.052803,0.1,112.57001,1606179313999
Fix,GT,37.4643642,-122.1472698,,28.8095,0.1,112.42084,1606179314999
Fix,GT,37.4645172,-122.1475311,,28.563562,0.1,112.341,1606179315999
Fix,GT,37.4646691,-122.1477912,,28.544928,0.1,112.28912,1606179316999
Fix,GT,37.4648211,-122.1480519,,28.606369,0.1,112.23306,1606179317999
Fix,GT,37.4649732,-122.1483135,,28.675406,0.1,112.13428,1606179318999
Fix,GT,37.4651248,-122.1485749,,28.520327,0.1,112.214325,1606179319999
Fix,GT,37.4652764,-122.1488349,,28.522116,0.1,112.34531,1606179320999
Fix,GT,37.4654288,-122.1490955,,28.62149,0.1,112.40796,1606179321999
Fix,GT,37.4655816,-122.1493558,,28.574673,0.1,112.538666,1606179322999
Fix,GT,37.4657344,-122.149615,,28.463978,0.1,112.62311,1606179323999
Fix,GT,37.4658869,-122.1498728,,28.338749,0.1,112.59784,1606179324999
Fix,GT,37.4660385,-122.1501303,,28.377752,0.1,112.30969,1606179325999
Fix,GT,37.4661907,-122.1503916,,28.998657,0.1,112.05084,1606179326999
Fix,GT,37.4663461,-122.1506603,,29.679472,0.1,112.262634,1606179327999
Fix,GT,37.4665057,-122.150933,,30.182596,0.1,112.422485,1606179328999
Fix,GT,37.466668,-122.1512096,,30.545841,0.1,112.3902,1606179329999
Fix,GT,37.4668314,-122.1514885,,30.671959,0.1,112.57938,1606179330999
Fix,GT,37.4669958,-122.1517677,,30.741987,0.1,112.530975,1606179331999
Fix,GT,37.46716,-122.1520469,,30.620691,0.1,112.5047,1606179332999
Fix,GT,37.4673232,-122.1523247,,30.42743,0.1,112.499664,1606179333999
Fix,GT,37.4674857,-122.1526007,,30.266918,0.1,112.61063,1606179334999
Fix,GT,37.4676476,-122.1528749,,30.121914,0.1,112.636475,1606179335999
Fix,GT,37.4678089,-122.1531478,,29.970552,0.1,112.72354,1606179336999
Fix,GT,37.4679697,-122.1534187,,29.797573,0.1,112.81564,1606179337999
Fix,GT,37.4681298,-122.1536877,,29.594349,0.1,112.80228,1606179338999
Fix,GT,37.4682883,-122.1539548,,29.28128,0.1,112.74719,1606179339999
Fix,GT,37.4684451,-122.1542184,,28.872393,0.1,112.93567,1606179340999
Fix,GT,37.4685998,-122.1544776,,28.444267,0.1,112.80609,1606179341999
Fix,GT,37.4687517,-122.1547341,,28.167019,0.1,112.64523,1606179342999
Fix,GT,37.468903,-122.1549913,,28.48155,0.1,112.26114,1606179343999
Fix,GT,37.4690553,-122.155254,,29.001823,0.1,111.9086,1606179344999
Fix,GT,37.4692093,-122.1555214,,29.25064,0.1,112.25726,1606179345999
Fix,GT,37.469365,-122.1557867,,29.06604,0.1,112.68439,1606179346999
Fix,GT,37.4695207,-122.1560499,,28.91229,0.1,112.74271,1606179347999
Fix,GT,37.4696756,-122.1563116,,28.76415,0.1,112.541534,1606179348999
Fix,GT,37.4698293,-122.1565737,,28.802172,0.1,112.220825,1606179349999
Fix,GT,37.4699822,-122.1568373,,28.87545,0.1,111.98932,1606179350999
Fix,GT,37.4701352,-122.1571016,,28.900614,0.1,112.12921,1606179351999
Fix,GT,37.4702887,-122.1573655,,28.89777,0.1,112.25464,1606179352999
Fix,GT,37.4704425,-122.1576288,,28.845362,0.1,112.4194,1606179353999
Fix,GT,37.4705965,-122.1578911,,28.796417,0.1,112.53198,1606179354999
Fix,GT,37.4707504,-122.1581526,,28.70054,0.1,112.54117,1606179355999
Fix,GT,37.4709037,-122.1584127,,28.47493,0.1,112.53607,1606179356999
Fix,GT,37.4710551,-122.15867,,28.065619,0.1,112.451324,1606179357999
Fix,GT,37.4712034,-122.1589229,,27.485502,0.1,112.316986,1606179358999
Fix,GT,37.4713481,-122.159171,,26.950129,0.1,112.26056,1606179359999
Fix,GT,37.4714907,-122.1594152,,26.598944,0.1,112.421326,1606179360999
Fix,GT,37.471632,-122.1596562,,26.403671,0.1,112.474915,1606179361999
Fix,GT,37.4717737,-122.1598976,,26.666313,0.1,112.27597,1606179362999
Fix,GT,37.4719157,-122.1601417,,26.74913,0.1,112.06488,1606179363999
Fix,GT,37.4720572,-122.1603862,,26.751776,0.1,112.034485,1606179364999
Fix,GT,37.4721999,-122.160633,,27.276176,0.1,112.0224,1606179365999
Fix,GT,37.4723452,-122.1608843,,27.542875,0.1,112.21399,1606179366999
Fix,GT,37.4724918,-122.1611349,,27.424984,0.1,112.63794,1606179367999
Fix,GT,37.4726383,-122.1613824,,27.109707,0.1,112.6752,1606179368999
Fix,GT,37.4727832,-122.1616269,,26.8147,0.1,112.72092,1606179369999
Fix,GT,37.4729272,-122.1618704,,26.902563,0.1,112.454346,1606179370999
Fix,GT,37.4730709,-122.1621157,,26.85637,0.1,112.348755,1606179371999
Fix,GT,37.4732134,-122.1623591,,26.55397,0.1,112.44998,1606179372999
Fix,GT,37.4733548,-122.1625991,,26.274096,0.1,112.633545,1606179373999
Fix,GT,37.4734958,-122.1628376,,26.333853,0.1,112.523315,1606179374999
Fix,GT,37.4736373,-122.1630789,,26.737576,0.1,112.20715,1606179375999
Fix,GT,37.473781,-122.163326,,27.279305,0.1,112.16611,1606179376999
Fix,GT,37.4739264,-122.1635758,,27.314714,0.1,112.263306,1606179377999
Fix,GT,37.4740712,-122.1638232,,26.97484,0.1,112.51904,1606179378999
Fix,GT,37.4742148,-122.1640665,,26.594757,0.1,112.6236,1606179379999
Fix,GT,37.4743565,-122.1643063,,26.222614,0.1,112.575745,1606179380999
Fix,GT,37.4744963,-122.1645428,,25.885733,0.1,112.63483,1606179381999
Fix,GT,37.4746351,-122.1647776,,25.899912,0.1,112.41861,1606179382999
Fix,GT,37.4747738,-122.1650151,,26.263693,0.1,112.09897,1606179383999
Fix,GT,37.4749142,-122.1652559,,26.48881,0.1,112.599915,1606179384999
Fix,GT,37.4750568,-122.1654972,,26.660528,0.1,112.59616,1606179385999
Fix,GT,37.4752001,-122.1657403,,26.846624,0.1,112.48181,1606179386999
Fix,GT,37.475344,-122.1659851,,26.938963,0.1,112.412506,1606179387999
Fix,GT,37.4754876,-122.1662303,,26.883299,0.1,112.47995,1606179388999
Fix,GT,37.475631,-122.1664747,,26.778038,0.1,112.45938,1606179389999
Fix,GT,37.4757739,-122.1667181,,26.822498,0.1,112.39624,1606179390999
Fix,GT,37.4759175,-122.1669639,,27.055868,0.1,112.2673,1606179391999
Fix,GT,37.4760618,-122.1672113,,27.17754,0.1,112.23892,1606179392999
Fix,GT,37.4762066,-122.1674592,,27.18065,0.1,112.380005,1606179393999
Fix,GT,37.4763517,-122.1677063,,27.123474,0.1,112.58594,1606179394999
Fix,GT,37.4764974,-122.1679521,,27.065647,0.1,112.87979,1606179395999
Fix,GT,37.4766437,-122.1681963,,27.008163,0.1,113.25345,1606179396999
Fix,GT,37.476791,-122.1684391,,27.009274,0.1,113.58313,1606179397999
Fix,GT,37.4769394,-122.1686819,,27.078629,0.1,113.35559,1606179398999
Fix,GT,37.4770861,-122.1689252,,26.838305,0.1,112.906525,1606179399999
Fix,GT,37.4772295,-122.1691673,,26.54659,0.1,112.470276,1606179400999
Fix,GT,37.4773706,-122.1694085,,26.41354,0.1,112.12201,1606179401999
Fix,GT,37.4775101,-122.1696502,,26.411942,0.1,111.82849,1606179402999
Fix,GT,37.4776495,-122.169893,,26.556257,0.1,112.1835,1606179403999
Fix,GT,37.4777915,-122.1701368,,26.873583,0.1,112.348694,1606179404999
Fix,GT,37.4779352,-122.1703831,,27.122862,0.1,112.19586,1606179405999
Fix,GT,37.4780793,-122.1706314,,27.128904,0.1,112.15076,1606179406999
Fix,GT,37.4782232,-122.1708787,,27.059814,0.1,112.40491,1606179407999
Fix,GT,37.4783675,-122.1711251,,27.056557,0.1,112.341125,1606179408999
Fix,GT,37.4785115,-122.1713721,,27.069527,0.1,112.18799,1606179409999
Fix,GT,37.4786553,-122.1716196,,27.142927,0.1,112.19531,1606179410999
Fix,GT,37.4788002,-122.171868,,27.338854,0.1,112.42142,1606179411999
Fix,GT,37.4789469,-122.1721182,,27.616512,0.1,112.336,1606179412999
Fix,GT,37.4790944,-122.1723716,,27.837309,0.1,112.0668,1606179413999
Fix,GT,37.4792419,-122.1726257,,27.736141,0.1,112.39429,1606179414999
Fix,GT,37.4793896,-122.1728777,,27.623,0.1,112.46924,1606179415999
Fix,GT,37.4795368,-122.1731283,,27.436615,0.1,112.57727,1606179416999
Fix,GT,37.4796835,-122.1733768,,27.26211,0.1,112.75836,1606179417999
Fix,GT,37.4798296,-122.1736233,,27.071249,0.1,112.66083,1606179418999
Fix,GT,37.4799738,-122.1738685,,26.84555,0.1,112.26694,1606179419999
Fix,GT,37.4801161,-122.1741132,,26.735031,0.1,112.06033,1606179420999
Fix,GT,37.4802569,-122.1743574,,26.599573,0.1,111.925415,1606179421999
Fix,GT,37.4803967,-122.1746006,,26.450384,0.1,112.20508,1606179422999
Fix,GT,37.4805368,-122.1748416,,26.29637,0.1,112.304016,1606179423999
Fix,GT,37.4806765,-122.175081,,26.220509,0.1,112.3667,1606179424999
Fix,GT,37.4808157,-122.1753203,,26.174805,0.1,112.243866,1606179425999
Fix,GT,37.4809545,-122.175559,,26.093277,0.1,112.273834,1606179426999
Fix,GT,37.4810929,-122.1757968,,25.991985,0.1,112.30374,1606179427999
Fix,GT,37.4812305,-122.1760339,,25.883518,0.1,112.18265,1606179428999
Fix,GT,37.4813678,-122.1762698,,25.7914,0.1,112.523315,1606179429999
Fix,GT,37.4815051,-122.1765042,,25.675709,0.1,112.36334,1606179430999
Fix,GT,37.4816409,-122.1767382,,25.527292,0.1,112.05063,1606179431999
Fix,GT,37.4817747,-122.1769722,,25.435152,0.1,111.40903,1606179432999
Fix,GT,37.4819068,-122.177208,,25.618338,0.1,110.951355,1606179433999
Fix,GT,37.4820395,-122.1774489,,26.163534,0.1,110.49182,1606179434999
Fix,GT,37.4821729,-122.1776958,,26.563631,0.1,109.93576,1606179435999
Fix,GT,37.4823058,-122.1779471,,26.773674,0.1,109.36517,1606179436999
Fix,GT,37.4824374,-122.1782017,,26.85509,0.1,108.60312,1606179437999
Fix,GT,37.4825654,-122.1784577,,26.562696,0.1,107.71127,1606179438999
Fix,GT,37.4826888,-122.1787123,,26.14577,0.1,106.86664,1606179439999
Fix,GT,37.4828073,-122.1789659,,25.895214,0.1,105.7984,1606179440999
Fix,GT,37.4829216,-122.179222,,26.011612,0.1,104.61694,1606179441999
Fix,GT,37.4830322,-122.1794815,,25.996845,0.1,103.67911,1606179442999
Fix,GT,37.4831391,-122.1797422,,25.833147,0.1,102.89636,1606179443999
Fix,GT,37.4832428,-122.1800031,,25.801908,0.1,102.34592,1606179444999
Fix,GT,37.4833451,-122.1802667,,26.11991,0.1,101.683624,1606179445999
Fix,GT,37.4834464,-122.1805358,,26.44984,0.1,101.14911,1606179446999
Fix,GT,37.4835463,-122.1808084,,26.56554,0.1,100.57028,1606179447999
Fix,GT,37.4836447,-122.181083,,26.648335,0.1,100.02896,1606179448999
Fix,GT,37.4837408,-122.1813578,,26.378445,0.1,99.701294,1606179449999
Fix,GT,37.4838342,-122.1816302,,26.079435,0.1,99.16727,1606179450999
Fix,GT,37.4839251,-122.1819022,,26.138178,0.1,98.46454,1606179451999
Fix,GT,37.4840139,-122.1821778,,26.446384,0.1,97.612,1606179452999
Fix,GT,37.4841005,-122.1824577,,26.63442,0.1,97.008606,1606179453999
Fix,GT,37.4841855,-122.1827404,,26.824232,0.1,96.6333,1606179454999
Fix,GT,37.4842701,-122.1830266,,27.235937,0.1,96.38818,1606179455999
Fix,GT,37.4843549,-122.1833178,,27.524635,0.1,96.141846,1606179456999
Fix,GT,37.4844392,-122.1836105,,27.43126,0.1,95.92224,1606179457999
Fix,GT,37.4845217,-122.1839013,,27.210789,0.1,95.53949,1606179458999
Fix,GT,37.4846019,-122.1841918,,27.197,0.1,94.92468,1606179459999
Fix,GT,37.4846801,-122.1844845,,27.38267,0.1,94.28375,1606179460999
Fix,GT,37.4847562,-122.1847798,,27.50218,0.1,93.694,1606179461999
Fix,GT,37.48483,-122.1850767,,27.48159,0.1,93.08627,1606179462999
Fix,GT,37.4849015,-122.1853746,,27.574682,0.1,92.55432,1606179463999
Fix,GT,37.4849713,-122.185675,,27.826998,0.1,91.829956,1606179464999
Fix,GT,37.4850379,-122.1859791,,27.91826,0.1,91.11093,1606179465999
Fix,GT,37.4851022,-122.1862844,,27.912874,0.1,90.63342,1606179466999
Fix,GT,37.4851642,-122.1865903,,27.889254,0.1,90.00421,1606179467999
Fix,GT,37.4852239,-122.1868963,,27.84862,0.1,89.79535,1606179468999
Fix,GT,37.4852827,-122.187202,,27.779997,0.1,89.48627,1606179469999
Fix,GT,37.485338,-122.1875081,,27.715769,0.1,88.19055,1606179470999
Fix,GT,37.4853895,-122.1878148,,27.74231,0.1,87.73932,1606179471999
Fix,GT,37.485439,-122.1881228,,27.814116,0.1,87.20776,1606179472999
Fix,GT,37.4854862,-122.1884318,,27.832546,0.1,86.66937,1606179473999
Fix,GT,37.4855312,-122.1887411,,27.762934,0.1,86.15317,1606179474999
Fix,GT,37.4855739,-122.1890499,,27.669596,0.1,85.73175,1606179475999
Fix,GT,37.4856148,-122.189358,,27.571667,0.1,85.41974,1606179476999
Fix,GT,37.4856543,-122.1896651,,27.40574,0.1,85.15814,1606179477999
Fix,GT,37.4856924,-122.1899693,,27.02592,0.1,84.921814,1606179478999
Fix,GT,37.4857294,-122.1902689,,26.630413,0.1,84.7912,1606179479999
Fix,GT,37.4857655,-122.1905647,,26.300337,0.1,84.80469,1606179480999
Fix,GT,37.4858015,-122.1908565,,25.945848,0.1,84.949524,1606179481999
Fix,GT,37.4858376,-122.1911444,,25.605751,0.1,85.10861,1606179482999
Fix,GT,37.4858737,-122.1914284,,25.272427,0.1,85.16968,1606179483999
Fix,GT,37.4859095,-122.1917097,,25.177738,0.1,84.87491,1606179484999
Fix,GT,37.485944,-122.1919925,,25.447845,0.1,84.487,1606179485999
Fix,GT,37.4859778,-122.1922787,,25.741875,0.1,84.50189,1606179486999
Fix,GT,37.4860124,-122.1925683,,26.068237,0.1,84.806244,1606179487999
Fix,GT,37.4860484,-122.1928617,,26.375025,0.1,84.79355,1606179488999
Fix,GT,37.4860845,-122.193157,,26.476383,0.1,84.82422,1606179489999
Fix,GT,37.486121,-122.1934534,,26.603403,0.1,84.93341,1606179490999
Fix,GT,37.4861582,-122.1937525,,26.957859,0.1,84.8866,1606179491999
Fix,GT,37.4861956,-122.1940557,,27.30684,0.1,84.942505,1606179492999
Fix,GT,37.4862341,-122.1943623,,27.582058,0.1,85.152435,1606179493999
Fix,GT,37.4862736,-122.1946708,,27.66672,0.1,85.27292,1606179494999
Fix,GT,37.4863134,-122.1949809,,27.922873,0.1,84.84744,1606179495999
Fix,GT,37.4863516,-122.1952948,,28.239088,0.1,84.82306,1606179496999
Fix,GT,37.4863909,-122.1956118,,28.48617,0.1,84.87631,1606179497999
Fix,GT,37.4864303,-122.1959309,,28.652624,0.1,84.89819,1606179498999
Fix,GT,37.4864701,-122.1962532,,29.028347,0.1,84.882385,1606179499999
Fix,GT,37.4865103,-122.1965792,,29.284441,0.1,84.85492,1606179500999
Fix,GT,37.4865506,-122.1969072,,29.402433,0.1,84.96692,1606179501999
Fix,GT,37.486592,-122.1972348,,29.188108,0.1,85.28256,1606179502999
Fix,GT,37.4866339,-122.1975593,,28.980654,0.1,85.124664,1606179503999
Fix,GT,37.4866744,-122.1978821,,28.805662,0.1,84.96625,1606179504999
Fix,GT,37.4867145,-122.1982025,,28.556038,0.1,84.957214,1606179505999
Fix,GT,37.4867538,-122.1985202,,28.31965,0.1,84.71924,1606179506999
Fix,GT,37.4867921,-122.1988353,,28.054829,0.1,84.786285,1606179507999
Fix,GT,37.4868306,-122.1991474,,27.803772,0.1,85.03906,1606179508999
Fix,GT,37.4868698,-122.1994564,,27.569136,0.1,85.26395,1606179509999
Fix,GT,37.4869092,-122.1997633,,27.416468,0.1,84.963104,1606179510999
Fix,GT,37.4869472,-122.2000692,,27.37947,0.1,84.85123,1606179511999
Fix,GT,37.4869849,-122.2003757,,27.432545,0.1,84.757904,1606179512999
Fix,GT,37.4870223,-122.2006818,,27.348055,0.1,84.8573,1606179513999
Fix,GT,37.4870599,-122.200987,,27.258648,0.1,84.81775,1606179514999
Fix,GT,37.4870972,-122.2012909,,27.14051,0.1,84.8291,1606179515999
Fix,GT,37.4871346,-122.2015931,,26.994953,0.1,85.024475,1606179516999
Fix,GT,37.4871726,-122.2018957,,27.25124,0.1,84.846985,1606179517999
Fix,GT,37.48721,-122.2022026,,27.625927,0.1,84.71686,1606179518999
Fix,GT,37.4872482,-122.2025129,,27.919804,0.1,84.87991,1606179519999
Fix,GT,37.4872866,-122.2028255,,27.914812,0.1,84.79129,1606179520999
Fix,GT,37.4873247,-122.2031354,,27.550352,0.1,84.959656,1606179521999
Fix,GT,37.4873632,-122.2034409,,27.158602,0.1,85.23462,1606179522999
Fix,GT,37.4874022,-122.2037423,,26.929195,0.1,85.22479,1606179523999
Fix,GT,37.48744,-122.2040444,,27.18733,0.1,84.474945,1606179524999
Fix,GT,37.487476,-122.2043493,,27.288324,0.1,84.58908,1606179525999
Fix,GT,37.487513,-122.2046547,,27.36853,0.1,84.87323,1606179526999
Fix,GT,37.4875514,-122.2049614,,27.538626,0.1,85.109985,1606179527999
Fix,GT,37.4875908,-122.205269,,27.541496,0.1,85.25867,1606179528999
Fix,GT,37.4876309,-122.205576,,27.484976,0.1,85.24887,1606179529999
Fix,GT,37.4876701,-122.2058825,,27.434862,0.1,84.81152,1606179530999
Fix,GT,37.4877078,-122.2061893,,27.480745,0.1,84.7095,1606179531999
Fix,GT,37.4877458,-122.2064973,,27.669659,0.1,84.8515,1606179532999
Fix,GT,37.4877848,-122.2068074,,27.856752,0.1,85.386475,1606179533999
Fix,GT,37.4878271,-122.2071189,,28.044714,0.1,86.28168,1606179534999
Fix,GT,37.4878734,-122.2074312,,28.14103,0.1,86.9899,1606179535999
Fix,GT,37.4879226,-122.2077437,,28.226265,0.1,87.49072,1606179536999
Fix,GT,37.4879742,-122.2080572,,28.401207,0.1,87.93814,1606179537999
Fix,GT,37.4880282,-122.2083723,,28.628378,0.1,88.46042,1606179538999
Fix,GT,37.4880846,-122.2086893,,28.837254,0.1,88.86517,1606179539999
Fix,GT,37.4881434,-122.2090082,,29.047535,0.1,89.352234,1606179540999
Fix,GT,37.4882047,-122.2093285,,29.212744,0.1,89.82825,1606179541999
Fix,GT,37.4882687,-122.209649,,29.227884,0.1,90.55759,1606179542999
Fix,GT,37.4883361,-122.2099687,,29.278118,0.1,91.2666,1606179543999
Fix,GT,37.4884067,-122.2102875,,29.245865,0.1,91.99036,1606179544999
Fix,GT,37.4884803,-122.2106044,,29.150154,0.1,92.640686,1606179545999
Fix,GT,37.4885565,-122.2109196,,29.136591,0.1,93.21597,1606179546999
Fix,GT,37.4886351,-122.2112332,,29.02449,0.1,93.71869,1606179547999
Fix,GT,37.4887152,-122.2115451,,28.950731,0.1,94.02948,1606179548999
Fix,GT,37.4887962,-122.2118557,,28.809404,0.1,94.41281,1606179549999
Fix,GT,37.4888788,-122.2121631,,28.578669,0.1,95.13733,1606179550999
Fix,GT,37.4889639,-122.2124666,,28.320614,0.1,95.7962,1606179551999
Fix,GT,37.4890506,-122.2127642,,27.742998,0.1,96.56769,1606179552999
Fix,GT,37.4891383,-122.2130547,,27.212162,0.1,97.10861,1606179553999
Fix,GT,37.4892263,-122.2133388,,26.745625,0.1,97.52356,1606179554999
Fix,GT,37.4893156,-122.2136193,,26.789896,0.1,98.30173,1606179555999
Fix,GT,37.4894087,-122.213901,,27.110601,0.1,99.121,1606179556999
Fix,GT,37.4895059,-122.2141824,,27.075953,0.1,100.08365,1606179557999
Fix,GT,37.489606,-122.2144596,,26.72496,0.1,100.55432,1606179558999
Fix,GT,37.4897057,-122.2147337,,26.703379,0.1,100.35547,1606179559999
Fix,GT,37.489806,-122.2150102,,27.056225,0.1,100.90857,1606179560999
Fix,GT,37.4899101,-122.215289,,27.363956,0.1,101.35974,1606179561999
Fix,GT,37.4900168,-122.2155687,,27.421335,0.1,102.0112,1606179562999
Fix,GT,37.4901264,-122.2158463,,27.431261,0.1,102.98169,1606179563999
Fix,GT,37.4902396,-122.2161214,,27.350763,0.1,103.740295,1606179564999
Fix,GT,37.4903551,-122.2163933,,27.135597,0.1,104.33942,1606179565999
Fix,GT,37.4904709,-122.2166613,,26.674042,0.1,104.47244,1606179566999
Fix,GT,37.4905846,-122.2169216,,25.842512,0.1,105.01398,1606179567999
Fix,GT,37.4906976,-122.217174,,25.431673,0.1,105.86063,1606179568999
Fix,GT,37.4908122,-122.2174214,,25.20811,0.1,106.68811,1606179569999
Fix,GT,37.490929,-122.2176658,,25.28797,0.1,106.854126,1606179570999
Fix,GT,37.4910469,-122.217915,,26.033014,0.1,106.00134,1606179571999
Fix,GT,37.4911648,-122.2181733,,26.540968,0.1,105.50665,1606179572999
Fix,GT,37.4912832,-122.2184363,,26.837267,0.1,105.2897,1606179573999
Fix,GT,37.491401,-122.2186997,,26.55029,0.1,105.31363,1606179574999
Fix,GT,37.4915176,-122.21896,,26.297901,0.1,105.39261,1606179575999
Fix,GT,37.4916336,-122.2192179,,26.072062,0.1,105.33145,1606179576999
Fix,GT,37.4917478,-122.2194738,,25.803493,0.1,105.082306,1606179577999
Fix,GT,37.4918605,-122.2197274,,25.54121,0.1,105.24844,1606179578999
Fix,GT,37.4919725,-122.2199779,,25.236498,0.1,105.302185,1606179579999
Fix,GT,37.492083,-122.2202252,,24.919939,0.1,105.25745,1606179580999
Fix,GT,37.4921922,-122.2204702,,24.787432,0.1,105.25189,1606179581999
Fix,GT,37.4923021,-122.2207167,,25.27161,0.1,105.12384,1606179582999
Fix,GT,37.4924148,-122.2209699,,25.997822,0.1,105.05911,1606179583999
Fix,GT,37.4925303,-122.2212299,,26.67326,0.1,105.25656,1606179584999
Fix,GT,37.4926492,-122.2214967,,27.374918,0.1,105.21399,1606179585999
Fix,GT,37.4927705,-122.2217697,,27.824724,0.1,105.15579,1606179586999
Fix,GT,37.4928928,-122.2220458,,28.004433,0.1,105.07416,1606179587999
Fix,GT,37.4930154,-122.2223238,,28.227661,0.1,105.007935,1606179588999
Fix,GT,37.4931391,-122.2226051,,28.578962,0.1,105.22119,1606179589999
Fix,GT,37.4932652,-122.2228882,,28.73637,0.1,105.346924,1606179590999
Fix,GT,37.4933913,-122.2231727,,28.842075,0.1,104.80078,1606179591999
Fix,GT,37.4935148,-122.2234604,,28.942991,0.1,103.544495,1606179592999
Fix,GT,37.4936348,-122.2237531,,29.261332,0.1,102.85126,1606179593999
Fix,GT,37.4937532,-122.2240508,,29.591764,0.1,102.20758,1606179594999
Fix,GT,37.49387,-122.224353,,29.765001,0.1,101.42279,1606179595999
Fix,GT,37.4939837,-122.2246583,,29.795233,0.1,100.68768,1606179596999
Fix,GT,37.494095,-122.2249652,,29.873192,0.1,100.25217,1606179597999
Fix,GT,37.4942051,-122.225275,,30.106047,0.1,99.97766,1606179598999
Fix,GT,37.4943145,-122.2255878,,30.289228,0.1,99.61417,1606179599999
Fix,GT,37.4944228,-122.2259036,,30.409597,0.1,98.88693,1606179600999
Fix,GT,37.4945272,-122.22622,,30.126226,0.1,98.13666,1606179601999
Fix,GT,37.4946275,-122.2265344,,29.766861,0.1,97.4465,1606179602999
Fix,GT,37.4947239,-122.2268466,,29.417963,0.1,96.81967,1606179603999
Fix,GT,37.4948159,-122.2271565,,29.096571,0.1,95.78882,1606179604999
Fix,GT,37.4949033,-122.2274649,,28.793875,0.1,95.41315,1606179605999
Fix,GT,37.4949886,-122.2277703,,28.399906,0.1,95.50845,1606179606999
Fix,GT,37.4950744,-122.2280704,,27.92464,0.1,96.0152,1606179607999
Fix,GT,37.4951596,-122.2283622,,26.945946,0.1,95.86099,1606179608999
Fix,GT,37.4952406,-122.2286422,,25.84773,0.1,95.81244,1606179609999
Fix,GT,37.4953193,-122.2289138,,25.31286,0.1,96.41818,1606179610999
Fix,GT,37.4953996,-122.2291774,,24.52435,0.1,97.66882,1606179611999
Fix,GT,37.4954821,-122.2294269,,23.346224,0.1,99.332886,1606179612999
Fix,GT,37.4955645,-122.2296642,,22.401405,0.1,99.43439,1606179613999
Fix,GT,37.4956437,-122.2298902,,21.301048,0.1,99.77603,1606179614999
Fix,GT,37.4957214,-122.2301076,,20.871107,0.1,100.60751,1606179615999
Fix,GT,37.4957991,-122.2303194,,20.350521,0.1,100.071594,1606179616999
Fix,GT,37.4958725,-122.230526,,19.61057,0.1,99.69458,1606179617999
Fix,GT,37.4959426,-122.2307246,,18.797813,0.1,99.5968,1606179618999
Fix,GT,37.4960109,-122.2309158,,18.259792,0.1,100.52667,1606179619999
Fix,GT,37.4960812,-122.2310983,,17.647213,0.1,104.84885,1606179620999
Fix,GT,37.4961615,-122.2312641,,16.762651,0.1,113.70032,1606179621999
Fix,GT,37.4962571,-122.2314025,,15.955471,0.1,124.81003,1606179622999
Fix,GT,37.4963674,-122.2315128,,15.493295,0.1,133.9942,1606179623999
Fix,GT,37.4964864,-122.2315966,,14.987941,0.1,143.586,1606179624999
Fix,GT,37.4966112,-122.2316537,,14.690624,0.1,152.29712,1606179625999
Fix,GT,37.4967385,-122.2316895,,14.263756,0.1,154.63281,1606179626999
Fix,GT,37.4968614,-122.2317214,,13.481943,0.1,151.6908,1606179627999
Fix,GT,37.4969747,-122.2317639,,12.705248,0.1,141.80533,1606179628999
Fix,GT,37.4970755,-122.23183,,12.42311,0.1,127.76828,1606179629999
Fix,GT,37.4971594,-122.2319267,,12.6758375,0.1,113.52893,1606179630999
Fix,GT,37.4972235,-122.2320452,,12.433334,0.1,104.85687,1606179631999
Fix,GT,37.4972718,-122.2321649,,10.99074,0.1,99.70343,1606179632999
Fix,GT,37.4973057,-122.2322712,,9.2287445,0.1,96.95325,1606179633999
Fix,GT,37.4973325,-122.2323637,,8.201219,0.1,93.92581,1606179634999
Fix,GT,37.4973523,-122.2324505,,7.5347176,0.1,81.48865,1606179635999
Fix,GT,37.4973552,-122.2325344,,7.109304,0.1,65.97641,1606179636999
Fix,GT,37.4973394,-122.2326159,,7.6096992,0.1,45.976044,1606179637999
Fix,GT,37.4972961,-122.2326938,,8.79882,0.1,23.42035,1606179638999
Fix,GT,37.4972238,-122.2327512,,10.149522,0.1,9.868225,1606179639999
Fix,GT,37.4971317,-122.2327969,,11.776497,0.1,5.959961,1606179640999
Fix,GT,37.497025,-122.2328429,,13.25119,0.1,5.111206,1606179641999
Fix,GT,37.4969053,-122.2328936,,14.838941,0.1,6.3875427,1606179642999
Fix,GT,37.4967755,-122.2329549,,15.82899,0.1,8.215271,1606179643999
Fix,GT,37.4966409,-122.2330237,,16.382761,0.1,9.006226,1606179644999
Fix,GT,37.4965021,-122.2330968,,16.979048,0.1,8.634827,1606179645999
Fix,GT,37.4963609,-122.2331688,,16.77923,0.1,7.3433228,1606179646999
Fix,GT,37.496221,-122.2332365,,16.491,0.1,6.657715,1606179647999
Fix,GT,37.4960826,-122.2333014,,16.318722,0.1,6.2713623,1606179648999
Fix,GT,37.4959436,-122.2333661,,16.743708,0.1,6.019684,1606179649999
Fix,GT,37.4957996,-122.2334324,,17.213778,0.1,6.0014343,1606179650999
Fix,GT,37.495654,-122.2335024,,17.410496,0.1,8.7247925,1606179651999
Fix,GT,37.4955102,-122.2335826,,17.643425,0.1,12.378021,1606179652999
Fix,GT,37.4953695,-122.2336769,,17.84683,0.1,17.361786,1606179653999
Fix,GT,37.4952368,-122.2337864,,17.350122,0.1,22.250427,1606179654999
Fix,GT,37.4951177,-122.2339013,,15.953201,0.1,25.329956,1606179655999
Fix,GT,37.4950133,-122.2340145,,14.654862,0.1,29.072906,1606179656999
Fix,GT,37.4949267,-122.234123,,12.343296,0.1,33.48755,1606179657999
Fix,GT,37.4948626,-122.2342173,,9.654157,0.1,36.50647,1606179658999
Fix,GT,37.4948151,-122.2342934,,7.704404,0.1,41.824432,1606179659999
Fix,GT,37.4947815,-122.2343612,,6.973454,0.1,61.471405,1606179660999
Fix,GT,37.4947698,-122.234436,,7.063022,0.1,89.65982,1606179661999
Fix,GT,37.4947918,-122.2345144,,8.126071,0.1,116.19202,1606179662999
Fix,GT,37.4948447,-122.2345831,,8.703665,0.1,122.30176,1606179663999
Fix,GT,37.4949025,-122.2346479,,8.44248,0.1,123.40085,1606179664999
Fix,GT,37.4949571,-122.2347063,,7.371945,0.1,124.31241,1606179665999
Fix,GT,37.4950007,-122.2347527,,5.371693,0.1,129.5835,1606179666999
Fix,GT,37.4950298,-122.2347816,,3.4566371,0.1,145.28848,1606179667999
Fix,GT,37.495056,-122.2348014,,3.109012,0.1,170.51294,1606179668999
Fix,GT,37.4950844,-122.2348077,,2.9749455,0.1,200.30853,1606179669999
Fix,GT,37.4951132,-122.2347958,,3.453281,0.1,232.78839,1606179670999
Fix,GT,37.4951309,-122.2347573,,4.5348387,0.1,254.00981,1606179671999
Fix,GT,37.4951329,-122.2346997,,5.535444,0.1,250.31732,1606179672999
Fix,GT,37.4951395,-122.2346307,,6.3467145,0.1,231.06276,1606179673999
Fix,GT,37.4951676,-122.2345619,,6.905426,0.1,213.43105,1606179674999
Fix,GT,37.4952121,-122.2345057,,6.8397813,0.1,201.02684,1606179675999
Fix,GT,37.4952616,-122.2344647,,6.2008677,0.1,193.74593,1606179676999
Fix,GT,37.4953068,-122.2344366,,4.815642,0.1,192.55254,1606179677999
Fix,GT,37.4953367,-122.2344194,,2.5116174,0.1,195.59203,1606179678999
Fix,GT,37.4953486,-122.2344119,,0.6794317,0.1,195.51024,1606179679999
Fix,GT,37.4953522,-122.2344101,,0.22663504,0.1,195.486,1606179680999
Fix,GT,37.4953549,-122.2344089,,0.32083946,0.1,195.47194,1606179681999
Fix,GT,37.4953562,-122.2344086,,0.07816606,0.1,195.47234,1606179682999
Fix,GT,37.4953569,-122.2344086,,0.08237525,0.1,195.46751,1606179683999
Fix,GT,37.4953573,-122.2344086,,0.05814859,0.1,195.46947,1606179684999
Fix,GT,37.4953577,-122.2344086,,0.04817083,0.1,195.46837,1606179685999
Fix,GT,37.4953579,-122.2344086,,0.041051928,0.1,195.46762,1606179686999
Fix,GT,37.4953582,-122.2344087,,0.03206645,0.1,195.46732,1606179687999
