MessageType,Provider,LatitudeDegrees,LongitudeDegrees,AltitudeMeters,SpeedMps,AccuracyMeters,BearingDegrees,UnixTimeMillis
Fix,GT,37.4245512,-122.0922698,,0.0026349477,0.1,202.92323,1591898778430
Fix,GT,37.4245512,-122.0922698,,0.0026617334,0.1,202.92294,1591898779430
Fix,GT,37.4245512,-122.0922698,,0.0011386841,0.1,202.92307,1591898780430
Fix,GT,37.4245512,-122.0922698,,0.00060904236,0.1,202.92274,1591898781430
Fix,GT,37.4245512,-122.0922698,,0.0012358292,0.1,202.92242,1591898782430
Fix,GT,37.4245512,-122.0922698,,0.0011783844,0.1,202.9218,1591898783430
Fix,GT,37.4245512,-122.0922698,,0.0014142136,0.1,202.92192,1591898784430
Fix,GT,37.4245512,-122.0922698,,0.0016664872,0.1,202.92189,1591898785430
Fix,GT,37.4245512,-122.0922698,,0.0017477265,0.1,202.92139,1591898786430
Fix,GT,37.4245512,-122.0922698,,0.0016664872,0.1,202.92091,1591898787430
Fix,GT,37.4245512,-122.0922698,,0.002,0.1,202.92082,1591898788430
Fix,GT,37.4245512,-122.0922698,,0.0015693421,0.1,202.92056,1591898789430
Fix,GT,37.4245512,-122.0922698,,0.0011783845,0.1,202.91914,1591898790430
Fix,GT,37.4245512,-122.0922698,,0.0017681518,0.1,202.9188,1591898791430
Fix,GT,37.4245512,-122.0922698,,0.002236068,0.1,202.91975,1591898792430
Fix,GT,37.4245512,-122.0922698,,0.002236068,0.1,202.91953,1591898793430
Fix,GT,37.4245512,-122.0922698,,0.0017037455,0.1,202.91884,1591898794430
Fix,GT,37.4245512,-122.0922698,,0.001,0.1,202.91876,1591898795430
Fix,GT,37.4245512,-122.0922698,,0.0011783845,0.1,202.91914,1591898796430
Fix,GT,37.4245512,-122.0922698,,0.0012358292,0.1,202.919,1591898797430
Fix,GT,37.4245512,-122.0922698,,0.0011783845,0.1,202.91798,1591898798430
Fix,GT,37.4245512,-122.0922698,,0.0014142136,0.1,202.91724,1591898799430
Fix,GT,37.4245512,-122.0922698,,0.0012358292,0.1,202.91704,1591898800430
Fix,GT,37.4245512,-122.0922698,,0.000569342,0.1,202.91643,1591898801430
Fix,GT,37.4245512,-122.0922698,,0.00043065805,0.1,202.91608,1591898802430
Fix,GT,37.4245512,-122.0922698,,0.001,0.1,202.91519,1591898803430
Fix,GT,37.4245512,-122.0922698,,0.001,0.1,202.91457,1591898804430
Fix,GT,37.4245512,-122.0922698,,0.0018613162,0.1,202.91411,1591898805430
Fix,GT,37.4245512,-122.0922698,,0.003430658,0.1,202.91368,1591898806430
Fix,GT,37.4245512,-122.0922698,,0.0032403488,0.1,202.91357,1591898807430
Fix,GT,37.4245512,-122.0922698,,0.0017037455,0.1,202.91351,1591898808430
Fix,GT,37.4245512,-122.0922698,,0.0014306582,0.1,202.91255,1591898809430
Fix,GT,37.4245512,-122.0922698,,0.0017477265,0.1,202.91171,1591898810430
Fix,GT,37.4245512,-122.0922698,,0.0012358292,0.1,202.91135,1591898811430
Fix,GT,37.4245512,-122.0922698,,0.001,0.1,202.91031,1591898812430
Fix,GT,37.4245512,-122.0922698,,0.0015323227,0.1,202.90962,1591898813430
Fix,GT,37.4245512,-122.0922698,,0.0017037453,0.1,202.90909,1591898814430
Fix,GT,37.4245512,-122.0922698,,0.0014306582,0.1,202.90843,1591898815430
Fix,GT,37.4245512,-122.0922698,,0.0011386839,0.1,202.90793,1591898816430
Fix,GT,37.4245512,-122.0922698,,0.00043065805,0.1,202.9074,1591898817430
Fix,GT,37.4245512,-122.0922698,,0.001,0.1,202.90674,1591898818430
Fix,GT,37.4245512,-122.0922698,,0.001,0.1,-157.09311,1591898819430
Fix,GT,37.4245512,-122.0922698,,0.001,0.1,202.90646,1591898820430
Fix,GT,37.4245512,-122.0922698,,0.0014306582,0.1,202.90576,1591898821430
Fix,GT,37.4245512,-122.0922698,,0.0017477265,0.1,202.90533,1591898822430
Fix,GT,37.4245512,-122.0922698,,0.0016664872,0.1,202.90503,1591898823430
Fix,GT,37.4245512,-122.0922698,,0.0017477265,0.1,202.90475,1591898824430
Fix,GT,37.4245512,-122.0922698,,0.0017681518,0.1,202.90387,1591898825430
Fix,GT,37.4245512,-122.0922698,,0.0021344034,0.1,202.90363,1591898826430
Fix,GT,37.4245512,-122.0922698,,0.002,0.1,202.90347,1591898827430
Fix,GT,37.4245512,-122.0922698,,0.0015693421,0.1,202.90244,1591898828430
Fix,GT,37.4245512,-122.0922698,,0.001,0.1,202.90163,1591898829430
Fix,GT,37.4245512,-122.0922698,,0.001,0.1,202.90091,1591898830430
Fix,GT,37.4245512,-122.0922698,,0.001,0.1,202.90057,1591898831430
Fix,GT,37.4245512,-122.0922698,,0.001,0.1,202.90028,1591898832430
Fix,GT,37.4245512,-122.0922698,,0.001,0.1,202.89969,1591898833430
Fix,GT,37.4245512,-122.0922698,,0.00056934205,0.1,202.89917,1591898834430
Fix,GT,37.4245512,-122.0922698,,0.0017756484,0.1,202.89874,1591898835430
Fix,GT,37.4245512,-122.0922698,,0.0037093174,0.1,202.89833,1591898836430
Fix,GT,37.4245512,-122.0922698,,0.0039537074,0.1,202.89812,1591898837430
Fix,GT,37.4245512,-122.0922698,,0.005,0.1,202.8974,1591898838430
Fix,GT,37.4245512,-122.0922698,,0.004399469,0.1,202.89708,1591898839430
Fix,GT,37.4245512,-122.0922698,,0.0029141079,0.1,202.897,1591898840430
Fix,GT,37.4245512,-122.0922698,,0.0021016647,0.1,202.8963,1591898841430
Fix,GT,37.4245512,-122.0922698,,0.0017037455,0.1,202.89642,1591898842430
Fix,GT,37.4245512,-122.0922698,,0.00056934205,0.1,202.89644,1591898843430
Fix,GT,37.4245512,-122.0922698,,0.000861316,0.1,202.89525,1591898844430
Fix,GT,37.4245512,-122.0922698,,0.0021016647,0.1,202.89435,1591898845430
Fix,GT,37.4245512,-122.0922698,,0.0018821298,0.1,202.89366,1591898846430
Fix,GT,37.4245512,-122.0922698,,0.0014142136,0.1,202.89326,1591898847430
Fix,GT,37.4245512,-122.0922698,,0.002632298,0.1,202.89249,1591898848430
Fix,GT,37.4245512,-122.0922698,,0.003378494,0.1,202.89235,1591898849430
Fix,GT,37.4245512,-122.0922698,,0.0018821298,0.1,202.8922,1591898850430
Fix,GT,37.4245512,-122.0922698,,0.0012358292,0.1,202.89174,1591898851430
Fix,GT,37.4245512,-122.0922698,,0.0015323226,0.1,202.89105,1591898852430
Fix,GT,37.4245512,-122.0922697,,0.002236068,0.1,202.89072,1591898853430
Fix,GT,37.4245512,-122.0922697,,0.0018821298,0.1,202.89023,1591898854430
Fix,GT,37.4245512,-122.0922697,,0.0025808197,0.1,202.88933,1591898855430
Fix,GT,37.4245512,-122.0922697,,0.0042734183,0.1,202.88786,1591898856430
Fix,GT,37.4245507,-122.0922699,,0.13714108,0.1,202.8491,1591898857430
Fix,GT,37.4245482,-122.0922708,,0.5450095,0.1,202.05048,1591898858430
Fix,GT,37.4245408,-122.092272,,1.1825297,0.1,197.8909,1591898859430
Fix,GT,37.424527,-122.0922711,,1.9663086,0.1,187.86494,1591898860430
Fix,GT,37.4245073,-122.0922635,,2.7730646,0.1,172.2682,1591898861430
Fix,GT,37.4244842,-122.0922449,,3.5855217,0.1,153.68347,1591898862430
Fix,GT,37.4244596,-122.0922142,,4.312072,0.1,138.52997,1591898863430
Fix,GT,37.4244351,-122.0921739,,4.7423496,0.1,128.92108,1591898864430
Fix,GT,37.4244139,-122.0921294,,4.436497,0.1,122.14804,1591898865430
Fix,GT,37.424397,-122.0920884,,3.7865617,0.1,118.38275,1591898866430
Fix,GT,37.4243852,-122.0920499,,3.724804,0.1,112.22247,1591898867430
Fix,GT,37.4243798,-122.0920081,,4.0383053,0.1,101.002625,1591898868430
Fix,GT,37.424383,-122.091961,,4.6372094,0.1,86.48572,1591898869430
Fix,GT,37.4243976,-122.0919097,,5.3006506,0.1,71.35275,1591898870430
Fix,GT,37.4244238,-122.0918568,,5.97522,0.1,58.415222,1591898871430
Fix,GT,37.4244617,-122.0918054,,6.6605873,0.1,46.80301,1591898872430
Fix,GT,37.4245105,-122.0917596,,7.050998,0.1,36.328766,1591898873430
Fix,GT,37.4245647,-122.0917221,,6.642353,0.1,28.839691,1591898874430
Fix,GT,37.4246147,-122.0916938,,5.5480423,0.1,24.55304,1591898875430
Fix,GT,37.4246558,-122.0916733,,4.4781823,0.1,23.227417,1591898876430
Fix,GT,37.4246892,-122.0916521,,3.8987992,0.1,29.113556,1591898877430
Fix,GT,37.4247147,-122.0916204,,3.9980857,0.1,46.37274,1591898878430
Fix,GT,37.424728,-122.0915727,,4.7931576,0.1,71.928406,1591898879430
Fix,GT,37.4247238,-122.0915087,,6.393291,0.1,96.532104,1591898880430
Fix,GT,37.4247027,-122.0914291,,8.260651,0.1,110.78104,1591898881430
Fix,GT,37.4246684,-122.0913346,,9.987385,0.1,116.40048,1591898882430
Fix,GT,37.4246235,-122.0912266,,11.460909,0.1,119.559204,1591898883430
Fix,GT,37.4245693,-122.0911082,,12.687702,0.1,121.71088,1591898884430
Fix,GT,37.424507,-122.0909825,,13.441299,0.1,123.98328,1591898885430
Fix,GT,37.424437,-122.0908566,,13.634922,0.1,127.43918,1591898886430
Fix,GT,37.4243605,-122.0907364,,13.49888,0.1,131.34738,1591898887430
Fix,GT,37.4242793,-122.090626,,12.965012,0.1,135.46454,1591898888430
Fix,GT,37.4241973,-122.0905286,,12.015321,0.1,138.99103,1591898889430
Fix,GT,37.424119,-122.0904455,,10.642088,0.1,142.24408,1591898890430
Fix,GT,37.4240475,-122.0903801,,8.91478,0.1,147.30255,1591898891430
Fix,GT,37.423984,-122.0903358,,7.091982,0.1,154.60107,1591898892430
Fix,GT,37.4239319,-122.0903122,,5.104002,0.1,164.0144,1591898893430
Fix,GT,37.423894,-122.0903043,,3.463841,0.1,172.96063,1591898894430
Fix,GT,37.4238652,-122.0903045,,3.2166905,0.1,180.3711,1591898895430
Fix,GT,37.4238318,-122.0903135,,4.4235163,0.1,191.81383,1591898896430
Fix,GT,37.4237894,-122.0903429,,6.135996,0.1,211.09149,1591898897430
Fix,GT,37.423747,-122.0904019,,7.7662735,0.1,231.84377,1591898898430
Fix,GT,37.4237078,-122.0904877,,9.592808,0.1,242.72998,1591898899430
Fix,GT,37.4236656,-122.0905937,,11.303801,0.1,244.60115,1591898900430
Fix,GT,37.4236165,-122.0907154,,12.79562,0.1,244.08505,1591898901430
Fix,GT,37.4235571,-122.0908475,,14.071651,0.1,240.28891,1591898902430
Fix,GT,37.4234824,-122.0909827,,15.198023,0.1,234.0578,1591898903430
Fix,GT,37.4233899,-122.0911161,,16.192314,0.1,227.99419,1591898904430
Fix,GT,37.4232823,-122.0912447,,16.901157,0.1,222.77478,1591898905430
Fix,GT,37.423162,-122.0913649,,17.361664,0.1,217.3992,1591898906430
Fix,GT,37.4230296,-122.0914726,,17.813637,0.1,211.89076,1591898907430
Fix,GT,37.422887,-122.0915678,,18.170832,0.1,207.41512,1591898908430
Fix,GT,37.4227374,-122.0916529,,18.363863,0.1,204.61604,1591898909430
Fix,GT,37.422584,-122.0917333,,18.547268,0.1,203.53116,1591898910430
Fix,GT,37.4224285,-122.091813,,18.703243,0.1,203.52742,1591898911430
Fix,GT,37.4222725,-122.091894,,18.744232,0.1,203.99702,1591898912430
Fix,GT,37.4221174,-122.0919772,,18.661858,0.1,204.69151,1591898913430
Fix,GT,37.4219637,-122.0920616,,18.576612,0.1,205.02121,1591898914430
Fix,GT,37.4218105,-122.0921463,,18.618984,0.1,205.06105,1591898915430
Fix,GT,37.4216562,-122.0922318,,18.775036,0.1,204.99236,1591898916430
Fix,GT,37.4215012,-122.0923159,,18.70138,0.1,204.35573,1591898917430
Fix,GT,37.4213474,-122.0923969,,18.355574,0.1,203.86435,1591898918430
Fix,GT,37.4211966,-122.0924765,,17.984959,0.1,204.23152,1591898919430
Fix,GT,37.4210494,-122.0925557,,17.526285,0.1,204.50327,1591898920430
Fix,GT,37.4209067,-122.0926325,,16.90834,0.1,204.42352,1591898921430
Fix,GT,37.4207698,-122.0927057,,16.095474,0.1,204.14761,1591898922430
Fix,GT,37.4206402,-122.0927738,,15.107271,0.1,203.80806,1591898923430
Fix,GT,37.4205189,-122.0928365,,13.953806,0.1,203.49377,1591898924430
Fix,GT,37.4204082,-122.0928929,,12.532303,0.1,203.20349,1591898925430
Fix,GT,37.4203102,-122.0929421,,10.852057,0.1,202.98323,1591898926430
Fix,GT,37.4202269,-122.0929837,,9.0504875,0.1,202.88057,1591898927430
Fix,GT,37.4201585,-122.0930176,,7.303237,0.1,202.79651,1591898928430
Fix,GT,37.4201049,-122.093044,,5.4405656,0.1,202.68758,1591898929430
Fix,GT,37.4200677,-122.0930623,,3.4382033,0.1,202.58607,1591898930430
Fix,GT,37.4200466,-122.0930728,,1.6715379,0.1,202.723,1591898931430
Fix,GT,37.4200383,-122.093077,,0.46571037,0.1,202.96149,1591898932430
Fix,GT,37.420037,-122.0930776,,0.0027781178,0.1,202.98712,1591898933430
Fix,GT,37.420037,-122.0930776,,0.001,0.1,202.98805,1591898934430
Fix,GT,37.420037,-122.0930776,,0.0011783841,0.1,202.98714,1591898935430
Fix,GT,37.420037,-122.0930776,,0.0012358295,0.1,202.98697,1591898936430
Fix,GT,37.420037,-122.0930776,,0.0011783841,0.1,202.98672,1591898937430
Fix,GT,37.420037,-122.0930776,,0.00080517237,0.1,202.98677,1591898938430
Fix,GT,37.420037,-122.0930776,,0.00060904113,0.1,202.9864,1591898939430
Fix,GT,37.420037,-122.0930776,,0.0016664867,0.1,202.9858,1591898940430
Fix,GT,37.420037,-122.0930776,,0.0026914421,0.1,202.98526,1591898941430
Fix,GT,37.420037,-122.0930776,,0.0030157736,0.1,202.98495,1591898942430
Fix,GT,37.420037,-122.0930776,,0.0018821305,0.1,202.98479,1591898943430
Fix,GT,37.420037,-122.0930776,,0.0012358297,0.1,202.98482,1591898944430
Fix,GT,37.420037,-122.0930776,,0.0015323214,0.1,202.98505,1591898945430
Fix,GT,37.420037,-122.0930776,,0.0017037466,0.1,202.98499,1591898946430
Fix,GT,37.420037,-122.0930776,,0.001,0.1,202.9848,1591898947430
Fix,GT,37.420037,-122.0930776,,0.001,0.1,202.9842,1591898948430
Fix,GT,37.420037,-122.0930776,,0.0014306571,0.1,202.98396,1591898949430
Fix,GT,37.420037,-122.0930776,,0.0029143305,0.1,202.98447,1591898950430
Fix,GT,37.420037,-122.0930776,,0.004273418,0.1,202.9841,1591898951430
Fix,GT,37.420037,-122.0930776,,0.0039080363,0.1,202.98392,1591898952430
Fix,GT,37.420037,-122.0930776,,0.0026617348,0.1,202.98369,1591898953430
Fix,GT,37.420037,-122.0930776,,0.0017477269,0.1,202.98334,1591898954430
Fix,GT,37.420037,-122.0930776,,0.010886595,0.1,202.98383,1591898955430
Fix,GT,37.4200358,-122.0930782,,0.29810694,0.1,203.0161,1591898956430
Fix,GT,37.4200304,-122.093081,,1.0422864,0.1,203.23106,1591898957430
Fix,GT,37.4200168,-122.0930881,,2.3426876,0.1,203.59389,1591898958430
Fix,GT,37.4199896,-122.0931023,,4.2448277,0.1,203.6758,1591898959430
Fix,GT,37.4199466,-122.0931245,,5.985902,0.1,203.51025,1591898960430
Fix,GT,37.4198918,-122.0931525,,7.0245,0.1,203.31607,1591898961430
Fix,GT,37.4198326,-122.0931833,,7.100547,0.1,204.20428,1591898962430
Fix,GT,37.4197779,-122.0932192,,6.5262566,0.1,211.51164,1591898963430
Fix,GT,37.4197368,-122.093269,,6.1469436,0.1,229.78027,1591898964430
Fix,GT,37.4197177,-122.0933345,,6.166312,0.1,256.46024,1591898965430
Fix,GT,37.4197267,-122.0934055,,6.6252995,0.1,285.11404,1591898966430
Fix,GT,37.4197657,-122.0934702,,7.7478104,0.1,313.28638,1591898967430
Fix,GT,37.4198329,-122.0935128,,9.053013,0.1,340.06937,1591898968430
Fix,GT,37.4199206,-122.0935276,,10.4931345,0.1,356.94864,1591898969430
Fix,GT,37.4200223,-122.0935272,,11.971804,0.1,2.4920654,1591898970430
Fix,GT,37.4201363,-122.0935228,,13.2971525,0.1,2.9784546,1591898971430
Fix,GT,37.4202609,-122.0935203,,14.27673,0.1,1.6256409,1591898972430
Fix,GT,37.4203918,-122.0935227,,14.688993,0.1,359.42206,1591898973430
Fix,GT,37.4205238,-122.0935336,,14.688088,0.1,356.17087,1591898974430
Fix,GT,37.4206543,-122.0935541,,14.550898,0.1,352.96603,1591898975430
Fix,GT,37.4207821,-122.0935802,,14.155035,0.1,351.7904,1591898976430
Fix,GT,37.420904,-122.093605,,13.119249,0.1,352.49478,1591898977430
Fix,GT,37.4210145,-122.0936229,,11.509172,0.1,355.42535,1591898978430
Fix,GT,37.4211103,-122.093628,,9.71212,0.1,1.434021,1591898979430
Fix,GT,37.4211896,-122.0936182,,7.860321,0.1,10.147491,1591898980430
Fix,GT,37.4212507,-122.093593,,6.4753017,0.1,23.542969,1591898981430
Fix,GT,37.4212955,-122.0935492,,6.3259945,0.1,43.682648,1591898982430
Fix,GT,37.4213217,-122.0934815,,7.148201,0.1,69.80792,1591898983430
Fix,GT,37.4213224,-122.0933926,,8.585758,0.1,95.27011,1591898984430
Fix,GT,37.4212955,-122.0932908,,10.274393,0.1,113.497375,1591898985430
Fix,GT,37.4212442,-122.0931829,,11.911051,0.1,124.86713,1591898986430
Fix,GT,37.4211738,-122.0930691,,13.544584,0.1,130.30704,1591898987430
Fix,GT,37.4210908,-122.0929445,,15.144784,0.1,131.40393,1591898988430
Fix,GT,37.4209976,-122.0928077,,16.668627,0.1,131.89752,1591898989430
Fix,GT,37.4208958,-122.0926584,,18.070786,0.1,131.61176,1591898990430
Fix,GT,37.4207871,-122.092496,,19.448273,0.1,131.19476,1591898991430
Fix,GT,37.4206703,-122.0923218,,20.825226,0.1,131.71567,1591898992430
Fix,GT,37.4205435,-122.092138,,22.175528,0.1,132.64133,1591898993430
Fix,GT,37.4204066,-122.0919453,,23.52023,0.1,133.17148,1591898994430
Fix,GT,37.4202599,-122.091743,,24.877806,0.1,133.73032,1591898995430
Fix,GT,37.4201043,-122.0915305,,26.204603,0.1,133.78381,1591898996430
Fix,GT,37.419941,-122.0913064,,27.528763,0.1,133.58118,1591898997430
Fix,GT,37.4197709,-122.0910701,,28.847153,0.1,133.01248,1591898998430
Fix,GT,37.4195969,-122.0908212,,29.69453,0.1,131.94153,1591898999430
Fix,GT,37.4194224,-122.0905643,,29.964668,0.1,131.44568,1591899000430
Fix,GT,37.4192468,-122.0903053,,30.194977,0.1,131.95062,1591899001430
Fix,GT,37.4190671,-122.0900476,,30.389397,0.1,132.82288,1591899002430
Fix,GT,37.4188834,-122.0897911,,30.620106,0.1,133.52838,1591899003430
Fix,GT,37.4186963,-122.0895346,,30.913431,0.1,133.8836,1591899004430
Fix,GT,37.4185061,-122.0892773,,31.173267,0.1,134.24554,1591899005430
Fix,GT,37.418313,-122.0890199,,31.389671,0.1,134.62253,1591899006430
Fix,GT,37.4181184,-122.0887612,,31.578682,0.1,134.35672,1591899007430
Fix,GT,37.4179245,-122.0884988,,31.750202,0.1,133.67004,1591899008430
Fix,GT,37.4177317,-122.0882324,,31.940449,0.1,133.33963,1591899009430
Fix,GT,37.4175381,-122.0879639,,32.149868,0.1,133.36871,1591899010430
Fix,GT,37.4173429,-122.0876939,,32.38047,0.1,133.48175,1591899011430
Fix,GT,37.4171458,-122.0874222,,32.649643,0.1,133.61111,1591899012430
Fix,GT,37.4169466,-122.0871486,,32.93479,0.1,133.68921,1591899013430
Fix,GT,37.4167456,-122.086873,,33.203102,0.1,133.64337,1591899014430
Fix,GT,37.4165432,-122.0865949,,33.444313,0.1,133.60358,1591899015430
Fix,GT,37.4163394,-122.0863148,,33.68737,0.1,133.62314,1591899016430
Fix,GT,37.4161341,-122.0860328,,33.921364,0.1,133.62878,1591899017430
Fix,GT,37.4159276,-122.0857489,,34.099827,0.1,133.61365,1591899018430
Fix,GT,37.4157202,-122.0854638,,34.218384,0.1,133.59418,1591899019430
Fix,GT,37.415512,-122.0851779,,34.26658,0.1,133.64838,1591899020430
Fix,GT,37.4153037,-122.0848925,,34.23197,0.1,133.80524,1591899021430
Fix,GT,37.4150952,-122.0846084,,34.13591,0.1,133.86407,1591899022430
Fix,GT,37.4148877,-122.0843243,,34.10205,0.1,133.50232,1591899023430
Fix,GT,37.4146827,-122.0840375,,34.103462,0.1,132.62723,1591899024430
Fix,GT,37.4144818,-122.0837462,,34.10232,0.1,131.46216,1591899025430
Fix,GT,37.4142858,-122.0834499,,34.06185,0.1,130.1766,1591899026430
Fix,GT,37.4140959,-122.0831487,,33.929367,0.1,128.81323,1591899027430
Fix,GT,37.4139125,-122.0828433,,33.783966,0.1,127.58646,1591899028430
Fix,GT,37.4137349,-122.0825342,,33.719173,0.1,126.28778,1591899029430
Fix,GT,37.4135631,-122.0822201,,33.751225,0.1,125.031586,1591899030430
Fix,GT,37.413397,-122.081901,,33.738705,0.1,123.565186,1591899031430
Fix,GT,37.4132377,-122.0815767,,33.713783,0.1,122.072784,1591899032430
Fix,GT,37.4130842,-122.0812479,,33.786724,0.1,121.07761,1591899033430
Fix,GT,37.4129344,-122.0809152,,33.86304,0.1,120.27582,1591899034430
Fix,GT,37.4127878,-122.0805793,,33.930386,0.1,119.46698,1591899035430
Fix,GT,37.4126448,-122.0802402,,33.99571,0.1,118.703,1591899036430
Fix,GT,37.4125045,-122.0798986,,34.064594,0.1,118.299194,1591899037430
Fix,GT,37.4123644,-122.079556,,34.066895,0.1,118.45471,1591899038430
Fix,GT,37.4122235,-122.0792152,,33.84668,0.1,118.6687,1591899039430
Fix,GT,37.4120837,-122.0788783,,33.34836,0.1,118.62091,1591899040430
Fix,GT,37.4119456,-122.0785476,,32.715748,0.1,119.12335,1591899041430
Fix,GT,37.4118068,-122.0782254,,32.071106,0.1,120.03375,1591899042430
Fix,GT,37.4116684,-122.0779113,,31.445377,0.1,120.177124,1591899043430
Fix,GT,37.4115334,-122.0776027,,30.94807,0.1,119.68729,1591899044430
Fix,GT,37.411402,-122.0772961,,30.797066,0.1,119.114624,1591899045430
Fix,GT,37.4112732,-122.0769874,,30.889662,0.1,118.476074,1591899046430
Fix,GT,37.4111456,-122.0766767,,30.986115,0.1,118.50812,1591899047430
Fix,GT,37.4110155,-122.0763662,,31.10751,0.1,119.38684,1591899048430
Fix,GT,37.4108808,-122.0760574,,31.213758,0.1,120.33966,1591899049430
Fix,GT,37.4107421,-122.0757498,,31.318394,0.1,121.03464,1591899050430
Fix,GT,37.4106011,-122.0754425,,31.431793,0.1,121.20639,1591899051430
Fix,GT,37.4104595,-122.0751345,,31.500774,0.1,121.10571,1591899052430
Fix,GT,37.4103179,-122.0748259,,31.545088,0.1,121.09119,1591899053430
Fix,GT,37.4101762,-122.0745169,,31.560463,0.1,121.10504,1591899054430
Fix,GT,37.4100343,-122.0742082,,31.503334,0.1,121.11871,1591899055430
Fix,GT,37.4098929,-122.0739006,,31.377285,0.1,121.170715,1591899056430
Fix,GT,37.4097515,-122.0735941,,31.330967,0.1,121.40665,1591899057430
Fix,GT,37.4096091,-122.0732888,,31.27681,0.1,121.61679,1591899058430
Fix,GT,37.4094672,-122.0729847,,31.144623,0.1,121.39041,1591899059430
Fix,GT,37.4093271,-122.072681,,30.97166,0.1,121.13092,1591899060430
Fix,GT,37.4091885,-122.0723787,,30.75705,0.1,121.188965,1591899061430
Fix,GT,37.4090503,-122.0720793,,30.518568,0.1,121.368774,1591899062430
Fix,GT,37.4089107,-122.0717839,,30.263918,0.1,122.487946,1591899063430
Fix,GT,37.4087636,-122.0714983,,29.954208,0.1,125.930115,1591899064430
Fix,GT,37.4086015,-122.0712301,,29.634933,0.1,131.15237,1591899065430
Fix,GT,37.4084209,-122.0709855,,29.407322,0.1,137.02124,1591899066430
Fix,GT,37.408223,-122.070766,,29.27565,0.1,142.4714,1591899067430
Fix,GT,37.4080101,-122.0705714,,29.215813,0.1,147.63773,1591899068430
Fix,GT,37.4077846,-122.0704019,,29.155071,0.1,152.8498,1591899069430
Fix,GT,37.4075486,-122.0702595,,28.939434,0.1,158.25128,1591899070430
Fix,GT,37.4073054,-122.0701485,,28.523672,0.1,164.21619,1591899071430
Fix,GT,37.4070574,-122.0700706,,28.288916,0.1,170.00104,1591899072430
Fix,GT,37.4068052,-122.0700231,,28.375631,0.1,175.16821,1591899073430
Fix,GT,37.4065485,-122.0700007,,28.68335,0.1,178.75842,1591899074430
Fix,GT,37.4062886,-122.0699918,,29.057945,0.1,179.9469,1591899075430
Fix,GT,37.4060244,-122.0699859,,29.585556,0.1,180.195,1591899076430
Fix,GT,37.4057552,-122.0699806,,30.18499,0.1,180.29883,1591899077430
Fix,GT,37.4054809,-122.0699755,,30.733974,0.1,180.2821,1591899078430
Fix,GT,37.4052018,-122.069971,,31.213388,0.1,180.55553,1591899079430
Fix,GT,37.4049185,-122.0699688,,31.643486,0.1,181.02936,1591899080430
Fix,GT,37.4046319,-122.0699689,,31.993156,0.1,181.32378,1591899081430
Fix,GT,37.4043422,-122.0699706,,32.273193,0.1,181.54993,1591899082430
Fix,GT,37.4040505,-122.0699731,,32.481827,0.1,181.49025,1591899083430
Fix,GT,37.4037572,-122.0699746,,32.63417,0.1,181.34924,1591899084430
Fix,GT,37.4034625,-122.0699759,,32.754906,0.1,181.44008,1591899085430
Fix,GT,37.4031668,-122.0699784,,32.85887,0.1,181.68117,1591899086430
Fix,GT,37.4028702,-122.0699822,,32.978416,0.1,181.82486,1591899087430
Fix,GT,37.4025724,-122.0699866,,33.163643,0.1,181.91225,1591899088430
Fix,GT,37.4022725,-122.0699918,,33.43506,0.1,182.03679,1591899089430
Fix,GT,37.4019698,-122.0699967,,33.757877,0.1,181.76334,1591899090430
Fix,GT,37.4016642,-122.0699993,,34.074276,0.1,181.40227,1591899091430
Fix,GT,37.4013563,-122.0699998,,34.224495,0.1,181.07706,1591899092430
Fix,GT,37.4010484,-122.0699971,,34.050503,0.1,180.40237,1591899093430
Fix,GT,37.4007427,-122.0699884,,33.89782,0.1,179.13055,1591899094430
Fix,GT,37.4004375,-122.0699678,,34.047745,0.1,176.83276,1591899095430
Fix,GT,37.4001315,-122.0699294,,34.2664,0.1,174.0022,1591899096430
Fix,GT,37.3998255,-122.0698725,,34.44252,0.1,171.40723,1591899097430
Fix,GT,37.3995202,-122.0698,,34.584805,0.1,169.5481,1591899098430
Fix,GT,37.3992149,-122.069719,,34.709034,0.1,169.00275,1591899099430
Fix,GT,37.3989087,-122.0696362,,34.79155,0.1,168.97382,1591899100430
Fix,GT,37.3986022,-122.0695529,,34.823376,0.1,168.88977,1591899101430
Fix,GT,37.3982956,-122.069469,,34.836487,0.1,168.83728,1591899102430
Fix,GT,37.3979887,-122.0693855,,34.875294,0.1,168.97491,1591899103430
Fix,GT,37.3976813,-122.0693025,,34.929085,0.1,169.06079,1591899104430
Fix,GT,37.3973733,-122.0692199,,34.994392,0.1,169.1222,1591899105430
Fix,GT,37.3970646,-122.0691384,,35.03951,0.1,169.55737,1591899106430
Fix,GT,37.3967548,-122.0690614,,35.061264,0.1,170.43701,1591899107430
Fix,GT,37.3964439,-122.0689895,,35.091053,0.1,170.84259,1591899108430
Fix,GT,37.3961334,-122.0689181,,34.945007,0.1,170.49506,1591899109430
Fix,GT,37.3958262,-122.0688439,,34.45775,0.1,170.01556,1591899110430
Fix,GT,37.3955236,-122.0687698,,33.98059,0.1,170.41663,1591899111430
Fix,GT,37.3952231,-122.068703,,33.812973,0.1,171.92413,1591899112430
Fix,GT,37.3949219,-122.0686475,,33.72541,0.1,173.68677,1591899113430
Fix,GT,37.394621,-122.0686027,,33.535603,0.1,175.08539,1591899114430
Fix,GT,37.394321,-122.0685665,,33.339474,0.1,176.40833,1591899115430
Fix,GT,37.3940221,-122.0685403,,33.177475,0.1,178.11145,1591899116430
Fix,GT,37.393724,-122.0685259,,33.02902,0.1,179.85223,1591899117430
Fix,GT,37.3934267,-122.0685221,,32.949432,0.1,181.41826,1591899118430
Fix,GT,37.3931298,-122.0685281,,32.9933,0.1,182.78732,1591899119430
Fix,GT,37.3928321,-122.0685424,,33.128708,0.1,184.13431,1591899120430
Fix,GT,37.3925332,-122.0685657,,33.315662,0.1,185.34407,1591899121430
Fix,GT,37.3922332,-122.0685953,,33.507126,0.1,185.92523,1591899122430
Fix,GT,37.3919315,-122.0686269,,33.682068,0.1,185.98648,1591899123430
Fix,GT,37.3916284,-122.0686581,,33.870186,0.1,185.70465,1591899124430
Fix,GT,37.3913234,-122.0686877,,34.05796,0.1,185.47742,1591899125430
Fix,GT,37.3910167,-122.0687166,,34.2536,0.1,185.55074,1591899126430
Fix,GT,37.390708,-122.0687468,,34.48012,0.1,185.71808,1591899127430
Fix,GT,37.3903972,-122.0687783,,34.72411,0.1,185.75833,1591899128430
Fix,GT,37.3900841,-122.0688089,,35.005722,0.1,185.50677,1591899129430
Fix,GT,37.3897681,-122.0688377,,35.288925,0.1,185.19673,1591899130430
Fix,GT,37.3894502,-122.0688651,,35.439575,0.1,185.11652,1591899131430
Fix,GT,37.3891311,-122.0688912,,35.591904,0.1,184.55931,1591899132430
Fix,GT,37.3888092,-122.0689096,,35.955524,0.1,182.85115,1591899133430
Fix,GT,37.3884839,-122.0689136,,36.29747,0.1,180.59863,1591899134430
Fix,GT,37.3881564,-122.0689026,,36.42475,0.1,178.62433,1591899135430
Fix,GT,37.3878295,-122.0688791,,36.190624,0.1,177.1289,1591899136430
Fix,GT,37.3875068,-122.068847,,35.677605,0.1,176.2821,1591899137430
Fix,GT,37.3871896,-122.0688122,,34.995636,0.1,176.12415,1591899138430
Fix,GT,37.3868789,-122.0687777,,34.24035,0.1,176.0924,1591899139430
Fix,GT,37.3865749,-122.0687433,,33.502853,0.1,175.96301,1591899140430
Fix,GT,37.3862775,-122.0687091,,32.793186,0.1,175.8778,1591899141430
Fix,GT,37.3859864,-122.0686755,,32.10463,0.1,175.93677,1591899142430
Fix,GT,37.3857012,-122.0686433,,31.509552,0.1,176.08911,1591899143430
Fix,GT,37.3854199,-122.0686124,,31.222794,0.1,176.26257,1591899144430
Fix,GT,37.3851397,-122.0685828,,31.141737,0.1,176.43774,1591899145430
Fix,GT,37.3848613,-122.0685542,,30.779623,0.1,176.44568,1591899146430
Fix,GT,37.3845874,-122.0685249,,30.258566,0.1,176.1214,1591899147430
Fix,GT,37.384318,-122.0684943,,29.778572,0.1,175.84119,1591899148430
Fix,GT,37.384053,-122.0684632,,29.343441,0.1,175.81702,1591899149430
Fix,GT,37.3837911,-122.0684326,,29.08387,0.1,175.89905,1591899150430
Fix,GT,37.3835301,-122.0684027,,29.12923,0.1,176.02441,1591899151430
Fix,GT,37.3832677,-122.0683734,,29.344515,0.1,176.1936,1591899152430
Fix,GT,37.3830033,-122.0683448,,29.55906,0.1,176.20886,1591899153430
Fix,GT,37.3827376,-122.0683157,,29.602818,0.1,176.104,1591899154430
Fix,GT,37.3824725,-122.0682862,,29.499462,0.1,176.09204,1591899155430
Fix,GT,37.3822082,-122.0682569,,29.412157,0.1,176.09045,1591899156430
Fix,GT,37.3819445,-122.0682274,,29.365501,0.1,176.03345,1591899157430
Fix,GT,37.3816806,-122.0681977,,29.490284,0.1,175.99927,1591899158430
Fix,GT,37.3814149,-122.0681677,,29.705093,0.1,176.03156,1591899159430
Fix,GT,37.3811482,-122.0681378,,29.692715,0.1,176.14276,1591899160430
Fix,GT,37.3808828,-122.0681088,,29.425564,0.1,176.18524,1591899161430
Fix,GT,37.3806203,-122.0680799,,29.059702,0.1,176.13702,1591899162430
Fix,GT,37.3803611,-122.0680514,,28.687588,0.1,176.18445,1591899163430
Fix,GT,37.3801054,-122.0680233,,28.308231,0.1,176.09521,1591899164430
Fix,GT,37.3798532,-122.0679949,,27.891342,0.1,176.00153,1591899165430
Fix,GT,37.3796049,-122.0679671,,27.454468,0.1,176.19067,1591899166430
Fix,GT,37.3793609,-122.0679413,,26.81535,0.1,176.44598,1591899167430
Fix,GT,37.3791244,-122.067917,,25.78393,0.1,176.4477,1591899168430
Fix,GT,37.378897,-122.0678925,,24.956768,0.1,176.0448,1591899169430
Fix,GT,37.3786741,-122.0678663,,24.846878,0.1,175.69434,1591899170430
Fix,GT,37.37845,-122.0678405,,25.19727,0.1,176.35999,1591899171430
Fix,GT,37.3782212,-122.0678203,,25.674444,0.1,177.81964,1591899172430
Fix,GT,37.3779881,-122.0678081,,26.087746,0.1,179.61963,1591899173430
Fix,GT,37.3777512,-122.0678055,,26.461235,0.1,181.59616,1591899174430
Fix,GT,37.3775112,-122.0678123,,26.821068,0.1,183.11855,1591899175430
Fix,GT,37.3772683,-122.0678261,,27.15834,0.1,184.26662,1591899176430
Fix,GT,37.3770226,-122.0678459,,27.462894,0.1,185.42416,1591899177430
Fix,GT,37.3767745,-122.067872,,27.749271,0.1,186.45041,1591899178430
Fix,GT,37.3765245,-122.0679027,,28.007526,0.1,186.97557,1591899179430
Fix,GT,37.3762725,-122.067935,,28.201464,0.1,187.14627,1591899180430
Fix,GT,37.3760191,-122.0679686,,28.358133,0.1,187.34,1591899181430
Fix,GT,37.3757644,-122.0680026,,28.495464,0.1,187.12326,1591899182430
Fix,GT,37.3755081,-122.0680333,,28.64421,0.1,186.17117,1591899183430
Fix,GT,37.37525,-122.068057,,28.82687,0.1,184.58302,1591899184430
Fix,GT,37.3749898,-122.0680692,,29.039831,0.1,182.07993,1591899185430
Fix,GT,37.3747275,-122.0680658,,29.249424,0.1,179.24333,1591899186430
Fix,GT,37.3744641,-122.0680473,,29.378044,0.1,176.76355,1591899187430
Fix,GT,37.3742007,-122.0680146,,29.39994,0.1,174.24536,1591899188430
Fix,GT,37.3739396,-122.0679665,,29.228127,0.1,171.40204,1591899189430
Fix,GT,37.3736827,-122.0679026,,29.0034,0.1,168.58746,1591899190430
Fix,GT,37.3734292,-122.0678235,,29.065802,0.1,165.89746,1591899191430
Fix,GT,37.373178,-122.0677293,,29.216541,0.1,163.20184,1591899192430
Fix,GT,37.3729293,-122.0676198,,29.3367,0.1,160.50824,1591899193430
Fix,GT,37.3726841,-122.0674959,,29.449505,0.1,157.9956,1591899194430
Fix,GT,37.3724415,-122.0673594,,29.635311,0.1,156.1449,1591899195430
Fix,GT,37.3721996,-122.0672147,,29.879131,0.1,155.3894,1591899196430
Fix,GT,37.3719563,-122.0670672,,30.097668,0.1,155.33746,1591899197430
Fix,GT,37.3717114,-122.0669189,,30.263693,0.1,155.42627,1591899198430
Fix,GT,37.371465,-122.0667704,,30.43262,0.1,155.5235,1591899199430
Fix,GT,37.3712171,-122.0666214,,30.614777,0.1,155.55505,1591899200430
Fix,GT,37.3709677,-122.0664713,,30.767056,0.1,155.47919,1591899201430
Fix,GT,37.3707179,-122.0663199,,30.818626,0.1,155.26965,1591899202430
Fix,GT,37.3704681,-122.0661675,,30.90411,0.1,155.17029,1591899203430
Fix,GT,37.3702169,-122.0660143,,31.079273,0.1,155.26825,1591899204430
Fix,GT,37.3699643,-122.065861,,31.236362,0.1,155.35358,1591899205430
Fix,GT,37.3697102,-122.0657071,,31.399075,0.1,155.38733,1591899206430
Fix,GT,37.369455,-122.0655528,,31.462626,0.1,155.39136,1591899207430
Fix,GT,37.3692003,-122.0653986,,31.301289,0.1,155.3429,1591899208430
Fix,GT,37.3689471,-122.0652449,,31.185818,0.1,155.25275,1591899209430
Fix,GT,37.3686942,-122.0650907,,31.294056,0.1,155.18951,1591899210430
Fix,GT,37.3684401,-122.0649357,,31.436146,0.1,155.19318,1591899211430
Fix,GT,37.3681847,-122.0647808,,31.5121,0.1,155.43188,1591899212430
Fix,GT,37.367929,-122.064627,,31.449028,0.1,155.58813,1591899213430
Fix,GT,37.367674,-122.0644736,,31.328512,0.1,155.45032,1591899214430
Fix,GT,37.3674202,-122.0643202,,31.223858,0.1,155.34064,1591899215430
Fix,GT,37.3671672,-122.0641666,,31.210567,0.1,155.281,1591899216430
Fix,GT,37.3669142,-122.0640127,,31.188297,0.1,155.30011,1591899217430
Fix,GT,37.3666617,-122.0638607,,30.940607,0.1,155.97168,1591899218430
Fix,GT,37.3664094,-122.0637181,,30.466797,0.1,158.01752,1591899219430
Fix,GT,37.3661566,-122.0635913,,29.936016,0.1,160.64148,1591899220430
Fix,GT,37.3659044,-122.0634801,,29.397644,0.1,162.8446,1591899221430
Fix,GT,37.3656539,-122.0633824,,28.814976,0.1,165.01135,1591899222430
Fix,GT,37.3654057,-122.0632989,,28.209435,0.1,167.30334,1591899223430
Fix,GT,37.3651602,-122.063229,,27.688616,0.1,169.3601,1591899224430
Fix,GT,37.3649165,-122.0631707,,27.4251,0.1,171.24927,1591899225430
Fix,GT,37.3646726,-122.0631225,,27.384457,0.1,173.12073,1591899226430
Fix,GT,37.3644276,-122.0630847,,27.397243,0.1,175.12073,1591899227430
Fix,GT,37.3641814,-122.0630578,,27.441381,0.1,177.2713,1591899228430
Fix,GT,37.3639348,-122.0630429,,27.317791,0.1,179.5379,1591899229430
Fix,GT,37.3636895,-122.063039,,27.0965,0.1,181.24408,1591899230430
Fix,GT,37.3634456,-122.0630415,,27.025284,0.1,181.91335,1591899231430
Fix,GT,37.3632028,-122.0630457,,26.837358,0.1,182.10149,1591899232430
Fix,GT,37.3629629,-122.0630507,,26.316906,0.1,182.17401,1591899233430
Fix,GT,37.3627296,-122.063056,,25.363335,0.1,182.33203,1591899234430
Fix,GT,37.3625062,-122.0630616,,24.26466,0.1,182.3117,1591899235430
Fix,GT,37.362292,-122.0630663,,23.275745,0.1,182.11299,1591899236430
Fix,GT,37.3620871,-122.0630701,,22.164478,0.1,181.9594,1591899237430
Fix,GT,37.3618927,-122.0630732,,20.96505,0.1,181.92662,1591899238430
Fix,GT,37.3617086,-122.0630762,,19.968136,0.1,182.00986,1591899239430
Fix,GT,37.3615309,-122.0630797,,19.538414,0.1,182.16438,1591899240430
Fix,GT,37.3613561,-122.0630839,,19.270466,0.1,182.34137,1591899241430
Fix,GT,37.3611839,-122.0630885,,18.89476,0.1,182.5276,1591899242430
Fix,GT,37.3610165,-122.0630938,,18.162502,0.1,182.68639,1591899243430
Fix,GT,37.3608575,-122.0630989,,17.169533,0.1,182.58151,1591899244430
Fix,GT,37.3607067,-122.0631027,,16.343737,0.1,182.10448,1591899245430
Fix,GT,37.3605616,-122.0631052,,15.919195,0.1,181.83853,1591899246430
Fix,GT,37.3604193,-122.0631076,,15.6873455,0.1,182.08063,1591899247430
Fix,GT,37.3602785,-122.0631108,,15.623753,0.1,182.27353,1591899248430
Fix,GT,37.3601368,-122.0631142,,15.905714,0.1,182.38618,1591899249430
Fix,GT,37.3599913,-122.063118,,16.43811,0.1,182.45633,1591899250430
Fix,GT,37.3598407,-122.0631219,,16.954885,0.1,182.29454,1591899251430
Fix,GT,37.3596866,-122.0631241,,17.188414,0.1,181.56656,1591899252430
Fix,GT,37.3595316,-122.0631232,,17.275873,0.1,180.43282,1591899253430
Fix,GT,37.3593754,-122.0631183,,17.4743,0.1,179.323,1591899254430
Fix,GT,37.359217,-122.0631098,,17.760689,0.1,178.43152,1591899255430
Fix,GT,37.3590551,-122.0630992,,18.208218,0.1,178.18018,1591899256430
Fix,GT,37.3588899,-122.0630881,,18.505978,0.1,178.05096,1591899257430
Fix,GT,37.3587229,-122.0630756,,18.668034,0.1,177.48022,1591899258430
Fix,GT,37.3585542,-122.0630605,,18.85183,0.1,176.86682,1591899259430
Fix,GT,37.3583847,-122.063043,,18.863503,0.1,176.19415,1591899260430
Fix,GT,37.3582163,-122.0630231,,18.659695,0.1,175.46008,1591899261430
Fix,GT,37.3580513,-122.0630009,,18.160192,0.1,174.71606,1591899262430
Fix,GT,37.3578918,-122.0629766,,17.534353,0.1,173.97992,1591899263430
Fix,GT,37.3577369,-122.0629506,,17.198254,0.1,173.2367,1591899264430
Fix,GT,37.3575847,-122.0629223,,16.974195,0.1,172.40967,1591899265430
Fix,GT,37.357434,-122.0628914,,17.014725,0.1,171.61566,1591899266430
Fix,GT,37.3572811,-122.0628581,,17.547651,0.1,171.18933,1591899267430
Fix,GT,37.3571223,-122.062822,,18.2892,0.1,170.69598,1591899268430
Fix,GT,37.3569574,-122.0627821,,19.016567,0.1,169.90076,1591899269430
Fix,GT,37.3567866,-122.0627376,,19.719177,0.1,169.14496,1591899270430
Fix,GT,37.3566102,-122.0626886,,20.387753,0.1,168.3938,1591899271430
Fix,GT,37.3564285,-122.0626354,,20.99988,0.1,167.68445,1591899272430
Fix,GT,37.3562426,-122.0625778,,21.512264,0.1,166.98254,1591899273430
Fix,GT,37.3560533,-122.062516,,21.93943,0.1,166.22174,1591899274430
Fix,GT,37.355861,-122.0624497,,22.3495,0.1,165.45032,1591899275430
Fix,GT,37.3556661,-122.0623788,,22.718903,0.1,164.6164,1591899276430
Fix,GT,37.3554691,-122.0623031,,23.03801,0.1,163.6814,1591899277430
Fix,GT,37.3552705,-122.0622221,,23.324207,0.1,162.65466,1591899278430
Fix,GT,37.3550709,-122.0621356,,23.576893,0.1,161.63062,1591899279430
Fix,GT,37.3548704,-122.062044,,23.812263,0.1,160.64441,1591899280430
Fix,GT,37.3546694,-122.0619471,,23.99273,0.1,159.73083,1591899281430
Fix,GT,37.3544687,-122.0618466,,23.9619,0.1,159.08032,1591899282430
Fix,GT,37.3542699,-122.0617448,,23.639866,0.1,158.92358,1591899283430
Fix,GT,37.3540743,-122.0616451,,23.28087,0.1,159.18213,1591899284430
Fix,GT,37.35388,-122.0615482,,23.191597,0.1,159.6023,1591899285430
Fix,GT,37.353685,-122.0614526,,23.283236,0.1,159.89856,1591899286430
Fix,GT,37.3534889,-122.0613573,,23.3993,0.1,160.02386,1591899287430
Fix,GT,37.3532917,-122.0612619,,23.5237,0.1,160.03296,1591899288430
Fix,GT,37.3530935,-122.0611659,,23.615646,0.1,159.96625,1591899289430
Fix,GT,37.3528944,-122.0610701,,23.691853,0.1,160.305,1591899290430
Fix,GT,37.3526943,-122.0609777,,23.635553,0.1,161.44702,1591899291430
Fix,GT,37.3524937,-122.0608912,,23.42772,0.1,162.73462,1591899292430
Fix,GT,37.3522931,-122.06081,,23.408005,0.1,163.6253,1591899293430
Fix,GT,37.3520906,-122.060732,,23.64193,0.1,164.44702,1591899294430
Fix,GT,37.3518846,-122.0606572,,23.945774,0.1,165.5216,1591899295430
Fix,GT,37.3516751,-122.060587,,24.153511,0.1,166.75732,1591899296430
Fix,GT,37.3514631,-122.0605214,,24.310995,0.1,167.65576,1591899297430
Fix,GT,37.3512489,-122.0604592,,24.481071,0.1,168.49414,1591899298430
Fix,GT,37.3510333,-122.0604014,,24.444847,0.1,169.57013,1591899299430
Fix,GT,37.3508176,-122.0603479,,24.332245,0.1,170.23871,1591899300430
Fix,GT,37.3506024,-122.0602977,,24.28337,0.1,170.87134,1591899301430
Fix,GT,37.3503861,-122.0602506,,24.48768,0.1,171.70166,1591899302430
Fix,GT,37.3501669,-122.0602072,,24.772993,0.1,172.64331,1591899303430
Fix,GT,37.3499456,-122.0601686,,24.77008,0.1,173.84088,1591899304430
Fix,GT,37.3497251,-122.0601363,,24.485577,0.1,175.1322,1591899305430
Fix,GT,37.3495071,-122.0601102,,24.092617,0.1,176.25977,1591899306430
Fix,GT,37.3492924,-122.0600893,,23.700615,0.1,177.10175,1591899307430
Fix,GT,37.3490803,-122.0600718,,23.511974,0.1,177.73627,1591899308430
Fix,GT,37.3488687,-122.060057,,23.605742,0.1,178.27557,1591899309430
Fix,GT,37.3486558,-122.0600449,,23.638863,0.1,178.95947,1591899310430
Fix,GT,37.3484435,-122.0600368,,23.471254,0.1,179.92603,1591899311430
Fix,GT,37.3482327,-122.0600336,,23.326628,0.1,180.9098,1591899312430
Fix,GT,37.3480225,-122.060033,,23.367878,0.1,181.15997,1591899313430
Fix,GT,37.3478115,-122.060032,,23.440218,0.1,180.85667,1591899314430
Fix,GT,37.3476005,-122.0600301,,23.327045,0.1,180.78564,1591899315430
Fix,GT,37.3473915,-122.060029,,23.056278,0.1,181.1559,1591899316430
Fix,GT,37.3471848,-122.06003,,22.861008,0.1,181.65788,1591899317430
Fix,GT,37.3469788,-122.0600324,,22.924152,0.1,181.67697,1591899318430
Fix,GT,37.3467716,-122.0600342,,23.086807,0.1,181.52328,1591899319430
Fix,GT,37.3465635,-122.0600354,,23.092865,0.1,181.30107,1591899320430
Fix,GT,37.3463562,-122.0600352,,22.880997,0.1,180.98915,1591899321430
Fix,GT,37.3461515,-122.0600338,,22.552692,0.1,180.83931,1591899322430
Fix,GT,37.3459499,-122.0600323,,22.197739,0.1,180.89233,1591899323430
Fix,GT,37.3457512,-122.0600312,,21.957985,0.1,180.96753,1591899324430
Fix,GT,37.3455535,-122.0600306,,22.000435,0.1,181.18817,1591899325430
Fix,GT,37.3453543,-122.0600315,,22.173416,0.1,181.57979,1591899326430
Fix,GT,37.345154,-122.0600339,,22.29459,0.1,181.82356,1591899327430
Fix,GT,37.3449524,-122.0600366,,22.451408,0.1,181.71407,1591899328430
Fix,GT,37.3447496,-122.0600379,,22.595398,0.1,181.26239,1591899329430
Fix,GT,37.3445456,-122.0600367,,22.687332,0.1,180.61028,1591899330430
Fix,GT,37.3443407,-122.0600326,,22.834286,0.1,180.06538,1591899331430
Fix,GT,37.3441341,-122.0600271,,23.063797,0.1,179.99683,1591899332430
Fix,GT,37.3439251,-122.0600222,,23.33018,0.1,180.27354,1591899333430
Fix,GT,37.3437137,-122.0600186,,23.58392,0.1,180.51636,1591899334430
Fix,GT,37.3435002,-122.0600159,,23.815266,0.1,180.70363,1591899335430
Fix,GT,37.3432845,-122.0600137,,24.071636,0.1,180.73206,1591899336430
Fix,GT,37.3430662,-122.0600115,,24.417171,0.1,180.64195,1591899337430
Fix,GT,37.3428442,-122.0600081,,24.852854,0.1,180.29417,1591899338430
Fix,GT,37.3426184,-122.0600032,,25.274704,0.1,180.15222,1591899339430
Fix,GT,37.3423888,-122.0599992,,25.69656,0.1,180.65112,1591899340430
Fix,GT,37.3421553,-122.0599976,,26.14811,0.1,181.09479,1591899341430
Fix,GT,37.3419174,-122.0599979,,26.659763,0.1,181.3434,1591899342430
Fix,GT,37.3416749,-122.0599985,,27.170189,0.1,181.29694,1591899343430
Fix,GT,37.3414282,-122.0599986,,27.5443,0.1,181.11331,1591899344430
Fix,GT,37.341179,-122.0599979,,27.773413,0.1,181.04683,1591899345430
Fix,GT,37.3409276,-122.0599977,,28.018871,0.1,181.39264,1591899346430
Fix,GT,37.3406738,-122.0600008,,28.300344,0.1,182.20975,1591899347430
Fix,GT,37.3404176,-122.0600089,,28.575172,0.1,182.99911,1591899348430
Fix,GT,37.3401591,-122.0600191,,28.81224,0.1,182.88686,1591899349430
Fix,GT,37.3398989,-122.0600267,,28.97794,0.1,182.12201,1591899350430
Fix,GT,37.3396374,-122.0600298,,29.043571,0.1,181.39598,1591899351430
Fix,GT,37.3393763,-122.060029,,28.94799,0.1,180.82872,1591899352430
Fix,GT,37.3391157,-122.0600253,,28.930542,0.1,180.3588,1591899353430
Fix,GT,37.3388545,-122.0600186,,29.070354,0.1,179.61618,1591899354430
Fix,GT,37.3385925,-122.0600055,,29.15306,0.1,178.23083,1591899355430
Fix,GT,37.3383302,-122.0599829,,29.231476,0.1,176.40332,1591899356430
Fix,GT,37.338068,-122.0599494,,29.295914,0.1,174.27649,1591899357430
Fix,GT,37.3378069,-122.0599029,,29.30915,0.1,171.95325,1591899358430
Fix,GT,37.3375472,-122.0598442,,29.304857,0.1,170.05829,1591899359430
Fix,GT,37.3372889,-122.0597761,,29.304321,0.1,168.52875,1591899360430
Fix,GT,37.3370321,-122.0597003,,29.287064,0.1,167.3982,1591899361430
Fix,GT,37.3367762,-122.0596206,,29.234539,0.1,167.05151,1591899362430
Fix,GT,37.336522,-122.0595404,,28.936224,0.1,167.11212,1591899363430
Fix,GT,37.3362713,-122.059463,,28.313845,0.1,167.61499,1591899364430
Fix,GT,37.3360261,-122.0593912,,27.555523,0.1,168.47498,1591899365430
Fix,GT,37.3357871,-122.0593263,,26.734331,0.1,169.42084,1591899366430
Fix,GT,37.3355545,-122.0592686,,25.867565,0.1,170.44281,1591899367430
Fix,GT,37.3353291,-122.0592175,,24.915035,0.1,171.30334,1591899368430
Fix,GT,37.335112,-122.0591716,,23.997944,0.1,171.75116,1591899369430
Fix,GT,37.3349022,-122.0591285,,23.233818,0.1,171.80603,1591899370430
Fix,GT,37.3346991,-122.0590867,,22.38348,0.1,171.84644,1591899371430
Fix,GT,37.3345045,-122.0590472,,21.271263,0.1,172.11755,1591899372430
Fix,GT,37.3343213,-122.059011,,19.822636,0.1,172.16101,1591899373430
Fix,GT,37.3341529,-122.0589776,,17.968151,0.1,172.23035,1591899374430
Fix,GT,37.3340006,-122.0589499,,16.264542,0.1,173.594,1591899375430
Fix,GT,37.3338594,-122.0589334,,15.325472,0.1,177.6795,1591899376430
Fix,GT,37.333723,-122.0589359,,14.931192,0.1,185.22693,1591899377430
Fix,GT,37.3335917,-122.0589637,,14.64534,0.1,194.50058,1591899378430
Fix,GT,37.3334676,-122.0590186,,14.587056,0.1,204.55142,1591899379430
Fix,GT,37.333352,-122.0590998,,14.836864,0.1,214.06413,1591899380430
Fix,GT,37.3332456,-122.0592062,,15.364386,0.1,223.57784,1591899381430
Fix,GT,37.3331527,-122.0593387,,15.897978,0.1,234.01018,1591899382430
Fix,GT,37.3330772,-122.0594946,,16.436104,0.1,243.58249,1591899383430
Fix,GT,37.3330188,-122.0596687,,17.012955,0.1,251.22809,1591899384430
Fix,GT,37.3329752,-122.0598562,,17.565044,0.1,257.1236,1591899385430
Fix,GT,37.3329441,-122.0600538,,18.112507,0.1,261.98523,1591899386430
Fix,GT,37.332926,-122.0602602,,18.680126,0.1,266.94348,1591899387430
Fix,GT,37.3329216,-122.0604744,,19.261227,0.1,271.462,1591899388430
Fix,GT,37.3329291,-122.060695,,19.820568,0.1,275.2011,1591899389430
Fix,GT,37.3329486,-122.0609201,,20.268295,0.1,279.22876,1591899390430
Fix,GT,37.3329834,-122.0611467,,20.602901,0.1,284.60986,1591899391430
Fix,GT,37.3330373,-122.0613715,,20.994171,0.1,290.10788,1591899392430
Fix,GT,37.3331054,-122.0615959,,21.547726,0.1,292.88696,1591899393430
Fix,GT,37.33318,-122.0618245,,22.25579,0.1,293.6452,1591899394430
Fix,GT,37.333259,-122.0620603,,23.04261,0.1,294.03088,1591899395430
Fix,GT,37.3333408,-122.0623039,,23.804785,0.1,293.7926,1591899396430
Fix,GT,37.3334234,-122.0625563,,24.540668,0.1,292.94403,1591899397430
Fix,GT,37.3335047,-122.0628181,,25.256403,0.1,291.98224,1591899398430
Fix,GT,37.3335858,-122.0630883,,25.90865,0.1,291.67743,1591899399430
Fix,GT,37.3336696,-122.063365,,26.522503,0.1,292.18192,1591899400430
Fix,GT,37.3337583,-122.0636466,,27.120472,0.1,293.179,1591899401430
Fix,GT,37.3338526,-122.0639324,,27.682005,0.1,293.978,1591899402430
Fix,GT,37.3339501,-122.0642232,,28.219582,0.1,293.77707,1591899403430
Fix,GT,37.3340458,-122.0645212,,28.752775,0.1,292.23047,1591899404430
Fix,GT,37.334135,-122.0648288,,29.29097,0.1,290.07538,1591899405430
Fix,GT,37.334216,-122.0651461,,29.791584,0.1,287.7861,1591899406430
Fix,GT,37.334288,-122.0654723,,30.240538,0.1,285.50696,1591899407430
Fix,GT,37.3343516,-122.0658064,,30.662048,0.1,283.6369,1591899408430
Fix,GT,37.3344068,-122.066147,,30.988417,0.1,281.56973,1591899409430
Fix,GT,37.3344524,-122.0664929,,31.184008,0.1,279.48474,1591899410430
Fix,GT,37.3344882,-122.0668422,,31.277412,0.1,277.40265,1591899411430
Fix,GT,37.3345134,-122.0671939,,31.35978,0.1,275.18378,1591899412430
Fix,GT,37.3345279,-122.0675474,,31.444473,0.1,272.9817,1591899413430
Fix,GT,37.3345323,-122.0679024,,31.523355,0.1,271.12625,1591899414430
Fix,GT,37.3345281,-122.0682586,,31.650452,0.1,269.34714,1591899415430
Fix,GT,37.334514,-122.068616,,31.835173,0.1,267.18088,1591899416430
Fix,GT,37.3344889,-122.0689753,,32.132317,0.1,265.036,1591899417430
Fix,GT,37.3344537,-122.0693373,,32.495888,0.1,263.15015,1591899418430
Fix,GT,37.3344078,-122.0697005,,32.657043,0.1,260.98013,1591899419430
Fix,GT,37.3343511,-122.0700609,,32.45895,0.1,258.9845,1591899420430
Fix,GT,37.3342869,-122.070416,,32.142048,0.1,257.787,1591899421430
Fix,GT,37.3342195,-122.070768,,32.02281,0.1,257.4718,1591899422430
Fix,GT,37.3341518,-122.071119,,31.999208,0.1,257.65213,1591899423430
Fix,GT,37.3340851,-122.0714703,,31.961483,0.1,257.8726,1591899424430
Fix,GT,37.3340198,-122.0718215,,31.95465,0.1,258.16998,1591899425430
Fix,GT,37.333956,-122.0721727,,31.837788,0.1,258.43384,1591899426430
Fix,GT,37.3338935,-122.0725217,,31.500864,0.1,258.4475,1591899427430
Fix,GT,37.3338322,-122.0728658,,30.957253,0.1,258.7129,1591899428430
Fix,GT,37.3337752,-122.0732041,,30.305946,0.1,259.83136,1591899429430
Fix,GT,37.3337262,-122.0735365,,29.591934,0.1,261.32104,1591899430430
Fix,GT,37.3336854,-122.0738623,,28.852928,0.1,263.12692,1591899431430
Fix,GT,37.3336553,-122.0741819,,28.210894,0.1,265.82056,1591899432430
Fix,GT,37.3336375,-122.0744956,,27.51866,0.1,268.2797,1591899433430
Fix,GT,37.33363,-122.0748013,,26.684677,0.1,270.4936,1591899434430
Fix,GT,37.3336321,-122.0750987,,26.031511,0.1,272.82294,1591899435430
Fix,GT,37.3336429,-122.0753892,,25.460522,0.1,274.67413,1591899436430
Fix,GT,37.3336605,-122.0756722,,24.810219,0.1,276.3497,1591899437430
Fix,GT,37.3336842,-122.0759471,,24.204998,0.1,278.22812,1591899438430
Fix,GT,37.3337151,-122.0762153,,23.795275,0.1,280.3774,1591899439430
Fix,GT,37.3337536,-122.0764775,,23.466984,0.1,282.59946,1591899440430
Fix,GT,37.3337992,-122.0767344,,23.183767,0.1,284.59686,1591899441430
Fix,GT,37.3338511,-122.0769864,,22.941298,0.1,286.32266,1591899442430
Fix,GT,37.3339082,-122.0772353,,22.948395,0.1,287.89014,1591899443430
Fix,GT,37.3339708,-122.0774835,,23.188417,0.1,289.24408,1591899444430
Fix,GT,37.3340392,-122.077732,,23.367872,0.1,290.9729,1591899445430
Fix,GT,37.3341148,-122.077979,,23.46173,0.1,293.19266,1591899446430
Fix,GT,37.3341983,-122.0782223,,23.448101,0.1,295.3742,1591899447430
Fix,GT,37.3342883,-122.0784619,,23.479874,0.1,297.1583,1591899448430
Fix,GT,37.3343843,-122.0786991,,23.667294,0.1,298.7395,1591899449430
Fix,GT,37.3344866,-122.0789351,,23.909592,0.1,300.47934,1591899450430
Fix,GT,37.334596,-122.0791692,,24.124874,0.1,302.47693,1591899451430
Fix,GT,37.3347129,-122.0794003,,24.331207,0.1,304.4761,1591899452430
Fix,GT,37.3348375,-122.0796271,,24.414928,0.1,306.83786,1591899453430
Fix,GT,37.3349695,-122.0798472,,24.330185,0.1,309.2467,1591899454430
Fix,GT,37.3351075,-122.0800607,,24.33331,0.1,310.9448,1591899455430
Fix,GT,37.3352512,-122.08027,,24.616455,0.1,312.62616,1591899456430
Fix,GT,37.3354014,-122.0804771,,24.908146,0.1,314.09955,1591899457430
Fix,GT,37.3355558,-122.0806814,,24.869267,0.1,314.93872,1591899458430
Fix,GT,37.335711,-122.0808826,,24.721352,0.1,315.36917,1591899459430
Fix,GT,37.3358661,-122.0810817,,24.592798,0.1,315.42023,1591899460430
Fix,GT,37.3360209,-122.0812812,,24.735497,0.1,315.37592,1591899461430
Fix,GT,37.3361776,-122.0814831,,25.161114,0.1,315.31195,1591899462430
Fix,GT,37.3363362,-122.0816887,,25.50118,0.1,315.08856,1591899463430
Fix,GT,37.3364961,-122.0818974,,25.747662,0.1,315.06195,1591899464430
Fix,GT,37.336657,-122.0821074,,25.795788,0.1,314.84305,1591899465430
Fix,GT,37.3368157,-122.0823185,,25.562267,0.1,314.14764,1591899466430
Fix,GT,37.3369704,-122.0825293,,25.171932,0.1,313.4647,1591899467430
Fix,GT,37.3371204,-122.0827388,,24.724777,0.1,312.6502,1591899468430
Fix,GT,37.3372648,-122.0829484,,24.402988,0.1,311.37445,1591899469430
Fix,GT,37.3374043,-122.0831601,,24.32376,0.1,310.20087,1591899470430
Fix,GT,37.3375405,-122.0833751,,24.315071,0.1,309.1448,1591899471430
Fix,GT,37.3376735,-122.0835931,,24.31218,0.1,308.08847,1591899472430
Fix,GT,37.3378032,-122.0838133,,24.18673,0.1,307.09732,1591899473430
Fix,GT,37.3379292,-122.0840341,,23.937775,0.1,306.53717,1591899474430
Fix,GT,37.3380536,-122.0842541,,23.88348,0.1,306.51953,1591899475430
Fix,GT,37.3381785,-122.0844747,,24.049492,0.1,306.42444,1591899476430
Fix,GT,37.3383031,-122.0846971,,24.077427,0.1,306.02145,1591899477430
Fix,GT,37.3384259,-122.0849195,,23.829893,0.1,305.68298,1591899478430
Fix,GT,37.3385472,-122.0851396,,23.557766,0.1,305.8612,1591899479430
Fix,GT,37.3386674,-122.0853569,,23.31045,0.1,305.8676,1591899480430
Fix,GT,37.3387864,-122.0855722,,23.103071,0.1,305.83014,1591899481430
Fix,GT,37.3389044,-122.0857858,,22.940643,0.1,305.89005,1591899482430
Fix,GT,37.3390221,-122.085998,,22.960548,0.1,306.02914,1591899483430
Fix,GT,37.3391414,-122.0862118,,23.415108,0.1,306.02957,1591899484430
Fix,GT,37.3392626,-122.0864325,,24.11525,0.1,305.11835,1591899485430
Fix,GT,37.3393835,-122.086664,,24.93046,0.1,303.7618,1591899486430
Fix,GT,37.3395062,-122.0869061,,25.898968,0.1,303.69217,1591899487430
Fix,GT,37.3396352,-122.0871558,,26.788694,0.1,304.5019,1591899488430
Fix,GT,37.3397716,-122.0874113,,27.688221,0.1,305.21588,1591899489430
Fix,GT,37.3399142,-122.087674,,28.625095,0.1,305.4411,1591899490430
Fix,GT,37.3400611,-122.0879456,,29.518353,0.1,305.08636,1591899491430
Fix,GT,37.34021,-122.0882273,,30.355473,0.1,304.1829,1591899492430
Fix,GT,37.3403586,-122.0885199,,31.11304,0.1,303.11078,1591899493430
Fix,GT,37.3405068,-122.0888222,,31.73767,0.1,302.40176,1591899494430
Fix,GT,37.3406552,-122.0891314,,32.17804,0.1,301.95346,1591899495430
Fix,GT,37.3408037,-122.0894454,,32.48249,0.1,301.6676,1591899496430
Fix,GT,37.340953,-122.0897629,,32.82936,0.1,301.7089,1591899497430
Fix,GT,37.3411047,-122.0900835,,33.239273,0.1,301.94873,1591899498430
Fix,GT,37.3412604,-122.0904069,,33.660946,0.1,302.6134,1591899499430
Fix,GT,37.3414222,-122.0907302,,33.93925,0.1,303.89038,1591899500430
Fix,GT,37.341592,-122.0910499,,34.08091,0.1,305.78107,1591899501430
Fix,GT,37.3417716,-122.0913631,,34.233067,0.1,308.19482,1591899502430
Fix,GT,37.341963,-122.0916668,,34.298332,0.1,310.908,1591899503430
Fix,GT,37.3421666,-122.091958,,34.258034,0.1,314.11862,1591899504430
Fix,GT,37.3423827,-122.092233,,34.091858,0.1,317.3667,1591899505430
Fix,GT,37.3426079,-122.0924933,,33.862076,0.1,319.38266,1591899506430
Fix,GT,37.342836,-122.0927457,,33.715374,0.1,319.9635,1591899507430
Fix,GT,37.3430636,-122.0929967,,33.59845,0.1,319.56628,1591899508430
Fix,GT,37.3432882,-122.0932496,,33.478264,0.1,318.7872,1591899509430
Fix,GT,37.3435104,-122.0935044,,33.394424,0.1,318.59186,1591899510430
Fix,GT,37.3437322,-122.0937583,,33.332104,0.1,318.85275,1591899511430
Fix,GT,37.3439532,-122.0940125,,33.27657,0.1,318.23444,1591899512430
Fix,GT,37.34417,-122.0942715,,33.262802,0.1,316.63187,1591899513430
Fix,GT,37.3443806,-122.0945389,,33.34916,0.1,314.89493,1591899514430
Fix,GT,37.3445849,-122.0948158,,33.51084,0.1,312.75153,1591899515430
Fix,GT,37.3447814,-122.095104,,33.688847,0.1,310.286,1591899516430
Fix,GT,37.3449678,-122.095405,,33.87728,0.1,307.6182,1591899517430
Fix,GT,37.3451444,-122.0957179,,34.0687,0.1,305.17282,1591899518430
Fix,GT,37.3453117,-122.096041,,34.25095,0.1,303.02982,1591899519430
Fix,GT,37.3454705,-122.0963736,,34.50165,0.1,300.976,1591899520430
Fix,GT,37.3456222,-122.0967154,,34.86332,0.1,299.44144,1591899521430
Fix,GT,37.3457704,-122.0970649,,35.28565,0.1,298.83157,1591899522430
Fix,GT,37.345919,-122.0974195,,35.66927,0.1,298.80487,1591899523430
Fix,GT,37.3460693,-122.0977777,,36.01495,0.1,299.01456,1591899524430
Fix,GT,37.3462221,-122.0981385,,36.350887,0.1,299.20786,1591899525430
Fix,GT,37.3463772,-122.0985018,,36.660397,0.1,299.33374,1591899526430
Fix,GT,37.3465338,-122.0988677,,36.88253,0.1,299.34738,1591899527430
Fix,GT,37.3466909,-122.0992351,,36.987885,0.1,299.24298,1591899528430
Fix,GT,37.3468479,-122.0996035,,37.01268,0.1,299.1873,1591899529430
Fix,GT,37.3470044,-122.099972,,36.950317,0.1,299.13992,1591899530430
Fix,GT,37.3471603,-122.1003398,,36.83005,0.1,299.0853,1591899531430
Fix,GT,37.3473154,-122.1007065,,36.689487,0.1,298.97452,1591899532430
Fix,GT,37.3474695,-122.1010718,,36.50725,0.1,299.2468,1591899533430
Fix,GT,37.3476266,-122.1014318,,36.197357,0.1,300.79102,1591899534430
Fix,GT,37.3477928,-122.1017803,,35.706722,0.1,303.31503,1591899535430
Fix,GT,37.3479685,-122.1021143,,35.129097,0.1,305.79944,1591899536430
Fix,GT,37.3481523,-122.1024329,,34.542576,0.1,308.49976,1591899537430
Fix,GT,37.3483456,-122.1027345,,33.983078,0.1,311.55627,1591899538430
Fix,GT,37.3485482,-122.1030186,,33.49212,0.1,314.47324,1591899539430
Fix,GT,37.348759,-122.1032856,,33.075436,0.1,317.42838,1591899540430
Fix,GT,37.348978,-122.1035359,,32.734047,0.1,320.31372,1591899541430
Fix,GT,37.3492048,-122.1037698,,32.47356,0.1,323.1947,1591899542430
Fix,GT,37.3494396,-122.1039877,,32.405754,0.1,326.20377,1591899543430
Fix,GT,37.3496829,-122.1041912,,32.519524,0.1,328.57474,1591899544430
Fix,GT,37.349932,-122.1043863,,32.67416,0.1,329.59042,1591899545430
Fix,GT,37.3501844,-122.104579,,32.96571,0.1,329.96368,1591899546430
Fix,GT,37.3504402,-122.1047724,,33.33786,0.1,330.0987,1591899547430
Fix,GT,37.3506985,-122.1049675,,33.60782,0.1,330.10046,1591899548430
Fix,GT,37.3509586,-122.105164,,33.791706,0.1,330.07074,1591899549430
Fix,GT,37.3512189,-122.1053623,,33.824154,0.1,329.6421,1591899550430
Fix,GT,37.351477,-122.1055644,,33.769043,0.1,328.6455,1591899551430
Fix,GT,37.3517312,-122.105773,,33.71804,0.1,326.96866,1591899552430
Fix,GT,37.3519786,-122.1059923,,33.599403,0.1,324.44638,1591899553430
Fix,GT,37.3522164,-122.1062248,,33.429726,0.1,321.8428,1591899554430
Fix,GT,37.352445,-122.1064684,,33.26927,0.1,319.68063,1591899555430
Fix,GT,37.3526658,-122.1067209,,33.145172,0.1,317.7757,1591899556430
Fix,GT,37.3528789,-122.1069816,,33.016487,0.1,315.78107,1591899557430
Fix,GT,37.3530834,-122.1072512,,32.904854,0.1,313.46368,1591899558430
Fix,GT,37.3532782,-122.1075304,,32.834038,0.1,310.97467,1591899559430
Fix,GT,37.3534629,-122.1078188,,32.771713,0.1,308.64862,1591899560430
Fix,GT,37.353638,-122.1081156,,32.67874,0.1,306.41815,1591899561430
Fix,GT,37.3538033,-122.1084197,,32.592915,0.1,304.25555,1591899562430
Fix,GT,37.3539592,-122.1087309,,32.567356,0.1,302.15787,1591899563430
Fix,GT,37.3541061,-122.1090487,,32.576508,0.1,300.1527,1591899564430
Fix,GT,37.3542433,-122.1093736,,32.620323,0.1,297.7915,1591899565430
Fix,GT,37.3543706,-122.1097057,,32.72529,0.1,295.74716,1591899566430
Fix,GT,37.3544892,-122.1100446,,32.876568,0.1,293.80063,1591899567430
Fix,GT,37.3545986,-122.1103902,,33.058403,0.1,291.63232,1591899568430
Fix,GT,37.3546983,-122.1107428,,33.235184,0.1,289.7138,1591899569430
Fix,GT,37.3547906,-122.1110997,,33.180504,0.1,288.48474,1591899570430
Fix,GT,37.3548788,-122.1114554,,32.760704,0.1,288.37607,1591899571430
Fix,GT,37.3549665,-122.1118052,,32.184166,0.1,288.7702,1591899572430
Fix,GT,37.3550538,-122.1121484,,31.706497,0.1,288.7819,1591899573430
Fix,GT,37.3551397,-122.1124883,,31.561691,0.1,288.628,1591899574430
Fix,GT,37.3552261,-122.112828,,31.596817,0.1,289.0742,1591899575430
Fix,GT,37.3553164,-122.113166,,31.52972,0.1,290.36395,1591899576430
Fix,GT,37.3554138,-122.1134997,,31.364815,0.1,292.29883,1591899577430
Fix,GT,37.3555208,-122.1138264,,31.194405,0.1,294.58856,1591899578430
Fix,GT,37.3556371,-122.1141462,,31.044914,0.1,296.68378,1591899579430
Fix,GT,37.3557615,-122.1144594,,30.91054,0.1,298.43204,1591899580430
Fix,GT,37.3558926,-122.1147665,,30.790707,0.1,300.09976,1591899581430
Fix,GT,37.3560308,-122.1150673,,30.674013,0.1,302.11624,1591899582430
Fix,GT,37.3561774,-122.1153602,,30.57043,0.1,304.28568,1591899583430
Fix,GT,37.3563319,-122.1156455,,30.49668,0.1,306.3959,1591899584430
Fix,GT,37.3564948,-122.1159224,,30.433376,0.1,308.72903,1591899585430
Fix,GT,37.3566661,-122.1161904,,30.343842,0.1,310.94388,1591899586430
Fix,GT,37.3568448,-122.116449,,30.227604,0.1,313.16772,1591899587430
Fix,GT,37.3570306,-122.1166978,,30.11964,0.1,315.3878,1591899588430
Fix,GT,37.3572235,-122.1169365,,30.04681,0.1,317.64218,1591899589430
Fix,GT,37.3574224,-122.1171661,,29.959808,0.1,319.38562,1591899590430
Fix,GT,37.3576257,-122.1173876,,29.826542,0.1,320.96802,1591899591430
Fix,GT,37.3578334,-122.1176004,,29.746132,0.1,322.93387,1591899592430
Fix,GT,37.3580474,-122.1178032,,29.800014,0.1,325.22324,1591899593430
Fix,GT,37.3582682,-122.1179952,,29.876827,0.1,327.43515,1591899594430
Fix,GT,37.3584949,-122.1181781,,29.994274,0.1,329.27155,1591899595430
Fix,GT,37.3587273,-122.1183531,,30.182981,0.1,331.05774,1591899596430
Fix,GT,37.3589655,-122.1185198,,30.37989,0.1,332.92496,1591899597430
Fix,GT,37.3592091,-122.1186791,,30.61655,0.1,334.22958,1591899598430
Fix,GT,37.3594571,-122.1188343,,30.926855,0.1,334.99808,1591899599430
Fix,GT,37.3597089,-122.1189884,,31.258043,0.1,335.26767,1591899600430
Fix,GT,37.3599637,-122.119143,,31.56783,0.1,335.43326,1591899601430
Fix,GT,37.3602212,-122.1192986,,31.840992,0.1,335.38766,1591899602430
Fix,GT,37.3604797,-122.1194557,,31.89394,0.1,335.21597,1591899603430
Fix,GT,37.3607373,-122.1196135,,31.730412,0.1,335.02188,1591899604430
Fix,GT,37.3609933,-122.1197714,,31.64998,0.1,334.96832,1591899605430
Fix,GT,37.3612493,-122.11993,,31.79862,0.1,334.72815,1591899606430
Fix,GT,37.3615059,-122.1200934,,32.129974,0.1,333.53253,1591899607430
Fix,GT,37.3617614,-122.1202685,,32.57925,0.1,331.28732,1591899608430
Fix,GT,37.3620142,-122.1204598,,32.977005,0.1,328.7162,1591899609430
Fix,GT,37.3622618,-122.1206669,,33.143562,0.1,326.03827,1591899610430
Fix,GT,37.3625021,-122.1208894,,33.290733,0.1,323.14203,1591899611430
Fix,GT,37.3627343,-122.121129,,33.52991,0.1,320.2486,1591899612430
Fix,GT,37.3629584,-122.121383,,33.530445,0.1,317.84528,1591899613430
Fix,GT,37.3631724,-122.1216467,,33.167446,0.1,315.29205,1591899614430
Fix,GT,37.3633737,-122.1219197,,32.796535,0.1,312.50696,1591899615430
Fix,GT,37.3635633,-122.1222013,,32.5184,0.1,310.02866,1591899616430
Fix,GT,37.363741,-122.12249,,32.097244,0.1,307.4737,1591899617430
Fix,GT,37.3639056,-122.1227846,,31.667595,0.1,304.65274,1591899618430
Fix,GT,37.3640565,-122.1230858,,31.471516,0.1,301.84222,1591899619430
Fix,GT,37.3641959,-122.123395,,31.545582,0.1,299.4308,1591899620430
Fix,GT,37.3643256,-122.1237125,,31.678873,0.1,296.98138,1591899621430
Fix,GT,37.3644441,-122.1240382,,31.805822,0.1,294.2671,1591899622430
Fix,GT,37.3645508,-122.1243719,,31.942604,0.1,291.63654,1591899623430
Fix,GT,37.3646459,-122.1247127,,32.062187,0.1,289.18967,1591899624430
Fix,GT,37.3647296,-122.1250585,,31.980623,0.1,286.75836,1591899625430
Fix,GT,37.3648008,-122.1254066,,31.73928,0.1,284.23773,1591899626430
Fix,GT,37.3648593,-122.1257559,,31.567108,0.1,281.83936,1591899627430
Fix,GT,37.3649065,-122.1261065,,31.480738,0.1,279.5392,1591899628430
Fix,GT,37.3649417,-122.1264583,,31.40609,0.1,276.90814,1591899629430
Fix,GT,37.3649635,-122.1268103,,31.219816,0.1,274.27356,1591899630430
Fix,GT,37.3649747,-122.1271618,,31.173555,0.1,272.67456,1591899631430
Fix,GT,37.3649801,-122.1275138,,31.2299,0.1,271.88675,1591899632430
Fix,GT,37.3649827,-122.1278663,,31.23946,0.1,271.4526,1591899633430
Fix,GT,37.3649843,-122.1282184,,31.151466,0.1,271.46252,1591899634430
Fix,GT,37.3649864,-122.1285689,,30.939465,0.1,271.73254,1591899635430
Fix,GT,37.36499,-122.1289162,,30.632072,0.1,272.05374,1591899636430
Fix,GT,37.3649966,-122.1292607,,30.46836,0.1,273.16516,1591899637430
Fix,GT,37.3650116,-122.1296038,,30.41893,0.1,275.61078,1591899638430
