MessageType,Provider,LatitudeDegrees,LongitudeDegrees,AltitudeMeters,SpeedMps,AccuracyMeters,BearingDegrees,UnixTimeMillis
Fix,GT,37.4165184,-122.0800717,,0.0028284271,0.1,97.506226,1590792295442
Fix,GT,37.4165184,-122.0800717,,0.0031726677,0.1,97.50653,1590792296442
Fix,GT,37.4165184,-122.0800717,,0.0037802793,0.1,97.50635,1590792297442
Fix,GT,37.4165184,-122.0800717,,0.00448683,0.1,97.50659,1590792298442
Fix,GT,37.4165185,-122.0800716,,0.004666722,0.1,97.506744,1590792299442
Fix,GT,37.4165185,-122.0800716,,0.0036256071,0.1,97.506714,1590792300442
Fix,GT,37.4165185,-122.0800716,,0.0032682393,0.1,97.50644,1590792301442
Fix,GT,37.4165185,-122.0800716,,0.0029989155,0.1,97.50629,1590792302442
Fix,GT,37.4165185,-122.0800716,,0.002131498,0.1,97.50601,1590792303442
Fix,GT,37.4165185,-122.0800716,,0.0021045706,0.1,97.506165,1590792304442
Fix,GT,37.4165185,-122.0800716,,0.0018720138,0.1,97.506775,1590792305442
Fix,GT,37.4165185,-122.0800716,,0.0020406635,0.1,97.50687,1590792306442
Fix,GT,37.4165186,-122.0800711,,0.0029044284,0.1,97.507324,1590792307442
Fix,GT,37.4165188,-122.0800707,,0.0034974988,0.1,97.50726,1590792308442
Fix,GT,37.4165188,-122.0800706,,0.0042777145,0.1,97.5061,1590792309442
Fix,GT,37.4165189,-122.0800705,,0.003481632,0.1,97.50516,1590792310442
Fix,GT,37.4165189,-122.0800704,,0.0025744648,0.1,97.50531,1590792311442
Fix,GT,37.4165189,-122.0800703,,0.017624062,0.1,97.50659,1590792312442
Fix,GT,37.4165188,-122.0800692,,0.35524383,0.1,97.42456,1590792313442
Fix,GT,37.4165183,-122.0800583,,1.7851318,0.1,97.06268,1590792314442
Fix,GT,37.4165171,-122.0800259,,3.9542909,0.1,96.82086,1590792315442
Fix,GT,37.416515,-122.0799708,,5.7516785,0.1,96.683044,1590792316442
Fix,GT,37.4165124,-122.0798972,,7.248789,0.1,96.40326,1590792317442
Fix,GT,37.4165093,-122.0798075,,8.564861,0.1,96.59949,1590792318442
Fix,GT,37.416505,-122.079705,,9.515333,0.1,96.986145,1590792319442
Fix,GT,37.4164999,-122.0795939,,10.120521,0.1,97.24448,1590792320442
Fix,GT,37.4164942,-122.0794766,,10.659775,0.1,97.29532,1590792321442
Fix,GT,37.416488,-122.0793537,,11.114254,0.1,97.45114,1590792322442
Fix,GT,37.416481,-122.0792265,,11.399344,0.1,97.86026,1590792323442
Fix,GT,37.416473,-122.0790976,,11.423059,0.1,98.34445,1590792324442
Fix,GT,37.4164644,-122.0789704,,11.100719,0.1,98.56287,1590792325442
Fix,GT,37.4164565,-122.0788488,,10.420868,0.1,98.30676,1590792326442
Fix,GT,37.4164496,-122.0787361,,9.610195,0.1,97.98813,1590792327442
Fix,GT,37.4164434,-122.0786333,,8.567758,0.1,98.32855,1590792328442
Fix,GT,37.416437,-122.078545,,6.984651,0.1,99.22125,1590792329442
Fix,GT,37.4164313,-122.0784769,,5.164283,0.1,99.927155,1590792330442
Fix,GT,37.4164268,-122.0784282,,3.5903196,0.1,100.388306,1590792331442
Fix,GT,37.4164234,-122.0783945,,2.5709853,0.1,100.6893,1590792332442
Fix,GT,37.4164207,-122.0783685,,2.2467234,0.1,100.94275,1590792333442
Fix,GT,37.416418,-122.0783435,,2.228381,0.1,101.19733,1590792334442
Fix,GT,37.4164151,-122.0783184,,2.2733374,0.1,101.60593,1590792335442
Fix,GT,37.4164117,-122.0782926,,2.333243,0.1,102.67706,1590792336442
Fix,GT,37.4164077,-122.0782686,,1.9086251,0.1,104.716675,1590792337442
Fix,GT,37.4164045,-122.0782531,,0.81264156,0.1,106.600525,1590792338442
Fix,GT,37.4164035,-122.0782486,,0.082507454,0.1,107.20834,1590792339442
Fix,GT,37.4164034,-122.0782485,,0.008417685,0.1,107.22458,1590792340442
Fix,GT,37.4164035,-122.0782482,,0.070178874,0.1,107.24628,1590792341442
Fix,GT,37.416403,-122.0782464,,0.40652415,0.1,107.79657,1590792342442
Fix,GT,37.4163989,-122.0782364,,1.6469342,0.1,112.67685,1590792343442
Fix,GT,37.4163825,-122.078213,,3.584546,0.1,128.5155,1590792344442
Fix,GT,37.4163465,-122.0781878,,5.250073,0.1,152.75476,1590792345442
Fix,GT,37.4162933,-122.0781707,,6.686713,0.1,170.4433,1590792346442
Fix,GT,37.4162283,-122.0781605,,7.6734924,0.1,177.82715,1590792347442
Fix,GT,37.4161568,-122.078157,,8.090281,0.1,182.37326,1590792348442
Fix,GT,37.4160825,-122.0781578,,8.312173,0.1,184.70656,1590792349442
Fix,GT,37.4160091,-122.0781608,,7.9002504,0.1,185.90517,1590792350442
Fix,GT,37.4159432,-122.0781646,,6.6607256,0.1,186.66121,1590792351442
Fix,GT,37.4158892,-122.0781683,,5.3336153,0.1,186.8574,1590792352442
Fix,GT,37.4158474,-122.0781709,,3.9291832,0.1,186.47704,1590792353442
Fix,GT,37.4158182,-122.0781723,,2.5867887,0.1,186.02377,1590792354442
Fix,GT,37.4157999,-122.0781732,,1.559897,0.1,185.73367,1590792355442
Fix,GT,37.4157891,-122.0781735,,0.84644145,0.1,185.55774,1590792356442
Fix,GT,37.4157841,-122.0781737,,0.27965507,0.1,185.50061,1590792357442
Fix,GT,37.4157829,-122.0781738,,0.010756318,0.1,185.49155,1590792358442
Fix,GT,37.4157829,-122.0781738,,0.0038938462,0.1,185.49283,1590792359442
Fix,GT,37.4157829,-122.0781738,,0.0026348615,0.1,185.4935,1590792360442
Fix,GT,37.4157829,-122.0781738,,0.0012307307,0.1,185.49403,1590792361442
Fix,GT,37.4157829,-122.0781738,,0.0015475373,0.1,185.49455,1590792362442
Fix,GT,37.4157829,-122.0781738,,0.0024984635,0.1,185.49463,1590792363442
Fix,GT,37.4157829,-122.0781738,,0.0024614614,0.1,185.49428,1590792364442
Fix,GT,37.4157829,-122.0781738,,0.0027112062,0.1,185.49426,1590792365442
Fix,GT,37.4157829,-122.0781738,,0.0026348615,0.1,185.49428,1590792366442
Fix,GT,37.4157829,-122.0781738,,0.00078776386,0.1,185.49432,1590792367442
Fix,GT,37.4157829,-122.0781738,,0.00044296688,0.1,185.4944,1590792368442
Fix,GT,37.4157829,-122.0781738,,0.0005570332,0.1,185.49406,1590792369442
Fix,GT,37.4157829,-122.0781738,,0.001400784,0.1,185.49445,1590792370442
Fix,GT,37.4157829,-122.0781738,,0.0033586333,0.1,185.4939,1590792371442
Fix,GT,37.4157829,-122.0781738,,0.002998916,0.1,185.49364,1590792372442
Fix,GT,37.4157829,-122.0781738,,0.0024984635,0.1,185.49391,1590792373442
Fix,GT,37.4157829,-122.0781738,,0.0025660316,0.1,185.49443,1590792374442
Fix,GT,37.4157829,-122.0781738,,0.002236068,0.1,185.4942,1590792375442
Fix,GT,37.4157829,-122.0781738,,0.0028427038,0.1,185.4941,1590792376442
Fix,GT,37.4157829,-122.0781738,,0.0028943454,0.1,185.49376,1590792377442
Fix,GT,37.4157829,-122.0781738,,0.0017405162,0.1,185.49374,1590792378442
Fix,GT,37.4157829,-122.0781738,,0.002188548,0.1,185.49352,1590792379442
Fix,GT,37.4157829,-122.0781738,,0.0033586333,0.1,185.49243,1590792380442
Fix,GT,37.4157829,-122.0781738,,0.0032613112,0.1,185.49329,1590792381442
Fix,GT,37.4157829,-122.0781738,,0.0020184945,0.1,185.49315,1590792382442
Fix,GT,37.4157829,-122.0781738,,0.0011834829,0.1,185.49301,1590792383442
Fix,GT,37.4157829,-122.0781738,,0.002188548,0.1,185.49306,1590792384442
Fix,GT,37.4157829,-122.0781738,,0.0033586333,0.1,185.49258,1590792385442
Fix,GT,37.4157829,-122.0781738,,0.0034091957,0.1,185.492,1590792386442
Fix,GT,37.4157829,-122.0781738,,0.0027519977,0.1,185.49162,1590792387442
Fix,GT,37.4157829,-122.0781738,,0.002236068,0.1,185.49117,1590792388442
Fix,GT,37.4157829,-122.0781738,,0.002236068,0.1,185.49081,1590792389442
Fix,GT,37.4157829,-122.0781738,,0.0012455641,0.1,185.49048,1590792390442
Fix,GT,37.4157829,-122.0781738,,0.0008859337,0.1,185.49033,1590792391442
Fix,GT,37.4157829,-122.0781738,,0.012639719,0.1,185.49068,1590792392442
Fix,GT,37.4157818,-122.0781738,,0.42399648,0.1,185.46645,1590792393442
Fix,GT,37.4157711,-122.0781742,,2.1566837,0.1,185.29399,1590792394442
Fix,GT,37.4157402,-122.0781747,,4.6704874,0.1,184.7395,1590792395442
Fix,GT,37.415689,-122.0781752,,6.603882,0.1,184.2216,1590792396442
Fix,GT,37.4156227,-122.0781759,,7.9945035,0.1,184.19206,1590792397442
Fix,GT,37.4155462,-122.0781765,,8.897791,0.1,184.07861,1590792398442
Fix,GT,37.4154628,-122.0781771,,9.561929,0.1,184.07912,1590792399442
Fix,GT,37.4153737,-122.0781781,,10.192482,0.1,184.34656,1590792400442
Fix,GT,37.4152796,-122.0781794,,10.677904,0.1,184.40196,1590792401442
Fix,GT,37.4151819,-122.0781807,,11.032336,0.1,184.32784,1590792402442
Fix,GT,37.4150815,-122.0781816,,11.258442,0.1,183.99692,1590792403442
Fix,GT,37.4149796,-122.0781815,,11.363338,0.1,183.56349,1590792404442
Fix,GT,37.4148763,-122.0781807,,11.595863,0.1,183.378,1590792405442
Fix,GT,37.414771,-122.0781799,,11.753633,0.1,183.38626,1590792406442
Fix,GT,37.4146662,-122.0781791,,11.436251,0.1,183.37306,1590792407442
Fix,GT,37.4145666,-122.0781783,,10.610176,0.1,183.30334,1590792408442
Fix,GT,37.414476,-122.0781772,,9.47412,0.1,183.0637,1590792409442
Fix,GT,37.4143965,-122.0781755,,8.172014,0.1,182.75223,1590792410442
Fix,GT,37.4143292,-122.0781757,,6.7390404,0.1,184.73047,1590792411442
Fix,GT,37.4142734,-122.0781818,,5.728691,0.1,189.93752,1590792412442
Fix,GT,37.414224,-122.0781922,,5.4173155,0.1,193.34837,1590792413442
Fix,GT,37.4141766,-122.0782015,,5.207182,0.1,192.45831,1590792414442
Fix,GT,37.4141324,-122.0782073,,4.63585,0.1,189.35751,1590792415442
Fix,GT,37.4140955,-122.0782096,,3.435275,0.1,186.4297,1590792416442
Fix,GT,37.4140727,-122.0782103,,1.5745853,0.1,185.23866,1590792417442
Fix,GT,37.4140656,-122.0782104,,0.1476789,0.1,185.07866,1590792418442
Fix,GT,37.4140656,-122.0782105,,0.006324269,0.1,185.08049,1590792419442
Fix,GT,37.4140655,-122.0782104,,0.005258412,0.1,185.08022,1590792420442
Fix,GT,37.4140655,-122.0782104,,0.004169224,0.1,185.07988,1590792421442
Fix,GT,37.4140655,-122.0782104,,0.0021140664,0.1,185.08,1590792422442
Fix,GT,37.4140655,-122.0782104,,0.0011834828,0.1,185.08022,1590792423442
Fix,GT,37.4140655,-122.0782105,,0.002040663,0.1,185.08006,1590792424442
Fix,GT,37.4140655,-122.0782106,,0.0037903618,0.1,185.07994,1590792425442
Fix,GT,37.4140655,-122.0782105,,0.005586734,0.1,185.0797,1590792426442
Fix,GT,37.4140656,-122.0782105,,0.0070942994,0.1,185.07793,1590792427442
Fix,GT,37.4140653,-122.0782105,,0.0523826,0.1,185.07999,1590792428442
Fix,GT,37.4140641,-122.0782104,,0.34153023,0.1,185.05789,1590792429442
Fix,GT,37.4140572,-122.0782105,,1.3527687,0.1,184.93228,1590792430442
Fix,GT,37.4140375,-122.0782108,,3.0336287,0.1,184.7086,1590792431442
Fix,GT,37.414003,-122.0782115,,4.574652,0.1,184.62679,1590792432442
Fix,GT,37.413956,-122.0782124,,5.8213754,0.1,184.70416,1590792433442
Fix,GT,37.4138978,-122.0782137,,7.099312,0.1,184.75493,1590792434442
Fix,GT,37.4138277,-122.0782152,,8.441066,0.1,184.59868,1590792435442
Fix,GT,37.4137462,-122.0782162,,9.613131,0.1,184.15662,1590792436442
Fix,GT,37.4136552,-122.0782169,,10.548367,0.1,184.05942,1590792437442
Fix,GT,37.4135562,-122.0782176,,11.421444,0.1,184.21295,1590792438442
Fix,GT,37.4134496,-122.0782187,,12.191467,0.1,184.2196,1590792439442
Fix,GT,37.413337,-122.0782199,,12.789051,0.1,184.2005,1590792440442
Fix,GT,37.4132194,-122.0782209,,13.335006,0.1,184.10248,1590792441442
Fix,GT,37.4130968,-122.0782216,,13.878823,0.1,183.94398,1590792442442
Fix,GT,37.4129695,-122.0782216,,14.35149,0.1,183.65251,1590792443442
Fix,GT,37.4128382,-122.0782207,,14.780682,0.1,183.34435,1590792444442
Fix,GT,37.412703,-122.0782192,,15.188652,0.1,183.23167,1590792445442
Fix,GT,37.4125645,-122.0782177,,15.489786,0.1,183.42506,1590792446442
Fix,GT,37.4124246,-122.0782173,,15.513847,0.1,183.68373,1590792447442
Fix,GT,37.4122856,-122.0782173,,15.34955,0.1,183.80249,1590792448442
Fix,GT,37.4121482,-122.0782176,,15.144955,0.1,183.88625,1590792449442
Fix,GT,37.4120132,-122.0782183,,14.835301,0.1,183.96806,1590792450442
Fix,GT,37.4118809,-122.0782193,,14.545817,0.1,184.15744,1590792451442
Fix,GT,37.4117512,-122.0782211,,14.189633,0.1,184.4395,1590792452442
Fix,GT,37.4116256,-122.0782234,,13.645274,0.1,184.68674,1590792453442
Fix,GT,37.4115057,-122.0782264,,12.974878,0.1,185.09723,1590792454442
Fix,GT,37.4113928,-122.0782321,,12.057496,0.1,187.015,1590792455442
Fix,GT,37.4112888,-122.0782455,,11.175215,0.1,191.85013,1590792456442
Fix,GT,37.4111932,-122.0782731,,10.568583,0.1,199.91818,1590792457442
Fix,GT,37.4111079,-122.0783193,,10.130832,0.1,211.36458,1590792458442
Fix,GT,37.4110351,-122.0783875,,10.128279,0.1,225.05382,1590792459442
Fix,GT,37.410978,-122.0784786,,10.335543,0.1,240.79259,1590792460442
Fix,GT,37.4109444,-122.0785885,,10.6244,0.1,258.62082,1590792461442
Fix,GT,37.41094,-122.0787104,,11.080497,0.1,277.25436,1590792462442
Fix,GT,37.4109677,-122.0788323,,11.417097,0.1,296.07507,1590792463442
Fix,GT,37.4110247,-122.0789402,,11.541559,0.1,312.94977,1590792464442
Fix,GT,37.4111027,-122.079027,,11.580615,0.1,326.8795,1590792465442
Fix,GT,37.4111946,-122.0790887,,11.550337,0.1,340.28616,1590792466442
Fix,GT,37.4112951,-122.0791221,,11.451323,0.1,353.6801,1590792467442
Fix,GT,37.4113974,-122.0791249,,11.239943,0.1,7.7850647,1590792468442
Fix,GT,37.4114942,-122.0790936,,11.075663,0.1,24.07779,1590792469442
Fix,GT,37.4115802,-122.0790278,,11.368578,0.1,40.776947,1590792470442
Fix,GT,37.4116509,-122.07893,,12.091293,0.1,57.05365,1590792471442
Fix,GT,37.4117001,-122.0788047,,12.651798,0.1,73.42291,1590792472442
Fix,GT,37.4117206,-122.0786631,,12.854786,0.1,89.67554,1590792473442
Fix,GT,37.4117093,-122.0785192,,12.841578,0.1,105.272644,1590792474442
Fix,GT,37.4116716,-122.0783813,,13.037729,0.1,116.61417,1590792475442
Fix,GT,37.4116196,-122.0782461,,13.528626,0.1,120.73126,1590792476442
Fix,GT,37.4115631,-122.0781079,,13.981085,0.1,121.01608,1590792477442
Fix,GT,37.4115046,-122.0779651,,14.432061,0.1,121.16699,1590792478442
Fix,GT,37.4114435,-122.0778182,,14.88836,0.1,121.530365,1590792479442
Fix,GT,37.4113798,-122.0776673,,15.328741,0.1,121.865295,1590792480442
Fix,GT,37.4113139,-122.0775122,,15.773979,0.1,121.8714,1590792481442
Fix,GT,37.4112466,-122.0773522,,16.26302,0.1,121.50003,1590792482442
Fix,GT,37.4111781,-122.0771869,,16.726818,0.1,121.18506,1590792483442
Fix,GT,37.411108,-122.0770164,,17.241901,0.1,121.128876,1590792484442
Fix,GT,37.4110356,-122.0768405,,17.806686,0.1,121.17236,1590792485442
Fix,GT,37.4109612,-122.0766598,,18.152626,0.1,121.140015,1590792486442
Fix,GT,37.4108865,-122.0764774,,18.068035,0.1,120.89307,1590792487442
Fix,GT,37.410814,-122.0762987,,17.322603,0.1,120.66315,1590792488442
Fix,GT,37.4107453,-122.0761286,,16.458612,0.1,120.50244,1590792489442
Fix,GT,37.4106795,-122.0759625,,16.509989,0.1,119.851074,1590792490442
Fix,GT,37.4106141,-122.0757924,,16.993542,0.1,119.39874,1590792491442
Fix,GT,37.4105465,-122.0756169,,17.494015,0.1,119.65732,1590792492442
Fix,GT,37.4104763,-122.0754369,,17.983364,0.1,119.98917,1590792493442
Fix,GT,37.4104034,-122.0752524,,18.492748,0.1,120.34009,1590792494442
Fix,GT,37.4103273,-122.0750632,,19.006283,0.1,120.74286,1590792495442
Fix,GT,37.410248,-122.0748697,,19.49067,0.1,121.23462,1590792496442
Fix,GT,37.4101652,-122.0746723,,19.969067,0.1,121.75931,1590792497442
Fix,GT,37.410079,-122.0744709,,20.495941,0.1,122.19699,1590792498442
Fix,GT,37.4099893,-122.0742652,,21.00265,0.1,122.66379,1590792499442
Fix,GT,37.4098961,-122.0740559,,21.447933,0.1,123.14099,1590792500442
Fix,GT,37.4097998,-122.073843,,21.904278,0.1,123.540436,1590792501442
Fix,GT,37.4097004,-122.0736259,,22.422274,0.1,123.724335,1590792502442
Fix,GT,37.4095985,-122.0734037,,22.949999,0.1,123.67908,1590792503442
Fix,GT,37.4094948,-122.0731763,,23.420532,0.1,123.57178,1590792504442
Fix,GT,37.4093893,-122.0729442,,23.850052,0.1,123.30026,1590792505442
Fix,GT,37.4092834,-122.0727073,,24.20672,0.1,122.86252,1590792506442
Fix,GT,37.4091772,-122.0724668,,24.446556,0.1,122.80948,1590792507442
Fix,GT,37.4090694,-122.0722253,,24.56403,0.1,123.30914,1590792508442
Fix,GT,37.4089586,-122.0719843,,24.656136,0.1,124.206604,1590792509442
Fix,GT,37.4088428,-122.0717457,,24.775476,0.1,126.07596,1590792510442
Fix,GT,37.4087178,-122.0715128,,24.90363,0.1,129.30298,1590792511442
Fix,GT,37.4085804,-122.0712895,,25.005651,0.1,133.56104,1590792512442
Fix,GT,37.4084285,-122.0710799,,25.142662,0.1,138.33774,1590792513442
Fix,GT,37.4082622,-122.0708856,,25.308384,0.1,143.09491,1590792514442
Fix,GT,37.4080824,-122.0707082,,25.465523,0.1,147.854,1590792515442
Fix,GT,37.4078903,-122.0705492,,25.592106,0.1,152.65027,1590792516442
Fix,GT,37.4076871,-122.0704103,,25.786005,0.1,157.48132,1590792517442
Fix,GT,37.4074732,-122.0702924,,26.130823,0.1,162.35638,1590792518442
Fix,GT,37.4072486,-122.0701963,,26.548416,0.1,167.38141,1590792519442
Fix,GT,37.4070141,-122.0701245,,27.015461,0.1,172.49323,1590792520442
Fix,GT,37.4067714,-122.0700782,,27.491013,0.1,177.55505,1590792521442
Fix,GT,37.4065223,-122.0700548,,27.949608,0.1,181.1105,1590792522442
Fix,GT,37.4062685,-122.0700447,,28.411743,0.1,182.47694,1590792523442
Fix,GT,37.4060101,-122.0700392,,28.9281,0.1,182.97449,1590792524442
Fix,GT,37.405747,-122.0700348,,29.502907,0.1,182.88586,1590792525442
Fix,GT,37.4054788,-122.0700292,,30.06165,0.1,182.69434,1590792526442
Fix,GT,37.4052056,-122.0700229,,30.554482,0.1,182.77505,1590792527442
Fix,GT,37.4049287,-122.070018,,30.891449,0.1,183.20879,1590792528442
Fix,GT,37.4046497,-122.0700162,,31.040924,0.1,183.7551,1590792529442
Fix,GT,37.4043695,-122.0700176,,31.126057,0.1,184.21143,1590792530442
Fix,GT,37.4040885,-122.0700215,,31.214012,0.1,184.47292,1590792531442
Fix,GT,37.4038069,-122.0700254,,31.314365,0.1,184.30469,1590792532442
Fix,GT,37.4035244,-122.0700277,,31.427013,0.1,183.96458,1590792533442
Fix,GT,37.4032407,-122.0700293,,31.539558,0.1,184.10265,1590792534442
Fix,GT,37.4029561,-122.0700319,,31.626085,0.1,184.33969,1590792535442
Fix,GT,37.402671,-122.0700349,,31.712048,0.1,184.20026,1590792536442
Fix,GT,37.4023848,-122.0700374,,31.825407,0.1,184.14278,1590792537442
Fix,GT,37.4020973,-122.07004,,31.960608,0.1,184.30305,1590792538442
Fix,GT,37.4018086,-122.0700439,,32.149216,0.1,184.34187,1590792539442
Fix,GT,37.4015182,-122.0700458,,32.34314,0.1,183.73413,1590792540442
Fix,GT,37.4012261,-122.0700442,,32.51147,0.1,183.36798,1590792541442
Fix,GT,37.4009323,-122.0700407,,32.71332,0.1,182.83171,1590792542442
Fix,GT,37.400637,-122.0700286,,32.93802,0.1,180.63307,1590792543442
Fix,GT,37.4003404,-122.0700005,,33.166473,0.1,178.12909,1590792544442
Fix,GT,37.4000429,-122.0699564,,33.410446,0.1,175.71472,1590792545442
Fix,GT,37.3997451,-122.0698949,,33.644493,0.1,173.14044,1590792546442
Fix,GT,37.399447,-122.06982,,33.876553,0.1,171.86694,1590792547442
Fix,GT,37.3991474,-122.0697398,,34.094727,0.1,171.64838,1590792548442
Fix,GT,37.3988466,-122.0696584,,34.222908,0.1,171.41223,1590792549442
Fix,GT,37.3985454,-122.0695754,,34.229626,0.1,171.3435,1590792550442
Fix,GT,37.3982443,-122.069493,,34.166912,0.1,171.57874,1590792551442
Fix,GT,37.3979437,-122.0694123,,34.051773,0.1,171.72803,1590792552442
Fix,GT,37.3976444,-122.0693323,,33.88667,0.1,171.71661,1590792553442
Fix,GT,37.3973466,-122.0692524,,33.72921,0.1,171.6643,1590792554442
Fix,GT,37.39705,-122.0691725,,33.64134,0.1,171.69287,1590792555442
Fix,GT,37.3967537,-122.0690934,,33.6008,0.1,171.8479,1590792556442
Fix,GT,37.3964576,-122.0690154,,33.580963,0.1,171.90332,1590792557442
Fix,GT,37.3961618,-122.0689373,,33.533546,0.1,171.81903,1590792558442
Fix,GT,37.3958666,-122.0688595,,33.408134,0.1,172.09363,1590792559442
Fix,GT,37.3955721,-122.0687858,,33.25969,0.1,173.0224,1590792560442
Fix,GT,37.3952776,-122.0687196,,33.122677,0.1,174.21191,1590792561442
Fix,GT,37.3949836,-122.0686621,,32.93479,0.1,175.69812,1590792562442
Fix,GT,37.3946904,-122.0686154,,32.678795,0.1,177.42505,1590792563442
Fix,GT,37.3943985,-122.0685793,,32.3877,0.1,178.99286,1590792564442
Fix,GT,37.3941085,-122.0685534,,32.114372,0.1,180.50012,1590792565442
Fix,GT,37.3938205,-122.0685371,,31.848898,0.1,181.88318,1590792566442
Fix,GT,37.3935348,-122.0685297,,31.591866,0.1,183.4318,1590792567442
Fix,GT,37.3932512,-122.0685326,,31.36544,0.1,185.0698,1590792568442
Fix,GT,37.3929698,-122.0685443,,31.126797,0.1,186.24672,1590792569442
Fix,GT,37.3926909,-122.0685621,,30.874216,0.1,187.15108,1590792570442
Fix,GT,37.3924142,-122.0685842,,30.674734,0.1,187.71432,1590792571442
Fix,GT,37.3921392,-122.0686086,,30.526325,0.1,187.94402,1590792572442
Fix,GT,37.3918653,-122.0686334,,30.429268,0.1,188.0051,1590792573442
Fix,GT,37.391592,-122.0686592,,30.409098,0.1,188.24335,1590792574442
Fix,GT,37.391319,-122.0686862,,30.392225,0.1,188.31053,1590792575442
Fix,GT,37.3910464,-122.0687125,,30.288017,0.1,188.0709,1590792576442
Fix,GT,37.3907747,-122.0687382,,30.14497,0.1,188.16568,1590792577442
Fix,GT,37.3905042,-122.0687651,,30.072212,0.1,188.42632,1590792578442
Fix,GT,37.3902341,-122.0687923,,30.062721,0.1,188.28584,1590792579442
Fix,GT,37.3899638,-122.0688179,,30.093784,0.1,188.03667,1590792580442
Fix,GT,37.389693,-122.0688426,,30.162958,0.1,187.93414,1590792581442
Fix,GT,37.3894216,-122.068867,,30.237099,0.1,187.8967,1590792582442
Fix,GT,37.3891494,-122.0688901,,30.34752,0.1,187.39806,1590792583442
Fix,GT,37.3888758,-122.0689076,,30.457169,0.1,185.93811,1590792584442
Fix,GT,37.3886015,-122.0689146,,30.466003,0.1,183.9787,1590792585442
Fix,GT,37.3883272,-122.0689098,,30.496191,0.1,182.1208,1590792586442
Fix,GT,37.3880522,-122.0688953,,30.644978,0.1,180.72289,1590792587442
Fix,GT,37.3877759,-122.0688737,,30.827423,0.1,179.8002,1590792588442
Fix,GT,37.3874984,-122.0688472,,30.941452,0.1,179.1239,1590792589442
Fix,GT,37.3872204,-122.0688177,,30.97313,0.1,178.81873,1590792590442
Fix,GT,37.3869427,-122.0687871,,30.931736,0.1,178.72498,1590792591442
Fix,GT,37.3866655,-122.068756,,30.843006,0.1,178.68335,1590792592442
Fix,GT,37.3863892,-122.068725,,30.738228,0.1,178.72412,1590792593442
Fix,GT,37.3861138,-122.0686944,,30.636435,0.1,178.70807,1590792594442
Fix,GT,37.3858394,-122.0686636,,30.524628,0.1,178.6767,1590792595442
Fix,GT,37.3855661,-122.0686326,,30.402931,0.1,178.60858,1590792596442
Fix,GT,37.3852939,-122.0686018,,30.265087,0.1,178.63263,1590792597442
Fix,GT,37.3850228,-122.0685717,,30.136318,0.1,178.77936,1590792598442
Fix,GT,37.384753,-122.068542,,30.007095,0.1,178.68933,1590792599442
Fix,GT,37.3844844,-122.0685113,,29.821238,0.1,178.4798,1590792600442
Fix,GT,37.3842182,-122.0684802,,29.476562,0.1,178.5127,1590792601442
Fix,GT,37.3839557,-122.0684506,,28.99952,0.1,178.83447,1590792602442
Fix,GT,37.3836971,-122.0684229,,28.64653,0.1,179.0343,1590792603442
Fix,GT,37.3834403,-122.0683958,,28.58214,0.1,178.90283,1590792604442
Fix,GT,37.3831835,-122.0683681,,28.653471,0.1,178.85321,1590792605442
Fix,GT,37.382926,-122.0683401,,28.713692,0.1,178.82922,1590792606442
Fix,GT,37.382668,-122.0683122,,28.757004,0.1,178.89929,1590792607442
Fix,GT,37.3824096,-122.0682848,,28.794783,0.1,178.98956,1590792608442
Fix,GT,37.3821509,-122.0682574,,28.843746,0.1,178.89569,1590792609442
Fix,GT,37.3818918,-122.0682291,,28.913263,0.1,178.67426,1590792610442
Fix,GT,37.381632,-122.0681992,,29.000774,0.1,178.42719,1590792611442
Fix,GT,37.3813714,-122.0681681,,29.100426,0.1,178.34277,1590792612442
Fix,GT,37.3811101,-122.0681371,,29.173153,0.1,178.46259,1590792613442
Fix,GT,37.3808482,-122.0681068,,29.210335,0.1,178.57544,1590792614442
Fix,GT,37.3805859,-122.0680771,,29.256954,0.1,178.67847,1590792615442
Fix,GT,37.3803228,-122.0680479,,29.366589,0.1,178.7799,1590792616442
Fix,GT,37.3800586,-122.0680188,,29.515404,0.1,178.74036,1590792617442
Fix,GT,37.3797929,-122.0679894,,29.65723,0.1,178.80304,1590792618442
Fix,GT,37.379526,-122.0679606,,29.799686,0.1,179.00555,1590792619442
Fix,GT,37.3792579,-122.0679326,,29.914885,0.1,179.03699,1590792620442
Fix,GT,37.378989,-122.0679041,,29.979036,0.1,178.89142,1590792621442
Fix,GT,37.3787195,-122.067875,,30.070919,0.1,178.9566,1590792622442
Fix,GT,37.3784487,-122.0678475,,30.244106,0.1,179.47815,1590792623442
Fix,GT,37.378176,-122.0678245,,30.386192,0.1,180.49518,1590792624442
Fix,GT,37.3779021,-122.0678093,,30.439453,0.1,182.17545,1590792625442
Fix,GT,37.3776277,-122.0678061,,30.44392,0.1,184.38568,1590792626442
Fix,GT,37.3773535,-122.0678157,,30.430733,0.1,186.40175,1590792627442
Fix,GT,37.3770798,-122.0678362,,30.39811,0.1,188.06496,1590792628442
Fix,GT,37.3768071,-122.0678657,,30.361168,0.1,189.35577,1590792629442
Fix,GT,37.3765349,-122.0679008,,30.359768,0.1,189.9232,1590792630442
Fix,GT,37.3762629,-122.0679372,,30.367826,0.1,189.90384,1590792631442
Fix,GT,37.3759908,-122.0679717,,30.36755,0.1,189.19267,1590792632442
Fix,GT,37.3757183,-122.0679996,,30.377983,0.1,187.73389,1590792633442
Fix,GT,37.3754448,-122.0680182,,30.436872,0.1,186.36972,1590792634442
Fix,GT,37.3751704,-122.0680297,,30.54467,0.1,185.07135,1590792635442
Fix,GT,37.3748951,-122.0680318,,30.620535,0.1,183.20293,1590792636442
Fix,GT,37.3746197,-122.0680209,,30.591175,0.1,180.78911,1590792637442
Fix,GT,37.3743457,-122.0679951,,30.460102,0.1,178.19714,1590792638442
Fix,GT,37.3740742,-122.0679539,,30.304115,0.1,175.52368,1590792639442
Fix,GT,37.373806,-122.0678962,,30.191448,0.1,172.57446,1590792640442
Fix,GT,37.3735414,-122.0678208,,30.113468,0.1,169.35046,1590792641442
Fix,GT,37.373281,-122.067728,,30.100933,0.1,166.6211,1590792642442
Fix,GT,37.3730234,-122.0676207,,30.18478,0.1,164.20624,1590792643442
Fix,GT,37.3727692,-122.0674989,,30.306047,0.1,161.47986,1590792644442
Fix,GT,37.3725186,-122.0673622,,30.445587,0.1,159.17023,1590792645442
Fix,GT,37.3722698,-122.067215,,30.641457,0.1,158.10425,1590792646442
Fix,GT,37.3720205,-122.0670637,,30.860237,0.1,157.95734,1590792647442
Fix,GT,37.3717693,-122.0669116,,31.054428,0.1,158.02014,1590792648442
Fix,GT,37.3715167,-122.0667586,,31.242807,0.1,157.97998,1590792649442
Fix,GT,37.3712626,-122.0666044,,31.403973,0.1,157.97821,1590792650442
Fix,GT,37.3710075,-122.0664496,,31.506498,0.1,157.93713,1590792651442
Fix,GT,37.3707518,-122.0662939,,31.582466,0.1,157.82275,1590792652442
Fix,GT,37.3704957,-122.0661374,,31.68361,0.1,157.75336,1590792653442
Fix,GT,37.3702387,-122.0659801,,31.816063,0.1,157.79443,1590792654442
Fix,GT,37.3699805,-122.0658226,,31.941349,0.1,157.88928,1590792655442
Fix,GT,37.3697209,-122.065665,,32.073288,0.1,157.96252,1590792656442
Fix,GT,37.36946,-122.065507,,32.226494,0.1,158.06152,1590792657442
Fix,GT,37.3691977,-122.0653488,,32.405777,0.1,158.16339,1590792658442
Fix,GT,37.3689337,-122.0651901,,32.597824,0.1,158.09753,1590792659442
Fix,GT,37.3686686,-122.0650298,,32.76963,0.1,157.90247,1590792660442
Fix,GT,37.3684027,-122.0648675,,32.877304,0.1,157.77338,1590792661442
Fix,GT,37.3681364,-122.0647047,,32.877464,0.1,157.82532,1590792662442
Fix,GT,37.3678704,-122.0645428,,32.74446,0.1,157.89331,1590792663442
Fix,GT,37.367606,-122.0643818,,32.499847,0.1,157.88074,1590792664442
Fix,GT,37.3673439,-122.0642223,,32.157574,0.1,157.89233,1590792665442
Fix,GT,37.3670848,-122.0640651,,31.684921,0.1,158.07391,1590792666442
Fix,GT,37.3668292,-122.0639126,,31.152515,0.1,158.74103,1590792667442
Fix,GT,37.3665752,-122.0637679,,30.817036,0.1,160.0221,1590792668442
Fix,GT,37.3663197,-122.0636326,,30.793457,0.1,161.7586,1590792669442
Fix,GT,37.3660604,-122.0635078,,30.850794,0.1,163.93542,1590792670442
Fix,GT,37.3657967,-122.0633959,,30.92248,0.1,166.24402,1590792671442
Fix,GT,37.3655292,-122.0632966,,30.999746,0.1,168.39215,1590792672442
Fix,GT,37.3652581,-122.0632099,,31.069216,0.1,170.72638,1590792673442
Fix,GT,37.3649836,-122.063138,,31.138721,0.1,173.35217,1590792674442
Fix,GT,37.3647063,-122.0630818,,31.205875,0.1,175.93622,1590792675442
Fix,GT,37.3644267,-122.0630409,,31.253317,0.1,178.32037,1590792676442
Fix,GT,37.3641457,-122.0630139,,31.257309,0.1,180.59851,1590792677442
Fix,GT,37.3638644,-122.0630008,,31.21202,0.1,182.75551,1590792678442
Fix,GT,37.3635834,-122.0629991,,31.154396,0.1,184.22292,1590792679442
Fix,GT,37.3633025,-122.0630031,,31.165493,0.1,184.71144,1590792680442
Fix,GT,37.3630215,-122.0630093,,31.220833,0.1,184.91583,1590792681442
Fix,GT,37.3627402,-122.0630162,,31.209538,0.1,184.91716,1590792682442
Fix,GT,37.3624596,-122.0630226,,31.068111,0.1,184.79417,1590792683442
Fix,GT,37.3621805,-122.0630285,,30.900164,0.1,184.77522,1590792684442
Fix,GT,37.3619025,-122.0630346,,30.857765,0.1,184.88226,1590792685442
Fix,GT,37.3616243,-122.0630412,,30.88504,0.1,184.8985,1590792686442
Fix,GT,37.3613464,-122.063047,,30.77443,0.1,184.66574,1590792687442
Fix,GT,37.3610699,-122.0630516,,30.601103,0.1,184.58864,1590792688442
Fix,GT,37.3607946,-122.0630567,,30.569443,0.1,184.80095,1590792689442
Fix,GT,37.360519,-122.0630635,,30.626495,0.1,185.10834,1590792690442
Fix,GT,37.3602429,-122.0630713,,30.663425,0.1,185.0791,1590792691442
Fix,GT,37.3599668,-122.0630771,,30.589085,0.1,184.41768,1590792692442
Fix,GT,37.359692,-122.063078,,30.42258,0.1,183.55263,1590792693442
Fix,GT,37.3594185,-122.0630741,,30.320751,0.1,182.75531,1590792694442
Fix,GT,37.3591453,-122.0630649,,30.34948,0.1,181.75214,1590792695442
Fix,GT,37.3588719,-122.0630489,,30.43366,0.1,180.57758,1590792696442
Fix,GT,37.3585979,-122.0630262,,30.52067,0.1,179.51709,1590792697442
Fix,GT,37.3583238,-122.0629968,,30.570324,0.1,178.30212,1590792698442
Fix,GT,37.35805,-122.0629596,,30.574772,0.1,176.90771,1590792699442
Fix,GT,37.3577772,-122.0629144,,30.521997,0.1,175.67456,1590792700442
Fix,GT,37.3575059,-122.0628625,,30.392159,0.1,174.58295,1590792701442
Fix,GT,37.3572367,-122.0628042,,30.26466,0.1,173.33917,1590792702442
Fix,GT,37.3569694,-122.0627388,,30.230003,0.1,172.19196,1590792703442
Fix,GT,37.3567029,-122.0626677,,30.257162,0.1,171.34052,1590792704442
Fix,GT,37.3564374,-122.0625912,,30.193403,0.1,170.3551,1590792705442
Fix,GT,37.3561744,-122.062509,,30.004177,0.1,169.19409,1590792706442
Fix,GT,37.3559147,-122.0624206,,29.746834,0.1,168.00531,1590792707442
Fix,GT,37.3556587,-122.0623263,,29.49924,0.1,166.89331,1590792708442
Fix,GT,37.3554059,-122.062227,,29.327507,0.1,165.89417,1590792709442
Fix,GT,37.3551557,-122.062123,,29.210163,0.1,164.9972,1590792710442
Fix,GT,37.3549077,-122.0620142,,29.138847,0.1,163.96582,1590792711442
Fix,GT,37.3546617,-122.0618999,,29.118687,0.1,163.12537,1590792712442
Fix,GT,37.3544165,-122.0617833,,29.089933,0.1,163.1297,1590792713442
Fix,GT,37.3541711,-122.0616684,,29.03249,0.1,163.34662,1590792714442
Fix,GT,37.3539261,-122.061554,,28.999905,0.1,163.39496,1590792715442
Fix,GT,37.3536814,-122.0614397,,29.001356,0.1,163.28241,1590792716442
Fix,GT,37.3534369,-122.0613242,,29.005701,0.1,162.94708,1590792717442
Fix,GT,37.3531926,-122.0612077,,29.031443,0.1,162.99188,1590792718442
Fix,GT,37.3529473,-122.0610926,,29.093994,0.1,163.50928,1590792719442
Fix,GT,37.3527003,-122.0609811,,29.197304,0.1,164.40967,1590792720442
Fix,GT,37.3524508,-122.060875,,29.317204,0.1,165.67993,1590792721442
Fix,GT,37.3521983,-122.0607755,,29.403046,0.1,166.9513,1590792722442
Fix,GT,37.3519437,-122.0606828,,29.46114,0.1,168.25879,1590792723442
Fix,GT,37.3516866,-122.060597,,29.594612,0.1,169.41937,1590792724442
Fix,GT,37.3514267,-122.0605163,,29.834702,0.1,170.32068,1590792725442
Fix,GT,37.3511636,-122.0604406,,30.060783,0.1,171.3197,1590792726442
Fix,GT,37.3508978,-122.0603703,,30.202652,0.1,172.41376,1590792727442
Fix,GT,37.3506305,-122.060306,,30.165318,0.1,173.47583,1590792728442
Fix,GT,37.350363,-122.0602487,,30.062172,0.1,174.79059,1590792729442
Fix,GT,37.3500954,-122.0601996,,29.96828,0.1,176.22498,1590792730442
Fix,GT,37.3498282,-122.0601589,,29.721174,0.1,177.48566,1590792731442
Fix,GT,37.3495634,-122.0601252,,29.326565,0.1,178.5072,1590792732442
Fix,GT,37.3493019,-122.0600975,,28.947618,0.1,179.46143,1590792733442
Fix,GT,37.3490423,-122.0600752,,28.86241,0.1,180.37027,1590792734442
Fix,GT,37.3487821,-122.0600575,,28.99392,0.1,181.08772,1590792735442
Fix,GT,37.3485204,-122.060044,,29.115383,0.1,181.88286,1590792736442
Fix,GT,37.3482576,-122.0600358,,29.221516,0.1,182.92809,1590792737442
Fix,GT,37.3479939,-122.0600331,,29.321873,0.1,183.72314,1590792738442
Fix,GT,37.3477295,-122.0600334,,29.355179,0.1,183.9887,1590792739442
Fix,GT,37.3474653,-122.0600347,,29.267147,0.1,184.11899,1590792740442
Fix,GT,37.3472023,-122.0600369,,29.120602,0.1,184.28462,1590792741442
Fix,GT,37.3469407,-122.0600393,,28.970436,0.1,184.12866,1590792742442
Fix,GT,37.3466802,-122.0600405,,28.875256,0.1,183.97183,1590792743442
Fix,GT,37.34642,-122.0600413,,28.885637,0.1,183.93102,1590792744442
Fix,GT,37.3461595,-122.0600417,,28.947844,0.1,183.819,1590792745442
Fix,GT,37.3458985,-122.0600413,,29.019098,0.1,183.65993,1590792746442
Fix,GT,37.3456372,-122.0600405,,29.03218,0.1,183.61867,1590792747442
Fix,GT,37.3453767,-122.0600399,,28.887745,0.1,183.6331,1590792748442
Fix,GT,37.3451179,-122.060039,,28.580357,0.1,183.55803,1590792749442
Fix,GT,37.3448619,-122.0600372,,28.271725,0.1,183.41826,1590792750442
Fix,GT,37.344608,-122.0600347,,28.1199,0.1,183.29532,1590792751442
Fix,GT,37.3443551,-122.0600315,,28.039425,0.1,183.21712,1590792752442
Fix,GT,37.3441028,-122.0600281,,27.964487,0.1,183.17885,1590792753442
Fix,GT,37.3438512,-122.0600246,,27.890099,0.1,183.22188,1590792754442
Fix,GT,37.3436,-122.0600221,,27.8822,0.1,183.54202,1590792755442
Fix,GT,37.3433484,-122.0600219,,27.972454,0.1,183.98898,1590792756442
Fix,GT,37.3430958,-122.0600237,,28.099792,0.1,184.28864,1590792757442
Fix,GT,37.3428419,-122.0600268,,28.246862,0.1,184.45792,1590792758442
Fix,GT,37.3425866,-122.0600304,,28.428413,0.1,184.40642,1590792759442
Fix,GT,37.3423296,-122.0600333,,28.62455,0.1,184.28676,1590792760442
Fix,GT,37.3420708,-122.0600354,,28.827496,0.1,184.03809,1590792761442
Fix,GT,37.3418103,-122.0600356,,29.0091,0.1,183.74106,1590792762442
Fix,GT,37.3415482,-122.0600349,,29.162107,0.1,183.7255,1590792763442
Fix,GT,37.3412847,-122.0600346,,29.319107,0.1,183.80786,1590792764442
Fix,GT,37.3410198,-122.0600343,,29.458332,0.1,183.7221,1590792765442
Fix,GT,37.3407539,-122.0600334,,29.554287,0.1,183.62906,1590792766442
Fix,GT,37.3404874,-122.0600323,,29.571346,0.1,183.62964,1590792767442
Fix,GT,37.3402214,-122.0600313,,29.465778,0.1,183.70847,1590792768442
Fix,GT,37.339957,-122.0600311,,29.219452,0.1,183.87369,1590792769442
Fix,GT,37.3396954,-122.0600319,,28.81633,0.1,184.03271,1590792770442
Fix,GT,37.339438,-122.0600324,,28.322515,0.1,183.79398,1590792771442
Fix,GT,37.3391848,-122.0600303,,27.946695,0.1,183.14641,1590792772442
Fix,GT,37.3389339,-122.0600247,,27.848835,0.1,182.583,1590792773442
Fix,GT,37.3386826,-122.060016,,27.95298,0.1,181.80287,1590792774442
Fix,GT,37.3384306,-122.06,,28.095867,0.1,179.92355,1590792775442
Fix,GT,37.3381782,-122.0599712,,28.222628,0.1,177.3985,1590792776442
Fix,GT,37.3379257,-122.0599293,,28.340736,0.1,175.24261,1590792777442
Fix,GT,37.3376736,-122.0598762,,28.43605,0.1,173.32434,1590792778442
Fix,GT,37.3374224,-122.0598123,,28.48787,0.1,171.38037,1590792779442
Fix,GT,37.3371726,-122.0597393,,28.496534,0.1,170.19958,1590792780442
Fix,GT,37.3369233,-122.0596629,,28.4375,0.1,170.03265,1590792781442
Fix,GT,37.3366747,-122.0595869,,28.315079,0.1,170.22882,1590792782442
Fix,GT,37.3364275,-122.0595126,,28.077057,0.1,170.41614,1590792783442
Fix,GT,37.3361833,-122.0594405,,27.5517,0.1,170.71527,1590792784442
Fix,GT,37.3359442,-122.0593727,,26.815838,0.1,171.40045,1590792785442
Fix,GT,37.3357112,-122.0593107,,26.049545,0.1,172.29773,1590792786442
Fix,GT,37.3354846,-122.0592552,,25.146053,0.1,173.27936,1590792787442
Fix,GT,37.3352668,-122.0592067,,23.93987,0.1,174.0877,1590792788442
Fix,GT,37.3350596,-122.0591628,,22.726097,0.1,174.206,1590792789442
Fix,GT,37.334862,-122.0591204,,21.83953,0.1,174.04346,1590792790442
Fix,GT,37.3346717,-122.0590795,,20.973526,0.1,174.15887,1590792791442
Fix,GT,37.3344901,-122.0590413,,19.771519,0.1,174.42926,1590792792442
Fix,GT,37.3343203,-122.0590067,,18.440166,0.1,174.69629,1590792793442
Fix,GT,37.3341605,-122.0589754,,17.532324,0.1,175.24988,1590792794442
Fix,GT,37.3340059,-122.0589496,,17.079971,0.1,177.35345,1590792795442
Fix,GT,37.3338534,-122.0589371,,16.79538,0.1,182.51776,1590792796442
Fix,GT,37.3337027,-122.0589472,,16.69489,0.1,190.01677,1590792797442
Fix,GT,37.3335559,-122.0589849,,16.601065,0.1,199.3369,1590792798442
Fix,GT,37.3334178,-122.0590549,,16.512562,0.1,210.66905,1590792799442
Fix,GT,37.3332948,-122.0591579,,16.421492,0.1,222.5565,1590792800442
Fix,GT,37.3331916,-122.0592895,,16.310835,0.1,234.03888,1590792801442
Fix,GT,37.3331094,-122.0594416,,16.216015,0.1,243.57025,1590792802442
Fix,GT,37.333046,-122.0596079,,16.476566,0.1,251.18079,1590792803442
Fix,GT,37.3329977,-122.0597876,,17.126377,0.1,257.66553,1590792804442
Fix,GT,37.3329619,-122.059979,,17.649876,0.1,262.592,1590792805442
Fix,GT,37.3329376,-122.0601784,,18.067005,0.1,266.9352,1590792806442
Fix,GT,37.3329252,-122.0603843,,18.506254,0.1,271.3952,1590792807442
Fix,GT,37.3329266,-122.0605956,,18.94377,0.1,276.3581,1590792808442
Fix,GT,37.3329429,-122.0608108,,19.324444,0.1,281.39246,1590792809442
Fix,GT,37.3329743,-122.0610271,,19.619007,0.1,286.22174,1590792810442
Fix,GT,37.3330204,-122.0612425,,19.892273,0.1,290.69495,1590792811442
Fix,GT,37.3330785,-122.0614571,,20.278023,0.1,293.48312,1590792812442
Fix,GT,37.3331433,-122.061674,,20.77486,0.1,294.79636,1590792813442
Fix,GT,37.3332128,-122.0618948,,21.30437,0.1,295.67767,1590792814442
Fix,GT,37.3332855,-122.0621192,,21.564386,0.1,295.8629,1590792815442
Fix,GT,37.3333578,-122.0623442,,21.361046,0.1,295.46393,1590792816442
Fix,GT,37.3334284,-122.0625666,,21.051273,0.1,295.57288,1590792817442
Fix,GT,37.3334989,-122.0627854,,20.811201,0.1,295.85107,1590792818442
Fix,GT,37.3335696,-122.0630032,,20.895164,0.1,295.75494,1590792819442
Fix,GT,37.3336402,-122.0632242,,21.31267,0.1,295.58694,1590792820442
Fix,GT,37.3337122,-122.0634498,,21.722729,0.1,295.69955,1590792821442
Fix,GT,37.3337861,-122.0636789,,22.066236,0.1,295.809,1590792822442
Fix,GT,37.3338608,-122.0639116,,22.375252,0.1,295.68463,1590792823442
Fix,GT,37.3339363,-122.0641476,,22.697803,0.1,295.62433,1590792824442
Fix,GT,37.334012,-122.0643872,,23.01234,0.1,295.0176,1590792825442
Fix,GT,37.3340849,-122.0646323,,23.439365,0.1,293.56085,1590792826442
Fix,GT,37.3341538,-122.0648853,,23.988522,0.1,291.87543,1590792827442
Fix,GT,37.3342188,-122.0651464,,24.520554,0.1,290.57245,1590792828442
Fix,GT,37.3342804,-122.0654151,,25.043503,0.1,289.02054,1590792829442
Fix,GT,37.334336,-122.0656917,,25.546974,0.1,286.87735,1590792830442
Fix,GT,37.3343845,-122.0659761,,26.022705,0.1,285.0033,1590792831442
Fix,GT,37.3344273,-122.0662673,,26.45531,0.1,283.59262,1590792832442
Fix,GT,37.3344652,-122.066564,,26.84197,0.1,282.09155,1590792833442
Fix,GT,37.3344966,-122.0668658,,27.091043,0.1,280.22787,1590792834442
Fix,GT,37.3345196,-122.0671701,,27.021622,0.1,278.1269,1590792835442
Fix,GT,37.3345333,-122.0674724,,26.685293,0.1,276.0263,1590792836442
Fix,GT,37.3345387,-122.0677715,,26.333271,0.1,274.15692,1590792837442
Fix,GT,37.3345359,-122.0680662,,25.946064,0.1,271.8589,1590792838442
Fix,GT,37.3345219,-122.0683561,,25.69772,0.1,268.70264,1590792839442
Fix,GT,37.3344962,-122.0686444,,25.779716,0.1,266.532,1590792840442
Fix,GT,37.3344656,-122.0689334,,25.888498,0.1,266.03625,1590792841442
Fix,GT,37.3344336,-122.0692236,,26.028942,0.1,265.74127,1590792842442
Fix,GT,37.3343986,-122.0695143,,26.118328,0.1,264.48877,1590792843442
Fix,GT,37.3343567,-122.0698048,,26.225895,0.1,262.63358,1590792844442
Fix,GT,37.3343081,-122.0700952,,26.389307,0.1,261.4205,1590792845442
Fix,GT,37.3342563,-122.0703867,,26.549639,0.1,261.07468,1590792846442
Fix,GT,37.3342036,-122.0706798,,26.693474,0.1,260.93805,1590792847442
Fix,GT,37.3341494,-122.070974,,26.824562,0.1,260.50357,1590792848442
Fix,GT,37.3340933,-122.0712693,,26.998081,0.1,260.2458,1590792849442
Fix,GT,37.3340366,-122.0715667,,27.215424,0.1,260.41104,1590792850442
Fix,GT,37.3339806,-122.071867,,27.430862,0.1,260.7493,1590792851442
Fix,GT,37.3339251,-122.0721697,,27.620113,0.1,260.93784,1590792852442
Fix,GT,37.3338696,-122.072475,,27.92907,0.1,260.91467,1590792853442
Fix,GT,37.333814,-122.0727852,,28.43364,0.1,261.33255,1590792854442
Fix,GT,37.3337602,-122.0731021,,28.942095,0.1,262.27402,1590792855442
Fix,GT,37.3337109,-122.0734251,,29.328035,0.1,263.6262,1590792856442
Fix,GT,37.3336684,-122.0737533,,29.587702,0.1,265.5262,1590792857442
Fix,GT,37.3336352,-122.0740862,,29.84089,0.1,267.86658,1590792858442
Fix,GT,37.3336135,-122.0744234,,30.097097,0.1,270.4195,1590792859442
Fix,GT,37.3336035,-122.0747639,,30.273788,0.1,272.9351,1590792860442
Fix,GT,37.3336054,-122.0751062,,30.386337,0.1,275.5127,1590792861442
Fix,GT,37.3336193,-122.0754494,,30.495783,0.1,277.8196,1590792862442
Fix,GT,37.3336439,-122.0757927,,30.546347,0.1,279.95093,1590792863442
Fix,GT,37.3336785,-122.0761347,,30.565826,0.1,282.16486,1590792864442
Fix,GT,37.3337246,-122.0764751,,30.631344,0.1,284.83694,1590792865442
Fix,GT,37.3337841,-122.0768132,,30.771606,0.1,287.63922,1590792866442
Fix,GT,37.3338559,-122.0771496,,30.957148,0.1,289.7395,1590792867442
Fix,GT,37.3339379,-122.0774844,,31.1059,0.1,291.98984,1590792868442
Fix,GT,37.3340319,-122.0778163,,31.292118,0.1,294.6949,1590792869442
Fix,GT,37.3341383,-122.078145,,31.545273,0.1,297.05817,1590792870442
Fix,GT,37.3342566,-122.0784705,,31.791746,0.1,299.57684,1590792871442
Fix,GT,37.3343876,-122.0787911,,32.036224,0.1,302.3415,1590792872442
Fix,GT,37.3345318,-122.0791058,,32.267582,0.1,305.02936,1590792873442
Fix,GT,37.3346884,-122.0794139,,32.448593,0.1,307.5716,1590792874442
Fix,GT,37.3348564,-122.0797145,,32.573437,0.1,310.0863,1590792875442
Fix,GT,37.3350352,-122.0800065,,32.614338,0.1,312.59927,1590792876442
Fix,GT,37.3352243,-122.080288,,32.584858,0.1,315.22232,1590792877442
Fix,GT,37.335422,-122.0805592,,32.507854,0.1,317.02084,1590792878442
Fix,GT,37.3356242,-122.0808247,,32.52887,0.1,317.75177,1590792879442
Fix,GT,37.3358283,-122.0810892,,32.71469,0.1,317.89227,1590792880442
Fix,GT,37.3360337,-122.0813555,,32.897865,0.1,317.7028,1590792881442
Fix,GT,37.3362394,-122.0816235,,32.961864,0.1,317.61627,1590792882442
Fix,GT,37.3364446,-122.0818916,,32.83415,0.1,317.573,1590792883442
Fix,GT,37.3366481,-122.082159,,32.647083,0.1,317.30087,1590792884442
Fix,GT,37.3368491,-122.0824272,,32.580105,0.1,316.69342,1590792885442
Fix,GT,37.337047,-122.0826985,,32.571983,0.1,315.69626,1590792886442
Fix,GT,37.3372402,-122.0829746,,32.50572,0.1,314.22504,1590792887442
Fix,GT,37.3374266,-122.0832565,,32.382687,0.1,312.59802,1590792888442
Fix,GT,37.337606,-122.0835438,,32.266754,0.1,310.98264,1590792889442
Fix,GT,37.3377785,-122.0838361,,32.190434,0.1,309.61475,1590792890442
Fix,GT,37.3379468,-122.0841319,,32.2116,0.1,309.0486,1590792891442
Fix,GT,37.3381142,-122.0844297,,32.33863,0.1,308.86176,1590792892442
Fix,GT,37.3382811,-122.0847295,,32.469185,0.1,308.49283,1590792893442
Fix,GT,37.3384476,-122.0850313,,32.559982,0.1,308.39847,1590792894442
Fix,GT,37.3386146,-122.085334,,32.645546,0.1,308.59048,1590792895442
Fix,GT,37.3387833,-122.0856366,,32.754948,0.1,308.88058,1590792896442
Fix,GT,37.3389539,-122.0859389,,32.84528,0.1,309.1622,1590792897442
Fix,GT,37.3391251,-122.0862417,,32.90175,0.1,308.9097,1590792898442
Fix,GT,37.3392945,-122.0865465,,32.938927,0.1,308.38226,1590792899442
Fix,GT,37.339463,-122.0868527,,32.963135,0.1,308.37305,1590792900442
Fix,GT,37.3396311,-122.0871591,,32.89765,0.1,308.22656,1590792901442
Fix,GT,37.3397973,-122.0874651,,32.675232,0.1,307.88672,1590792902442
Fix,GT,37.3399611,-122.0877695,,32.368877,0.1,307.79248,1590792903442
Fix,GT,37.3401224,-122.0880719,,32.098507,0.1,307.3242,1590792904442
Fix,GT,37.3402797,-122.0883748,,32.010376,0.1,306.2985,1590792905442
Fix,GT,37.3404324,-122.0886811,,32.01346,0.1,305.23083,1590792906442
Fix,GT,37.3405816,-122.0889905,,32.048813,0.1,304.67505,1590792907442
Fix,GT,37.3407297,-122.0893012,,32.10326,0.1,304.5802,1590792908442
Fix,GT,37.3408775,-122.0896128,,32.145004,0.1,304.48135,1590792909442
Fix,GT,37.3410258,-122.0899248,,32.18339,0.1,304.86163,1590792910442
Fix,GT,37.3411769,-122.0902354,,32.28283,0.1,305.3828,1590792911442
Fix,GT,37.3413305,-122.0905458,,32.42562,0.1,305.80463,1590792912442
Fix,GT,37.3414876,-122.0908543,,32.363277,0.1,307.0463,1590792913442
Fix,GT,37.3416514,-122.0911559,,32.26059,0.1,309.06744,1590792914442
Fix,GT,37.3418244,-122.0914491,,32.373135,0.1,311.44394,1590792915442
Fix,GT,37.3420082,-122.0917338,,32.48569,0.1,314.2075,1590792916442
Fix,GT,37.3422029,-122.0920077,,32.53259,0.1,316.89584,1590792917442
Fix,GT,37.3424071,-122.0922707,,32.45665,0.1,319.09396,1590792918442
Fix,GT,37.3426172,-122.0925244,,32.302303,0.1,320.67776,1590792919442
Fix,GT,37.3428309,-122.0927713,,32.222824,0.1,321.47607,1590792920442
Fix,GT,37.3430456,-122.0930157,,32.14913,0.1,321.49792,1590792921442
Fix,GT,37.3432593,-122.09326,,32.052273,0.1,321.36542,1590792922442
Fix,GT,37.3434722,-122.0935038,,31.980679,0.1,321.32043,1590792923442
Fix,GT,37.3436845,-122.0937473,,31.920446,0.1,321.12286,1590792924442
Fix,GT,37.3438943,-122.0939929,,31.840601,0.1,320.3088,1590792925442
Fix,GT,37.3441003,-122.0942422,,31.76192,0.1,319.2414,1590792926442
Fix,GT,37.3443021,-122.094496,,31.756182,0.1,317.9709,1590792927442
Fix,GT,37.344498,-122.0947571,,31.778736,0.1,315.9711,1590792928442
Fix,GT,37.3446861,-122.095027,,31.759281,0.1,313.80344,1590792929442
Fix,GT,37.3448653,-122.0953056,,31.694626,0.1,311.31387,1590792930442
Fix,GT,37.3450333,-122.0955933,,31.50829,0.1,308.60565,1590792931442
Fix,GT,37.3451908,-122.0958875,,31.318638,0.1,306.65982,1590792932442
Fix,GT,37.3453409,-122.0961865,,31.411316,0.1,305.08862,1590792933442
Fix,GT,37.3454848,-122.0964937,,31.750961,0.1,303.1805,1590792934442
Fix,GT,37.3456236,-122.0968093,,32.122684,0.1,302.1842,1590792935442
Fix,GT,37.3457619,-122.0971301,,32.47224,0.1,302.14752,1590792936442
Fix,GT,37.3459016,-122.0974538,,32.712223,0.1,302.09732,1590792937442
Fix,GT,37.3460412,-122.0977795,,32.796494,0.1,301.8034,1590792938442
Fix,GT,37.3461796,-122.0981059,,32.664326,0.1,301.59476,1590792939442
Fix,GT,37.3463163,-122.0984306,,32.367657,0.1,301.53833,1590792940442
Fix,GT,37.3464512,-122.098752,,31.982128,0.1,301.43808,1590792941442
Fix,GT,37.3465842,-122.09907,,31.647057,0.1,301.37656,1590792942442
Fix,GT,37.3467162,-122.0993856,,31.535194,0.1,301.47446,1590792943442
Fix,GT,37.3468489,-122.0997004,,31.565575,0.1,301.79227,1590792944442
Fix,GT,37.3469832,-122.1000146,,31.58664,0.1,302.06714,1590792945442
Fix,GT,37.3471182,-122.1003283,,31.565166,0.1,302.09222,1590792946442
Fix,GT,37.3472528,-122.1006418,,31.540867,0.1,301.9917,1590792947442
Fix,GT,37.347387,-122.1009554,,31.517818,0.1,301.84445,1590792948442
Fix,GT,37.3475211,-122.101269,,31.526588,0.1,302.2313,1590792949442
Fix,GT,37.3476599,-122.1015791,,31.425589,0.1,304.26047,1590792950442
Fix,GT,37.3478078,-122.1018797,,31.113506,0.1,306.67184,1590792951442
Fix,GT,37.347963,-122.1021705,,30.871407,0.1,308.33298,1590792952442
Fix,GT,37.348125,-122.1024535,,30.884605,0.1,310.75766,1590792953442
Fix,GT,37.3482985,-122.1027272,,31.054197,0.1,313.77002,1590792954442
Fix,GT,37.3484844,-122.1029907,,31.238388,0.1,316.7839,1590792955442
Fix,GT,37.3486821,-122.103243,,31.419575,0.1,319.76877,1590792956442
Fix,GT,37.348891,-122.1034844,,31.648352,0.1,322.4222,1590792957442
Fix,GT,37.3491095,-122.1037161,,31.869854,0.1,324.69696,1590792958442
Fix,GT,37.3493369,-122.1039372,,31.979052,0.1,327.43542,1590792959442
Fix,GT,37.3495731,-122.1041447,,32.015945,0.1,330.00812,1590792960442
Fix,GT,37.3498151,-122.1043412,,32.001175,0.1,331.6712,1590792961442
Fix,GT,37.3500607,-122.1045303,,31.969734,0.1,332.7716,1590792962442
Fix,GT,37.3503078,-122.1047156,,31.962234,0.1,332.8758,1590792963442
Fix,GT,37.3505541,-122.104902,,31.89104,0.1,332.42636,1590792964442
Fix,GT,37.3507986,-122.1050891,,31.681824,0.1,332.38278,1590792965442
Fix,GT,37.3510411,-122.1052739,,31.31738,0.1,332.52417,1590792966442
Fix,GT,37.35128,-122.1054572,,30.8604,0.1,332.00156,1590792967442
Fix,GT,37.3515136,-122.1056424,,30.559126,0.1,331.06204,1590792968442
Fix,GT,37.3517431,-122.1058321,,30.51482,0.1,329.52728,1590792969442
Fix,GT,37.3519671,-122.1060311,,30.485712,0.1,327.07248,1590792970442
Fix,GT,37.3521832,-122.1062423,,30.4028,0.1,324.68835,1590792971442
Fix,GT,37.3523923,-122.1064627,,30.278803,0.1,322.79694,1590792972442
Fix,GT,37.3525945,-122.1066904,,30.13161,0.1,320.94162,1590792973442
Fix,GT,37.3527895,-122.1069253,,30.000065,0.1,318.91583,1590792974442
Fix,GT,37.3529767,-122.1071681,,29.887821,0.1,316.70197,1590792975442
Fix,GT,37.3531558,-122.1074186,,29.787584,0.1,314.64066,1590792976442
Fix,GT,37.3533278,-122.1076758,,29.714666,0.1,312.8573,1590792977442
Fix,GT,37.3534929,-122.1079393,,29.673967,0.1,310.96564,1590792978442
Fix,GT,37.3536505,-122.1082095,,29.67952,0.1,308.93314,1590792979442
Fix,GT,37.3538005,-122.1084868,,29.728672,0.1,306.8878,1590792980442
Fix,GT,37.3539427,-122.1087713,,29.783817,0.1,304.79224,1590792981442
Fix,GT,37.3540766,-122.1090627,,29.842697,0.1,302.60187,1590792982442
Fix,GT,37.3542019,-122.1093609,,29.937267,0.1,300.51736,1590792983442
Fix,GT,37.3543193,-122.1096656,,30.04233,0.1,298.77206,1590792984442
Fix,GT,37.3544304,-122.1099752,,30.154259,0.1,297.0866,1590792985442
Fix,GT,37.3545337,-122.1102906,,30.309925,0.1,295.01337,1590792986442
Fix,GT,37.3546286,-122.1106125,,30.508226,0.1,293.29254,1590792987442
Fix,GT,37.3547185,-122.1109395,,30.779263,0.1,292.2834,1590792988442
Fix,GT,37.3548053,-122.111271,,31.04843,0.1,291.49777,1590792989442
Fix,GT,37.3548895,-122.111606,,31.16968,0.1,290.98962,1590792990442
Fix,GT,37.354972,-122.1119422,,31.127436,0.1,290.7648,1590792991442
Fix,GT,37.3550542,-122.1122772,,30.948711,0.1,290.94818,1590792992442
Fix,GT,37.3551375,-122.1126091,,30.67591,0.1,291.57352,1590792993442
Fix,GT,37.3552236,-122.1129365,,30.376503,0.1,292.44342,1590792994442
Fix,GT,37.3553134,-122.1132591,,30.151684,0.1,293.6059,1590792995442
Fix,GT,37.3554089,-122.1135769,,30.030895,0.1,295.19382,1590792996442
Fix,GT,37.3555114,-122.1138901,,29.917122,0.1,296.9252,1590792997442
Fix,GT,37.3556207,-122.1141978,,29.769688,0.1,298.76312,1590792998442
Fix,GT,37.3557383,-122.1144988,,29.60439,0.1,301.11084,1590792999442
Fix,GT,37.3558649,-122.1147922,,29.47076,0.1,303.2099,1590793000442
Fix,GT,37.3559989,-122.1150789,,29.359543,0.1,305.06403,1590793001442
Fix,GT,37.3561401,-122.1153585,,29.241215,0.1,307.22076,1590793002442
Fix,GT,37.3562892,-122.11563,,29.13253,0.1,309.34576,1590793003442
Fix,GT,37.3564451,-122.1158941,,29.04805,0.1,311.13553,1590793004442
Fix,GT,37.3566069,-122.1161513,,28.972694,0.1,312.90472,1590793005442
Fix,GT,37.3567748,-122.1164013,,28.907341,0.1,314.87726,1590793006442
Fix,GT,37.3569494,-122.1166434,,28.879501,0.1,316.8789,1590793007442
Fix,GT,37.3571307,-122.1168775,,28.877335,0.1,319.11725,1590793008442
Fix,GT,37.3573195,-122.1171024,,28.907112,0.1,321.19205,1590793009442
Fix,GT,37.3575143,-122.1173192,,28.922132,0.1,322.82703,1590793010442
Fix,GT,37.3577139,-122.1175291,,28.914051,0.1,324.76437,1590793011442
Fix,GT,37.3579188,-122.117731,,28.930065,0.1,326.49875,1590793012442
Fix,GT,37.3581287,-122.1179248,,28.930248,0.1,328.42612,1590793013442
Fix,GT,37.3583441,-122.1181084,,28.87417,0.1,330.78064,1590793014442
Fix,GT,37.3585644,-122.1182809,,28.750023,0.1,332.77472,1590793015442
Fix,GT,37.3587879,-122.1184436,,28.617363,0.1,334.5498,1590793016442
Fix,GT,37.3590142,-122.1185969,,28.456234,0.1,336.1589,1590793017442
Fix,GT,37.3592416,-122.118743,,28.27946,0.1,337.12802,1590793018442
Fix,GT,37.3594693,-122.1188853,,28.204428,0.1,337.5228,1590793019442
Fix,GT,37.359698,-122.1190251,,28.312883,0.1,338.07495,1590793020442
Fix,GT,37.359929,-122.1191634,,28.562878,0.1,338.4654,1590793021442
Fix,GT,37.3601629,-122.1193025,,28.905567,0.1,338.3862,1590793022442
Fix,GT,37.3603992,-122.1194446,,29.287247,0.1,337.97076,1590793023442
Fix,GT,37.3606379,-122.1195906,,29.645302,0.1,337.68234,1590793024442
Fix,GT,37.3608785,-122.1197389,,29.844456,0.1,337.60028,1590793025442
Fix,GT,37.3611197,-122.1198883,,29.858036,0.1,337.38086,1590793026442
Fix,GT,37.3613598,-122.1200404,,29.933918,0.1,336.61505,1590793027442
Fix,GT,37.3615988,-122.1201989,,30.160664,0.1,335.1778,1590793028442
Fix,GT,37.361836,-122.1203678,,30.438454,0.1,333.0121,1590793029442
Fix,GT,37.362069,-122.1205513,,30.740776,0.1,330.30032,1590793030442
Fix,GT,37.3622973,-122.1207501,,31.023321,0.1,327.86002,1590793031442
Fix,GT,37.3625207,-122.1209624,,31.232346,0.1,325.36542,1590793032442
Fix,GT,37.3627364,-122.1211882,,31.217716,0.1,322.60333,1590793033442
Fix,GT,37.3629437,-122.1214249,,31.095303,0.1,320.4378,1590793034442
Fix,GT,37.3631431,-122.1216706,,31.080452,0.1,317.9931,1590793035442
Fix,GT,37.3633327,-122.1219278,,31.012482,0.1,315.1154,1590793036442
Fix,GT,37.3635119,-122.1221949,,30.80423,0.1,312.67065,1590793037442
Fix,GT,37.3636807,-122.1224686,,30.540604,0.1,310.27316,1590793038442
Fix,GT,37.3638391,-122.1227488,,30.35459,0.1,307.96152,1590793039442
Fix,GT,37.3639878,-122.1230354,,30.275618,0.1,305.65152,1590793040442
Fix,GT,37.3641267,-122.1233289,,30.233236,0.1,303.18738,1590793041442
Fix,GT,37.364255,-122.1236294,,30.18877,0.1,300.6745,1590793042442
Fix,GT,37.3643723,-122.1239363,,30.14817,0.1,297.94946,1590793043442
Fix,GT,37.3644774,-122.1242492,,30.074963,0.1,295.32837,1590793044442
Fix,GT,37.3645718,-122.1245667,,29.989265,0.1,293.09534,1590793045442
Fix,GT,37.3646559,-122.1248875,,29.882742,0.1,290.8021,1590793046442
Fix,GT,37.364729,-122.1252109,,29.742004,0.1,288.46915,1590793047442
Fix,GT,37.3647919,-122.1255365,,29.660706,0.1,286.28195,1590793048442
Fix,GT,37.3648446,-122.1258644,,29.661074,0.1,283.98474,1590793049442
Fix,GT,37.3648859,-122.1261947,,29.637177,0.1,281.2174,1590793050442
Fix,GT,37.364914,-122.1265268,,29.58225,0.1,278.49942,1590793051442
Fix,GT,37.364931,-122.1268595,,29.512934,0.1,276.47134,1590793052442
Fix,GT,37.3649395,-122.1271918,,29.444109,0.1,274.75732,1590793053442
Fix,GT,37.3649424,-122.1275238,,29.387838,0.1,274.14044,1590793054442
Fix,GT,37.3649451,-122.1278551,,29.318913,0.1,274.522,1590793055442
Fix,GT,37.3649487,-122.1281854,,29.188696,0.1,274.5802,1590793056442
Fix,GT,37.3649523,-122.1285137,,28.963976,0.1,274.56696,1590793057442
Fix,GT,37.3649558,-122.1288389,,28.655811,0.1,274.6709,1590793058442
Fix,GT,37.364961,-122.1291609,,28.395428,0.1,275.28635,1590793059442
Fix,GT,37.3649711,-122.1294803,,28.238455,0.1,276.89157,1590793060442
Fix,GT,37.36499,-122.1297974,,28.087833,0.1,279.21637,1590793061442
Fix,GT,37.3650195,-122.1301116,,27.935497,0.1,281.73615,1590793062442
Fix,GT,37.36506,-122.1304222,,27.807943,0.1,284.44522,1590793063442
Fix,GT,37.3651126,-122.1307287,,27.708668,0.1,287.33093,1590793064442
Fix,GT,37.3651771,-122.1310306,,27.625874,0.1,290.15756,1590793065442
Fix,GT,37.3652524,-122.1313273,,27.511637,0.1,292.42963,1590793066442
Fix,GT,37.3653343,-122.1316197,,27.3741,0.1,293.56662,1590793067442
Fix,GT,37.3654187,-122.1319095,,27.286394,0.1,294.0323,1590793068442
Fix,GT,37.3655043,-122.1321978,,27.210945,0.1,294.26822,1590793069442
Fix,GT,37.36559,-122.1324859,,27.283222,0.1,294.20447,1590793070442
Fix,GT,37.3656759,-122.1327762,,27.650127,0.1,294.12894,1590793071442
Fix,GT,37.3657636,-122.1330711,,28.078447,0.1,294.35638,1590793072442
Fix,GT,37.3658535,-122.1333694,,28.436737,0.1,294.60754,1590793073442
Fix,GT,37.3659451,-122.1336712,,28.77816,0.1,294.59393,1590793074442
Fix,GT,37.3660371,-122.1339769,,29.120678,0.1,294.28073,1590793075442
Fix,GT,37.366129,-122.1342866,,29.427979,0.1,294.08505,1590793076442
Fix,GT,37.3662216,-122.1345995,,29.665234,0.1,294.20557,1590793077442
Fix,GT,37.3663153,-122.1349143,,29.856525,0.1,294.31375,1590793078442
Fix,GT,37.3664102,-122.1352307,,30.045324,0.1,294.4034,1590793079442
Fix,GT,37.3665057,-122.1355492,,30.202612,0.1,294.3629,1590793080442
Fix,GT,37.366601,-122.1358689,,30.241486,0.1,294.1658,1590793081442
Fix,GT,37.3666955,-122.1361883,,30.109087,0.1,294.19574,1590793082442
Fix,GT,37.3667907,-122.1365056,,29.96903,0.1,294.79224,1590793083442
Fix,GT,37.3668896,-122.1368203,,29.940681,0.1,295.78,1590793084442
Fix,GT,37.3669937,-122.1371323,,29.942223,0.1,297.26193,1590793085442
Fix,GT,37.3671054,-122.1374401,,29.94155,0.1,299.3074,1590793086442
Fix,GT,37.3672257,-122.1377428,,29.978699,0.1,301.20108,1590793087442
Fix,GT,37.3673532,-122.1380416,,30.03061,0.1,302.67142,1590793088442
Fix,GT,37.3674877,-122.1383362,,30.063343,0.1,304.56952,1590793089442
Fix,GT,37.3676311,-122.1386244,,30.09618,0.1,306.99277,1590793090442
Fix,GT,37.3677849,-122.1389049,,30.131535,0.1,309.69153,1590793091442
Fix,GT,37.3679499,-122.1391755,,30.179031,0.1,312.66562,1590793092442
Fix,GT,37.3681248,-122.1394366,,30.149492,0.1,314.75998,1590793093442
Fix,GT,37.3683035,-122.1396913,,29.891638,0.1,315.4334,1590793094442
Fix,GT,37.3684825,-122.1399405,,29.49426,0.1,316.30225,1590793095442
Fix,GT,37.3686638,-122.1401809,,29.07481,0.1,318.15137,1590793096442
Fix,GT,37.3688489,-122.14041,,28.673916,0.1,320.23062,1590793097442
Fix,GT,37.3690379,-122.140628,,28.34079,0.1,322.08432,1590793098442
Fix,GT,37.3692302,-122.1408359,,28.03323,0.1,324.0466,1590793099442
Fix,GT,37.3694261,-122.1410333,,27.730019,0.1,325.86053,1590793100442
Fix,GT,37.3696236,-122.1412224,,27.433266,0.1,326.84756,1590793101442
Fix,GT,37.3698211,-122.1414065,,27.24929,0.1,327.4243,1590793102442
Fix,GT,37.3700195,-122.1415885,,27.36742,0.1,327.78284,1590793103442
Fix,GT,37.3702202,-122.1417706,,27.644428,0.1,328.05698,1590793104442
Fix,GT,37.3704236,-122.141954,,27.963509,0.1,328.08905,1590793105442
Fix,GT,37.3706291,-122.1421396,,28.294699,0.1,328.04745,1590793106442
Fix,GT,37.3708372,-122.1423272,,28.59862,0.1,328.09033,1590793107442
Fix,GT,37.3710473,-122.1425164,,28.7924,0.1,328.08307,1590793108442
Fix,GT,37.3712578,-122.1427067,,28.813057,0.1,327.95575,1590793109442
Fix,GT,37.3714682,-122.1428975,,28.805763,0.1,327.92606,1590793110442
Fix,GT,37.3716792,-122.1430879,,28.89506,0.1,328.11304,1590793111442
Fix,GT,37.3718911,-122.1432783,,29.004337,0.1,328.13574,1590793112442
Fix,GT,37.3721033,-122.1434698,,29.074505,0.1,328.0167,1590793113442
Fix,GT,37.3723161,-122.1436623,,29.159184,0.1,327.96072,1590793114442
Fix,GT,37.3725294,-122.1438551,,29.22454,0.1,328.07214,1590793115442
Fix,GT,37.3727437,-122.1440474,,29.313393,0.1,328.37253,1590793116442
Fix,GT,37.3729595,-122.1442392,,29.432896,0.1,328.4319,1590793117442
Fix,GT,37.3731761,-122.1444321,,29.538864,0.1,328.3726,1590793118442
Fix,GT,37.3733931,-122.1446256,,29.571539,0.1,328.31088,1590793119442
Fix,GT,37.3736093,-122.1448198,,29.484337,0.1,327.96918,1590793120442
Fix,GT,37.3738238,-122.1450155,,29.410124,0.1,327.53583,1590793121442
Fix,GT,37.374037,-122.1452134,,29.539436,0.1,327.0484,1590793122442
Fix,GT,37.3742505,-122.1454155,,29.870403,0.1,326.46484,1590793123442
Fix,GT,37.3744646,-122.145623,,30.218616,0.1,325.72394,1590793124442
Fix,GT,37.3746786,-122.1458367,,30.57421,0.1,324.74963,1590793125442
Fix,GT,37.3748918,-122.1460582,,30.905216,0.1,323.48608,1590793126442
Fix,GT,37.3751031,-122.1462871,,31.11825,0.1,322.434,1590793127442
Fix,GT,37.3753131,-122.1465212,,31.25727,0.1,321.99976,1590793128442
Fix,GT,37.3755232,-122.1467575,,31.406738,0.1,321.86505,1590793129442
Fix,GT,37.3757341,-122.146995,,31.517445,0.1,321.7137,1590793130442
Fix,GT,37.3759449,-122.1472338,,31.540749,0.1,321.59445,1590793131442
Fix,GT,37.3761555,-122.1474727,,31.5168,0.1,321.67688,1590793132442
Fix,GT,37.3763661,-122.1477109,,31.448092,0.1,321.73764,1590793133442
Fix,GT,37.3765763,-122.1479482,,31.332672,0.1,321.74072,1590793134442
Fix,GT,37.3767857,-122.1481849,,31.296268,0.1,321.70206,1590793135442
Fix,GT,37.3769952,-122.1484221,,31.39703,0.1,321.6657,1590793136442
Fix,GT,37.3772055,-122.1486599,,31.478832,0.1,321.73367,1590793137442
Fix,GT,37.3774168,-122.1488973,,31.497667,0.1,322.17267,1590793138442
Fix,GT,37.3776308,-122.1491307,,31.453257,0.1,323.48724,1590793139442
Fix,GT,37.3778496,-122.1493557,,31.344212,0.1,325.4443,1590793140442
Fix,GT,37.3780737,-122.1495703,,31.25761,0.1,327.4903,1590793141442
Fix,GT,37.3783032,-122.149774,,31.166374,0.1,329.62396,1590793142442
Fix,GT,37.3785379,-122.1499661,,31.0451,0.1,331.66748,1590793143442
Fix,GT,37.3787768,-122.1501476,,30.943233,0.1,333.50134,1590793144442
Fix,GT,37.3790195,-122.1503191,,30.896162,0.1,335.40985,1590793145442
Fix,GT,37.3792668,-122.1504795,,30.892992,0.1,337.5087,1590793146442
Fix,GT,37.3795184,-122.1506289,,30.908207,0.1,339.39093,1590793147442
Fix,GT,37.3797738,-122.1507682,,30.896568,0.1,341.22644,1590793148442
Fix,GT,37.3800322,-122.1508974,,30.82629,0.1,343.03314,1590793149442
Fix,GT,37.3802926,-122.1510154,,30.581675,0.1,344.92136,1590793150442
Fix,GT,37.3805536,-122.1511205,,30.278374,0.1,347.17975,1590793151442
Fix,GT,37.3808161,-122.1512123,,30.2728,0.1,349.25372,1590793152442
Fix,GT,37.3810824,-122.1512936,,30.546463,0.1,350.8594,1590793153442
Fix,GT,37.3813526,-122.1513675,,30.820362,0.1,352.0408,1590793154442
