MessageType,Provider,LatitudeDegrees,LongitudeDegrees,AltitudeMeters,SpeedMps,AccuracyMeters,BearingDegrees,UnixTimeMillis
Fix,GT,37.6289279,-122.4262941,,0.0023868398,0.1,154.2644,1590096122443
Fix,GT,37.6289279,-122.4262941,,0.0014142136,0.1,154.26477,1590096123443
Fix,GT,37.6289279,-122.4262941,,0.0012304692,0.1,154.26501,1590096124443
Fix,GT,37.6289279,-122.4262941,,0.0019591833,0.1,154.2649,1590096125443
Fix,GT,37.6289279,-122.4262941,,0.0036415253,0.1,154.26532,1590096126443
Fix,GT,37.6289279,-122.4262941,,0.0045786044,0.1,154.26605,1590096127443
Fix,GT,37.6289279,-122.4262941,,0.003773922,0.1,154.2669,1590096128443
Fix,GT,37.6289279,-122.4262941,,0.0021313485,0.1,154.26709,1590096129443
Fix,GT,37.6289279,-122.4262941,,0.0017401455,0.1,154.26709,1590096130443
Fix,GT,37.6289279,-122.4262941,,0.0014142136,0.1,154.26709,1590096131443
Fix,GT,37.6289279,-122.4262941,,0.0017787879,0.1,154.26672,1590096132443
Fix,GT,37.6289279,-122.4262941,,0.0018714934,0.1,154.26672,1590096133443
Fix,GT,37.6289279,-122.4262941,,0.002386291,0.1,154.26678,1590096134443
Fix,GT,37.6289279,-122.4262941,,0.0029980484,0.1,154.26678,1590096135443
Fix,GT,37.6289279,-122.4262941,,0.002236068,0.1,154.26672,1590096136443
Fix,GT,37.6289279,-122.4262941,,0.0026469352,0.1,154.26721,1590096137443
Fix,GT,37.6289279,-122.4262941,,0.0027514105,0.1,154.26727,1590096138443
Fix,GT,37.6289279,-122.4262941,,0.0012441464,0.1,154.26733,1590096139443
Fix,GT,37.6289279,-122.4262941,,0.0009919219,0.1,154.26727,1590096140443
Fix,GT,37.6289279,-122.4262941,,0.00307316,0.1,154.2674,1590096141443
Fix,GT,37.6289279,-122.4262941,,0.0036248947,0.1,154.2674,1590096142443
Fix,GT,37.6289279,-122.4262941,,0.00292389,0.1,154.26721,1590096143443
Fix,GT,37.6289279,-122.4262941,,0.0029045371,0.1,154.26703,1590096144443
Fix,GT,37.6289279,-122.4262941,,0.0022965423,0.1,154.2674,1590096145443
Fix,GT,37.6289279,-122.4262941,,0.0016740696,0.1,154.26782,1590096146443
Fix,GT,37.6289279,-122.4262941,,0.0015563981,0.1,154.26733,1590096147443
Fix,GT,37.6289279,-122.4262941,,0.001,0.1,154.26721,1590096148443
Fix,GT,37.6289279,-122.4262941,,0.0011837461,0.1,154.2677,1590096149443
Fix,GT,37.6289279,-122.4262941,,0.002189659,0.1,154.26843,1590096150443
Fix,GT,37.6289279,-122.4262941,,0.0036415295,0.1,154.26874,1590096151443
Fix,GT,37.6289279,-122.4262941,,0.004749467,0.1,154.26898,1590096152443
Fix,GT,37.6289279,-122.4262941,,0.0048253117,0.1,154.26874,1590096153443
Fix,GT,37.6289279,-122.4262941,,0.0036968796,0.1,154.26868,1590096154443
Fix,GT,37.6289279,-122.4262941,,0.0017594816,0.1,154.26917,1590096155443
Fix,GT,37.6289279,-122.4262941,,0.00044360317,0.1,154.26929,1590096156443
Fix,GT,37.6289279,-122.4262941,,0.0014436033,0.1,154.26965,1590096157443
Fix,GT,37.6289279,-122.4262941,,0.0017401432,0.1,154.27032,1590096158443
Fix,GT,37.6289279,-122.4262941,,0.0014142136,0.1,154.27069,1590096159443
Fix,GT,37.6289279,-122.4262941,,0.0012304669,0.1,154.271,1590096160443
Fix,GT,37.6289279,-122.4262941,,0.0015483245,0.1,154.27136,1590096161443
Fix,GT,37.6289279,-122.4262941,,0.0025749514,0.1,154.27155,1590096162443
Fix,GT,37.6289279,-122.4262941,,0.003071987,0.1,154.27216,1590096163443
Fix,GT,37.6289279,-122.4262941,,0.0033589157,0.1,154.2732,1590096164443
Fix,GT,37.6289279,-122.4262941,,0.004704453,0.1,154.27454,1590096165443
Fix,GT,37.6289279,-122.4262941,,0.0047872225,0.1,154.27576,1590096166443
Fix,GT,37.6289279,-122.4262941,,0.00301418,0.1,154.27625,1590096167443
Fix,GT,37.6289279,-122.4262941,,0.0031731627,0.1,154.27698,1590096168443
Fix,GT,37.6289279,-122.4262941,,0.0037805305,0.1,154.27722,1590096169443
Fix,GT,37.6289279,-122.4262941,,0.0031127909,0.1,154.27777,1590096170443
Fix,GT,37.6289279,-122.4262941,,0.0030966518,0.1,154.27881,1590096171443
Fix,GT,37.6289279,-122.4262941,,0.0033754841,0.1,154.27997,1590096172443
Fix,GT,37.6289279,-122.4262941,,0.0028872103,0.1,154.28033,1590096173443
Fix,GT,37.6289279,-122.4262941,,0.00311279,0.1,154.2804,1590096174443
Fix,GT,37.6289279,-122.4262941,,0.002104721,0.1,154.28021,1590096175443
Fix,GT,37.6289279,-122.4262941,,0.0025749523,0.1,154.28021,1590096176443
Fix,GT,37.6289279,-122.4262941,,0.0030719873,0.1,154.28107,1590096177443
Fix,GT,37.6289279,-122.4262941,,0.003533896,0.1,154.28168,1590096178443
Fix,GT,37.6289279,-122.4262941,,0.0038250205,0.1,154.28302,1590096179443
Fix,GT,37.6289279,-122.4262941,,0.0026334615,0.1,154.28406,1590096180443
Fix,GT,37.6289279,-122.4262941,,0.0020415667,0.1,154.28436,1590096181443
Fix,GT,37.6289279,-122.4262943,,0.003557586,0.1,154.28485,1590096182443
Fix,GT,37.6289279,-122.4262944,,0.004472136,0.1,154.28455,1590096183443
Fix,GT,37.6289279,-122.4262945,,0.01976614,0.1,154.28638,1590096184443
Fix,GT,37.6289271,-122.426294,,0.21986544,0.1,154.22021,1590096185443
Fix,GT,37.6289228,-122.426291,,0.9554132,0.1,153.70374,1590096186443
Fix,GT,37.6289101,-122.4262818,,2.376084,0.1,152.07379,1590096187443
Fix,GT,37.6288855,-122.4262631,,4.0209866,0.1,149.67505,1590096188443
Fix,GT,37.6288498,-122.4262346,,5.323147,0.1,147.52051,1590096189443
Fix,GT,37.6288061,-122.4261982,,6.284316,0.1,146.52356,1590096190443
Fix,GT,37.628756,-122.4261578,,6.8215375,0.1,147.7489,1590096191443
Fix,GT,37.6287012,-122.4261181,,7.227814,0.1,150.71591,1590096192443
Fix,GT,37.6286401,-122.4260789,,8.010063,0.1,153.2326,1590096193443
Fix,GT,37.6285729,-122.4260378,,8.542853,0.1,154.12311,1590096194443
Fix,GT,37.6285032,-122.4259957,,8.554193,0.1,154.42944,1590096195443
Fix,GT,37.6284339,-122.4259543,,8.480274,0.1,154.44257,1590096196443
Fix,GT,37.6283653,-122.4259129,,8.40996,0.1,154.15796,1590096197443
Fix,GT,37.628298,-122.4258703,,8.382285,0.1,152.70148,1590096198443
Fix,GT,37.6282307,-122.4258231,,8.763807,0.1,150.15399,1590096199443
Fix,GT,37.6281616,-122.4257702,,9.137974,0.1,148.28821,1590096200443
Fix,GT,37.6280926,-122.4257149,,8.989216,0.1,147.20361,1590096201443
Fix,GT,37.6280264,-122.4256598,,8.670458,0.1,145.98978,1590096202443
Fix,GT,37.6279629,-122.4256054,,8.535465,0.1,145.74298,1590096203443
Fix,GT,37.6278975,-122.425553,,8.544814,0.1,148.08139,1590096204443
Fix,GT,37.6278337,-122.4255068,,7.3958607,0.1,150.81604,1590096205443
Fix,GT,37.6277839,-122.4254736,,5.095729,0.1,152.32898,1590096206443
Fix,GT,37.6277523,-122.4254534,,2.821302,0.1,153.01941,1590096207443
Fix,GT,37.6277366,-122.4254436,,1.1688472,0.1,153.29095,1590096208443
Fix,GT,37.6277311,-122.4254401,,0.34783792,0.1,153.375,1590096209443
Fix,GT,37.6277303,-122.4254395,,0.0036691765,0.1,153.38367,1590096210443
Fix,GT,37.6277303,-122.4254395,,0.0025155954,0.1,153.38306,1590096211443
Fix,GT,37.6277303,-122.4254395,,0.002203074,0.1,153.3833,1590096212443
Fix,GT,37.6277303,-122.4254395,,0.0015483298,0.1,153.38348,1590096213443
Fix,GT,37.6277303,-122.4254395,,0.0018714867,0.1,153.38403,1590096214443
Fix,GT,37.6277303,-122.4254395,,0.0014142136,0.1,153.38501,1590096215443
Fix,GT,37.6277304,-122.4254395,,0.0017787949,0.1,153.38531,1590096216443
Fix,GT,37.6277304,-122.4254395,,0.002236068,0.1,153.38507,1590096217443
Fix,GT,37.6277304,-122.4254395,,0.0021313464,0.1,153.38562,1590096218443
Fix,GT,37.6277304,-122.4254395,,0.0011127832,0.1,153.38568,1590096219443
Fix,GT,37.6277304,-122.4254395,,0.0009919388,0.1,153.38599,1590096220443
Fix,GT,37.6277304,-122.4254395,,0.0025749546,0.1,153.38635,1590096221443
Fix,GT,37.6277304,-122.4254395,,0.003268628,0.1,153.3866,1590096222443
Fix,GT,37.6277304,-122.4254395,,0.0032608123,0.1,153.38654,1590096223443
Fix,GT,37.6277304,-122.4254395,,0.002976526,0.1,153.3866,1590096224443
Fix,GT,37.6277304,-122.4254395,,0.0035338989,0.1,153.38751,1590096225443
Fix,GT,37.6277304,-122.4254395,,0.0031127825,0.1,153.38855,1590096226443
Fix,GT,37.6277304,-122.4254395,,0.002104722,0.1,153.38934,1590096227443
Fix,GT,37.6277304,-122.4254395,,0.0022360682,0.1,153.38995,1590096228443
Fix,GT,37.6277304,-122.4254394,,0.0021313461,0.1,153.39001,1590096229443
Fix,GT,37.6277304,-122.4254394,,0.002712237,0.1,153.3905,1590096230443
Fix,GT,37.6277304,-122.4254394,,0.004224141,0.1,153.39093,1590096231443
Fix,GT,37.6277304,-122.4254394,,0.005170862,0.1,153.39093,1590096232443
Fix,GT,37.6277303,-122.4254394,,0.087334484,0.1,153.38959,1590096233443
Fix,GT,37.6277271,-122.4254375,,0.80331373,0.1,153.30896,1590096234443
Fix,GT,37.627715,-122.4254288,,2.3840442,0.1,151.6972,1590096235443
Fix,GT,37.6276926,-122.4254076,,3.9376135,0.1,144.66644,1590096236443
Fix,GT,37.6276663,-122.4253705,,5.10057,0.1,131.83975,1590096237443
Fix,GT,37.6276433,-122.4253156,,6.2056627,0.1,116.5051,1590096238443
Fix,GT,37.6276306,-122.4252432,,7.274628,0.1,99.607056,1590096239443
Fix,GT,37.6276362,-122.4251581,,8.281802,0.1,81.555786,1590096240443
Fix,GT,37.6276618,-122.4250661,,9.323527,0.1,67.871124,1590096241443
Fix,GT,37.6277007,-122.4249655,,10.551327,0.1,63.457367,1590096242443
Fix,GT,37.6277464,-122.4248523,,11.853782,0.1,62.89621,1590096243443
Fix,GT,37.6277969,-122.4247278,,12.748432,0.1,62.953156,1590096244443
Fix,GT,37.6278494,-122.4245963,,13.147657,0.1,63.50479,1590096245443
Fix,GT,37.6279012,-122.4244603,,13.478506,0.1,64.72388,1590096246443
Fix,GT,37.6279513,-122.4243194,,13.668781,0.1,66.60251,1590096247443
Fix,GT,37.627995,-122.4241753,,13.429559,0.1,71.274506,1590096248443
Fix,GT,37.6280228,-122.4240285,,13.204275,0.1,80.410034,1590096249443
Fix,GT,37.6280283,-122.4238778,,13.457506,0.1,91.33057,1590096250443
Fix,GT,37.6280112,-122.4237241,,13.9210415,0.1,101.11441,1590096251443
Fix,GT,37.6279779,-122.4235692,,14.315716,0.1,106.62625,1590096252443
Fix,GT,37.6279425,-122.4234126,,14.47706,0.1,104.083435,1590096253443
Fix,GT,37.6279215,-122.4232521,,14.500921,0.1,95.68793,1590096254443
Fix,GT,37.6279204,-122.4230916,,14.002358,0.1,86.60324,1590096255443
Fix,GT,37.627938,-122.4229441,,12.394806,0.1,77.26544,1590096256443
Fix,GT,37.6279683,-122.4228237,,10.016936,0.1,69.292755,1590096257443
Fix,GT,37.627999,-122.4227344,,7.1762037,0.1,65.529724,1590096258443
Fix,GT,37.628021,-122.4226755,,4.4030514,0.1,64.717865,1590096259443
Fix,GT,37.6280332,-122.4226432,,2.061503,0.1,64.69202,1590096260443
Fix,GT,37.6280387,-122.4226284,,1.0161879,0.1,64.81854,1590096261443
Fix,GT,37.6280443,-122.4226134,,2.1825886,0.1,64.822876,1590096262443
Fix,GT,37.6280567,-122.4225802,,4.329616,0.1,64.6933,1590096263443
Fix,GT,37.6280774,-122.4225252,,6.3764076,0.1,64.52014,1590096264443
Fix,GT,37.628106,-122.4224498,,8.369168,0.1,64.39633,1590096265443
Fix,GT,37.6281424,-122.4223543,,10.29735,0.1,64.24008,1590096266443
Fix,GT,37.6281873,-122.4222421,,11.79056,0.1,62.275635,1590096267443
Fix,GT,37.6282435,-122.4221238,,12.573153,0.1,56.949036,1590096268443
Fix,GT,37.6283132,-122.4220107,,12.902208,0.1,49.05609,1590096269443
Fix,GT,37.6283983,-122.4219099,,13.341856,0.1,39.638977,1590096270443
Fix,GT,37.6284993,-122.4218253,,13.849941,0.1,30.127655,1590096271443
Fix,GT,37.6286122,-122.4217578,,14.0849285,0.1,23.061218,1590096272443
Fix,GT,37.6287298,-122.4216982,,14.032694,0.1,22.218292,1590096273443
Fix,GT,37.6288442,-122.4216311,,13.911589,0.1,27.45987,1590096274443
Fix,GT,37.6289498,-122.4215464,,13.8725815,0.1,36.279114,1590096275443
Fix,GT,37.6290415,-122.4214393,,13.879925,0.1,47.27774,1590096276443
Fix,GT,37.6291164,-122.4213112,,14.150761,0.1,57.125153,1590096277443
Fix,GT,37.6291796,-122.4211691,,14.490311,0.1,62.17505,1590096278443
Fix,GT,37.6292391,-122.4210228,,14.488651,0.1,62.99066,1590096279443
Fix,GT,37.6292983,-122.4208777,,14.277918,0.1,62.640045,1590096280443
Fix,GT,37.6293559,-122.4207362,,13.680088,0.1,62.973022,1590096281443
Fix,GT,37.6294088,-122.4206027,,12.530617,0.1,63.64789,1590096282443
Fix,GT,37.6294556,-122.4204825,,11.099424,0.1,63.79062,1590096283443
Fix,GT,37.6294967,-122.4203776,,9.596726,0.1,63.43622,1590096284443
Fix,GT,37.6295315,-122.4202906,,7.4441576,0.1,62.86566,1590096285443
Fix,GT,37.6295562,-122.4202302,,4.431136,0.1,62.637817,1590096286443
Fix,GT,37.6295687,-122.4201994,,1.9111626,0.1,62.737366,1590096287443
Fix,GT,37.6295747,-122.4201844,,1.4056793,0.1,62.80432,1590096288443
Fix,GT,37.6295828,-122.420164,,2.84786,0.1,62.881683,1590096289443
Fix,GT,37.6295986,-122.4201244,,4.9465475,0.1,63.11801,1590096290443
Fix,GT,37.629622,-122.4200647,,6.7673807,0.1,63.62451,1590096291443
Fix,GT,37.6296521,-122.4199874,,8.392244,0.1,63.8143,1590096292443
Fix,GT,37.6296883,-122.4198945,,9.7666235,0.1,63.799652,1590096293443
Fix,GT,37.6297285,-122.4197904,,10.560342,0.1,64.08719,1590096294443
Fix,GT,37.6297719,-122.4196802,,11.212228,0.1,63.1351,1590096295443
Fix,GT,37.6298221,-122.4195647,,12.1348095,0.1,60.155884,1590096296443
Fix,GT,37.6298825,-122.4194435,,13.159994,0.1,56.480347,1590096297443
Fix,GT,37.6299533,-122.4193199,,13.782019,0.1,52.542908,1590096298443
Fix,GT,37.6300332,-122.4191998,,13.928291,0.1,48.468872,1590096299443
Fix,GT,37.6301188,-122.4190844,,13.956689,0.1,46.209534,1590096300443
Fix,GT,37.6302056,-122.4189714,,13.798826,0.1,46.018616,1590096301443
Fix,GT,37.6302905,-122.4188598,,13.467573,0.1,46.26178,1590096302443
Fix,GT,37.6303722,-122.4187508,,12.8920765,0.1,46.891693,1590096303443
Fix,GT,37.6304486,-122.418645,,12.246077,0.1,48.24301,1590096304443
Fix,GT,37.6305183,-122.4185408,,11.723226,0.1,50.924377,1590096305443
Fix,GT,37.6305796,-122.4184367,,11.056474,0.1,55.012085,1590096306443
Fix,GT,37.6306304,-122.418336,,9.826937,0.1,59.026947,1590096307443
Fix,GT,37.6306694,-122.4182478,,7.87356,0.1,61.63849,1590096308443
Fix,GT,37.6306977,-122.4181802,,5.570148,0.1,62.24765,1590096309443
Fix,GT,37.630716,-122.4181368,,3.1362646,0.1,61.952454,1590096310443
Fix,GT,37.6307253,-122.4181151,,1.3275521,0.1,61.84195,1590096311443
Fix,GT,37.6307286,-122.4181077,,0.36509937,0.1,61.803406,1590096312443
Fix,GT,37.630729,-122.4181067,,0.020605158,0.1,61.785797,1590096313443
Fix,GT,37.630729,-122.4181068,,0.015459243,0.1,61.78534,1590096314443
Fix,GT,37.6307289,-122.4181069,,0.011432517,0.1,61.785004,1590096315443
Fix,GT,37.6307289,-122.418107,,0.008553,0.1,61.78485,1590096316443
Fix,GT,37.6307289,-122.4181071,,0.006469639,0.1,61.784576,1590096317443
Fix,GT,37.6307288,-122.4181072,,0.0034801909,0.1,61.784607,1590096318443
Fix,GT,37.6307292,-122.4181061,,0.39267334,0.1,61.76178,1590096319443
Fix,GT,37.6307335,-122.4180964,,1.7718374,0.1,61.3508,1590096320443
Fix,GT,37.6307464,-122.41807,,3.6850452,0.1,59.127716,1590096321443
Fix,GT,37.6307704,-122.4180307,,5.1825542,0.1,52.368286,1590096322443
Fix,GT,37.6308072,-122.4179885,,6.113538,0.1,40.807953,1590096323443
Fix,GT,37.6308566,-122.4179542,,6.670727,0.1,26.199707,1590096324443
Fix,GT,37.6309147,-122.4179371,,6.947609,0.1,9.7099,1590096325443
Fix,GT,37.6309767,-122.4179384,,7.1906385,0.1,356.62817,1590096326443
Fix,GT,37.6310429,-122.4179518,,7.9663706,0.1,349.88873,1590096327443
Fix,GT,37.6311174,-122.4179737,,9.0088215,0.1,345.83954,1590096328443
Fix,GT,37.6311975,-122.418004,,9.527094,0.1,342.31848,1590096329443
Fix,GT,37.6312791,-122.4180399,,9.720465,0.1,340.0309,1590096330443
Fix,GT,37.6313591,-122.4180778,,9.178903,0.1,339.11652,1590096331443
Fix,GT,37.6314306,-122.4181126,,7.8482604,0.1,338.59354,1590096332443
Fix,GT,37.6314916,-122.4181431,,6.838564,0.1,338.0072,1590096333443
Fix,GT,37.6315457,-122.4181707,,6.1169186,0.1,337.57596,1590096334443
Fix,GT,37.6315931,-122.4181954,,5.236209,0.1,337.41846,1590096335443
Fix,GT,37.6316329,-122.4182161,,4.200777,0.1,337.34915,1590096336443
Fix,GT,37.6316635,-122.4182322,,3.2356076,0.1,337.28033,1590096337443
Fix,GT,37.6316867,-122.4182444,,2.4133568,0.1,337.20398,1590096338443
Fix,GT,37.6317043,-122.4182536,,1.8662024,0.1,337.14087,1590096339443
Fix,GT,37.6317186,-122.4182611,,1.6528802,0.1,337.1863,1590096340443
Fix,GT,37.6317317,-122.418268,,1.4592103,0.1,337.30377,1590096341443
Fix,GT,37.6317425,-122.4182736,,1.0597868,0.1,337.37622,1590096342443
Fix,GT,37.6317497,-122.4182773,,0.6730025,0.1,337.40714,1590096343443
Fix,GT,37.6317536,-122.4182794,,0.29165593,0.1,337.39816,1590096344443
Fix,GT,37.6317549,-122.41828,,0.044194974,0.1,337.38934,1590096345443
Fix,GT,37.631755,-122.4182801,,0.00340891,0.1,337.38535,1590096346443
Fix,GT,37.631755,-122.41828,,0.0033589192,0.1,337.3849,1590096347443
Fix,GT,37.631755,-122.41828,,0.0026334482,0.1,337.38602,1590096348443
Fix,GT,37.631755,-122.41828,,0.0007868518,0.1,337.38644,1590096349443
Fix,GT,37.631755,-122.41828,,0.0,0.1,337.38696,1590096350443
Fix,GT,37.631755,-122.41828,,0.0014028237,0.1,337.38757,1590096351443
Fix,GT,37.631755,-122.41828,,0.0026466777,0.1,337.38745,1590096352443
Fix,GT,37.631755,-122.41828,,0.0017401383,0.1,337.388,1590096353443
Fix,GT,37.631755,-122.41828,,0.001778798,0.1,337.389,1590096354443
Fix,GT,37.631755,-122.41828,,0.0016877337,0.1,337.38962,1590096355443
Fix,GT,37.631755,-122.41828,,0.0018111119,0.1,337.38983,1590096356443
Fix,GT,37.631755,-122.41828,,0.0022010652,0.1,337.39044,1590096357443
Fix,GT,37.631755,-122.41828,,0.0014142136,0.1,337.39154,1590096358443
Fix,GT,37.631755,-122.41828,,0.0017787978,0.1,337.39227,1590096359443
Fix,GT,37.631755,-122.41828,,0.0022360678,0.1,337.39313,1590096360443
Fix,GT,37.631755,-122.4182801,,0.0016877336,0.1,337.39343,1590096361443
Fix,GT,37.631755,-122.4182801,,0.0014436119,0.1,337.3935,1590096362443
Fix,GT,37.631755,-122.4182801,,0.0017401383,0.1,337.39438,1590096363443
Fix,GT,37.631755,-122.41828,,0.0007868516,0.1,337.3946,1590096364443
Fix,GT,37.631755,-122.41828,,0.0009919463,0.1,337.39508,1590096365443
Fix,GT,37.6317555,-122.4182803,,0.27086744,0.1,337.38297,1590096366443
Fix,GT,37.6317625,-122.418284,,1.6567695,0.1,337.25778,1590096367443
Fix,GT,37.6317859,-122.4182963,,3.9670634,0.1,337.03876,1590096368443
Fix,GT,37.6318277,-122.4183185,,6.0850954,0.1,337.0125,1590096369443
Fix,GT,37.6318866,-122.4183496,,8.081557,0.1,337.20142,1590096370443
Fix,GT,37.6319615,-122.4183886,,9.875082,0.1,337.42123,1590096371443
Fix,GT,37.6320488,-122.418434,,10.99305,0.1,337.42056,1590096372443
Fix,GT,37.6321428,-122.4184828,,11.43642,0.1,337.5963,1590096373443
Fix,GT,37.6322392,-122.4185299,,11.400162,0.1,339.4521,1590096374443
Fix,GT,37.6323348,-122.4185698,,10.901109,0.1,342.97717,1590096375443
Fix,GT,37.6324277,-122.4185989,,10.327599,0.1,347.97647,1590096376443
Fix,GT,37.6325189,-122.4186117,,10.004266,0.1,357.34787,1590096377443
Fix,GT,37.6326079,-122.4185983,,9.889839,0.1,12.215607,1590096378443
Fix,GT,37.6326904,-122.4185525,,10.185082,0.1,29.352478,1590096379443
Fix,GT,37.632764,-122.418476,,11.077427,0.1,43.450348,1590096380443
Fix,GT,37.6328328,-122.4183749,,12.35002,0.1,51.42917,1590096381443
Fix,GT,37.6329011,-122.4182556,,13.524706,0.1,55.357788,1590096382443
Fix,GT,37.6329711,-122.4181225,,14.591158,0.1,56.830505,1590096383443
Fix,GT,37.6330447,-122.4179791,,15.49172,0.1,57.12854,1590096384443
Fix,GT,37.6331224,-122.4178278,,16.339455,0.1,57.012146,1590096385443
Fix,GT,37.6332049,-122.417668,,17.307074,0.1,56.911804,1590096386443
Fix,GT,37.6332924,-122.4174983,,18.394405,0.1,57.073486,1590096387443
Fix,GT,37.6333846,-122.4173174,,19.541908,0.1,57.418518,1590096388443
Fix,GT,37.6334803,-122.4171236,,20.6888,0.1,58.684143,1590096389443
Fix,GT,37.6335757,-122.4169154,,21.621777,0.1,61.048157,1590096390443
Fix,GT,37.6336661,-122.4166949,,22.004509,0.1,63.743683,1590096391443
Fix,GT,37.6337488,-122.4164685,,21.890465,0.1,66.34982,1590096392443
Fix,GT,37.6338226,-122.4162396,,21.679424,0.1,69.1214,1590096393443
Fix,GT,37.6338867,-122.416008,,21.59142,0.1,72.065216,1590096394443
Fix,GT,37.6339417,-122.4157728,,21.695808,0.1,74.61191,1590096395443
Fix,GT,37.6339898,-122.4155336,,21.829119,0.1,76.543945,1590096396443
Fix,GT,37.6340314,-122.4152919,,21.798264,0.1,78.75238,1590096397443
Fix,GT,37.6340645,-122.4150489,,21.68294,0.1,81.717834,1590096398443
Fix,GT,37.6340869,-122.4148038,,21.853949,0.1,84.50714,1590096399443
Fix,GT,37.6341011,-122.4145535,,22.475985,0.1,86.67529,1590096400443
Fix,GT,37.6341084,-122.4142946,,23.221348,0.1,88.8291,1590096401443
Fix,GT,37.6341086,-122.4140274,,23.943558,0.1,90.715515,1590096402443
Fix,GT,37.6341019,-122.4137522,,24.627062,0.1,92.60504,1590096403443
Fix,GT,37.6340869,-122.4134699,,25.290405,0.1,94.84021,1590096404443
Fix,GT,37.6340632,-122.4131817,,25.8471,0.1,96.71829,1590096405443
Fix,GT,37.634033,-122.4128889,,26.276028,0.1,97.85681,1590096406443
Fix,GT,37.6339985,-122.4125922,,26.654518,0.1,98.59265,1590096407443
Fix,GT,37.6339611,-122.4122918,,27.025858,0.1,99.15277,1590096408443
Fix,GT,37.6339211,-122.4119876,,27.382954,0.1,99.49475,1590096409443
Fix,GT,37.6338797,-122.41168,,27.658722,0.1,99.65015,1590096410443
Fix,GT,37.6338374,-122.4113702,,27.771126,0.1,99.75903,1590096411443
Fix,GT,37.633795,-122.4110602,,27.719383,0.1,99.84088,1590096412443
Fix,GT,37.633753,-122.4107512,,27.607185,0.1,99.737366,1590096413443
Fix,GT,37.6337119,-122.4104439,,27.367569,0.1,99.41177,1590096414443
Fix,GT,37.6336724,-122.4101392,,27.15689,0.1,99.03812,1590096415443
Fix,GT,37.6336362,-122.409836,,27.02984,0.1,97.98624,1590096416443
Fix,GT,37.6336064,-122.4095335,,26.821615,0.1,96.00836,1590096417443
Fix,GT,37.6335874,-122.4092322,,26.643871,0.1,93.03342,1590096418443
Fix,GT,37.6335815,-122.4089313,,26.595955,0.1,89.793335,1590096419443
Fix,GT,37.6335886,-122.4086294,,26.821463,0.1,87.05072,1590096420443
Fix,GT,37.6336063,-122.4083243,,27.230335,0.1,84.72183,1590096421443
Fix,GT,37.6336336,-122.4080163,,27.491932,0.1,82.5166,1590096422443
Fix,GT,37.6336688,-122.4077081,,27.437641,0.1,81.18451,1590096423443
Fix,GT,37.6337063,-122.4074023,,27.173416,0.1,81.17639,1590096424443
Fix,GT,37.6337417,-122.4070998,,26.810202,0.1,81.69754,1590096425443
Fix,GT,37.6337739,-122.4068011,,26.396843,0.1,82.50122,1590096426443
Fix,GT,37.6338011,-122.4065061,,25.987621,0.1,84.01398,1590096427443
Fix,GT,37.6338183,-122.4062144,,25.623865,0.1,87.162994,1590096428443
Fix,GT,37.6338182,-122.4059259,,25.329594,0.1,92.625,1590096429443
Fix,GT,37.6337946,-122.4056414,,25.166067,0.1,98.67239,1590096430443
Fix,GT,37.6337485,-122.405362,,25.197767,0.1,104.08246,1590096431443
Fix,GT,37.6336814,-122.4050885,,25.305946,0.1,109.666016,1590096432443
Fix,GT,37.6335925,-122.4048242,,25.34071,0.1,115.64819,1590096433443
Fix,GT,37.6334818,-122.4045733,,25.262306,0.1,121.877075,1590096434443
Fix,GT,37.6333508,-122.4043395,,25.195503,0.1,127.79169,1590096435443
Fix,GT,37.6332021,-122.4041236,,25.17712,0.1,133.3778,1590096436443
Fix,GT,37.6330376,-122.4039268,,25.197395,0.1,138.89359,1590096437443
Fix,GT,37.6328586,-122.4037511,,25.220913,0.1,144.52399,1590096438443
Fix,GT,37.6326665,-122.4035983,,25.22712,0.1,150.30905,1590096439443
Fix,GT,37.6324629,-122.4034712,,25.224728,0.1,156.4002,1590096440443
Fix,GT,37.6322496,-122.4033718,,25.2723,0.1,162.17548,1590096441443
Fix,GT,37.6320286,-122.4032972,,25.521591,0.1,166.76099,1590096442443
Fix,GT,37.6318011,-122.4032416,,25.897064,0.1,170.40729,1590096443443
Fix,GT,37.6315687,-122.4032002,,26.151964,0.1,172.67908,1590096444443
Fix,GT,37.6313343,-122.4031659,,26.20338,0.1,173.3252,1590096445443
Fix,GT,37.6310999,-122.4031327,,26.176737,0.1,173.30621,1590096446443
Fix,GT,37.6308653,-122.4030986,,26.25416,0.1,173.31317,1590096447443
Fix,GT,37.6306301,-122.4030647,,26.274832,0.1,173.37018,1590096448443
Fix,GT,37.630396,-122.403031,,25.98484,0.1,173.44775,1590096449443
Fix,GT,37.6301649,-122.4029978,,25.71276,0.1,173.4226,1590096450443
Fix,GT,37.6299347,-122.4029663,,25.75859,0.1,173.83215,1590096451443
Fix,GT,37.6297027,-122.4029365,,25.984241,0.1,174.21478,1590096452443
Fix,GT,37.6294689,-122.4029074,,26.21243,0.1,174.23822,1590096453443
Fix,GT,37.6292331,-122.4028772,,26.431263,0.1,173.8086,1590096454443
Fix,GT,37.6289955,-122.4028433,,26.660572,0.1,173.10602,1590096455443
Fix,GT,37.6287559,-122.4028061,,26.916595,0.1,172.70618,1590096456443
Fix,GT,37.628514,-122.402767,,27.202545,0.1,172.37036,1590096457443
Fix,GT,37.6282701,-122.4027244,,27.482798,0.1,171.48999,1590096458443
Fix,GT,37.6280246,-122.402675,,27.730028,0.1,170.37665,1590096459443
Fix,GT,37.6277775,-122.4026199,,27.984077,0.1,169.50916,1590096460443
Fix,GT,37.627529,-122.4025596,,28.223755,0.1,168.53204,1590096461443
Fix,GT,37.6272795,-122.4024929,,28.44101,0.1,167.36255,1590096462443
Fix,GT,37.6270292,-122.4024194,,28.638565,0.1,166.20459,1590096463443
Fix,GT,37.6267784,-122.4023392,,28.82053,0.1,165.0921,1590096464443
Fix,GT,37.6265276,-122.4022519,,28.934994,0.1,163.73047,1590096465443
Fix,GT,37.6262792,-122.4021557,,28.79509,0.1,161.74622,1590096466443
Fix,GT,37.626035,-122.4020515,,28.456684,0.1,160.56873,1590096467443
Fix,GT,37.6257942,-122.4019458,,28.200426,0.1,160.73645,1590096468443
Fix,GT,37.6255543,-122.4018429,,28.080753,0.1,161.39587,1590096469443
Fix,GT,37.6253139,-122.4017448,,27.99355,0.1,162.26843,1590096470443
Fix,GT,37.6250735,-122.4016508,,27.87214,0.1,162.737,1590096471443
Fix,GT,37.6248337,-122.4015595,,27.73121,0.1,163.14026,1590096472443
Fix,GT,37.6245949,-122.4014696,,27.636765,0.1,163.19067,1590096473443
Fix,GT,37.6243563,-122.4013799,,27.641338,0.1,163.19696,1590096474443
Fix,GT,37.6241181,-122.40129,,27.519016,0.1,163.0498,1590096475443
Fix,GT,37.6238823,-122.4011995,,27.195126,0.1,162.79132,1590096476443
Fix,GT,37.6236499,-122.4011098,,26.75101,0.1,162.80261,1590096477443
Fix,GT,37.6234216,-122.4010214,,26.295145,0.1,162.72931,1590096478443
Fix,GT,37.6231965,-122.4009338,,26.099987,0.1,162.53137,1590096479443
Fix,GT,37.6229716,-122.4008457,,26.220491,0.1,162.56696,1590096480443
Fix,GT,37.6227448,-122.4007582,,26.456566,0.1,163.09766,1590096481443
Fix,GT,37.6225149,-122.4006732,,26.740967,0.1,163.68304,1590096482443
Fix,GT,37.6222821,-122.4005895,,26.997353,0.1,163.79651,1590096483443
Fix,GT,37.6220467,-122.400503,,27.426994,0.1,163.41522,1590096484443
Fix,GT,37.6218066,-122.4004138,,28.170567,0.1,163.48877,1590096485443
Fix,GT,37.6215598,-122.4003239,,28.850735,0.1,163.97327,1590096486443
Fix,GT,37.6213074,-122.4002348,,29.299896,0.1,164.38617,1590096487443
Fix,GT,37.6210517,-122.4001469,,29.51324,0.1,164.77563,1590096488443
Fix,GT,37.6207946,-122.4000599,,29.583378,0.1,164.86896,1590096489443
Fix,GT,37.6205368,-122.3999729,,29.682953,0.1,164.83856,1590096490443
Fix,GT,37.620278,-122.3998856,,29.794628,0.1,164.88025,1590096491443
Fix,GT,37.6200181,-122.3997982,,29.941683,0.1,164.90826,1590096492443
Fix,GT,37.6197568,-122.3997103,,30.100712,0.1,164.82513,1590096493443
Fix,GT,37.6194943,-122.3996215,,30.207632,0.1,164.8053,1590096494443
Fix,GT,37.6192313,-122.3995325,,30.227707,0.1,164.84662,1590096495443
Fix,GT,37.6189685,-122.3994436,,30.148504,0.1,164.85803,1590096496443
Fix,GT,37.6187069,-122.3993554,,29.972235,0.1,164.91382,1590096497443
Fix,GT,37.6184469,-122.399268,,29.72615,0.1,164.96606,1590096498443
Fix,GT,37.6181889,-122.3991816,,29.555187,0.1,164.99786,1590096499443
Fix,GT,37.6179318,-122.3990956,,29.560099,0.1,165.01654,1590096500443
Fix,GT,37.6176742,-122.3990093,,29.620676,0.1,165.00171,1590096501443
Fix,GT,37.6174166,-122.3989225,,29.560715,0.1,164.98212,1590096502443
Fix,GT,37.6171596,-122.3988358,,29.499733,0.1,164.88019,1590096503443
Fix,GT,37.6169035,-122.3987481,,29.429235,0.1,164.51788,1590096504443
Fix,GT,37.6166487,-122.398658,,29.384106,0.1,163.93219,1590096505443
Fix,GT,37.6163949,-122.3985631,,29.46353,0.1,162.80359,1590096506443
Fix,GT,37.6161418,-122.3984604,,29.60556,0.1,161.31128,1590096507443
Fix,GT,37.6158898,-122.3983485,,29.757378,0.1,159.65222,1590096508443
Fix,GT,37.6156395,-122.3982267,,29.875797,0.1,157.97217,1590096509443
Fix,GT,37.6153909,-122.3980956,,29.992683,0.1,156.37787,1590096510443
Fix,GT,37.6151444,-122.3979548,,30.132206,0.1,154.6084,1590096511443
Fix,GT,37.6149005,-122.3978036,,30.262646,0.1,152.82642,1590096512443
Fix,GT,37.6146589,-122.3976433,,30.415752,0.1,151.3562,1590096513443
Fix,GT,37.6144191,-122.3974749,,30.561737,0.1,150.17218,1590096514443
Fix,GT,37.6141815,-122.3972997,,30.646475,0.1,148.84058,1590096515443
Fix,GT,37.613947,-122.3971164,,30.745102,0.1,147.10355,1590096516443
Fix,GT,37.6137162,-122.3969236,,30.786354,0.1,145.27179,1590096517443
Fix,GT,37.6134905,-122.3967221,,30.72036,0.1,143.80981,1590096518443
Fix,GT,37.6132688,-122.3965139,,30.750309,0.1,142.569,1590096519443
Fix,GT,37.6130501,-122.3962994,,30.832336,0.1,141.26898,1590096520443
Fix,GT,37.6128349,-122.3960779,,30.926584,0.1,139.85599,1590096521443
Fix,GT,37.6126233,-122.395849,,31.088692,0.1,138.44397,1590096522443
Fix,GT,37.6124153,-122.3956118,,31.299957,0.1,136.87488,1590096523443
Fix,GT,37.6122108,-122.3953662,,31.509287,0.1,135.44449,1590096524443
Fix,GT,37.6120101,-122.3951124,,31.700958,0.1,133.932,1590096525443
Fix,GT,37.6118139,-122.3948505,,31.852852,0.1,132.40741,1590096526443
Fix,GT,37.6116222,-122.3945815,,31.937176,0.1,131.08063,1590096527443
Fix,GT,37.6114349,-122.3943067,,31.959454,0.1,129.97772,1590096528443
Fix,GT,37.6112509,-122.3940283,,31.997635,0.1,129.24506,1590096529443
Fix,GT,37.6110684,-122.3937473,,32.056847,0.1,128.91211,1590096530443
Fix,GT,37.6108868,-122.3934647,,32.108166,0.1,128.71777,1590096531443
Fix,GT,37.6107054,-122.3931811,,32.138588,0.1,128.44397,1590096532443
Fix,GT,37.6105252,-122.3928964,,32.08142,0.1,128.11871,1590096533443
Fix,GT,37.6103469,-122.3926119,,31.833818,0.1,127.97342,1590096534443
Fix,GT,37.6101707,-122.3923301,,31.456177,0.1,128.18793,1590096535443
Fix,GT,37.6099951,-122.3920528,,31.124065,0.1,128.59583,1590096536443
Fix,GT,37.6098198,-122.3917794,,30.888823,0.1,128.82672,1590096537443
Fix,GT,37.609645,-122.3915083,,30.754013,0.1,128.87036,1590096538443
Fix,GT,37.6094707,-122.3912381,,30.677456,0.1,128.87311,1590096539443
Fix,GT,37.6092967,-122.3909685,,30.613632,0.1,128.98029,1590096540443
Fix,GT,37.6091228,-122.3906998,,30.54525,0.1,128.9638,1590096541443
Fix,GT,37.6089495,-122.3904316,,30.470875,0.1,128.93298,1590096542443
Fix,GT,37.6087763,-122.3901642,,30.430838,0.1,129.07129,1590096543443
Fix,GT,37.6086026,-122.3898973,,30.4715,0.1,129.23059,1590096544443
Fix,GT,37.6084277,-122.3896304,,30.592293,0.1,129.3692,1590096545443
Fix,GT,37.6082521,-122.3893626,,30.702374,0.1,129.32794,1590096546443
Fix,GT,37.6080764,-122.3890936,,30.749504,0.1,129.16321,1590096547443
Fix,GT,37.6079008,-122.388824,,30.807232,0.1,129.17636,1590096548443
Fix,GT,37.6077245,-122.3885539,,30.895496,0.1,129.27692,1590096549443
Fix,GT,37.6075473,-122.3882831,,31.0248,0.1,129.28958,1590096550443
Fix,GT,37.6073694,-122.3880112,,31.156944,0.1,129.25327,1590096551443
Fix,GT,37.6071911,-122.387738,,31.21032,0.1,129.10202,1590096552443
Fix,GT,37.6070136,-122.3874644,,31.103748,0.1,128.96832,1590096553443
Fix,GT,37.6068372,-122.3871921,,30.892452,0.1,129.03851,1590096554443
Fix,GT,37.6066614,-122.3869225,,30.67587,0.1,129.25946,1590096555443
Fix,GT,37.6064861,-122.3866556,,30.451233,0.1,129.45123,1590096556443
Fix,GT,37.6063116,-122.3863914,,30.187286,0.1,129.51514,1590096557443
Fix,GT,37.6061391,-122.3861292,,29.925549,0.1,129.28412,1590096558443
Fix,GT,37.6059683,-122.385868,,29.800442,0.1,129.15338,1590096559443
Fix,GT,37.6057982,-122.3856072,,29.76371,0.1,129.2663,1590096560443
Fix,GT,37.6056282,-122.385347,,29.67163,0.1,129.1615,1590096561443
Fix,GT,37.6054597,-122.3850875,,29.452534,0.1,128.90207,1590096562443
Fix,GT,37.6052933,-122.3848301,,29.105915,0.1,128.9599,1590096563443
Fix,GT,37.6051283,-122.3845768,,28.746399,0.1,129.20868,1590096564443
Fix,GT,37.6049652,-122.3843264,,28.376534,0.1,129.01392,1590096565443
Fix,GT,37.604805,-122.3840787,,27.997952,0.1,128.945,1590096566443
Fix,GT,37.6046466,-122.383835,,27.607716,0.1,129.1239,1590096567443
Fix,GT,37.60449,-122.3835952,,27.160831,0.1,129.159,1590096568443
Fix,GT,37.6043362,-122.3833595,,26.658394,0.1,129.17651,1590096569443
Fix,GT,37.6041855,-122.3831278,,26.17587,0.1,129.0517,1590096570443
Fix,GT,37.6040381,-122.3828994,,25.835144,0.1,128.80618,1590096571443
Fix,GT,37.6038923,-122.3826724,,25.780083,0.1,128.79181,1590096572443
Fix,GT,37.6037457,-122.3824449,,25.930454,0.1,129.02472,1590096573443
Fix,GT,37.6035978,-122.382217,,26.01408,0.1,129.1759,1590096574443
Fix,GT,37.6034492,-122.3819886,,26.123386,0.1,129.23889,1590096575443
Fix,GT,37.6032991,-122.3817587,,26.411434,0.1,129.33966,1590096576443
Fix,GT,37.6031472,-122.3815267,,26.611366,0.1,129.33191,1590096577443
Fix,GT,37.6029948,-122.3812937,,26.607811,0.1,129.28427,1590096578443
Fix,GT,37.6028426,-122.3810616,,26.510471,0.1,129.51428,1590096579443
Fix,GT,37.6026901,-122.3808305,,26.538792,0.1,129.64539,1590096580443
Fix,GT,37.6025368,-122.3805986,,26.72453,0.1,129.48743,1590096581443
Fix,GT,37.6023831,-122.3803639,,27.004452,0.1,129.23157,1590096582443
Fix,GT,37.6022282,-122.3801261,,27.283321,0.1,129.05774,1590096583443
Fix,GT,37.6020722,-122.3798853,,27.535786,0.1,128.88647,1590096584443
Fix,GT,37.6019162,-122.379642,,27.635963,0.1,128.57529,1590096585443
Fix,GT,37.6017612,-122.3793982,,27.48341,0.1,128.54236,1590096586443
Fix,GT,37.6016064,-122.3791566,,27.279049,0.1,128.9602,1590096587443
Fix,GT,37.6014514,-122.3789181,,27.12159,0.1,129.3482,1590096588443
Fix,GT,37.6012967,-122.3786813,,27.00042,0.1,129.22302,1590096589443
Fix,GT,37.6011425,-122.3784454,,26.884518,0.1,129.32959,1590096590443
Fix,GT,37.6009886,-122.3782113,,26.734226,0.1,129.4845,1590096591443
Fix,GT,37.6008351,-122.3779788,,26.638847,0.1,129.4538,1590096592443
Fix,GT,37.6006819,-122.3777463,,26.713291,0.1,129.5224,1590096593443
Fix,GT,37.600528,-122.3775125,,26.868341,0.1,129.45184,1590096594443
Fix,GT,37.6003738,-122.377277,,27.015278,0.1,129.18292,1590096595443
Fix,GT,37.6002194,-122.3770396,,27.124424,0.1,129.20837,1590096596443
Fix,GT,37.600064,-122.3768022,,27.108263,0.1,129.51636,1590096597443
Fix,GT,37.5999083,-122.3765664,,27.004635,0.1,129.60394,1590096598443
Fix,GT,37.5997535,-122.3763312,,26.901772,0.1,129.37958,1590096599443
Fix,GT,37.5996003,-122.3760955,,26.876032,0.1,128.98413,1590096600443
Fix,GT,37.5994476,-122.3758589,,26.959803,0.1,128.90112,1590096601443
Fix,GT,37.5992947,-122.375621,,27.067432,0.1,128.76886,1590096602443
Fix,GT,37.5991414,-122.3753816,,27.193707,0.1,128.68475,1590096603443
Fix,GT,37.5989874,-122.3751411,,27.33578,0.1,128.81131,1590096604443
Fix,GT,37.598832,-122.3748997,,27.4954,0.1,128.93365,1590096605443
Fix,GT,37.5986756,-122.3746576,,27.573399,0.1,128.95093,1590096606443
Fix,GT,37.5985192,-122.3744152,,27.552895,0.1,128.93481,1590096607443
Fix,GT,37.5983629,-122.3741729,,27.5644,0.1,128.91464,1590096608443
Fix,GT,37.5982062,-122.3739299,,27.691486,0.1,128.91483,1590096609443
Fix,GT,37.5980483,-122.373685,,27.963821,0.1,128.89966,1590096610443
Fix,GT,37.5978889,-122.3734373,,28.291935,0.1,128.91684,1590096611443
Fix,GT,37.5977278,-122.3731871,,28.533543,0.1,128.92725,1590096612443
Fix,GT,37.5975654,-122.3729351,,28.721678,0.1,128.89685,1590096613443
Fix,GT,37.5974021,-122.3726821,,28.807043,0.1,128.94904,1590096614443
Fix,GT,37.5972386,-122.3724293,,28.741379,0.1,129.01868,1590096615443
Fix,GT,37.5970753,-122.3721775,,28.676708,0.1,129.21265,1590096616443
Fix,GT,37.5969112,-122.3719263,,28.73209,0.1,129.41217,1590096617443
Fix,GT,37.596746,-122.3716749,,28.842167,0.1,129.48798,1590096618443
Fix,GT,37.5965803,-122.3714228,,28.906977,0.1,129.48166,1590096619443
Fix,GT,37.5964145,-122.3711702,,28.957249,0.1,129.4036,1590096620443
Fix,GT,37.5962482,-122.3709168,,29.057701,0.1,129.36151,1590096621443
Fix,GT,37.5960817,-122.3706622,,29.188776,0.1,129.28949,1590096622443
Fix,GT,37.5959144,-122.3704063,,29.28933,0.1,129.24164,1590096623443
Fix,GT,37.5957471,-122.3701496,,29.270912,0.1,129.09741,1590096624443
Fix,GT,37.5955809,-122.3698928,,29.179798,0.1,129.0202,1590096625443
Fix,GT,37.5954148,-122.3696369,,29.19484,0.1,129.18625,1590096626443
Fix,GT,37.5952476,-122.3693812,,29.262772,0.1,129.29825,1590096627443
Fix,GT,37.5950804,-122.3691252,,29.23204,0.1,129.30325,1590096628443
Fix,GT,37.5949134,-122.3688692,,29.24096,0.1,129.29004,1590096629443
Fix,GT,37.5947461,-122.3686137,,29.193867,0.1,129.32217,1590096630443
Fix,GT,37.5945795,-122.3683594,,28.954716,0.1,129.33878,1590096631443
Fix,GT,37.5944149,-122.3681076,,28.610462,0.1,129.30984,1590096632443
Fix,GT,37.5942522,-122.367859,,28.250431,0.1,129.39417,1590096633443
Fix,GT,37.5940909,-122.3676137,,27.98116,0.1,129.58652,1590096634443
Fix,GT,37.5939302,-122.3673706,,27.874016,0.1,129.56342,1590096635443
Fix,GT,37.5937702,-122.3671274,,27.897701,0.1,129.38196,1590096636443
Fix,GT,37.5936101,-122.3668829,,28.043114,0.1,129.30075,1590096637443
Fix,GT,37.5934494,-122.3666365,,28.258308,0.1,129.18613,1590096638443
Fix,GT,37.5932877,-122.3663875,,28.520493,0.1,129.0647,1590096639443
Fix,GT,37.5931245,-122.366136,,28.806198,0.1,129.16675,1590096640443
Fix,GT,37.5929593,-122.3658822,,29.088749,0.1,129.17627,1590096641443
Fix,GT,37.5927931,-122.3656255,,29.338846,0.1,128.83273,1590096642443
Fix,GT,37.5926266,-122.3653658,,29.57301,0.1,128.81262,1590096643443
Fix,GT,37.5924582,-122.3651055,,29.647089,0.1,129.17468,1590096644443
Fix,GT,37.5922885,-122.3648476,,29.4267,0.1,129.62613,1590096645443
Fix,GT,37.5921188,-122.3645929,,29.227684,0.1,129.9403,1590096646443
Fix,GT,37.5919497,-122.36434,,29.119507,0.1,129.95041,1590096647443
Fix,GT,37.5917817,-122.364088,,28.954971,0.1,129.79898,1590096648443
Fix,GT,37.591615,-122.3638373,,28.744354,0.1,129.71622,1590096649443
Fix,GT,37.5914496,-122.3635884,,28.577019,0.1,129.76605,1590096650443
Fix,GT,37.5912851,-122.3633401,,28.518566,0.1,129.59326,1590096651443
Fix,GT,37.5911211,-122.3630913,,28.567314,0.1,129.55975,1590096652443
Fix,GT,37.5909564,-122.3628419,,28.6895,0.1,129.61902,1590096653443
Fix,GT,37.5907908,-122.3625911,,28.890629,0.1,129.52829,1590096654443
Fix,GT,37.5906244,-122.3623377,,29.15157,0.1,129.33752,1590096655443
Fix,GT,37.5904571,-122.3620811,,29.429718,0.1,129.11548,1590096656443
Fix,GT,37.5902892,-122.3618214,,29.625462,0.1,128.86713,1590096657443
Fix,GT,37.5901215,-122.3615599,,29.680939,0.1,128.72028,1590096658443
Fix,GT,37.5899539,-122.3612981,,29.670334,0.1,128.73389,1590096659443
Fix,GT,37.5897869,-122.3610362,,29.61456,0.1,128.42136,1590096660443
Fix,GT,37.5896216,-122.3607734,,29.584543,0.1,128.15839,1590096661443
Fix,GT,37.5894564,-122.36051,,29.694016,0.1,128.13977,1590096662443
Fix,GT,37.5892917,-122.3602441,,29.803074,0.1,127.3215,1590096663443
Fix,GT,37.5891316,-122.3599735,,29.790197,0.1,125.65802,1590096664443
Fix,GT,37.5889785,-122.3596971,,29.759336,0.1,123.86813,1590096665443
Fix,GT,37.5888322,-122.3594154,,29.637028,0.1,122.1788,1590096666443
Fix,GT,37.5886943,-122.3591303,,29.316044,0.1,120.34412,1590096667443
Fix,GT,37.5885638,-122.3588442,,28.927391,0.1,119.18518,1590096668443
Fix,GT,37.5884385,-122.3585595,,28.576683,0.1,118.50525,1590096669443
Fix,GT,37.5883181,-122.3582757,,28.237175,0.1,117.51187,1590096670443
Fix,GT,37.5882037,-122.3579926,,27.881714,0.1,116.211,1590096671443
Fix,GT,37.5880963,-122.3577098,,27.5079,0.1,114.61963,1590096672443
Fix,GT,37.5879964,-122.357427,,27.189543,0.1,113.02142,1590096673443
Fix,GT,37.5879032,-122.3571437,,27.009079,0.1,111.79303,1590096674443
Fix,GT,37.5878146,-122.3568595,,26.93772,0.1,110.72174,1590096675443
Fix,GT,37.5877312,-122.356573,,27.006945,0.1,109.21646,1590096676443
Fix,GT,37.5876532,-122.3562824,,27.222624,0.1,107.93335,1590096677443
Fix,GT,37.5875792,-122.3559872,,27.464485,0.1,106.8132,1590096678443
Fix,GT,37.5875095,-122.3556875,,27.706245,0.1,105.50763,1590096679443
Fix,GT,37.5874447,-122.3553833,,27.954924,0.1,104.24631,1590096680443
Fix,GT,37.5873851,-122.3550749,,28.090958,0.1,102.828705,1590096681443
Fix,GT,37.587332,-122.3547648,,27.923283,0.1,101.13129,1590096682443
Fix,GT,37.5872863,-122.354456,,27.620766,0.1,99.815216,1590096683443
Fix,GT,37.5872455,-122.3541479,,27.607204,0.1,98.892426,1590096684443
Fix,GT,37.5872086,-122.3538377,,27.809532,0.1,97.790405,1590096685443
Fix,GT,37.5871777,-122.3535251,,27.854218,0.1,96.03284,1590096686443
Fix,GT,37.5871549,-122.3532111,,27.90265,0.1,94.13751,1590096687443
Fix,GT,37.587139,-122.3528958,,27.91056,0.1,92.89191,1590096688443
Fix,GT,37.587128,-122.3525804,,27.876896,0.1,91.88809,1590096689443
Fix,GT,37.5871207,-122.3522645,,27.955395,0.1,91.24704,1590096690443
Fix,GT,37.5871148,-122.351947,,28.144247,0.1,91.1297,1590096691443
Fix,GT,37.5871082,-122.3516268,,28.443298,0.1,91.457214,1590096692443
Fix,GT,37.5871002,-122.3513032,,28.74585,0.1,91.72412,1590096693443
Fix,GT,37.5870911,-122.3509762,,29.05596,0.1,91.871216,1590096694443
Fix,GT,37.5870815,-122.3506457,,29.349674,0.1,91.86624,1590096695443
Fix,GT,37.5870722,-122.3503122,,29.593021,0.1,91.68063,1590096696443
Fix,GT,37.5870636,-122.349976,,29.813484,0.1,91.60773,1590096697443
Fix,GT,37.587055,-122.3496374,,30.034094,0.1,91.67648,1590096698443
Fix,GT,37.5870461,-122.3492962,,30.25383,0.1,91.64551,1590096699443
Fix,GT,37.5870374,-122.3489526,,30.462118,0.1,91.63983,1590096700443
Fix,GT,37.5870286,-122.348607,,30.572092,0.1,91.67352,1590096701443
Fix,GT,37.5870196,-122.3482616,,30.4147,0.1,91.688446,1590096702443
Fix,GT,37.5870107,-122.3479196,,30.019024,0.1,91.693054,1590096703443
Fix,GT,37.5870017,-122.3475821,,29.671501,0.1,91.76877,1590096704443
Fix,GT,37.5869926,-122.3472472,,29.596893,0.1,91.77951,1590096705443
Fix,GT,37.5869837,-122.3469116,,29.728188,0.1,91.80347,1590096706443
Fix,GT,37.5869743,-122.3465745,,29.866194,0.1,91.95242,1590096707443
Fix,GT,37.5869639,-122.3462359,,29.934803,0.1,92.12518,1590096708443
Fix,GT,37.5869528,-122.3458975,,29.847933,0.1,92.19974,1590096709443
Fix,GT,37.5869421,-122.3455611,,29.647778,0.1,91.976715,1590096710443
Fix,GT,37.5869328,-122.3452269,,29.420506,0.1,91.75348,1590096711443
Fix,GT,37.5869242,-122.3448954,,29.173634,0.1,91.67651,1590096712443
Fix,GT,37.586916,-122.3445669,,28.92142,0.1,91.6181,1590096713443
Fix,GT,37.5869079,-122.3442402,,28.8712,0.1,91.6095,1590096714443
Fix,GT,37.5868998,-122.3439125,,29.034119,0.1,91.583496,1590096715443
Fix,GT,37.5868915,-122.3435829,,29.212477,0.1,91.69232,1590096716443
Fix,GT,37.5868824,-122.343251,,29.45373,0.1,91.86755,1590096717443
Fix,GT,37.5868731,-122.3429164,,29.689297,0.1,91.7728,1590096718443
Fix,GT,37.5868643,-122.342579,,29.926657,0.1,91.62018,1590096719443
Fix,GT,37.5868562,-122.3422391,,30.162502,0.1,91.44006,1590096720443
Fix,GT,37.586849,-122.3418963,,30.393867,0.1,91.32837,1590096721443
Fix,GT,37.5868416,-122.3415509,,30.63881,0.1,91.49213,1590096722443
Fix,GT,37.5868331,-122.3412026,,30.909008,0.1,91.72064,1590096723443
Fix,GT,37.586824,-122.3408514,,31.133873,0.1,91.67804,1590096724443
Fix,GT,37.586815,-122.3404983,,31.237803,0.1,91.7551,1590096725443
Fix,GT,37.5868053,-122.3401446,,31.270515,0.1,91.891815,1590096726443
Fix,GT,37.5867955,-122.3397907,,31.304504,0.1,91.77301,1590096727443
Fix,GT,37.5867863,-122.3394362,,31.350784,0.1,91.66342,1590096728443
Fix,GT,37.5867775,-122.3390811,,31.388718,0.1,91.72879,1590096729443
Fix,GT,37.586768,-122.3387257,,31.416,0.1,91.862366,1590096730443
Fix,GT,37.5867579,-122.3383702,,31.443867,0.1,91.93683,1590096731443
Fix,GT,37.5867477,-122.3380143,,31.418968,0.1,91.848694,1590096732443
Fix,GT,37.5867381,-122.3376596,,31.219143,0.1,91.771484,1590096733443
Fix,GT,37.5867283,-122.3373082,,30.90397,0.1,91.95047,1590096734443
Fix,GT,37.5867178,-122.3369601,,30.664692,0.1,92.01169,1590096735443
Fix,GT,37.5867077,-122.3366139,,30.53788,0.1,91.838684,1590096736443
Fix,GT,37.5866984,-122.3362691,,30.414787,0.1,91.61383,1590096737443
Fix,GT,37.5866901,-122.3359255,,30.308758,0.1,91.52496,1590096738443
Fix,GT,37.5866822,-122.335583,,30.212475,0.1,91.45456,1590096739443
Fix,GT,37.5866752,-122.335242,,30.037464,0.1,91.31412,1590096740443
Fix,GT,37.5866678,-122.3349035,,29.77222,0.1,91.63208,1590096741443
Fix,GT,37.5866583,-122.3345683,,29.444103,0.1,92.08127,1590096742443
Fix,GT,37.586647,-122.3342374,,29.053463,0.1,92.6286,1590096743443
Fix,GT,37.5866309,-122.3339114,,28.643087,0.1,94.42059,1590096744443
Fix,GT,37.5866044,-122.3335906,,28.28267,0.1,97.14511,1590096745443
Fix,GT,37.5865666,-122.333275,,28.085499,0.1,99.52667,1590096746443
Fix,GT,37.5865193,-122.3329627,,28.070341,0.1,101.61752,1590096747443
Fix,GT,37.5864627,-122.332653,,28.028671,0.1,103.95715,1590096748443
Fix,GT,37.5863953,-122.3323477,,27.902416,0.1,106.93036,1590096749443
Fix,GT,37.586315,-122.3320482,,27.919678,0.1,109.988525,1590096750443
Fix,GT,37.586222,-122.3317532,,28.110847,0.1,112.78845,1590096751443
Fix,GT,37.5861167,-122.3314625,,28.292362,0.1,115.76196,1590096752443
Fix,GT,37.5859989,-122.3311771,,28.485718,0.1,118.54181,1590096753443
Fix,GT,37.5858701,-122.3308966,,28.648312,0.1,121.039246,1590096754443
Fix,GT,37.585731,-122.3306232,,28.648594,0.1,123.84906,1590096755443
Fix,GT,37.5855814,-122.3303591,,28.577654,0.1,126.88385,1590096756443
Fix,GT,37.5854214,-122.3301062,,28.467327,0.1,129.70233,1590096757443
Fix,GT,37.5852529,-122.3298644,,28.25032,0.1,132.28287,1590096758443
Fix,GT,37.5850777,-122.329634,,28.007786,0.1,134.87396,1590096759443
Fix,GT,37.5848959,-122.3294152,,27.873188,0.1,137.32242,1590096760443
Fix,GT,37.5847081,-122.3292051,,27.933039,0.1,138.8974,1590096761443
Fix,GT,37.5845171,-122.3289974,,28.17314,0.1,139.04541,1590096762443
Fix,GT,37.5843244,-122.3287871,,28.464924,0.1,138.77344,1590096763443
Fix,GT,37.584131,-122.3285739,,28.64086,0.1,138.49524,1590096764443
Fix,GT,37.5839374,-122.3283592,,28.624752,0.1,138.38626,1590096765443
Fix,GT,37.5837443,-122.328145,,28.534893,0.1,138.50714,1590096766443
Fix,GT,37.5835518,-122.3279322,,28.382357,0.1,138.56537,1590096767443
Fix,GT,37.58336,-122.3277211,,28.216663,0.1,138.70563,1590096768443
Fix,GT,37.5831684,-122.3275118,,28.186832,0.1,138.92206,1590096769443
Fix,GT,37.5829762,-122.3273026,,28.27649,0.1,139.02304,1590096770443
Fix,GT,37.5827829,-122.3270929,,28.407154,0.1,139.1369,1590096771443
Fix,GT,37.5825885,-122.3268831,,28.458881,0.1,139.11337,1590096772443
Fix,GT,37.5823941,-122.3266724,,28.5491,0.1,138.97076,1590096773443
Fix,GT,37.5821991,-122.3264596,,28.793648,0.1,138.89313,1590096774443
Fix,GT,37.5820027,-122.326245,,28.977577,0.1,138.89166,1590096775443
Fix,GT,37.581805,-122.3260301,,29.042645,0.1,139.08356,1590096776443
Fix,GT,37.5816068,-122.3258151,,29.097237,0.1,139.00125,1590096777443
Fix,GT,37.5814084,-122.3255989,,29.216433,0.1,138.9708,1590096778443
Fix,GT,37.581209,-122.3253822,,29.2705,0.1,139.10211,1590096779443
Fix,GT,37.5810094,-122.3251662,,29.144249,0.1,139.12915,1590096780443
Fix,GT,37.5808112,-122.3249522,,28.87429,0.1,139.16492,1590096781443
Fix,GT,37.5806153,-122.3247402,,28.503403,0.1,139.09174,1590096782443
Fix,GT,37.5804223,-122.3245306,,28.105282,0.1,139.01245,1590096783443
Fix,GT,37.5802321,-122.3243241,,27.706774,0.1,139.12842,1590096784443
Fix,GT,37.5800441,-122.3241206,,27.412964,0.1,139.11359,1590096785443
Fix,GT,37.5798578,-122.3239178,,27.354282,0.1,138.90277,1590096786443
Fix,GT,37.5796714,-122.3237143,,27.481117,0.1,138.94455,1590096787443
Fix,GT,37.5794835,-122.3235102,,27.651134,0.1,138.99756,1590096788443
Fix,GT,37.5792947,-122.3233046,,27.805464,0.1,138.94968,1590096789443
Fix,GT,37.579105,-122.3230982,,27.880234,0.1,138.95721,1590096790443
Fix,GT,37.5789148,-122.3228916,,27.946068,0.1,139.03333,1590096791443
Fix,GT,37.5787234,-122.3226846,,28.139046,0.1,139.19107,1590096792443
Fix,GT,37.5785301,-122.3224764,,28.373177,0.1,139.25363,1590096793443
Fix,GT,37.5783352,-122.3222664,,28.628036,0.1,139.15094,1590096794443
Fix,GT,37.5781389,-122.322054,,28.865177,0.1,139.14044,1590096795443
Fix,GT,37.577941,-122.3218401,,29.090923,0.1,139.17767,1590096796443
Fix,GT,37.5777413,-122.3216246,,29.320517,0.1,139.2514,1590096797443
Fix,GT,37.5775402,-122.3214076,,29.527893,0.1,139.17511,1590096798443
Fix,GT,37.5773384,-122.3211886,,29.63612,0.1,138.99628,1590096799443
Fix,GT,37.5771367,-122.3209688,,29.621147,0.1,138.93561,1590096800443
Fix,GT,37.5769353,-122.3207494,,29.545887,0.1,138.95581,1590096801443
Fix,GT,37.5767342,-122.3205308,,29.494919,0.1,139.08984,1590096802443
Fix,GT,37.5765326,-122.3203128,,29.564217,0.1,139.17514,1590096803443
Fix,GT,37.5763302,-122.3200935,,29.75719,0.1,139.01178,1590096804443
Fix,GT,37.5761272,-122.319872,,29.914333,0.1,138.90195,1590096805443
Fix,GT,37.5759232,-122.3196495,,30.036469,0.1,138.9812,1590096806443
Fix,GT,37.5757182,-122.3194264,,30.170269,0.1,138.93585,1590096807443
Fix,GT,37.5755123,-122.3192023,,30.294996,0.1,138.98907,1590096808443
Fix,GT,37.5753058,-122.3189779,,30.27543,0.1,139.01956,1590096809443
Fix,GT,37.5751003,-122.3187546,,30.010984,0.1,138.97638,1590096810443
Fix,GT,37.5748973,-122.3185337,,29.599874,0.1,138.94052,1590096811443
Fix,GT,37.5746973,-122.3183158,,29.159367,0.1,138.92679,1590096812443
Fix,GT,37.5745002,-122.3181014,,28.71748,0.1,139.086,1590096813443
Fix,GT,37.5743057,-122.3178909,,28.294466,0.1,139.16016,1590096814443
Fix,GT,37.5741137,-122.3176826,,28.047642,0.1,139.02515,1590096815443
Fix,GT,37.5739228,-122.3174749,,28.034088,0.1,138.9501,1590096816443
Fix,GT,37.573732,-122.3172671,,27.976442,0.1,138.91684,1590096817443
Fix,GT,37.5735426,-122.3170602,,27.742107,0.1,138.80896,1590096818443
Fix,GT,37.5733553,-122.3168547,,27.45385,0.1,138.68927,1590096819443
Fix,GT,37.57317,-122.3166512,,27.202751,0.1,138.80933,1590096820443
Fix,GT,37.5729854,-122.31645,,27.071068,0.1,139.07306,1590096821443
Fix,GT,37.5728005,-122.3162497,,27.139072,0.1,139.24121,1590096822443
Fix,GT,37.5726143,-122.316049,,27.348625,0.1,139.3227,1590096823443
Fix,GT,37.5724268,-122.3158462,,27.589088,0.1,139.0676,1590096824443
Fix,GT,37.5722381,-122.3156409,,27.801136,0.1,138.99435,1590096825443
Fix,GT,37.572048,-122.3154341,,28.020008,0.1,139.06378,1590096826443
Fix,GT,37.5718563,-122.3152255,,28.280338,0.1,138.96436,1590096827443
Fix,GT,37.571663,-122.3150143,,28.585022,0.1,138.86823,1590096828443
Fix,GT,37.5714675,-122.314801,,28.899815,0.1,139.0704,1590096829443
Fix,GT,37.571269,-122.3145865,,29.208542,0.1,139.34174,1590096830443
Fix,GT,37.5710684,-122.3143704,,29.407024,0.1,139.19492,1590096831443
Fix,GT,37.5708681,-122.3141526,,29.378998,0.1,138.8707,1590096832443
Fix,GT,37.5706689,-122.3139346,,29.229715,0.1,138.87872,1590096833443
Fix,GT,37.5704706,-122.3137188,,29.007812,0.1,139.14227,1590096834443
Fix,GT,37.5702736,-122.3135058,,28.680428,0.1,139.17328,1590096835443
Fix,GT,37.5700793,-122.3132949,,28.304996,0.1,138.89343,1590096836443
Fix,GT,37.5698881,-122.3130854,,28.027708,0.1,138.70242,1590096837443
Fix,GT,37.5696986,-122.3128773,,27.838463,0.1,138.8291,1590096838443
Fix,GT,37.5695096,-122.312672,,27.613487,0.1,139.3064,1590096839443
Fix,GT,37.5693213,-122.31247,,27.340403,0.1,139.41382,1590096840443
Fix,GT,37.5691355,-122.3122693,,27.063154,0.1,138.97235,1590096841443
Fix,GT,37.568952,-122.3120694,,26.860336,0.1,138.94238,1590096842443
Fix,GT,37.5687688,-122.3118714,,26.837418,0.1,139.38037,1590096843443
Fix,GT,37.5685839,-122.3116739,,27.0671,0.1,139.57584,1590096844443
Fix,GT,37.5683969,-122.3114742,,27.398968,0.1,139.46753,1590096845443
Fix,GT,37.5682086,-122.3112715,,27.618614,0.1,139.05933,1590096846443
Fix,GT,37.5680203,-122.3110664,,27.68689,0.1,138.77121,1590096847443
Fix,GT,37.5678323,-122.3108603,,27.713417,0.1,138.78015,1590096848443
Fix,GT,37.5676437,-122.3106538,,27.840824,0.1,138.85028,1590096849443
Fix,GT,37.5674537,-122.3104462,,28.065582,0.1,138.95056,1590096850443
Fix,GT,37.5672616,-122.3102373,,28.343922,0.1,139.0929,1590096851443
Fix,GT,37.5670671,-122.310027,,28.614239,0.1,139.16388,1590096852443
Fix,GT,37.5668709,-122.309815,,28.822811,0.1,139.18341,1590096853443
Fix,GT,37.5666735,-122.3096014,,29.009785,0.1,139.10968,1590096854443
Fix,GT,37.5664751,-122.3093859,,29.211967,0.1,139.01083,1590096855443
Fix,GT,37.5662759,-122.3091688,,29.276817,0.1,138.82312,1590096856443
Fix,GT,37.5660773,-122.3089519,,29.15244,0.1,139.07898,1590096857443
Fix,GT,37.5658779,-122.3087371,,29.195784,0.1,139.5805,1590096858443
Fix,GT,37.5656767,-122.3085219,,29.484642,0.1,139.32745,1590096859443
Fix,GT,37.5654742,-122.3083033,,29.80429,0.1,139.14532,1590096860443
Fix,GT,37.5652698,-122.3080817,,30.117111,0.1,139.12347,1590096861443
Fix,GT,37.5650634,-122.3078577,,30.426714,0.1,139.10016,1590096862443
Fix,GT,37.5648546,-122.3076314,,30.77755,0.1,139.10559,1590096863443
Fix,GT,37.5646436,-122.3074024,,31.117275,0.1,139.05453,1590096864443
Fix,GT,37.5644303,-122.3071711,,31.408703,0.1,139.08014,1590096865443
Fix,GT,37.5642156,-122.3069382,,31.491879,0.1,139.04132,1590096866443
Fix,GT,37.5640012,-122.3067052,,31.417324,0.1,139.01828,1590096867443
Fix,GT,37.5637873,-122.306473,,31.338875,0.1,139.13019,1590096868443
Fix,GT,37.5635742,-122.306242,,31.065754,0.1,139.02551,1590096869443
Fix,GT,37.5633633,-122.3060126,,30.903114,0.1,138.96191,1590096870443
Fix,GT,37.5631525,-122.3057833,,31.013882,0.1,139.0415,1590096871443
Fix,GT,37.5629414,-122.3055538,,30.912697,0.1,138.9791,1590096872443
Fix,GT,37.5627321,-122.3053259,,30.572601,0.1,138.932,1590096873443
Fix,GT,37.5625249,-122.3051,,30.367416,0.1,138.91107,1590096874443
Fix,GT,37.5623187,-122.3048747,,30.312634,0.1,138.85486,1590096875443
Fix,GT,37.562113,-122.3046498,,30.208206,0.1,138.85034,1590096876443
Fix,GT,37.561908,-122.3044267,,29.996384,0.1,139.0993,1590096877443
Fix,GT,37.5617041,-122.304206,,29.745995,0.1,139.19217,1590096878443
Fix,GT,37.5615022,-122.3039876,,29.390085,0.1,139.14545,1590096879443
Fix,GT,37.5613031,-122.3037719,,28.955967,0.1,139.11804,1590096880443
Fix,GT,37.5611069,-122.3035597,,28.521778,0.1,139.24481,1590096881443
Fix,GT,37.5609121,-122.3033505,,28.414276,0.1,139.56995,1590096882443
Fix,GT,37.5607155,-122.3031424,,28.677158,0.1,140.00775,1590096883443
Fix,GT,37.5605152,-122.3029348,,28.960773,0.1,140.67389,1590096884443
Fix,GT,37.5603112,-122.3027279,,29.2264,0.1,141.26898,1590096885443
Fix,GT,37.5601041,-122.3025213,,29.428783,0.1,141.60785,1590096886443
Fix,GT,37.5598951,-122.3023156,,29.505886,0.1,142.00525,1590096887443
Fix,GT,37.5596846,-122.3021122,,29.415615,0.1,142.66656,1590096888443
Fix,GT,37.559473,-122.3019121,,29.361057,0.1,143.26239,1590096889443
Fix,GT,37.5592597,-122.3017146,,29.451126,0.1,143.699,1590096890443
Fix,GT,37.5590449,-122.3015187,,29.443626,0.1,144.1438,1590096891443
Fix,GT,37.5588299,-122.3013251,,29.276844,0.1,144.44196,1590096892443
Fix,GT,37.5586158,-122.3011334,,29.105562,0.1,144.42432,1590096893443
Fix,GT,37.5584026,-122.3009431,,28.971245,0.1,144.6482,1590096894443
Fix,GT,37.5581892,-122.3007543,,28.983324,0.1,144.9317,1590096895443
Fix,GT,37.5579739,-122.3005662,,29.220814,0.1,145.23712,1590096896443
Fix,GT,37.5577563,-122.3003773,,29.498892,0.1,145.10727,1590096897443
Fix,GT,37.5575373,-122.300185,,29.784897,0.1,144.81104,1590096898443
Fix,GT,37.5573176,-122.2999903,,29.864044,0.1,144.63342,1590096899443
Fix,GT,37.5570985,-122.2997949,,29.781944,0.1,144.32584,1590096900443
Fix,GT,37.5568809,-122.2995978,,29.772465,0.1,143.84528,1590096901443
Fix,GT,37.5566648,-122.2993987,,29.69305,0.1,143.45773,1590096902443
Fix,GT,37.5564502,-122.2991994,,29.520355,0.1,143.40994,1590096903443
Fix,GT,37.5562374,-122.2990017,,29.261272,0.1,143.46466,1590096904443
Fix,GT,37.5560258,-122.2988059,,29.130821,0.1,143.50522,1590096905443
Fix,GT,37.5558148,-122.2986107,,29.072815,0.1,143.47931,1590096906443
Fix,GT,37.5556047,-122.2984161,,28.83218,0.1,143.55518,1590096907443
Fix,GT,37.5553967,-122.2982237,,28.486067,0.1,143.44775,1590096908443
Fix,GT,37.5551919,-122.2980332,,28.06998,0.1,143.29144,1590096909443
Fix,GT,37.5549905,-122.2978453,,27.608784,0.1,143.3175,1590096910443
Fix,GT,37.5547922,-122.2976606,,27.18309,0.1,143.28104,1590096911443
Fix,GT,37.5545976,-122.2974778,,26.777084,0.1,142.75461,1590096912443
Fix,GT,37.5544076,-122.297295,,26.361912,0.1,142.05801,1590096913443
Fix,GT,37.5542218,-122.2971128,,26.036865,0.1,141.86255,1590096914443
Fix,GT,37.5540371,-122.2969315,,26.057827,0.1,141.91919,1590096915443
Fix,GT,37.5538515,-122.2967497,,26.14539,0.1,142.05298,1590096916443
Fix,GT,37.5536659,-122.2965688,,25.956799,0.1,142.18402,1590096917443
Fix,GT,37.5534816,-122.29639,,25.771702,0.1,142.48346,1590096918443
Fix,GT,37.5532971,-122.2962137,,25.650873,0.1,142.86014,1590096919443
Fix,GT,37.5531124,-122.2960404,,25.473269,0.1,143.34558,1590096920443
Fix,GT,37.5529283,-122.295871,,25.200516,0.1,143.86935,1590096921443
Fix,GT,37.5527455,-122.2957049,,24.88979,0.1,144.05621,1590096922443
Fix,GT,37.5525652,-122.2955406,,24.56918,0.1,143.74847,1590096923443
Fix,GT,37.552388,-122.2953767,,24.272507,0.1,143.28519,1590096924443
Fix,GT,37.5522139,-122.2952134,,24.006063,0.1,143.16736,1590096925443
Fix,GT,37.5520415,-122.2950517,,23.74855,0.1,143.17914,1590096926443
Fix,GT,37.5518706,-122.294892,,23.49865,0.1,143.37402,1590096927443
Fix,GT,37.5517014,-122.2947344,,23.245491,0.1,143.25153,1590096928443
Fix,GT,37.5515342,-122.2945783,,23.003765,0.1,143.26599,1590096929443
Fix,GT,37.5513679,-122.2944242,,22.863544,0.1,143.67822,1590096930443
Fix,GT,37.5512018,-122.2942718,,22.795614,0.1,143.70258,1590096931443
Fix,GT,37.5510365,-122.2941194,,22.738235,0.1,143.50946,1590096932443
Fix,GT,37.550872,-122.2939664,,22.698376,0.1,143.39862,1590096933443
Fix,GT,37.5507083,-122.2938134,,22.573061,0.1,143.17938,1590096934443
Fix,GT,37.5505461,-122.2936607,,22.424213,0.1,142.93256,1590096935443
Fix,GT,37.5503851,-122.2935087,,22.320156,0.1,142.99084,1590096936443
Fix,GT,37.5502244,-122.2933576,,22.237411,0.1,143.12787,1590096937443
Fix,GT,37.5500634,-122.293207,,22.333172,0.1,143.31201,1590096938443
Fix,GT,37.5499007,-122.2930557,,22.635838,0.1,143.45032,1590096939443
Fix,GT,37.5497355,-122.2929025,,22.952711,0.1,143.42728,1590096940443
Fix,GT,37.5495682,-122.2927466,,23.26752,0.1,143.26917,1590096941443
Fix,GT,37.5493991,-122.2925879,,23.602604,0.1,143.07141,1590096942443
Fix,GT,37.549228,-122.292426,,23.953968,0.1,142.77908,1590096943443
Fix,GT,37.5490548,-122.2922608,,24.310753,0.1,142.66089,1590096944443
Fix,GT,37.5488789,-122.2920935,,24.680029,0.1,142.95111,1590096945443
Fix,GT,37.5486994,-122.2919251,,25.056725,0.1,143.3913,1590096946443
Fix,GT,37.5485164,-122.2917557,,25.397867,0.1,143.62625,1590096947443
Fix,GT,37.5483308,-122.2915844,,25.702599,0.1,143.60223,1590096948443
Fix,GT,37.5481432,-122.2914109,,25.997736,0.1,143.61172,1590096949443
Fix,GT,37.5479535,-122.2912356,,26.259623,0.1,143.57513,1590096950443
Fix,GT,37.5477624,-122.2910584,,26.474672,0.1,143.44049,1590096951443
Fix,GT,37.5475698,-122.2908795,,26.699574,0.1,143.41754,1590096952443
Fix,GT,37.5473756,-122.2906988,,26.946568,0.1,143.41687,1590096953443
Fix,GT,37.5471795,-122.2905165,,27.210367,0.1,143.44012,1590096954443
Fix,GT,37.5469815,-122.2903324,,27.470345,0.1,143.4332,1590096955443
Fix,GT,37.5467816,-122.2901465,,27.73119,0.1,143.51236,1590096956443
Fix,GT,37.5465796,-122.2899594,,27.96154,0.1,143.55646,1590096957443
Fix,GT,37.5463767,-122.2897714,,28.016794,0.1,143.47095,1590096958443
Fix,GT,37.5461739,-122.289583,,27.993584,0.1,143.41418,1590096959443
Fix,GT,37.5459709,-122.2893947,,27.95205,0.1,143.49585,1590096960443
Fix,GT,37.5457689,-122.2892072,,27.804502,0.1,143.42212,1590096961443
Fix,GT,37.5455674,-122.28902,,27.844246,0.1,143.49374,1590096962443
Fix,GT,37.545365,-122.2888328,,27.960266,0.1,143.65967,1590096963443
Fix,GT,37.5451616,-122.2886454,,28.04926,0.1,143.71173,1590096964443
Fix,GT,37.5449573,-122.2884572,,28.156841,0.1,143.70715,1590096965443
Fix,GT,37.5447526,-122.2882689,,28.1551,0.1,143.73663,1590096966443
Fix,GT,37.5445481,-122.2880808,,28.111923,0.1,143.68555,1590096967443
Fix,GT,37.5443444,-122.2878928,,27.95639,0.1,143.56982,1590096968443
Fix,GT,37.5441428,-122.287706,,27.663715,0.1,143.44409,1590096969443
Fix,GT,37.5439435,-122.2875206,,27.396519,0.1,143.3352,1590096970443
Fix,GT,37.5437461,-122.287336,,27.263802,0.1,143.21722,1590096971443
Fix,GT,37.5435491,-122.2871513,,27.333557,0.1,143.13477,1590096972443
Fix,GT,37.543351,-122.2869655,,27.555191,0.1,143.33725,1590096973443
Fix,GT,37.5431505,-122.2867793,,27.801203,0.1,143.58484,1590096974443
Fix,GT,37.5429481,-122.2865918,,28.03152,0.1,143.56311,1590096975443
Fix,GT,37.5427438,-122.286403,,28.251266,0.1,143.63599,1590096976443
Fix,GT,37.5425375,-122.286213,,28.523422,0.1,143.73718,1590096977443
Fix,GT,37.5423289,-122.2860211,,28.859682,0.1,143.69623,1590096978443
Fix,GT,37.5421181,-122.2858269,,29.17447,0.1,143.68744,1590096979443
Fix,GT,37.5419048,-122.285631,,29.420607,0.1,143.85269,1590096980443
Fix,GT,37.5416905,-122.2854349,,29.380516,0.1,143.94437,1590096981443
