MessageType,Provider,LatitudeDegrees,LongitudeDegrees,AltitudeMeters,SpeedMps,AccuracyMeters,BearingDegrees,UnixTimeMillis
Fix,GT,37.4163139,-122.080465,,0.00062405894,0.1,356.3741,1591304310441
Fix,GT,37.4163139,-122.080465,,0.0014142136,0.1,356.37418,1591304311441
Fix,GT,37.4163139,-122.080465,,0.0020382726,0.1,356.37393,1591304312441
Fix,GT,37.4163139,-122.080465,,0.002567033,0.1,356.37387,1591304313441
Fix,GT,37.4163139,-122.080465,,0.002236068,0.1,356.37402,1591304314441
Fix,GT,37.4163139,-122.080465,,0.002573173,0.1,356.37384,1591304315441
Fix,GT,37.4163139,-122.080465,,0.0023002299,0.1,356.37344,1591304316441
Fix,GT,37.4163139,-122.080465,,0.0017768785,0.1,356.3734,1591304317441
Fix,GT,37.4163139,-122.080465,,0.0016906206,0.1,356.37314,1591304318441
Fix,GT,37.4163121,-122.0804661,,0.0015454475,0.1,356.37302,1591304319441
Fix,GT,37.4163097,-122.0804675,,0.0016906206,0.1,356.37308,1591304320441
Fix,GT,37.4163096,-122.0804676,,0.002149768,0.1,356.3728,1591304321441
Fix,GT,37.4163096,-122.0804676,,0.0038339356,0.1,356.3723,1591304322441
Fix,GT,37.4163095,-122.0804676,,0.0054239715,0.1,356.3714,1591304323441
Fix,GT,37.41631,-122.0804676,,0.17781419,0.1,356.36096,1591304324441
Fix,GT,37.4163155,-122.0804681,,1.1711271,0.1,355.35074,1591304325441
Fix,GT,37.4163334,-122.08047,,2.9288166,0.1,353.57687,1591304326441
Fix,GT,37.4163669,-122.0804731,,4.382964,0.1,352.94128,1591304327441
Fix,GT,37.4164091,-122.080476,,4.6283455,0.1,353.93488,1591304328441
Fix,GT,37.4164467,-122.0804761,,3.502294,0.1,357.69775,1591304329441
Fix,GT,37.4164739,-122.0804711,,2.6157467,0.1,4.7524414,1591304330441
Fix,GT,37.416497,-122.0804598,,2.7822533,0.1,16.168854,1591304331441
Fix,GT,37.4165187,-122.0804361,,3.455336,0.1,34.63617,1591304332441
Fix,GT,37.416535,-122.0803943,,4.4990263,0.1,59.39569,1591304333441
Fix,GT,37.4165398,-122.0803357,,5.693255,0.1,81.05328,1591304334441
Fix,GT,37.4165371,-122.0802639,,6.938155,0.1,89.8587,1591304335441
Fix,GT,37.4165332,-122.0801793,,8.06908,0.1,90.40677,1591304336441
Fix,GT,37.4165284,-122.0800834,,8.891514,0.1,90.76065,1591304337441
Fix,GT,37.4165224,-122.0799796,,9.511685,0.1,91.29291,1591304338441
Fix,GT,37.4165152,-122.0798697,,9.970049,0.1,91.71695,1591304339441
Fix,GT,37.4165074,-122.0797554,,10.321791,0.1,91.86624,1591304340441
Fix,GT,37.4164994,-122.0796372,,10.67635,0.1,91.7052,1591304341441
Fix,GT,37.4164917,-122.0795151,,11.026449,0.1,91.40994,1591304342441
Fix,GT,37.4164842,-122.0793888,,11.3847,0.1,91.095,1591304343441
Fix,GT,37.4164769,-122.0792592,,11.477886,0.1,90.93378,1591304344441
Fix,GT,37.4164691,-122.0791338,,10.641319,0.1,91.793884,1591304345441
Fix,GT,37.4164607,-122.0790229,,9.097748,0.1,92.55188,1591304346441
Fix,GT,37.4164539,-122.0789288,,7.6768713,0.1,91.707306,1591304347441
Fix,GT,37.4164494,-122.0788493,,6.5395145,0.1,90.87897,1591304348441
Fix,GT,37.4164461,-122.0787801,,5.841389,0.1,90.260376,1591304349441
Fix,GT,37.4164434,-122.0787161,,5.5328226,0.1,90.12848,1591304350441
Fix,GT,37.4164401,-122.0786547,,5.3505917,0.1,90.96222,1591304351441
Fix,GT,37.416436,-122.0785953,,5.1774282,0.1,92.17288,1591304352441
Fix,GT,37.4164312,-122.0785396,,4.6436357,0.1,93.223236,1591304353441
Fix,GT,37.4164267,-122.0784934,,3.4858575,0.1,94.065796,1591304354441
Fix,GT,37.4164233,-122.078462,,2.126986,0.1,94.634674,1591304355441
Fix,GT,37.4164215,-122.0784454,,0.88206315,0.1,94.93701,1591304356441
Fix,GT,37.416421,-122.07844,,0.21512537,0.1,95.03323,1591304357441
Fix,GT,37.4164209,-122.0784379,,0.25870222,0.1,95.07178,1591304358441
Fix,GT,37.4164204,-122.0784318,,0.9931934,0.1,94.93808,1591304359441
Fix,GT,37.4164187,-122.0784127,,2.6067948,0.1,94.25418,1591304360441
Fix,GT,37.4164155,-122.0783736,,4.224971,0.1,93.49539,1591304361441
Fix,GT,37.4164096,-122.0783209,,4.933457,0.1,95.61542,1591304362441
Fix,GT,37.4163977,-122.0782673,,4.8200216,0.1,104.23126,1591304363441
Fix,GT,37.4163759,-122.0782216,,4.54145,0.1,119.882904,1591304364441
Fix,GT,37.4163419,-122.0781897,,4.7600985,0.1,142.11319,1591304365441
Fix,GT,37.416296,-122.0781783,,5.4561014,0.1,167.62708,1591304366441
Fix,GT,37.4162421,-122.0781835,,6.348545,0.1,181.77776,1591304367441
Fix,GT,37.4161812,-122.0781897,,7.158193,0.1,180.48619,1591304368441
Fix,GT,37.4161146,-122.0781923,,7.614666,0.1,178.29803,1591304369441
Fix,GT,37.4160464,-122.0781948,,7.3841314,0.1,178.74463,1591304370441
Fix,GT,37.4159836,-122.0781984,,6.438408,0.1,179.69,1591304371441
Fix,GT,37.4159316,-122.0782023,,5.054715,0.1,180.39252,1591304372441
Fix,GT,37.4158924,-122.0782056,,3.7281215,0.1,180.69579,1591304373441
Fix,GT,37.4158629,-122.0782079,,2.9277372,0.1,180.44156,1591304374441
Fix,GT,37.4158396,-122.0782095,,2.2345052,0.1,180.0669,1591304375441
Fix,GT,37.4158232,-122.0782105,,1.3885496,0.1,179.84265,1591304376441
Fix,GT,37.4158143,-122.078211,,0.68198127,0.1,179.7044,1591304377441
Fix,GT,37.4158097,-122.0782113,,0.47931415,0.1,179.6344,1591304378441
Fix,GT,37.4158038,-122.0782117,,1.0146629,0.1,179.5393,1591304379441
Fix,GT,37.4157893,-122.0782125,,2.3968194,0.1,179.29138,1591304380441
Fix,GT,37.4157598,-122.0782138,,4.0921354,0.1,178.79889,1591304381441
Fix,GT,37.4157163,-122.0782149,,5.5612144,0.1,177.9693,1591304382441
Fix,GT,37.4156599,-122.0782151,,6.9786386,0.1,176.7752,1591304383441
Fix,GT,37.4155905,-122.0782141,,8.433029,0.1,176.19843,1591304384441
Fix,GT,37.415508,-122.0782138,,9.822348,0.1,176.7309,1591304385441
Fix,GT,37.4154139,-122.0782148,,11.044747,0.1,177.26605,1591304386441
Fix,GT,37.4153096,-122.0782159,,12.091042,0.1,177.34113,1591304387441
Fix,GT,37.4151962,-122.078217,,13.065107,0.1,177.18567,1591304388441
Fix,GT,37.4150746,-122.0782178,,13.924285,0.1,177.07782,1591304389441
Fix,GT,37.4149461,-122.0782182,,14.569183,0.1,176.94348,1591304390441
Fix,GT,37.4148134,-122.0782186,,14.795797,0.1,176.98761,1591304391441
Fix,GT,37.4146806,-122.0782204,,14.639275,0.1,177.67737,1591304392441
Fix,GT,37.41455,-122.0782249,,14.344452,0.1,178.92627,1591304393441
Fix,GT,37.4144226,-122.078233,,13.980609,0.1,180.20453,1591304394441
Fix,GT,37.4142985,-122.0782444,,13.621466,0.1,181.5514,1591304395441
Fix,GT,37.4141778,-122.0782599,,13.296001,0.1,183.41168,1591304396441
Fix,GT,37.4140605,-122.07828,,12.966064,0.1,185.22203,1591304397441
Fix,GT,37.4139466,-122.0783019,,12.598864,0.1,185.57779,1591304398441
Fix,GT,37.4138359,-122.0783223,,12.271933,0.1,184.8999,1591304399441
Fix,GT,37.4137267,-122.078341,,12.225449,0.1,184.4953,1591304400441
Fix,GT,37.4136163,-122.0783596,,12.5049515,0.1,184.46964,1591304401441
Fix,GT,37.4135035,-122.078379,,12.701729,0.1,185.03944,1591304402441
Fix,GT,37.4133908,-122.0784021,,12.548613,0.1,187.05666,1591304403441
Fix,GT,37.4132819,-122.0784333,,12.200352,0.1,191.53288,1591304404441
Fix,GT,37.4131789,-122.0784778,,11.9775,0.1,198.68742,1591304405441
Fix,GT,37.4130824,-122.0785404,,12.178303,0.1,207.3579,1591304406441
Fix,GT,37.4129931,-122.0786262,,12.844543,0.1,218.4493,1591304407441
Fix,GT,37.4129172,-122.0787407,,13.506507,0.1,232.56157,1591304408441
Fix,GT,37.412865,-122.0788818,,14.081269,0.1,247.79657,1591304409441
Fix,GT,37.4128419,-122.0790414,,14.651252,0.1,262.03506,1591304410441
Fix,GT,37.4128466,-122.0792102,,15.221209,0.1,272.7798,1591304411441
Fix,GT,37.4128723,-122.0793827,,15.852553,0.1,280.11008,1591304412441
Fix,GT,37.4129142,-122.0795578,,16.524197,0.1,285.71042,1591304413441
Fix,GT,37.4129695,-122.0797355,,17.245714,0.1,289.6895,1591304414441
Fix,GT,37.4130362,-122.0799164,,18.012695,0.1,292.88116,1591304415441
Fix,GT,37.4131125,-122.0801012,,18.807396,0.1,295.05548,1591304416441
Fix,GT,37.4131966,-122.0802909,,19.565912,0.1,296.3026,1591304417441
Fix,GT,37.4132862,-122.080486,,20.24192,0.1,297.09702,1591304418441
Fix,GT,37.413381,-122.0806858,,20.86382,0.1,297.91562,1591304419441
Fix,GT,37.4134811,-122.0808897,,21.49551,0.1,298.83572,1591304420441
Fix,GT,37.4135871,-122.0810972,,22.065916,0.1,300.24988,1591304421441
Fix,GT,37.4137019,-122.0813041,,22.52489,0.1,303.28326,1591304422441
Fix,GT,37.4138305,-122.0815046,,22.979744,0.1,307.4078,1591304423441
Fix,GT,37.4139705,-122.0816983,,23.246578,0.1,309.92633,1591304424441
Fix,GT,37.4141143,-122.0818894,,23.219662,0.1,310.27954,1591304425441
Fix,GT,37.4142558,-122.0820813,,23.020329,0.1,308.8968,1591304426441
Fix,GT,37.4143889,-122.0822776,,22.693764,0.1,305.6093,1591304427441
Fix,GT,37.4145101,-122.0824822,,22.597393,0.1,301.54907,1591304428441
Fix,GT,37.4146194,-122.0826979,,22.757427,0.1,297.50317,1591304429441
Fix,GT,37.414719,-122.0829235,,22.966328,0.1,294.6738,1591304430441
Fix,GT,37.4148143,-122.0831558,,23.340992,0.1,293.7103,1591304431441
Fix,GT,37.4149123,-122.083393,,23.941662,0.1,294.75555,1591304432441
Fix,GT,37.4150188,-122.0836315,,24.396986,0.1,297.31964,1591304433441
Fix,GT,37.4151354,-122.0838665,,24.515518,0.1,299.98495,1591304434441
Fix,GT,37.4152602,-122.0840949,,24.462069,0.1,302.4854,1591304435441
Fix,GT,37.4153922,-122.0843158,,24.40979,0.1,304.7367,1591304436441
Fix,GT,37.4155305,-122.0845298,,24.328325,0.1,306.59317,1591304437441
Fix,GT,37.4156718,-122.0847385,,24.120687,0.1,307.56094,1591304438441
Fix,GT,37.4158124,-122.0849444,,23.880432,0.1,307.18402,1591304439441
Fix,GT,37.4159512,-122.08515,,23.82545,0.1,306.95856,1591304440441
Fix,GT,37.4160899,-122.0853563,,23.974472,0.1,306.95218,1591304441441
Fix,GT,37.4162293,-122.0855645,,24.143957,0.1,306.61792,1591304442441
Fix,GT,37.416368,-122.0857761,,24.335241,0.1,306.03693,1591304443441
Fix,GT,37.4165082,-122.0859891,,24.553188,0.1,306.9404,1591304444441
Fix,GT,37.4166541,-122.0861995,,24.797432,0.1,308.56107,1591304445441
Fix,GT,37.4168048,-122.0864082,,25.027824,0.1,309.11682,1591304446441
Fix,GT,37.4169573,-122.0866179,,25.198128,0.1,309.1319,1591304447441
Fix,GT,37.4171102,-122.0868292,,25.322168,0.1,308.9084,1591304448441
Fix,GT,37.4172632,-122.0870421,,25.432297,0.1,308.7691,1591304449441
Fix,GT,37.4174167,-122.0872563,,25.553398,0.1,308.81705,1591304450441
Fix,GT,37.4175713,-122.0874716,,25.749584,0.1,308.73007,1591304451441
Fix,GT,37.4177261,-122.0876904,,26.043957,0.1,307.92413,1591304452441
Fix,GT,37.4178794,-122.0879152,,26.32956,0.1,307.1842,1591304453441
Fix,GT,37.418034,-122.0881428,,26.592354,0.1,307.54623,1591304454441
Fix,GT,37.4181926,-122.0883709,,26.992207,0.1,308.08652,1591304455441
Fix,GT,37.4183549,-122.0886024,,27.641403,0.1,308.06094,1591304456441
Fix,GT,37.4185211,-122.0888408,,28.42043,0.1,307.8366,1591304457441
Fix,GT,37.4186917,-122.0890864,,29.221422,0.1,307.97882,1591304458441
Fix,GT,37.4188685,-122.0893369,,29.975374,0.1,308.71176,1591304459441
Fix,GT,37.4190523,-122.0895905,,30.67398,0.1,309.4561,1591304460441
Fix,GT,37.419242,-122.0898478,,31.349583,0.1,309.58847,1591304461441
Fix,GT,37.4194351,-122.0901113,,32.023376,0.1,309.16846,1591304462441
Fix,GT,37.4196306,-122.0903822,,32.652924,0.1,308.86115,1591304463441
Fix,GT,37.4198292,-122.0906581,,33.059547,0.1,308.9836,1591304464441
Fix,GT,37.4200297,-122.0909346,,33.038124,0.1,309.12158,1591304465441
Fix,GT,37.420229,-122.0912093,,32.68259,0.1,308.99545,1591304466441
Fix,GT,37.4204256,-122.0914807,,32.220287,0.1,309.11978,1591304467441
Fix,GT,37.4206197,-122.0917473,,31.691555,0.1,309.1469,1591304468441
Fix,GT,37.42081,-122.0920101,,31.158121,0.1,308.89618,1591304469441
Fix,GT,37.4209965,-122.0922692,,30.598965,0.1,308.93472,1591304470441
Fix,GT,37.4211797,-122.0925221,,29.864939,0.1,309.35718,1591304471441
Fix,GT,37.4213597,-122.0927668,,29.071808,0.1,309.54724,1591304472441
Fix,GT,37.4215353,-122.0930056,,28.47284,0.1,309.37796,1591304473441
Fix,GT,37.421707,-122.0932413,,28.08245,0.1,309.07092,1591304474441
Fix,GT,37.4218764,-122.0934753,,27.92767,0.1,309.0274,1591304475441
Fix,GT,37.4220457,-122.0937083,,27.877026,0.1,309.1411,1591304476441
Fix,GT,37.4222145,-122.093941,,27.792255,0.1,308.92734,1591304477441
Fix,GT,37.4223819,-122.094174,,27.755701,0.1,308.77292,1591304478441
Fix,GT,37.4225497,-122.094407,,27.799458,0.1,308.94092,1591304479441
Fix,GT,37.4227182,-122.0946396,,27.822414,0.1,309.17484,1591304480441
Fix,GT,37.4228874,-122.0948714,,27.801981,0.1,309.34863,1591304481441
Fix,GT,37.4230566,-122.0951025,,27.724255,0.1,309.27087,1591304482441
Fix,GT,37.4232248,-122.0953332,,27.604404,0.1,309.12042,1591304483441
Fix,GT,37.4233917,-122.0955635,,27.48671,0.1,308.99548,1591304484441
Fix,GT,37.4235576,-122.0957933,,27.387896,0.1,308.93082,1591304485441
Fix,GT,37.423723,-122.0960223,,27.3084,0.1,309.04117,1591304486441
Fix,GT,37.4238885,-122.09625,,27.228077,0.1,309.30066,1591304487441
Fix,GT,37.4240543,-122.0964759,,27.097277,0.1,309.51678,1591304488441
Fix,GT,37.4242196,-122.0966994,,26.843746,0.1,309.774,1591304489441
Fix,GT,37.4243843,-122.0969188,,26.48341,0.1,310.46548,1591304490441
Fix,GT,37.4245494,-122.0971319,,26.084324,0.1,311.44427,1591304491441
Fix,GT,37.4247144,-122.0973387,,25.712688,0.1,312.19345,1591304492441
Fix,GT,37.424879,-122.0975407,,25.434565,0.1,312.5947,1591304493441
Fix,GT,37.4250433,-122.0977398,,25.270386,0.1,312.9863,1591304494441
Fix,GT,37.4252081,-122.0979356,,25.120724,0.1,313.641,1591304495441
Fix,GT,37.4253738,-122.0981277,,24.96596,0.1,314.42606,1591304496441
Fix,GT,37.4255404,-122.0983164,,24.856308,0.1,314.95624,1591304497441
Fix,GT,37.4257076,-122.0985025,,24.781067,0.1,315.41516,1591304498441
Fix,GT,37.4258755,-122.0986867,,24.714447,0.1,315.89557,1591304499441
Fix,GT,37.4260443,-122.0988682,,24.644184,0.1,316.57928,1591304500441
Fix,GT,37.4262147,-122.0990463,,24.609673,0.1,317.51904,1591304501441
Fix,GT,37.426387,-122.099221,,24.579786,0.1,318.1286,1591304502441
Fix,GT,37.4265597,-122.0993943,,24.483189,0.1,318.09015,1591304503441
Fix,GT,37.4267307,-122.0995678,,24.320131,0.1,317.6838,1591304504441
Fix,GT,37.4268989,-122.0997417,,24.100891,0.1,316.9654,1591304505441
Fix,GT,37.4270642,-122.0999161,,23.832455,0.1,316.56433,1591304506441
Fix,GT,37.4272272,-122.1000891,,23.581188,0.1,316.54007,1591304507441
Fix,GT,37.4273882,-122.100261,,23.433353,0.1,316.26114,1591304508441
Fix,GT,37.4275484,-122.1004339,,23.508013,0.1,316.05347,1591304509441
Fix,GT,37.4277098,-122.1006079,,23.746174,0.1,316.2657,1591304510441
Fix,GT,37.4278739,-122.1007823,,23.990364,0.1,316.74625,1591304511441
Fix,GT,37.4280404,-122.1009573,,24.2359,0.1,316.95682,1591304512441
Fix,GT,37.4282087,-122.1011338,,24.442492,0.1,316.85175,1591304513441
Fix,GT,37.4283779,-122.1013119,,24.566244,0.1,316.75598,1591304514441
Fix,GT,37.4285476,-122.101491,,24.701567,0.1,316.78162,1591304515441
Fix,GT,37.4287187,-122.101671,,24.878374,0.1,316.94406,1591304516441
Fix,GT,37.4288915,-122.1018516,,25.03461,0.1,317.04736,1591304517441
Fix,GT,37.4290651,-122.1020335,,25.212124,0.1,316.82666,1591304518441
Fix,GT,37.4292393,-122.102218,,25.405766,0.1,316.56354,1591304519441
Fix,GT,37.4294148,-122.1024042,,25.61794,0.1,316.7481,1591304520441
Fix,GT,37.4295926,-122.1025908,,25.82927,0.1,317.04184,1591304521441
Fix,GT,37.4297723,-122.1027782,,26.030006,0.1,317.0744,1591304522441
Fix,GT,37.429953,-122.1029672,,26.23617,0.1,316.9446,1591304523441
Fix,GT,37.430135,-122.1031584,,26.451468,0.1,316.79608,1591304524441
Fix,GT,37.4303183,-122.1033514,,26.665915,0.1,316.83194,1591304525441
Fix,GT,37.4305032,-122.1035453,,26.852234,0.1,317.0252,1591304526441
Fix,GT,37.4306898,-122.1037399,,26.989246,0.1,317.09027,1591304527441
Fix,GT,37.4308768,-122.1039353,,27.054897,0.1,316.96786,1591304528441
Fix,GT,37.4310636,-122.1041316,,27.03396,0.1,316.7715,1591304529441
Fix,GT,37.4312495,-122.1043283,,26.94767,0.1,316.5486,1591304530441
Fix,GT,37.4314342,-122.1045247,,26.791462,0.1,316.54865,1591304531441
Fix,GT,37.4316182,-122.1047189,,26.597305,0.1,316.92535,1591304532441
Fix,GT,37.4318019,-122.1049105,,26.439203,0.1,317.04694,1591304533441
Fix,GT,37.4319844,-122.1051015,,26.352297,0.1,316.91586,1591304534441
Fix,GT,37.4321668,-122.1052924,,26.384895,0.1,317.07047,1591304535441
Fix,GT,37.4323499,-122.1054831,,26.485985,0.1,317.1457,1591304536441
Fix,GT,37.432534,-122.1056748,,26.616142,0.1,317.09625,1591304537441
Fix,GT,37.432719,-122.1058677,,26.798576,0.1,317.0664,1591304538441
Fix,GT,37.4329052,-122.1060621,,26.982658,0.1,317.01205,1591304539441
Fix,GT,37.4330921,-122.1062577,,27.01818,0.1,316.8192,1591304540441
Fix,GT,37.4332779,-122.1064532,,26.778809,0.1,316.80884,1591304541441
Fix,GT,37.4334616,-122.1066465,,26.414133,0.1,316.78824,1591304542441
Fix,GT,37.4336422,-122.1068376,,26.01028,0.1,316.4872,1591304543441
Fix,GT,37.4338193,-122.1070261,,25.548086,0.1,316.56113,1591304544441
Fix,GT,37.4339938,-122.1072107,,25.126572,0.1,316.75375,1591304545441
Fix,GT,37.4341663,-122.1073921,,24.872532,0.1,316.90494,1591304546441
Fix,GT,37.4343381,-122.1075722,,24.887249,0.1,316.9044,1591304547441
Fix,GT,37.4345109,-122.1077535,,25.11699,0.1,316.8626,1591304548441
Fix,GT,37.4346853,-122.1079366,,25.357662,0.1,316.92676,1591304549441
Fix,GT,37.4348612,-122.1081212,,25.538376,0.1,316.90118,1591304550441
Fix,GT,37.4350384,-122.1083066,,25.66922,0.1,317.09064,1591304551441
Fix,GT,37.435217,-122.1084925,,25.845371,0.1,317.11597,1591304552441
Fix,GT,37.4353966,-122.1086802,,26.080753,0.1,316.94464,1591304553441
Fix,GT,37.4355779,-122.1088698,,26.294327,0.1,317.07523,1591304554441
Fix,GT,37.4357607,-122.1090602,,26.417862,0.1,317.09137,1591304555441
Fix,GT,37.4359435,-122.1092514,,26.387531,0.1,316.83005,1591304556441
Fix,GT,37.4361251,-122.1094427,,26.242529,0.1,316.7478,1591304557441
Fix,GT,37.4363058,-122.1096326,,26.088518,0.1,316.95026,1591304558441
Fix,GT,37.4364857,-122.1098211,,25.936546,0.1,316.83325,1591304559441
Fix,GT,37.436664,-122.110009,,25.767078,0.1,316.64795,1591304560441
Fix,GT,37.4368411,-122.1101959,,25.629032,0.1,316.81824,1591304561441
Fix,GT,37.4370181,-122.1103816,,25.611343,0.1,316.9838,1591304562441
Fix,GT,37.4371958,-122.110567,,25.705143,0.1,317.08405,1591304563441
Fix,GT,37.4373741,-122.1107534,,25.842262,0.1,316.97968,1591304564441
Fix,GT,37.4375532,-122.1109414,,25.99084,0.1,316.85403,1591304565441
Fix,GT,37.4377333,-122.1111304,,26.130728,0.1,316.9763,1591304566441
Fix,GT,37.4379147,-122.1113198,,26.225765,0.1,317.04364,1591304567441
Fix,GT,37.438096,-122.1115097,,26.21249,0.1,316.87192,1591304568441
Fix,GT,37.4382765,-122.1116994,,26.071371,0.1,316.79486,1591304569441
Fix,GT,37.4384561,-122.1118879,,25.913841,0.1,316.90295,1591304570441
Fix,GT,37.4386347,-122.1120752,,25.75803,0.1,316.87503,1591304571441
Fix,GT,37.4388121,-122.1122615,,25.610573,0.1,316.8762,1591304572441
Fix,GT,37.4389886,-122.1124465,,25.472815,0.1,316.94873,1591304573441
Fix,GT,37.4391646,-122.1126306,,25.406178,0.1,316.9961,1591304574441
Fix,GT,37.4393405,-122.1128145,,25.427507,0.1,316.9782,1591304575441
Fix,GT,37.4395166,-122.1129987,,25.48409,0.1,316.99072,1591304576441
Fix,GT,37.4396933,-122.1131835,,25.599634,0.1,316.93414,1591304577441
Fix,GT,37.4398708,-122.1133699,,25.78408,0.1,316.74823,1591304578441
Fix,GT,37.4400492,-122.1135587,,26.036062,0.1,316.57605,1591304579441
Fix,GT,37.4402292,-122.1137497,,26.29927,0.1,316.66678,1591304580441
Fix,GT,37.4404114,-122.1139418,,26.515259,0.1,316.89642,1591304581441
Fix,GT,37.4405954,-122.1141347,,26.702377,0.1,316.9207,1591304582441
Fix,GT,37.4407808,-122.1143286,,26.873154,0.1,317.05527,1591304583441
Fix,GT,37.4409676,-122.114523,,27.016193,0.1,317.1757,1591304584441
Fix,GT,37.441155,-122.1147185,,27.081285,0.1,316.92224,1591304585441
Fix,GT,37.4413418,-122.1149147,,26.959835,0.1,316.73865,1591304586441
Fix,GT,37.4415265,-122.1151093,,26.540112,0.1,316.74597,1591304587441
Fix,GT,37.4417076,-122.1152999,,25.942856,0.1,316.80682,1591304588441
Fix,GT,37.4418849,-122.1154863,,25.437765,0.1,316.75854,1591304589441
Fix,GT,37.442059,-122.1156705,,25.22187,0.1,316.43784,1591304590441
Fix,GT,37.4422313,-122.1158572,,25.398132,0.1,315.35834,1591304591441
Fix,GT,37.4424028,-122.1160505,,25.80126,0.1,314.5379,1591304592441
Fix,GT,37.442577,-122.1162475,,26.273727,0.1,315.09503,1591304593441
Fix,GT,37.4427566,-122.1164453,,26.778517,0.1,315.82007,1591304594441
Fix,GT,37.4429411,-122.1166448,,27.263222,0.1,316.18176,1591304595441
Fix,GT,37.4431293,-122.1168465,,27.70745,0.1,316.36478,1591304596441
Fix,GT,37.443321,-122.117051,,28.124073,0.1,316.47546,1591304597441
Fix,GT,37.4435157,-122.1172581,,28.52496,0.1,316.58667,1591304598441
Fix,GT,37.4437134,-122.117467,,28.855614,0.1,316.80884,1591304599441
Fix,GT,37.4439136,-122.1176772,,29.076601,0.1,316.97433,1591304600441
Fix,GT,37.4441154,-122.1178882,,29.214367,0.1,317.06366,1591304601441
Fix,GT,37.4443183,-122.1180996,,29.332241,0.1,317.10068,1591304602441
Fix,GT,37.4445218,-122.1183119,,29.44166,0.1,316.99744,1591304603441
Fix,GT,37.4447252,-122.1185249,,29.358269,0.1,316.83508,1591304604441
Fix,GT,37.4449268,-122.1187371,,29.028809,0.1,316.7057,1591304605441
Fix,GT,37.4451254,-122.118947,,28.598587,0.1,316.67154,1591304606441
Fix,GT,37.4453211,-122.1191535,,28.160501,0.1,316.82104,1591304607441
Fix,GT,37.4455143,-122.1193559,,27.745422,0.1,317.03082,1591304608441
Fix,GT,37.4457057,-122.119555,,27.436699,0.1,317.11057,1591304609441
Fix,GT,37.4458951,-122.1197526,,27.264233,0.1,316.96613,1591304610441
Fix,GT,37.4460828,-122.1199501,,27.124504,0.1,316.76007,1591304611441
Fix,GT,37.4462697,-122.1201471,,27.067497,0.1,316.8824,1591304612441
Fix,GT,37.4464572,-122.1203433,,27.15623,0.1,317.03976,1591304613441
Fix,GT,37.4466453,-122.1205405,,27.283218,0.1,316.8799,1591304614441
Fix,GT,37.446834,-122.120739,,27.391563,0.1,316.8153,1591304615441
Fix,GT,37.4470237,-122.1209382,,27.523586,0.1,316.91235,1591304616441
Fix,GT,37.4472146,-122.1211382,,27.678648,0.1,316.96896,1591304617441
Fix,GT,37.4474067,-122.121339,,27.839455,0.1,317.03223,1591304618441
Fix,GT,37.4475998,-122.1215413,,28.019722,0.1,316.87323,1591304619441
Fix,GT,37.4477937,-122.1217459,,28.207977,0.1,316.70966,1591304620441
Fix,GT,37.4479887,-122.1219515,,28.359932,0.1,316.92426,1591304621441
Fix,GT,37.4481852,-122.1221573,,28.487913,0.1,317.02008,1591304622441
Fix,GT,37.4483825,-122.1223641,,28.621475,0.1,316.90485,1591304623441
Fix,GT,37.4485807,-122.1225723,,28.782207,0.1,316.8027,1591304624441
Fix,GT,37.4487797,-122.1227822,,28.952991,0.1,316.79025,1591304625441
Fix,GT,37.4489801,-122.1229927,,29.087673,0.1,317.02252,1591304626441
Fix,GT,37.4491822,-122.1232031,,29.208563,0.1,317.0982,1591304627441
Fix,GT,37.4493843,-122.1234149,,29.307713,0.1,316.73245,1591304628441
Fix,GT,37.4495862,-122.1236287,,29.392052,0.1,316.54764,1591304629441
Fix,GT,37.4497887,-122.1238435,,29.501286,0.1,316.7116,1591304630441
Fix,GT,37.4499925,-122.1240585,,29.628098,0.1,316.74203,1591304631441
Fix,GT,37.4501969,-122.1242748,,29.721724,0.1,316.57346,1591304632441
Fix,GT,37.450401,-122.1244925,,29.76379,0.1,316.4057,1591304633441
Fix,GT,37.4506048,-122.1247117,,29.825348,0.1,315.94748,1591304634441
Fix,GT,37.4508068,-122.1249344,,29.830475,0.1,315.07516,1591304635441
Fix,GT,37.4510054,-122.1251601,,29.618917,0.1,314.09753,1591304636441
Fix,GT,37.4511985,-122.1253882,,29.282932,0.1,312.81073,1591304637441
Fix,GT,37.451385,-122.1256199,,29.049694,0.1,311.3467,1591304638441
Fix,GT,37.4515665,-122.1258559,,29.065207,0.1,310.2762,1591304639441
Fix,GT,37.4517454,-122.1260969,,29.23492,0.1,309.26978,1591304640441
Fix,GT,37.4519216,-122.1263437,,29.40221,0.1,308.0628,1591304641441
Fix,GT,37.452095,-122.1265959,,29.535141,0.1,307.05917,1591304642441
Fix,GT,37.4522653,-122.126853,,29.632128,0.1,305.9491,1591304643441
Fix,GT,37.4524318,-122.1271149,,29.678478,0.1,304.65298,1591304644441
Fix,GT,37.4525942,-122.127381,,29.640593,0.1,303.81647,1591304645441
Fix,GT,37.4527542,-122.1276482,,29.494377,0.1,303.51547,1591304646441
Fix,GT,37.4529122,-122.1279147,,29.28252,0.1,303.20398,1591304647441
Fix,GT,37.4530687,-122.1281802,,29.113712,0.1,303.23676,1591304648441
Fix,GT,37.4532246,-122.1284438,,28.977585,0.1,303.3428,1591304649441
Fix,GT,37.4533796,-122.1287065,,28.876764,0.1,303.12805,1591304650441
Fix,GT,37.4535335,-122.128969,,28.808079,0.1,303.07928,1591304651441
Fix,GT,37.453687,-122.1292313,,28.760273,0.1,302.9531,1591304652441
Fix,GT,37.4538398,-122.1294937,,28.753307,0.1,302.86615,1591304653441
Fix,GT,37.4539929,-122.1297561,,28.816452,0.1,303.0276,1591304654441
Fix,GT,37.4541469,-122.1300191,,28.938831,0.1,303.0807,1591304655441
Fix,GT,37.4543017,-122.1302835,,29.10156,0.1,303.0108,1591304656441
Fix,GT,37.4544572,-122.1305495,,29.280281,0.1,303.03305,1591304657441
Fix,GT,37.4546137,-122.1308174,,29.4663,0.1,302.98633,1591304658441
Fix,GT,37.4547709,-122.131087,,29.647017,0.1,302.8928,1591304659441
Fix,GT,37.4549291,-122.131358,,29.781845,0.1,303.00067,1591304660441
Fix,GT,37.4550884,-122.1316296,,29.903978,0.1,303.2033,1591304661441
Fix,GT,37.455249,-122.131902,,30.037067,0.1,303.25665,1591304662441
Fix,GT,37.4554102,-122.1321757,,30.18142,0.1,303.17148,1591304663441
Fix,GT,37.455572,-122.132451,,30.34692,0.1,303.13522,1591304664441
Fix,GT,37.4557346,-122.132728,,30.522076,0.1,303.12766,1591304665441
Fix,GT,37.4558983,-122.1330063,,30.676506,0.1,303.25046,1591304666441
Fix,GT,37.4560632,-122.1332854,,30.788017,0.1,303.38943,1591304667441
Fix,GT,37.456229,-122.1335652,,30.890175,0.1,303.4218,1591304668441
Fix,GT,37.4563956,-122.1338457,,31.010786,0.1,303.4198,1591304669441
Fix,GT,37.4565625,-122.1341275,,31.108614,0.1,303.25653,1591304670441
Fix,GT,37.4567292,-122.1344108,,31.197277,0.1,303.1616,1591304671441
Fix,GT,37.4568965,-122.1346948,,31.294827,0.1,303.25058,1591304672441
Fix,GT,37.457065,-122.1349794,,31.444607,0.1,303.40082,1591304673441
Fix,GT,37.4572345,-122.1352653,,31.596706,0.1,303.33325,1591304674441
Fix,GT,37.4574038,-122.1355528,,31.63905,0.1,303.06424,1591304675441
Fix,GT,37.4575722,-122.1358412,,31.592262,0.1,302.88712,1591304676441
Fix,GT,37.4577399,-122.1361289,,31.461102,0.1,302.95355,1591304677441
Fix,GT,37.4579073,-122.1364143,,31.250927,0.1,303.23904,1591304678441
Fix,GT,37.4580749,-122.1366968,,31.037218,0.1,303.48056,1591304679441
Fix,GT,37.4582417,-122.136977,,30.872726,0.1,303.4574,1591304680441
Fix,GT,37.4584069,-122.1372564,,30.694565,0.1,303.19537,1591304681441
Fix,GT,37.45857,-122.1375346,,30.364115,0.1,303.02594,1591304682441
Fix,GT,37.4587308,-122.1378095,,30.016075,0.1,303.05066,1591304683441
Fix,GT,37.4588908,-122.1380821,,29.962433,0.1,303.17218,1591304684441
Fix,GT,37.459052,-122.1383552,,30.1713,0.1,303.34558,1591304685441
Fix,GT,37.4592149,-122.1386298,,30.391073,0.1,303.45367,1591304686441
Fix,GT,37.4593789,-122.1389062,,30.560116,0.1,303.281,1591304687441
Fix,GT,37.4595425,-122.1391848,,30.645374,0.1,302.90042,1591304688441
Fix,GT,37.4597053,-122.1394648,,30.681314,0.1,302.81546,1591304689441
Fix,GT,37.4598686,-122.1397445,,30.681873,0.1,303.07962,1591304690441
Fix,GT,37.4600327,-122.1400235,,30.640347,0.1,303.17657,1591304691441
Fix,GT,37.4601962,-122.1403017,,30.478165,0.1,302.98767,1591304692441
Fix,GT,37.4603573,-122.1405787,,30.20203,0.1,302.76196,1591304693441
Fix,GT,37.4605168,-122.1408536,,29.976059,0.1,302.9094,1591304694441
Fix,GT,37.4606764,-122.141126,,29.88291,0.1,303.2035,1591304695441
Fix,GT,37.4608365,-122.1413975,,29.864405,0.1,303.19836,1591304696441
Fix,GT,37.4609962,-122.1416689,,29.820805,0.1,303.08273,1591304697441
Fix,GT,37.4611554,-122.1419403,,29.82801,0.1,303.15045,1591304698441
Fix,GT,37.4613152,-122.142212,,29.935398,0.1,303.211,1591304699441
Fix,GT,37.4614758,-122.1424847,,30.05219,0.1,303.2262,1591304700441
Fix,GT,37.4616369,-122.1427584,,30.142982,0.1,303.15036,1591304701441
Fix,GT,37.461798,-122.1430332,,30.187246,0.1,303.03424,1591304702441
Fix,GT,37.4619587,-122.1433086,,30.196047,0.1,302.935,1591304703441
Fix,GT,37.4621193,-122.1435844,,30.229057,0.1,302.87897,1591304704441
Fix,GT,37.4622798,-122.1438606,,30.248636,0.1,302.73853,1591304705441
Fix,GT,37.4624397,-122.1441376,,30.2328,0.1,302.63107,1591304706441
Fix,GT,37.4625997,-122.1444143,,30.24039,0.1,302.96912,1591304707441
Fix,GT,37.4627616,-122.1446894,,30.257132,0.1,303.16635,1591304708441
Fix,GT,37.4629228,-122.1449649,,30.212196,0.1,302.78073,1591304709441
Fix,GT,37.4630826,-122.1452411,,30.190245,0.1,302.8291,1591304710441
Fix,GT,37.4632438,-122.1455165,,30.29017,0.1,303.20325,1591304711441
Fix,GT,37.4634058,-122.1457925,,30.333008,0.1,302.9297,1591304712441
Fix,GT,37.4635662,-122.1460693,,30.221241,0.1,302.71143,1591304713441
Fix,GT,37.4637261,-122.1463447,,30.05075,0.1,302.94327,1591304714441
Fix,GT,37.4638859,-122.1466177,,29.911045,0.1,303.17606,1591304715441
Fix,GT,37.4640461,-122.1468892,,29.858292,0.1,303.37622,1591304716441
Fix,GT,37.4642071,-122.1471601,,29.926826,0.1,303.5446,1591304717441
Fix,GT,37.4643688,-122.1474316,,30.050018,0.1,303.4556,1591304718441
Fix,GT,37.4645305,-122.1477049,,30.175835,0.1,303.17685,1591304719441
Fix,GT,37.4646918,-122.1479804,,30.280548,0.1,302.88705,1591304720441
Fix,GT,37.4648527,-122.1482573,,30.358303,0.1,302.86148,1591304721441
Fix,GT,37.4650146,-122.1485344,,30.458138,0.1,303.13565,1591304722441
Fix,GT,37.4651781,-122.1488119,,30.610874,0.1,303.25284,1591304723441
Fix,GT,37.4653424,-122.1490908,,30.778637,0.1,303.14212,1591304724441
Fix,GT,37.4655072,-122.149372,,30.948746,0.1,303.01364,1591304725441
Fix,GT,37.4656727,-122.1496549,,31.150461,0.1,303.0788,1591304726441
Fix,GT,37.4658396,-122.1499394,,31.332203,0.1,303.09787,1591304727441
Fix,GT,37.466007,-122.1502257,,31.451145,0.1,302.96774,1591304728441
Fix,GT,37.4661746,-122.1505129,,31.523727,0.1,303.02982,1591304729441
Fix,GT,37.4663433,-122.1507999,,31.567337,0.1,303.2569,1591304730441
Fix,GT,37.4665123,-122.1510864,,31.470173,0.1,303.2405,1591304731441
Fix,GT,37.4666799,-122.1513718,,31.182827,0.1,303.03882,1591304732441
Fix,GT,37.4668451,-122.1516544,,30.809502,0.1,302.99017,1591304733441
Fix,GT,37.4670085,-122.1519332,,30.469814,0.1,303.2001,1591304734441
Fix,GT,37.4671715,-122.1522089,,30.259573,0.1,303.39255,1591304735441
Fix,GT,37.4673336,-122.1524823,,30.04031,0.1,303.36377,1591304736441
Fix,GT,37.4674941,-122.1527536,,29.731188,0.1,303.33582,1591304737441
Fix,GT,37.4676532,-122.1530217,,29.39669,0.1,303.4615,1591304738441
Fix,GT,37.4678109,-122.1532862,,29.044395,0.1,303.58203,1591304739441
Fix,GT,37.4679671,-122.1535474,,28.741123,0.1,303.4839,1591304740441
Fix,GT,37.468121,-122.1538076,,28.625542,0.1,303.19534,1591304741441
Fix,GT,37.4682736,-122.1540679,,28.541824,0.1,303.01004,1591304742441
Fix,GT,37.468425,-122.1543269,,28.264637,0.1,302.9961,1591304743441
Fix,GT,37.4685748,-122.1545827,,27.897911,0.1,303.0753,1591304744441
Fix,GT,37.468723,-122.1548347,,27.505827,0.1,303.18973,1591304745441
Fix,GT,37.4688696,-122.1550831,,27.254566,0.1,303.21088,1591304746441
Fix,GT,37.4690156,-122.1553308,,27.303135,0.1,303.132,1591304747441
Fix,GT,37.4691621,-122.1555802,,27.532639,0.1,303.18182,1591304748441
Fix,GT,37.4693106,-122.1558314,,27.796085,0.1,303.4312,1591304749441
Fix,GT,37.4694607,-122.1560845,,27.985203,0.1,303.344,1591304750441
Fix,GT,37.4696102,-122.1563398,,28.012846,0.1,302.82678,1591304751441
Fix,GT,37.469758,-122.1565959,,27.916714,0.1,302.57736,1591304752441
Fix,GT,37.4699048,-122.1568512,,27.792728,0.1,302.5677,1591304753441
Fix,GT,37.470051,-122.1571057,,27.735924,0.1,302.5658,1591304754441
Fix,GT,37.4701975,-122.1573601,,27.805576,0.1,302.70117,1591304755441
Fix,GT,37.4703457,-122.1576146,,27.956268,0.1,303.1116,1591304756441
Fix,GT,37.470496,-122.1578694,,28.110258,0.1,303.3954,1591304757441
Fix,GT,37.4706473,-122.1581248,,28.18231,0.1,303.34332,1591304758441
Fix,GT,37.4707987,-122.1583805,,28.16753,0.1,303.35873,1591304759441
Fix,GT,37.4709501,-122.1586359,,28.142672,0.1,303.41693,1591304760441
Fix,GT,37.4711015,-122.1588911,,28.153576,0.1,303.32925,1591304761441
Fix,GT,37.4712524,-122.1591474,,28.239635,0.1,303.0737,1591304762441
Fix,GT,37.4714031,-122.1594058,,28.401253,0.1,302.91388,1591304763441
Fix,GT,37.4715546,-122.159666,,28.609962,0.1,302.98032,1591304764441
Fix,GT,37.4717076,-122.159928,,28.836853,0.1,302.98553,1591304765441
Fix,GT,37.4718614,-122.1601924,,29.063274,0.1,302.80817,1591304766441
Fix,GT,37.472016,-122.1604591,,29.250004,0.1,302.7664,1591304767441
Fix,GT,37.4721714,-122.1607272,,29.406746,0.1,302.88702,1591304768441
Fix,GT,37.4723283,-122.1609963,,29.583385,0.1,303.00574,1591304769441
Fix,GT,37.4724863,-122.1612667,,29.71585,0.1,302.9393,1591304770441
Fix,GT,37.4726441,-122.1615383,,29.743702,0.1,302.74158,1591304771441
Fix,GT,37.4728018,-122.1618101,,29.709415,0.1,302.90305,1591304772441
Fix,GT,37.4729599,-122.1620803,,29.588871,0.1,303.17432,1591304773441
Fix,GT,37.473118,-122.1623483,,29.368809,0.1,303.31253,1591304774441
Fix,GT,37.4732752,-122.1626134,,29.081646,0.1,303.45255,1591304775441
Fix,GT,37.4734313,-122.1628757,,28.86592,0.1,303.4356,1591304776441
Fix,GT,37.4735861,-122.1631375,,28.865353,0.1,303.15622,1591304777441
Fix,GT,37.4737403,-122.1634012,,29.006332,0.1,302.88983,1591304778441
Fix,GT,37.4738951,-122.1636669,,29.205372,0.1,302.92328,1591304779441
Fix,GT,37.4740513,-122.1639341,,29.433636,0.1,303.0711,1591304780441
Fix,GT,37.474209,-122.1642032,,29.651892,0.1,303.07584,1591304781441
Fix,GT,37.4743675,-122.1644744,,29.854023,0.1,302.9847,1591304782441
Fix,GT,37.4745269,-122.1647476,,30.033031,0.1,302.98264,1591304783441
Fix,GT,37.4746874,-122.1650216,,30.11211,0.1,303.13116,1591304784441
Fix,GT,37.4748484,-122.1652955,,30.045816,0.1,303.08997,1591304785441
Fix,GT,37.4750084,-122.1655686,,29.854229,0.1,303.04053,1591304786441
Fix,GT,37.4751673,-122.1658389,,29.552849,0.1,303.23117,1591304787441
Fix,GT,37.4753253,-122.1661054,,29.165123,0.1,303.40338,1591304788441
Fix,GT,37.475481,-122.1663683,,28.80878,0.1,303.29742,1591304789441
Fix,GT,37.4756347,-122.1666289,,28.576687,0.1,303.23566,1591304790441
Fix,GT,37.4757874,-122.1668878,,28.424873,0.1,303.1945,1591304791441
Fix,GT,37.4759393,-122.1671462,,28.425549,0.1,303.09772,1591304792441
Fix,GT,37.4760915,-122.1674056,,28.603916,0.1,303.09723,1591304793441
Fix,GT,37.4762448,-122.167667,,28.807438,0.1,303.04047,1591304794441
Fix,GT,37.476399,-122.16793,,28.973936,0.1,303.12497,1591304795441
Fix,GT,37.4765549,-122.1681934,,29.08315,0.1,303.7744,1591304796441
Fix,GT,37.4767137,-122.1684549,,29.043774,0.1,304.40967,1591304797441
Fix,GT,37.476873,-122.1687142,,28.88514,0.1,304.14926,1591304798441
Fix,GT,37.4770297,-122.1689739,,28.7755,0.1,303.5835,1591304799441
Fix,GT,37.4771841,-122.169235,,28.776249,0.1,303.09436,1591304800441
Fix,GT,37.4773376,-122.1694977,,28.882782,0.1,302.9544,1591304801441
Fix,GT,37.4774926,-122.1697617,,29.136314,0.1,303.38437,1591304802441
Fix,GT,37.4776519,-122.1700261,,29.517447,0.1,304.38977,1591304803441
Fix,GT,37.4778163,-122.1702911,,29.90068,0.1,304.89676,1591304804441
Fix,GT,37.477983,-122.1705592,,30.264389,0.1,304.52844,1591304805441
Fix,GT,37.47815,-122.1708323,,30.65398,0.1,303.88596,1591304806441
Fix,GT,37.4783166,-122.1711115,,31.077568,0.1,303.2915,1591304807441
Fix,GT,37.4784838,-122.1713964,,31.501541,0.1,302.92703,1591304808441
Fix,GT,37.4786521,-122.1716859,,31.893982,0.1,302.81635,1591304809441
Fix,GT,37.4788225,-122.1719785,,32.200947,0.1,303.02838,1591304810441
Fix,GT,37.4789955,-122.1722724,,32.418865,0.1,303.23465,1591304811441
Fix,GT,37.4791692,-122.1725677,,32.505085,0.1,303.12045,1591304812441
Fix,GT,37.4793426,-122.1728638,,32.46288,0.1,302.92776,1591304813441
Fix,GT,37.479515,-122.1731598,,32.382534,0.1,302.8962,1591304814441
Fix,GT,37.4796876,-122.1734544,,32.31405,0.1,303.2597,1591304815441
Fix,GT,37.4798625,-122.1737463,,32.280758,0.1,304.14523,1591304816441
Fix,GT,37.4800403,-122.1740352,,32.28093,0.1,304.68777,1591304817441
Fix,GT,37.4802188,-122.1743235,,32.300457,0.1,304.47687,1591304818441
Fix,GT,37.4803959,-122.1746133,,32.33832,0.1,303.8972,1591304819441
Fix,GT,37.4805703,-122.1749061,,32.36953,0.1,303.1724,1591304820441
Fix,GT,37.4807431,-122.1752013,,32.424145,0.1,302.97403,1591304821441
Fix,GT,37.4809162,-122.1754971,,32.54592,0.1,303.13068,1591304822441
Fix,GT,37.4810904,-122.1757939,,32.63153,0.1,303.08658,1591304823441
Fix,GT,37.4812641,-122.1760913,,32.610237,0.1,302.86807,1591304824441
Fix,GT,37.4814365,-122.1763897,,32.630478,0.1,302.49435,1591304825441
Fix,GT,37.4816065,-122.1766912,,32.73834,0.1,301.6103,1591304826441
Fix,GT,37.4817731,-122.176997,,32.79612,0.1,300.73376,1591304827441
Fix,GT,37.4819376,-122.1773051,,32.82208,0.1,300.51968,1591304828441
Fix,GT,37.482101,-122.1776147,,32.88642,0.1,299.98807,1591304829441
Fix,GT,37.4822621,-122.1779274,,32.98063,0.1,299.1743,1591304830441
Fix,GT,37.4824196,-122.1782441,,33.069614,0.1,298.14005,1591304831441
Fix,GT,37.4825725,-122.1785652,,33.142334,0.1,297.05145,1591304832441
Fix,GT,37.4827209,-122.1788906,,33.18383,0.1,296.0968,1591304833441
Fix,GT,37.4828657,-122.179219,,33.211224,0.1,295.39722,1591304834441
Fix,GT,37.4830073,-122.1795501,,33.27968,0.1,294.62204,1591304835441
Fix,GT,37.4831454,-122.1798846,,33.371807,0.1,293.58148,1591304836441
Fix,GT,37.4832794,-122.1802229,,33.459084,0.1,292.85474,1591304837441
Fix,GT,37.4834106,-122.1805642,,33.600655,0.1,292.16278,1591304838441
Fix,GT,37.483539,-122.180909,,33.739594,0.1,291.40402,1591304839441
Fix,GT,37.4836639,-122.1812573,,33.80677,0.1,290.55157,1591304840441
Fix,GT,37.4837845,-122.1816085,,33.83615,0.1,289.6207,1591304841441
Fix,GT,37.483901,-122.1819622,,33.86166,0.1,288.89966,1591304842441
Fix,GT,37.4840148,-122.1823176,,33.91543,0.1,288.50757,1591304843441
Fix,GT,37.4841268,-122.1826749,,33.995987,0.1,287.94238,1591304844441
Fix,GT,37.4842355,-122.1830346,,34.070496,0.1,287.0558,1591304845441
Fix,GT,37.4843405,-122.1833971,,34.145805,0.1,286.39777,1591304846441
Fix,GT,37.4844429,-122.1837618,,34.22993,0.1,285.96222,1591304847441
Fix,GT,37.484543,-122.184128,,34.196026,0.1,285.38107,1591304848441
Fix,GT,37.4846392,-122.1844937,,33.845478,0.1,284.51266,1591304849441
Fix,GT,37.4847294,-122.184856,,33.296673,0.1,283.62878,1591304850441
Fix,GT,37.4848142,-122.1852144,,32.888313,0.1,282.9443,1591304851441
Fix,GT,37.4848958,-122.1855709,,32.77665,0.1,282.6139,1591304852441
Fix,GT,37.4849761,-122.1859278,,32.82724,0.1,282.35242,1591304853441
Fix,GT,37.4850544,-122.1862859,,32.88552,0.1,281.80048,1591304854441
Fix,GT,37.4851298,-122.1866456,,32.920837,0.1,281.15594,1591304855441
Fix,GT,37.4852022,-122.1870068,,32.958603,0.1,280.4898,1591304856441
Fix,GT,37.4852709,-122.1873696,,33.008183,0.1,279.60324,1591304857441
Fix,GT,37.4853351,-122.1877341,,33.050835,0.1,278.6639,1591304858441
Fix,GT,37.4853954,-122.1881002,,33.089657,0.1,278.10165,1591304859441
Fix,GT,37.4854527,-122.1884675,,33.14442,0.1,277.37976,1591304860441
Fix,GT,37.4855061,-122.1888365,,33.214943,0.1,276.55185,1591304861441
Fix,GT,37.4855562,-122.1892072,,33.322838,0.1,276.05307,1591304862441
Fix,GT,37.4856048,-122.1895798,,33.459488,0.1,275.93906,1591304863441
Fix,GT,37.4856543,-122.189953,,33.450317,0.1,276.49896,1591304864441
Fix,GT,37.4857077,-122.1903242,,33.255047,0.1,277.3532,1591304865441
Fix,GT,37.4857633,-122.1906923,,33.02933,0.1,277.20386,1591304866441
Fix,GT,37.485816,-122.1910581,,32.745148,0.1,276.4264,1591304867441
Fix,GT,37.4858644,-122.1914214,,32.42247,0.1,275.82913,1591304868441
Fix,GT,37.4859105,-122.191782,,32.21401,0.1,275.74475,1591304869441
Fix,GT,37.4859563,-122.1921413,,32.152817,0.1,275.73093,1591304870441
Fix,GT,37.4860016,-122.1925002,,32.111847,0.1,275.57178,1591304871441
Fix,GT,37.4860464,-122.1928585,,32.052433,0.1,275.5183,1591304872441
Fix,GT,37.4860908,-122.1932161,,31.96914,0.1,275.48666,1591304873441
Fix,GT,37.486135,-122.1935727,,31.86975,0.1,275.52536,1591304874441
Fix,GT,37.4861792,-122.1939279,,31.71211,0.1,275.4998,1591304875441
Fix,GT,37.4862225,-122.1942812,,31.507565,0.1,275.35956,1591304876441
Fix,GT,37.4862652,-122.1946321,,31.281738,0.1,275.35547,1591304877441
Fix,GT,37.4863079,-122.1949804,,31.062843,0.1,275.47717,1591304878441
Fix,GT,37.4863509,-122.1953263,,30.860962,0.1,275.5743,1591304879441
Fix,GT,37.4863942,-122.1956698,,30.672413,0.1,275.71112,1591304880441
Fix,GT,37.4864378,-122.1960113,,30.501225,0.1,275.73294,1591304881441
Fix,GT,37.486481,-122.1963509,,30.331085,0.1,275.63535,1591304882441
Fix,GT,37.4865233,-122.1966886,,30.163006,0.1,275.5014,1591304883441
Fix,GT,37.4865649,-122.1970249,,30.074303,0.1,275.41373,1591304884441
Fix,GT,37.486606,-122.197361,,30.098196,0.1,275.3474,1591304885441
Fix,GT,37.486647,-122.1976979,,30.18934,0.1,275.36725,1591304886441
Fix,GT,37.4866884,-122.1980359,,30.317425,0.1,275.46365,1591304887441
Fix,GT,37.4867305,-122.1983754,,30.456161,0.1,275.55328,1591304888441
Fix,GT,37.4867734,-122.1987163,,30.606342,0.1,275.6602,1591304889441
Fix,GT,37.4868165,-122.1990591,,30.786322,0.1,275.4923,1591304890441
Fix,GT,37.4868587,-122.1994043,,30.979794,0.1,275.37442,1591304891441
Fix,GT,37.4869013,-122.1997515,,31.17032,0.1,275.49655,1591304892441
Fix,GT,37.4869449,-122.2001006,,31.344015,0.1,275.6241,1591304893441
Fix,GT,37.486989,-122.2004515,,31.493494,0.1,275.66992,1591304894441
Fix,GT,37.4870334,-122.2008039,,31.605064,0.1,275.6269,1591304895441
Fix,GT,37.4870776,-122.2011574,,31.69157,0.1,275.50946,1591304896441
Fix,GT,37.4871214,-122.2015118,,31.763943,0.1,275.46893,1591304897441
Fix,GT,37.4871652,-122.2018671,,31.8317,0.1,275.4386,1591304898441
Fix,GT,37.4872088,-122.202223,,31.832829,0.1,275.34665,1591304899441
Fix,GT,37.487252,-122.2025783,,31.719639,0.1,275.36084,1591304900441
Fix,GT,37.4872954,-122.202932,,31.577274,0.1,275.57416,1591304901441
Fix,GT,37.4873396,-122.203284,,31.482971,0.1,275.72388,1591304902441
Fix,GT,37.4873843,-122.2036354,,31.47738,0.1,275.7451,1591304903441
Fix,GT,37.4874289,-122.2039873,,31.54541,0.1,275.63177,1591304904441
Fix,GT,37.4874727,-122.2043401,,31.627094,0.1,275.39197,1591304905441
Fix,GT,37.4875156,-122.2046941,,31.717686,0.1,275.28592,1591304906441
Fix,GT,37.4875585,-122.2050492,,31.79141,0.1,275.2964,1591304907441
Fix,GT,37.4876015,-122.2054048,,31.822891,0.1,275.30673,1591304908441
Fix,GT,37.4876451,-122.2057605,,31.841787,0.1,275.47623,1591304909441
Fix,GT,37.4876895,-122.2061163,,31.863321,0.1,275.67526,1591304910441
Fix,GT,37.487735,-122.2064722,,31.897272,0.1,275.89105,1591304911441
Fix,GT,37.4877821,-122.2068282,,31.937607,0.1,276.3416,1591304912441
Fix,GT,37.4878319,-122.2071841,,31.958645,0.1,276.93262,1591304913441
Fix,GT,37.4878844,-122.2075394,,31.945507,0.1,277.46075,1591304914441
Fix,GT,37.4879397,-122.2078939,,31.916128,0.1,278.06918,1591304915441
Fix,GT,37.487998,-122.208247,,31.858696,0.1,278.7635,1591304916441
Fix,GT,37.4880597,-122.2085985,,31.782753,0.1,279.49377,1591304917441
Fix,GT,37.4881246,-122.2089482,,31.71429,0.1,280.1427,1591304918441
Fix,GT,37.4881923,-122.2092962,,31.639133,0.1,280.66843,1591304919441
Fix,GT,37.488262,-122.2096427,,31.563421,0.1,281.1404,1591304920441
Fix,GT,37.488334,-122.2099877,,31.533384,0.1,281.66083,1591304921441
Fix,GT,37.4884087,-122.2103318,,31.527645,0.1,282.30048,1591304922441
Fix,GT,37.4884868,-122.2106742,,31.436571,0.1,283.1015,1591304923441
Fix,GT,37.4885684,-122.2110135,,31.23122,0.1,283.91043,1591304924441
Fix,GT,37.4886526,-122.2113492,,30.998158,0.1,284.4914,1591304925441
Fix,GT,37.4887383,-122.2116815,,30.787895,0.1,284.93088,1591304926441
Fix,GT,37.4888262,-122.2120108,,30.611662,0.1,285.6364,1591304927441
Fix,GT,37.4889168,-122.2123367,,30.443527,0.1,286.36395,1591304928441
Fix,GT,37.4890102,-122.2126593,,30.27782,0.1,287.03403,1591304929441
Fix,GT,37.4891065,-122.2129792,,30.21032,0.1,287.83978,1591304930441
Fix,GT,37.4892062,-122.2132973,,30.24541,0.1,288.59558,1591304931441
Fix,GT,37.4893091,-122.2136143,,30.299355,0.1,289.20248,1591304932441
Fix,GT,37.4894147,-122.2139308,,30.37423,0.1,289.7573,1591304933441
Fix,GT,37.489523,-122.2142468,,30.469246,0.1,290.28848,1591304934441
Fix,GT,37.489634,-122.2145623,,30.54459,0.1,290.89368,1591304935441
Fix,GT,37.4897481,-122.214877,,30.63683,0.1,291.4619,1591304936441
Fix,GT,37.489865,-122.2151917,,30.753475,0.1,292.01813,1591304937441
Fix,GT,37.4899848,-122.2155056,,30.759985,0.1,292.67694,1591304938441
Fix,GT,37.4901071,-122.215817,,30.607956,0.1,293.3398,1591304939441
Fix,GT,37.4902309,-122.2161246,,30.332409,0.1,293.71112,1591304940441
Fix,GT,37.4903542,-122.2164287,,30.030632,0.1,293.6279,1591304941441
Fix,GT,37.4904758,-122.2167306,,29.82063,0.1,293.58307,1591304942441
Fix,GT,37.490598,-122.2170303,,29.710888,0.1,294.30493,1591304943441
Fix,GT,37.4907235,-122.2173266,,29.640718,0.1,295.14148,1591304944441
Fix,GT,37.4908511,-122.2176207,,29.603176,0.1,295.32257,1591304945441
Fix,GT,37.4909791,-122.2179145,,29.63517,0.1,295.53928,1591304946441
Fix,GT,37.4911085,-122.2182083,,29.737658,0.1,295.75818,1591304947441
Fix,GT,37.491239,-122.2185028,,29.860863,0.1,295.84824,1591304948441
Fix,GT,37.4913699,-122.2187984,,29.931202,0.1,295.78625,1591304949441
Fix,GT,37.4915003,-122.2190941,,29.786678,0.1,295.66425,1591304950441
Fix,GT,37.4916293,-122.2193872,,29.426027,0.1,295.69763,1591304951441
Fix,GT,37.4917571,-122.2196759,,28.923138,0.1,295.84564,1591304952441
Fix,GT,37.4918823,-122.2199582,,28.190525,0.1,295.76917,1591304953441
Fix,GT,37.4920038,-122.2202331,,27.462986,0.1,295.72708,1591304954441
Fix,GT,37.4921229,-122.2205021,,27.02256,0.1,295.86108,1591304955441
Fix,GT,37.4922412,-122.2207681,,26.916988,0.1,295.9286,1591304956441
Fix,GT,37.4923598,-122.2210347,,27.092173,0.1,295.95172,1591304957441
Fix,GT,37.4924793,-122.221303,,27.260693,0.1,295.87653,1591304958441
Fix,GT,37.4925991,-122.2215732,,27.429224,0.1,295.81512,1591304959441
Fix,GT,37.4927197,-122.221845,,27.585964,0.1,295.96063,1591304960441
Fix,GT,37.4928416,-122.2221177,,27.742897,0.1,296.10635,1591304961441
Fix,GT,37.4929642,-122.2223918,,27.804947,0.1,296.0592,1591304962441
Fix,GT,37.493086,-122.2226656,,27.570492,0.1,295.88696,1591304963441
Fix,GT,37.4932052,-122.2229357,,27.002235,0.1,295.57938,1591304964441
Fix,GT,37.4933199,-122.2232003,,26.32156,0.1,294.9955,1591304965441
Fix,GT,37.4934291,-122.2234603,,25.722075,0.1,294.12384,1591304966441
Fix,GT,37.4935332,-122.223717,,25.264378,0.1,293.46924,1591304967441
Fix,GT,37.4936349,-122.2239716,,25.123014,0.1,293.32898,1591304968441
Fix,GT,37.4937362,-122.2242266,,25.289143,0.1,293.18317,1591304969441
Fix,GT,37.493837,-122.2244838,,25.41619,0.1,292.66046,1591304970441
Fix,GT,37.4939357,-122.2247436,,25.512592,0.1,291.92877,1591304971441
Fix,GT,37.4940329,-122.225006,,25.678429,0.1,291.4629,1591304972441
Fix,GT,37.494129,-122.2252713,,25.896584,0.1,290.86658,1591304973441
Fix,GT,37.4942233,-122.2255407,,26.180576,0.1,289.99677,1591304974441
Fix,GT,37.4943158,-122.2258149,,26.49744,0.1,289.3469,1591304975441
Fix,GT,37.494407,-122.2260936,,26.800642,0.1,288.7528,1591304976441
Fix,GT,37.4944973,-122.2263765,,27.097387,0.1,288.43787,1591304977441
Fix,GT,37.4945873,-122.2266627,,27.340635,0.1,288.10303,1591304978441
Fix,GT,37.4946762,-122.2269523,,27.550053,0.1,287.5641,1591304979441
Fix,GT,37.4947637,-122.2272451,,27.76207,0.1,287.1073,1591304980441
Fix,GT,37.4948506,-122.227541,,28.03379,0.1,286.7745,1591304981441
Fix,GT,37.4949368,-122.2278408,,28.36559,0.1,286.4854,1591304982441
Fix,GT,37.4950236,-122.2281446,,28.705006,0.1,286.44733,1591304983441
Fix,GT,37.4951116,-122.2284517,,29.00848,0.1,286.44464,1591304984441
Fix,GT,37.4951998,-122.2287618,,29.23173,0.1,286.16083,1591304985441
Fix,GT,37.4952872,-122.2290747,,29.419659,0.1,286.01724,1591304986441
Fix,GT,37.4953753,-122.22939,,29.669819,0.1,286.1375,1591304987441
Fix,GT,37.4954647,-122.2297077,,29.939554,0.1,286.1217,1591304988441
Fix,GT,37.495554,-122.2300286,,30.187511,0.1,285.81494,1591304989441
Fix,GT,37.4956429,-122.2303526,,30.417416,0.1,285.7059,1591304990441
Fix,GT,37.495733,-122.2306789,,30.656023,0.1,286.01385,1591304991441
Fix,GT,37.4958251,-122.2310071,,30.862614,0.1,286.21878,1591304992441
Fix,GT,37.4959175,-122.2313355,,30.60808,0.1,286.1442,1591304993441
Fix,GT,37.496008,-122.231658,,29.812393,0.1,286.1493,1591304994441
Fix,GT,37.4960967,-122.2319715,,29.092007,0.1,286.4323,1591304995441
Fix,GT,37.496185,-122.2322779,,28.557636,0.1,286.60138,1591304996441
Fix,GT,37.496272,-122.2325801,,28.350853,0.1,286.4533,1591304997441
Fix,GT,37.4963582,-122.2328829,,28.542143,0.1,286.3728,1591304998441
Fix,GT,37.4964453,-122.2331881,,28.784191,0.1,286.5783,1591304999441
Fix,GT,37.4965339,-122.2334952,,28.98682,0.1,286.54868,1591305000441
Fix,GT,37.4966226,-122.2338046,,29.177406,0.1,286.40225,1591305001441
Fix,GT,37.4967119,-122.2341164,,29.41645,0.1,286.71008,1591305002441
Fix,GT,37.4968043,-122.23443,,29.684662,0.1,287.5394,1591305003441
Fix,GT,37.4969019,-122.2347441,,29.93943,0.1,288.5571,1591305004441
Fix,GT,37.4970043,-122.235059,,30.17817,0.1,289.4195,1591305005441
Fix,GT,37.4971115,-122.2353741,,30.39156,0.1,290.40036,1591305006441
Fix,GT,37.4972245,-122.2356884,,30.58635,0.1,291.7945,1591305007441
Fix,GT,37.4973443,-122.2360011,,30.758099,0.1,293.29907,1591305008441
Fix,GT,37.4974711,-122.2363113,,30.89478,0.1,294.56427,1591305009441
Fix,GT,37.4976044,-122.2366191,,31.03946,0.1,296.0244,1591305010441
Fix,GT,37.4977445,-122.236924,,31.205978,0.1,297.59024,1591305011441
Fix,GT,37.4978927,-122.2372251,,31.376854,0.1,299.46426,1591305012441
Fix,GT,37.4980499,-122.2375213,,31.546047,0.1,301.45758,1591305013441
Fix,GT,37.4982153,-122.2378126,,31.69292,0.1,303.06876,1591305014441
Fix,GT,37.4983878,-122.2380993,,31.820251,0.1,304.7083,1591305015441
Fix,GT,37.4985676,-122.2383805,,31.976286,0.1,306.45306,1591305016441
Fix,GT,37.4987553,-122.238656,,32.14185,0.1,308.23834,1591305017441
Fix,GT,37.4989506,-122.238926,,32.32654,0.1,309.93506,1591305018441
Fix,GT,37.4991535,-122.2391895,,32.40511,0.1,311.79337,1591305019441
Fix,GT,37.4993627,-122.2394445,,32.25128,0.1,313.3717,1591305020441
Fix,GT,37.4995744,-122.2396921,,31.965263,0.1,313.96692,1591305021441
Fix,GT,37.4997851,-122.2399366,,31.735336,0.1,314.1519,1591305022441
Fix,GT,37.4999955,-122.2401793,,31.717686,0.1,314.38098,1591305023441
Fix,GT,37.5002073,-122.2404214,,31.853004,0.1,314.55338,1591305024441
Fix,GT,37.5004204,-122.2406637,,31.923334,0.1,314.65778,1591305025441
Fix,GT,37.5006333,-122.2409057,,31.826208,0.1,314.6504,1591305026441
Fix,GT,37.5008452,-122.2411467,,31.658363,0.1,314.6132,1591305027441
Fix,GT,37.5010562,-122.2413862,,31.464088,0.1,314.7579,1591305028441
Fix,GT,37.5012664,-122.2416235,,31.29982,0.1,315.0319,1591305029441
Fix,GT,37.5014767,-122.2418587,,31.205135,0.1,315.11002,1591305030441
Fix,GT,37.501686,-122.2420934,,31.110764,0.1,314.86002,1591305031441
Fix,GT,37.5018936,-122.2423288,,30.967648,0.1,314.58472,1591305032441
Fix,GT,37.5020992,-122.2425636,,30.693344,0.1,314.53418,1591305033441
Fix,GT,37.5023025,-122.2427951,,30.181461,0.1,314.66016,1591305034441
Fix,GT,37.5025025,-122.2430216,,29.604198,0.1,314.76736,1591305035441
Fix,GT,37.5026992,-122.2432437,,29.182133,0.1,314.8051,1591305036441
Fix,GT,37.5028942,-122.2434635,,29.04998,0.1,314.92303,1591305037441
Fix,GT,37.5030895,-122.2436827,,29.10123,0.1,315.04132,1591305038441
Fix,GT,37.5032854,-122.2439021,,29.175812,0.1,315.0561,1591305039441
Fix,GT,37.5034819,-122.2441225,,29.291092,0.1,314.927,1591305040441
Fix,GT,37.5036782,-122.2443445,,29.381653,0.1,314.6204,1591305041441
Fix,GT,37.5038742,-122.2445689,,29.436993,0.1,314.25555,1591305042441
Fix,GT,37.5040699,-122.2447941,,29.472239,0.1,314.3309,1591305043441
Fix,GT,37.5042667,-122.2450185,,29.527725,0.1,314.75043,1591305044441
Fix,GT,37.5044646,-122.2452415,,29.490864,0.1,314.93933,1591305045441
Fix,GT,37.504662,-122.2454633,,29.301428,0.1,314.96906,1591305046441
Fix,GT,37.5048579,-122.2456835,,29.081152,0.1,314.94955,1591305047441
Fix,GT,37.5050526,-122.2459025,,28.98388,0.1,314.88083,1591305048441
Fix,GT,37.505247,-122.246122,,29.073196,0.1,314.7963,1591305049441
Fix,GT,37.5054422,-122.2463427,,29.223448,0.1,314.76987,1591305050441
Fix,GT,37.5056383,-122.2465644,,29.363796,0.1,314.79965,1591305051441
Fix,GT,37.5058353,-122.2467871,,29.466188,0.1,314.71713,1591305052441
Fix,GT,37.5060325,-122.2470111,,29.555561,0.1,314.64584,1591305053441
Fix,GT,37.5062301,-122.2472361,,29.66298,0.1,314.63196,1591305054441
Fix,GT,37.5064285,-122.247462,,29.780912,0.1,314.55823,1591305055441
Fix,GT,37.5066279,-122.2476884,,29.89872,0.1,314.69806,1591305056441
Fix,GT,37.5068283,-122.2479153,,30.001614,0.1,314.7303,1591305057441
Fix,GT,37.5070293,-122.2481431,,30.089928,0.1,314.6931,1591305058441
Fix,GT,37.5072306,-122.2483717,,30.172516,0.1,314.63748,1591305059441
Fix,GT,37.5074325,-122.2486011,,30.265888,0.1,314.6135,1591305060441
Fix,GT,37.5076353,-122.2488311,,30.377356,0.1,314.76053,1591305061441
Fix,GT,37.5078391,-122.2490614,,30.483292,0.1,314.80533,1591305062441
Fix,GT,37.5080434,-122.2492926,,30.590126,0.1,314.70264,1591305063441
Fix,GT,37.5082484,-122.2495248,,30.70195,0.1,314.79352,1591305064441
Fix,GT,37.5084546,-122.2497575,,30.834934,0.1,314.8816,1591305065441
Fix,GT,37.5086617,-122.2499911,,30.965008,0.1,314.75262,1591305066441
Fix,GT,37.5088689,-122.2502262,,31.05072,0.1,314.65048,1591305067441
Fix,GT,37.5090766,-122.2504623,,31.120872,0.1,314.71176,1591305068441
Fix,GT,37.5092851,-122.2506983,,31.198912,0.1,314.86264,1591305069441
Fix,GT,37.5094945,-122.2509345,,31.287144,0.1,314.84772,1591305070441
Fix,GT,37.5097043,-122.2511718,,31.3906,0.1,314.7063,1591305071441
Fix,GT,37.5099144,-122.2514102,,31.487055,0.1,314.69238,1591305072441
Fix,GT,37.5101254,-122.2516492,,31.596584,0.1,314.7788,1591305073441
Fix,GT,37.5103373,-122.2518892,,31.754436,0.1,314.68353,1591305074441
Fix,GT,37.5105499,-122.252131,,31.932371,0.1,314.5553,1591305075441
Fix,GT,37.5107632,-122.2523748,,32.005856,0.1,314.41013,1591305076441
Fix,GT,37.5109758,-122.252618,,31.794786,0.1,314.52518,1591305077441
Fix,GT,37.5111872,-122.2528579,,31.482975,0.1,314.88196,1591305078441
Fix,GT,37.511398,-122.253095,,31.363483,0.1,314.95038,1591305079441
Fix,GT,37.5116079,-122.2533318,,31.298727,0.1,314.59756,1591305080441
Fix,GT,37.5118163,-122.2535699,,31.217365,0.1,314.4246,1591305081441
Fix,GT,37.5120238,-122.253807,,31.061867,0.1,314.59082,1591305082441
Fix,GT,37.5122303,-122.2540417,,30.744205,0.1,314.56924,1591305083441
Fix,GT,37.5124339,-122.2542744,,30.325851,0.1,314.3516,1591305084441
Fix,GT,37.5126339,-122.2545043,,29.87156,0.1,314.27472,1591305085441
Fix,GT,37.5128308,-122.2547305,,29.364536,0.1,314.42953,1591305086441
Fix,GT,37.5130251,-122.2549525,,28.995556,0.1,314.5285,1591305087441
Fix,GT,37.5132181,-122.2551721,,28.826374,0.1,314.70572,1591305088441
Fix,GT,37.5134105,-122.2553892,,28.588459,0.1,314.93213,1591305089441
Fix,GT,37.5136015,-122.2556035,,28.277119,0.1,315.00974,1591305090441
Fix,GT,37.5137906,-122.2558159,,28.065067,0.1,314.91525,1591305091441
Fix,GT,37.5139783,-122.2560279,,27.98887,0.1,314.68085,1591305092441
Fix,GT,37.5141654,-122.2562404,,28.04139,0.1,314.68317,1591305093441
Fix,GT,37.5143533,-122.2564535,,28.19018,0.1,314.70776,1591305094441
Fix,GT,37.5145421,-122.2566679,,28.363613,0.1,314.56476,1591305095441
Fix,GT,37.5147317,-122.2568839,,28.489624,0.1,314.56503,1591305096441
Fix,GT,37.5149224,-122.2571006,,28.596184,0.1,314.69217,1591305097441
Fix,GT,37.515114,-122.2573177,,28.703503,0.1,314.75525,1591305098441
Fix,GT,37.5153064,-122.2575354,,28.816181,0.1,314.7639,1591305099441
Fix,GT,37.5154994,-122.2577543,,28.950249,0.1,314.63193,1591305100441
Fix,GT,37.5156929,-122.2579752,,29.115189,0.1,314.4507,1591305101441
Fix,GT,37.5158873,-122.2581976,,29.295967,0.1,314.4512,1591305102441
Fix,GT,37.5160833,-122.2584213,,29.51292,0.1,314.63263,1591305103441
Fix,GT,37.5162815,-122.2586459,,29.733994,0.1,314.82492,1591305104441
Fix,GT,37.5164814,-122.2588712,,29.888859,0.1,314.92978,1591305105441
Fix,GT,37.516682,-122.259097,,29.872856,0.1,314.87073,1591305106441
Fix,GT,37.5168815,-122.2593222,,29.593884,0.1,314.7762,1591305107441
Fix,GT,37.5170778,-122.2595445,,29.052982,0.1,314.75308,1591305108441
Fix,GT,37.5172703,-122.2597622,,28.492565,0.1,314.85925,1591305109441
Fix,GT,37.5174598,-122.2599759,,28.077513,0.1,314.78375,1591305110441
Fix,GT,37.5176462,-122.2601874,,27.743034,0.1,314.64905,1591305111441
Fix,GT,37.5178309,-122.2603972,,27.548018,0.1,314.69086,1591305112441
Fix,GT,37.5180146,-122.2606056,,27.415375,0.1,314.75052,1591305113441
Fix,GT,37.5181978,-122.2608129,,27.350924,0.1,314.87314,1591305114441
Fix,GT,37.5183817,-122.2610194,,27.433407,0.1,315.09265,1591305115441
Fix,GT,37.5185668,-122.2612264,,27.6001,0.1,315.07828,1591305116441
Fix,GT,37.5187527,-122.2614353,,27.796751,0.1,314.7818,1591305117441
Fix,GT,37.5189391,-122.261647,,28.022955,0.1,314.60388,1591305118441
Fix,GT,37.5191268,-122.2618608,,28.198195,0.1,314.57355,1591305119441
Fix,GT,37.519315,-122.2620752,,28.163406,0.1,314.55365,1591305120441
Fix,GT,37.5195022,-122.2622881,,27.851498,0.1,314.72952,1591305121441
Fix,GT,37.5196872,-122.2624975,,27.43575,0.1,314.7857,1591305122441
Fix,GT,37.5198692,-122.262704,,27.059792,0.1,314.641,1591305123441
Fix,GT,37.5200492,-122.2629081,,26.791813,0.1,314.8115,1591305124441
Fix,GT,37.5202285,-122.2631098,,26.66043,0.1,315.10757,1591305125441
Fix,GT,37.5204079,-122.2633103,,26.65028,0.1,315.10406,1591305126441
Fix,GT,37.5205868,-122.2635111,,26.605026,0.1,314.84573,1591305127441
Fix,GT,37.5207644,-122.263712,,26.448612,0.1,314.67526,1591305128441
Fix,GT,37.5209404,-122.2639122,,26.274673,0.1,314.58224,1591305129441
Fix,GT,37.5211152,-122.2641113,,26.11397,0.1,314.60092,1591305130441
Fix,GT,37.5212892,-122.2643091,,25.994576,0.1,314.70096,1591305131441
Fix,GT,37.521463,-122.2645056,,25.935278,0.1,314.89944,1591305132441
Fix,GT,37.5216369,-122.2647011,,25.872494,0.1,315.02863,1591305133441
Fix,GT,37.5218103,-122.2648956,,25.721363,0.1,315.0004,1591305134441
Fix,GT,37.5219826,-122.2650892,,25.637417,0.1,314.9273,1591305135441
Fix,GT,37.5221545,-122.2652833,,25.70528,0.1,314.8073,1591305136441
Fix,GT,37.5223268,-122.2654781,,25.744524,0.1,314.753,1591305137441
Fix,GT,37.5224985,-122.2656731,,25.655048,0.1,314.55774,1591305138441
Fix,GT,37.5226686,-122.2658683,,25.47085,0.1,314.0932,1591305139441
Fix,GT,37.5228367,-122.2660633,,25.34301,0.1,314.04105,1591305140441
Fix,GT,37.5230045,-122.266257,,25.25049,0.1,314.36667,1591305141441
Fix,GT,37.523172,-122.2664488,,25.060585,0.1,314.45428,1591305142441
Fix,GT,37.5233387,-122.2666385,,24.8956,0.1,314.66544,1591305143441
Fix,GT,37.5235051,-122.2668264,,24.812199,0.1,314.814,1591305144441
Fix,GT,37.5236707,-122.2670141,,24.712255,0.1,314.55212,1591305145441
Fix,GT,37.5238354,-122.2672019,,24.708172,0.1,314.5812,1591305146441
Fix,GT,37.5240013,-122.2673892,,24.79815,0.1,315.05652,1591305147441
Fix,GT,37.5241685,-122.2675755,,24.747189,0.1,315.31268,1591305148441
Fix,GT,37.5243353,-122.26776,,24.583809,0.1,315.43777,1591305149441
Fix,GT,37.5245009,-122.2679433,,24.39852,0.1,315.33536,1591305150441
Fix,GT,37.5246648,-122.2681256,,24.216885,0.1,315.20984,1591305151441
Fix,GT,37.5248273,-122.2683069,,24.036324,0.1,315.0081,1591305152441
Fix,GT,37.5249881,-122.2684877,,23.91051,0.1,314.85934,1591305153441
Fix,GT,37.5251484,-122.2686683,,23.92075,0.1,314.9156,1591305154441
Fix,GT,37.5253093,-122.2688492,,24.017406,0.1,314.97968,1591305155441
Fix,GT,37.5254709,-122.2690307,,24.140324,0.1,314.96497,1591305156441
Fix,GT,37.5256334,-122.2692135,,24.294697,0.1,314.89615,1591305157441
Fix,GT,37.5257969,-122.269398,,24.487543,0.1,314.77145,1591305158441
Fix,GT,37.5259614,-122.2695842,,24.691002,0.1,314.75446,1591305159441
Fix,GT,37.5261275,-122.2697722,,24.928663,0.1,314.78656,1591305160441
Fix,GT,37.5262954,-122.2699619,,25.21122,0.1,314.7826,1591305161441
Fix,GT,37.5264652,-122.2701541,,25.51218,0.1,314.78986,1591305162441
Fix,GT,37.5266371,-122.2703482,,25.80164,0.1,314.911,1591305163441
Fix,GT,37.5268113,-122.2705438,,26.085014,0.1,315.1602,1591305164441
Fix,GT,37.5269882,-122.2707406,,26.34035,0.1,315.37607,1591305165441
Fix,GT,37.5271672,-122.270938,,26.5005,0.1,315.5484,1591305166441
Fix,GT,37.5273467,-122.2711358,,26.482595,0.1,315.376,1591305167441
Fix,GT,37.5275245,-122.2713342,,26.337473,0.1,314.9093,1591305168441
Fix,GT,37.5277001,-122.2715332,,26.192732,0.1,314.58734,1591305169441
Fix,GT,37.5278745,-122.271732,,26.096867,0.1,314.58395,1591305170441
Fix,GT,37.5280489,-122.2719297,,26.064995,0.1,314.80096,1591305171441
Fix,GT,37.5282235,-122.2721271,,26.087212,0.1,314.76913,1591305172441
Fix,GT,37.5283978,-122.2723253,,26.118645,0.1,314.45862,1591305173441
