MessageType,Provider,LatitudeDegrees,LongitudeDegrees,AltitudeMeters,SpeedMps,AccuracyMeters,BearingDegrees,UnixTimeMillis
Fix,GT,37.5250519,-122.3531501,,0.001441865,0.1,139.82513,1595027615441
Fix,GT,37.5250519,-122.3531501,,0.0030923504,0.1,139.82504,1595027616441
Fix,GT,37.5250519,-122.3531501,,0.0060584852,0.1,139.82397,1595027617441
Fix,GT,37.5250519,-122.3531501,,0.005124719,0.1,139.82208,1595027618441
Fix,GT,37.5250519,-122.3531502,,0.0014142136,0.1,139.8197,1595027619441
Fix,GT,37.5250519,-122.3531502,,0.0040061483,0.1,139.81683,1595027620441
Fix,GT,37.5250519,-122.3531502,,0.0049470137,0.1,139.82028,1595027621441
Fix,GT,37.525052,-122.3531502,,0.0011162699,0.1,139.82642,1595027622441
Fix,GT,37.525052,-122.3531502,,0.0004418651,0.1,139.82526,1595027623441
Fix,GT,37.525052,-122.3531502,,0.0005581349,0.1,139.82495,1595027624441
Fix,GT,37.525052,-122.3531502,,0.00062489155,0.1,139.82526,1595027625441
Fix,GT,37.525052,-122.3531502,,0.001231187,0.1,139.82562,1595027626441
Fix,GT,37.525052,-122.3531502,,0.0005581349,0.1,139.82568,1595027627441
Fix,GT,37.525052,-122.3531502,,0.0004418651,0.1,139.8258,1595027628441
Fix,GT,37.525052,-122.3531502,,0.0011830265,0.1,139.82568,1595027629441
Fix,GT,37.525052,-122.3531502,,0.002186622,0.1,139.82544,1595027630441
Fix,GT,37.525052,-122.3531502,,0.002753018,0.1,139.82535,1595027631441
Fix,GT,37.525052,-122.3531502,,0.0032241084,0.1,139.8252,1595027632441
Fix,GT,37.525052,-122.3531502,,0.0048755715,0.1,139.82507,1595027633441
Fix,GT,37.525052,-122.3531502,,0.006191983,0.1,139.82379,1595027634441
Fix,GT,37.525052,-122.3531502,,0.008216668,0.1,139.82104,1595027635441
Fix,GT,37.5250521,-122.3531503,,0.008857363,0.1,139.82236,1595027636441
Fix,GT,37.5250522,-122.3531503,,0.0057496107,0.1,139.82373,1595027637441
Fix,GT,37.5250522,-122.3531503,,0.002975944,0.1,139.82208,1595027638441
Fix,GT,37.5250523,-122.3531503,,0.004144494,0.1,139.82346,1595027639441
Fix,GT,37.5250523,-122.3531504,,0.018937321,0.1,139.8274,1595027640441
Fix,GT,37.5250504,-122.353148,,0.6820114,0.1,139.19861,1595027641441
Fix,GT,37.5250414,-122.3531354,,2.4425392,0.1,135.7981,1595027642441
Fix,GT,37.5250216,-122.3531045,,4.43709,0.1,130.75473,1595027643441
Fix,GT,37.5249907,-122.3530578,,6.188054,0.1,130.53418,1595027644441
Fix,GT,37.5249471,-122.3530031,,7.38208,0.1,136.03595,1595027645441
Fix,GT,37.5248951,-122.3529487,,7.387306,0.1,141.0008,1595027646441
Fix,GT,37.5248449,-122.3529009,,6.465433,0.1,142.99045,1595027647441
Fix,GT,37.5248017,-122.3528629,,5.308714,0.1,145.36557,1595027648441
Fix,GT,37.5247631,-122.352837,,4.5924854,0.1,153.021,1595027649441
Fix,GT,37.5247223,-122.3528264,,4.9069567,0.1,169.20245,1595027650441
Fix,GT,37.5246755,-122.3528359,,5.8146,0.1,190.8532,1595027651441
Fix,GT,37.5246258,-122.3528681,,6.857385,0.1,209.86708,1595027652441
Fix,GT,37.5245739,-122.352921,,8.074572,0.1,220.95746,1595027653441
Fix,GT,37.5245181,-122.3529891,,9.145921,0.1,225.31584,1595027654441
Fix,GT,37.5244587,-122.3530662,,9.776454,0.1,226.67625,1595027655441
Fix,GT,37.5243973,-122.3531475,,10.006422,0.1,226.75346,1595027656441
Fix,GT,37.5243347,-122.3532293,,10.047971,0.1,226.17262,1595027657441
Fix,GT,37.5242714,-122.3533097,,9.967022,0.1,225.5093,1595027658441
Fix,GT,37.524207,-122.3533886,,10.079351,0.1,224.05339,1595027659441
Fix,GT,37.524139,-122.3534669,,10.427862,0.1,221.85829,1595027660441
Fix,GT,37.5240655,-122.3535443,,10.872732,0.1,219.19312,1595027661441
Fix,GT,37.5239846,-122.3536185,,11.366165,0.1,214.80518,1595027662441
Fix,GT,37.5238949,-122.3536857,,11.872391,0.1,208.85794,1595027663441
Fix,GT,37.5237957,-122.3537435,,12.404101,0.1,203.31366,1595027664441
Fix,GT,37.5236898,-122.3537961,,12.858183,0.1,201.13176,1595027665441
Fix,GT,37.5235809,-122.3538491,,13.013184,0.1,201.5625,1595027666441
Fix,GT,37.5234742,-122.3539079,,12.891911,0.1,205.7089,1595027667441
Fix,GT,37.5233757,-122.3539824,,12.778601,0.1,214.87952,1595027668441
Fix,GT,37.5232909,-122.3540787,,12.827353,0.1,226.62057,1595027669441
Fix,GT,37.5232247,-122.3541967,,13.0044365,0.1,239.94237,1595027670441
Fix,GT,37.5231822,-122.3543329,,13.124077,0.1,254.02069,1595027671441
Fix,GT,37.5231631,-122.3544784,,13.1275425,0.1,264.39935,1595027672441
Fix,GT,37.5231571,-122.3546267,,13.217595,0.1,268.34143,1595027673441
Fix,GT,37.5231545,-122.3547765,,13.299822,0.1,269.20264,1595027674441
Fix,GT,37.5231523,-122.3549273,,13.384875,0.1,269.18207,1595027675441
Fix,GT,37.5231496,-122.3550796,,13.527245,0.1,268.95123,1595027676441
Fix,GT,37.5231466,-122.3552333,,13.662024,0.1,268.79257,1595027677441
Fix,GT,37.5231432,-122.3553888,,13.820235,0.1,268.48694,1595027678441
Fix,GT,37.5231391,-122.3555457,,13.9360695,0.1,268.247,1595027679441
Fix,GT,37.5231348,-122.3557039,,14.086021,0.1,268.36517,1595027680441
Fix,GT,37.5231314,-122.3558636,,14.144846,0.1,268.8304,1595027681441
Fix,GT,37.5231291,-122.356023,,13.983519,0.1,269.22607,1595027682441
Fix,GT,37.5231271,-122.3561789,,13.518753,0.1,269.1919,1595027683441
Fix,GT,37.5231247,-122.3563268,,12.567343,0.1,268.84402,1595027684441
Fix,GT,37.523122,-122.3564617,,11.187544,0.1,268.51562,1595027685441
Fix,GT,37.523119,-122.3565788,,9.428775,0.1,268.35553,1595027686441
Fix,GT,37.5231169,-122.356674,,7.3220453,0.1,268.58887,1595027687441
Fix,GT,37.5231155,-122.3567433,,4.9028997,0.1,268.5747,1595027688441
Fix,GT,37.5231143,-122.3567841,,2.3464594,0.1,268.13513,1595027689441
Fix,GT,37.5231138,-122.3567991,,0.55084246,0.1,267.8645,1595027690441
Fix,GT,37.5231137,-122.3568011,,0.01403371,0.1,267.85165,1595027691441
Fix,GT,37.5231137,-122.3568011,,0.0071741967,0.1,267.84988,1595027692441
Fix,GT,37.5231137,-122.356801,,0.009684086,0.1,267.85004,1595027693441
Fix,GT,37.5231137,-122.3568009,,0.0099332165,0.1,267.85022,1595027694441
Fix,GT,37.5231137,-122.3568008,,0.009665539,0.1,267.85016,1595027695441
Fix,GT,37.5231137,-122.3568007,,0.0110266525,0.1,267.8498,1595027696441
Fix,GT,37.5231137,-122.3568007,,0.0136498585,0.1,267.84918,1595027697441
Fix,GT,37.5231137,-122.3568007,,0.015403638,0.1,267.849,1595027698441
Fix,GT,37.5231136,-122.3568006,,0.019218903,0.1,267.8488,1595027699441
Fix,GT,37.5231137,-122.3568004,,0.021489605,0.1,267.8491,1595027700441
Fix,GT,37.5231137,-122.3568003,,0.020860374,0.1,267.84946,1595027701441
Fix,GT,37.5231138,-122.3568002,,0.023391575,0.1,267.84927,1595027702441
Fix,GT,37.5231138,-122.3568001,,0.030590413,0.1,267.8491,1595027703441
Fix,GT,37.523114,-122.3567999,,0.04311379,0.1,267.84842,1595027704441
Fix,GT,37.5231142,-122.3567997,,0.05848024,0.1,267.8483,1595027705441
Fix,GT,37.5231144,-122.3567995,,0.07454186,0.1,267.8482,1595027706441
Fix,GT,37.5231147,-122.3568018,,0.7199166,0.1,267.54086,1595027707441
Fix,GT,37.5231111,-122.3568181,,2.4870439,0.1,260.7701,1595027708441
Fix,GT,37.5230945,-122.356852,,4.406823,0.1,241.4967,1595027709441
Fix,GT,37.5230571,-122.3568863,,5.9282293,0.1,215.35326,1595027710441
Fix,GT,37.5230001,-122.3569047,,7.202936,0.1,192.10754,1595027711441
Fix,GT,37.5229308,-122.3569049,,8.091586,0.1,178.50012,1595027712441
Fix,GT,37.5228555,-122.3568919,,8.883677,0.1,170.66711,1595027713441
Fix,GT,37.5227739,-122.3568645,,9.948704,0.1,163.7182,1595027714441
Fix,GT,37.5226852,-122.3568257,,10.804821,0.1,160.30713,1595027715441
Fix,GT,37.5225931,-122.3567828,,10.911247,0.1,159.95428,1595027716441
Fix,GT,37.5225037,-122.3567418,,10.105562,0.1,160.50305,1595027717441
Fix,GT,37.5224241,-122.3567073,,8.484487,0.1,161.75024,1595027718441
Fix,GT,37.5223593,-122.3566814,,6.6514072,0.1,162.56909,1595027719441
Fix,GT,37.5223092,-122.3566554,,5.5677276,0.1,154.80304,1595027720441
Fix,GT,37.5222725,-122.3566142,,5.628652,0.1,134.63727,1595027721441
Fix,GT,37.5222505,-122.3565527,,6.5282288,0.1,111.757996,1595027722441
Fix,GT,37.5222403,-122.3564704,,8.360578,0.1,98.05463,1595027723441
Fix,GT,37.5222281,-122.3563642,,10.63484,0.1,99.977875,1595027724441
Fix,GT,37.5221978,-122.3562378,,12.825291,0.1,110.52695,1595027725441
Fix,GT,37.5221382,-122.3561027,,14.667807,0.1,124.04135,1595027726441
Fix,GT,37.5220449,-122.3559753,,16.280476,0.1,138.1319,1595027727441
Fix,GT,37.5219199,-122.3558651,,17.930956,0.1,148.86713,1595027728441
Fix,GT,37.5217707,-122.3557646,,19.731636,0.1,153.18427,1595027729441
Fix,GT,37.521604,-122.3556608,,21.559437,0.1,154.1272,1595027730441
Fix,GT,37.5214214,-122.3555507,,23.328197,0.1,154.74274,1595027731441
Fix,GT,37.5212252,-122.3554346,,24.763884,0.1,154.85669,1595027732441
Fix,GT,37.521019,-122.3553103,,26.04513,0.1,154.0398,1595027733441
Fix,GT,37.5208038,-122.3551745,,27.388466,0.1,153.05591,1595027734441
Fix,GT,37.5205804,-122.3550295,,28.237762,0.1,152.70068,1595027735441
Fix,GT,37.5203536,-122.3548821,,28.311676,0.1,153.02448,1595027736441
Fix,GT,37.5201285,-122.3547385,,27.722748,0.1,153.31165,1595027737441
Fix,GT,37.5199089,-122.3545976,,27.056404,0.1,152.65942,1595027738441
Fix,GT,37.5196953,-122.3544534,,26.827454,0.1,150.93085,1595027739441
Fix,GT,37.5194862,-122.3543017,,26.808372,0.1,149.57465,1595027740441
Fix,GT,37.5192789,-122.3541466,,26.704575,0.1,149.28146,1595027741441
Fix,GT,37.5190725,-122.3539912,,26.770945,0.1,148.95764,1595027742441
Fix,GT,37.5188657,-122.3538315,,27.16779,0.1,148.05066,1595027743441
Fix,GT,37.5186571,-122.3536638,,27.839052,0.1,147.04456,1595027744441
Fix,GT,37.5184456,-122.3534881,,28.458843,0.1,146.27188,1595027745441
Fix,GT,37.5182327,-122.3533066,,28.595352,0.1,145.65723,1595027746441
Fix,GT,37.5180218,-122.3531224,,28.40652,0.1,144.94626,1595027747441
Fix,GT,37.5178144,-122.3529355,,28.319187,0.1,143.94574,1595027748441
Fix,GT,37.5176094,-122.352743,,28.571758,0.1,142.69785,1595027749441
Fix,GT,37.517405,-122.3525415,,29.185759,0.1,141.16772,1595027750441
Fix,GT,37.5171996,-122.352327,,30.151205,0.1,139.58752,1595027751441
Fix,GT,37.5169919,-122.3520981,,31.19152,0.1,138.19257,1595027752441
Fix,GT,37.5167816,-122.351857,,31.969788,0.1,137.3964,1595027753441
Fix,GT,37.5165677,-122.3516099,,32.473145,0.1,137.87958,1595027754441
Fix,GT,37.5163484,-122.3513647,,32.736244,0.1,139.05359,1595027755441
Fix,GT,37.516124,-122.3511217,,33.111053,0.1,139.4845,1595027756441
Fix,GT,37.5158955,-122.3508757,,33.713135,0.1,139.56625,1595027757441
Fix,GT,37.5156628,-122.3506262,,34.18906,0.1,139.79834,1595027758441
Fix,GT,37.5154266,-122.3503747,,34.525307,0.1,139.93088,1595027759441
Fix,GT,37.5151878,-122.3501218,,34.79126,0.1,139.95169,1595027760441
Fix,GT,37.5149475,-122.3498672,,35.007458,0.1,139.85251,1595027761441
Fix,GT,37.5147066,-122.3496107,,35.054855,0.1,139.6659,1595027762441
Fix,GT,37.5144666,-122.3493531,,35.069733,0.1,139.54062,1595027763441
Fix,GT,37.5142263,-122.3490944,,35.24953,0.1,139.52332,1595027764441
Fix,GT,37.5139846,-122.3488344,,35.37938,0.1,139.48279,1595027765441
Fix,GT,37.5137429,-122.3485734,,35.376328,0.1,139.3302,1595027766441
Fix,GT,37.5135019,-122.3483113,,35.423798,0.1,139.2016,1595027767441
Fix,GT,37.5132607,-122.3480476,,35.577415,0.1,138.97266,1595027768441
Fix,GT,37.5130197,-122.3477811,,35.694313,0.1,138.44415,1595027769441
Fix,GT,37.5127808,-122.3475108,,35.67128,0.1,137.7464,1595027770441
Fix,GT,37.5125456,-122.3472371,,35.503098,0.1,136.98126,1595027771441
Fix,GT,37.512314,-122.346962,,35.24559,0.1,136.51193,1595027772441
Fix,GT,37.512086,-122.3466871,,34.91706,0.1,136.04211,1595027773441
Fix,GT,37.5118625,-122.346412,,34.568188,0.1,135.38348,1595027774441
Fix,GT,37.5116435,-122.3461366,,34.24638,0.1,134.74457,1595027775441
Fix,GT,37.5114291,-122.3458602,,33.964966,0.1,133.98706,1595027776441
Fix,GT,37.5112195,-122.3455823,,33.71572,0.1,133.20618,1595027777441
Fix,GT,37.5110141,-122.3453033,,33.491196,0.1,132.52924,1595027778441
Fix,GT,37.5108123,-122.345023,,33.330048,0.1,131.96515,1595027779441
Fix,GT,37.5106132,-122.3447417,,33.176983,0.1,131.45923,1595027780441
Fix,GT,37.5104174,-122.3444593,,33.01642,0.1,130.8653,1595027781441
Fix,GT,37.5102245,-122.3441759,,32.896435,0.1,130.29626,1595027782441
Fix,GT,37.5100346,-122.3438908,,32.82104,0.1,129.60681,1595027783441
Fix,GT,37.5098477,-122.3436031,,32.81168,0.1,128.9696,1595027784441
Fix,GT,37.5096631,-122.3433129,,32.863304,0.1,128.33011,1595027785441
Fix,GT,37.509481,-122.3430192,,32.95645,0.1,127.69675,1595027786441
Fix,GT,37.5093006,-122.3427223,,33.077007,0.1,127.37457,1595027787441
Fix,GT,37.5091201,-122.3424238,,33.199776,0.1,127.31979,1595027788441
Fix,GT,37.508939,-122.3421242,,33.30137,0.1,127.273254,1595027789441
Fix,GT,37.5087575,-122.3418236,,33.41339,0.1,127.258575,1595027790441
Fix,GT,37.5085751,-122.3415218,,33.57493,0.1,127.38367,1595027791441
Fix,GT,37.5083914,-122.3412191,,33.727737,0.1,127.45355,1595027792441
Fix,GT,37.5082068,-122.3409151,,33.849403,0.1,127.4411,1595027793441
Fix,GT,37.5080216,-122.34061,,33.99582,0.1,127.48602,1595027794441
Fix,GT,37.5078348,-122.3403039,,34.179306,0.1,127.68109,1595027795441
Fix,GT,37.5076461,-122.3399971,,34.343575,0.1,127.900085,1595027796441
Fix,GT,37.5074561,-122.3396896,,34.472576,0.1,127.84952,1595027797441
Fix,GT,37.507266,-122.3393803,,34.60958,0.1,127.63489,1595027798441
Fix,GT,37.5070762,-122.3390686,,34.796837,0.1,127.49182,1595027799441
Fix,GT,37.5068855,-122.3387548,,34.990997,0.1,127.566345,1595027800441
Fix,GT,37.5066933,-122.3384403,,35.107067,0.1,127.61505,1595027801441
Fix,GT,37.506501,-122.3381247,,35.164875,0.1,127.55487,1595027802441
Fix,GT,37.5063081,-122.3378087,,35.21563,0.1,127.66095,1595027803441
Fix,GT,37.5061149,-122.3374929,,35.19896,0.1,127.63281,1595027804441
Fix,GT,37.5059226,-122.3371777,,34.985947,0.1,127.627106,1595027805441
Fix,GT,37.5057316,-122.3368658,,34.559074,0.1,127.949524,1595027806441
Fix,GT,37.5055411,-122.3365598,,34.09448,0.1,128.39996,1595027807441
Fix,GT,37.5053514,-122.3362593,,33.723442,0.1,128.70901,1595027808441
Fix,GT,37.5051622,-122.3359624,,33.540226,0.1,128.9108,1595027809441
Fix,GT,37.5049726,-122.3356676,,33.5074,0.1,129.23077,1595027810441
Fix,GT,37.504781,-122.3353739,,33.6451,0.1,129.63898,1595027811441
Fix,GT,37.5045863,-122.3350803,,33.949512,0.1,130.17285,1595027812441
Fix,GT,37.5043872,-122.3347863,,34.290474,0.1,130.83337,1595027813441
Fix,GT,37.5041841,-122.334492,,34.554523,0.1,131.19604,1595027814441
Fix,GT,37.503979,-122.3341964,,34.726177,0.1,131.17139,1595027815441
Fix,GT,37.5037731,-122.3338994,,34.86807,0.1,131.1665,1595027816441
Fix,GT,37.5035662,-122.3336016,,35.013836,0.1,131.31342,1595027817441
Fix,GT,37.5033577,-122.3333031,,35.20661,0.1,131.45343,1595027818441
Fix,GT,37.5031475,-122.3330033,,35.459835,0.1,131.53534,1595027819441
Fix,GT,37.5029353,-122.3327014,,35.752274,0.1,131.56354,1595027820441
Fix,GT,37.5027216,-122.3323967,,36.03747,0.1,131.43622,1595027821441
Fix,GT,37.5025074,-122.3320891,,36.216595,0.1,131.1641,1595027822441
Fix,GT,37.5022942,-122.3317785,,36.28454,0.1,130.43524,1595027823441
Fix,GT,37.5020856,-122.331462,,36.3684,0.1,128.78748,1595027824441
Fix,GT,37.5018856,-122.3311357,,36.435417,0.1,126.22537,1595027825441
Fix,GT,37.5016982,-122.3307979,,36.352943,0.1,123.41058,1595027826441
Fix,GT,37.5015234,-122.3304509,,36.27648,0.1,121.31531,1595027827441
Fix,GT,37.5013586,-122.3300967,,36.27497,0.1,119.22916,1595027828441
Fix,GT,37.5012055,-122.3297345,,36.256493,0.1,116.69083,1595027829441
Fix,GT,37.5010654,-122.329364,,36.276314,0.1,114.28955,1595027830441
Fix,GT,37.5009367,-122.3289865,,36.354965,0.1,112.14606,1595027831441
Fix,GT,37.5008185,-122.3286024,,36.470535,0.1,110.13287,1595027832441
Fix,GT,37.5007111,-122.3282121,,36.57805,0.1,107.97888,1595027833441
Fix,GT,37.5006157,-122.3278159,,36.625946,0.1,105.611694,1595027834441
Fix,GT,37.5005338,-122.3274147,,36.62963,0.1,103.16019,1595027835441
Fix,GT,37.5004654,-122.3270095,,36.644325,0.1,100.785126,1595027836441
Fix,GT,37.5004102,-122.3266006,,36.725044,0.1,98.50995,1595027837441
Fix,GT,37.5003676,-122.3261879,,36.90283,0.1,96.327576,1595027838441
Fix,GT,37.5003374,-122.3257714,,37.067993,0.1,94.16461,1595027839441
Fix,GT,37.5003192,-122.3253519,,37.22789,0.1,92.11859,1595027840441
Fix,GT,37.5003114,-122.3249304,,37.3535,0.1,90.78836,1595027841441
Fix,GT,37.5003082,-122.3245075,,37.41254,0.1,90.54794,1595027842441
Fix,GT,37.5003048,-122.3240844,,37.43721,0.1,90.816956,1595027843441
Fix,GT,37.5002999,-122.323661,,37.455345,0.1,91.09299,1595027844441
Fix,GT,37.5002932,-122.3232376,,37.428753,0.1,91.47473,1595027845441
Fix,GT,37.5002825,-122.3228147,,37.404274,0.1,92.594086,1595027846441
Fix,GT,37.5002626,-122.3223929,,37.357647,0.1,94.72247,1595027847441
Fix,GT,37.5002294,-122.3219727,,37.360077,0.1,97.0314,1595027848441
Fix,GT,37.5001836,-122.3215539,,37.4309,0.1,98.99933,1595027849441
Fix,GT,37.5001267,-122.3211366,,37.46414,0.1,100.82944,1595027850441
Fix,GT,37.5000591,-122.3207219,,37.429443,0.1,102.78671,1595027851441
Fix,GT,37.4999802,-122.3203106,,37.406498,0.1,104.75299,1595027852441
Fix,GT,37.4998901,-122.3199034,,37.352936,0.1,106.70459,1595027853441
Fix,GT,37.4997891,-122.3195011,,37.241364,0.1,108.74875,1595027854441
Fix,GT,37.4996767,-122.319105,,37.166664,0.1,110.990906,1595027855441
Fix,GT,37.4995517,-122.3187153,,37.164932,0.1,113.27484,1595027856441
Fix,GT,37.4994148,-122.3183316,,37.21577,0.1,115.36151,1595027857441
Fix,GT,37.4992672,-122.3179537,,37.233257,0.1,117.27478,1595027858441
Fix,GT,37.4991096,-122.3175825,,37.195915,0.1,119.18057,1595027859441
Fix,GT,37.4989428,-122.317218,,37.16371,0.1,121.030365,1595027860441
Fix,GT,37.4987671,-122.3168606,,37.111492,0.1,122.74347,1595027861441
Fix,GT,37.4985837,-122.3165103,,37.04564,0.1,124.15604,1595027862441
Fix,GT,37.4983951,-122.3161651,,36.97793,0.1,124.95975,1595027863441
Fix,GT,37.498204,-122.3158227,,37.008358,0.1,125.3161,1595027864441
Fix,GT,37.4980114,-122.3154803,,37.091263,0.1,125.28107,1595027865441
Fix,GT,37.497819,-122.3151369,,37.121315,0.1,125.11734,1595027866441
Fix,GT,37.4976274,-122.314793,,37.113197,0.1,125.089294,1595027867441
Fix,GT,37.4974358,-122.3144491,,37.094296,0.1,125.00958,1595027868441
Fix,GT,37.4972455,-122.3141043,,37.10075,0.1,124.611145,1595027869441
Fix,GT,37.4970576,-122.3137573,,37.104267,0.1,123.8587,1595027870441
Fix,GT,37.4968746,-122.3134065,,37.022522,0.1,122.61026,1595027871441
Fix,GT,37.4966996,-122.3130521,,36.654327,0.1,121.03851,1595027872441
Fix,GT,37.4965348,-122.3126969,,36.029,0.1,119.40524,1595027873441
Fix,GT,37.4963806,-122.3123419,,35.538887,0.1,117.976685,1595027874441
Fix,GT,37.4962345,-122.3119861,,35.292084,0.1,116.71246,1595027875441
Fix,GT,37.4960958,-122.3116284,,35.04059,0.1,115.32904,1595027876441
Fix,GT,37.4959651,-122.3112703,,34.584435,0.1,114.01245,1595027877441
Fix,GT,37.4958428,-122.3109142,,33.977814,0.1,112.74194,1595027878441
Fix,GT,37.495729,-122.3105615,,33.330334,0.1,111.50336,1595027879441
Fix,GT,37.4956233,-122.3102127,,32.703217,0.1,110.24231,1595027880441
Fix,GT,37.4955253,-122.3098674,,32.159348,0.1,109.129395,1595027881441
Fix,GT,37.4954332,-122.3095247,,31.866184,0.1,108.2406,1595027882441
Fix,GT,37.4953454,-122.3091818,,31.914352,0.1,107.50922,1595027883441
Fix,GT,37.4952603,-122.3088355,,32.225063,0.1,106.995514,1595027884441
Fix,GT,37.4951755,-122.3084835,,32.849422,0.1,106.83557,1595027885441
Fix,GT,37.4950891,-122.3081238,,33.539562,0.1,106.951355,1595027886441
Fix,GT,37.4950006,-122.3077586,,33.879913,0.1,107.06387,1595027887441
Fix,GT,37.4949115,-122.307393,,33.677418,0.1,107.16943,1595027888441
Fix,GT,37.4948229,-122.3070323,,33.08905,0.1,107.315155,1595027889441
Fix,GT,37.4947355,-122.3066776,,32.607555,0.1,107.208374,1595027890441
Fix,GT,37.4946499,-122.3063261,,32.441437,0.1,107.015076,1595027891441
Fix,GT,37.4945646,-122.3059745,,32.651043,0.1,107.15643,1595027892441
Fix,GT,37.4944757,-122.3056197,,33.192284,0.1,108.21094,1595027893441
Fix,GT,37.4943778,-122.3052614,,33.750782,0.1,110.13309,1595027894441
Fix,GT,37.4942672,-122.3049042,,34.009686,0.1,112.828156,1595027895441
Fix,GT,37.4941417,-122.3045524,,34.29199,0.1,115.74646,1595027896441
Fix,GT,37.4940017,-122.3042039,,34.856667,0.1,118.09338,1595027897441
Fix,GT,37.4938482,-122.3038557,,35.538803,0.1,120.27792,1595027898441
Fix,GT,37.4936818,-122.3035093,,36.018982,0.1,122.190674,1595027899441
Fix,GT,37.4935045,-122.3031671,,36.147873,0.1,124.18338,1595027900441
Fix,GT,37.4933178,-122.3028326,,36.065804,0.1,126.38461,1595027901441
Fix,GT,37.4931218,-122.3025084,,35.968037,0.1,128.43576,1595027902441
Fix,GT,37.492917,-122.3021933,,36.002037,0.1,130.35883,1595027903441
Fix,GT,37.4927034,-122.3018865,,36.087364,0.1,132.40814,1595027904441
Fix,GT,37.4924806,-122.3015894,,36.06029,0.1,134.6734,1595027905441
Fix,GT,37.492249,-122.3013048,,35.913734,0.1,137.02399,1595027906441
Fix,GT,37.4920093,-122.3010336,,35.76457,0.1,139.32501,1595027907441
Fix,GT,37.4917617,-122.3007757,,35.68873,0.1,141.72528,1595027908441
Fix,GT,37.4915056,-122.300532,,35.7379,0.1,144.38947,1595027909441
Fix,GT,37.4912398,-122.3003018,,36.01349,0.1,146.84827,1595027910441
Fix,GT,37.4909641,-122.3000835,,36.35728,0.1,149.05316,1595027911441
Fix,GT,37.4906798,-122.2998768,,36.602757,0.1,151.23245,1595027912441
Fix,GT,37.4903875,-122.2996826,,36.814796,0.1,153.39526,1595027913441
Fix,GT,37.490088,-122.2995018,,36.999664,0.1,155.71552,1595027914441
Fix,GT,37.4897816,-122.2993362,,37.066574,0.1,158.13855,1595027915441
Fix,GT,37.48947,-122.2991868,,36.977303,0.1,160.47418,1595027916441
Fix,GT,37.4891552,-122.2990534,,36.768738,0.1,162.68915,1595027917441
Fix,GT,37.4888386,-122.2989363,,36.539993,0.1,164.95337,1595027918441
Fix,GT,37.4885206,-122.298836,,36.28467,0.1,167.28357,1595027919441
Fix,GT,37.4882022,-122.2987529,,35.940628,0.1,169.66333,1595027920441
Fix,GT,37.4878842,-122.2986869,,35.632942,0.1,171.97687,1595027921441
Fix,GT,37.487567,-122.2986369,,35.34204,0.1,174.12958,1595027922441
Fix,GT,37.4872513,-122.2986018,,35.028587,0.1,176.20197,1595027923441
Fix,GT,37.4869378,-122.2985819,,34.69119,0.1,178.46008,1595027924441
Fix,GT,37.4866269,-122.2985781,,34.358353,0.1,180.85803,1595027925441
Fix,GT,37.4863191,-122.2985906,,34.04796,0.1,183.30016,1595027926441
Fix,GT,37.4860147,-122.2986187,,33.69574,0.1,185.5152,1595027927441
Fix,GT,37.485715,-122.2986591,,33.212654,0.1,186.97026,1595027928441
Fix,GT,37.4854204,-122.2987055,,32.72832,0.1,187.46982,1595027929441
Fix,GT,37.4851297,-122.2987527,,32.357002,0.1,187.4557,1595027930441
Fix,GT,37.484842,-122.2987988,,32.00856,0.1,187.32083,1595027931441
Fix,GT,37.4845578,-122.2988438,,31.585907,0.1,187.33376,1595027932441
Fix,GT,37.4842775,-122.2988888,,31.164228,0.1,187.48752,1595027933441
Fix,GT,37.4840004,-122.2989333,,30.850468,0.1,187.22841,1595027934441
Fix,GT,37.483725,-122.2989746,,30.772293,0.1,186.555,1595027935441
Fix,GT,37.4834484,-122.2990119,,31.059258,0.1,186.02667,1595027936441
Fix,GT,37.4831677,-122.2990484,,31.625296,0.1,186.11179,1595027937441
Fix,GT,37.4828813,-122.2990874,,32.34363,0.1,186.61438,1595027938441
Fix,GT,37.4825883,-122.2991307,,33.122997,0.1,187.09726,1595027939441
Fix,GT,37.4822893,-122.2991778,,33.786766,0.1,187.42331,1595027940441
Fix,GT,37.4819851,-122.2992273,,34.25742,0.1,187.49512,1595027941441
Fix,GT,37.4816777,-122.2992773,,34.525963,0.1,187.48885,1595027942441
Fix,GT,37.4813689,-122.2993277,,34.563038,0.1,187.61693,1595027943441
Fix,GT,37.4810608,-122.2993786,,34.406,0.1,187.57442,1595027944441
Fix,GT,37.4807547,-122.2994287,,34.10682,0.1,187.52966,1595027945441
Fix,GT,37.4804513,-122.2994783,,33.80902,0.1,187.58057,1595027946441
Fix,GT,37.4801506,-122.2995273,,33.50257,0.1,187.4082,1595027947441
Fix,GT,37.4798523,-122.2995734,,33.21803,0.1,186.85262,1595027948441
Fix,GT,37.4795556,-122.2996144,,33.052956,0.1,185.89139,1595027949441
Fix,GT,37.4792592,-122.2996473,,33.023026,0.1,184.46169,1595027950441
Fix,GT,37.4789622,-122.2996699,,33.04849,0.1,182.6083,1595027951441
Fix,GT,37.4786646,-122.2996796,,33.044205,0.1,180.51115,1595027952441
Fix,GT,37.4783668,-122.2996761,,33.04384,0.1,178.55945,1595027953441
Fix,GT,37.4780693,-122.2996599,,33.103554,0.1,176.63977,1595027954441
Fix,GT,37.4777716,-122.2996305,,33.166107,0.1,174.37671,1595027955441
Fix,GT,37.4774751,-122.2995856,,33.1548,0.1,171.98016,1595027956441
Fix,GT,37.4771804,-122.2995255,,33.102028,0.1,169.80042,1595027957441
Fix,GT,37.4768883,-122.2994523,,33.057938,0.1,167.70526,1595027958441
Fix,GT,37.4765987,-122.2993658,,33.020256,0.1,165.7088,1595027959441
Fix,GT,37.4763122,-122.2992671,,32.93633,0.1,163.73492,1595027960441
Fix,GT,37.4760298,-122.2991567,,32.64774,0.1,161.76727,1595027961441
Fix,GT,37.4757545,-122.2990357,,32.086372,0.1,159.78528,1595027962441
Fix,GT,37.4754876,-122.2989055,,31.498032,0.1,157.88281,1595027963441
Fix,GT,37.4752284,-122.2987667,,31.082941,0.1,155.97058,1595027964441
Fix,GT,37.4749764,-122.2986182,,30.74823,0.1,153.93066,1595027965441
Fix,GT,37.4747311,-122.2984605,,30.45153,0.1,152.00409,1595027966441
Fix,GT,37.4744922,-122.2982943,,30.201912,0.1,150.20844,1595027967441
Fix,GT,37.4742591,-122.2981203,,30.017494,0.1,148.46048,1595027968441
Fix,GT,37.4740315,-122.2979384,,29.870388,0.1,146.75253,1595027969441
Fix,GT,37.4738093,-122.2977486,,29.824772,0.1,144.94312,1595027970441
Fix,GT,37.473592,-122.2975495,,29.928583,0.1,143.04156,1595027971441
Fix,GT,37.4733791,-122.2973407,,30.076363,0.1,141.16553,1595027972441
Fix,GT,37.47317,-122.2971228,,30.246922,0.1,139.69183,1595027973441
Fix,GT,37.4729629,-122.2968993,,30.37172,0.1,139.40024,1595027974441
Fix,GT,37.472755,-122.2966761,,30.334135,0.1,139.61154,1595027975441
Fix,GT,37.4725478,-122.296454,,30.159874,0.1,139.51389,1595027976441
Fix,GT,37.4723424,-122.2962326,,29.937218,0.1,139.37494,1595027977441
Fix,GT,37.4721387,-122.2960124,,29.76048,0.1,139.26465,1595027978441
Fix,GT,37.4719365,-122.2957926,,29.626047,0.1,139.19284,1595027979441
Fix,GT,37.4717351,-122.295574,,29.496283,0.1,139.3606,1595027980441
Fix,GT,37.4715337,-122.2953574,,29.359823,0.1,139.68353,1595027981441
Fix,GT,37.4713321,-122.2951432,,29.307568,0.1,139.9906,1595027982441
Fix,GT,37.4711299,-122.294929,,29.470024,0.1,139.83264,1595027983441
Fix,GT,37.4709268,-122.2947118,,29.801374,0.1,139.48691,1595027984441
Fix,GT,37.4707216,-122.2944904,,30.276163,0.1,139.35883,1595027985441
Fix,GT,37.4705126,-122.2942653,,30.837334,0.1,139.59259,1595027986441
Fix,GT,37.4702984,-122.2940387,,31.34018,0.1,140.45172,1595027987441
Fix,GT,37.4700783,-122.2938143,,31.592632,0.1,141.62628,1595027988441
Fix,GT,37.4698535,-122.2935955,,31.542294,0.1,143.26413,1595027989441
Fix,GT,37.4696234,-122.2933871,,31.503157,0.1,145.44669,1595027990441
Fix,GT,37.4693874,-122.2931894,,31.499222,0.1,147.29883,1595027991441
Fix,GT,37.4691477,-122.293,,31.340961,0.1,148.70178,1595027992441
Fix,GT,37.4689058,-122.2928193,,31.15998,0.1,149.98694,1595027993441
Fix,GT,37.4686618,-122.2926456,,31.107117,0.1,151.13983,1595027994441
Fix,GT,37.4684154,-122.2924787,,31.07552,0.1,152.42706,1595027995441
Fix,GT,37.4681666,-122.2923194,,30.909744,0.1,153.831,1595027996441
Fix,GT,37.4679164,-122.2921695,,30.622444,0.1,155.48364,1595027997441
Fix,GT,37.4676654,-122.2920306,,30.310883,0.1,157.29102,1595027998441
Fix,GT,37.4674135,-122.2919027,,30.0344,0.1,158.85168,1595027999441
Fix,GT,37.4671609,-122.2917837,,29.888777,0.1,160.28192,1595028000441
Fix,GT,37.4669063,-122.2916727,,30.002434,0.1,161.66998,1595028001441
Fix,GT,37.4666478,-122.2915689,,30.26218,0.1,163.16608,1595028002441
Fix,GT,37.4663852,-122.2914734,,30.430813,0.1,164.78992,1595028003441
Fix,GT,37.4661197,-122.2913871,,30.430883,0.1,166.44043,1595028004441
Fix,GT,37.4658529,-122.2913105,,30.333267,0.1,168.0672,1595028005441
Fix,GT,37.4655853,-122.2912427,,30.304348,0.1,169.33923,1595028006441
Fix,GT,37.4653162,-122.2911818,,30.43861,0.1,170.48944,1595028007441
Fix,GT,37.4650445,-122.2911275,,30.664759,0.1,171.69983,1595028008441
Fix,GT,37.4647697,-122.2910802,,30.891294,0.1,173.0661,1595028009441
Fix,GT,37.4644926,-122.2910427,,30.999985,0.1,174.9848,1595028010441
Fix,GT,37.4642139,-122.2910172,,31.021027,0.1,176.85632,1595028011441
Fix,GT,37.463935,-122.2910005,,30.95121,0.1,177.89441,1595028012441
Fix,GT,37.463657,-122.2909888,,30.804024,0.1,178.53748,1595028013441
Fix,GT,37.4633797,-122.2909803,,30.791576,0.1,178.85968,1595028014441
Fix,GT,37.463102,-122.2909727,,30.86996,0.1,178.76135,1595028015441
Fix,GT,37.4628234,-122.2909644,,30.980698,0.1,178.75238,1595028016441
Fix,GT,37.4625443,-122.2909562,,30.97461,0.1,178.85962,1595028017441
Fix,GT,37.462266,-122.290948,,30.783882,0.1,178.6861,1595028018441
Fix,GT,37.4619898,-122.2909376,,30.561945,0.1,178.07843,1595028019441
Fix,GT,37.4617159,-122.2909226,,30.302252,0.1,177.11108,1595028020441
Fix,GT,37.4614447,-122.2908997,,30.036047,0.1,175.33142,1595028021441
Fix,GT,37.4611765,-122.2908652,,29.866125,0.1,173.21118,1595028022441
Fix,GT,37.4609098,-122.2908195,,29.929451,0.1,171.4787,1595028023441
Fix,GT,37.4606431,-122.2907635,,30.081493,0.1,169.75275,1595028024441
Fix,GT,37.4603767,-122.2906972,,30.220436,0.1,168.02484,1595028025441
Fix,GT,37.4601103,-122.2906204,,30.42992,0.1,166.29517,1595028026441
Fix,GT,37.4598447,-122.290533,,30.518476,0.1,164.52728,1595028027441
Fix,GT,37.4595813,-122.2904345,,30.494713,0.1,162.54504,1595028028441
Fix,GT,37.4593206,-122.2903248,,30.554626,0.1,160.65918,1595028029441
Fix,GT,37.4590618,-122.2902051,,30.673742,0.1,159.0044,1595028030441
Fix,GT,37.4588048,-122.2900745,,30.928274,0.1,157.0061,1595028031441
Fix,GT,37.4585491,-122.2899304,,31.298513,0.1,154.77368,1595028032441
Fix,GT,37.4582949,-122.2897723,,31.676464,0.1,152.66382,1595028033441
Fix,GT,37.4580425,-122.289601,,32.01894,0.1,150.69476,1595028034441
Fix,GT,37.4577922,-122.2894175,,32.321007,0.1,148.82416,1595028035441
Fix,GT,37.4575449,-122.2892224,,32.520954,0.1,147.00644,1595028036441
Fix,GT,37.4573019,-122.2890158,,32.63025,0.1,144.98651,1595028037441
Fix,GT,37.4570637,-122.2887986,,32.798935,0.1,143.30646,1595028038441
Fix,GT,37.4568278,-122.2885723,,33.113285,0.1,141.95181,1595028039441
Fix,GT,37.4565947,-122.2883355,,33.468414,0.1,140.04834,1595028040441
Fix,GT,37.4563668,-122.2880852,,33.76825,0.1,137.73611,1595028041441
Fix,GT,37.4561455,-122.2878214,,34.022694,0.1,135.33026,1595028042441
Fix,GT,37.4559315,-122.2875446,,34.20136,0.1,133.10773,1595028043441
Fix,GT,37.4557246,-122.287257,,34.363686,0.1,131.24359,1595028044441
Fix,GT,37.4555228,-122.2869607,,34.598053,0.1,129.98996,1595028045441
Fix,GT,37.4553235,-122.2866584,,34.784653,0.1,129.43445,1595028046441
Fix,GT,37.4551247,-122.2863536,,34.886024,0.1,129.36295,1595028047441
Fix,GT,37.4549254,-122.2860478,,35.00973,0.1,129.31122,1595028048441
Fix,GT,37.4547259,-122.2857408,,35.08246,0.1,129.32278,1595028049441
Fix,GT,37.4545257,-122.285434,,35.110455,0.1,129.51013,1595028050441
Fix,GT,37.4543244,-122.2851269,,35.277313,0.1,129.60052,1595028051441
Fix,GT,37.4541215,-122.2848179,,35.541473,0.1,129.54181,1595028052441
Fix,GT,37.4539178,-122.2845064,,35.748127,0.1,129.39398,1595028053441
Fix,GT,37.4537135,-122.2841932,,35.840538,0.1,129.38037,1595028054441
Fix,GT,37.4535086,-122.2838795,,35.933437,0.1,129.50952,1595028055441
Fix,GT,37.4533028,-122.2835652,,36.016266,0.1,129.57162,1595028056441
Fix,GT,37.4530964,-122.283251,,35.97694,0.1,129.64163,1595028057441
Fix,GT,37.4528904,-122.2829385,,35.800247,0.1,129.79407,1595028058441
Fix,GT,37.4526849,-122.2826282,,35.60328,0.1,129.84305,1595028059441
Fix,GT,37.4524801,-122.2823192,,35.514484,0.1,129.79684,1595028060441
Fix,GT,37.4522758,-122.2820101,,35.557785,0.1,129.71304,1595028061441
Fix,GT,37.4520715,-122.2817002,,35.58393,0.1,129.724,1595028062441
Fix,GT,37.4518669,-122.2813908,,35.568066,0.1,129.91687,1595028063441
Fix,GT,37.4516615,-122.281082,,35.626984,0.1,129.94324,1595028064441
Fix,GT,37.4514559,-122.2807721,,35.68739,0.1,129.78177,1595028065441
Fix,GT,37.451251,-122.2804612,,35.681007,0.1,129.60803,1595028066441
Fix,GT,37.4510468,-122.2801497,,35.716423,0.1,129.40451,1595028067441
Fix,GT,37.450843,-122.2798366,,35.81005,0.1,129.23633,1595028068441
Fix,GT,37.4506391,-122.2795221,,35.940212,0.1,129.17657,1595028069441
Fix,GT,37.4504344,-122.2792063,,36.069023,0.1,129.25958,1595028070441
Fix,GT,37.4502286,-122.2788902,,36.15973,0.1,129.43945,1595028071441
Fix,GT,37.4500216,-122.2785737,,36.29017,0.1,129.5216,1595028072441
Fix,GT,37.4498134,-122.2782558,,36.505424,0.1,129.52008,1595028073441
Fix,GT,37.4496037,-122.2779363,,36.692295,0.1,129.68555,1595028074441
Fix,GT,37.4493922,-122.2776165,,36.831226,0.1,129.92084,1595028075441
Fix,GT,37.4491792,-122.2772961,,36.989456,0.1,129.91199,1595028076441
Fix,GT,37.4489652,-122.2769744,,37.150948,0.1,129.81036,1595028077441
Fix,GT,37.448751,-122.2766505,,37.33972,0.1,129.62851,1595028078441
Fix,GT,37.4485364,-122.276324,,37.541267,0.1,129.6966,1595028079441
Fix,GT,37.4483193,-122.2759974,,37.70511,0.1,130.30219,1595028080441
Fix,GT,37.4480984,-122.2756735,,37.686447,0.1,131.04242,1595028081441
Fix,GT,37.4478756,-122.2753535,,37.502144,0.1,131.47284,1595028082441
Fix,GT,37.4476527,-122.2750365,,37.321205,0.1,131.57126,1595028083441
Fix,GT,37.4474304,-122.2747214,,37.146175,0.1,131.63165,1595028084441
Fix,GT,37.4472091,-122.2744075,,36.984726,0.1,131.54712,1595028085441
Fix,GT,37.4469895,-122.2740945,,36.82583,0.1,131.3128,1595028086441
Fix,GT,37.4467716,-122.2737818,,36.64592,0.1,131.18036,1595028087441
Fix,GT,37.4465553,-122.2734707,,36.417114,0.1,131.3075,1595028088441
Fix,GT,37.4463398,-122.2731624,,36.108063,0.1,131.41718,1595028089441
Fix,GT,37.4461263,-122.2728573,,35.753193,0.1,131.3081,1595028090441
Fix,GT,37.4459166,-122.2725531,,35.389168,0.1,130.48587,1595028091441
Fix,GT,37.4457143,-122.2722469,,34.991432,0.1,128.9596,1595028092441
Fix,GT,37.4455207,-122.2719373,,34.650063,0.1,127.3371,1595028093441
Fix,GT,37.4453361,-122.2716232,,34.460506,0.1,125.66461,1595028094441
Fix,GT,37.4451595,-122.2713036,,34.37287,0.1,123.8768,1595028095441
Fix,GT,37.4449915,-122.2709779,,34.28277,0.1,122.082,1595028096441
Fix,GT,37.4448324,-122.2706467,,34.175938,0.1,120.15637,1595028097441
Fix,GT,37.4446825,-122.27031,,34.058086,0.1,118.28595,1595028098441
Fix,GT,37.4445422,-122.2699688,,33.88822,0.1,116.43344,1595028099441
Fix,GT,37.4444113,-122.2696239,,33.73663,0.1,114.53253,1595028100441
Fix,GT,37.4442902,-122.2692749,,33.652855,0.1,112.6033,1595028101441
Fix,GT,37.4441782,-122.268922,,33.58377,0.1,110.89868,1595028102441
Fix,GT,37.4440745,-122.2685658,,33.54631,0.1,109.26227,1595028103441
Fix,GT,37.4439795,-122.2682054,,33.64622,0.1,107.39484,1595028104441
Fix,GT,37.4438936,-122.2678396,,33.84714,0.1,105.57028,1595028105441
Fix,GT,37.4438164,-122.2674684,,34.04651,0.1,103.78595,1595028106441
Fix,GT,37.4437481,-122.2670925,,34.178955,0.1,102.02185,1595028107441
Fix,GT,37.4436892,-122.2667135,,34.17134,0.1,100.123505,1595028108441
Fix,GT,37.4436407,-122.2663326,,34.081688,0.1,98.11948,1595028109441
Fix,GT,37.4436025,-122.2659512,,33.9238,0.1,96.328674,1595028110441
Fix,GT,37.4435735,-122.2655711,,33.605125,0.1,94.71631,1595028111441
Fix,GT,37.4435536,-122.2651949,,33.137825,0.1,92.956696,1595028112441
Fix,GT,37.443543,-122.2648233,,32.672848,0.1,91.22153,1595028113441
Fix,GT,37.4435412,-122.2644566,,32.25006,0.1,89.65161,1595028114441
Fix,GT,37.4435476,-122.2640948,,31.790785,0.1,87.9747,1595028115441
Fix,GT,37.4435627,-122.2637392,,31.21841,0.1,86.05716,1595028116441
Fix,GT,37.4435873,-122.2633911,,30.667587,0.1,84.02408,1595028117441
Fix,GT,37.4436202,-122.2630495,,30.269901,0.1,82.48114,1595028118441
Fix,GT,37.4436577,-122.2627125,,29.981314,0.1,81.96863,1595028119441
Fix,GT,37.4436953,-122.2623781,,29.782963,0.1,82.24332,1595028120441
Fix,GT,37.443731,-122.2620448,,29.772448,0.1,82.654816,1595028121441
Fix,GT,37.4437655,-122.2617104,,29.908,0.1,82.76129,1595028122441
Fix,GT,37.4437998,-122.2613751,,29.89226,0.1,82.753845,1595028123441
Fix,GT,37.4438347,-122.2610414,,29.654068,0.1,82.45636,1595028124441
Fix,GT,37.443871,-122.2607104,,29.547203,0.1,82.01251,1595028125441
Fix,GT,37.4439087,-122.2603792,,29.688967,0.1,81.9191,1595028126441
Fix,GT,37.4439463,-122.2600459,,29.882225,0.1,82.24667,1595028127441
Fix,GT,37.4439812,-122.2597103,,30.035904,0.1,83.21054,1595028128441
Fix,GT,37.4440103,-122.2593719,,30.25645,0.1,84.75168,1595028129441
Fix,GT,37.4440311,-122.259029,,30.654636,0.1,86.740234,1595028130441
Fix,GT,37.4440424,-122.2586802,,31.14497,0.1,88.89642,1595028131441
Fix,GT,37.444043,-122.2583259,,31.575474,0.1,91.22684,1595028132441
Fix,GT,37.4440314,-122.2579679,,31.837696,0.1,93.65503,1595028133441
Fix,GT,37.4440093,-122.2576083,,32.0374,0.1,95.378204,1595028134441
Fix,GT,37.4439788,-122.2572474,,32.175674,0.1,97.04016,1595028135441
Fix,GT,37.4439389,-122.2568873,,32.144657,0.1,99.178986,1595028136441
Fix,GT,37.4438886,-122.2565307,,31.968855,0.1,101.28436,1595028137441
Fix,GT,37.4438279,-122.2561793,,31.681366,0.1,103.38373,1595028138441
Fix,GT,37.4437585,-122.2558334,,31.50631,0.1,105.13507,1595028139441
Fix,GT,37.4436809,-122.2554915,,31.440489,0.1,107.12402,1595028140441
Fix,GT,37.4435927,-122.2551542,,31.397892,0.1,109.55328,1595028141441
Fix,GT,37.443494,-122.2548222,,31.3623,0.1,111.52551,1595028142441
Fix,GT,37.4433874,-122.2544941,,31.34999,0.1,113.2099,1595028143441
Fix,GT,37.4432725,-122.2541707,,31.3461,0.1,115.1142,1595028144441
Fix,GT,37.4431491,-122.2538521,,31.344265,0.1,116.91608,1595028145441
Fix,GT,37.4430178,-122.2535387,,31.335548,0.1,119.02313,1595028146441
Fix,GT,37.4428764,-122.2532326,,31.321514,0.1,121.523865,1595028147441
Fix,GT,37.4427248,-122.2529344,,31.30439,0.1,123.71417,1595028148441
Fix,GT,37.4425658,-122.2526423,,31.29871,0.1,125.28372,1595028149441
Fix,GT,37.4424004,-122.252356,,31.287672,0.1,126.95529,1595028150441
Fix,GT,37.442228,-122.2520767,,31.252789,0.1,128.87378,1595028151441
Fix,GT,37.4420477,-122.2518059,,31.214226,0.1,131.31702,1595028152441
Fix,GT,37.4418582,-122.2515458,,31.175606,0.1,133.76785,1595028153441
Fix,GT,37.4416631,-122.2512927,,31.138474,0.1,134.41309,1595028154441
Fix,GT,37.441468,-122.2510401,,31.123554,0.1,134.10812,1595028155441
Fix,GT,37.4412732,-122.250787,,31.13593,0.1,134.12952,1595028156441
Fix,GT,37.4410781,-122.2505341,,31.136417,0.1,134.15912,1595028157441
Fix,GT,37.4408829,-122.2502815,,31.116196,0.1,134.18768,1595028158441
Fix,GT,37.440688,-122.250029,,31.097496,0.1,134.19406,1595028159441
Fix,GT,37.4404931,-122.2497766,,31.075344,0.1,134.16571,1595028160441
Fix,GT,37.4402988,-122.249524,,31.058624,0.1,133.97134,1595028161441
Fix,GT,37.4401055,-122.2492705,,31.051565,0.1,133.6979,1595028162441
Fix,GT,37.4399124,-122.2490158,,31.133635,0.1,133.62878,1595028163441
Fix,GT,37.4397188,-122.2487603,,31.262796,0.1,133.74463,1595028164441
Fix,GT,37.4395234,-122.2485054,,31.321495,0.1,134.33902,1595028165441
Fix,GT,37.4393254,-122.2482529,,31.357113,0.1,134.92053,1595028166441
Fix,GT,37.439126,-122.2480019,,31.373192,0.1,135.03012,1595028167441
Fix,GT,37.4389262,-122.247751,,31.383614,0.1,135.22522,1595028168441
Fix,GT,37.4387254,-122.2475013,,31.399256,0.1,135.50809,1595028169441
Fix,GT,37.4385234,-122.2472531,,31.395214,0.1,136.0039,1595028170441
Fix,GT,37.4383199,-122.2470066,,31.357111,0.1,136.21484,1595028171441
Fix,GT,37.438117,-122.2467608,,31.249767,0.1,136.02954,1595028172441
Fix,GT,37.4379153,-122.2465159,,31.090057,0.1,136.20789,1595028173441
Fix,GT,37.4377134,-122.2462734,,30.975418,0.1,136.53653,1595028174441
Fix,GT,37.4375111,-122.246033,,30.886314,0.1,136.78741,1595028175441
Fix,GT,37.4373088,-122.2457939,,30.820702,0.1,136.7951,1595028176441
Fix,GT,37.4371074,-122.2455547,,30.773575,0.1,136.53302,1595028177441
Fix,GT,37.4369072,-122.2453145,,30.722061,0.1,136.35233,1595028178441
Fix,GT,37.4367073,-122.2450751,,30.614838,0.1,136.54535,1595028179441
Fix,GT,37.4365076,-122.2448376,,30.462505,0.1,136.73041,1595028180441
Fix,GT,37.4363085,-122.2446021,,30.285389,0.1,136.86786,1595028181441
Fix,GT,37.4361103,-122.2443683,,30.096165,0.1,136.84576,1595028182441
Fix,GT,37.435914,-122.2441354,,29.898918,0.1,136.58109,1595028183441
Fix,GT,37.4357196,-122.2439037,,29.614502,0.1,136.54218,1595028184441
Fix,GT,37.4355271,-122.2436747,,29.319464,0.1,136.76117,1595028185441
Fix,GT,37.4353352,-122.2434483,,29.216154,0.1,136.94568,1595028186441
Fix,GT,37.4351429,-122.2432219,,29.363728,0.1,136.80978,1595028187441
Fix,GT,37.4349492,-122.2429915,,29.887358,0.1,136.40747,1595028188441
Fix,GT,37.4347523,-122.2427548,,30.61708,0.1,136.27997,1595028189441
Fix,GT,37.4345517,-122.2425145,,30.812843,0.1,136.60727,1595028190441
Fix,GT,37.4343507,-122.2422763,,30.533546,0.1,136.79651,1595028191441
Fix,GT,37.4341515,-122.2420401,,30.364864,0.1,136.61084,1595028192441
Fix,GT,37.4339532,-122.241803,,30.443424,0.1,136.44867,1595028193441
Fix,GT,37.4337543,-122.2415653,,30.572155,0.1,136.58328,1595028194441
Fix,GT,37.4335542,-122.2413271,,30.67533,0.1,136.60944,1595028195441
Fix,GT,37.4333536,-122.2410885,,30.601933,0.1,136.62161,1595028196441
Fix,GT,37.4331544,-122.2408517,,30.312473,0.1,136.71259,1595028197441
Fix,GT,37.4329566,-122.2406169,,30.200993,0.1,136.6,1595028198441
Fix,GT,37.4327592,-122.2403809,,30.361137,0.1,136.42828,1595028199441
Fix,GT,37.4325611,-122.2401432,,30.496674,0.1,136.43677,1595028200441
Fix,GT,37.4323619,-122.2399046,,30.655207,0.1,136.44171,1595028201441
Fix,GT,37.4321614,-122.2396643,,30.9151,0.1,136.46039,1595028202441
Fix,GT,37.4319591,-122.239422,,31.165619,0.1,136.3468,1595028203441
Fix,GT,37.4317561,-122.239177,,31.358292,0.1,135.95215,1595028204441
Fix,GT,37.4315538,-122.2389285,,31.482594,0.1,135.43365,1595028205441
Fix,GT,37.431353,-122.2386774,,31.43443,0.1,134.94418,1595028206441
Fix,GT,37.4311551,-122.2384251,,31.19933,0.1,134.31482,1595028207441
Fix,GT,37.4309613,-122.238172,,30.889462,0.1,133.52567,1595028208441
Fix,GT,37.430772,-122.237918,,30.660683,0.1,132.8454,1595028209441
Fix,GT,37.4305855,-122.2376629,,30.638775,0.1,132.41382,1595028210441
Fix,GT,37.4304001,-122.2374065,,30.639387,0.1,132.30478,1595028211441
Fix,GT,37.4302148,-122.2371509,,30.47826,0.1,132.41663,1595028212441
Fix,GT,37.4300304,-122.2368965,,30.395641,0.1,132.28568,1595028213441
Fix,GT,37.4298465,-122.2366409,,30.591158,0.1,132.06378,1595028214441
Fix,GT,37.4296614,-122.2363823,,30.987799,0.1,131.93909,1595028215441
Fix,GT,37.4294744,-122.2361184,,31.549961,0.1,131.47272,1595028216441
Fix,GT,37.4292855,-122.2358465,,32.31466,0.1,130.8977,1595028217441
Fix,GT,37.4290938,-122.2355657,,33.103485,0.1,130.61945,1595028218441
Fix,GT,37.4288981,-122.2352785,,33.7391,0.1,130.72546,1595028219441
Fix,GT,37.4286977,-122.234988,,34.258404,0.1,131.31934,1595028220441
Fix,GT,37.4284918,-122.2346962,,34.70948,0.1,132.01123,1595028221441
Fix,GT,37.4282806,-122.2344036,,35.14984,0.1,132.51108,1595028222441
Fix,GT,37.4280654,-122.2341093,,35.538597,0.1,132.72665,1595028223441
Fix,GT,37.4278472,-122.2338128,,35.85052,0.1,132.88776,1595028224441
Fix,GT,37.4276267,-122.2335146,,36.118847,0.1,133.03537,1595028225441
Fix,GT,37.4274042,-122.2332156,,36.243443,0.1,133.21817,1595028226441
Fix,GT,37.4271808,-122.2329169,,36.242897,0.1,133.3388,1595028227441
Fix,GT,37.4269568,-122.2326186,,36.313988,0.1,133.4627,1595028228441
Fix,GT,37.4267315,-122.2323202,,36.435287,0.1,133.66095,1595028229441
Fix,GT,37.4265046,-122.232022,,36.504787,0.1,133.89935,1595028230441
Fix,GT,37.4262769,-122.2317245,,36.475967,0.1,134.05328,1595028231441
Fix,GT,37.4260489,-122.2314286,,36.34211,0.1,134.25012,1595028232441
Fix,GT,37.4258215,-122.2311349,,36.125114,0.1,134.21503,1595028233441
Fix,GT,37.4255965,-122.230842,,35.851192,0.1,133.83856,1595028234441
Fix,GT,37.4253749,-122.2305496,,35.551067,0.1,133.47296,1595028235441
Fix,GT,37.4251571,-122.2302577,,35.211437,0.1,133.00803,1595028236441
Fix,GT,37.4249433,-122.2299665,,34.86423,0.1,132.48645,1595028237441
Fix,GT,37.4247336,-122.2296756,,34.557755,0.1,131.9726,1595028238441
Fix,GT,37.4245277,-122.2293849,,34.276505,0.1,131.44446,1595028239441
Fix,GT,37.4243253,-122.2290945,,34.009464,0.1,131.14069,1595028240441
Fix,GT,37.4241251,-122.2288056,,33.7342,0.1,131.11057,1595028241441
Fix,GT,37.4239265,-122.2285194,,33.416595,0.1,131.16931,1595028242441
Fix,GT,37.4237295,-122.2282363,,33.107376,0.1,131.2266,1595028243441
Fix,GT,37.4235342,-122.2279557,,32.836723,0.1,131.18091,1595028244441
Fix,GT,37.4233409,-122.2276767,,32.589745,0.1,131.01349,1595028245441
Fix,GT,37.4231493,-122.2273991,,32.377686,0.1,130.99506,1595028246441
Fix,GT,37.4229587,-122.2271235,,32.242012,0.1,131.10294,1595028247441
Fix,GT,37.4227683,-122.2268488,,32.186623,0.1,131.04858,1595028248441
Fix,GT,37.4225786,-122.2265741,,32.150463,0.1,130.95111,1595028249441
Fix,GT,37.4223893,-122.2262993,,32.15557,0.1,130.90094,1595028250441
Fix,GT,37.4221997,-122.2260236,,32.3105,0.1,130.81543,1595028251441
Fix,GT,37.4220093,-122.2257455,,32.579483,0.1,130.79907,1595028252441
Fix,GT,37.4218169,-122.2254654,,32.87259,0.1,130.93616,1595028253441
Fix,GT,37.4216222,-122.2251834,,33.134735,0.1,131.0617,1595028254441
Fix,GT,37.4214257,-122.2248996,,33.39117,0.1,131.1659,1595028255441
Fix,GT,37.4212273,-122.224614,,33.673576,0.1,131.24954,1595028256441
Fix,GT,37.421027,-122.2243267,,33.86821,0.1,131.27771,1595028257441
Fix,GT,37.4208256,-122.2240383,,33.937088,0.1,131.33679,1595028258441
Fix,GT,37.4206239,-122.2237496,,34.018402,0.1,131.33478,1595028259441
Fix,GT,37.4204222,-122.223459,,34.230824,0.1,130.91992,1595028260441
Fix,GT,37.4202224,-122.2231625,,34.487007,0.1,129.32825,1595028261441
Fix,GT,37.4200307,-122.2228547,,34.67177,0.1,126.401855,1595028262441
Fix,GT,37.419852,-122.2225329,,34.74662,0.1,123.44144,1595028263441
Fix,GT,37.4196863,-122.2221998,,34.789513,0.1,120.49762,1595028264441
Fix,GT,37.4195341,-122.2218562,,34.789017,0.1,117.63562,1595028265441
Fix,GT,37.4193962,-122.2215046,,34.5571,0.1,114.87497,1595028266441
Fix,GT,37.4192732,-122.221149,,34.031715,0.1,112.145874,1595028267441
Fix,GT,37.4191653,-122.2207929,,33.43153,0.1,109.61932,1595028268441
Fix,GT,37.4190711,-122.2204374,,32.90968,0.1,107.207306,1595028269441
Fix,GT,37.4189906,-122.2200818,,32.591537,0.1,104.45679,1595028270441
Fix,GT,37.4189242,-122.2197238,,32.52862,0.1,101.76285,1595028271441
Fix,GT,37.4188678,-122.2193624,,32.69104,0.1,100.67206,1595028272441
Fix,GT,37.4188132,-122.2189983,,32.911568,0.1,100.937775,1595028273441
Fix,GT,37.4187572,-122.2186321,,33.105064,0.1,100.8291,1595028274441
Fix,GT,37.4187027,-122.2182636,,33.240402,0.1,100.41284,1595028275441
Fix,GT,37.4186492,-122.2178938,,33.296825,0.1,100.37009,1595028276441
Fix,GT,37.4185952,-122.2175235,,33.348988,0.1,100.56616,1595028277441
Fix,GT,37.4185401,-122.2171529,,33.396675,0.1,100.794495,1595028278441
Fix,GT,37.4184838,-122.2167825,,33.342167,0.1,101.06558,1595028279441
Fix,GT,37.4184264,-122.2164132,,33.286774,0.1,101.152435,1595028280441
Fix,GT,37.4183677,-122.2160444,,33.294426,0.1,101.84213,1595028281441
Fix,GT,37.4183023,-122.2156774,,33.279457,0.1,103.881805,1595028282441
Fix,GT,37.4182245,-122.2153149,,33.18709,0.1,106.41742,1595028283441
Fix,GT,37.4181346,-122.2149585,,33.055305,0.1,109.11023,1595028284441
Fix,GT,37.4180317,-122.2146091,,32.924828,0.1,111.852936,1595028285441
Fix,GT,37.4179159,-122.2142674,,32.831707,0.1,114.43356,1595028286441
Fix,GT,37.4177889,-122.2139339,,32.619576,0.1,116.88315,1595028287441
Fix,GT,37.4176523,-122.2136103,,32.204475,0.1,119.29181,1595028288441
Fix,GT,37.417507,-122.2132986,,31.750475,0.1,121.661255,1595028289441
Fix,GT,37.4173539,-122.2129975,,31.53651,0.1,123.57803,1595028290441
Fix,GT,37.4171935,-122.2127022,,31.773708,0.1,125.19049,1595028291441
Fix,GT,37.4170243,-122.2124099,,32.221775,0.1,127.19501,1595028292441
Fix,GT,37.4168431,-122.212123,,32.613434,0.1,129.98099,1595028293441
Fix,GT,37.416648,-122.2118455,,32.954517,0.1,133.2156,1595028294441
Fix,GT,37.4164386,-122.211579,,33.309505,0.1,136.41962,1595028295441
Fix,GT,37.4162155,-122.2113248,,33.663696,0.1,139.50122,1595028296441
Fix,GT,37.4159813,-122.2110803,,33.988716,0.1,141.07626,1595028297441
Fix,GT,37.4157424,-122.2108369,,34.334293,0.1,140.84747,1595028298441
Fix,GT,37.415502,-122.2105894,,34.721153,0.1,140.61932,1595028299441
Fix,GT,37.4152589,-122.2103391,,35.08021,0.1,140.83069,1595028300441
Fix,GT,37.4150131,-122.2100874,,35.35927,0.1,140.83655,1595028301441
Fix,GT,37.4147675,-122.2098314,,35.544785,0.1,139.70361,1595028302441
Fix,GT,37.4145263,-122.2095658,,35.74668,0.1,137.78448,1595028303441
Fix,GT,37.4142919,-122.2092871,,35.972446,0.1,135.3349,1595028304441
Fix,GT,37.4140665,-122.2089933,,36.20408,0.1,132.45557,1595028305441
Fix,GT,37.4138517,-122.2086842,,36.412365,0.1,129.68219,1595028306441
Fix,GT,37.4136478,-122.2083606,,36.612656,0.1,126.99823,1595028307441
Fix,GT,37.413455,-122.2080237,,36.812767,0.1,124.24356,1595028308441
Fix,GT,37.4132745,-122.2076738,,37.010082,0.1,121.42853,1595028309441
Fix,GT,37.413107,-122.2073115,,37.124046,0.1,118.640564,1595028310441
Fix,GT,37.4129536,-122.2069391,,37.05458,0.1,116.0141,1595028311441
Fix,GT,37.4128145,-122.2065596,,36.933258,0.1,113.53586,1595028312441
Fix,GT,37.412687,-122.2061744,,36.945976,0.1,111.90723,1595028313441
Fix,GT,37.4125638,-122.2057861,,37.04548,0.1,111.88495,1595028314441
Fix,GT,37.4124375,-122.2053981,,37.160057,0.1,112.738434,1595028315441
Fix,GT,37.4123072,-122.2050106,,37.30944,0.1,113.07263,1595028316441
Fix,GT,37.4121759,-122.2046217,,37.452797,0.1,112.97656,1595028317441
Fix,GT,37.4120454,-122.2042309,,37.557144,0.1,112.62314,1595028318441
Fix,GT,37.4119164,-122.2038383,,37.601837,0.1,112.32477,1595028319441
Fix,GT,37.4117888,-122.2034449,,37.597054,0.1,112.17871,1595028320441
Fix,GT,37.4116616,-122.2030514,,37.597874,0.1,112.16138,1595028321441
Fix,GT,37.4115346,-122.202658,,37.54217,0.1,112.146576,1595028322441
Fix,GT,37.4114079,-122.2022657,,37.37523,0.1,112.13272,1595028323441
Fix,GT,37.4112822,-122.2018754,,37.15175,0.1,112.05069,1595028324441
Fix,GT,37.4111578,-122.2014874,,36.87976,0.1,111.93942,1595028325441
Fix,GT,37.4110347,-122.2011024,,36.572258,0.1,111.94464,1595028326441
Fix,GT,37.4109126,-122.2007202,,36.34017,0.1,111.87909,1595028327441
Fix,GT,37.4107916,-122.2003397,,36.201237,0.1,111.84683,1595028328441
Fix,GT,37.4106709,-122.1999606,,36.068188,0.1,111.8436,1595028329441
Fix,GT,37.4105507,-122.1995829,,35.937256,0.1,111.804016,1595028330441
Fix,GT,37.4104312,-122.1992063,,35.81508,0.1,111.76752,1595028331441
Fix,GT,37.4103121,-122.1988308,,35.73409,0.1,111.75046,1595028332441
Fix,GT,37.4101934,-122.198456,,35.65879,0.1,111.68146,1595028333441
Fix,GT,37.4100756,-122.1980822,,35.508446,0.1,111.65903,1595028334441
Fix,GT,37.4099584,-122.1977103,,35.282833,0.1,111.67639,1595028335441
Fix,GT,37.4098418,-122.1973411,,35.02955,0.1,111.71799,1595028336441
Fix,GT,37.4097256,-122.196975,,34.75617,0.1,111.96146,1595028337441
Fix,GT,37.4096093,-122.1966121,,34.495262,0.1,111.98514,1595028338441
Fix,GT,37.4094944,-122.1962513,,34.283215,0.1,111.75693,1595028339441
Fix,GT,37.4093811,-122.195892,,34.14504,0.1,111.669464,1595028340441
Fix,GT,37.4092681,-122.1955338,,34.0495,0.1,111.75879,1595028341441
Fix,GT,37.4091547,-122.1951771,,33.966434,0.1,111.957245,1595028342441
Fix,GT,37.4090401,-122.1948216,,33.953682,0.1,112.201324,1595028343441
Fix,GT,37.4089251,-122.1944655,,34.119232,0.1,112.003784,1595028344441
Fix,GT,37.4088107,-122.1941059,,34.44877,0.1,111.72354,1595028345441
Fix,GT,37.4086957,-122.1937424,,34.776485,0.1,111.81064,1595028346441
Fix,GT,37.4085784,-122.1933764,,35.062782,0.1,112.149994,1595028347441
Fix,GT,37.4084586,-122.1930084,,35.316883,0.1,112.64081,1595028348441
Fix,GT,37.4083341,-122.1926405,,35.43929,0.1,113.704834,1595028349441
Fix,GT,37.4082024,-122.1922759,,35.444447,0.1,115.388,1595028350441
Fix,GT,37.4080623,-122.1919162,,35.457615,0.1,117.07678,1595028351441
Fix,GT,37.4079128,-122.1915624,,35.46466,0.1,119.27118,1595028352441
Fix,GT,37.4077516,-122.1912168,,35.452927,0.1,121.804016,1595028353441
Fix,GT,37.4075792,-122.1908798,,35.459446,0.1,123.99707,1595028354441
Fix,GT,37.4073967,-122.1905513,,35.440887,0.1,126.17474,1595028355441
Fix,GT,37.4072045,-122.1902326,,35.333546,0.1,128.5484,1595028356441
Fix,GT,37.4070023,-122.1899255,,35.199154,0.1,130.96515,1595028357441
Fix,GT,37.406791,-122.1896301,,35.084972,0.1,133.26181,1595028358441
Fix,GT,37.4065714,-122.1893461,,34.962353,0.1,135.4331,1595028359441
Fix,GT,37.4063444,-122.1890735,,34.830486,0.1,137.46848,1595028360441
Fix,GT,37.4061106,-122.1888124,,34.710358,0.1,139.67667,1595028361441
Fix,GT,37.4058698,-122.1885632,,34.623093,0.1,141.7774,1595028362441
Fix,GT,37.4056233,-122.1883242,,34.558372,0.1,143.10297,1595028363441
Fix,GT,37.4053741,-122.1880909,,34.51571,0.1,143.77808,1595028364441
Fix,GT,37.4051236,-122.1878602,,34.476295,0.1,143.84271,1595028365441
Fix,GT,37.4048735,-122.1876296,,34.454544,0.1,143.70581,1595028366441
Fix,GT,37.4046236,-122.1873985,,34.488033,0.1,143.68805,1595028367441
Fix,GT,37.4043734,-122.1871669,,34.56821,0.1,143.70087,1595028368441
Fix,GT,37.4041226,-122.1869343,,34.671654,0.1,143.5423,1595028369441
Fix,GT,37.4038719,-122.1867001,,34.73213,0.1,143.30408,1595028370441
Fix,GT,37.4036216,-122.1864643,,34.744286,0.1,143.11206,1595028371441
Fix,GT,37.403372,-122.1862273,,34.762184,0.1,142.8324,1595028372441
Fix,GT,37.4031233,-122.185988,,34.837265,0.1,142.38351,1595028373441
Fix,GT,37.4028755,-122.1857455,,34.946033,0.1,141.89111,1595028374441
Fix,GT,37.4026286,-122.1855001,,34.97389,0.1,141.52844,1595028375441
Fix,GT,37.4023826,-122.1852532,,34.992916,0.1,141.38446,1595028376441
Fix,GT,37.4021366,-122.1850058,,34.997158,0.1,141.37811,1595028377441
Fix,GT,37.401891,-122.1847594,,34.802658,0.1,141.44986,1595028378441
Fix,GT,37.4016472,-122.1845151,,34.463882,0.1,141.38507,1595028379441
Fix,GT,37.4014063,-122.1842723,,34.169018,0.1,141.15698,1595028380441
Fix,GT,37.401168,-122.1840302,,33.901653,0.1,141.06262,1595028381441
Fix,GT,37.4009317,-122.1837903,,33.599636,0.1,141.15427,1595028382441
Fix,GT,37.4006974,-122.1835529,,33.266914,0.1,141.13196,1595028383441
Fix,GT,37.4004657,-122.1833176,,32.92981,0.1,140.99927,1595028384441
Fix,GT,37.4002368,-122.1830837,,32.63134,0.1,140.82953,1595028385441
Fix,GT,37.4000101,-122.1828514,,32.3684,0.1,140.86993,1595028386441
Fix,GT,37.3997851,-122.1826215,,32.010998,0.1,141.06311,1595028387441
Fix,GT,37.3995628,-122.1823959,,31.468098,0.1,141.18628,1595028388441
Fix,GT,37.3993443,-122.1821747,,30.86667,0.1,141.13507,1595028389441
Fix,GT,37.3991302,-122.1819573,,30.285345,0.1,141.06616,1595028390441
Fix,GT,37.3989203,-122.1817439,,29.71354,0.1,141.05765,1595028391441
Fix,GT,37.3987144,-122.1815346,,29.156282,0.1,141.09412,1595028392441
Fix,GT,37.3985119,-122.1813294,,28.621355,0.1,141.20844,1595028393441
Fix,GT,37.3983128,-122.181128,,28.207653,0.1,141.17462,1595028394441
Fix,GT,37.3981159,-122.1809281,,28.0601,0.1,140.98227,1595028395441
Fix,GT,37.3979199,-122.1807276,,28.142359,0.1,140.81348,1595028396441
Fix,GT,37.3977229,-122.1805257,,28.35328,0.1,140.87967,1595028397441
Fix,GT,37.3975239,-122.1803227,,28.59569,0.1,141.06812,1595028398441
Fix,GT,37.3973229,-122.180119,,28.76608,0.1,141.22449,1595028399441
Fix,GT,37.3971206,-122.1799151,,28.839672,0.1,141.36694,1595028400441
Fix,GT,37.3969177,-122.1797107,,28.965408,0.1,141.19885,1595028401441
Fix,GT,37.3967144,-122.1795037,,29.20853,0.1,140.85101,1595028402441
Fix,GT,37.3965095,-122.179294,,29.50634,0.1,140.89948,1595028403441
Fix,GT,37.3963023,-122.1790824,,29.823608,0.1,140.91315,1595028404441
Fix,GT,37.3960932,-122.1788686,,30.04049,0.1,140.87347,1595028405441
Fix,GT,37.3958832,-122.178654,,30.097641,0.1,141.06787,1595028406441
Fix,GT,37.3956725,-122.1784408,,30.002645,0.1,141.34369,1595028407441
Fix,GT,37.3954623,-122.1782296,,29.784908,0.1,141.44196,1595028408441
Fix,GT,37.3952536,-122.1780197,,29.59884,0.1,141.26208,1595028409441
Fix,GT,37.3950468,-122.1778104,,29.428696,0.1,141.09586,1595028410441
Fix,GT,37.3948417,-122.1776016,,29.213947,0.1,140.91534,1595028411441
Fix,GT,37.3946391,-122.1773929,,29.008553,0.1,140.48871,1595028412441
Fix,GT,37.3944398,-122.1771818,,28.928291,0.1,139.22516,1595028413441
Fix,GT,37.3942455,-122.1769638,,28.980713,0.1,137.15735,1595028414441
Fix,GT,37.3940578,-122.1767356,,29.102055,0.1,134.7109,1595028415441
Fix,GT,37.3938772,-122.1764962,,29.282925,0.1,132.28558,1595028416441
Fix,GT,37.3937031,-122.1762461,,29.525795,0.1,130.06567,1595028417441
Fix,GT,37.3935353,-122.1759855,,29.793392,0.1,127.95883,1595028418441
Fix,GT,37.3933735,-122.1757154,,30.01302,0.1,126.05499,1595028419441
Fix,GT,37.3932181,-122.1754371,,30.126022,0.1,124.0473,1595028420441
Fix,GT,37.3930709,-122.1751511,,30.131958,0.1,121.69028,1595028421441
Fix,GT,37.3929336,-122.1748576,,30.141151,0.1,119.22598,1595028422441
Fix,GT,37.392806,-122.174557,,30.183857,0.1,116.909424,1595028423441
Fix,GT,37.3926877,-122.1742499,,30.194584,0.1,114.723114,1595028424441
Fix,GT,37.3925792,-122.1739374,,30.166262,0.1,112.51312,1595028425441
Fix,GT,37.3924806,-122.1736204,,30.122965,0.1,110.19211,1595028426441
Fix,GT,37.3923926,-122.1732989,,30.080856,0.1,107.74695,1595028427441
Fix,GT,37.3923157,-122.1729735,,30.041073,0.1,105.35571,1595028428441
Fix,GT,37.3922496,-122.1726451,,29.95594,0.1,103.171326,1595028429441
Fix,GT,37.3921934,-122.172315,,29.80182,0.1,101.11487,1595028430441
Fix,GT,37.3921467,-122.1719847,,29.594004,0.1,99.06741,1595028431441
Fix,GT,37.39211,-122.1716549,,29.382702,0.1,97.05115,1595028432441
Fix,GT,37.3920811,-122.1713257,,29.322865,0.1,95.81525,1595028433441
Fix,GT,37.3920563,-122.1709956,,29.40213,0.1,95.14935,1595028434441
Fix,GT,37.3920335,-122.1706641,,29.482304,0.1,94.737976,1595028435441
Fix,GT,37.3920127,-122.1703321,,29.48851,0.1,94.41406,1595028436441
Fix,GT,37.3919934,-122.1700003,,29.413683,0.1,94.17047,1595028437441
Fix,GT,37.391974,-122.1696695,,29.338062,0.1,94.48822,1595028438441
Fix,GT,37.3919523,-122.1693394,,29.344296,0.1,95.16669,1595028439441
Fix,GT,37.3919255,-122.1690096,,29.388649,0.1,96.844604,1595028440441
Fix,GT,37.3918885,-122.168681,,29.404757,0.1,99.672485,1595028441441
Fix,GT,37.3918377,-122.1683552,,29.414783,0.1,102.70819,1595028442441
Fix,GT,37.3917734,-122.168033,,29.428402,0.1,105.663666,1595028443441
Fix,GT,37.3916964,-122.1677153,,29.419329,0.1,108.411255,1595028444441
Fix,GT,37.3916078,-122.1674027,,29.367592,0.1,110.97748,1595028445441
Fix,GT,37.3915078,-122.1670963,,29.264908,0.1,113.87848,1595028446441
Fix,GT,37.3913958,-122.1667983,,29.11612,0.1,116.90234,1595028447441
Fix,GT,37.3912725,-122.1665095,,28.90744,0.1,119.66901,1595028448441
Fix,GT,37.3911395,-122.1662308,,28.647617,0.1,122.413635,1595028449441
Fix,GT,37.3909976,-122.1659622,,28.428984,0.1,124.851746,1595028450441
Fix,GT,37.3908489,-122.1657019,,28.323895,0.1,126.480896,1595028451441
Fix,GT,37.3906963,-122.1654458,,28.324726,0.1,127.3118,1595028452441
Fix,GT,37.390541,-122.1651913,,28.390799,0.1,127.710815,1595028453441
Fix,GT,37.3903845,-122.1649375,,28.422808,0.1,127.90314,1595028454441
Fix,GT,37.3902287,-122.1646834,,28.27951,0.1,127.45984,1595028455441
Fix,GT,37.3900767,-122.1644293,,27.940464,0.1,126.506775,1595028456441
Fix,GT,37.3899306,-122.1641751,,27.562477,0.1,125.23807,1595028457441
Fix,GT,37.3897915,-122.163919,,27.308346,0.1,123.56845,1595028458441
Fix,GT,37.3896601,-122.1636598,,27.10421,0.1,121.59445,1595028459441
Fix,GT,37.3895367,-122.1633968,,26.909176,0.1,119.53024,1595028460441
Fix,GT,37.3894221,-122.1631304,,26.692705,0.1,117.335846,1595028461441
Fix,GT,37.389317,-122.1628609,,26.451408,0.1,115.12091,1595028462441
Fix,GT,37.3892208,-122.1625888,,26.268963,0.1,112.93027,1595028463441
Fix,GT,37.389133,-122.162314,,26.192455,0.1,110.98987,1595028464441
Fix,GT,37.3890523,-122.1620361,,26.1996,0.1,109.269806,1595028465441
Fix,GT,37.3889787,-122.1617547,,26.262108,0.1,107.32059,1595028466441
Fix,GT,37.3889126,-122.1614695,,26.383581,0.1,105.3009,1595028467441
Fix,GT,37.3888542,-122.1611797,,26.578703,0.1,103.37091,1595028468441
Fix,GT,37.3888023,-122.1608854,,26.829296,0.1,101.733154,1595028469441
Fix,GT,37.388756,-122.1605864,,27.11194,0.1,100.49585,1595028470441
Fix,GT,37.388713,-122.1602833,,27.430935,0.1,99.86514,1595028471441
Fix,GT,37.3886712,-122.1599762,,27.739983,0.1,99.80307,1595028472441
Fix,GT,37.3886283,-122.1596661,,28.01546,0.1,100.20813,1595028473441
Fix,GT,37.3885827,-122.1593535,,28.275206,0.1,100.70114,1595028474441
Fix,GT,37.3885358,-122.1590381,,28.538368,0.1,100.60556,1595028475441
