MessageType,Provider,LatitudeDegrees,LongitudeDegrees,AltitudeMeters,SpeedMps,AccuracyMeters,BearingDegrees,UnixTimeMillis
Fix,GT,37.6554335,-122.4084878,,0.00328315,0.1,88.646454,1591313195445
Fix,GT,37.6554335,-122.4084878,,0.0021309897,0.1,88.64685,1591313196445
Fix,GT,37.6554335,-122.4084878,,0.0015548815,0.1,88.64642,1591313197445
Fix,GT,37.6554335,-122.4084878,,0.0011843741,0.1,88.64642,1591313198445
Fix,GT,37.6554335,-122.4084878,,0.0017800363,0.1,88.64633,1591313199445
Fix,GT,37.6554335,-122.4084878,,0.002236068,0.1,88.64661,1591313200445
Fix,GT,37.6554335,-122.4084878,,0.0028456505,0.1,88.64731,1591313201445
Fix,GT,37.6554335,-122.4084878,,0.004596119,0.1,88.647644,1591313202445
Fix,GT,37.6554335,-122.4084878,,0.006050664,0.1,88.64673,1591313203445
Fix,GT,37.6554335,-122.4084877,,0.032083772,0.1,88.609406,1591313204445
Fix,GT,37.6554342,-122.4084854,,0.49751073,0.1,86.42322,1591313205445
Fix,GT,37.6554374,-122.4084752,,1.5662615,0.1,79.66855,1591313206445
Fix,GT,37.6554423,-122.408453,,2.4981704,0.1,74.94162,1591313207445
Fix,GT,37.655445,-122.4084217,,2.8853636,0.1,79.96658,1591313208445
Fix,GT,37.655443,-122.408389,,2.6071737,0.1,89.17523,1591313209445
Fix,GT,37.6554398,-122.4083619,,2.1427293,0.1,93.397095,1591313210445
Fix,GT,37.6554393,-122.4083385,,2.1590316,0.1,89.5235,1591313211445
Fix,GT,37.6554448,-122.4083133,,2.7630439,0.1,76.81714,1591313212445
Fix,GT,37.6554629,-122.4082855,,4.149909,0.1,53.91446,1591313213445
Fix,GT,37.6554988,-122.408258,,5.657776,0.1,30.04367,1591313214445
Fix,GT,37.6555499,-122.4082315,,6.664331,0.1,19.519318,1591313215445
Fix,GT,37.6556068,-122.4082016,,6.7227798,0.1,19.963104,1591313216445
Fix,GT,37.6556567,-122.4081715,,5.2592053,0.1,23.440704,1591313217445
Fix,GT,37.655688,-122.4081493,,2.604271,0.1,26.922516,1591313218445
Fix,GT,37.6556995,-122.4081403,,0.5527696,0.1,28.33316,1591313219445
Fix,GT,37.6557007,-122.4081394,,0.012733296,0.1,28.492981,1591313220445
Fix,GT,37.6557013,-122.4081389,,0.12773846,0.1,28.568542,1591313221445
Fix,GT,37.6557035,-122.4081372,,0.5003092,0.1,29.078491,1591313222445
Fix,GT,37.6557105,-122.4081296,,1.6462365,0.1,32.19095,1591313223445
Fix,GT,37.655725,-122.4081056,,3.4458928,0.1,44.56485,1591313224445
Fix,GT,37.6557372,-122.4080584,,4.864216,0.1,68.15588,1591313225445
Fix,GT,37.6557357,-122.4079953,,5.9604855,0.1,89.374756,1591313226445
Fix,GT,37.6557243,-122.407924,,6.672007,0.1,98.599335,1591313227445
Fix,GT,37.65571,-122.4078509,,6.4819846,0.1,100.960205,1591313228445
Fix,GT,37.6556964,-122.4077845,,5.5208254,0.1,101.470215,1591313229445
Fix,GT,37.6556849,-122.4077302,,4.423485,0.1,101.85452,1591313230445
Fix,GT,37.6556756,-122.4076868,,3.499927,0.1,101.97711,1591313231445
Fix,GT,37.6556687,-122.4076551,,2.188669,0.1,102.033844,1591313232445
Fix,GT,37.6556653,-122.4076401,,0.6800403,0.1,102.134155,1591313233445
Fix,GT,37.6556647,-122.4076377,,0.020733967,0.1,102.15604,1591313234445
Fix,GT,37.6556646,-122.4076376,,0.012211346,0.1,102.1528,1591313235445
Fix,GT,37.6556646,-122.4076376,,0.009792423,0.1,102.15439,1591313236445
Fix,GT,37.6556645,-122.4076376,,0.0066991895,0.1,102.15463,1591313237445
Fix,GT,37.6556645,-122.4076377,,0.0041819955,0.1,102.15335,1591313238445
Fix,GT,37.6556645,-122.4076377,,0.0027500044,0.1,102.15167,1591313239445
Fix,GT,37.6556645,-122.4076377,,0.0028456505,0.1,102.15091,1591313240445
Fix,GT,37.6556645,-122.4076377,,0.0036055513,0.1,102.15146,1591313241445
Fix,GT,37.6556645,-122.4076377,,0.004226247,0.1,102.15112,1591313242445
Fix,GT,37.6556645,-122.4076377,,0.006603462,0.1,102.15085,1591313243445
Fix,GT,37.6556645,-122.4076378,,0.009157181,0.1,102.150085,1591313244445
Fix,GT,37.6556646,-122.4076378,,0.011251491,0.1,102.149445,1591313245445
Fix,GT,37.6556646,-122.4076378,,0.013,0.1,102.14996,1591313246445
Fix,GT,37.6556647,-122.4076379,,0.014007899,0.1,102.14908,1591313247445
Fix,GT,37.6556648,-122.407638,,0.028945357,0.1,102.149506,1591313248445
Fix,GT,37.6556647,-122.4076368,,0.3212204,0.1,102.15164,1591313249445
Fix,GT,37.6556626,-122.4076272,,1.6105883,0.1,102.447754,1591313250445
Fix,GT,37.6556553,-122.4075988,,3.6299407,0.1,104.40326,1591313251445
Fix,GT,37.6556385,-122.4075531,,4.9651785,0.1,112.342896,1591313252445
Fix,GT,37.6556072,-122.4075057,,5.612738,0.1,129.32349,1591313253445
Fix,GT,37.6555593,-122.4074735,,6.1704197,0.1,152.38715,1591313254445
Fix,GT,37.6555017,-122.4074666,,6.440034,0.1,175.5921,1591313255445
Fix,GT,37.6554441,-122.407482,,6.412732,0.1,190.90083,1591313256445
Fix,GT,37.6553897,-122.4075048,,6.193103,0.1,195.71179,1591313257445
Fix,GT,37.6553387,-122.407527,,5.7219186,0.1,196.10559,1591313258445
Fix,GT,37.6552936,-122.4075472,,4.7677374,0.1,196.56818,1591313259445
Fix,GT,37.6552579,-122.4075635,,3.743442,0.1,196.79767,1591313260445
Fix,GT,37.655228,-122.4075769,,3.4985614,0.1,196.44894,1591313261445
Fix,GT,37.6551973,-122.4075903,,3.7387748,0.1,196.05965,1591313262445
Fix,GT,37.6551639,-122.407605,,4.1794724,0.1,196.1968,1591313263445
Fix,GT,37.6551242,-122.4076229,,5.227316,0.1,196.61057,1591313264445
Fix,GT,37.6550736,-122.4076464,,6.7818613,0.1,197.10623,1591313265445
Fix,GT,37.6550099,-122.4076768,,8.322176,0.1,197.74042,1591313266445
Fix,GT,37.6549339,-122.4077146,,9.798052,0.1,198.61111,1591313267445
Fix,GT,37.6548465,-122.4077599,,11.097837,0.1,199.48845,1591313268445
Fix,GT,37.6547507,-122.4078107,,11.852427,0.1,199.65825,1591313269445
Fix,GT,37.6546511,-122.4078626,,12.031105,0.1,199.26598,1591313270445
Fix,GT,37.6545506,-122.4079141,,12.031191,0.1,199.08264,1591313271445
Fix,GT,37.6544505,-122.4079659,,12.004335,0.1,199.31482,1591313272445
Fix,GT,37.6543505,-122.4080181,,12.096471,0.1,199.4135,1591313273445
Fix,GT,37.6542483,-122.408071,,12.539873,0.1,199.18141,1591313274445
Fix,GT,37.6541408,-122.4081261,,13.218639,0.1,198.99397,1591313275445
Fix,GT,37.6540277,-122.4081838,,13.847575,0.1,198.91998,1591313276445
Fix,GT,37.6539096,-122.4082441,,14.441193,0.1,199.01593,1591313277445
Fix,GT,37.6537868,-122.4083075,,15.031416,0.1,199.26004,1591313278445
Fix,GT,37.6536592,-122.4083738,,15.610406,0.1,199.3785,1591313279445
Fix,GT,37.6535271,-122.4084426,,16.150541,0.1,199.2652,1591313280445
Fix,GT,37.6533904,-122.408513,,16.668438,0.1,198.9646,1591313281445
Fix,GT,37.653249,-122.4085845,,17.1581,0.1,198.68353,1591313282445
Fix,GT,37.6531034,-122.4086573,,17.635094,0.1,198.38635,1591313283445
Fix,GT,37.6529531,-122.4087302,,18.13239,0.1,197.521,1591313284445
Fix,GT,37.6527974,-122.4088013,,18.675734,0.1,196.28593,1591313285445
Fix,GT,37.6526367,-122.4088705,,19.08585,0.1,195.36145,1591313286445
Fix,GT,37.6524723,-122.4089372,,19.282187,0.1,194.00017,1591313287445
Fix,GT,37.6523046,-122.4089965,,19.45444,0.1,191.08917,1591313288445
Fix,GT,37.6521329,-122.4090429,,19.639343,0.1,187.12204,1591313289445
Fix,GT,37.651957,-122.4090743,,19.911968,0.1,183.11081,1591313290445
Fix,GT,37.6517767,-122.4090911,,20.297031,0.1,179.28522,1591313291445
Fix,GT,37.6515929,-122.4090922,,20.621265,0.1,175.23682,1591313292445
Fix,GT,37.6514072,-122.4090764,,20.76189,0.1,171.17151,1591313293445
Fix,GT,37.651224,-122.4090453,,20.204498,0.1,167.54675,1591313294445
Fix,GT,37.6510551,-122.4090035,,18.00116,0.1,164.04712,1591313295445
Fix,GT,37.6509118,-122.4089569,,14.97916,0.1,160.89087,1591313296445
Fix,GT,37.6507939,-122.4089106,,12.583917,0.1,158.61969,1591313297445
Fix,GT,37.6506959,-122.408867,,10.593757,0.1,156.53906,1591313298445
Fix,GT,37.6506151,-122.408827,,8.646803,0.1,154.68146,1591313299445
Fix,GT,37.6505535,-122.4087939,,6.173121,0.1,153.29242,1591313300445
Fix,GT,37.650515,-122.408772,,3.2331648,0.1,152.62231,1591313301445
Fix,GT,37.6504967,-122.4087616,,1.3983064,0.1,152.5625,1591313302445
Fix,GT,37.650487,-122.4087561,,1.2673342,0.1,152.659,1591313303445
Fix,GT,37.6504711,-122.4087486,,2.6305184,0.1,154.82532,1591313304445
Fix,GT,37.6504378,-122.4087369,,4.9422817,0.1,159.60571,1591313305445
Fix,GT,37.6503867,-122.4087201,,6.6703534,0.1,161.07263,1591313306445
Fix,GT,37.6503246,-122.4086922,,8.068427,0.1,156.00134,1591313307445
Fix,GT,37.6502546,-122.4086495,,9.375615,0.1,149.90851,1591313308445
Fix,GT,37.6501757,-122.408595,,10.651079,0.1,147.59537,1591313309445
Fix,GT,37.6500876,-122.4085318,,11.858082,0.1,146.94086,1591313310445
Fix,GT,37.6499914,-122.4084601,,12.929434,0.1,145.79578,1591313311445
Fix,GT,37.6498884,-122.4083801,,13.979742,0.1,144.86444,1591313312445
Fix,GT,37.6497776,-122.4082927,,15.042717,0.1,144.784,1591313313445
Fix,GT,37.6496603,-122.4081995,,15.737747,0.1,144.23703,1591313314445
Fix,GT,37.6495422,-122.4080995,,15.876923,0.1,141.79071,1591313315445
Fix,GT,37.6494266,-122.4079934,,15.946509,0.1,140.25351,1591313316445
Fix,GT,37.6493094,-122.4078866,,16.16761,0.1,141.5122,1591313317445
Fix,GT,37.6491884,-122.407781,,16.54731,0.1,142.53601,1591313318445
Fix,GT,37.6490634,-122.4076745,,16.955166,0.1,142.85815,1591313319445
Fix,GT,37.6489355,-122.4075665,,17.175844,0.1,143.0517,1591313320445
Fix,GT,37.6488071,-122.4074585,,17.017694,0.1,143.0946,1591313321445
Fix,GT,37.6486802,-122.4073538,,16.58287,0.1,144.06311,1591313322445
Fix,GT,37.648554,-122.4072552,,16.385237,0.1,145.60309,1591313323445
Fix,GT,37.6484256,-122.4071601,,16.66114,0.1,147.13824,1591313324445
Fix,GT,37.6482903,-122.4070705,,17.258965,0.1,151.13858,1591313325445
Fix,GT,37.6481434,-122.4069948,,17.92775,0.1,157.06921,1591313326445
Fix,GT,37.6479853,-122.406937,,18.578693,0.1,163.33905,1591313327445
Fix,GT,37.6478176,-122.406899,,19.240349,0.1,169.10321,1591313328445
Fix,GT,37.647642,-122.4068765,,19.876736,0.1,172.21344,1591313329445
Fix,GT,37.6474608,-122.4068603,,20.41975,0.1,172.8396,1591313330445
Fix,GT,37.6472757,-122.4068436,,20.731846,0.1,172.80554,1591313331445
Fix,GT,37.6470891,-122.4068274,,20.76978,0.1,172.893,1591313332445
Fix,GT,37.6469029,-122.4068108,,20.614044,0.1,172.70074,1591313333445
Fix,GT,37.6467188,-122.4067943,,20.350117,0.1,172.93457,1591313334445
Fix,GT,37.646537,-122.4067791,,20.095768,0.1,172.97852,1591313335445
Fix,GT,37.6463573,-122.4067629,,19.871323,0.1,172.43109,1591313336445
Fix,GT,37.6461801,-122.4067442,,19.635445,0.1,171.58209,1591313337445
Fix,GT,37.6460054,-122.4067211,,19.411201,0.1,170.22125,1591313338445
Fix,GT,37.6458323,-122.4066936,,19.334192,0.1,169.41168,1591313339445
Fix,GT,37.6456593,-122.4066649,,19.404907,0.1,169.42896,1591313340445
Fix,GT,37.6454856,-122.406636,,19.53672,0.1,169.24097,1591313341445
Fix,GT,37.6453104,-122.4066073,,19.662018,0.1,169.7268,1591313342445
Fix,GT,37.6451341,-122.4065812,,19.690235,0.1,170.49207,1591313343445
Fix,GT,37.6449581,-122.4065576,,19.593573,0.1,170.82928,1591313344445
Fix,GT,37.644783,-122.4065351,,19.45567,0.1,171.18604,1591313345445
Fix,GT,37.6446089,-122.4065139,,19.413368,0.1,171.34021,1591313346445
Fix,GT,37.6444337,-122.4064922,,19.760538,0.1,171.11584,1591313347445
Fix,GT,37.6442534,-122.4064698,,20.487373,0.1,171.39429,1591313348445
Fix,GT,37.644066,-122.4064487,,21.291798,0.1,171.95245,1591313349445
Fix,GT,37.6438712,-122.4064283,,22.113028,0.1,172.04224,1591313350445
Fix,GT,37.6436691,-122.4064059,,22.907307,0.1,171.51587,1591313351445
Fix,GT,37.6434608,-122.4063798,,23.509895,0.1,171.01013,1591313352445
Fix,GT,37.6432493,-122.4063525,,23.57148,0.1,171.02826,1591313353445
Fix,GT,37.64304,-122.4063265,,23.0459,0.1,171.3772,1591313354445
Fix,GT,37.6428363,-122.4063033,,22.34203,0.1,172.01465,1591313355445
Fix,GT,37.6426383,-122.4062836,,21.76112,0.1,172.59625,1591313356445
Fix,GT,37.642444,-122.4062657,,21.588284,0.1,172.69122,1591313357445
Fix,GT,37.6422494,-122.4062482,,21.765139,0.1,172.81464,1591313358445
Fix,GT,37.6420529,-122.4062307,,21.964886,0.1,172.7168,1591313359445
Fix,GT,37.6418549,-122.4062106,,22.155682,0.1,171.7876,1591313360445
Fix,GT,37.6416555,-122.4061856,,22.35266,0.1,170.62073,1591313361445
Fix,GT,37.6414548,-122.4061552,,22.550497,0.1,169.51501,1591313362445
Fix,GT,37.6412526,-122.4061198,,22.793049,0.1,168.42322,1591313363445
Fix,GT,37.6410488,-122.4060791,,23.070341,0.1,167.36743,1591313364445
Fix,GT,37.6408427,-122.4060337,,23.383354,0.1,166.52606,1591313365445
Fix,GT,37.6406343,-122.405984,,23.716433,0.1,165.69373,1591313366445
Fix,GT,37.6404238,-122.4059292,,24.004118,0.1,164.63562,1591313367445
Fix,GT,37.6402118,-122.4058685,,24.258785,0.1,163.50092,1591313368445
Fix,GT,37.6399987,-122.4058023,,24.49085,0.1,162.56543,1591313369445
Fix,GT,37.6397846,-122.4057316,,24.68232,0.1,161.74725,1591313370445
Fix,GT,37.6395697,-122.405656,,24.838547,0.1,160.7691,1591313371445
Fix,GT,37.6393547,-122.405575,,24.98131,0.1,159.66406,1591313372445
Fix,GT,37.6391397,-122.4054887,,25.134983,0.1,158.68091,1591313373445
Fix,GT,37.6389243,-122.4053976,,25.285282,0.1,157.94055,1591313374445
Fix,GT,37.6387086,-122.405303,,25.418846,0.1,157.29773,1591313375445
Fix,GT,37.6384929,-122.4052042,,25.572083,0.1,156.37189,1591313376445
Fix,GT,37.6382769,-122.4051,,25.793365,0.1,155.34894,1591313377445
Fix,GT,37.6380606,-122.40499,,26.038548,0.1,154.38104,1591313378445
Fix,GT,37.637843,-122.4048754,,26.311865,0.1,153.87836,1591313379445
Fix,GT,37.6376236,-122.4047584,,26.596466,0.1,153.78516,1591313380445
Fix,GT,37.6374017,-122.4046404,,26.861057,0.1,153.93732,1591313381445
Fix,GT,37.6371775,-122.4045226,,27.081942,0.1,154.26709,1591313382445
Fix,GT,37.6369513,-122.4044051,,27.230759,0.1,154.32727,1591313383445
Fix,GT,37.6367245,-122.4042877,,27.211912,0.1,154.54272,1591313384445
Fix,GT,37.6364979,-122.4041733,,26.982546,0.1,155.31958,1591313385445
Fix,GT,37.6362721,-122.4040648,,26.69144,0.1,156.43121,1591313386445
Fix,GT,37.6360472,-122.4039622,,26.382183,0.1,157.34467,1591313387445
Fix,GT,37.6358241,-122.4038656,,25.971075,0.1,158.41724,1591313388445
Fix,GT,37.6356035,-122.4037769,,25.400787,0.1,159.84796,1591313389445
Fix,GT,37.6353862,-122.403697,,24.855888,0.1,161.1911,1591313390445
Fix,GT,37.6351716,-122.403624,,24.467628,0.1,162.12231,1591313391445
Fix,GT,37.6349595,-122.4035554,,24.14024,0.1,162.69531,1591313392445
Fix,GT,37.6347496,-122.4034901,,23.879906,0.1,163.24219,1591313393445
Fix,GT,37.6345407,-122.4034287,,23.72573,0.1,164.10889,1591313394445
Fix,GT,37.6343319,-122.4033721,,23.658623,0.1,165.26776,1591313395445
Fix,GT,37.634123,-122.403321,,23.543354,0.1,166.25604,1591313396445
Fix,GT,37.6339152,-122.4032737,,23.332754,0.1,166.91064,1591313397445
Fix,GT,37.6337088,-122.4032305,,23.115501,0.1,167.95984,1591313398445
Fix,GT,37.633503,-122.403193,,23.077068,0.1,169.04822,1591313399445
Fix,GT,37.6332961,-122.4031594,,23.234234,0.1,169.83313,1591313400445
Fix,GT,37.6330872,-122.4031291,,23.417091,0.1,170.65125,1591313401445
Fix,GT,37.6328764,-122.4031024,,23.606682,0.1,171.49469,1591313402445
Fix,GT,37.6326635,-122.4030788,,23.796822,0.1,172.09644,1591313403445
Fix,GT,37.6324492,-122.4030567,,23.867981,0.1,172.16797,1591313404445
Fix,GT,37.6322354,-122.403034,,23.767094,0.1,171.9079,1591313405445
Fix,GT,37.6320225,-122.4030103,,23.672604,0.1,171.80408,1591313406445
Fix,GT,37.63181,-122.4029872,,23.710907,0.1,172.04016,1591313407445
Fix,GT,37.6315964,-122.4029651,,23.8627,0.1,172.21564,1591313408445
Fix,GT,37.6313814,-122.4029428,,24.02058,0.1,171.9461,1591313409445
Fix,GT,37.6311655,-122.4029184,,24.086987,0.1,171.51672,1591313410445
Fix,GT,37.6309497,-122.4028925,,24.002943,0.1,171.38733,1591313411445
Fix,GT,37.6307353,-122.4028664,,23.796146,0.1,171.20941,1591313412445
Fix,GT,37.6305235,-122.4028398,,23.490332,0.1,171.02014,1591313413445
Fix,GT,37.6303146,-122.4028126,,23.13611,0.1,170.92468,1591313414445
Fix,GT,37.6301085,-122.4027858,,22.890173,0.1,171.07507,1591313415445
Fix,GT,37.6299037,-122.4027608,,22.814558,0.1,171.60205,1591313416445
Fix,GT,37.6296988,-122.4027382,,22.868092,0.1,172.0578,1591313417445
Fix,GT,37.6294933,-122.4027167,,22.891304,0.1,172.06696,1591313418445
Fix,GT,37.6292882,-122.4026944,,22.784397,0.1,171.74109,1591313419445
Fix,GT,37.6290845,-122.40267,,22.641106,0.1,171.12708,1591313420445
Fix,GT,37.6288824,-122.4026426,,22.48822,0.1,170.42206,1591313421445
Fix,GT,37.6286819,-122.4026124,,22.368881,0.1,169.7088,1591313422445
Fix,GT,37.6284823,-122.4025791,,22.359962,0.1,169.00958,1591313423445
Fix,GT,37.6282827,-122.4025428,,22.44431,0.1,168.33112,1591313424445
Fix,GT,37.6280825,-122.4025034,,22.52658,0.1,167.60095,1591313425445
Fix,GT,37.6278823,-122.4024601,,22.605293,0.1,166.61597,1591313426445
Fix,GT,37.627682,-122.4024114,,22.690748,0.1,165.33954,1591313427445
Fix,GT,37.6274822,-122.4023569,,22.701262,0.1,163.98315,1591313428445
Fix,GT,37.6272839,-122.4022966,,22.61133,0.1,162.62512,1591313429445
Fix,GT,37.6270876,-122.4022312,,22.490795,0.1,161.59937,1591313430445
Fix,GT,37.626893,-122.4021633,,22.32542,0.1,161.25146,1591313431445
Fix,GT,37.6267001,-122.402096,,22.113186,0.1,161.41333,1591313432445
Fix,GT,37.6265091,-122.4020301,,21.885685,0.1,161.63428,1591313433445
Fix,GT,37.6263196,-122.4019658,,21.661175,0.1,161.8551,1591313434445
Fix,GT,37.6261319,-122.4019034,,21.438213,0.1,162.10773,1591313435445
Fix,GT,37.625946,-122.4018419,,21.208092,0.1,162.01001,1591313436445
Fix,GT,37.6257626,-122.4017797,,20.985653,0.1,161.7384,1591313437445
Fix,GT,37.6255799,-122.4017173,,21.042171,0.1,161.7121,1591313438445
Fix,GT,37.6253956,-122.401654,,21.362774,0.1,161.38055,1591313439445
Fix,GT,37.6252086,-122.4015891,,21.736996,0.1,161.51746,1591313440445
Fix,GT,37.6250173,-122.4015244,,22.203876,0.1,161.94135,1591313441445
Fix,GT,37.6248232,-122.4014589,,22.35343,0.1,161.66064,1591313442445
Fix,GT,37.6246291,-122.4013938,,22.228167,0.1,162.1961,1591313443445
Fix,GT,37.6244351,-122.4013313,,22.245955,0.1,162.68225,1591313444445
Fix,GT,37.624241,-122.4012682,,22.23237,0.1,161.94238,1591313445445
Fix,GT,37.6240482,-122.4012037,,21.976402,0.1,161.90533,1591313446445
Fix,GT,37.6238576,-122.4011409,,21.859898,0.1,162.16687,1591313447445
Fix,GT,37.6236665,-122.4010767,,22.123066,0.1,161.56909,1591313448445
Fix,GT,37.6234732,-122.4010093,,22.408844,0.1,161.2226,1591313449445
Fix,GT,37.6232781,-122.4009395,,22.718985,0.1,160.5633,1591313450445
Fix,GT,37.6230804,-122.4008643,,23.158531,0.1,159.49426,1591313451445
Fix,GT,37.62288,-122.4007848,,23.497515,0.1,159.2724,1591313452445
Fix,GT,37.6226763,-122.4007056,,23.826885,0.1,160.04889,1591313453445
Fix,GT,37.6224687,-122.4006291,,24.188894,0.1,160.78821,1591313454445
Fix,GT,37.6222578,-122.4005527,,24.544567,0.1,160.50665,1591313455445
Fix,GT,37.6220446,-122.4004723,,24.876959,0.1,159.79468,1591313456445
Fix,GT,37.6218291,-122.4003885,,25.174011,0.1,159.61224,1591313457445
Fix,GT,37.6216108,-122.4003049,,25.532192,0.1,160.18597,1591313458445
Fix,GT,37.6213881,-122.4002227,,25.985065,0.1,160.71997,1591313459445
Fix,GT,37.6211608,-122.4001417,,26.432083,0.1,161.29303,1591313460445
Fix,GT,37.620929,-122.4000625,,26.87613,0.1,161.90991,1591313461445
Fix,GT,37.6206929,-122.3999843,,27.325897,0.1,162.08057,1591313462445
Fix,GT,37.6204527,-122.3999052,,27.798996,0.1,162.06482,1591313463445
Fix,GT,37.6202087,-122.3998241,,28.210325,0.1,162.02283,1591313464445
Fix,GT,37.619962,-122.3997417,,28.382496,0.1,161.85498,1591313465445
Fix,GT,37.6197153,-122.3996581,,28.336771,0.1,161.57172,1591313466445
Fix,GT,37.6194696,-122.3995739,,28.19756,0.1,161.6546,1591313467445
Fix,GT,37.6192246,-122.3994914,,28.074589,0.1,161.98602,1591313468445
Fix,GT,37.6189802,-122.39941,,28.064466,0.1,161.99268,1591313469445
Fix,GT,37.6187354,-122.3993281,,28.17461,0.1,161.88574,1591313470445
Fix,GT,37.6184892,-122.3992452,,28.386456,0.1,161.79614,1591313471445
Fix,GT,37.6182412,-122.3991613,,28.638601,0.1,161.76318,1591313472445
Fix,GT,37.6179913,-122.3990765,,28.809685,0.1,161.74725,1591313473445
Fix,GT,37.6177404,-122.3989916,,28.801533,0.1,161.83704,1591313474445
Fix,GT,37.6174903,-122.3989078,,28.627388,0.1,161.97797,1591313475445
Fix,GT,37.6172415,-122.398825,,28.526217,0.1,162.05127,1591313476445
Fix,GT,37.616993,-122.3987421,,28.553514,0.1,161.91205,1591313477445
Fix,GT,37.6167448,-122.3986566,,28.589056,0.1,161.1737,1591313478445
Fix,GT,37.6164978,-122.3985654,,28.592865,0.1,159.76343,1591313479445
Fix,GT,37.6162527,-122.3984664,,28.592743,0.1,158.33386,1591313480445
Fix,GT,37.616009,-122.39836,,28.721863,0.1,157.0705,1591313481445
Fix,GT,37.6157658,-122.3982462,,28.946941,0.1,155.70612,1591313482445
Fix,GT,37.6155228,-122.3981234,,29.222416,0.1,154.06714,1591313483445
Fix,GT,37.6152808,-122.3979898,,29.490963,0.1,152.10596,1591313484445
Fix,GT,37.6150407,-122.3978445,,29.724346,0.1,150.133,1591313485445
Fix,GT,37.6148024,-122.3976882,,29.97778,0.1,148.52219,1591313486445
Fix,GT,37.6145649,-122.3975235,,30.263199,0.1,147.46472,1591313487445
Fix,GT,37.6143272,-122.3973524,,30.555107,0.1,146.59833,1591313488445
Fix,GT,37.6140899,-122.3971745,,30.79433,0.1,145.34998,1591313489445
Fix,GT,37.6138546,-122.3969876,,31.03938,0.1,143.55438,1591313490445
Fix,GT,37.6136223,-122.3967894,,31.323528,0.1,141.66241,1591313491445
Fix,GT,37.6133931,-122.3965802,,31.584356,0.1,139.94366,1591313492445
Fix,GT,37.613167,-122.3963611,,31.829979,0.1,138.44116,1591313493445
Fix,GT,37.6129437,-122.3961334,,32.044567,0.1,137.0195,1591313494445
Fix,GT,37.6127237,-122.3958975,,32.199574,0.1,135.61298,1591313495445
Fix,GT,37.6125071,-122.3956537,,32.385704,0.1,134.29755,1591313496445
Fix,GT,37.6122939,-122.3954019,,32.57847,0.1,132.88809,1591313497445
Fix,GT,37.6120846,-122.3951419,,32.771027,0.1,131.39133,1591313498445
Fix,GT,37.6118792,-122.3948738,,32.974895,0.1,130.0191,1591313499445
Fix,GT,37.6116779,-122.394598,,33.18296,0.1,128.58734,1591313500445
Fix,GT,37.6114808,-122.3943142,,33.376778,0.1,127.17908,1591313501445
Fix,GT,37.6112877,-122.3940234,,33.556026,0.1,126.1647,1591313502445
Fix,GT,37.6110963,-122.3937278,,33.728436,0.1,125.70532,1591313503445
Fix,GT,37.6109053,-122.3934295,,33.86099,0.1,125.49051,1591313504445
Fix,GT,37.6107148,-122.3931301,,33.7788,0.1,125.22522,1591313505445
Fix,GT,37.6105271,-122.3928314,,33.4169,0.1,124.878204,1591313506445
Fix,GT,37.610343,-122.3925353,,32.962254,0.1,124.75574,1591313507445
Fix,GT,37.6101611,-122.3922433,,32.538277,0.1,125.01886,1591313508445
Fix,GT,37.6099796,-122.3919563,,32.23034,0.1,125.583954,1591313509445
Fix,GT,37.6097972,-122.3916737,,32.055706,0.1,126.03015,1591313510445
Fix,GT,37.6096145,-122.3913931,,31.996534,0.1,126.03766,1591313511445
Fix,GT,37.6094323,-122.3911124,,31.980139,0.1,125.921875,1591313512445
Fix,GT,37.6092506,-122.3908314,,31.957222,0.1,125.86783,1591313513445
Fix,GT,37.609069,-122.3905507,,31.941364,0.1,125.93115,1591313514445
Fix,GT,37.6088872,-122.3902703,,31.93739,0.1,126.04083,1591313515445
Fix,GT,37.6087051,-122.3899903,,31.920195,0.1,126.09335,1591313516445
Fix,GT,37.6085228,-122.3897108,,31.898119,0.1,126.17755,1591313517445
Fix,GT,37.6083402,-122.3894318,,31.880272,0.1,126.2793,1591313518445
Fix,GT,37.6081576,-122.3891534,,31.817774,0.1,126.37875,1591313519445
Fix,GT,37.6079752,-122.388876,,31.723461,0.1,126.33731,1591313520445
Fix,GT,37.607794,-122.3885991,,31.61226,0.1,126.14505,1591313521445
Fix,GT,37.6076138,-122.3883225,,31.496134,0.1,126.09894,1591313522445
Fix,GT,37.6074341,-122.3880472,,31.37669,0.1,126.20972,1591313523445
Fix,GT,37.6072549,-122.3877734,,31.251926,0.1,126.29031,1591313524445
Fix,GT,37.6070761,-122.387501,,31.10926,0.1,126.28314,1591313525445
Fix,GT,37.6068985,-122.3872295,,30.961689,0.1,126.092285,1591313526445
Fix,GT,37.6067224,-122.3869585,,30.847324,0.1,126.012085,1591313527445
Fix,GT,37.6065465,-122.3866886,,30.773531,0.1,126.23566,1591313528445
Fix,GT,37.6063702,-122.38642,,30.720722,0.1,126.40994,1591313529445
Fix,GT,37.6061938,-122.3861523,,30.678558,0.1,126.41333,1591313530445
Fix,GT,37.6060177,-122.3858846,,30.670567,0.1,126.25845,1591313531445
Fix,GT,37.6058423,-122.3856159,,30.706657,0.1,126.04355,1591313532445
Fix,GT,37.6056673,-122.3853461,,30.789215,0.1,125.99292,1591313533445
Fix,GT,37.6054918,-122.3850756,,30.854088,0.1,126.02222,1591313534445
Fix,GT,37.605316,-122.3848049,,30.877382,0.1,126.06445,1591313535445
Fix,GT,37.6051399,-122.3845338,,30.925476,0.1,126.0329,1591313536445
Fix,GT,37.6049635,-122.3842622,,30.982803,0.1,126.01648,1591313537445
Fix,GT,37.6047866,-122.3839903,,31.011457,0.1,126.19537,1591313538445
Fix,GT,37.604609,-122.3837192,,30.997145,0.1,126.32074,1591313539445
Fix,GT,37.6044314,-122.3834485,,30.969154,0.1,126.2103,1591313540445
Fix,GT,37.604255,-122.3831769,,30.944519,0.1,125.8241,1591313541445
Fix,GT,37.60408,-122.3829042,,30.925438,0.1,125.61545,1591313542445
Fix,GT,37.6039052,-122.3826323,,30.812801,0.1,125.81857,1591313543445
Fix,GT,37.6037308,-122.3823625,,30.564943,0.1,125.935974,1591313544445
Fix,GT,37.6035576,-122.3820955,,30.28328,0.1,125.992035,1591313545445
Fix,GT,37.6033858,-122.381831,,29.987589,0.1,126.05307,1591313546445
Fix,GT,37.6032156,-122.3815693,,29.705627,0.1,126.07614,1591313547445
Fix,GT,37.6030469,-122.3813102,,29.425093,0.1,126.15662,1591313548445
Fix,GT,37.6028791,-122.3810542,,29.142517,0.1,126.47858,1591313549445
Fix,GT,37.6027119,-122.3808015,,28.891033,0.1,126.59845,1591313550445
Fix,GT,37.6025463,-122.3805509,,28.671326,0.1,126.352356,1591313551445
Fix,GT,37.6023827,-122.380301,,28.508621,0.1,126.115875,1591313552445
Fix,GT,37.6022206,-122.3800513,,28.399437,0.1,125.90695,1591313553445
Fix,GT,37.6020596,-122.379802,,28.332554,0.1,125.81656,1591313554445
Fix,GT,37.601899,-122.3795526,,28.35242,0.1,125.8031,1591313555445
Fix,GT,37.6017382,-122.3793028,,28.414486,0.1,125.88495,1591313556445
Fix,GT,37.6015765,-122.3790529,,28.492168,0.1,126.10678,1591313557445
Fix,GT,37.6014132,-122.3788031,,28.582886,0.1,126.355316,1591313558445
Fix,GT,37.6012489,-122.3785532,,28.673626,0.1,126.41318,1591313559445
Fix,GT,37.6010842,-122.3783023,,28.786987,0.1,126.26361,1591313560445
Fix,GT,37.600919,-122.3780501,,28.907879,0.1,126.2785,1591313561445
Fix,GT,37.6007532,-122.3777969,,29.000824,0.1,126.232605,1591313562445
Fix,GT,37.6005877,-122.3775428,,28.958118,0.1,125.930176,1591313563445
Fix,GT,37.600424,-122.3772888,,28.749725,0.1,125.79056,1591313564445
Fix,GT,37.6002613,-122.3770371,,28.543163,0.1,126.14148,1591313565445
Fix,GT,37.600098,-122.3767881,,28.46283,0.1,126.486694,1591313566445
Fix,GT,37.5999342,-122.3765398,,28.533737,0.1,126.48053,1591313567445
Fix,GT,37.59977,-122.3762903,,28.646727,0.1,126.31503,1591313568445
Fix,GT,37.5996059,-122.3760391,,28.758211,0.1,126.07538,1591313569445
Fix,GT,37.5994421,-122.375786,,28.874302,0.1,125.74719,1591313570445
Fix,GT,37.5992784,-122.3755311,,29.018131,0.1,125.707886,1591313571445
Fix,GT,37.5991133,-122.3752749,,29.211502,0.1,125.96179,1591313572445
Fix,GT,37.5989464,-122.3750177,,29.411022,0.1,125.99115,1591313573445
Fix,GT,37.5987788,-122.3747582,,29.57943,0.1,125.6933,1591313574445
Fix,GT,37.5986118,-122.3744965,,29.663828,0.1,125.50888,1591313575445
Fix,GT,37.5984444,-122.3742345,,29.63681,0.1,125.688416,1591313576445
Fix,GT,37.5982764,-122.3739739,,29.605745,0.1,125.899414,1591313577445
Fix,GT,37.5981081,-122.3737138,,29.611328,0.1,125.98956,1591313578445
Fix,GT,37.5979395,-122.3734538,,29.65168,0.1,126.01596,1591313579445
Fix,GT,37.5977704,-122.3731933,,29.7234,0.1,126.01041,1591313580445
Fix,GT,37.5976011,-122.3729321,,29.790169,0.1,125.92944,1591313581445
Fix,GT,37.5974317,-122.37267,,29.838413,0.1,125.825745,1591313582445
Fix,GT,37.5972625,-122.3724073,,29.866451,0.1,125.77475,1591313583445
Fix,GT,37.597093,-122.3721446,,29.900944,0.1,125.92206,1591313584445
Fix,GT,37.5969223,-122.3718822,,29.966507,0.1,126.21161,1591313585445
Fix,GT,37.5967504,-122.37162,,30.03423,0.1,126.273254,1591313586445
Fix,GT,37.5965786,-122.371357,,30.095745,0.1,126.11838,1591313587445
Fix,GT,37.5964067,-122.3710929,,30.166065,0.1,126.147125,1591313588445
Fix,GT,37.5962339,-122.3708286,,30.23758,0.1,126.374084,1591313589445
Fix,GT,37.59606,-122.3705646,,30.30442,0.1,126.53824,1591313590445
Fix,GT,37.5958852,-122.3703004,,30.383778,0.1,126.50952,1591313591445
Fix,GT,37.5957103,-122.370035,,30.48592,0.1,126.33206,1591313592445
Fix,GT,37.5955356,-122.3697681,,30.58841,0.1,126.14627,1591313593445
Fix,GT,37.5953609,-122.3694994,,30.703236,0.1,126.02228,1591313594445
Fix,GT,37.5951857,-122.3692296,,30.818792,0.1,126.05475,1591313595445
Fix,GT,37.5950095,-122.3689589,,30.935442,0.1,126.14319,1591313596445
Fix,GT,37.5948322,-122.3686876,,31.063446,0.1,126.24002,1591313597445
Fix,GT,37.5946539,-122.3684154,,31.204132,0.1,126.30762,1591313598445
Fix,GT,37.5944745,-122.3681421,,31.367514,0.1,126.29944,1591313599445
Fix,GT,37.5942945,-122.3678673,,31.509495,0.1,126.18741,1591313600445
Fix,GT,37.5941144,-122.3675907,,31.645245,0.1,126.07999,1591313601445
Fix,GT,37.5939337,-122.3673126,,31.780712,0.1,125.98346,1591313602445
Fix,GT,37.5937525,-122.3670329,,31.91748,0.1,125.97937,1591313603445
Fix,GT,37.5935702,-122.3667523,,32.063217,0.1,126.14862,1591313604445
Fix,GT,37.5933864,-122.3664713,,32.189564,0.1,126.286316,1591313605445
Fix,GT,37.5932017,-122.3661894,,32.30885,0.1,126.22238,1591313606445
Fix,GT,37.5930169,-122.3659059,,32.436356,0.1,126.06979,1591313607445
Fix,GT,37.5928319,-122.3656208,,32.531754,0.1,125.88342,1591313608445
Fix,GT,37.5926467,-122.3653347,,32.596123,0.1,126.01404,1591313609445
Fix,GT,37.5924599,-122.3650494,,32.65797,0.1,126.49704,1591313610445
Fix,GT,37.5922709,-122.3647655,,32.706654,0.1,126.81592,1591313611445
Fix,GT,37.5920813,-122.3644815,,32.771782,0.1,126.70453,1591313612445
Fix,GT,37.5918924,-122.3641961,,32.832207,0.1,126.51495,1591313613445
Fix,GT,37.5917034,-122.3639099,,32.861946,0.1,126.51367,1591313614445
Fix,GT,37.5915141,-122.3636239,,32.851173,0.1,126.53836,1591313615445
Fix,GT,37.5913249,-122.3633378,,32.848213,0.1,126.464386,1591313616445
Fix,GT,37.5911362,-122.363051,,32.872353,0.1,126.34488,1591313617445
Fix,GT,37.5909476,-122.3627636,,32.924664,0.1,126.26413,1591313618445
Fix,GT,37.5907589,-122.3624754,,33.013535,0.1,126.27948,1591313619445
Fix,GT,37.5905694,-122.3621865,,33.10678,0.1,126.32214,1591313620445
Fix,GT,37.5903793,-122.3618968,,33.205772,0.1,126.23828,1591313621445
Fix,GT,37.5901895,-122.3616055,,33.330315,0.1,126.02234,1591313622445
Fix,GT,37.5899996,-122.361312,,33.47917,0.1,125.8241,1591313623445
Fix,GT,37.5898096,-122.3610163,,33.630707,0.1,125.642426,1591313624445
Fix,GT,37.5896199,-122.3607184,,33.758064,0.1,125.23825,1591313625445
Fix,GT,37.5894318,-122.3604175,,33.853626,0.1,124.65088,1591313626445
Fix,GT,37.5892467,-122.3601123,,33.946854,0.1,123.46634,1591313627445
Fix,GT,37.5890681,-122.3598001,,34.04746,0.1,121.41638,1591313628445
Fix,GT,37.5888982,-122.3594788,,34.134212,0.1,119.36603,1591313629445
Fix,GT,37.5887367,-122.3591498,,34.196884,0.1,117.544464,1591313630445
Fix,GT,37.5885829,-122.3588143,,34.237057,0.1,115.92474,1591313631445
Fix,GT,37.5884356,-122.3584738,,34.274406,0.1,114.81903,1591313632445
Fix,GT,37.5882929,-122.3581294,,34.327934,0.1,113.675995,1591313633445
Fix,GT,37.5881565,-122.3577805,,34.368584,0.1,112.020325,1591313634445
Fix,GT,37.5880285,-122.3574262,,34.3803,0.1,110.29666,1591313635445
Fix,GT,37.5879088,-122.3570674,,34.372925,0.1,108.60712,1591313636445
Fix,GT,37.5877983,-122.3567045,,34.31942,0.1,106.69415,1591313637445
Fix,GT,37.5876978,-122.356338,,34.204895,0.1,104.76712,1591313638445
Fix,GT,37.5876066,-122.355969,,34.0634,0.1,103.29721,1591313639445
Fix,GT,37.5875226,-122.3555991,,33.927612,0.1,101.93787,1591313640445
Fix,GT,37.5874476,-122.3552277,,33.832943,0.1,99.87543,1591313641445
Fix,GT,37.5873827,-122.3548538,,33.808372,0.1,98.244934,1591313642445
Fix,GT,37.5873244,-122.3544782,,33.812363,0.1,97.20209,1591313643445
Fix,GT,37.5872734,-122.3541012,,33.80434,0.1,95.390656,1591313644445
Fix,GT,37.5872321,-122.3537222,,33.808094,0.1,93.65881,1591313645445
Fix,GT,37.5871996,-122.3533419,,33.798256,0.1,92.002106,1591313646445
Fix,GT,37.5871764,-122.3529607,,33.775803,0.1,90.28757,1591313647445
Fix,GT,37.5871609,-122.3525789,,33.784187,0.1,89.07968,1591313648445
Fix,GT,37.5871501,-122.3521967,,33.78906,0.1,88.56418,1591313649445
Fix,GT,37.5871409,-122.3518142,,33.81162,0.1,88.55798,1591313650445
Fix,GT,37.5871309,-122.3514315,,33.848278,0.1,88.6391,1591313651445
Fix,GT,37.587121,-122.3510482,,33.875942,0.1,88.51941,1591313652445
Fix,GT,37.5871117,-122.3506647,,33.90679,0.1,88.49884,1591313653445
Fix,GT,37.5871025,-122.3502808,,33.93331,0.1,88.45285,1591313654445
Fix,GT,37.5870934,-122.3498965,,33.95868,0.1,88.4975,1591313655445
Fix,GT,37.5870837,-122.3495121,,33.96077,0.1,88.64691,1591313656445
Fix,GT,37.5870739,-122.349128,,33.92592,0.1,88.57245,1591313657445
Fix,GT,37.5870642,-122.3487442,,33.870678,0.1,88.640625,1591313658445
Fix,GT,37.587054,-122.3483613,,33.79613,0.1,88.67319,1591313659445
Fix,GT,37.5870441,-122.3479791,,33.732758,0.1,88.520874,1591313660445
Fix,GT,37.5870348,-122.3475976,,33.665245,0.1,88.53021,1591313661445
Fix,GT,37.5870248,-122.3472171,,33.569992,0.1,88.78317,1591313662445
Fix,GT,37.5870135,-122.3468378,,33.471336,0.1,89.05362,1591313663445
Fix,GT,37.5870014,-122.3464596,,33.386734,0.1,89.0101,1591313664445
Fix,GT,37.5869901,-122.3460824,,33.311977,0.1,88.72873,1591313665445
Fix,GT,37.5869804,-122.3457059,,33.235016,0.1,88.49878,1591313666445
Fix,GT,37.5869713,-122.3453301,,33.168816,0.1,88.53168,1591313667445
Fix,GT,37.5869614,-122.3449552,,33.114403,0.1,88.78058,1591313668445
Fix,GT,37.5869504,-122.3445806,,33.103004,0.1,88.931,1591313669445
Fix,GT,37.5869392,-122.344206,,33.119946,0.1,88.862946,1591313670445
Fix,GT,37.5869287,-122.3438313,,33.112778,0.1,88.69797,1591313671445
Fix,GT,37.5869189,-122.3434568,,33.076958,0.1,88.51303,1591313672445
Fix,GT,37.5869101,-122.3430827,,33.028538,0.1,88.32501,1591313673445
Fix,GT,37.5869018,-122.3427093,,32.96006,0.1,88.45465,1591313674445
Fix,GT,37.5868927,-122.3423367,,32.890728,0.1,88.604004,1591313675445
Fix,GT,37.5868831,-122.3419647,,32.847397,0.1,88.625885,1591313676445
Fix,GT,37.5868737,-122.3415932,,32.82161,0.1,88.57849,1591313677445
Fix,GT,37.5868643,-122.3412221,,32.790928,0.1,88.64981,1591313678445
Fix,GT,37.5868543,-122.3408513,,32.753338,0.1,88.701904,1591313679445
Fix,GT,37.5868445,-122.340481,,32.704453,0.1,88.591644,1591313680445
Fix,GT,37.5868353,-122.3401115,,32.63327,0.1,88.54245,1591313681445
Fix,GT,37.5868261,-122.3397428,,32.53291,0.1,88.65906,1591313682445
Fix,GT,37.5868159,-122.3393752,,32.430813,0.1,88.82666,1591313683445
Fix,GT,37.5868051,-122.339009,,32.326694,0.1,88.83063,1591313684445
Fix,GT,37.5867951,-122.3386439,,32.219276,0.1,88.61426,1591313685445
Fix,GT,37.5867862,-122.3382799,,32.123695,0.1,88.38422,1591313686445
Fix,GT,37.5867781,-122.3379167,,32.084877,0.1,88.416016,1591313687445
Fix,GT,37.5867694,-122.3375533,,32.160633,0.1,88.64023,1591313688445
Fix,GT,37.5867594,-122.3371886,,32.32268,0.1,88.88284,1591313689445
Fix,GT,37.5867481,-122.3368218,,32.504852,0.1,89.072174,1591313690445
Fix,GT,37.5867365,-122.3364531,,32.693455,0.1,88.832825,1591313691445
Fix,GT,37.5867268,-122.3360821,,32.88414,0.1,88.538635,1591313692445
Fix,GT,37.5867178,-122.3357088,,33.06855,0.1,88.499725,1591313693445
Fix,GT,37.5867088,-122.3353339,,33.169617,0.1,88.50018,1591313694445
Fix,GT,37.5866992,-122.3349589,,33.06858,0.1,88.81116,1591313695445
Fix,GT,37.5866875,-122.3345862,,32.757427,0.1,89.28049,1591313696445
Fix,GT,37.5866728,-122.3342183,,32.271122,0.1,90.11835,1591313697445
Fix,GT,37.5866515,-122.3338568,,31.729637,0.1,92.14154,1591313698445
Fix,GT,37.5866191,-122.3335028,,31.215782,0.1,94.59387,1591313699445
Fix,GT,37.5865759,-122.3331562,,30.716139,0.1,96.83548,1591313700445
Fix,GT,37.5865218,-122.3328177,,30.246994,0.1,99.63217,1591313701445
Fix,GT,37.5864545,-122.3324878,,29.882221,0.1,102.762146,1591313702445
Fix,GT,37.5863741,-122.3321664,,29.626392,0.1,105.69678,1591313703445
Fix,GT,37.5862818,-122.3318526,,29.430676,0.1,108.56122,1591313704445
Fix,GT,37.586177,-122.3315465,,29.314207,0.1,111.51071,1591313705445
Fix,GT,37.5860594,-122.3312482,,29.282192,0.1,114.60477,1591313706445
Fix,GT,37.5859302,-122.3309586,,29.269585,0.1,117.482056,1591313707445
Fix,GT,37.5857906,-122.3306776,,29.244534,0.1,120.1366,1591313708445
Fix,GT,37.5856409,-122.3304057,,29.219826,0.1,123.05777,1591313709445
Fix,GT,37.5854804,-122.3301445,,29.205679,0.1,125.992676,1591313710445
Fix,GT,37.5853095,-122.3298932,,29.195782,0.1,128.68216,1591313711445
Fix,GT,37.5851295,-122.3296523,,29.140594,0.1,131.39282,1591313712445
Fix,GT,37.5849411,-122.3294229,,29.050716,0.1,133.96399,1591313713445
Fix,GT,37.5847465,-122.3292031,,29.012981,0.1,135.32587,1591313714445
Fix,GT,37.5845502,-122.3289862,,28.982548,0.1,135.49344,1591313715445
Fix,GT,37.5843543,-122.3287694,,28.948738,0.1,135.37445,1591313716445
Fix,GT,37.5841584,-122.3285524,,29.021465,0.1,135.56207,1591313717445
Fix,GT,37.5839608,-122.3283356,,29.22189,0.1,135.70929,1591313718445
Fix,GT,37.5837617,-122.328117,,29.45044,0.1,135.58545,1591313719445
Fix,GT,37.5835606,-122.3278973,,29.696972,0.1,136.21362,1591313720445
Fix,GT,37.5833548,-122.3276804,,29.939926,0.1,137.40692,1591313721445
Fix,GT,37.5831448,-122.3274653,,30.182495,0.1,137.6015,1591313722445
Fix,GT,37.5829342,-122.327247,,30.435345,0.1,136.9495,1591313723445
Fix,GT,37.5827238,-122.327024,,30.697006,0.1,136.41168,1591313724445
Fix,GT,37.5825127,-122.3267973,,30.95499,0.1,136.21024,1591313725445
Fix,GT,37.5823004,-122.326568,,31.185913,0.1,136.04218,1591313726445
Fix,GT,37.582087,-122.3263362,,31.397346,0.1,135.84924,1591313727445
Fix,GT,37.5818732,-122.3261029,,31.449846,0.1,135.79514,1591313728445
Fix,GT,37.5816597,-122.3258701,,31.26015,0.1,135.89832,1591313729445
Fix,GT,37.5814476,-122.3256398,,30.954609,0.1,136.01834,1591313730445
Fix,GT,37.5812375,-122.3254126,,30.573837,0.1,136.11969,1591313731445
Fix,GT,37.5810298,-122.3251885,,30.207987,0.1,136.12378,1591313732445
Fix,GT,37.5808244,-122.3249666,,29.9472,0.1,136.09299,1591313733445
Fix,GT,37.5806204,-122.3247463,,29.78266,0.1,136.14233,1591313734445
Fix,GT,37.5804171,-122.3245271,,29.682047,0.1,136.1272,1591313735445
Fix,GT,37.580215,-122.3243082,,29.545162,0.1,135.86969,1591313736445
Fix,GT,37.5800147,-122.3240893,,29.412197,0.1,135.65576,1591313737445
Fix,GT,37.5798152,-122.3238708,,29.33934,0.1,135.81378,1591313738445
Fix,GT,37.5796152,-122.3236535,,29.3237,0.1,136.1052,1591313739445
Fix,GT,37.5794145,-122.323437,,29.405153,0.1,136.17853,1591313740445
Fix,GT,37.5792128,-122.3232197,,29.595707,0.1,136.1665,1591313741445
Fix,GT,37.5790096,-122.3230008,,29.830366,0.1,136.20547,1591313742445
Fix,GT,37.5788047,-122.32278,,30.07075,0.1,136.18982,1591313743445
Fix,GT,37.5785984,-122.3225571,,30.30719,0.1,136.02502,1591313744445
Fix,GT,37.5783913,-122.3223317,,30.508621,0.1,135.81958,1591313745445
Fix,GT,37.5781834,-122.3221047,,30.58521,0.1,135.83624,1591313746445
Fix,GT,37.5779753,-122.3218781,,30.506657,0.1,135.94409,1591313747445
Fix,GT,37.5777678,-122.3216527,,30.363983,0.1,135.96844,1591313748445
Fix,GT,37.5775612,-122.3214287,,30.200638,0.1,135.99115,1591313749445
Fix,GT,37.5773556,-122.3212059,,30.043068,0.1,136.04535,1591313750445
Fix,GT,37.5771509,-122.3209845,,29.91737,0.1,136.12811,1591313751445
Fix,GT,37.5769468,-122.3207638,,29.871233,0.1,136.07855,1591313752445
Fix,GT,37.576743,-122.3205426,,29.933046,0.1,135.91577,1591313753445
Fix,GT,37.5765386,-122.3203202,,30.090277,0.1,135.8736,1591313754445
Fix,GT,37.5763331,-122.3200962,,30.307512,0.1,135.84247,1591313755445
Fix,GT,37.5761263,-122.3198701,,30.533749,0.1,135.83325,1591313756445
Fix,GT,37.5759177,-122.3196427,,30.756422,0.1,135.9737,1591313757445
Fix,GT,37.5757071,-122.3194146,,30.97861,0.1,136.07693,1591313758445
Fix,GT,37.575495,-122.3191849,,31.181543,0.1,135.98969,1591313759445
Fix,GT,37.5752819,-122.3189535,,31.333912,0.1,135.97992,1591313760445
Fix,GT,37.5750679,-122.3187214,,31.43637,0.1,135.98071,1591313761445
Fix,GT,37.5748535,-122.3184881,,31.507626,0.1,135.85956,1591313762445
Fix,GT,37.5746388,-122.3182541,,31.58487,0.1,135.89948,1591313763445
Fix,GT,37.5744233,-122.3180198,,31.665176,0.1,136.00806,1591313764445
Fix,GT,37.574207,-122.3177853,,31.73251,0.1,136.01593,1591313765445
Fix,GT,37.5739906,-122.3175502,,31.773327,0.1,135.95435,1591313766445
Fix,GT,37.5737743,-122.3173146,,31.784763,0.1,135.83102,1591313767445
Fix,GT,37.5735583,-122.3170784,,31.788351,0.1,135.76578,1591313768445
Fix,GT,37.5733423,-122.316842,,31.778564,0.1,135.73517,1591313769445
Fix,GT,37.5731264,-122.3166057,,31.784286,0.1,135.7785,1591313770445
Fix,GT,37.5729101,-122.3163698,,31.788166,0.1,135.91705,1591313771445
Fix,GT,37.5726935,-122.3161346,,31.76085,0.1,136.00937,1591313772445
Fix,GT,37.5724771,-122.3159,,31.671148,0.1,135.95993,1591313773445
Fix,GT,37.5722619,-122.3156657,,31.560009,0.1,135.8418,1591313774445
Fix,GT,37.5720477,-122.3154315,,31.494995,0.1,135.77603,1591313775445
Fix,GT,37.5718339,-122.3151972,,31.477455,0.1,135.7044,1591313776445
Fix,GT,37.5716202,-122.3149629,,31.49085,0.1,135.74768,1591313777445
Fix,GT,37.5714057,-122.3147291,,31.530102,0.1,136.0102,1591313778445
Fix,GT,37.5711902,-122.3144964,,31.585644,0.1,136.2622,1591313779445
Fix,GT,37.570974,-122.314264,,31.572807,0.1,136.29059,1591313780445
Fix,GT,37.5707586,-122.3140318,,31.37117,0.1,136.07233,1591313781445
Fix,GT,37.5705461,-122.3138008,,31.010406,0.1,135.8487,1591313782445
Fix,GT,37.5703367,-122.313572,,30.591927,0.1,135.78308,1591313783445
Fix,GT,37.5701302,-122.313346,,30.213562,0.1,135.82703,1591313784445
Fix,GT,37.5699254,-122.3131228,,29.996506,0.1,135.93488,1591313785445
Fix,GT,37.5697216,-122.3129005,,29.940788,0.1,135.651,1591313786445
Fix,GT,37.5695197,-122.3126758,,29.949703,0.1,134.80515,1591313787445
Fix,GT,37.5693196,-122.3124479,,30.03255,0.1,134.51404,1591313788445
Fix,GT,37.5691185,-122.3122197,,30.111614,0.1,134.9729,1591313789445
Fix,GT,37.5689155,-122.3119937,,30.084461,0.1,135.53723,1591313790445
Fix,GT,37.5687114,-122.3117702,,30.02696,0.1,135.88077,1591313791445
Fix,GT,37.5685071,-122.3115474,,30.053883,0.1,135.80048,1591313792445
Fix,GT,37.5683025,-122.3113237,,30.174885,0.1,135.75146,1591313793445
Fix,GT,37.5680968,-122.3110989,,30.354279,0.1,135.80914,1591313794445
Fix,GT,37.5678892,-122.3108729,,30.587034,0.1,135.83505,1591313795445
Fix,GT,37.5676804,-122.3106452,,30.80833,0.1,135.8172,1591313796445
Fix,GT,37.5674701,-122.3104158,,31.02771,0.1,135.86157,1591313797445
Fix,GT,37.5672581,-122.3101851,,31.23674,0.1,135.94476,1591313798445
Fix,GT,37.5670448,-122.3099532,,31.356972,0.1,136.00629,1591313799445
Fix,GT,37.5668307,-122.3097209,,31.421219,0.1,136.10541,1591313800445
Fix,GT,37.5666159,-122.3094889,,31.463154,0.1,136.1626,1591313801445
Fix,GT,37.5664007,-122.3092572,,31.447632,0.1,136.20001,1591313802445
Fix,GT,37.5661855,-122.309026,,31.417837,0.1,136.29309,1591313803445
Fix,GT,37.5659702,-122.3087951,,31.442276,0.1,136.32068,1591313804445
Fix,GT,37.5657548,-122.3085634,,31.4995,0.1,136.1803,1591313805445
Fix,GT,37.5655395,-122.3083306,,31.558464,0.1,135.98224,1591313806445
Fix,GT,37.5653243,-122.3080966,,31.61842,0.1,135.8703,1591313807445
Fix,GT,37.5651089,-122.3078618,,31.67612,0.1,135.8815,1591313808445
Fix,GT,37.5648928,-122.3076269,,31.751955,0.1,135.99835,1591313809445
Fix,GT,37.564676,-122.3073918,,31.827888,0.1,135.95685,1591313810445
Fix,GT,37.5644591,-122.3071557,,31.89418,0.1,135.83554,1591313811445
Fix,GT,37.5642418,-122.3069189,,31.966322,0.1,135.98065,1591313812445
Fix,GT,37.5640226,-122.3066831,,32.073715,0.1,136.45642,1591313813445
Fix,GT,37.5638009,-122.306449,,32.207684,0.1,137.08917,1591313814445
Fix,GT,37.5635768,-122.3062164,,32.330933,0.1,137.33429,1591313815445
Fix,GT,37.5633518,-122.3059829,,32.45134,0.1,137.06223,1591313816445
Fix,GT,37.5631273,-122.3057468,,32.555298,0.1,136.61218,1591313817445
Fix,GT,37.5629038,-122.3055078,,32.636536,0.1,136.24811,1591313818445
Fix,GT,37.5626805,-122.3052666,,32.727066,0.1,136.14648,1591313819445
Fix,GT,37.5624563,-122.305025,,32.835617,0.1,136.25815,1591313820445
Fix,GT,37.5622314,-122.3047828,,32.916607,0.1,136.13318,1591313821445
Fix,GT,37.5620067,-122.3045391,,32.979836,0.1,135.88904,1591313822445
Fix,GT,37.5617817,-122.3042946,,33.050884,0.1,136.06497,1591313823445
Fix,GT,37.5615558,-122.3040507,,33.05177,0.1,136.15833,1591313824445
Fix,GT,37.5613306,-122.3038066,,32.93151,0.1,135.87613,1591313825445
Fix,GT,37.5611073,-122.3035629,,32.753433,0.1,135.84515,1591313826445
Fix,GT,37.5608842,-122.3033216,,32.599705,0.1,136.40509,1591313827445
Fix,GT,37.56066,-122.3030842,,32.46457,0.1,136.99628,1591313828445
Fix,GT,37.560435,-122.3028509,,32.31188,0.1,137.63757,1591313829445
Fix,GT,37.5602085,-122.3026222,,32.212414,0.1,138.45288,1591313830445
Fix,GT,37.5599801,-122.3023978,,32.16845,0.1,139.18027,1591313831445
Fix,GT,37.55975,-122.3021767,,32.13749,0.1,139.63287,1591313832445
Fix,GT,37.5595186,-122.3019582,,32.114044,0.1,140.1449,1591313833445
Fix,GT,37.5592858,-122.3017421,,32.1082,0.1,140.67245,1591313834445
Fix,GT,37.5590516,-122.3015286,,32.141262,0.1,141.02484,1591313835445
Fix,GT,37.5588163,-122.3013165,,32.130302,0.1,141.1372,1591313836445
Fix,GT,37.5585815,-122.3011046,,32.028427,0.1,141.17053,1591313837445
Fix,GT,37.5583472,-122.3008942,,31.90426,0.1,141.45761,1591313838445
Fix,GT,37.5581125,-122.3006865,,31.839062,0.1,141.80142,1591313839445
Fix,GT,37.5578775,-122.30048,,31.85571,0.1,141.89941,1591313840445
Fix,GT,37.5576419,-122.3002733,,31.927067,0.1,141.76645,1591313841445
Fix,GT,37.557406,-122.3000656,,32.021317,0.1,141.7207,1591313842445
Fix,GT,37.55717,-122.2998563,,32.12329,0.1,141.36987,1591313843445
Fix,GT,37.5569348,-122.2996436,,32.2195,0.1,140.70609,1591313844445
Fix,GT,37.5567005,-122.2994274,,32.33273,0.1,140.28925,1591313845445
Fix,GT,37.5564659,-122.2992091,,32.454033,0.1,140.3797,1591313846445
Fix,GT,37.5562298,-122.2989915,,32.529915,0.1,140.71942,1591313847445
Fix,GT,37.5559928,-122.2987745,,32.56965,0.1,140.7005,1591313848445
Fix,GT,37.5557561,-122.2985565,,32.581947,0.1,140.43146,1591313849445
Fix,GT,37.5555201,-122.2983377,,32.460873,0.1,140.38095,1591313850445
Fix,GT,37.5552861,-122.2981202,,32.14612,0.1,140.28943,1591313851445
Fix,GT,37.5550547,-122.2979048,,31.79461,0.1,140.21933,1591313852445
Fix,GT,37.554826,-122.2976908,,31.505135,0.1,139.97711,1591313853445
Fix,GT,37.5546005,-122.297477,,31.2322,0.1,139.4455,1591313854445
Fix,GT,37.5543786,-122.2972621,,30.965187,0.1,138.91174,1591313855445
Fix,GT,37.5541591,-122.2970476,,30.769983,0.1,138.94873,1591313856445
Fix,GT,37.5539398,-122.296835,,30.716179,0.1,139.29321,1591313857445
Fix,GT,37.5537202,-122.2966231,,30.767727,0.1,139.25995,1591313858445
Fix,GT,37.5535,-122.2964108,,30.853464,0.1,139.3768,1591313859445
Fix,GT,37.5532785,-122.2961987,,30.954275,0.1,139.69113,1591313860445
Fix,GT,37.5530548,-122.295988,,31.070244,0.1,140.15494,1591313861445
Fix,GT,37.552829,-122.2957785,,31.193134,0.1,140.56049,1591313862445
Fix,GT,37.5526021,-122.2955697,,31.237602,0.1,140.69458,1591313863445
Fix,GT,37.552375,-122.2953606,,31.24179,0.1,140.5592,1591313864445
Fix,GT,37.552149,-122.2951513,,31.082893,0.1,140.27472,1591313865445
Fix,GT,37.5519264,-122.2949426,,30.518536,0.1,139.94397,1591313866445
Fix,GT,37.5517093,-122.2947378,,29.702442,0.1,139.95538,1591313867445
Fix,GT,37.5514976,-122.2945397,,28.931461,0.1,140.2843,1591313868445
Fix,GT,37.5512898,-122.2943474,,28.394722,0.1,140.46387,1591313869445
Fix,GT,37.5510857,-122.2941581,,27.98637,0.1,140.20868,1591313870445
Fix,GT,37.550886,-122.293971,,27.263866,0.1,140.00421,1591313871445
Fix,GT,37.5506923,-122.2937889,,26.38987,0.1,139.98993,1591313872445
Fix,GT,37.5505036,-122.2936116,,25.993397,0.1,139.98596,1591313873445
Fix,GT,37.5503168,-122.293436,,25.83356,0.1,140.03397,1591313874445
Fix,GT,37.5501303,-122.2932616,,25.79824,0.1,140.31165,1591313875445
Fix,GT,37.5499431,-122.293088,,25.829983,0.1,140.39206,1591313876445
Fix,GT,37.5497558,-122.2929139,,25.903324,0.1,140.1831,1591313877445
Fix,GT,37.5495684,-122.2927381,,26.013758,0.1,139.97586,1591313878445
Fix,GT,37.5493803,-122.292561,,26.1818,0.1,139.91055,1591313879445
Fix,GT,37.549191,-122.2923824,,26.369892,0.1,139.8305,1591313880445
Fix,GT,37.5490006,-122.292202,,26.561008,0.1,139.79666,1591313881445
Fix,GT,37.5488086,-122.292021,,26.764645,0.1,140.0625,1591313882445
Fix,GT,37.548614,-122.2918398,,26.983393,0.1,140.47577,1591313883445
Fix,GT,37.5484169,-122.2916588,,27.210768,0.1,140.76807,1591313884445
Fix,GT,37.5482181,-122.2914772,,27.322002,0.1,140.72519,1591313885445
Fix,GT,37.5480197,-122.2912948,,27.189022,0.1,140.4231,1591313886445
Fix,GT,37.5478239,-122.2911129,,26.889553,0.1,140.26611,1591313887445
Fix,GT,37.5476303,-122.2909331,,26.562723,0.1,140.37924,1591313888445
Fix,GT,37.5474387,-122.2907552,,26.394829,0.1,140.30591,1591313889445
Fix,GT,37.5472475,-122.2905772,,26.447414,0.1,140.19916,1591313890445
Fix,GT,37.5470555,-122.2903985,,26.591318,0.1,140.29572,1591313891445
Fix,GT,37.5468624,-122.2902188,,26.757486,0.1,140.2844,1591313892445
Fix,GT,37.546668,-122.2900381,,26.896688,0.1,140.43188,1591313893445
Fix,GT,37.5464727,-122.2898578,,26.869286,0.1,140.49286,1591313894445
Fix,GT,37.5462783,-122.2896782,,26.693653,0.1,140.34174,1591313895445
Fix,GT,37.5460852,-122.2894991,,26.612082,0.1,140.33002,1591313896445
Fix,GT,37.5458923,-122.2893201,,26.665533,0.1,140.31775,1591313897445
Fix,GT,37.545699,-122.2891401,,26.760815,0.1,140.14972,1591313898445
Fix,GT,37.5455053,-122.2889589,,26.866615,0.1,140.2008,1591313899445
Fix,GT,37.5453101,-122.2887776,,27.010555,0.1,140.48602,1591313900445
Fix,GT,37.5451134,-122.2885962,,27.156712,0.1,140.49023,1591313901445
Fix,GT,37.5449161,-122.2884132,,27.29468,0.1,140.26471,1591313902445
Fix,GT,37.5447181,-122.2882286,,27.45775,0.1,140.32031,1591313903445
Fix,GT,37.5445181,-122.288044,,27.605917,0.1,140.71759,1591313904445
Fix,GT,37.5443165,-122.2878598,,27.744938,0.1,140.81061,1591313905445
Fix,GT,37.5441142,-122.2876742,,27.857449,0.1,140.49597,1591313906445
Fix,GT,37.5439124,-122.2874868,,27.868145,0.1,140.25784,1591313907445
Fix,GT,37.5437113,-122.287299,,27.762173,0.1,140.17517,1591313908445
Fix,GT,37.5435111,-122.2871121,,27.61444,0.1,140.22229,1591313909445
Fix,GT,37.5433117,-122.2869268,,27.433205,0.1,140.34912,1591313910445
Fix,GT,37.5431135,-122.286743,,27.267056,0.1,140.35687,1591313911445
Fix,GT,37.5429163,-122.2865598,,27.180782,0.1,140.36255,1591313912445
Fix,GT,37.5427192,-122.2863775,,27.18446,0.1,140.64972,1591313913445
Fix,GT,37.5425209,-122.286196,,27.299805,0.1,140.86603,1591313914445
Fix,GT,37.5423213,-122.2860134,,27.512238,0.1,140.6903,1591313915445
Fix,GT,37.5421205,-122.285829,,27.71903,0.1,140.69226,1591313916445
Fix,GT,37.5419177,-122.2856441,,27.9062,0.1,140.91211,1591313917445
Fix,GT,37.5417137,-122.2854578,,28.059479,0.1,140.71036,1591313918445
Fix,GT,37.5415094,-122.2852699,,28.121998,0.1,140.47589,1591313919445
Fix,GT,37.5413053,-122.2850816,,28.093647,0.1,140.43326,1591313920445
Fix,GT,37.5411016,-122.2848932,,28.065922,0.1,140.36719,1591313921445
Fix,GT,37.5408978,-122.2847048,,28.109135,0.1,140.6199,1591313922445
Fix,GT,37.5406929,-122.2845174,,28.13992,0.1,140.857,1591313923445
Fix,GT,37.5404879,-122.2843306,,28.057915,0.1,140.77832,1591313924445
Fix,GT,37.5402844,-122.2841443,,27.828894,0.1,140.58276,1591313925445
Fix,GT,37.5400835,-122.2839588,,27.536428,0.1,140.3682,1591313926445
Fix,GT,37.5398849,-122.2837741,,27.386662,0.1,140.27612,1591313927445
Fix,GT,37.5396863,-122.2835898,,27.466309,0.1,140.46075,1591313928445
Fix,GT,37.5394861,-122.2834054,,27.64246,0.1,140.60535,1591313929445
Fix,GT,37.5392849,-122.2832195,,27.830177,0.1,140.25443,1591313930445
Fix,GT,37.5390838,-122.2830296,,28.017632,0.1,139.49615,1591313931445
Fix,GT,37.5388829,-122.2828358,,28.220201,0.1,139.11786,1591313932445
Fix,GT,37.5386808,-122.2826397,,28.445965,0.1,139.19196,1591313933445
Fix,GT,37.5384765,-122.2824431,,28.702034,0.1,139.56525,1591313934445
Fix,GT,37.5382692,-122.2822465,,28.958992,0.1,139.86914,1591313935445
Fix,GT,37.5380597,-122.2820488,,29.217907,0.1,139.94666,1591313936445
Fix,GT,37.5378483,-122.2818497,,29.453548,0.1,140.0238,1591313937445
Fix,GT,37.5376347,-122.2816496,,29.70509,0.1,140.19873,1591313938445
Fix,GT,37.5374185,-122.2814489,,29.95531,0.1,140.37149,1591313939445
Fix,GT,37.5372008,-122.281247,,30.104862,0.1,140.31268,1591313940445
Fix,GT,37.5369826,-122.2810444,,30.121117,0.1,140.31305,1591313941445
Fix,GT,37.5367644,-122.2808421,,30.070835,0.1,140.35986,1591313942445
Fix,GT,37.5365466,-122.2806401,,30.01155,0.1,140.35095,1591313943445
Fix,GT,37.5363292,-122.2804386,,29.960814,0.1,140.3664,1591313944445
Fix,GT,37.5361123,-122.2802369,,29.964241,0.1,140.25769,1591313945445
Fix,GT,37.5358954,-122.2800348,,30.034039,0.1,140.19263,1591313946445
Fix,GT,37.5356774,-122.2798321,,30.16388,0.1,140.37396,1591313947445
Fix,GT,37.535458,-122.2796292,,30.316957,0.1,140.51392,1591313948445
Fix,GT,37.5352373,-122.2794254,,30.468964,0.1,140.38782,1591313949445
Fix,GT,37.5350163,-122.2792201,,30.559937,0.1,140.27039,1591313950445
Fix,GT,37.5347947,-122.2790144,,30.577477,0.1,140.44696,1591313951445
Fix,GT,37.5345728,-122.27881,,30.472359,0.1,140.63751,1591313952445
Fix,GT,37.534352,-122.2786076,,30.155373,0.1,140.65369,1591313953445
Fix,GT,37.5341342,-122.2784078,,29.728592,0.1,140.60767,1591313954445
Fix,GT,37.5339193,-122.2782102,,29.427444,0.1,140.54285,1591313955445
Fix,GT,37.533706,-122.2780132,,29.36995,0.1,140.39124,1591313956445
Fix,GT,37.533493,-122.2778156,,29.436386,0.1,140.36273,1591313957445
Fix,GT,37.5332793,-122.2776174,,29.536282,0.1,140.35089,1591313958445
Fix,GT,37.533065,-122.2774181,,29.663132,0.1,140.30481,1591313959445
Fix,GT,37.5328497,-122.2772184,,29.723845,0.1,140.42377,1591313960445
Fix,GT,37.5326344,-122.277019,,29.623068,0.1,140.4147,1591313961445
Fix,GT,37.5324206,-122.2768201,,29.46347,0.1,140.25604,1591313962445
Fix,GT,37.5322077,-122.2766216,,29.426659,0.1,140.15094,1591313963445
Fix,GT,37.5319946,-122.2764229,,29.532635,0.1,140.21252,1591313964445
Fix,GT,37.5317803,-122.276223,,29.722244,0.1,140.19775,1591313965445
Fix,GT,37.5315651,-122.2760212,,29.853725,0.1,139.85233,1591313966445
Fix,GT,37.5313511,-122.2758168,,29.801815,0.1,139.36383,1591313967445
Fix,GT,37.5311395,-122.2756107,,29.627724,0.1,138.7832,1591313968445
Fix,GT,37.5309309,-122.275403,,29.471317,0.1,138.08105,1591313969445
Fix,GT,37.5307248,-122.2751937,,29.394524,0.1,137.67734,1591313970445
Fix,GT,37.53052,-122.2749831,,29.389994,0.1,137.38303,1591313971445
Fix,GT,37.5303157,-122.2747711,,29.390406,0.1,137.07806,1591313972445
Fix,GT,37.5301131,-122.2745578,,29.299416,0.1,136.53455,1591313973445
Fix,GT,37.5299137,-122.2743423,,29.120312,0.1,135.64017,1591313974445
Fix,GT,37.5297186,-122.2741243,,28.886116,0.1,134.68713,1591313975445
Fix,GT,37.5295272,-122.2739049,,28.646736,0.1,134.23605,1591313976445
Fix,GT,37.5293374,-122.2736868,,28.47256,0.1,134.50525,1591313977445
Fix,GT,37.5291479,-122.2734707,,28.37998,0.1,134.46698,1591313978445
Fix,GT,37.5289594,-122.2732543,,28.329056,0.1,134.29599,1591313979445
Fix,GT,37.5287708,-122.2730383,,28.337395,0.1,134.46198,1591313980445
Fix,GT,37.5285818,-122.2728223,,28.411556,0.1,134.43451,1591313981445
Fix,GT,37.5283925,-122.2726052,,28.525915,0.1,134.41437,1591313982445
Fix,GT,37.5282019,-122.2723872,,28.69725,0.1,134.61005,1591313983445
Fix,GT,37.5280092,-122.2721689,,28.8787,0.1,134.8063,1591313984445
Fix,GT,37.5278152,-122.2719499,,29.044418,0.1,134.82166,1591313985445
Fix,GT,37.5276206,-122.2717298,,29.041988,0.1,134.73923,1591313986445
Fix,GT,37.5274274,-122.2715103,,28.750664,0.1,134.5221,1591313987445
Fix,GT,37.5272375,-122.2712928,,28.316128,0.1,134.33469,1591313988445
Fix,GT,37.5270509,-122.2710782,,27.860245,0.1,134.4202,1591313989445
Fix,GT,37.5268669,-122.2708677,,27.39001,0.1,134.48627,1591313990445
Fix,GT,37.526686,-122.2706602,,27.021774,0.1,134.34204,1591313991445
Fix,GT,37.526507,-122.270454,,26.94464,0.1,134.4054,1591313992445
Fix,GT,37.5263265,-122.2702488,,27.113571,0.1,134.94086,1591313993445
Fix,GT,37.5261435,-122.2700439,,27.344336,0.1,135.14313,1591313994445
Fix,GT,37.5259589,-122.2698371,,27.564178,0.1,135.0629,1591313995445
Fix,GT,37.5257726,-122.2696292,,27.776073,0.1,135.23627,1591313996445
Fix,GT,37.5255846,-122.2694198,,28.003609,0.1,135.09741,1591313997445
Fix,GT,37.5253958,-122.2692077,,28.231365,0.1,134.95459,1591313998445
Fix,GT,37.5252055,-122.2689938,,28.470829,0.1,134.9823,1591313999445
Fix,GT,37.525014,-122.2687775,,28.740005,0.1,134.71832,1591314000445
Fix,GT,37.5248214,-122.2685579,,29.006504,0.1,134.4209,1591314001445
Fix,GT,37.5246278,-122.2683355,,29.245235,0.1,134.52008,1591314002445
Fix,GT,37.5244318,-122.2681122,,29.495968,0.1,134.87857,1591314003445
Fix,GT,37.5242328,-122.2678886,,29.779438,0.1,135.11273,1591314004445
Fix,GT,37.5240316,-122.2676634,,30.048794,0.1,135.09619,1591314005445
Fix,GT,37.5238289,-122.2674359,,30.27179,0.1,134.96881,1591314006445
Fix,GT,37.5236254,-122.2672071,,30.353899,0.1,135.0213,1591314007445
Fix,GT,37.5234219,-122.2669784,,30.26965,0.1,134.96442,1591314008445
Fix,GT,37.5232193,-122.2667502,,30.117004,0.1,134.83832,1591314009445
Fix,GT,37.5230186,-122.2665229,,29.901398,0.1,134.71326,1591314010445
Fix,GT,37.5228197,-122.2662968,,29.660282,0.1,134.61551,1591314011445
Fix,GT,37.5226226,-122.2660723,,29.411255,0.1,134.61053,1591314012445
Fix,GT,37.5224268,-122.2658499,,29.171799,0.1,134.76108,1591314013445
Fix,GT,37.5222319,-122.2656294,,29.105377,0.1,134.879,1591314014445
Fix,GT,37.5220365,-122.2654087,,29.282621,0.1,134.82645,1591314015445
Fix,GT,37.5218398,-122.265186,,29.495895,0.1,134.76587,1591314016445
Fix,GT,37.521642,-122.2649617,,29.677202,0.1,134.71045,1591314017445
Fix,GT,37.5214435,-122.2647361,,29.756557,0.1,134.591,1591314018445
Fix,GT,37.5212449,-122.26451,,29.707844,0.1,134.65973,1591314019445
Fix,GT,37.5210464,-122.2642852,,29.610546,0.1,134.83789,1591314020445
Fix,GT,37.5208487,-122.2640615,,29.47358,0.1,134.74469,1591314021445
Fix,GT,37.520652,-122.2638388,,29.317928,0.1,134.8424,1591314022445
Fix,GT,37.5204559,-122.2636177,,29.200014,0.1,134.9253,1591314023445
Fix,GT,37.5202606,-122.2633971,,29.1459,0.1,134.83313,1591314024445
Fix,GT,37.5200648,-122.2631764,,29.290657,0.1,134.97748,1591314025445
Fix,GT,37.5198673,-122.2629544,,29.55592,0.1,135.01776,1591314026445
Fix,GT,37.5196682,-122.2627302,,29.795986,0.1,134.81128,1591314027445
Fix,GT,37.519468,-122.2625032,,30.077938,0.1,134.7392,1591314028445
Fix,GT,37.5192657,-122.2622741,,30.388817,0.1,134.7916,1591314029445
Fix,GT,37.5190613,-122.262043,,30.655735,0.1,134.73785,1591314030445
Fix,GT,37.5188559,-122.2618099,,30.774202,0.1,134.68439,1591314031445
Fix,GT,37.5186504,-122.2615767,,30.671703,0.1,134.73898,1591314032445
Fix,GT,37.518446,-122.261345,,30.46007,0.1,134.7013,1591314033445
Fix,GT,37.5182432,-122.2611144,,30.283623,0.1,134.66931,1591314034445
Fix,GT,37.5180411,-122.2608852,,30.15424,0.1,134.85187,1591314035445
Fix,GT,37.5178392,-122.2606578,,30.04308,0.1,134.97113,1591314036445
Fix,GT,37.5176382,-122.2604313,,29.910183,0.1,134.79773,1591314037445
Fix,GT,37.517439,-122.2602048,,29.784958,0.1,134.68527,1591314038445
Fix,GT,37.5172398,-122.259979,,29.770725,0.1,134.87921,1591314039445
Fix,GT,37.5170398,-122.259754,,29.861492,0.1,135.038,1591314040445
Fix,GT,37.5168389,-122.2595282,,29.975277,0.1,134.91016,1591314041445
Fix,GT,37.5166377,-122.2593009,,30.119463,0.1,134.77344,1591314042445
Fix,GT,37.5164358,-122.2590725,,30.186535,0.1,134.7915,1591314043445
Fix,GT,37.5162342,-122.2588439,,30.095825,0.1,134.71756,1591314044445
Fix,GT,37.5160338,-122.258616,,29.921497,0.1,134.60669,1591314045445
Fix,GT,37.5158348,-122.2583893,,29.724066,0.1,134.63754,1591314046445
Fix,GT,37.5156368,-122.2581645,,29.526768,0.1,134.78601,1591314047445
Fix,GT,37.5154396,-122.2579416,,29.387173,0.1,134.92703,1591314048445
Fix,GT,37.5152425,-122.2577202,,29.35931,0.1,135.08798,1591314049445
Fix,GT,37.5150451,-122.2574992,,29.315174,0.1,135.03986,1591314050445
Fix,GT,37.5148489,-122.2572784,,29.15377,0.1,134.81824,1591314051445
Fix,GT,37.5146544,-122.2570585,,28.946348,0.1,134.83502,1591314052445
Fix,GT,37.5144612,-122.2568405,,28.722054,0.1,134.95862,1591314053445
Fix,GT,37.5142691,-122.2566244,,28.545542,0.1,134.97437,1591314054445
Fix,GT,37.5140776,-122.2564092,,28.519428,0.1,134.95581,1591314055445
Fix,GT,37.5138859,-122.2561935,,28.649807,0.1,134.88428,1591314056445
