MessageType,Provider,LatitudeDegrees,LongitudeDegrees,AltitudeMeters,SpeedMps,AccuracyMeters,BearingDegrees,UnixTimeMillis
Fix,GT,37.4158369,-122.0806421,,0.001,0.1,91.82306,1597167548648
Fix,GT,37.4158369,-122.0806422,,0.0012737128,0.1,91.8233,1597167549660
Fix,GT,37.4158369,-122.0806422,,0.0014142136,0.1,91.82364,1597167550660
Fix,GT,37.4158369,-122.0806422,,0.0011469717,0.1,91.824066,1597167551645
Fix,GT,37.4158369,-122.0806422,,0.0012746486,0.1,91.82416,1597167552663
Fix,GT,37.4158369,-122.0806422,,0.001142303,0.1,91.82446,1597167553656
Fix,GT,37.4158369,-122.0806422,,0.0003592015,0.1,91.82468,1597167554640
Fix,GT,37.4158369,-122.0806422,,0.0006560663,0.1,91.82486,1597167555656
Fix,GT,37.4158369,-122.0806422,,0.001267062,0.1,91.82507,1597167556644
Fix,GT,37.4158369,-122.0806422,,0.0014142136,0.1,91.82544,1597167557656
Fix,GT,37.4158368,-122.0806422,,0.0014142136,0.1,91.82593,1597167558645
Fix,GT,37.4158368,-122.0806422,,0.0011483445,0.1,91.826294,1597167559641
Fix,GT,37.4158368,-122.0806422,,0.0012704814,0.1,91.82657,1597167560652
Fix,GT,37.4158368,-122.0806422,,0.0014142136,0.1,91.82678,1597167561645
Fix,GT,37.4158368,-122.0806422,,0.001141953,0.1,91.82703,1597167562657
Fix,GT,37.4158368,-122.0806422,,0.0018023935,0.1,91.82718,1597167563649
Fix,GT,37.4158371,-122.0806419,,0.002236068,0.1,91.827545,1597167564640
Fix,GT,37.4158374,-122.0806418,,0.00169495,0.1,91.82791,1597167565658
Fix,GT,37.4158373,-122.0806418,,0.0011447011,0.1,91.82825,1597167566650
Fix,GT,37.4158373,-122.0806417,,0.001816832,0.1,91.829254,1597167567660
Fix,GT,37.4158373,-122.0806417,,0.0017027883,0.1,91.82971,1597167568648
Fix,GT,37.4158373,-122.0806417,,0.0011483249,0.1,91.83014,1597167569641
Fix,GT,37.4158373,-122.0806417,,0.0027135496,0.1,91.82922,1597167570657
Fix,GT,37.4158373,-122.0806417,,0.0018511452,0.1,91.82892,1597167571673
Fix,GT,37.4158373,-122.0806417,,0.001,0.1,91.829315,1597167572660
Fix,GT,37.4158373,-122.0806417,,0.0016498982,0.1,91.8295,1597167573649
Fix,GT,37.4158373,-122.0806417,,0.0026419405,0.1,91.82977,1597167574641
Fix,GT,37.4158373,-122.0806417,,0.003,0.1,91.8302,1597167575659
Fix,GT,37.4158373,-122.0806417,,0.003,0.1,91.83038,1597167576652
Fix,GT,37.4158373,-122.0806417,,0.003,0.1,91.83069,1597167577665
Fix,GT,37.4158373,-122.0806417,,0.003,0.1,91.831055,1597167578645
Fix,GT,37.4158373,-122.0806417,,0.0031039738,0.1,91.83136,1597167579640
Fix,GT,37.4158373,-122.0806417,,0.0037883194,0.1,91.83157,1597167580651
Fix,GT,37.4158373,-122.0806417,,0.004932873,0.1,91.831726,1597167581641
Fix,GT,37.4158373,-122.0806417,,0.005197216,0.1,91.832,1597167582656
Fix,GT,37.4158372,-122.0806417,,0.0050990195,0.1,91.832214,1597167583645
Fix,GT,37.4158372,-122.0806416,,0.0802088,0.1,91.82959,1597167584640
Fix,GT,37.4158373,-122.0806369,,0.821063,0.1,91.18799,1597167585664
Fix,GT,37.4158382,-122.0806226,,1.7955344,0.1,88.580414,1597167586651
Fix,GT,37.4158413,-122.0805979,,2.6074,0.1,83.43399,1597167587663
Fix,GT,37.4158496,-122.0805667,,3.284449,0.1,73.79242,1597167588648
Fix,GT,37.4158678,-122.0805325,,3.9929824,0.1,57.975952,1597167589640
Fix,GT,37.4158973,-122.0805029,,4.2117496,0.1,38.523193,1597167590656
Fix,GT,37.4159319,-122.0804867,,4.0551705,0.1,20.674927,1597167591647
Fix,GT,37.4159659,-122.0804816,,3.2881453,0.1,7.840271,1597167592658
Fix,GT,37.4159903,-122.0804812,,2.3588748,0.1,2.368988,1597167593652
Fix,GT,37.4160099,-122.0804812,,2.2603145,0.1,0.72854614,1597167594640
Fix,GT,37.4160345,-122.0804811,,3.3062189,0.1,0.5323181,1597167595659
Fix,GT,37.416071,-122.0804807,,4.8824034,0.1,0.725708,1597167596652
Fix,GT,37.4161224,-122.08048,,6.395173,0.1,0.9096985,1597167597661
Fix,GT,37.416185,-122.0804792,,7.438588,0.1,0.75393677,1597167598649
Fix,GT,37.416254,-122.0804785,,7.799871,0.1,0.7147827,1597167599641
Fix,GT,37.4163235,-122.0804774,,7.229981,0.1,1.0598145,1597167600653
Fix,GT,37.4163838,-122.0804754,,6.1853065,0.1,2.0794373,1597167601644
Fix,GT,37.4164319,-122.0804721,,4.2191834,0.1,3.5289001,1597167602656
Fix,GT,37.4164596,-122.0804696,,1.9928944,0.1,4.215088,1597167603649
Fix,GT,37.416474,-122.0804676,,1.4888812,0.1,5.7160034,1597167604642
Fix,GT,37.4164901,-122.0804612,,2.2819092,0.1,13.124695,1597167605661
Fix,GT,37.4165115,-122.0804419,,3.5694394,0.1,30.961578,1597167606650
Fix,GT,37.4165316,-122.080399,,5.1501055,0.1,57.779633,1597167607663
Fix,GT,37.4165419,-122.0803349,,6.7416663,0.1,79.060486,1597167608650
Fix,GT,37.4165431,-122.0802508,,8.226094,0.1,90.199646,1597167609642
Fix,GT,37.4165386,-122.0801496,,9.447763,0.1,93.849915,1597167610659
Fix,GT,37.4165322,-122.08004,,10.216734,0.1,94.37619,1597167611644
Fix,GT,37.4165253,-122.07992,,10.709269,0.1,94.12396,1597167612661
Fix,GT,37.4165188,-122.079798,,11.251408,0.1,94.18497,1597167613650
Fix,GT,37.4165112,-122.0796686,,11.937372,0.1,94.5202,1597167614640
Fix,GT,37.4165025,-122.0795279,,12.50173,0.1,94.632996,1597167615661
Fix,GT,37.4164931,-122.0793875,,12.768288,0.1,95.05957,1597167616644
Fix,GT,37.4164821,-122.0792412,,12.636386,0.1,95.73224,1597167617665
Fix,GT,37.4164707,-122.0791031,,12.298031,0.1,96.08118,1597167618651
Fix,GT,37.4164598,-122.0789683,,11.935869,0.1,95.77313,1597167619641
Fix,GT,37.4164499,-122.0788346,,11.523493,0.1,95.4729,1597167620653
Fix,GT,37.4164406,-122.0787092,,10.873323,0.1,95.35797,1597167621645
Fix,GT,37.4164322,-122.0785896,,10.06122,0.1,95.0011,1597167622660
Fix,GT,37.4164251,-122.0784831,,8.82023,0.1,94.91174,1597167623653
Fix,GT,37.4164187,-122.0783952,,6.9381866,0.1,95.58429,1597167624642
Fix,GT,37.4164115,-122.078327,,4.918151,0.1,98.35846,1597167625662
Fix,GT,37.4164049,-122.0782839,,2.8482504,0.1,100.93497,1597167626653
Fix,GT,37.4164011,-122.0782618,,1.2082359,0.1,101.75537,1597167627668
Fix,GT,37.4163997,-122.0782544,,0.42184773,0.1,101.82031,1597167628650
Fix,GT,37.4163984,-122.0782487,,0.7705622,0.1,102.36673,1597167629641
Fix,GT,37.4163931,-122.078234,,2.0230794,0.1,108.12714,1597167630666
Fix,GT,37.416376,-122.0782122,,3.4717283,0.1,127.55707,1597167631649
Fix,GT,37.4163407,-122.078194,,4.9124823,0.1,155.1936,1597167632673
Fix,GT,37.4162913,-122.0781864,,6.3429933,0.1,172.81476,1597167633649
Fix,GT,37.4162284,-122.0781856,,7.454443,0.1,180.02368,1597167634661
Fix,GT,37.4161588,-122.0781873,,7.952578,0.1,181.4004,1597167635659
Fix,GT,37.4160877,-122.0781896,,7.87529,0.1,181.98209,1597167636653
Fix,GT,37.4160167,-122.0781929,,7.615962,0.1,182.13206,1597167637672
Fix,GT,37.4159507,-122.0781964,,7.3824472,0.1,182.56516,1597167638650
Fix,GT,37.4158861,-122.0782006,,7.077474,0.1,183.26118,1597167639642
Fix,GT,37.4158245,-122.0782047,,6.3236437,0.1,183.29065,1597167640657
Fix,GT,37.4157736,-122.078208,,4.967332,0.1,183.04776,1597167641643
Fix,GT,37.4157362,-122.0782103,,3.2208314,0.1,182.9028,1597167642656
Fix,GT,37.4157141,-122.0782115,,1.8132321,0.1,182.66774,1597167643649
Fix,GT,37.4157034,-122.0782121,,0.63528395,0.1,182.55003,1597167644642
Fix,GT,37.4157008,-122.0782124,,0.08221503,0.1,182.54903,1597167645665
Fix,GT,37.4157006,-122.0782126,,0.011387171,0.1,182.55214,1597167646654
Fix,GT,37.4157006,-122.0782126,,0.011236735,0.1,182.55266,1597167647667
Fix,GT,37.4157006,-122.0782127,,0.010793999,0.1,182.5518,1597167648646
Fix,GT,37.4157006,-122.0782128,,0.009777147,0.1,182.55203,1597167649641
Fix,GT,37.4157006,-122.0782129,,0.0098264925,0.1,182.55121,1597167650661
Fix,GT,37.4157006,-122.078213,,0.011406975,0.1,182.55014,1597167651649
Fix,GT,37.4157006,-122.0782131,,0.010052308,0.1,182.54977,1597167652667
Fix,GT,37.4157006,-122.0782132,,0.0103363665,0.1,182.55014,1597167653653
Fix,GT,37.4157006,-122.0782132,,0.011685985,0.1,182.55055,1597167654643
Fix,GT,37.4157006,-122.0782131,,0.012779081,0.1,182.55096,1597167655663
Fix,GT,37.4157006,-122.0782132,,0.013800774,0.1,182.55124,1597167656654
Fix,GT,37.4157006,-122.0782133,,0.015060861,0.1,182.5515,1597167657664
Fix,GT,37.4157007,-122.0782134,,0.01632958,0.1,182.55174,1597167658650
Fix,GT,37.4157007,-122.0782135,,0.017577296,0.1,182.55202,1597167659643
Fix,GT,37.4157007,-122.0782136,,0.018867603,0.1,182.55228,1597167660653
Fix,GT,37.4157001,-122.0782138,,0.31738028,0.1,182.54572,1597167661645
Fix,GT,37.4156912,-122.0782143,,1.8527241,0.1,182.33319,1597167662658
Fix,GT,37.4156653,-122.0782151,,4.077079,0.1,181.61804,1597167663649
Fix,GT,37.41562,-122.0782156,,6.1432233,0.1,180.48486,1597167664642
Fix,GT,37.4155527,-122.0782146,,8.549465,0.1,179.32457,1597167665661
Fix,GT,37.4154668,-122.0782126,,10.51811,0.1,179.0733,1597167666651
Fix,GT,37.4153632,-122.0782107,,12.196955,0.1,179.3888,1597167667664
Fix,GT,37.4152484,-122.0782096,,13.5582,0.1,179.94324,1597167668653
Fix,GT,37.4151219,-122.0782097,,14.755508,0.1,180.34506,1597167669642
Fix,GT,37.4149835,-122.0782103,,15.389063,0.1,180.41753,1597167670661
Fix,GT,37.4148416,-122.0782108,,15.809074,0.1,180.24336,1597167671670
Fix,GT,37.4146984,-122.0782114,,16.115782,0.1,180.48,1597167672664
Fix,GT,37.4145548,-122.078214,,16.261383,0.1,181.43864,1597167673648
Fix,GT,37.4144091,-122.0782213,,16.388588,0.1,183.17448,1597167674639
Fix,GT,37.4142581,-122.0782364,,16.353157,0.1,185.92174,1597167675665
Fix,GT,37.4141141,-122.0782581,,16.29904,0.1,187.76222,1597167676649
Fix,GT,37.4139676,-122.0782849,,16.067425,0.1,188.66812,1597167677664
Fix,GT,37.4138274,-122.0783113,,15.916288,0.1,188.64034,1597167678649
Fix,GT,37.4136859,-122.0783369,,15.993849,0.1,188.1867,1597167679643
Fix,GT,37.4135417,-122.0783626,,15.895231,0.1,188.31584,1597167680655
Fix,GT,37.413403,-122.0783901,,15.694084,0.1,189.82745,1597167681641
Fix,GT,37.4132646,-122.078429,,15.260225,0.1,195.60486,1597167682658
Fix,GT,37.4131399,-122.0784901,,14.892601,0.1,205.8996,1597167683652
Fix,GT,37.4130296,-122.0785817,,14.994692,0.1,219.18448,1597167684642
Fix,GT,37.4129384,-122.0787099,,15.304989,0.1,234.66359,1597167685658
Fix,GT,37.412877,-122.0788632,,15.513563,0.1,249.62224,1597167686653
Fix,GT,37.4128478,-122.079035,,15.772337,0.1,264.02582,1597167687658
Fix,GT,37.4128498,-122.0792143,,16.503063,0.1,275.2539,1597167688650
Fix,GT,37.4128784,-122.0794036,,17.324314,0.1,284.0818,1597167689660
Fix,GT,37.4129271,-122.0795942,,17.928534,0.1,290.23627,1597167690664
Fix,GT,37.4129897,-122.0797828,,18.659405,0.1,294.4733,1597167691653
Fix,GT,37.4130665,-122.0799792,,19.717499,0.1,297.27826,1597167692666
Fix,GT,37.4131514,-122.0801789,,20.847157,0.1,298.59744,1597167693651
Fix,GT,37.4132459,-122.0803914,,21.779552,0.1,299.81714,1597167694662
Fix,GT,37.4133467,-122.0806078,,22.539795,0.1,300.90146,1597167695662
Fix,GT,37.4134522,-122.0808254,,22.992964,0.1,301.77985,1597167696651
Fix,GT,37.4135647,-122.081049,,23.229443,0.1,303.18588,1597167697663
Fix,GT,37.4136816,-122.0812632,,23.391678,0.1,306.0097,1597167698649
Fix,GT,37.4138105,-122.0814709,,23.587801,0.1,309.66232,1597167699641
Fix,GT,37.4139529,-122.0816747,,23.512062,0.1,312.54892,1597167700658
Fix,GT,37.4140936,-122.081864,,23.0285,0.1,313.62317,1597167701641
Fix,GT,37.4142366,-122.0820545,,22.636137,0.1,312.818,1597167702656
Fix,GT,37.4143695,-122.0822447,,22.439526,0.1,309.61185,1597167703650
Fix,GT,37.4144933,-122.0824478,,22.39487,0.1,305.18448,1597167704661
Fix,GT,37.4146032,-122.0826602,,22.572533,0.1,300.9531,1597167705660
Fix,GT,37.4147032,-122.0828829,,22.964909,0.1,298.08707,1597167706654
Fix,GT,37.4148008,-122.0831178,,23.593657,0.1,297.07874,1597167707663
Fix,GT,37.414899,-122.0833555,,24.226854,0.1,297.7387,1597167708653
Fix,GT,37.4150035,-122.0835952,,24.81119,0.1,299.8374,1597167709640
Fix,GT,37.4151231,-122.0838421,,25.31171,0.1,302.98767,1597167710660
Fix,GT,37.4152446,-122.0840653,,25.802616,0.1,305.7039,1597167711596
Fix,GT,37.4154055,-122.0843311,,26.497938,0.1,308.61877,1597167712726
Fix,GT,37.415565,-122.0845739,,27.080547,0.1,310.19507,1597167713766
Fix,GT,37.4157051,-122.0847791,,27.34943,0.1,310.82962,1597167714644
Fix,GT,37.4158708,-122.085018,,27.717705,0.1,311.0751,1597167715662
Fix,GT,37.4160345,-122.0852554,,27.977503,0.1,310.84833,1597167716660
Fix,GT,37.4161962,-122.0854905,,28.250156,0.1,310.77588,1597167717637
Fix,GT,37.4163647,-122.0857375,,28.55765,0.1,310.40405,1597167718649
Fix,GT,37.4165294,-122.0859831,,28.791483,0.1,309.86273,1597167719640
Fix,GT,37.416695,-122.0862334,,28.956867,0.1,309.8315,1597167720637
Fix,GT,37.4168652,-122.0864858,,29.003067,0.1,310.74277,1597167721646
Fix,GT,37.4170354,-122.0867304,,29.040266,0.1,311.471,1597167722637
Fix,GT,37.4172087,-122.0869746,,29.085342,0.1,311.96793,1597167723632
Fix,GT,37.4173862,-122.0872207,,28.950964,0.1,312.40997,1597167724643
Fix,GT,37.417565,-122.0874658,,28.633736,0.1,312.5606,1597167725664
Fix,GT,37.4177356,-122.0876993,,28.280209,0.1,312.44388,1597167726649
Fix,GT,37.4179059,-122.0879345,,27.918465,0.1,312.1458,1597167727649
Fix,GT,37.4180703,-122.0881635,,27.587864,0.1,311.88684,1597167728632
Fix,GT,37.4182364,-122.0883985,,27.47195,0.1,311.27847,1597167729643
Fix,GT,37.4183972,-122.0886316,,27.731083,0.1,310.48303,1597167730633
Fix,GT,37.4185625,-122.0888763,,28.227345,0.1,310.20566,1597167731647
Fix,GT,37.4187268,-122.0891188,,28.69971,0.1,310.5902,1597167732637
Fix,GT,37.418896,-122.0893644,,29.140938,0.1,311.081,1597167733630
Fix,GT,37.4190723,-122.0896157,,29.532707,0.1,311.6324,1597167734640
Fix,GT,37.4192506,-122.0898649,,29.886627,0.1,312.07062,1597167735637
Fix,GT,37.4194353,-122.0901209,,30.351551,0.1,312.16614,1597167736652
Fix,GT,37.4196185,-122.0903744,,30.631536,0.1,312.27246,1597167737645
Fix,GT,37.4198017,-122.0906268,,30.72258,0.1,312.41537,1597167738629
Fix,GT,37.4199907,-122.0908865,,30.798698,0.1,312.35385,1597167739641
Fix,GT,37.4201761,-122.0911425,,30.995516,0.1,312.231,1597167740633
Fix,GT,37.420367,-122.0914062,,31.276709,0.1,312.23914,1597167741645
Fix,GT,37.4205559,-122.091667,,31.550415,0.1,312.29156,1597167742638
Fix,GT,37.4207467,-122.09193,,31.747526,0.1,312.4084,1597167743632
Fix,GT,37.4209419,-122.0921979,,31.828825,0.1,312.51672,1597167744642
Fix,GT,37.4211342,-122.092461,,31.85476,0.1,312.5699,1597167745634
Fix,GT,37.4213311,-122.0927302,,31.880596,0.1,312.44513,1597167746649
Fix,GT,37.4215247,-122.0929967,,32.00922,0.1,312.32028,1597167747648
Fix,GT,37.4217154,-122.0932604,,32.21682,0.1,312.2246,1597167748629
Fix,GT,37.4219133,-122.0935337,,32.45819,0.1,312.2867,1597167749640
Fix,GT,37.4221153,-122.0938126,,32.712456,0.1,312.27228,1597167750663
Fix,GT,37.4223115,-122.0940835,,32.952404,0.1,312.26196,1597167751650
Fix,GT,37.4225111,-122.0943589,,33.195107,0.1,312.407,1597167752646
Fix,GT,37.4227098,-122.0946324,,33.41773,0.1,312.39587,1597167753629
Fix,GT,37.422916,-122.0949165,,33.631496,0.1,312.31943,1597167754643
Fix,GT,37.4231244,-122.0952032,,33.84329,0.1,312.47925,1597167755661
Fix,GT,37.4233287,-122.0954826,,34.080456,0.1,312.61188,1597167756649
Fix,GT,37.4235356,-122.0957656,,34.32006,0.1,312.48157,1597167757643
Fix,GT,37.4237414,-122.096048,,34.540535,0.1,312.3747,1597167758626
Fix,GT,37.4239549,-122.0963409,,34.769398,0.1,312.56647,1597167759640
Fix,GT,37.4241668,-122.0966277,,34.937317,0.1,313.23926,1597167760632
Fix,GT,37.424387,-122.0969177,,35.100994,0.1,314.04285,1597167761644
Fix,GT,37.4246071,-122.0972,,35.282913,0.1,314.78314,1597167762637
Fix,GT,37.4248306,-122.097479,,35.467445,0.1,315.5219,1597167763627
Fix,GT,37.4250644,-122.0977632,,35.678047,0.1,316.34198,1597167764643
Fix,GT,37.4252992,-122.0980404,,35.87506,0.1,317.1676,1597167765643
Fix,GT,37.4255401,-122.0983167,,36.07106,0.1,318.06204,1597167766651
Fix,GT,37.4257819,-122.0985847,,36.26013,0.1,319.07175,1597167767641
Fix,GT,37.4260284,-122.0988484,,36.436543,0.1,320.09158,1597167768631
Fix,GT,37.4262843,-122.0991132,,36.472992,0.1,320.96454,1597167769640
Fix,GT,37.4265407,-122.0993722,,36.336105,0.1,321.2166,1597167770643
Fix,GT,37.4267963,-122.0996315,,36.093727,0.1,320.713,1597167771651
Fix,GT,37.4270441,-122.0998898,,35.722713,0.1,319.7839,1597167772647
Fix,GT,37.427284,-122.1001459,,35.433685,0.1,319.41614,1597167773630
Fix,GT,37.4275282,-122.1004083,,35.19645,0.1,319.44876,1597167774640
Fix,GT,37.4277684,-122.1006661,,34.927505,0.1,319.47177,1597167775641
Fix,GT,37.4280083,-122.1009232,,34.82705,0.1,319.61,1597167776646
Fix,GT,37.4282473,-122.1011777,,34.869034,0.1,319.7866,1597167777645
Fix,GT,37.4284836,-122.1014274,,34.973976,0.1,320.04376,1597167778627
Fix,GT,37.4287296,-122.1016854,,35.074852,0.1,320.1309,1597167779643
Fix,GT,37.4289746,-122.1019419,,35.089455,0.1,320.2101,1597167780652
Fix,GT,37.4292154,-122.1021935,,35.043488,0.1,320.14368,1597167781644
Fix,GT,37.4294602,-122.1024506,,35.003315,0.1,320.0226,1597167782657
Fix,GT,37.4296951,-122.1026981,,34.992912,0.1,320.0446,1597167783630
Fix,GT,37.4299399,-122.1029547,,35.008232,0.1,320.18335,1597167784641
Fix,GT,37.4301876,-122.1032134,,35.010403,0.1,320.2426,1597167785663
Fix,GT,37.430427,-122.1034634,,34.91425,0.1,320.122,1597167786652
Fix,GT,37.4306657,-122.1037142,,34.79421,0.1,319.99594,1597167787643
Fix,GT,37.4309011,-122.1039623,,34.69696,0.1,320.01144,1597167788626
Fix,GT,37.4311447,-122.1042189,,34.777485,0.1,320.00378,1597167789643
Fix,GT,37.4313906,-122.1044784,,34.962402,0.1,319.94928,1597167790666
Fix,GT,37.4316279,-122.1047288,,35.102245,0.1,320.0299,1597167791649
Fix,GT,37.4318694,-122.1049826,,35.258133,0.1,320.17783,1597167792643
Fix,GT,37.4321107,-122.1052347,,35.37415,0.1,320.2752,1597167793629
Fix,GT,37.4323587,-122.1054935,,35.39664,0.1,320.3107,1597167794641
Fix,GT,37.4326044,-122.1057497,,35.37639,0.1,320.29205,1597167795643
Fix,GT,37.4328501,-122.106006,,35.384834,0.1,320.36957,1597167796646
Fix,GT,37.4330939,-122.10626,,35.40895,0.1,320.25925,1597167797639
Fix,GT,37.4333356,-122.1065132,,35.43926,0.1,320.08246,1597167798626
Fix,GT,37.4335842,-122.1067752,,35.436356,0.1,320.00858,1597167799643
Fix,GT,37.4338268,-122.1070311,,35.413857,0.1,319.95544,1597167800636
Fix,GT,37.4340733,-122.1072915,,35.38921,0.1,319.98535,1597167801646
Fix,GT,37.4343151,-122.1075462,,35.35454,0.1,320.07578,1597167802637
Fix,GT,37.4345573,-122.1078006,,35.281998,0.1,320.20404,1597167803630
Fix,GT,37.4348043,-122.1080588,,35.159492,0.1,320.32242,1597167804643
Fix,GT,37.435047,-122.1083115,,34.81935,0.1,320.3651,1597167805643
Fix,GT,37.4352891,-122.1085636,,34.49926,0.1,320.2764,1597167806651
Fix,GT,37.4355253,-122.1088108,,34.392334,0.1,320.1358,1597167807643
Fix,GT,37.4357599,-122.1090571,,34.442513,0.1,320.12405,1597167808630
Fix,GT,37.4360009,-122.1093104,,34.561295,0.1,320.0863,1597167809641
Fix,GT,37.4362452,-122.1095678,,34.678883,0.1,320.05008,1597167810664
Fix,GT,37.4364803,-122.1098155,,34.66725,0.1,320.05148,1597167811647
Fix,GT,37.4367177,-122.1100654,,34.61151,0.1,320.10043,1597167812639
Fix,GT,37.4369542,-122.110314,,34.575687,0.1,320.12552,1597167813630
Fix,GT,37.4371951,-122.1105672,,34.576565,0.1,320.0818,1597167814639
Fix,GT,37.4374345,-122.1108189,,34.554333,0.1,320.1281,1597167815642
Fix,GT,37.4376754,-122.1110717,,34.302498,0.1,320.14716,1597167816654
Fix,GT,37.4379086,-122.1113163,,33.89293,0.1,320.17587,1597167817643
Fix,GT,37.4381375,-122.1115558,,33.503,0.1,320.25858,1597167818626
Fix,GT,37.4383721,-122.1118008,,33.210815,0.1,320.2766,1597167819642
Fix,GT,37.4386002,-122.1120393,,32.927643,0.1,320.19055,1597167820638
Fix,GT,37.4388276,-122.1122773,,32.548576,0.1,320.22806,1597167821642
Fix,GT,37.4390503,-122.1125103,,32.05773,0.1,320.21625,1597167822638
Fix,GT,37.439268,-122.1127383,,31.386444,0.1,320.15204,1597167823629
Fix,GT,37.439485,-122.1129659,,30.624153,0.1,320.14597,1597167824642
Fix,GT,37.4396956,-122.1131865,,29.981022,0.1,320.19757,1597167825648
Fix,GT,37.4399022,-122.1134038,,29.53416,0.1,319.92383,1597167826655
Fix,GT,37.4401024,-122.1136169,,29.444315,0.1,319.51852,1597167827644
Fix,GT,37.4403002,-122.1138304,,29.56511,0.1,319.05145,1597167828626
Fix,GT,37.440505,-122.1140555,,29.858906,0.1,318.6086,1597167829643
Fix,GT,37.4407123,-122.1142851,,30.196976,0.1,318.68622,1597167830666
Fix,GT,37.4409149,-122.1145079,,30.69142,0.1,318.89154,1597167831649
Fix,GT,37.4411246,-122.1147367,,31.250975,0.1,319.27625,1597167832644
Fix,GT,37.4413384,-122.1149663,,31.622368,0.1,319.62955,1597167833636
Fix,GT,37.4415578,-122.1151993,,31.759699,0.1,319.94534,1597167834643
Fix,GT,37.4417771,-122.1154302,,31.796093,0.1,320.10272,1597167835643
Fix,GT,37.441999,-122.1156634,,31.835697,0.1,320.0695,1597167836652
Fix,GT,37.4422169,-122.1158934,,31.909517,0.1,320.0141,1597167837644
Fix,GT,37.4424349,-122.1161234,,32.115803,0.1,320.01035,1597167838632
Fix,GT,37.4426597,-122.1163598,,32.260635,0.1,320.12952,1597167839643
Fix,GT,37.4428805,-122.1165916,,32.349194,0.1,320.16495,1597167840632
Fix,GT,37.4431075,-122.1168298,,32.511375,0.1,320.17194,1597167841645
Fix,GT,37.4433311,-122.1170638,,32.544273,0.1,320.32684,1597167842639
Fix,GT,37.443556,-122.1172975,,32.457146,0.1,320.4391,1597167843636
Fix,GT,37.4437825,-122.1175328,,32.420135,0.1,320.37698,1597167844642
Fix,GT,37.4440066,-122.1177666,,32.439796,0.1,320.21893,1597167845640
Fix,GT,37.4442341,-122.1180052,,32.444504,0.1,320.1443,1597167846654
Fix,GT,37.4444549,-122.1182372,,32.39169,0.1,320.1243,1597167847640
Fix,GT,37.4446774,-122.118471,,32.333347,0.1,320.09845,1597167848636
Fix,GT,37.4449021,-122.118707,,32.30795,0.1,320.11044,1597167849643
Fix,GT,37.4451241,-122.1189403,,32.311966,0.1,320.07623,1597167850638
Fix,GT,37.4453487,-122.1191773,,32.336052,0.1,319.91623,1597167851646
Fix,GT,37.4455708,-122.1194123,,32.37211,0.1,319.8957,1597167852642
Fix,GT,37.4457957,-122.1196497,,32.421562,0.1,320.0714,1597167853649
Fix,GT,37.4460224,-122.1198876,,32.4811,0.1,320.2337,1597167854660
Fix,GT,37.446245,-122.1201202,,32.309357,0.1,320.33698,1597167855652
Fix,GT,37.4464666,-122.1203512,,31.921608,0.1,320.38593,1597167856648
Fix,GT,37.4466841,-122.1205783,,31.559631,0.1,320.2309,1597167857638
Fix,GT,37.4468999,-122.1208047,,31.3894,0.1,320.16226,1597167858631
Fix,GT,37.4471191,-122.1210348,,31.259056,0.1,320.15866,1597167859643
Fix,GT,37.4473367,-122.1212628,,31.06017,0.1,320.18918,1597167860653
Fix,GT,37.4475484,-122.1214845,,30.822803,0.1,320.22244,1597167861642
Fix,GT,37.4477639,-122.1217105,,30.515879,0.1,320.1055,1597167862658
Fix,GT,37.4479719,-122.1219291,,30.211689,0.1,320.14706,1597167863650
Fix,GT,37.4481823,-122.1221498,,29.932291,0.1,320.23245,1597167864663
Fix,GT,37.4483889,-122.1223658,,29.735537,0.1,320.23795,1597167865663
Fix,GT,37.4485927,-122.1225799,,29.66564,0.1,320.03125,1597167866657
Fix,GT,37.4487986,-122.1227974,,29.667862,0.1,319.9789,1597167867664
Fix,GT,37.4490015,-122.1230109,,29.708918,0.1,320.07297,1597167868654
Fix,GT,37.4492045,-122.1232251,,29.943958,0.1,319.93777,1597167869642
Fix,GT,37.4494161,-122.1234494,,30.361208,0.1,319.86584,1597167870662
Fix,GT,37.4496235,-122.1236689,,30.78587,0.1,319.9959,1597167871648
Fix,GT,37.449842,-122.1238989,,31.039093,0.1,320.09836,1597167872671
Fix,GT,37.4500535,-122.1241217,,31.15152,0.1,320.0075,1597167873657
Fix,GT,37.4502649,-122.124345,,31.167084,0.1,319.95642,1597167874641
Fix,GT,37.4504837,-122.1245766,,30.99069,0.1,319.73236,1597167875662
Fix,GT,37.4506928,-122.124802,,30.697815,0.1,318.7398,1597167876654
Fix,GT,37.4509,-122.1250347,,30.431118,0.1,317.56122,1597167877664
Fix,GT,37.451097,-122.1252647,,30.172731,0.1,316.65674,1597167878650
Fix,GT,37.4512915,-122.1254983,,30.0023,0.1,315.76755,1597167879644
Fix,GT,37.4514863,-122.1257402,,29.924131,0.1,314.70575,1597167880659
Fix,GT,37.4516704,-122.1259804,,29.905937,0.1,313.02692,1597167881645
Fix,GT,37.4518538,-122.1262336,,29.941532,0.1,311.47055,1597167882657
Fix,GT,37.4520299,-122.1264884,,29.989504,0.1,310.4602,1597167883652
Fix,GT,37.4522058,-122.1267521,,29.799614,0.1,309.46045,1597167884669
Fix,GT,37.4523725,-122.1270108,,29.502747,0.1,308.46783,1597167885662
Fix,GT,37.4525335,-122.1272698,,29.240417,0.1,307.43488,1597167886651
Fix,GT,37.4526939,-122.1275359,,28.891544,0.1,306.79202,1597167887666
Fix,GT,37.4528464,-122.1277938,,28.511147,0.1,306.40018,1597167888655
Fix,GT,37.452999,-122.1280554,,28.11438,0.1,306.08224,1597167889668
Fix,GT,37.4531372,-122.1282936,,27.619907,0.1,306.09906,1597167890604
Fix,GT,37.4533068,-122.1285845,,27.150478,0.1,306.35748,1597167891768
Fix,GT,37.4534353,-122.1288035,,26.86186,0.1,306.4777,1597167892660
Fix,GT,37.4535795,-122.1290471,,26.661423,0.1,306.76135,1597167893664
Fix,GT,37.4537226,-122.1292884,,26.638123,0.1,306.672,1597167894663
Fix,GT,37.4538648,-122.1295293,,26.840626,0.1,306.49222,1597167895655
Fix,GT,37.4540113,-122.1297789,,27.127989,0.1,306.31998,1597167896672
Fix,GT,37.454155,-122.1300249,,27.542414,0.1,306.31085,1597167897660
Fix,GT,37.4543016,-122.1302761,,28.166801,0.1,306.18637,1597167898650
Fix,GT,37.4544513,-122.1305338,,28.588524,0.1,306.09583,1597167899643
Fix,GT,37.4546055,-122.1308001,,28.945736,0.1,306.00375,1597167900656
Fix,GT,37.4547578,-122.1310641,,29.35527,0.1,305.8956,1597167901645
Fix,GT,37.4549171,-122.1313407,,29.601929,0.1,305.9805,1597167902668
Fix,GT,37.4550719,-122.1316075,,29.843678,0.1,306.2683,1597167903651
Fix,GT,37.4552307,-122.1318774,,30.266731,0.1,306.72614,1597167904639
Fix,GT,37.4553977,-122.1321574,,30.79186,0.1,306.9405,1597167905653
Fix,GT,37.4555655,-122.1324384,,31.3587,0.1,306.8178,1597167906653
Fix,GT,37.4557376,-122.1327279,,31.672125,0.1,306.76913,1597167907666
Fix,GT,37.4559066,-122.1330119,,31.800476,0.1,306.8275,1597167908654
Fix,GT,37.456076,-122.1332959,,31.910736,0.1,306.946,1597167909639
Fix,GT,37.4562532,-122.1335939,,32.042866,0.1,306.5997,1597167910668
Fix,GT,37.4564158,-122.1338705,,32.144173,0.1,306.38846,1597167911615
Fix,GT,37.4566066,-122.134195,,32.08925,0.1,306.64078,1597167912725
Fix,GT,37.4567855,-122.134497,,31.933826,0.1,306.72968,1597167913765
Fix,GT,37.4569355,-122.1347491,,31.762112,0.1,306.78125,1597167914639
Fix,GT,37.4571084,-122.1350409,,31.67526,0.1,306.6063,1597167915654
Fix,GT,37.4572778,-122.1353286,,31.673447,0.1,306.49268,1597167916653
Fix,GT,37.4574473,-122.1356184,,31.696201,0.1,306.21936,1597167917657
Fix,GT,37.4576142,-122.1359064,,31.726105,0.1,306.03424,1597167918650
Fix,GT,37.4577813,-122.1361943,,31.685085,0.1,306.28314,1597167919643
Fix,GT,37.457948,-122.1364791,,31.43224,0.1,306.43683,1597167920634
Fix,GT,37.4581171,-122.136767,,31.097988,0.1,306.47638,1597167921646
Fix,GT,37.4582815,-122.1370468,,30.807209,0.1,306.52042,1597167922639
Fix,GT,37.4584434,-122.1373219,,30.615429,0.1,306.4884,1597167923625
Fix,GT,37.4586099,-122.1376055,,30.516304,0.1,306.43,1597167924644
Fix,GT,37.4587717,-122.1378812,,30.497383,0.1,306.4871,1597167925638
Fix,GT,37.4589374,-122.1381624,,30.556221,0.1,306.60486,1597167926651
Fix,GT,37.4591007,-122.138439,,30.64569,0.1,306.56265,1597167927647
Fix,GT,37.4592623,-122.1387135,,30.760082,0.1,306.52972,1597167928630
Fix,GT,37.4594289,-122.1389962,,30.91811,0.1,306.58615,1597167929639
Fix,GT,37.4595942,-122.1392763,,31.103102,0.1,306.60693,1597167930633
Fix,GT,37.4597644,-122.1395641,,31.153294,0.1,306.6561,1597167931651
Fix,GT,37.4599302,-122.1398438,,31.133919,0.1,306.64514,1597167932641
Fix,GT,37.4600996,-122.140131,,31.21008,0.1,306.496,1597167933656
Fix,GT,37.4602635,-122.1404104,,31.228878,0.1,306.3831,1597167934639
Fix,GT,37.4604298,-122.1406947,,31.197716,0.1,306.30865,1597167935639
Fix,GT,37.4605977,-122.1409833,,31.172377,0.1,306.13077,1597167936653
Fix,GT,37.4607606,-122.1412638,,31.057611,0.1,306.0972,1597167937639
Fix,GT,37.4609269,-122.1415499,,30.92836,0.1,306.25955,1597167938650
Fix,GT,37.4610901,-122.1418292,,30.814213,0.1,306.35147,1597167939642
Fix,GT,37.4612523,-122.1421067,,30.694672,0.1,306.31552,1597167940632
Fix,GT,37.461417,-122.1423887,,30.583614,0.1,306.28278,1597167941642
Fix,GT,37.4615795,-122.142667,,30.62642,0.1,306.29852,1597167942639
Fix,GT,37.4617455,-122.1429501,,30.7678,0.1,306.44193,1597167943652
Fix,GT,37.4619086,-122.1432274,,30.853653,0.1,306.46332,1597167944642
Fix,GT,37.4620768,-122.1435145,,30.900082,0.1,306.24457,1597167945663
Fix,GT,37.4622396,-122.1437954,,30.923223,0.1,305.84674,1597167946656
Fix,GT,37.4624001,-122.1440755,,30.974026,0.1,305.7476,1597167947643
Fix,GT,37.4625656,-122.1443635,,31.143349,0.1,306.07568,1597167948654
Fix,GT,37.4627296,-122.1446453,,31.299404,0.1,306.32968,1597167949643
Fix,GT,37.462898,-122.1449332,,31.487215,0.1,306.32797,1597167950649
Fix,GT,37.4630667,-122.1452213,,31.702663,0.1,306.40555,1597167951650
Fix,GT,37.4632343,-122.1455074,,31.929554,0.1,306.37384,1597167952637
Fix,GT,37.4634075,-122.1458036,,32.142067,0.1,306.27948,1597167953652
Fix,GT,37.4635779,-122.1460948,,32.382088,0.1,306.41705,1597167954642
Fix,GT,37.4637554,-122.1463955,,32.73861,0.1,306.73196,1597167955660
Fix,GT,37.463931,-122.1466908,,33.07194,0.1,306.75766,1597167956650
Fix,GT,37.4641081,-122.1469892,,33.421074,0.1,306.65005,1597167957640
Fix,GT,37.4642898,-122.1472971,,33.67137,0.1,306.59143,1597167958650
Fix,GT,37.464469,-122.1476006,,33.826656,0.1,306.59662,1597167959640
Fix,GT,37.464649,-122.1479061,,33.861156,0.1,306.4826,1597167960632
Fix,GT,37.4648322,-122.148218,,33.782536,0.1,306.42456,1597167961645
Fix,GT,37.4650111,-122.1485233,,33.655754,0.1,306.3689,1597167962639
Fix,GT,37.4651891,-122.1488272,,33.390755,0.1,306.39728,1597167963634
Fix,GT,37.4653685,-122.1491329,,33.205013,0.1,306.41208,1597167964643
Fix,GT,37.4655461,-122.1494362,,33.275913,0.1,306.32367,1597167965646
Fix,GT,37.4657248,-122.1497422,,33.468956,0.1,306.28156,1597167966651
Fix,GT,37.4659007,-122.1500436,,33.656086,0.1,306.29117,1597167967636
Fix,GT,37.4660794,-122.1503492,,33.81234,0.1,306.34055,1597167968630
Fix,GT,37.4662624,-122.1506615,,33.87888,0.1,306.44815,1597167969642
Fix,GT,37.4664434,-122.150969,,33.88371,0.1,306.51425,1597167970640
Fix,GT,37.4666266,-122.1512805,,33.832134,0.1,306.55527,1597167971652
Fix,GT,37.4668056,-122.151584,,33.823124,0.1,306.62988,1597167972640
Fix,GT,37.4669892,-122.1518944,,33.86843,0.1,306.7355,1597167973650
Fix,GT,37.4671695,-122.152198,,33.909805,0.1,306.72772,1597167974638
Fix,GT,37.4673569,-122.1525138,,33.964508,0.1,306.67163,1597167975664
Fix,GT,37.4675371,-122.1528187,,34.112167,0.1,306.59613,1597167976651
Fix,GT,37.4677237,-122.1531352,,34.29383,0.1,306.5992,1597167977670
Fix,GT,37.467905,-122.1534418,,34.47311,0.1,306.69925,1597167978652
Fix,GT,37.4680891,-122.1537523,,34.64361,0.1,306.74405,1597167979642
Fix,GT,37.4682777,-122.1540712,,34.824,0.1,306.52634,1597167980654
Fix,GT,37.468467,-122.1543939,,34.92218,0.1,306.36035,1597167981669
Fix,GT,37.4686523,-122.1547107,,34.896324,0.1,306.40125,1597167982665
Fix,GT,37.4688377,-122.1550265,,34.894733,0.1,306.49765,1597167983660
Fix,GT,37.4690448,-122.1553791,,34.982822,0.1,306.36853,1597167984769
Fix,GT,37.4693534,-122.1559092,,34.681213,0.1,306.19394,1597167986434
Fix,GT,37.4695368,-122.1562246,,34.42616,0.1,306.18634,1597167987434
Fix,GT,37.4697193,-122.1565386,,34.347874,0.1,306.16708,1597167988434
Fix,GT,37.4699016,-122.1568523,,34.331326,0.1,306.21844,1597167989434
Fix,GT,37.4700839,-122.1571657,,34.31888,0.1,306.25494,1597167990434
Fix,GT,37.4702667,-122.1574787,,34.314537,0.1,306.4655,1597167991434
Fix,GT,37.4704504,-122.1577906,,34.32434,0.1,306.6252,1597167992434
Fix,GT,37.4706349,-122.1581022,,34.33201,0.1,306.66492,1597167993434
Fix,GT,37.4708193,-122.1584138,,34.33363,0.1,306.64227,1597167994434
Fix,GT,37.4710032,-122.1587258,,34.291058,0.1,306.47495,1597167995434
Fix,GT,37.4711858,-122.1590373,,34.08821,0.1,306.35678,1597167996434
Fix,GT,37.4713666,-122.1593467,,33.85503,0.1,306.31586,1597167997434
Fix,GT,37.4715467,-122.1596553,,33.815655,0.1,306.2435,1597167998434
Fix,GT,37.4717265,-122.1599642,,33.872856,0.1,306.21094,1597167999434
Fix,GT,37.4719447,-122.1603393,,33.998978,0.1,306.27277,1597168000644
Fix,GT,37.4721289,-122.1606542,,34.114925,0.1,306.43173,1597168001658
Fix,GT,37.4723111,-122.1609647,,34.20674,0.1,306.48422,1597168002657
Fix,GT,37.4724957,-122.1612797,,34.335922,0.1,306.3988,1597168003666
Fix,GT,37.4726775,-122.1615901,,34.485374,0.1,306.4577,1597168004656
Fix,GT,37.4728653,-122.1619095,,34.635857,0.1,306.5397,1597168005672
Fix,GT,37.4730492,-122.162222,,34.6668,0.1,306.55634,1597168006663
Fix,GT,37.4732313,-122.1625315,,34.443993,0.1,306.4843,1597168007648
Fix,GT,37.4734174,-122.1628493,,34.105877,0.1,306.39566,1597168008665
Fix,GT,37.4735964,-122.1631553,,33.845455,0.1,306.3487,1597168009654
Fix,GT,37.4737755,-122.1634614,,33.650528,0.1,306.3453,1597168010649
Fix,GT,37.4739558,-122.1637699,,33.47382,0.1,306.3796,1597168011657
Fix,GT,37.4741325,-122.1640721,,33.305393,0.1,306.35013,1597168012650
Fix,GT,37.474312,-122.164379,,33.02063,0.1,306.37567,1597168013665
Fix,GT,37.4744852,-122.1646751,,32.71831,0.1,306.3553,1597168014654
Fix,GT,37.4746574,-122.1649705,,32.524857,0.1,306.24402,1597168015647
Fix,GT,37.474833,-122.1652724,,32.453014,0.1,306.2019,1597168016664
Fix,GT,37.4750025,-122.1655642,,32.360584,0.1,306.17386,1597168017650
Fix,GT,37.475177,-122.1658635,,32.294643,0.1,306.4345,1597168018664
Fix,GT,37.4753478,-122.1661542,,32.32049,0.1,306.54855,1597168019654
Fix,GT,37.4755197,-122.1664464,,32.452156,0.1,306.5795,1597168020645
Fix,GT,37.4756957,-122.1667446,,32.483818,0.1,306.60193,1597168021656
Fix,GT,37.4758683,-122.167038,,32.37741,0.1,306.41974,1597168022650
Fix,GT,37.4760395,-122.1673301,,32.24658,0.1,306.57733,1597168023643
Fix,GT,37.4762144,-122.1676253,,32.121124,0.1,306.95258,1597168024653
Fix,GT,37.4763882,-122.167915,,32.0862,0.1,307.16064,1597168025653
Fix,GT,37.4765635,-122.1682057,,32.06241,0.1,307.3613,1597168026658
Fix,GT,37.4767382,-122.1684931,,31.95435,0.1,307.519,1597168027657
Fix,GT,37.4769098,-122.168776,,31.73058,0.1,307.18872,1597168028644
Fix,GT,37.4770819,-122.1690642,,31.394793,0.1,306.52234,1597168029653
Fix,GT,37.477248,-122.1693488,,31.136627,0.1,306.05273,1597168030651
Fix,GT,37.4774136,-122.1696372,,31.087883,0.1,305.69852,1597168031662
Fix,GT,37.4775763,-122.1699226,,31.104391,0.1,305.75806,1597168032660
Fix,GT,37.4777424,-122.170209,,31.204409,0.1,306.4993,1597168033666
Fix,GT,37.4779095,-122.1704925,,31.76739,0.1,306.52454,1597168034657
Fix,GT,37.4780818,-122.1707866,,33.025024,0.1,306.3332,1597168035654
Fix,GT,37.4782634,-122.1710954,,33.726994,0.1,306.5916,1597168036671
Fix,GT,37.4784423,-122.1713975,,33.858418,0.1,306.71024,1597168037655
Fix,GT,37.4786246,-122.1717082,,33.94209,0.1,306.22235,1597168038661
Fix,GT,37.4788037,-122.1720166,,34.03569,0.1,306.083,1597168039654
Fix,GT,37.4789882,-122.1723342,,34.166737,0.1,306.3787,1597168040674
Fix,GT,37.4791681,-122.1726412,,34.272213,0.1,306.4422,1597168041659
Fix,GT,37.4793499,-122.1729524,,34.409107,0.1,306.11768,1597168042652
Fix,GT,37.479531,-122.1732647,,34.4857,0.1,306.1164,1597168043644
Fix,GT,37.4797178,-122.1735865,,34.584915,0.1,306.12207,1597168044664
Fix,GT,37.4798994,-122.1738997,,34.844402,0.1,306.0744,1597168045651
Fix,GT,37.4800862,-122.1742208,,34.817047,0.1,306.37308,1597168046660
Fix,GT,37.4802706,-122.1745363,,34.80973,0.1,306.27225,1597168047654
Fix,GT,37.4804581,-122.1748585,,35.014126,0.1,306.1374,1597168048665
Fix,GT,37.4806448,-122.1751782,,35.193016,0.1,306.4186,1597168049663
Fix,GT,37.480835,-122.1755018,,35.324196,0.1,306.43323,1597168050672
Fix,GT,37.4810221,-122.1758218,,35.33608,0.1,306.19073,1597168051665
Fix,GT,37.4812077,-122.1761412,,35.131058,0.1,306.10736,1597168052656
Fix,GT,37.4813943,-122.1764639,,34.820175,0.1,305.98373,1597168053664
Fix,GT,37.4815764,-122.1767808,,34.58367,0.1,305.7297,1597168054660
Fix,GT,37.4817563,-122.1770966,,34.388077,0.1,305.31763,1597168055655
Fix,GT,37.4819357,-122.1774168,,34.143642,0.1,304.8543,1597168056665
Fix,GT,37.4821073,-122.1777305,,33.89978,0.1,304.03482,1597168057655
Fix,GT,37.4822673,-122.1780336,,33.777245,0.1,302.8656,1597168058605
Fix,GT,37.4824573,-122.1784104,,33.70689,0.1,301.58942,1597168059774
Fix,GT,37.4825935,-122.1786947,,33.67085,0.1,300.47812,1597168060644
Fix,GT,37.4827463,-122.1790289,,33.582695,0.1,299.1931,1597168061658
Fix,GT,37.4828911,-122.179362,,33.49669,0.1,298.09085,1597168062658
Fix,GT,37.4830317,-122.1796984,,33.442978,0.1,297.3098,1597168063662
Fix,GT,37.483167,-122.1800327,,33.436546,0.1,296.55765,1597168064654
Fix,GT,37.4832999,-122.1803717,,33.43371,0.1,295.8467,1597168065653
Fix,GT,37.483443,-122.1807489,,33.330956,0.1,295.07037,1597168066759
Fix,GT,37.4835305,-122.180988,,33.12819,0.1,294.3436,1597168067460
Fix,GT,37.483674,-122.1813974,,32.712368,0.1,293.22556,1597168068662
Fix,GT,37.4837873,-122.181734,,32.476143,0.1,292.5413,1597168069653
Fix,GT,37.483898,-122.1820726,,32.269463,0.1,292.14838,1597168070653
Fix,GT,37.4840072,-122.1824137,,32.199497,0.1,291.68973,1597168071662
Fix,GT,37.4841124,-122.1827524,,32.313377,0.1,290.94073,1597168072659
Fix,GT,37.4842155,-122.1830961,,32.413837,0.1,290.3216,1597168073663
Fix,GT,37.4843145,-122.1834378,,32.465786,0.1,289.70526,1597168074654
Fix,GT,37.4844115,-122.1837831,,32.35623,0.1,289.14963,1597168075652
Fix,GT,37.484507,-122.1841333,,32.19062,0.1,288.6363,1597168076667
Fix,GT,37.4845967,-122.1844736,,32.18145,0.1,288.01602,1597168077652
Fix,GT,37.4846854,-122.1848233,,32.17303,0.1,287.3452,1597168078661
Fix,GT,37.4847698,-122.1851681,,32.120857,0.1,286.77832,1597168079653
Fix,GT,37.484851,-122.1855139,,32.12492,0.1,286.03235,1597168080646
Fix,GT,37.4849303,-122.1858675,,32.164207,0.1,285.39136,1597168081657
Fix,GT,37.4850052,-122.1862156,,32.071854,0.1,284.91992,1597168082649
Fix,GT,37.4850777,-122.1865628,,31.91398,0.1,284.52365,1597168083642
Fix,GT,37.485149,-122.1869163,,31.865158,0.1,283.86407,1597168084653
Fix,GT,37.485212,-122.1872443,,31.904251,0.1,283.14575,1597168085589
Fix,GT,37.4852879,-122.1876652,,32.0027,0.1,282.38483,1597168086784
Fix,GT,37.4853407,-122.1879755,,32.062088,0.1,281.82092,1597168087660
Fix,GT,37.485398,-122.1883317,,32.09794,0.1,281.03967,1597168088662
Fix,GT,37.4854513,-122.1886853,,32.112343,0.1,280.38748,1597168089654
Fix,GT,37.4855028,-122.1890489,,32.09452,0.1,279.8191,1597168090671
Fix,GT,37.4855506,-122.1894051,,32.032806,0.1,279.33536,1597168091667
Fix,GT,37.4855961,-122.189759,,31.964012,0.1,279.00208,1597168092658
Fix,GT,37.485641,-122.1901164,,31.887405,0.1,279.01913,1597168093660
Fix,GT,37.4856855,-122.1904698,,31.839811,0.1,279.03613,1597168094654
Fix,GT,37.4857309,-122.1908325,,31.893833,0.1,278.98074,1597168095673
Fix,GT,37.4857751,-122.1911868,,32.139126,0.1,278.975,1597168096665
Fix,GT,37.4858199,-122.1915453,,32.475834,0.1,279.0726,1597168097658
Fix,GT,37.4858658,-122.1919108,,32.66693,0.1,279.0865,1597168098662
Fix,GT,37.4859116,-122.1922741,,32.822968,0.1,279.03592,1597168099656
Fix,GT,37.4859586,-122.1926472,,32.90168,0.1,279.09494,1597168100673
Fix,GT,37.4860039,-122.1930094,,32.98995,0.1,278.85956,1597168101657
Fix,GT,37.4860486,-122.1933755,,33.151184,0.1,278.71988,1597168102648
Fix,GT,37.4860934,-122.1937447,,33.320053,0.1,278.78418,1597168103641
Fix,GT,37.4861392,-122.1941212,,33.21341,0.1,278.86847,1597168104654
Fix,GT,37.4861851,-122.1944918,,33.15353,0.1,278.9678,1597168105654
Fix,GT,37.4862321,-122.1948672,,33.25914,0.1,279.14044,1597168106666
Fix,GT,37.4862788,-122.1952351,,33.417007,0.1,279.10153,1597168107655
Fix,GT,37.4863261,-122.1956114,,33.475998,0.1,279.06516,1597168108662
Fix,GT,37.4863728,-122.1959815,,33.373196,0.1,279.10815,1597168109653
Fix,GT,37.4864195,-122.1963516,,33.11646,0.1,279.04614,1597168110650
Fix,GT,37.4864665,-122.1967263,,32.815346,0.1,278.99905,1597168111667
Fix,GT,37.4865113,-122.1970867,,32.513973,0.1,279.01407,1597168112655
Fix,GT,37.4865569,-122.1974517,,32.291164,0.1,278.9607,1597168113664
Fix,GT,37.4866007,-122.1978091,,32.20378,0.1,278.75137,1597168114656
Fix,GT,37.486644,-122.1981674,,32.16175,0.1,278.6754,1597168115652
Fix,GT,37.486688,-122.1985323,,32.074036,0.1,278.7104,1597168116668
Fix,GT,37.4867312,-122.1988876,,31.9581,0.1,278.80856,1597168117661
Fix,GT,37.4867754,-122.199245,,31.883547,0.1,279.03076,1597168118664
Fix,GT,37.4868195,-122.1995973,,31.958572,0.1,278.98676,1597168119653
Fix,GT,37.4868634,-122.1999534,,32.14136,0.1,278.79202,1597168120647
Fix,GT,37.4869079,-122.2003174,,32.327084,0.1,278.77936,1597168121658
Fix,GT,37.4869518,-122.2006767,,32.555958,0.1,278.9103,1597168122649
Fix,GT,37.486997,-122.201039,,32.71973,0.1,279.0195,1597168123642
Fix,GT,37.4870438,-122.2014092,,32.859383,0.1,279.19583,1597168124653
Fix,GT,37.487092,-122.2017846,,33.095264,0.1,279.31372,1597168125673
Fix,GT,37.4871394,-122.2021515,,33.28341,0.1,279.2523,1597168126663
Fix,GT,37.4871865,-122.2025221,,33.31537,0.1,279.13348,1597168127659
Fix,GT,37.4872333,-122.2028935,,33.07173,0.1,278.95917,1597168128660
Fix,GT,37.4872782,-122.203258,,32.693325,0.1,278.8257,1597168129653
Fix,GT,37.4873236,-122.203629,,32.34978,0.1,278.8254,1597168130673
Fix,GT,37.4873675,-122.2039871,,32.05067,0.1,278.8598,1597168131669
Fix,GT,37.487411,-122.2043401,,31.754883,0.1,278.9043,1597168132659
Fix,GT,37.4874548,-122.2046943,,31.49112,0.1,278.89398,1597168133662
Fix,GT,37.4874974,-122.205042,,31.278927,0.1,278.7728,1597168134653
Fix,GT,37.48754,-122.2053917,,31.02388,0.1,278.8133,1597168135657
Fix,GT,37.4875827,-122.2057394,,30.680367,0.1,278.92883,1597168136665
Fix,GT,37.4876222,-122.2060572,,30.448875,0.1,279.00555,1597168137596
Fix,GT,37.4876722,-122.2064584,,30.24015,0.1,278.9645,1597168138780
Fix,GT,37.4877094,-122.2067541,,30.121208,0.1,279.2008,1597168139657
Fix,GT,37.4877545,-122.2070954,,30.13945,0.1,279.94006,1597168140674
Fix,GT,37.4878021,-122.2074266,,30.385036,0.1,280.68912,1597168141657
Fix,GT,37.4878539,-122.2077636,,30.763805,0.1,281.3635,1597168142650
Fix,GT,37.4879092,-122.2081028,,31.036514,0.1,282.06537,1597168143641
Fix,GT,37.4879697,-122.2084511,,31.1609,0.1,282.6604,1597168144654
Fix,GT,37.4880316,-122.208797,,31.285923,0.1,282.96613,1597168145659
Fix,GT,37.4880959,-122.2091465,,31.40731,0.1,283.37686,1597168146671
Fix,GT,37.4881602,-122.2094806,,31.492775,0.1,283.9474,1597168147637
Fix,GT,37.4882317,-122.2098353,,31.502415,0.1,284.76428,1597168148664
Fix,GT,37.4883047,-122.2101746,,31.336197,0.1,285.79425,1597168149653
Fix,GT,37.4883819,-122.2105105,,31.142418,0.1,286.6175,1597168150644
Fix,GT,37.4884638,-122.2108533,,31.068874,0.1,286.7611,1597168151661
Fix,GT,37.4885433,-122.2111876,,31.10429,0.1,286.86536,1597168152654
Fix,GT,37.4886216,-122.2115064,,31.203163,0.1,287.64877,1597168153601
Fix,GT,37.4887249,-122.2119002,,31.332964,0.1,288.9886,1597168154774
Fix,GT,37.4888073,-122.2121962,,31.320408,0.1,289.7122,1597168155659
Fix,GT,37.4889041,-122.2125317,,31.147644,0.1,290.30313,1597168156669
Fix,GT,37.4890006,-122.2128545,,30.90846,0.1,291.12878,1597168157651
Fix,GT,37.4891016,-122.2131767,,30.615757,0.1,292.13007,1597168158646
Fix,GT,37.4892058,-122.2134989,,30.428375,0.1,292.26562,1597168159653
Fix,GT,37.4893096,-122.2138193,,30.443102,0.1,292.28174,1597168160659
Fix,GT,37.4894124,-122.2141322,,30.718508,0.1,292.72488,1597168161638
Fix,GT,37.4895202,-122.2144509,,30.996038,0.1,293.58826,1597168162630
Fix,GT,37.4896356,-122.2147772,,31.014645,0.1,294.58502,1597168163647
Fix,GT,37.4897512,-122.2150905,,30.94283,0.1,295.36942,1597168164633
Fix,GT,37.4898741,-122.2154126,,30.968092,0.1,296.0647,1597168165653
Fix,GT,37.4899973,-122.2157254,,31.233875,0.1,296.7374,1597168166646
Fix,GT,37.4901275,-122.2160473,,31.622803,0.1,297.38052,1597168167662
Fix,GT,37.490259,-122.2163636,,31.879232,0.1,297.96652,1597168168655
Fix,GT,37.4903922,-122.2166758,,31.928553,0.1,298.60312,1597168169635
Fix,GT,37.4905241,-122.2169783,,31.816357,0.1,298.9184,1597168170592
Fix,GT,37.4906866,-122.2173475,,31.69661,0.1,299.11206,1597168171767
Fix,GT,37.4908004,-122.2176049,,31.590548,0.1,299.20966,1597168172589
Fix,GT,37.4909628,-122.2179693,,31.430655,0.1,299.35504,1597168173761
Fix,GT,37.4910834,-122.21824,,31.520508,0.1,299.2828,1597168174633
Fix,GT,37.4912258,-122.2185612,,31.85841,0.1,299.10855,1597168175659
Fix,GT,37.4913629,-122.218872,,32.033737,0.1,299.10266,1597168176643
Fix,GT,37.4915015,-122.2191849,,31.952682,0.1,299.3216,1597168177631
Fix,GT,37.4916466,-122.2195093,,31.759758,0.1,299.45438,1597168178664
Fix,GT,37.491785,-122.2198187,,31.661812,0.1,299.3866,1597168179653
Fix,GT,37.4919241,-122.2201302,,31.597971,0.1,299.40106,1597168180651
Fix,GT,37.4920632,-122.2204429,,31.377415,0.1,299.18137,1597168181657
Fix,GT,37.4921983,-122.2207482,,31.146173,0.1,299.06104,1597168182645
Fix,GT,37.4923339,-122.2210568,,30.884865,0.1,298.93787,1597168183649
Fix,GT,37.492468,-122.2213624,,30.590273,0.1,299.08032,1597168184654
Fix,GT,37.4926015,-122.2216639,,30.413902,0.1,299.33105,1597168185654
Fix,GT,37.4927362,-122.2219667,,30.365505,0.1,299.35834,1597168186663
Fix,GT,37.4928687,-122.2222642,,30.285934,0.1,299.26205,1597168187657
Fix,GT,37.4930031,-122.2225668,,30.233559,0.1,299.23398,1597168188670
Fix,GT,37.493133,-122.2228623,,30.24387,0.1,298.83148,1597168189657
Fix,GT,37.4932634,-122.223164,,30.283426,0.1,298.2531,1597168190660
Fix,GT,37.4933921,-122.2234693,,30.33553,0.1,297.50278,1597168191668
Fix,GT,37.493516,-122.2237727,,30.454903,0.1,296.95584,1597168192660
Fix,GT,37.4936415,-122.2240855,,30.666466,0.1,296.5983,1597168193673
Fix,GT,37.4937614,-122.2243895,,30.511292,0.1,296.1269,1597168194653
Fix,GT,37.4938803,-122.2246997,,30.144688,0.1,295.40573,1597168195657
Fix,GT,37.4939954,-122.2250096,,29.89244,0.1,294.73383,1597168196664
Fix,GT,37.4941058,-122.2253153,,29.772572,0.1,294.18097,1597168197659
Fix,GT,37.4942146,-122.2256258,,29.654354,0.1,293.4424,1597168198669
Fix,GT,37.4943169,-122.2259292,,29.475391,0.1,292.63754,1597168199654
Fix,GT,37.4944167,-122.2262351,,29.237183,0.1,292.05612,1597168200650
Fix,GT,37.4945145,-122.2265432,,28.960089,0.1,291.53262,1597168201658
Fix,GT,37.4946073,-122.2268449,,28.62154,0.1,290.76837,1597168202651
Fix,GT,37.4946975,-122.2271468,,28.479103,0.1,290.4076,1597168203649
Fix,GT,37.4947864,-122.227451,,28.593771,0.1,289.9836,1597168204653
Fix,GT,37.4948736,-122.2277559,,28.811749,0.1,289.72635,1597168205651
Fix,GT,37.4949623,-122.2280697,,29.095627,0.1,289.6195,1597168206668
Fix,GT,37.4950505,-122.2283804,,29.370647,0.1,289.7673,1597168207666
Fix,GT,37.4951407,-122.2286974,,29.611416,0.1,289.77637,1597168208675
Fix,GT,37.4952286,-122.2290071,,29.811659,0.1,289.70282,1597168209653
Fix,GT,37.4953187,-122.2293254,,30.100857,0.1,289.62787,1597168210651
Fix,GT,37.4954109,-122.2296534,,30.41164,0.1,289.56158,1597168211667
Fix,GT,37.4955017,-122.2299767,,30.529339,0.1,289.55753,1597168212661
Fix,GT,37.4955938,-122.2303055,,30.49627,0.1,289.41525,1597168213671
Fix,GT,37.4956828,-122.2306263,,30.405514,0.1,289.2577,1597168214658
Fix,GT,37.4957733,-122.2309519,,30.222967,0.1,289.4182,1597168215663
Fix,GT,37.4958643,-122.2312756,,30.03057,0.1,289.73535,1597168216671
Fix,GT,37.4959539,-122.2315914,,29.964127,0.1,289.7668,1597168217659
Fix,GT,37.4960454,-122.2319145,,30.0322,0.1,289.629,1597168218671
Fix,GT,37.4961342,-122.23223,,30.149197,0.1,289.67444,1597168219654
Fix,GT,37.4962248,-122.232549,,30.312548,0.1,289.85052,1597168220645
Fix,GT,37.4963186,-122.2328768,,30.505459,0.1,289.9475,1597168221657
Fix,GT,37.4964115,-122.2332009,,30.673553,0.1,289.88498,1597168222652
Fix,GT,37.496505,-122.2335276,,30.722532,0.1,289.85782,1597168223652
Fix,GT,37.4965988,-122.2338563,,30.828941,0.1,289.78345,1597168224656
Fix,GT,37.4966916,-122.2341827,,30.885965,0.1,289.85477,1597168225649
Fix,GT,37.4967887,-122.2345154,,30.877735,0.1,290.67038,1597168226663
Fix,GT,37.4968874,-122.2348375,,30.97927,0.1,291.7206,1597168227650
Fix,GT,37.4969941,-122.2351668,,31.127405,0.1,292.83643,1597168228663
Fix,GT,37.4971038,-122.2354874,,31.18324,0.1,294.1292,1597168229653
Fix,GT,37.4972214,-122.2358069,,31.414566,0.1,295.97827,1597168230648
Fix,GT,37.4973506,-122.2361297,,31.820412,0.1,297.70215,1597168231658
Fix,GT,37.4974855,-122.2364456,,32.029285,0.1,299.03317,1597168232651
Fix,GT,37.4976291,-122.2367644,,32.019737,0.1,300.41812,1597168233662
Fix,GT,37.4977761,-122.2370725,,31.953228,0.1,301.95966,1597168234654
Fix,GT,37.4979292,-122.2373748,,31.976627,0.1,303.48608,1597168235646
Fix,GT,37.4980925,-122.2376798,,32.247677,0.1,304.89267,1597168236658
Fix,GT,37.4982615,-122.237977,,32.378597,0.1,306.78967,1597168237657
Fix,GT,37.4984422,-122.2382701,,32.488308,0.1,309.11856,1597168238668
Fix,GT,37.4986284,-122.2385494,,32.721535,0.1,311.16006,1597168239656
Fix,GT,37.4988236,-122.2388233,,32.858566,0.1,312.94736,1597168240647
Fix,GT,37.4990256,-122.2390909,,32.878555,0.1,314.40192,1597168241639
Fix,GT,37.4992333,-122.2393524,,32.846527,0.1,315.7827,1597168242632
Fix,GT,37.4994501,-122.2396135,,32.789364,0.1,316.9354,1597168243649
Fix,GT,37.4996673,-122.2398673,,32.776165,0.1,317.65686,1597168244653
Fix,GT,37.4998855,-122.2401168,,32.906307,0.1,318.07755,1597168245651
Fix,GT,37.5001081,-122.2403685,,33.002953,0.1,318.20047,1597168246660
Fix,GT,37.5003281,-122.2406163,,32.972656,0.1,318.2878,1597168247654
Fix,GT,37.5005531,-122.2408702,,32.932,0.1,318.01016,1597168248673
Fix,GT,37.5007692,-122.2411168,,32.975098,0.1,317.6925,1597168249657
Fix,GT,37.5009876,-122.2413677,,33.023247,0.1,317.7471,1597168250653
Fix,GT,37.5012099,-122.2416219,,33.06555,0.1,317.86685,1597168251663
Fix,GT,37.5014328,-122.2418753,,33.18328,0.1,318.0785,1597168252671
Fix,GT,37.5016566,-122.2421285,,33.3304,0.1,318.14246,1597168253676
Fix,GT,37.5018754,-122.2423761,,33.45824,0.1,318.11792,1597168254655
Fix,GT,37.5020976,-122.2426275,,33.588943,0.1,318.14957,1597168255646
Fix,GT,37.5023257,-122.2428854,,33.758945,0.1,318.1665,1597168256658
Fix,GT,37.5025517,-122.2431411,,33.94253,0.1,318.1354,1597168257655
Fix,GT,37.5027788,-122.2433982,,34.150856,0.1,318.0938,1597168258652
Fix,GT,37.5030087,-122.2436583,,34.373142,0.1,318.1734,1597168259654
Fix,GT,37.503237,-122.2439155,,34.345104,0.1,318.3026,1597168260646
Fix,GT,37.5034703,-122.2441781,,34.40217,0.1,318.2722,1597168261658
Fix,GT,37.5037,-122.2444368,,34.523438,0.1,318.27063,1597168262651
Fix,GT,37.5039299,-122.2446957,,34.473896,0.1,318.22375,1597168263645
Fix,GT,37.504162,-122.2449583,,34.305107,0.1,317.9438,1597168264653
Fix,GT,37.5043903,-122.2452189,,33.988167,0.1,317.8127,1597168265656
Fix,GT,37.504618,-122.2454792,,33.8631,0.1,317.83972,1597168266664
Fix,GT,37.5048428,-122.2457362,,33.983772,0.1,317.8736,1597168267659
Fix,GT,37.5050707,-122.2459955,,34.140076,0.1,318.11383,1597168268661
Fix,GT,37.5052982,-122.2462522,,34.13959,0.1,318.34164,1597168269656
Fix,GT,37.5055256,-122.2465072,,34.062057,0.1,318.3637,1597168270648
Fix,GT,37.5057569,-122.2467669,,33.99421,0.1,318.31897,1597168271660
Fix,GT,37.5059783,-122.2470158,,33.957928,0.1,318.31912,1597168272631
Fix,GT,37.5062098,-122.2472764,,33.903065,0.1,318.22986,1597168273648
Fix,GT,37.506433,-122.2475286,,33.83017,0.1,318.09464,1597168274632
Fix,GT,37.506662,-122.2477879,,33.777412,0.1,318.12436,1597168275645
Fix,GT,37.5068933,-122.2480491,,33.718372,0.1,318.18964,1597168276668
Fix,GT,37.5071174,-122.2483021,,33.655647,0.1,318.07568,1597168277661
Fix,GT,37.507338,-122.2485521,,33.59985,0.1,318.04242,1597168278642
Fix,GT,37.5075652,-122.2488097,,33.52195,0.1,318.16068,1597168279654
Fix,GT,37.5077872,-122.2490608,,33.373486,0.1,318.09375,1597168280645
Fix,GT,37.5080127,-122.2493164,,33.02501,0.1,318.0046,1597168281661
Fix,GT,37.5082296,-122.2495624,,32.58408,0.1,318.03915,1597168282650
Fix,GT,37.5084452,-122.2498066,,32.20809,0.1,318.1642,1597168283645
Fix,GT,37.5086617,-122.250051,,31.917404,0.1,318.0424,1597168284653
Fix,GT,37.5088732,-122.2502917,,31.765364,0.1,317.85114,1597168285648
Fix,GT,37.5090882,-122.250537,,31.777771,0.1,317.98856,1597168286664
Fix,GT,37.5092989,-122.2507755,,31.875805,0.1,318.23898,1597168287653
Fix,GT,37.5095153,-122.2510194,,31.978214,0.1,318.1701,1597168288664
Fix,GT,37.5097275,-122.2512595,,32.066593,0.1,318.0531,1597168289654
Fix,GT,37.509947,-122.2515084,,32.16293,0.1,318.13535,1597168290677
Fix,GT,37.5101607,-122.25175,,32.26492,0.1,318.1972,1597168291668
Fix,GT,37.5103748,-122.2519918,,32.3951,0.1,318.09546,1597168292656
Fix,GT,37.5105938,-122.2522404,,32.473698,0.1,318.02026,1597168293666
Fix,GT,37.510808,-122.2524841,,32.539665,0.1,317.96777,1597168294654
Fix,GT,37.5110258,-122.252732,,32.659515,0.1,317.92545,1597168295655
Fix,GT,37.5112471,-122.252984,,32.801643,0.1,317.95673,1597168296668
Fix,GT,37.5114639,-122.253231,,32.88546,0.1,317.9204,1597168297657
Fix,GT,37.5116859,-122.2534843,,32.84237,0.1,317.84335,1597168298670
Fix,GT,37.5119008,-122.2537302,,32.77017,0.1,317.85446,1597168299654
Fix,GT,37.5121181,-122.2539782,,32.746136,0.1,317.88693,1597168300649
Fix,GT,37.512338,-122.2542296,,32.739704,0.1,317.7753,1597168301657
Fix,GT,37.5125543,-122.2544778,,32.74073,0.1,317.5847,1597168302650
Fix,GT,37.5127702,-122.2547268,,32.772476,0.1,317.57596,1597168303644
Fix,GT,37.5129903,-122.2549798,,32.892525,0.1,317.8713,1597168304653
Fix,GT,37.5132106,-122.2552302,,33.085957,0.1,318.14783,1597168305654
Fix,GT,37.5134359,-122.2554845,,33.280106,0.1,318.21265,1597168306667
Fix,GT,37.5136579,-122.2557349,,33.467556,0.1,318.21014,1597168307659
Fix,GT,37.5138851,-122.2559915,,33.61508,0.1,318.17493,1597168308670
Fix,GT,37.5141072,-122.2562424,,33.55939,0.1,318.17554,1597168309657
Fix,GT,37.5143319,-122.2564963,,33.35987,0.1,318.16934,1597168310660
Fix,GT,37.5145578,-122.2567511,,33.190517,0.1,318.20398,1597168311673
Fix,GT,37.5147766,-122.2569982,,33.089886,0.1,318.13312,1597168312659
Fix,GT,37.5150001,-122.2572514,,33.050827,0.1,317.97772,1597168313669
Fix,GT,37.5152174,-122.2574985,,33.02737,0.1,317.98407,1597168314653
Fix,GT,37.5154373,-122.2577483,,32.983665,0.1,318.04688,1597168315651
Fix,GT,37.5156603,-122.2580008,,32.852116,0.1,318.22006,1597168316663
Fix,GT,37.515879,-122.2582474,,32.760437,0.1,318.22937,1597168317658
Fix,GT,37.5161017,-122.258499,,32.838432,0.1,318.1465,1597168318672
Fix,GT,37.5163181,-122.2587432,,32.947548,0.1,318.1785,1597168319654
Fix,GT,37.5165373,-122.2589905,,32.978268,0.1,318.16278,1597168320646
Fix,GT,37.5167608,-122.2592431,,32.997566,0.1,318.10773,1597168321658
Fix,GT,37.5169802,-122.2594914,,33.093277,0.1,318.09946,1597168322650
Fix,GT,37.5172002,-122.2597404,,33.196815,0.1,318.0977,1597168323641
Fix,GT,37.5174249,-122.2599949,,33.12014,0.1,318.10147,1597168324653
Fix,GT,37.5176493,-122.2602492,,32.79972,0.1,318.10703,1597168325671
Fix,GT,37.5178671,-122.2604955,,32.59451,0.1,318.10342,1597168326667
Fix,GT,37.5180826,-122.2607398,,32.546616,0.1,317.98395,1597168327656
Fix,GT,37.5183021,-122.2609893,,32.462418,0.1,317.9856,1597168328667
Fix,GT,37.5185157,-122.2612317,,32.334286,0.1,318.1068,1597168329653
Fix,GT,37.5187364,-122.2614814,,32.182884,0.1,318.1646,1597168330675
Fix,GT,37.5189495,-122.2617223,,32.003242,0.1,318.14627,1597168331667
Fix,GT,37.5191624,-122.2619633,,31.933098,0.1,318.12738,1597168332663
Fix,GT,37.5193773,-122.2622066,,31.96463,0.1,318.07416,1597168333668
Fix,GT,37.5195885,-122.2624459,,32.042393,0.1,318.13284,1597168334655
Fix,GT,37.5198015,-122.2626864,,32.11583,0.1,318.20486,1597168335646
Fix,GT,37.5200224,-122.2629353,,32.212574,0.1,318.27643,1597168336670
Fix,GT,37.5202358,-122.2631754,,32.417442,0.1,318.21506,1597168337654
Fix,GT,37.5204575,-122.2634257,,32.690712,0.1,318.14252,1597168338671
Fix,GT,37.5206737,-122.2636701,,32.863052,0.1,318.18442,1597168339655
Fix,GT,37.5208936,-122.2639177,,32.909924,0.1,318.3531,1597168340652
Fix,GT,37.5211161,-122.2641673,,32.997417,0.1,318.35266,1597168341657
Fix,GT,37.5213371,-122.264415,,33.095554,0.1,318.40857,1597168342652
Fix,GT,37.5215568,-122.2646622,,33.127605,0.1,318.06744,1597168343641
Fix,GT,37.5217817,-122.2649176,,33.233173,0.1,317.982,1597168344655
Fix,GT,37.5220039,-122.2651701,,33.296593,0.1,317.97357,1597168345655
Fix,GT,37.5222265,-122.2654233,,33.2381,0.1,317.95322,1597168346657
Fix,GT,37.522446,-122.2656731,,32.942844,0.1,317.88406,1597168347650
Fix,GT,37.5226665,-122.2659253,,32.58141,0.1,317.75873,1597168348661
Fix,GT,37.5228808,-122.2661712,,32.431915,0.1,317.69128,1597168349653
Fix,GT,37.5230957,-122.2664183,,32.354084,0.1,317.66687,1597168350651
Fix,GT,37.5233141,-122.2666673,,32.28148,0.1,318.16403,1597168351664
Fix,GT,37.5235296,-122.2669087,,32.221207,0.1,318.58258,1597168352658
Fix,GT,37.5237487,-122.2671559,,32.170357,0.1,317.82727,1597168353674
Fix,GT,37.5239583,-122.2673964,,32.109165,0.1,317.83212,1597168354654
Fix,GT,37.5241725,-122.267639,,31.974154,0.1,318.53918,1597168355652
Fix,GT,37.5243907,-122.267881,,31.690964,0.1,318.88858,1597168356668
Fix,GT,37.5246017,-122.268113,,31.477514,0.1,318.88464,1597168357653
Fix,GT,37.5248125,-122.2683454,,31.345573,0.1,318.74414,1597168358644
Fix,GT,37.5250256,-122.2685825,,31.252193,0.1,318.4865,1597168359654
Fix,GT,37.5252353,-122.268818,,31.17131,0.1,318.1993,1597168360654
Fix,GT,37.5254441,-122.2690544,,31.036465,0.1,318.09424,1597168361657
Fix,GT,37.5256495,-122.269287,,30.875492,0.1,318.19504,1597168362649
Fix,GT,37.5258538,-122.2695176,,30.60426,0.1,318.18863,1597168363641
Fix,GT,37.5260611,-122.2697512,,30.231716,0.1,318.32196,1597168364657
Fix,GT,37.5262611,-122.2699767,,29.874233,0.1,318.12088,1597168365649
Fix,GT,37.5264617,-122.2702043,,29.607327,0.1,317.91937,1597168366659
Fix,GT,37.5266585,-122.2704285,,29.391182,0.1,318.06076,1597168367659
Fix,GT,37.5268572,-122.2706531,,29.389591,0.1,318.3286,1597168368669
Fix,GT,37.5270525,-122.270872,,29.670788,0.1,318.46814,1597168369654
Fix,GT,37.527256,-122.2710988,,30.08386,0.1,318.61725,1597168370665
Fix,GT,37.5274596,-122.2713258,,30.304007,0.1,318.5624,1597168371665
Fix,GT,37.5276635,-122.2715542,,30.43523,0.1,318.37518,1597168372663
Fix,GT,37.5278705,-122.2717873,,30.587234,0.1,318.27267,1597168373675
Fix,GT,37.5280722,-122.2720152,,30.80133,0.1,318.178,1597168374657
Fix,GT,37.528279,-122.2722495,,31.125092,0.1,318.0227,1597168375655
Fix,GT,37.528491,-122.272491,,31.666555,0.1,317.83405,1597168376667
Fix,GT,37.5287019,-122.2727324,,32.171047,0.1,317.91238,1597168377658
Fix,GT,37.5289204,-122.2729808,,32.38517,0.1,318.048,1597168378671
Fix,GT,37.5291339,-122.2732235,,32.51494,0.1,318.01584,1597168379656
Fix,GT,37.5293506,-122.2734698,,32.559902,0.1,318.05023,1597168380653
Fix,GT,37.5295695,-122.2737178,,32.53183,0.1,318.19937,1597168381658
Fix,GT,37.5297864,-122.2739623,,32.530525,0.1,318.31543,1597168382653
Fix,GT,37.5300036,-122.2742052,,32.61155,0.1,318.79938,1597168383644
Fix,GT,37.530228,-122.2744504,,32.71377,0.1,319.53027,1597168384654
Fix,GT,37.530451,-122.2746873,,32.743694,0.1,320.32806,1597168385645
Fix,GT,37.5306847,-122.2749293,,32.778442,0.1,321.00726,1597168386672
Fix,GT,37.5309102,-122.2751581,,32.762238,0.1,321.5613,1597168387653
Fix,GT,37.5311456,-122.275392,,32.668873,0.1,322.04306,1597168388672
Fix,GT,37.5313738,-122.2756149,,32.450317,0.1,322.5962,1597168389657
Fix,GT,37.5316044,-122.2758361,,32.110832,0.1,323.08282,1597168390654
Fix,GT,37.5318369,-122.2760553,,31.723888,0.1,323.49414,1597168391665
Fix,GT,37.5320639,-122.2762667,,31.358944,0.1,323.74472,1597168392659
Fix,GT,37.5322924,-122.2764779,,31.019941,0.1,323.84784,1597168393669
Fix,GT,37.5325135,-122.2766821,,30.852207,0.1,323.80884,1597168394654
Fix,GT,37.5327374,-122.2768896,,30.812061,0.1,323.74448,1597168395656
Fix,GT,37.5329646,-122.2770997,,30.868015,0.1,323.81146,1597168396672
Fix,GT,37.5331847,-122.277303,,30.984314,0.1,323.82703,1597168397652
Fix,GT,37.5334127,-122.2775137,,31.017696,0.1,323.83594,1597168398666
Fix,GT,37.5336352,-122.2777195,,31.073853,0.1,323.75626,1597168399654
Fix,GT,37.5338606,-122.2779275,,31.19399,0.1,323.84546,1597168400652
Fix,GT,37.5340886,-122.2781383,,31.351295,0.1,323.70752,1597168401657
Fix,GT,37.5343148,-122.2783488,,31.562551,0.1,323.585,1597168402651
Fix,GT,37.5345427,-122.2785611,,31.851694,0.1,323.66626,1597168403644
Fix,GT,37.5347776,-122.2787788,,32.151554,0.1,323.79007,1597168404657
Fix,GT,37.5350118,-122.2789953,,32.40635,0.1,323.88904,1597168405656
Fix,GT,37.5352503,-122.2792143,,32.41497,0.1,324.12442,1597168406667
Fix,GT,37.5354829,-122.279427,,32.175453,0.1,324.1595,1597168407656
Fix,GT,37.5357189,-122.2796424,,32.050034,0.1,324.23822,1597168408664
Fix,GT,37.5359499,-122.2798527,,31.956848,0.1,324.19867,1597168409653
Fix,GT,37.5361834,-122.2800674,,31.850508,0.1,323.7031,1597168410660
Fix,GT,37.5364159,-122.2802839,,31.868208,0.1,323.59415,1597168411669
Fix,GT,37.5366423,-122.2804955,,32.075676,0.1,323.44962,1597168412650
