MessageType,Provider,LatitudeDegrees,LongitudeDegrees,AltitudeMeters,SpeedMps,AccuracyMeters,BearingDegrees,UnixTimeMillis
Fix,GT,37.416314,-122.0804662,,0.0015943008,0.1,356.37424,1591304309436
Fix,GT,37.416314,-122.0804662,,0.00061706314,0.1,356.3741,1591304310436
Fix,GT,37.416314,-122.0804662,,0.0014142136,0.1,356.37418,1591304311436
Fix,GT,37.416314,-122.0804662,,0.0020312767,0.1,356.37393,1591304312436
Fix,GT,37.416314,-122.0804662,,0.0025699632,0.1,356.37387,1591304313436
Fix,GT,37.416314,-122.0804662,,0.0022360678,0.1,356.37402,1591304314436
Fix,GT,37.416314,-122.0804662,,0.0025693942,0.1,356.37384,1591304315436
Fix,GT,37.416314,-122.0804662,,0.0023080744,0.1,356.37344,1591304316436
Fix,GT,37.416314,-122.0804662,,0.0017728129,0.1,356.3734,1591304317436
Fix,GT,37.416314,-122.0804662,,0.0016967349,0.1,356.37314,1591304318436
Fix,GT,37.4163122,-122.0804672,,0.001539333,0.1,356.37302,1591304319436
Fix,GT,37.4163098,-122.0804687,,0.0016967349,0.1,356.37308,1591304320436
Fix,GT,37.4163097,-122.0804688,,0.0021368791,0.1,356.3728,1591304321436
Fix,GT,37.4163097,-122.0804688,,0.0038313754,0.1,356.3723,1591304322436
Fix,GT,37.4163096,-122.0804688,,0.005409389,0.1,356.3714,1591304323436
Fix,GT,37.4163101,-122.0804688,,0.17590016,0.1,356.36108,1591304324436
Fix,GT,37.4163155,-122.0804693,,1.1624155,0.1,355.3619,1591304325436
Fix,GT,37.4163334,-122.0804711,,2.9201431,0.1,353.58258,1591304326436
Fix,GT,37.4163667,-122.0804742,,4.3776455,0.1,352.94116,1591304327436
Fix,GT,37.4164089,-122.0804772,,4.6323295,0.1,353.9239,1591304328436
Fix,GT,37.4164468,-122.0804773,,3.509873,0.1,357.6695,1591304329436
Fix,GT,37.4164741,-122.0804724,,2.6160893,0.1,4.709137,1591304330436
Fix,GT,37.4164973,-122.0804608,,2.7799535,0.1,16.095703,1591304331436
Fix,GT,37.4165192,-122.080437,,3.4507031,0.1,34.52179,1591304332436
Fix,GT,37.4165358,-122.0803949,,4.4931927,0.1,59.26297,1591304333436
Fix,GT,37.4165408,-122.080336,,5.687254,0.1,80.97858,1591304334436
Fix,GT,37.416538,-122.0802641,,6.931799,0.1,89.854614,1591304335436
Fix,GT,37.4165341,-122.0801794,,8.064452,0.1,90.40582,1591304336436
Fix,GT,37.4165293,-122.0800837,,8.888156,0.1,90.75787,1591304337436
Fix,GT,37.4165233,-122.0799798,,9.5089855,0.1,91.29047,1591304338436
Fix,GT,37.4165161,-122.07987,,9.968328,0.1,91.71533,1591304339436
Fix,GT,37.4165083,-122.0797557,,10.320026,0.1,91.86661,1591304340436
Fix,GT,37.4165004,-122.0796375,,10.674608,0.1,91.70654,1591304341436
Fix,GT,37.4164926,-122.0795154,,11.024729,0.1,91.41156,1591304342436
Fix,GT,37.4164851,-122.0793892,,11.382862,0.1,91.096466,1591304343436
Fix,GT,37.4164779,-122.0792596,,11.479167,0.1,90.933716,1591304344436
Fix,GT,37.41647,-122.0791341,,10.649075,0.1,91.7843,1591304345436
Fix,GT,37.4164616,-122.0790231,,9.105231,0.1,92.55548,1591304346436
Fix,GT,37.4164548,-122.0789289,,7.683323,0.1,91.71222,1591304347436
Fix,GT,37.4164502,-122.0788495,,6.544095,0.1,90.88205,1591304348436
Fix,GT,37.416447,-122.0787801,,5.8434153,0.1,90.2634,1591304349436
Fix,GT,37.4164443,-122.0787162,,5.533716,0.1,90.12613,1591304350436
Fix,GT,37.416441,-122.0786548,,5.351504,0.1,90.95587,1591304351436
Fix,GT,37.4164369,-122.0785954,,5.178215,0.1,92.16736,1591304352436
Fix,GT,37.4164321,-122.0785396,,4.648624,0.1,93.218445,1591304353436
Fix,GT,37.4164276,-122.0784933,,3.4925208,0.1,94.06244,1591304354436
Fix,GT,37.4164243,-122.0784618,,2.1337824,0.1,94.63257,1591304355436
Fix,GT,37.4164224,-122.078445,,0.8874134,0.1,94.93625,1591304356436
Fix,GT,37.4164219,-122.0784396,,0.2158274,0.1,95.03308,1591304357436
Fix,GT,37.4164218,-122.0784375,,0.25732484,0.1,95.07153,1591304358436
Fix,GT,37.4164213,-122.0784314,,0.9867038,0.1,94.93988,1591304359436
Fix,GT,37.4164196,-122.0784125,,2.5969234,0.1,94.25955,1591304360436
Fix,GT,37.4164164,-122.0783736,,4.21933,0.1,93.4971,1591304361436
Fix,GT,37.4164105,-122.0783209,,4.9326563,0.1,95.58948,1591304362436
Fix,GT,37.4163985,-122.078267,,4.822306,0.1,104.16754,1591304363436
Fix,GT,37.4163767,-122.078221,,4.54168,0.1,119.78815,1591304364436
Fix,GT,37.4163426,-122.0781887,,4.7573557,0.1,141.98395,1591304365436
Fix,GT,37.4162964,-122.0781772,,5.4517717,0.1,167.5047,1591304366436
Fix,GT,37.4162422,-122.0781823,,6.3440228,0.1,181.77405,1591304367436
Fix,GT,37.4161813,-122.0781886,,7.1548424,0.1,180.50536,1591304368436
Fix,GT,37.4161148,-122.0781912,,7.61379,0.1,178.29828,1591304369436
Fix,GT,37.4160466,-122.0781937,,7.387824,0.1,178.73932,1591304370436
Fix,GT,37.4159837,-122.0781973,,6.444334,0.1,179.68616,1591304371436
Fix,GT,37.4159317,-122.0782011,,5.0627227,0.1,180.3895,1591304372436
Fix,GT,37.4158924,-122.0782045,,3.7328541,0.1,180.6962,1591304373436
Fix,GT,37.4158628,-122.0782067,,2.9307175,0.1,180.44388,1591304374436
Fix,GT,37.4158395,-122.0782084,,2.238503,0.1,180.06816,1591304375436
Fix,GT,37.4158232,-122.0782093,,1.392971,0.1,179.84363,1591304376436
Fix,GT,37.4158142,-122.0782099,,0.6843035,0.1,179.70477,1591304377436
Fix,GT,37.4158095,-122.0782102,,0.47864574,0.1,179.6347,1591304378436
Fix,GT,37.4158037,-122.0782105,,1.009508,0.1,179.53998,1591304379436
Fix,GT,37.4157892,-122.0782114,,2.3878527,0.1,179.29333,1591304380436
Fix,GT,37.4157598,-122.0782127,,4.0844846,0.1,178.802,1591304381436
Fix,GT,37.4157164,-122.0782138,,5.554434,0.1,177.97467,1591304382436
Fix,GT,37.4156601,-122.0782139,,6.971336,0.1,176.7818,1591304383436
Fix,GT,37.4155907,-122.078213,,8.425973,0.1,176.19653,1591304384436
Fix,GT,37.4155083,-122.0782126,,9.815708,0.1,176.7273,1591304385436
Fix,GT,37.4154143,-122.0782136,,11.039451,0.1,177.26459,1591304386436
Fix,GT,37.41531,-122.0782148,,12.086019,0.1,177.3421,1591304387436
Fix,GT,37.4151967,-122.0782158,,13.060547,0.1,177.18616,1591304388436
Fix,GT,37.4150752,-122.0782167,,13.920426,0.1,177.07843,1591304389436
Fix,GT,37.4149466,-122.0782171,,14.566839,0.1,176.94427,1591304390436
Fix,GT,37.414814,-122.0782175,,14.796225,0.1,176.9862,1591304391436
Fix,GT,37.4146811,-122.0782192,,14.640486,0.1,177.67145,1591304392436
Fix,GT,37.4145505,-122.0782238,,14.346222,0.1,178.9198,1591304393436
Fix,GT,37.414423,-122.0782319,,13.982447,0.1,180.19843,1591304394436
Fix,GT,37.4142989,-122.0782432,,13.623165,0.1,181.544,1591304395436
Fix,GT,37.4141782,-122.0782586,,13.297499,0.1,183.4002,1591304396436
Fix,GT,37.4140608,-122.0782788,,12.967867,0.1,185.21626,1591304397436
Fix,GT,37.4139469,-122.0783007,,12.600697,0.1,185.5811,1591304398436
Fix,GT,37.4138362,-122.0783211,,12.273277,0.1,184.9033,1591304399436
Fix,GT,37.413727,-122.0783398,,12.224269,0.1,184.49553,1591304400436
Fix,GT,37.4136165,-122.0783584,,12.503313,0.1,184.46964,1591304401436
Fix,GT,37.4135038,-122.0783778,,12.701597,0.1,185.03305,1591304402436
Fix,GT,37.4133911,-122.0784009,,12.550497,0.1,187.04213,1591304403436
Fix,GT,37.4132821,-122.0784321,,12.201872,0.1,191.50108,1591304404436
Fix,GT,37.413179,-122.0784765,,11.978075,0.1,198.64748,1591304405436
Fix,GT,37.4130823,-122.078539,,12.175325,0.1,207.31128,1591304406436
Fix,GT,37.4129928,-122.0786249,,12.840847,0.1,218.38399,1591304407436
Fix,GT,37.4129167,-122.0787396,,13.503769,0.1,232.48607,1591304408436
Fix,GT,37.4128643,-122.0788808,,14.078295,0.1,247.72139,1591304409436
Fix,GT,37.412841,-122.0790406,,14.648629,0.1,261.97064,1591304410436
Fix,GT,37.4128456,-122.0792096,,15.218141,0.1,272.74088,1591304411436
Fix,GT,37.4128714,-122.0793822,,15.849362,0.1,280.07712,1591304412436
Fix,GT,37.4129131,-122.0795574,,16.520708,0.1,285.68933,1591304413436
Fix,GT,37.4129684,-122.0797352,,17.242043,0.1,289.6716,1591304414436
Fix,GT,37.4130352,-122.0799161,,18.008747,0.1,292.86807,1591304415436
Fix,GT,37.4131114,-122.080101,,18.803486,0.1,295.04767,1591304416436
Fix,GT,37.4131953,-122.0802906,,19.56236,0.1,296.29852,1591304417436
Fix,GT,37.4132851,-122.0804857,,20.23884,0.1,297.0933,1591304418436
Fix,GT,37.4133797,-122.0806855,,20.860748,0.1,297.91116,1591304419436
Fix,GT,37.4134799,-122.0808895,,21.492317,0.1,298.83105,1591304420436
Fix,GT,37.4135859,-122.081097,,22.063564,0.1,300.2399,1591304421436
Fix,GT,37.4137007,-122.0813039,,22.522722,0.1,303.26187,1591304422436
Fix,GT,37.4138292,-122.0815044,,22.97739,0.1,307.38864,1591304423436
Fix,GT,37.4139693,-122.0816983,,23.246567,0.1,309.92236,1591304424436
Fix,GT,37.414113,-122.0818893,,23.219978,0.1,310.2806,1591304425436
Fix,GT,37.4142545,-122.0820812,,23.022165,0.1,308.91092,1591304426436
Fix,GT,37.4143876,-122.0822774,,22.6951,0.1,305.6283,1591304427436
Fix,GT,37.4145089,-122.082482,,22.59678,0.1,301.5706,1591304428436
Fix,GT,37.4146182,-122.0826975,,22.756409,0.1,297.52127,1591304429436
Fix,GT,37.4147177,-122.0829231,,22.965277,0.1,294.6826,1591304430436
Fix,GT,37.4148131,-122.0831554,,23.338123,0.1,293.70996,1591304431436
Fix,GT,37.414911,-122.0833925,,23.93856,0.1,294.74426,1591304432436
Fix,GT,37.4150175,-122.083631,,24.395807,0.1,297.30524,1591304433436
Fix,GT,37.4151342,-122.0838661,,24.515678,0.1,299.97333,1591304434436
Fix,GT,37.4152588,-122.0840945,,24.462461,0.1,302.47208,1591304435436
Fix,GT,37.415391,-122.0843157,,24.409882,0.1,304.72833,1591304436436
Fix,GT,37.4155292,-122.0845297,,24.329126,0.1,306.58295,1591304437436
Fix,GT,37.4156705,-122.0847384,,24.122002,0.1,307.56305,1591304438436
Fix,GT,37.4158111,-122.0849442,,23.881462,0.1,307.1856,1591304439436
Fix,GT,37.4159499,-122.0851498,,23.824762,0.1,306.9591,1591304440436
Fix,GT,37.4160886,-122.0853561,,23.973675,0.1,306.95157,1591304441436
Fix,GT,37.416228,-122.0855644,,24.14307,0.1,306.62244,1591304442436
Fix,GT,37.4163667,-122.0857759,,24.33422,0.1,306.03772,1591304443436
Fix,GT,37.4165069,-122.085989,,24.552036,0.1,306.9293,1591304444436
Fix,GT,37.4166527,-122.0861993,,24.796154,0.1,308.55698,1591304445436
Fix,GT,37.4168034,-122.0864081,,25.026861,0.1,309.11578,1591304446436
Fix,GT,37.4169559,-122.0866177,,25.197441,0.1,309.13306,1591304447436
Fix,GT,37.4171089,-122.086829,,25.321651,0.1,308.9094,1591304448436
Fix,GT,37.4172618,-122.087042,,25.431717,0.1,308.76935,1591304449436
Fix,GT,37.4174154,-122.0872561,,25.552776,0.1,308.8162,1591304450436
Fix,GT,37.41757,-122.0874713,,25.748173,0.1,308.73212,1591304451436
Fix,GT,37.4177247,-122.0876902,,26.04244,0.1,307.93054,1591304452436
Fix,GT,37.4178781,-122.0879148,,26.328278,0.1,307.1844,1591304453436
Fix,GT,37.4180327,-122.0881426,,26.59103,0.1,307.54196,1591304454436
Fix,GT,37.4181912,-122.0883706,,26.989395,0.1,308.08588,1591304455436
Fix,GT,37.4183535,-122.0886021,,27.63768,0.1,308.06207,1591304456436
Fix,GT,37.4185196,-122.0888405,,28.416405,0.1,307.8377,1591304457436
Fix,GT,37.4186902,-122.0890861,,29.217537,0.1,307.97583,1591304458436
Fix,GT,37.418867,-122.0893364,,29.971844,0.1,308.70737,1591304459436
Fix,GT,37.4190508,-122.0895901,,30.67062,0.1,309.45334,1591304460436
Fix,GT,37.4192405,-122.0898474,,31.346266,0.1,309.59048,1591304461436
Fix,GT,37.4194336,-122.0901109,,32.020027,0.1,309.17062,1591304462436
Fix,GT,37.4196292,-122.0903818,,32.650112,0.1,308.86182,1591304463436
Fix,GT,37.4198276,-122.0906576,,33.058556,0.1,308.98135,1591304464436
Fix,GT,37.4200281,-122.0909342,,33.039623,0.1,309.1229,1591304465436
Fix,GT,37.4202274,-122.0912089,,32.684677,0.1,308.9952,1591304466436
Fix,GT,37.420424,-122.0914803,,32.22283,0.1,309.1187,1591304467436
Fix,GT,37.4206181,-122.0917469,,31.694267,0.1,309.14798,1591304468436
Fix,GT,37.4208085,-122.0920097,,31.160673,0.1,308.8976,1591304469436
Fix,GT,37.4209949,-122.0922688,,30.602009,0.1,308.93246,1591304470436
Fix,GT,37.4211783,-122.0925218,,29.86932,0.1,309.35532,1591304471436
Fix,GT,37.4213582,-122.0927665,,29.075153,0.1,309.54745,1591304472436
Fix,GT,37.4215339,-122.0930053,,28.475317,0.1,309.37958,1591304473436
Fix,GT,37.4217055,-122.093241,,28.083689,0.1,309.0723,1591304474436
Fix,GT,37.421875,-122.093475,,27.927835,0.1,309.02612,1591304475436
Fix,GT,37.4220443,-122.0937081,,27.87738,0.1,309.14142,1591304476436
Fix,GT,37.4222131,-122.0939408,,27.792753,0.1,308.92935,1591304477436
Fix,GT,37.4223805,-122.0941737,,27.755478,0.1,308.77213,1591304478436
Fix,GT,37.4225482,-122.0944068,,27.799248,0.1,308.94003,1591304479436
Fix,GT,37.4227167,-122.0946394,,27.822422,0.1,309.1733,1591304480436
Fix,GT,37.4228861,-122.0948711,,27.8022,0.1,309.3486,1591304481436
Fix,GT,37.4230552,-122.0951022,,27.724846,0.1,309.27176,1591304482436
Fix,GT,37.4232233,-122.095333,,27.604998,0.1,309.121,1591304483436
Fix,GT,37.4233903,-122.0955633,,27.487278,0.1,308.99615,1591304484436
Fix,GT,37.4235562,-122.0957931,,27.388283,0.1,308.93066,1591304485436
Fix,GT,37.4237216,-122.0960221,,27.3088,0.1,309.04013,1591304486436
Fix,GT,37.4238871,-122.0962498,,27.228466,0.1,309.29904,1591304487436
Fix,GT,37.4240529,-122.0964757,,27.098246,0.1,309.5164,1591304488436
Fix,GT,37.4242182,-122.0966992,,26.845358,0.1,309.7716,1591304489436
Fix,GT,37.424383,-122.0969186,,26.485405,0.1,310.46075,1591304490436
Fix,GT,37.4245479,-122.0971318,,26.086267,0.1,311.43933,1591304491436
Fix,GT,37.4247131,-122.0973386,,25.714392,0.1,312.19135,1591304492436
Fix,GT,37.4248776,-122.0975408,,25.435528,0.1,312.5929,1591304493436
Fix,GT,37.4250419,-122.0977397,,25.271011,0.1,312.9842,1591304494436
Fix,GT,37.4252067,-122.0979356,,25.12161,0.1,313.63632,1591304495436
Fix,GT,37.4253725,-122.0981277,,24.966568,0.1,314.4232,1591304496436
Fix,GT,37.4255391,-122.0983163,,24.856762,0.1,314.95392,1591304497436
Fix,GT,37.4257063,-122.0985026,,24.781334,0.1,315.41296,1591304498436
Fix,GT,37.4258742,-122.0986867,,24.714855,0.1,315.89297,1591304499436
Fix,GT,37.426043,-122.0988683,,24.644455,0.1,316.5749,1591304500436
Fix,GT,37.4262134,-122.0990464,,24.609715,0.1,317.51404,1591304501436
Fix,GT,37.4263858,-122.0992211,,24.580067,0.1,318.12805,1591304502436
Fix,GT,37.4265584,-122.0993945,,24.483917,0.1,318.09128,1591304503436
Fix,GT,37.4267293,-122.0995679,,24.321037,0.1,317.68698,1591304504436
Fix,GT,37.4268976,-122.0997419,,24.102203,0.1,316.96945,1591304505436
Fix,GT,37.4270629,-122.0999162,,23.833805,0.1,316.5637,1591304506436
Fix,GT,37.4272259,-122.1000893,,23.582298,0.1,316.54114,1591304507436
Fix,GT,37.427387,-122.1002612,,23.433605,0.1,316.26288,1591304508436
Fix,GT,37.4275471,-122.100434,,23.506855,0.1,316.05356,1591304509436
Fix,GT,37.4277085,-122.100608,,23.744968,0.1,316.26318,1591304510436
Fix,GT,37.4278726,-122.1007824,,23.989153,0.1,316.74402,1591304511436
Fix,GT,37.4280392,-122.1009574,,24.234688,0.1,316.95724,1591304512436
Fix,GT,37.4282074,-122.1011339,,24.441715,0.1,316.8524,1591304513436
Fix,GT,37.4283765,-122.101312,,24.56584,0.1,316.75626,1591304514436
Fix,GT,37.4285463,-122.1014911,,24.700562,0.1,316.78098,1591304515436
Fix,GT,37.4287174,-122.1016711,,24.877663,0.1,316.94305,1591304516436
Fix,GT,37.4288902,-122.1018516,,25.033758,0.1,317.0475,1591304517436
Fix,GT,37.4290637,-122.1020336,,25.211212,0.1,316.82895,1591304518436
Fix,GT,37.4292379,-122.1022181,,25.404747,0.1,316.5636,1591304519436
Fix,GT,37.4294134,-122.1024043,,25.616848,0.1,316.74597,1591304520436
Fix,GT,37.4295912,-122.1025908,,25.828283,0.1,317.0412,1591304521436
Fix,GT,37.4297709,-122.1027782,,26.029007,0.1,317.0748,1591304522436
Fix,GT,37.4299518,-122.1029673,,26.235125,0.1,316.94553,1591304523436
Fix,GT,37.4301336,-122.1031584,,26.450377,0.1,316.79657,1591304524436
Fix,GT,37.4303169,-122.1033514,,26.66489,0.1,316.83093,1591304525436
Fix,GT,37.4305019,-122.1035453,,26.85144,0.1,317.02432,1591304526436
Fix,GT,37.4306883,-122.1037399,,26.988716,0.1,317.09067,1591304527436
Fix,GT,37.4308754,-122.1039354,,27.054832,0.1,316.96875,1591304528436
Fix,GT,37.4310622,-122.1041316,,27.034275,0.1,316.77258,1591304529436
Fix,GT,37.4312481,-122.1043283,,26.94824,0.1,316.54974,1591304530436
Fix,GT,37.4314328,-122.1045247,,26.792492,0.1,316.54724,1591304531436
Fix,GT,37.4316168,-122.1047189,,26.598177,0.1,316.92294,1591304532436
Fix,GT,37.4318005,-122.1049105,,26.43987,0.1,317.04865,1591304533436
Fix,GT,37.431983,-122.1051016,,26.352427,0.1,316.9152,1591304534436
Fix,GT,37.4321654,-122.1052923,,26.384365,0.1,317.06958,1591304535436
Fix,GT,37.4323485,-122.1054832,,26.485523,0.1,317.14594,1591304536436
Fix,GT,37.4325325,-122.1056748,,26.615269,0.1,317.0965,1591304537436
Fix,GT,37.4327176,-122.1058676,,26.797642,0.1,317.06644,1591304538436
Fix,GT,37.4329039,-122.106062,,26.981785,0.1,317.0126,1591304539436
Fix,GT,37.4330907,-122.1062578,,27.018892,0.1,316.82068,1591304540436
Fix,GT,37.4332765,-122.1064533,,26.780594,0.1,316.8071,1591304541436
Fix,GT,37.4334602,-122.1066466,,26.415964,0.1,316.79068,1591304542436
Fix,GT,37.4336408,-122.1068376,,26.012491,0.1,316.48752,1591304543436
Fix,GT,37.433818,-122.1070261,,25.550468,0.1,316.55994,1591304544436
Fix,GT,37.4339924,-122.1072108,,25.12828,0.1,316.7531,1591304545436
Fix,GT,37.4341649,-122.1073922,,24.873219,0.1,316.90405,1591304546436
Fix,GT,37.4343368,-122.1075723,,24.886217,0.1,316.90552,1591304547436
Fix,GT,37.4345095,-122.1077536,,25.11572,0.1,316.86163,1591304548436
Fix,GT,37.4346839,-122.1079367,,25.356567,0.1,316.92725,1591304549436
Fix,GT,37.4348599,-122.1081212,,25.537733,0.1,316.90085,1591304550436
Fix,GT,37.435037,-122.1083066,,25.668568,0.1,317.08896,1591304551436
Fix,GT,37.4352156,-122.1084925,,25.844223,0.1,317.1178,1591304552436
Fix,GT,37.4353953,-122.1086803,,26.079567,0.1,316.9442,1591304553436
Fix,GT,37.4355765,-122.1088698,,26.293436,0.1,317.0743,1591304554436
Fix,GT,37.4357593,-122.1090602,,26.417606,0.1,317.09235,1591304555436
Fix,GT,37.4359421,-122.1092514,,26.388195,0.1,316.83173,1591304556436
Fix,GT,37.4361237,-122.1094428,,26.243313,0.1,316.7466,1591304557436
Fix,GT,37.4363045,-122.1096327,,26.089252,0.1,316.9495,1591304558436
Fix,GT,37.4364843,-122.1098211,,25.93732,0.1,316.83554,1591304559436
Fix,GT,37.4366627,-122.110009,,25.767998,0.1,316.64716,1591304560436
Fix,GT,37.4368397,-122.110196,,25.629417,0.1,316.81735,1591304561436
Fix,GT,37.4370168,-122.1103817,,25.611053,0.1,316.9831,1591304562436
Fix,GT,37.4371944,-122.110567,,25.70446,0.1,317.08383,1591304563436
Fix,GT,37.4373729,-122.1107535,,25.841593,0.1,316.9811,1591304564436
Fix,GT,37.4375518,-122.1109414,,25.990023,0.1,316.85364,1591304565436
Fix,GT,37.437732,-122.1111305,,26.130198,0.1,316.97543,1591304566436
Fix,GT,37.4379133,-122.1113197,,26.225374,0.1,317.04395,1591304567436
Fix,GT,37.4380946,-122.1115097,,26.213135,0.1,316.87344,1591304568436
Fix,GT,37.4382751,-122.1116995,,26.072136,0.1,316.7938,1591304569436
Fix,GT,37.4384547,-122.111888,,25.914639,0.1,316.90308,1591304570436
Fix,GT,37.4386333,-122.1120753,,25.758768,0.1,316.87518,1591304571436
Fix,GT,37.4388107,-122.1122616,,25.611288,0.1,316.876,1591304572436
Fix,GT,37.4389873,-122.1124466,,25.47345,0.1,316.94818,1591304573436
Fix,GT,37.4391634,-122.1126307,,25.40612,0.1,316.99628,1591304574436
Fix,GT,37.4393393,-122.1128146,,25.427341,0.1,316.97815,1591304575436
Fix,GT,37.4395154,-122.1129988,,25.483665,0.1,316.99063,1591304576436
Fix,GT,37.439692,-122.1131836,,25.598877,0.1,316.93488,1591304577436
Fix,GT,37.4398694,-122.11337,,25.782974,0.1,316.7494,1591304578436
Fix,GT,37.4400478,-122.1135588,,26.034641,0.1,316.57654,1591304579436
Fix,GT,37.4402278,-122.1137498,,26.298119,0.1,316.66516,1591304580436
Fix,GT,37.44041,-122.1139418,,26.514294,0.1,316.89587,1591304581436
Fix,GT,37.4405939,-122.1141347,,26.701496,0.1,316.92108,1591304582436
Fix,GT,37.4407793,-122.1143286,,26.87235,0.1,317.05325,1591304583436
Fix,GT,37.4409662,-122.114523,,27.015604,0.1,317.17688,1591304584436
Fix,GT,37.4411536,-122.1147185,,27.0813,0.1,316.92358,1591304585436
Fix,GT,37.4413404,-122.1149148,,26.961178,0.1,316.73904,1591304586436
Fix,GT,37.441525,-122.1151094,,26.543114,0.1,316.7454,1591304587436
Fix,GT,37.4417063,-122.1152999,,25.945745,0.1,316.80682,1591304588436
Fix,GT,37.4418835,-122.1154864,,25.439766,0.1,316.75906,1591304589436
Fix,GT,37.4420578,-122.1156706,,25.221752,0.1,316.4408,1591304590436
Fix,GT,37.4422299,-122.1158573,,25.396303,0.1,315.3667,1591304591436
Fix,GT,37.4424014,-122.1160505,,25.799057,0.1,314.53653,1591304592436
Fix,GT,37.4425756,-122.1162474,,26.271221,0.1,315.09055,1591304593436
Fix,GT,37.4427552,-122.1164454,,26.776031,0.1,315.81763,1591304594436
Fix,GT,37.4429397,-122.1166447,,27.260933,0.1,316.18082,1591304595436
Fix,GT,37.4431279,-122.1168465,,27.705368,0.1,316.36392,1591304596436
Fix,GT,37.4433195,-122.117051,,28.122042,0.1,316.47534,1591304597436
Fix,GT,37.4435142,-122.117258,,28.523039,0.1,316.58563,1591304598436
Fix,GT,37.443712,-122.117467,,28.854343,0.1,316.80768,1591304599436
Fix,GT,37.4439122,-122.1176772,,29.075737,0.1,316.97394,1591304600436
Fix,GT,37.4441139,-122.1178881,,29.213917,0.1,317.06317,1591304601436
Fix,GT,37.4443167,-122.1180995,,29.33149,0.1,317.1009,1591304602436
Fix,GT,37.4445204,-122.1183119,,29.441385,0.1,316.99832,1591304603436
Fix,GT,37.4447237,-122.1185249,,29.359554,0.1,316.8358,1591304604436
Fix,GT,37.4449253,-122.1187371,,29.030878,0.1,316.70627,1591304605436
Fix,GT,37.4451239,-122.1189469,,28.600786,0.1,316.6712,1591304606436
Fix,GT,37.4453196,-122.1191534,,28.16262,0.1,316.81976,1591304607436
Fix,GT,37.445513,-122.1193559,,27.74739,0.1,317.03006,1591304608436
Fix,GT,37.4457042,-122.119555,,27.437672,0.1,317.11063,1591304609436
Fix,GT,37.4458937,-122.1197526,,27.264938,0.1,316.96768,1591304610436
Fix,GT,37.4460814,-122.1199501,,27.125175,0.1,316.7604,1591304611436
Fix,GT,37.4462682,-122.1201471,,27.067284,0.1,316.88058,1591304612436
Fix,GT,37.4464558,-122.1203433,,27.15551,0.1,317.04028,1591304613436
Fix,GT,37.4466439,-122.1205405,,27.282711,0.1,316.88104,1591304614436
Fix,GT,37.4468326,-122.120739,,27.390991,0.1,316.8146,1591304615436
Fix,GT,37.4470223,-122.1209382,,27.522831,0.1,316.91214,1591304616436
Fix,GT,37.4472133,-122.1211382,,27.677868,0.1,316.9686,1591304617436
Fix,GT,37.4474053,-122.1213389,,27.838642,0.1,317.03198,1591304618436
Fix,GT,37.4475984,-122.1215413,,28.01873,0.1,316.8753,1591304619436
Fix,GT,37.4477922,-122.1217459,,28.207119,0.1,316.70886,1591304620436
Fix,GT,37.4479873,-122.1219515,,28.359314,0.1,316.92288,1591304621436
Fix,GT,37.4481838,-122.1221572,,28.487263,0.1,317.02075,1591304622436
Fix,GT,37.448381,-122.122364,,28.6208,0.1,316.90527,1591304623436
Fix,GT,37.4485793,-122.1225723,,28.781256,0.1,316.80328,1591304624436
Fix,GT,37.4487782,-122.1227822,,28.95228,0.1,316.78964,1591304625436
Fix,GT,37.4489787,-122.1229927,,29.087067,0.1,317.0207,1591304626436
Fix,GT,37.4491807,-122.1232029,,29.20798,0.1,317.09967,1591304627436
Fix,GT,37.4493829,-122.1234148,,29.30734,0.1,316.73465,1591304628436
Fix,GT,37.4495847,-122.1236287,,29.391575,0.1,316.5469,1591304629436
Fix,GT,37.4497872,-122.1238435,,29.500664,0.1,316.7107,1591304630436
Fix,GT,37.449991,-122.1240585,,29.627464,0.1,316.74283,1591304631436
Fix,GT,37.4501954,-122.1242747,,29.721478,0.1,316.57434,1591304632436
Fix,GT,37.4503996,-122.1244924,,29.76363,0.1,316.40646,1591304633436
Fix,GT,37.4506033,-122.1247116,,29.82486,0.1,315.95166,1591304634436
Fix,GT,37.4508053,-122.1249341,,29.831036,0.1,315.07965,1591304635436
Fix,GT,37.4510039,-122.1251599,,29.620573,0.1,314.10278,1591304636436
Fix,GT,37.451197,-122.125388,,29.2846,0.1,312.81848,1591304637436
Fix,GT,37.4513835,-122.1256197,,29.050201,0.1,311.35327,1591304638436
Fix,GT,37.451565,-122.1258556,,29.064394,0.1,310.2799,1591304639436
Fix,GT,37.4517439,-122.1260966,,29.234049,0.1,309.27637,1591304640436
Fix,GT,37.4519202,-122.1263433,,29.401436,0.1,308.068,1591304641436
Fix,GT,37.4520935,-122.1265954,,29.53463,0.1,307.06387,1591304642436
Fix,GT,37.4522639,-122.1268525,,29.63169,0.1,305.9556,1591304643436
Fix,GT,37.4524303,-122.1271144,,29.678513,0.1,304.6593,1591304644436
Fix,GT,37.4525928,-122.1273805,,29.640972,0.1,303.81787,1591304645436
Fix,GT,37.4527527,-122.1276477,,29.495537,0.1,303.5171,1591304646436
Fix,GT,37.4529109,-122.1279142,,29.283424,0.1,303.20544,1591304647436
Fix,GT,37.4530673,-122.1281797,,29.114454,0.1,303.23456,1591304648436
Fix,GT,37.4532231,-122.1284433,,28.978172,0.1,303.34442,1591304649436
Fix,GT,37.4533782,-122.1287061,,28.87715,0.1,303.12842,1591304650436
Fix,GT,37.4535322,-122.1289686,,28.80836,0.1,303.07938,1591304651436
Fix,GT,37.4536856,-122.1292308,,28.760452,0.1,302.9544,1591304652436
Fix,GT,37.4538384,-122.1294932,,28.753155,0.1,302.86545,1591304653436
Fix,GT,37.4539914,-122.1297557,,28.81594,0.1,303.02664,1591304654436
Fix,GT,37.4541456,-122.1300187,,28.938114,0.1,303.08127,1591304655436
Fix,GT,37.4543002,-122.130283,,29.100643,0.1,303.01083,1591304656436
Fix,GT,37.4544557,-122.1305491,,29.279436,0.1,303.03275,1591304657436
Fix,GT,37.4546122,-122.1308168,,29.465282,0.1,302.98724,1591304658436
Fix,GT,37.4547695,-122.1310864,,29.646278,0.1,302.8927,1591304659436
Fix,GT,37.4549276,-122.1313574,,29.781271,0.1,302.99957,1591304660436
Fix,GT,37.4550871,-122.131629,,29.90334,0.1,303.2024,1591304661436
Fix,GT,37.4552476,-122.1319015,,30.036385,0.1,303.2572,1591304662436
Fix,GT,37.4554088,-122.1321752,,30.180668,0.1,303.17172,1591304663436
Fix,GT,37.4555706,-122.1324506,,30.346024,0.1,303.13528,1591304664436
Fix,GT,37.4557332,-122.1327275,,30.521252,0.1,303.12762,1591304665436
Fix,GT,37.4558969,-122.1330057,,30.67582,0.1,303.24908,1591304666436
Fix,GT,37.4560617,-122.1332849,,30.787636,0.1,303.3896,1591304667436
Fix,GT,37.4562275,-122.1335646,,30.889515,0.1,303.42123,1591304668436
Fix,GT,37.4563941,-122.1338451,,31.010277,0.1,303.42053,1591304669436
Fix,GT,37.456561,-122.1341269,,31.10817,0.1,303.25745,1591304670436
Fix,GT,37.4567278,-122.1344103,,31.19685,0.1,303.16153,1591304671436
Fix,GT,37.4568951,-122.1346941,,31.294273,0.1,303.24966,1591304672436
Fix,GT,37.4570635,-122.1349788,,31.44363,0.1,303.40027,1591304673436
Fix,GT,37.457233,-122.1352647,,31.59624,0.1,303.3347,1591304674436
Fix,GT,37.4574024,-122.1355523,,31.639162,0.1,303.06543,1591304675436
Fix,GT,37.4575707,-122.1358405,,31.59264,0.1,302.88757,1591304676436
Fix,GT,37.4577383,-122.1361283,,31.462093,0.1,302.95224,1591304677436
Fix,GT,37.4579059,-122.1364137,,31.252026,0.1,303.23752,1591304678436
Fix,GT,37.4580733,-122.1366962,,31.03822,0.1,303.4798,1591304679436
Fix,GT,37.4582402,-122.1369765,,30.873302,0.1,303.45865,1591304680436
Fix,GT,37.4584055,-122.1372559,,30.695835,0.1,303.19672,1591304681436
Fix,GT,37.4585685,-122.137534,,30.366213,0.1,303.02615,1591304682436
Fix,GT,37.4587293,-122.137809,,30.017323,0.1,303.05014,1591304683436
Fix,GT,37.4588894,-122.1380817,,29.961456,0.1,303.17145,1591304684436
Fix,GT,37.4590505,-122.1383547,,30.170197,0.1,303.34454,1591304685436
Fix,GT,37.4592134,-122.1386293,,30.39001,0.1,303.4538,1591304686436
Fix,GT,37.4593774,-122.1389056,,30.55957,0.1,303.2828,1591304687436
Fix,GT,37.459541,-122.1391842,,30.645113,0.1,302.9024,1591304688436
Fix,GT,37.4597038,-122.1394642,,30.681242,0.1,302.81393,1591304689436
Fix,GT,37.4598672,-122.1397441,,30.681957,0.1,303.07864,1591304690436
Fix,GT,37.4600313,-122.140023,,30.640707,0.1,303.17676,1591304691436
Fix,GT,37.4601947,-122.1403011,,30.479527,0.1,302.98956,1591304692436
Fix,GT,37.4603558,-122.1405781,,30.203403,0.1,302.7621,1591304693436
Fix,GT,37.4605153,-122.140853,,29.976852,0.1,302.90756,1591304694436
Fix,GT,37.4606751,-122.1411256,,29.88295,0.1,303.20248,1591304695436
Fix,GT,37.4608351,-122.141397,,29.864563,0.1,303.19968,1591304696436
Fix,GT,37.4609948,-122.1416684,,29.821093,0.1,303.08237,1591304697436
Fix,GT,37.4611541,-122.1419398,,29.827568,0.1,303.15015,1591304698436
Fix,GT,37.4613138,-122.1422116,,29.93476,0.1,303.21072,1591304699436
Fix,GT,37.4614744,-122.1424841,,30.051691,0.1,303.22638,1591304700436
Fix,GT,37.4616355,-122.142758,,30.142597,0.1,303.15097,1591304701436
Fix,GT,37.4617965,-122.1430326,,30.187239,0.1,303.03476,1591304702436
Fix,GT,37.4619572,-122.143308,,30.195955,0.1,302.93542,1591304703436
Fix,GT,37.4621178,-122.1435838,,30.228802,0.1,302.87903,1591304704436
Fix,GT,37.4622784,-122.14386,,30.248743,0.1,302.74,1591304705436
Fix,GT,37.4624383,-122.144137,,30.232845,0.1,302.6304,1591304706436
Fix,GT,37.4625982,-122.1444137,,30.240253,0.1,302.96616,1591304707436
Fix,GT,37.4627601,-122.1446889,,30.257122,0.1,303.16788,1591304708436
Fix,GT,37.4629213,-122.1449643,,30.212715,0.1,302.78314,1591304709436
Fix,GT,37.4630811,-122.1452405,,30.189837,0.1,302.82553,1591304710436
Fix,GT,37.4632423,-122.145516,,30.289566,0.1,303.20355,1591304711436
Fix,GT,37.4634043,-122.145792,,30.333294,0.1,302.9323,1591304712436
Fix,GT,37.4635648,-122.1460687,,30.22213,0.1,302.71054,1591304713436
Fix,GT,37.4637246,-122.1463442,,30.051533,0.1,302.9418,1591304714436
Fix,GT,37.4638845,-122.1466173,,29.911617,0.1,303.1753,1591304715436
Fix,GT,37.4640446,-122.1468887,,29.858154,0.1,303.37497,1591304716436
Fix,GT,37.4642056,-122.1471596,,29.926228,0.1,303.5443,1591304717436
Fix,GT,37.4643673,-122.1474311,,30.049393,0.1,303.45694,1591304718436
Fix,GT,37.4645291,-122.1477044,,30.175213,0.1,303.17825,1591304719436
Fix,GT,37.4646903,-122.1479798,,30.280159,0.1,302.88852,1591304720436
Fix,GT,37.4648512,-122.1482567,,30.357924,0.1,302.85992,1591304721436
Fix,GT,37.4650132,-122.148534,,30.457502,0.1,303.13458,1591304722436
Fix,GT,37.4651766,-122.1488113,,30.609966,0.1,303.2529,1591304723436
Fix,GT,37.465341,-122.1490903,,30.777905,0.1,303.14328,1591304724436
Fix,GT,37.4655056,-122.1493714,,30.947765,0.1,303.0136,1591304725436
Fix,GT,37.4656713,-122.1496544,,31.14944,0.1,303.0781,1591304726436
Fix,GT,37.4658381,-122.1499389,,31.33146,0.1,303.09854,1591304727436
Fix,GT,37.4660054,-122.1502251,,31.450752,0.1,302.96835,1591304728436
Fix,GT,37.4661731,-122.1505123,,31.52341,0.1,303.02835,1591304729436
Fix,GT,37.4663418,-122.1507993,,31.567251,0.1,303.25623,1591304730436
Fix,GT,37.4665109,-122.1510859,,31.471373,0.1,303.24155,1591304731436
Fix,GT,37.4666784,-122.1513712,,31.184525,0.1,303.03976,1591304732436
Fix,GT,37.4668436,-122.1516538,,30.811531,0.1,302.9895,1591304733436
Fix,GT,37.4670071,-122.1519328,,30.47105,0.1,303.19858,1591304734436
Fix,GT,37.46717,-122.1522083,,30.260365,0.1,303.39233,1591304735436
Fix,GT,37.4673321,-122.1524817,,30.041765,0.1,303.36435,1591304736436
Fix,GT,37.4674926,-122.152753,,29.732811,0.1,303.33536,1591304737436
Fix,GT,37.4676517,-122.1530212,,29.398386,0.1,303.46063,1591304738436
Fix,GT,37.4678095,-122.1532857,,29.046192,0.1,303.58176,1591304739436
Fix,GT,37.4679656,-122.153547,,28.742245,0.1,303.48532,1591304740436
Fix,GT,37.4681197,-122.1538072,,28.62542,0.1,303.19675,1591304741436
Fix,GT,37.4682722,-122.1540674,,28.542915,0.1,303.0103,1591304742436
Fix,GT,37.4684236,-122.1543264,,28.26636,0.1,302.99588,1591304743436
Fix,GT,37.4685735,-122.1545823,,27.899837,0.1,303.07468,1591304744436
Fix,GT,37.4687216,-122.1548344,,27.507778,0.1,303.1892,1591304745436
Fix,GT,37.4688683,-122.1550828,,27.25491,0.1,303.21127,1591304746436
Fix,GT,37.4690143,-122.1553304,,27.302155,0.1,303.13235,1591304747436
Fix,GT,37.4691608,-122.1555798,,27.531307,0.1,303.1808,1591304748436
Fix,GT,37.4693092,-122.155831,,27.79482,0.1,303.42975,1591304749436
Fix,GT,37.4694592,-122.1560841,,27.984688,0.1,303.34686,1591304750436
Fix,GT,37.4696088,-122.1563393,,28.013187,0.1,302.82895,1591304751436
Fix,GT,37.4697566,-122.1565955,,27.917355,0.1,302.57742,1591304752436
Fix,GT,37.4699035,-122.1568508,,27.7933,0.1,302.56775,1591304753436
Fix,GT,37.4700497,-122.1571053,,27.735832,0.1,302.56577,1591304754436
Fix,GT,37.4701962,-122.1573597,,27.804913,0.1,302.6997,1591304755436
Fix,GT,37.4703443,-122.1576142,,27.955421,0.1,303.10886,1591304756436
Fix,GT,37.4704945,-122.1578689,,28.109608,0.1,303.3957,1591304757436
Fix,GT,37.4706459,-122.1581243,,28.18233,0.1,303.3435,1591304758436
Fix,GT,37.4707972,-122.15838,,28.167671,0.1,303.3583,1591304759436
Fix,GT,37.4709486,-122.1586354,,28.142769,0.1,303.4168,1591304760436
Fix,GT,37.4711001,-122.1588907,,28.153324,0.1,303.33038,1591304761436
Fix,GT,37.471251,-122.1591471,,28.238985,0.1,303.07513,1591304762436
Fix,GT,37.4714016,-122.1594053,,28.400265,0.1,302.91385,1591304763436
Fix,GT,37.4715532,-122.1596655,,28.608875,0.1,302.9796,1591304764436
Fix,GT,37.4717061,-122.1599275,,28.83569,0.1,302.9864,1591304765436
Fix,GT,37.47186,-122.1601919,,29.062214,0.1,302.8091,1591304766436
Fix,GT,37.4720145,-122.1604586,,29.249256,0.1,302.76566,1591304767436
Fix,GT,37.47217,-122.1607267,,29.405941,0.1,302.88657,1591304768436
Fix,GT,37.4723269,-122.1609958,,29.582428,0.1,303.00497,1591304769436
Fix,GT,37.4724848,-122.1612661,,29.71558,0.1,302.941,1591304770436
Fix,GT,37.4726427,-122.1615378,,29.743736,0.1,302.74164,1591304771436
Fix,GT,37.4728004,-122.1618096,,29.709763,0.1,302.90115,1591304772436
Fix,GT,37.4729585,-122.1620799,,29.589783,0.1,303.17365,1591304773436
Fix,GT,37.4731165,-122.1623478,,29.370117,0.1,303.31183,1591304774436
Fix,GT,37.4732737,-122.1626129,,29.08321,0.1,303.45187,1591304775436
Fix,GT,37.4734298,-122.1628752,,28.86636,0.1,303.43665,1591304776436
Fix,GT,37.4735847,-122.1631371,,28.864803,0.1,303.15802,1591304777436
Fix,GT,37.4737388,-122.1634007,,29.005451,0.1,302.8905,1591304778436
Fix,GT,37.4738936,-122.1636664,,29.204258,0.1,302.92206,1591304779436
Fix,GT,37.4740499,-122.1639336,,29.43249,0.1,303.071,1591304780436
Fix,GT,37.4742076,-122.1642026,,29.650898,0.1,303.07593,1591304781436
Fix,GT,37.474366,-122.1644739,,29.853014,0.1,302.98563,1591304782436
Fix,GT,37.4745254,-122.1647471,,30.032299,0.1,302.9815,1591304783436
Fix,GT,37.474686,-122.1650211,,30.112144,0.1,303.13092,1591304784436
Fix,GT,37.474847,-122.1652951,,30.046513,0.1,303.0907,1591304785436
Fix,GT,37.475007,-122.165568,,29.855494,0.1,303.04013,1591304786436
Fix,GT,37.475166,-122.1658385,,29.554623,0.1,303.22952,1591304787436
Fix,GT,37.4753238,-122.1661049,,29.167221,0.1,303.40356,1591304788436
Fix,GT,37.4754796,-122.1663678,,28.810116,0.1,303.29837,1591304789436
Fix,GT,37.4756334,-122.1666285,,28.577593,0.1,303.23514,1591304790436
Fix,GT,37.475786,-122.1668875,,28.425423,0.1,303.19562,1591304791436
Fix,GT,37.4759379,-122.1671458,,28.424843,0.1,303.09735,1591304792436
Fix,GT,37.4760902,-122.1674052,,28.602808,0.1,303.0977,1591304793436
Fix,GT,37.4762433,-122.1676665,,28.806559,0.1,303.04053,1591304794436
Fix,GT,37.4763976,-122.1679296,,28.973185,0.1,303.12393,1591304795436
Fix,GT,37.4765535,-122.1681929,,29.082878,0.1,303.76846,1591304796436
Fix,GT,37.4767122,-122.1684544,,29.04456,0.1,304.4101,1591304797436
Fix,GT,37.4768716,-122.1687137,,28.885921,0.1,304.15164,1591304798436
Fix,GT,37.4770283,-122.1689734,,28.775738,0.1,303.58682,1591304799436
Fix,GT,37.4771827,-122.1692346,,28.775938,0.1,303.09567,1591304800436
Fix,GT,37.4773362,-122.1694972,,28.88198,0.1,302.95435,1591304801436
Fix,GT,37.4774911,-122.1697612,,29.134487,0.1,303.37964,1591304802436
Fix,GT,37.4776505,-122.1700256,,29.515488,0.1,304.38452,1591304803436
Fix,GT,37.4778149,-122.1702906,,29.898865,0.1,304.89774,1591304804436
Fix,GT,37.4779815,-122.1705586,,30.262613,0.1,304.5313,1591304805436
Fix,GT,37.4781485,-122.1708317,,30.651865,0.1,303.88953,1591304806436
Fix,GT,37.4783152,-122.171111,,31.0755,0.1,303.29367,1591304807436
Fix,GT,37.4784823,-122.1713957,,31.499413,0.1,302.92838,1591304808436
Fix,GT,37.4786505,-122.1716853,,31.892288,0.1,302.8159,1591304809436
Fix,GT,37.478821,-122.1719778,,32.199657,0.1,303.0266,1591304810436
Fix,GT,37.478994,-122.1722719,,32.41806,0.1,303.2346,1591304811436
Fix,GT,37.4791678,-122.1725672,,32.505142,0.1,303.1218,1591304812436
Fix,GT,37.479341,-122.1728632,,32.46328,0.1,302.92822,1591304813436
Fix,GT,37.4795135,-122.1731591,,32.382927,0.1,302.896,1591304814436
Fix,GT,37.4796861,-122.1734538,,32.314323,0.1,303.25592,1591304815436
Fix,GT,37.479861,-122.1737457,,32.28079,0.1,304.1401,1591304816436
Fix,GT,37.4800388,-122.1740346,,32.280888,0.1,304.68817,1591304817436
Fix,GT,37.4802173,-122.1743229,,32.30029,0.1,304.4787,1591304818436
Fix,GT,37.4803943,-122.1746127,,32.33811,0.1,303.90137,1591304819436
Fix,GT,37.4805688,-122.1749055,,32.369446,0.1,303.17523,1591304820436
Fix,GT,37.4807415,-122.1752006,,32.42364,0.1,302.97266,1591304821436
Fix,GT,37.4809148,-122.1754966,,32.545197,0.1,303.13065,1591304822436
Fix,GT,37.4810889,-122.1757932,,32.63149,0.1,303.08713,1591304823436
Fix,GT,37.4812626,-122.1760906,,32.610535,0.1,302.8698,1591304824436
Fix,GT,37.481435,-122.176389,,32.62988,0.1,302.49634,1591304825436
Fix,GT,37.4816051,-122.1766905,,32.737885,0.1,301.61768,1591304826436
Fix,GT,37.4817716,-122.1769962,,32.796043,0.1,300.7342,1591304827436
Fix,GT,37.4819362,-122.1773043,,32.821888,0.1,300.52155,1591304828436
Fix,GT,37.4820996,-122.177614,,32.885944,0.1,299.9917,1591304829436
Fix,GT,37.4822606,-122.1779266,,32.980175,0.1,299.17883,1591304830436
Fix,GT,37.4824181,-122.1782432,,33.069187,0.1,298.14587,1591304831436
Fix,GT,37.482571,-122.1785643,,33.142056,0.1,297.05627,1591304832436
Fix,GT,37.4827195,-122.1788897,,33.183716,0.1,296.1014,1591304833436
Fix,GT,37.4828643,-122.179218,,33.21106,0.1,295.39926,1591304834436
Fix,GT,37.4830059,-122.1795491,,33.27912,0.1,294.62817,1591304835436
Fix,GT,37.4831439,-122.1798836,,33.371483,0.1,293.5854,1591304836436
Fix,GT,37.483278,-122.1802219,,33.45852,0.1,292.8579,1591304837436
Fix,GT,37.4834092,-122.1805632,,33.599785,0.1,292.16647,1591304838436
Fix,GT,37.4835376,-122.180908,,33.739132,0.1,291.40784,1591304839436
Fix,GT,37.4836625,-122.1812562,,33.806602,0.1,290.55627,1591304840436
Fix,GT,37.4837831,-122.1816073,,33.836037,0.1,289.62518,1591304841436
Fix,GT,37.4838996,-122.1819609,,33.86152,0.1,288.90207,1591304842436
Fix,GT,37.4840134,-122.1823164,,33.915005,0.1,288.50888,1591304843436
Fix,GT,37.4841255,-122.1826736,,33.99562,0.1,287.94705,1591304844436
Fix,GT,37.4842342,-122.1830334,,34.070126,0.1,287.0598,1591304845436
Fix,GT,37.4843392,-122.1833959,,34.145428,0.1,286.40002,1591304846436
Fix,GT,37.4844416,-122.1837606,,34.229465,0.1,285.96423,1591304847436
Fix,GT,37.4845417,-122.1841266,,34.196995,0.1,285.385,1591304848436
Fix,GT,37.4846378,-122.1844924,,33.848175,0.1,284.5174,1591304849436
Fix,GT,37.4847282,-122.1848547,,33.299408,0.1,283.6327,1591304850436
Fix,GT,37.4848129,-122.1852131,,32.889435,0.1,282.94702,1591304851436
Fix,GT,37.4848946,-122.1855696,,32.776485,0.1,282.61414,1591304852436
Fix,GT,37.4849749,-122.1859264,,32.826878,0.1,282.355,1591304853436
Fix,GT,37.4850533,-122.1862846,,32.885326,0.1,281.80334,1591304854436
Fix,GT,37.4851286,-122.1866443,,32.920692,0.1,281.1595,1591304855436
Fix,GT,37.4852009,-122.1870054,,32.958366,0.1,280.49274,1591304856436
Fix,GT,37.4852698,-122.1873682,,33.007927,0.1,279.60944,1591304857436
Fix,GT,37.4853339,-122.1877327,,33.050682,0.1,278.66663,1591304858436
Fix,GT,37.4853942,-122.1880988,,33.089413,0.1,278.10455,1591304859436
Fix,GT,37.4854516,-122.188466,,33.14412,0.1,277.38422,1591304860436
Fix,GT,37.485505,-122.188835,,33.214542,0.1,276.5555,1591304861436
Fix,GT,37.485555,-122.1892058,,33.32214,0.1,276.05402,1591304862436
Fix,GT,37.4856036,-122.1895782,,33.458843,0.1,275.93915,1591304863436
Fix,GT,37.4856532,-122.1899515,,33.451237,0.1,276.4926,1591304864436
Fix,GT,37.4857067,-122.1903226,,33.25607,0.1,277.35168,1591304865436
Fix,GT,37.4857622,-122.1906908,,33.030563,0.1,277.20746,1591304866436
Fix,GT,37.4858148,-122.1910567,,32.74677,0.1,276.43054,1591304867436
Fix,GT,37.4858633,-122.1914199,,32.42403,0.1,275.83057,1591304868436
Fix,GT,37.4859094,-122.1917806,,32.214367,0.1,275.7439,1591304869436
Fix,GT,37.4859551,-122.1921398,,32.15305,0.1,275.73218,1591304870436
Fix,GT,37.4860005,-122.1924987,,32.112015,0.1,275.57196,1591304871436
Fix,GT,37.4860453,-122.1928571,,32.052883,0.1,275.51868,1591304872436
Fix,GT,37.4860896,-122.1932146,,31.969498,0.1,275.48654,1591304873436
Fix,GT,37.4861339,-122.1935712,,31.870405,0.1,275.5251,1591304874436
Fix,GT,37.4861781,-122.1939264,,31.713045,0.1,275.50043,1591304875436
Fix,GT,37.4862214,-122.1942797,,31.508673,0.1,275.3603,1591304876436
Fix,GT,37.4862641,-122.1946307,,31.282864,0.1,275.35455,1591304877436
Fix,GT,37.4863068,-122.194979,,31.063868,0.1,275.477,1591304878436
Fix,GT,37.4863497,-122.1953249,,30.861923,0.1,275.5735,1591304879436
Fix,GT,37.4863931,-122.1956685,,30.673306,0.1,275.71063,1591304880436
Fix,GT,37.4864367,-122.1960099,,30.502008,0.1,275.7333,1591304881436
Fix,GT,37.4864799,-122.1963495,,30.331999,0.1,275.63596,1591304882436
Fix,GT,37.4865222,-122.1966873,,30.163734,0.1,275.50214,1591304883436
Fix,GT,37.4865638,-122.1970236,,30.074371,0.1,275.4138,1591304884436
Fix,GT,37.4866049,-122.1973597,,30.09784,0.1,275.34805,1591304885436
Fix,GT,37.4866459,-122.1976965,,30.188772,0.1,275.3662,1591304886436
Fix,GT,37.4866873,-122.1980345,,30.316708,0.1,275.4639,1591304887436
Fix,GT,37.4867294,-122.198374,,30.455513,0.1,275.55197,1591304888436
Fix,GT,37.4867723,-122.1987149,,30.60548,0.1,275.66064,1591304889436
Fix,GT,37.4868154,-122.1990577,,30.785395,0.1,275.4936,1591304890436
Fix,GT,37.4868576,-122.1994028,,30.9788,0.1,275.37408,1591304891436
Fix,GT,37.4869002,-122.1997501,,31.169449,0.1,275.4956,1591304892436
Fix,GT,37.4869437,-122.2000992,,31.343176,0.1,275.6239,1591304893436
Fix,GT,37.4869879,-122.20045,,31.492882,0.1,275.66968,1591304894436
Fix,GT,37.4870323,-122.2008024,,31.604591,0.1,275.6277,1591304895436
Fix,GT,37.4870765,-122.2011559,,31.691206,0.1,275.50977,1591304896436
Fix,GT,37.4871203,-122.2015104,,31.763596,0.1,275.469,1591304897436
Fix,GT,37.4871641,-122.2018657,,31.831377,0.1,275.4389,1591304898436
Fix,GT,37.4872077,-122.2022216,,31.83322,0.1,275.34732,1591304899436
Fix,GT,37.4872509,-122.2025769,,31.72041,0.1,275.35983,1591304900436
Fix,GT,37.4872943,-122.2029305,,31.577892,0.1,275.57306,1591304901436
Fix,GT,37.4873385,-122.2032826,,31.483246,0.1,275.72363,1591304902436
Fix,GT,37.4873831,-122.203634,,31.477097,0.1,275.7452,1591304903436
Fix,GT,37.4874278,-122.2039858,,31.545006,0.1,275.6329,1591304904436
Fix,GT,37.4874716,-122.2043386,,31.62669,0.1,275.39322,1591304905436
Fix,GT,37.4875146,-122.2046927,,31.71718,0.1,275.2855,1591304906436
Fix,GT,37.4875575,-122.2050477,,31.79122,0.1,275.2968,1591304907436
Fix,GT,37.4876005,-122.2054033,,31.82278,0.1,275.3061,1591304908436
Fix,GT,37.487644,-122.205759,,31.841717,0.1,275.47513,1591304909436
Fix,GT,37.4876884,-122.2061148,,31.86317,0.1,275.67444,1591304910436
Fix,GT,37.4877339,-122.2064708,,31.897083,0.1,275.8897,1591304911436
Fix,GT,37.4877811,-122.2068269,,31.937395,0.1,276.33826,1591304912436
Fix,GT,37.4878308,-122.2071827,,31.95868,0.1,276.93024,1591304913436
Fix,GT,37.4878834,-122.2075381,,31.945614,0.1,277.4579,1591304914436
Fix,GT,37.4879385,-122.2078925,,31.916328,0.1,278.066,1591304915436
Fix,GT,37.4879968,-122.2082457,,31.859093,0.1,278.7597,1591304916436
Fix,GT,37.4880586,-122.2085972,,31.783104,0.1,279.49036,1591304917436
Fix,GT,37.4881235,-122.2089468,,31.714611,0.1,280.13974,1591304918436
Fix,GT,37.4881911,-122.2092949,,31.639568,0.1,280.6663,1591304919436
Fix,GT,37.4882609,-122.2096415,,31.56372,0.1,281.13785,1591304920436
Fix,GT,37.4883328,-122.2099865,,31.533346,0.1,281.65826,1591304921436
Fix,GT,37.4884075,-122.2103305,,31.52776,0.1,282.29657,1591304922436
Fix,GT,37.4884856,-122.210673,,31.437449,0.1,283.09747,1591304923436
Fix,GT,37.4885672,-122.2110123,,31.232412,0.1,283.9065,1591304924436
Fix,GT,37.4886513,-122.211348,,30.99926,0.1,284.4899,1591304925436
Fix,GT,37.488737,-122.2116804,,30.788853,0.1,284.92786,1591304926436
Fix,GT,37.4888248,-122.2120098,,30.612421,0.1,285.63235,1591304927436
Fix,GT,37.4889156,-122.2123357,,30.444447,0.1,286.36096,1591304928436
Fix,GT,37.489009,-122.2126583,,30.278511,0.1,287.03033,1591304929436
Fix,GT,37.4891053,-122.2129782,,30.210205,0.1,287.83545,1591304930436
Fix,GT,37.4892049,-122.2132962,,30.245163,0.1,288.5926,1591304931436
Fix,GT,37.4893078,-122.2136133,,30.29906,0.1,289.19946,1591304932436
Fix,GT,37.4894134,-122.2139298,,30.373764,0.1,289.75488,1591304933436
Fix,GT,37.4895218,-122.2142458,,30.468773,0.1,290.28558,1591304934436
Fix,GT,37.4896328,-122.2145613,,30.544346,0.1,290.8906,1591304935436
Fix,GT,37.4897467,-122.2148762,,30.636105,0.1,291.45944,1591304936436
Fix,GT,37.4898637,-122.2151908,,30.753086,0.1,292.015,1591304937436
Fix,GT,37.4899834,-122.2155047,,30.760406,0.1,292.67352,1591304938436
Fix,GT,37.4901057,-122.2158161,,30.609125,0.1,293.33673,1591304939436
Fix,GT,37.4902295,-122.2161238,,30.334017,0.1,293.71088,1591304940436
Fix,GT,37.4903528,-122.2164279,,30.031979,0.1,293.62915,1591304941436
Fix,GT,37.4904744,-122.2167298,,29.821278,0.1,293.58197,1591304942436
Fix,GT,37.4905966,-122.2170295,,29.711294,0.1,294.2982,1591304943436
Fix,GT,37.4907222,-122.2173258,,29.640987,0.1,295.14062,1591304944436
Fix,GT,37.4908497,-122.21762,,29.603258,0.1,295.32162,1591304945436
Fix,GT,37.4909778,-122.2179137,,29.634712,0.1,295.53802,1591304946436
Fix,GT,37.4911071,-122.2182075,,29.737091,0.1,295.75732,1591304947436
Fix,GT,37.4912375,-122.218502,,29.860199,0.1,295.84833,1591304948436
Fix,GT,37.4913684,-122.2187977,,29.931253,0.1,295.7868,1591304949436
Fix,GT,37.4914989,-122.2190933,,29.788233,0.1,295.6649,1591304950436
Fix,GT,37.4916279,-122.2193864,,29.4281,0.1,295.69644,1591304951436
Fix,GT,37.4917557,-122.2196751,,28.926142,0.1,295.8455,1591304952436
Fix,GT,37.4918809,-122.2199575,,28.194923,0.1,295.77023,1591304953436
Fix,GT,37.4920024,-122.2202324,,27.465565,0.1,295.72623,1591304954436
Fix,GT,37.4921215,-122.2205015,,27.024231,0.1,295.86066,1591304955436
Fix,GT,37.4922399,-122.2207675,,26.916058,0.1,295.92838,1591304956436
Fix,GT,37.4923586,-122.2210341,,27.091389,0.1,295.95172,1591304957436
Fix,GT,37.4924779,-122.2213023,,27.2598,0.1,295.87735,1591304958436
Fix,GT,37.4925977,-122.2215726,,27.428467,0.1,295.81476,1591304959436
Fix,GT,37.4927184,-122.2218443,,27.585165,0.1,295.95944,1591304960436
Fix,GT,37.4928403,-122.2221171,,27.742153,0.1,296.10626,1591304961436
Fix,GT,37.4929629,-122.2223911,,27.805197,0.1,296.0599,1591304962436
Fix,GT,37.4930847,-122.222665,,27.572803,0.1,295.88803,1591304963436
Fix,GT,37.493204,-122.222935,,27.005674,0.1,295.58148,1591304964436
Fix,GT,37.4933187,-122.2231997,,26.32483,0.1,294.99942,1591304965436
Fix,GT,37.4934278,-122.2234597,,25.724648,0.1,294.1287,1591304966436
Fix,GT,37.493532,-122.2237165,,25.266247,0.1,293.47046,1591304967436
Fix,GT,37.4936336,-122.2239711,,25.122234,0.1,293.329,1591304968436
Fix,GT,37.4937349,-122.224226,,25.28827,0.1,293.18475,1591304969436
Fix,GT,37.4938357,-122.2244832,,25.41587,0.1,292.66428,1591304970436
Fix,GT,37.4939345,-122.224743,,25.511913,0.1,291.93213,1591304971436
Fix,GT,37.4940316,-122.2250053,,25.67743,0.1,291.46387,1591304972436
Fix,GT,37.4941278,-122.2252706,,25.895405,0.1,290.872,1591304973436
Fix,GT,37.4942221,-122.22554,,26.178886,0.1,289.99963,1591304974436
Fix,GT,37.4943146,-122.225814,,26.49603,0.1,289.35052,1591304975436
Fix,GT,37.4944059,-122.2260927,,26.79903,0.1,288.75482,1591304976436
Fix,GT,37.4944961,-122.2263756,,27.096104,0.1,288.43878,1591304977436
Fix,GT,37.494586,-122.2266618,,27.339535,0.1,288.1056,1591304978436
Fix,GT,37.4946749,-122.2269513,,27.549099,0.1,287.5669,1591304979436
Fix,GT,37.4947625,-122.2272441,,27.760902,0.1,287.1089,1591304980436
Fix,GT,37.4948493,-122.2275401,,28.032227,0.1,286.7762,1591304981436
Fix,GT,37.4949356,-122.2278399,,28.363853,0.1,286.4865,1591304982436
Fix,GT,37.4950223,-122.2281437,,28.703403,0.1,286.4464,1591304983436
Fix,GT,37.4951103,-122.2284508,,29.007114,0.1,286.44586,1591304984436
Fix,GT,37.4951985,-122.2287609,,29.230963,0.1,286.16248,1591304985436
Fix,GT,37.4952859,-122.2290738,,29.418526,0.1,286.01675,1591304986436
Fix,GT,37.495374,-122.229389,,29.66845,0.1,286.13678,1591304987436
Fix,GT,37.4954633,-122.2297068,,29.938263,0.1,286.1228,1591304988436
Fix,GT,37.4955527,-122.2300276,,30.186367,0.1,285.81696,1591304989436
Fix,GT,37.4956417,-122.2303516,,30.416286,0.1,285.70456,1591304990436
Fix,GT,37.4957318,-122.2306779,,30.654778,0.1,286.01212,1591304991436
Fix,GT,37.4958239,-122.2310061,,30.861877,0.1,286.2187,1591304992436
Fix,GT,37.4959162,-122.2313345,,30.611864,0.1,286.1451,1591304993436
Fix,GT,37.4960066,-122.231657,,29.816517,0.1,286.14804,1591304994436
Fix,GT,37.4960955,-122.2319706,,29.094856,0.1,286.4307,1591304995436
Fix,GT,37.4961837,-122.232277,,28.560017,0.1,286.6015,1591304996436
Fix,GT,37.4962708,-122.2325793,,28.350157,0.1,286.4548,1591304997436
Fix,GT,37.496357,-122.232882,,28.540882,0.1,286.3718,1591304998436
Fix,GT,37.4964441,-122.2331872,,28.783077,0.1,286.57727,1591304999436
Fix,GT,37.4965326,-122.2334943,,28.985962,0.1,286.55035,1591305000436
Fix,GT,37.4966214,-122.2338037,,29.17636,0.1,286.4018,1591305001436
Fix,GT,37.4967106,-122.2341155,,29.415104,0.1,286.7072,1591305002436
Fix,GT,37.496803,-122.2344289,,29.683365,0.1,287.5337,1591305003436
Fix,GT,37.4969006,-122.2347431,,29.938217,0.1,288.55292,1591305004436
Fix,GT,37.497003,-122.2350579,,30.177032,0.1,289.41516,1591305005436
Fix,GT,37.4971102,-122.2353731,,30.39061,0.1,290.39487,1591305006436
Fix,GT,37.4972231,-122.2356876,,30.58537,0.1,291.78583,1591305007436
Fix,GT,37.4973429,-122.2360002,,30.757416,0.1,293.29318,1591305008436
Fix,GT,37.4974698,-122.2363105,,30.894114,0.1,294.5576,1591305009436
Fix,GT,37.4976031,-122.2366183,,31.038681,0.1,296.01654,1591305010436
Fix,GT,37.4977431,-122.2369232,,31.205097,0.1,297.58267,1591305011436
Fix,GT,37.4978913,-122.2372244,,31.376057,0.1,299.45288,1591305012436
Fix,GT,37.4980484,-122.2375206,,31.545162,0.1,301.44965,1591305013436
Fix,GT,37.4982137,-122.237812,,31.692398,0.1,303.06073,1591305014436
Fix,GT,37.4983863,-122.2380987,,31.819487,0.1,304.70013,1591305015436
Fix,GT,37.4985661,-122.23838,,31.975506,0.1,306.4439,1591305016436
Fix,GT,37.4987538,-122.2386556,,32.14098,0.1,308.22995,1591305017436
Fix,GT,37.4989491,-122.2389256,,32.325573,0.1,309.9267,1591305018436
Fix,GT,37.4991519,-122.2391891,,32.405453,0.1,311.78317,1591305019436
Fix,GT,37.4993612,-122.2394441,,32.252567,0.1,313.36694,1591305020436
Fix,GT,37.4995728,-122.2396918,,31.966843,0.1,313.96628,1591305021436
Fix,GT,37.4997834,-122.2399363,,31.735914,0.1,314.15063,1591305022436
Fix,GT,37.499994,-122.240179,,31.717148,0.1,314.38,1591305023436
Fix,GT,37.5002057,-122.2404212,,31.852167,0.1,314.55267,1591305024436
Fix,GT,37.5004187,-122.2406635,,31.92361,0.1,314.65747,1591305025436
Fix,GT,37.5006317,-122.2409055,,31.82695,0.1,314.65085,1591305026436
Fix,GT,37.5008437,-122.2411465,,31.659307,0.1,314.61304,1591305027436
Fix,GT,37.5010546,-122.2413861,,31.465069,0.1,314.7565,1591305028436
Fix,GT,37.5012649,-122.2416233,,31.300413,0.1,315.03064,1591305029436
Fix,GT,37.5014751,-122.2418584,,31.20544,0.1,315.11075,1591305030436
Fix,GT,37.5016845,-122.2420933,,31.111435,0.1,314.86188,1591305031436
Fix,GT,37.501892,-122.2423286,,30.9684,0.1,314.58545,1591305032436
Fix,GT,37.5020977,-122.2425634,,30.695461,0.1,314.53384,1591305033436
Fix,GT,37.5023009,-122.2427949,,30.18451,0.1,314.65918,1591305034436
Fix,GT,37.502501,-122.2430215,,29.6068,0.1,314.7674,1591305035436
Fix,GT,37.5026977,-122.2432436,,29.183563,0.1,314.80463,1591305036436
Fix,GT,37.5028927,-122.2434634,,29.049648,0.1,314.9223,1591305037436
Fix,GT,37.503088,-122.2436826,,29.101078,0.1,315.04092,1591305038436
Fix,GT,37.503284,-122.243902,,29.175175,0.1,315.05643,1591305039436
Fix,GT,37.5034804,-122.2441224,,29.290611,0.1,314.928,1591305040436
Fix,GT,37.5036768,-122.2443444,,29.381248,0.1,314.62256,1591305041436
Fix,GT,37.5038727,-122.2445686,,29.436888,0.1,314.25693,1591305042436
Fix,GT,37.5040684,-122.2447939,,29.471981,0.1,314.32834,1591305043436
Fix,GT,37.5042653,-122.2450184,,29.527433,0.1,314.749,1591305044436
Fix,GT,37.5044631,-122.2452414,,29.491646,0.1,314.93903,1591305045436
Fix,GT,37.5046605,-122.2454632,,29.302555,0.1,314.96912,1591305046436
Fix,GT,37.5048564,-122.2456834,,29.082188,0.1,314.9497,1591305047436
Fix,GT,37.5050511,-122.2459025,,28.983656,0.1,314.88138,1591305048436
Fix,GT,37.5052456,-122.2461219,,29.07248,0.1,314.79654,1591305049436
Fix,GT,37.5054407,-122.2463426,,29.222675,0.1,314.76987,1591305050436
Fix,GT,37.5056368,-122.2465643,,29.363205,0.1,314.79932,1591305051436
Fix,GT,37.5058337,-122.246787,,29.46579,0.1,314.71848,1591305052436
Fix,GT,37.506031,-122.2470109,,29.555065,0.1,314.64496,1591305053436
Fix,GT,37.5062286,-122.247236,,29.662407,0.1,314.63324,1591305054436
Fix,GT,37.506427,-122.2474619,,29.78032,0.1,314.55743,1591305055436
Fix,GT,37.5066263,-122.2476883,,29.898151,0.1,314.6975,1591305056436
Fix,GT,37.5068268,-122.2479152,,30.001175,0.1,314.73062,1591305057436
Fix,GT,37.5070277,-122.248143,,30.089489,0.1,314.6931,1591305058436
Fix,GT,37.5072291,-122.2483715,,30.172146,0.1,314.63812,1591305059436
Fix,GT,37.507431,-122.248601,,30.265312,0.1,314.61295,1591305060436
Fix,GT,37.5076337,-122.248831,,30.37684,0.1,314.75955,1591305061436
Fix,GT,37.5078375,-122.2490612,,30.482761,0.1,314.80606,1591305062436
Fix,GT,37.5080418,-122.2492924,,30.589602,0.1,314.70288,1591305063436
Fix,GT,37.5082469,-122.2495246,,30.701359,0.1,314.7922,1591305064436
Fix,GT,37.5084531,-122.2497573,,30.83419,0.1,314.88226,1591305065436
Fix,GT,37.5086602,-122.2499909,,30.96449,0.1,314.7532,1591305066436
Fix,GT,37.5088674,-122.2502261,,31.050415,0.1,314.65088,1591305067436
Fix,GT,37.509075,-122.2504621,,31.120476,0.1,314.7106,1591305068436
Fix,GT,37.5092835,-122.2506981,,31.19854,0.1,314.86243,1591305069436
Fix,GT,37.509493,-122.2509343,,31.286623,0.1,314.84814,1591305070436
Fix,GT,37.5097027,-122.2511716,,31.3901,0.1,314.70734,1591305071436
Fix,GT,37.5099128,-122.2514101,,31.486609,0.1,314.69122,1591305072436
Fix,GT,37.5101239,-122.251649,,31.595922,0.1,314.7793,1591305073436
Fix,GT,37.5103356,-122.251889,,31.753506,0.1,314.68396,1591305074436
Fix,GT,37.5105483,-122.2521308,,31.931555,0.1,314.55618,1591305075436
Fix,GT,37.5107616,-122.2523745,,32.006065,0.1,314.4106,1591305076436
Fix,GT,37.5109742,-122.2526178,,31.796886,0.1,314.5233,1591305077436
Fix,GT,37.5111856,-122.2528577,,31.48381,0.1,314.88037,1591305078436
Fix,GT,37.5113964,-122.2530948,,31.363766,0.1,314.9516,1591305079436
Fix,GT,37.5116063,-122.2533317,,31.299091,0.1,314.5999,1591305080436
Fix,GT,37.5118147,-122.2535696,,31.217812,0.1,314.42352,1591305081436
Fix,GT,37.5120223,-122.2538068,,31.063042,0.1,314.59033,1591305082436
Fix,GT,37.5122288,-122.2540416,,30.746277,0.1,314.57013,1591305083436
Fix,GT,37.5124324,-122.2542741,,30.327919,0.1,314.3529,1591305084436
Fix,GT,37.5126324,-122.2545041,,29.874031,0.1,314.27393,1591305085436
Fix,GT,37.5128294,-122.2547303,,29.367085,0.1,314.4288,1591305086436
Fix,GT,37.5130236,-122.2549524,,28.996458,0.1,314.52832,1591305087436
Fix,GT,37.5132165,-122.255172,,28.827122,0.1,314.70398,1591305088436
Fix,GT,37.5134091,-122.2553892,,28.590176,0.1,314.93176,1591305089436
Fix,GT,37.5136001,-122.2556035,,28.27843,0.1,315.00928,1591305090436
Fix,GT,37.5137892,-122.2558158,,28.06578,0.1,314.91687,1591305091436
Fix,GT,37.5139767,-122.2560278,,27.988825,0.1,314.68143,1591305092436
Fix,GT,37.5141639,-122.2562404,,28.04086,0.1,314.68243,1591305093436
Fix,GT,37.5143518,-122.2564535,,28.189182,0.1,314.70844,1591305094436
Fix,GT,37.5145407,-122.2566679,,28.362932,0.1,314.5655,1591305095436
Fix,GT,37.5147303,-122.2568839,,28.489073,0.1,314.5641,1591305096436
Fix,GT,37.5149208,-122.2571005,,28.595688,0.1,314.69193,1591305097436
Fix,GT,37.5151125,-122.2573176,,28.702929,0.1,314.75485,1591305098436
Fix,GT,37.515305,-122.2575353,,28.815643,0.1,314.76428,1591305099436
Fix,GT,37.5154979,-122.2577542,,28.949425,0.1,314.6329,1591305100436
Fix,GT,37.5156915,-122.257975,,29.114382,0.1,314.4515,1591305101436
Fix,GT,37.5158859,-122.2581974,,29.294964,0.1,314.4502,1591305102436
Fix,GT,37.5160819,-122.2584212,,29.51176,0.1,314.6319,1591305103436
Fix,GT,37.51628,-122.2586458,,29.732979,0.1,314.82373,1591305104436
Fix,GT,37.5164799,-122.2588711,,29.888401,0.1,314.9301,1591305105436
Fix,GT,37.5166805,-122.2590969,,29.873613,0.1,314.87097,1591305106436
Fix,GT,37.51688,-122.2593221,,29.596054,0.1,314.77698,1591305107436
Fix,GT,37.5170763,-122.2595444,,29.056295,0.1,314.75238,1591305108436
Fix,GT,37.5172689,-122.2597621,,28.494644,0.1,314.85895,1591305109436
Fix,GT,37.5174583,-122.2599759,,28.079529,0.1,314.78497,1591305110436
Fix,GT,37.5176448,-122.2601873,,27.74423,0.1,314.64902,1591305111436
Fix,GT,37.5178294,-122.2603971,,27.548687,0.1,314.69043,1591305112436
Fix,GT,37.5180132,-122.2606056,,27.416012,0.1,314.7504,1591305113436
Fix,GT,37.5181964,-122.2608128,,27.350842,0.1,314.87195,1591305114436
Fix,GT,37.5183802,-122.2610193,,27.43259,0.1,315.0917,1591305115436
Fix,GT,37.5185654,-122.2612262,,27.599266,0.1,315.07962,1591305116436
Fix,GT,37.5187513,-122.2614353,,27.7956,0.1,314.7834,1591305117436
Fix,GT,37.5189377,-122.261647,,28.021877,0.1,314.60385,1591305118436
Fix,GT,37.5191254,-122.2618607,,28.197596,0.1,314.57394,1591305119436
Fix,GT,37.5193136,-122.2620751,,28.164555,0.1,314.55338,1591305120436
Fix,GT,37.5195008,-122.2622881,,27.853539,0.1,314.7279,1591305121436
Fix,GT,37.5196858,-122.2624975,,27.437819,0.1,314.78714,1591305122436
Fix,GT,37.5198678,-122.262704,,27.06138,0.1,314.6408,1591305123436
Fix,GT,37.5200478,-122.2629081,,26.792805,0.1,314.8098,1591305124436
Fix,GT,37.5202271,-122.2631097,,26.660648,0.1,315.10638,1591305125436
Fix,GT,37.5204065,-122.2633102,,26.65012,0.1,315.10562,1591305126436
Fix,GT,37.5205854,-122.2635111,,26.605738,0.1,314.84665,1591305127436
Fix,GT,37.5207629,-122.263712,,26.449465,0.1,314.67603,1591305128436
Fix,GT,37.520939,-122.2639122,,26.275545,0.1,314.58234,1591305129436
Fix,GT,37.5211138,-122.2641113,,26.114668,0.1,314.60062,1591305130436
Fix,GT,37.5212878,-122.2643091,,25.995026,0.1,314.7002,1591305131436
Fix,GT,37.5214616,-122.2645057,,25.935368,0.1,314.89816,1591305132436
Fix,GT,37.5216355,-122.2647012,,25.873085,0.1,315.0288,1591305133436
Fix,GT,37.521809,-122.2648956,,25.72231,0.1,315.00046,1591305134436
Fix,GT,37.5219813,-122.2650893,,25.637161,0.1,314.92804,1591305135436
Fix,GT,37.5221532,-122.2652833,,25.704847,0.1,314.80774,1591305136436
Fix,GT,37.5223254,-122.2654781,,25.744633,0.1,314.75305,1591305137436
Fix,GT,37.5224972,-122.2656731,,25.655912,0.1,314.55988,1591305138436
Fix,GT,37.5226672,-122.2658682,,25.47182,0.1,314.09573,1591305139436
Fix,GT,37.5228353,-122.2660633,,25.343212,0.1,314.03842,1591305140436
Fix,GT,37.5230032,-122.2662569,,25.25127,0.1,314.36633,1591305141436
Fix,GT,37.5231707,-122.2664488,,25.061728,0.1,314.45374,1591305142436
Fix,GT,37.5233372,-122.2666386,,24.896004,0.1,314.6638,1591305143436
Fix,GT,37.5235038,-122.2668265,,24.812624,0.1,314.81442,1591305144436
Fix,GT,37.5236694,-122.2670142,,24.712837,0.1,314.55453,1591305145436
Fix,GT,37.5238341,-122.267202,,24.707478,0.1,314.57785,1591305146436
Fix,GT,37.524,-122.2673893,,24.79802,0.1,315.05545,1591305147436
Fix,GT,37.5241672,-122.2675754,,24.747927,0.1,315.3112,1591305148436
Fix,GT,37.524334,-122.2677601,,24.58471,0.1,315.43826,1591305149436
Fix,GT,37.5244996,-122.2679433,,24.39946,0.1,315.33588,1591305150436
Fix,GT,37.5246635,-122.2681256,,24.217733,0.1,315.2106,1591305151436
Fix,GT,37.524826,-122.268307,,24.037273,0.1,315.00937,1591305152436
Fix,GT,37.5249869,-122.2684878,,23.910713,0.1,314.85938,1591305153436
Fix,GT,37.5251471,-122.2686684,,23.920376,0.1,314.91495,1591305154436
Fix,GT,37.525308,-122.2688493,,24.0168,0.1,314.9798,1591305155436
Fix,GT,37.5254696,-122.2690308,,24.139719,0.1,314.96497,1591305156436
Fix,GT,37.5256321,-122.2692136,,24.293736,0.1,314.8969,1591305157436
Fix,GT,37.5257956,-122.269398,,24.4866,0.1,314.7719,1591305158436
Fix,GT,37.5259601,-122.2695843,,24.689917,0.1,314.75406,1591305159436
Fix,GT,37.5261262,-122.2697722,,24.927372,0.1,314.78668,1591305160436
Fix,GT,37.526294,-122.269962,,25.209686,0.1,314.78247,1591305161436
Fix,GT,37.5264639,-122.2701541,,25.51075,0.1,314.78992,1591305162436
Fix,GT,37.5266357,-122.2703483,,25.800203,0.1,314.9096,1591305163436
Fix,GT,37.52681,-122.2705437,,26.083656,0.1,315.1592,1591305164436
Fix,GT,37.5269869,-122.2707405,,26.339207,0.1,315.3749,1591305165436
Fix,GT,37.5271658,-122.270938,,26.500149,0.1,315.54794,1591305166436
Fix,GT,37.5273454,-122.2711357,,26.483242,0.1,315.3785,1591305167436
Fix,GT,37.5275232,-122.2713342,,26.338284,0.1,314.91135,1591305168436
Fix,GT,37.5276988,-122.2715333,,26.193329,0.1,314.58838,1591305169436
Fix,GT,37.5278732,-122.271732,,26.097187,0.1,314.5827,1591305170436
Fix,GT,37.5280476,-122.2719297,,26.064945,0.1,314.8001,1591305171436
Fix,GT,37.5282222,-122.2721271,,26.087025,0.1,314.77054,1591305172436
Fix,GT,37.5283965,-122.2723252,,26.11853,0.1,314.46033,1591305173436
