MessageType,Provider,LatitudeDegrees,LongitudeDegrees,AltitudeMeters,SpeedMps,AccuracyMeters,BearingDegrees,UnixTimeMillis
Fix,GT,37.3178861,-121.9483661,,0.04961714,0.1,89.77515,1607638645445
Fix,GT,37.3178861,-121.9483661,,0.048646674,0.1,89.77466,1607638646445
Fix,GT,37.3178861,-121.9483661,,0.047648616,0.1,89.77426,1607638647445
Fix,GT,37.3178861,-121.9483661,,0.047963046,0.1,89.77405,1607638648445
Fix,GT,37.3178861,-121.9483661,,0.04906352,0.1,89.77457,1607638649445
Fix,GT,37.3178861,-121.9483661,,0.048201635,0.1,89.773346,1607638650445
Fix,GT,37.317886,-121.9483661,,0.046650644,0.1,89.771484,1607638651445
Fix,GT,37.317886,-121.9483661,,0.04479914,0.1,89.772156,1607638652445
Fix,GT,37.317886,-121.9483661,,0.04314947,0.1,89.77185,1607638653445
Fix,GT,37.317886,-121.9483661,,0.046695188,0.1,89.77124,1607638654445
Fix,GT,37.317886,-121.9483661,,0.054269716,0.1,89.77063,1607638655445
Fix,GT,37.317886,-121.9483661,,0.061728097,0.1,89.770386,1607638656445
Fix,GT,37.3178858,-121.9483661,,0.07019238,0.1,89.77008,1607638657445
Fix,GT,37.3178831,-121.9483659,,0.079171896,0.1,89.76965,1607638658445
Fix,GT,37.3178799,-121.9483657,,0.08951706,0.1,89.769226,1607638659445
Fix,GT,37.3178794,-121.9483656,,0.10286498,0.1,89.76892,1607638660445
Fix,GT,37.3178789,-121.9483656,,0.123188,0.1,89.76874,1607638661445
Fix,GT,37.317878,-121.9483655,,0.14841717,0.1,89.76898,1607638662445
Fix,GT,37.3178764,-121.9483653,,0.16832548,0.1,89.76895,1607638663445
Fix,GT,37.3178746,-121.9483652,,0.17934936,0.1,89.76813,1607638664445
Fix,GT,37.3178726,-121.9483651,,0.18336335,0.1,89.76721,1607638665445
Fix,GT,37.3178703,-121.9483649,,0.19258669,0.1,89.76709,1607638666445
Fix,GT,37.3178687,-121.9483647,,0.2137179,0.1,89.76697,1607638667445
Fix,GT,37.3178682,-121.9483646,,0.24005753,0.1,89.765564,1607638668445
Fix,GT,37.3178678,-121.9483646,,0.26527902,0.1,89.765045,1607638669445
Fix,GT,37.3178673,-121.9483646,,0.28707254,0.1,89.76489,1607638670445
Fix,GT,37.3178649,-121.9483648,,0.2839906,0.1,89.76361,1607638671445
Fix,GT,37.3178613,-121.9483635,,0.45062253,0.1,89.76416,1607638672445
Fix,GT,37.3178588,-121.948354,,0.93014777,0.1,90.880554,1607638673445
Fix,GT,37.3178556,-121.9483348,,1.5666103,0.1,95.72946,1607638674445
Fix,GT,37.3178502,-121.9483071,,2.4113255,0.1,105.28009,1607638675445
Fix,GT,37.3178465,-121.9482702,,3.3286586,0.1,113.12494,1607638676445
Fix,GT,37.3178523,-121.9482284,,3.7111092,0.1,111.93085,1607638677445
Fix,GT,37.3178655,-121.9481932,,3.0377944,0.1,106.063995,1607638678445
Fix,GT,37.3178775,-121.9481725,,2.183092,0.1,101.42325,1607638679445
Fix,GT,37.3178876,-121.9481593,,2.1855063,0.1,98.51666,1607638680445
Fix,GT,37.3178883,-121.9481408,,2.347929,0.1,104.72241,1607638681445
Fix,GT,37.3178647,-121.9481196,,2.3209372,0.1,127.298584,1607638682445
Fix,GT,37.3178245,-121.9481145,,2.4584737,0.1,154.92975,1607638683445
Fix,GT,37.3177889,-121.9481227,,2.6208596,0.1,172.83856,1607638684445
Fix,GT,37.3177653,-121.948128,,2.8929262,0.1,179.55658,1607638685445
Fix,GT,37.3177457,-121.948127,,3.4325018,0.1,180.49556,1607638686445
Fix,GT,37.3177207,-121.9481225,,3.917222,0.1,180.74634,1607638687445
Fix,GT,37.3176729,-121.9481185,,4.102364,0.1,181.37003,1607638688445
Fix,GT,37.3176137,-121.9481174,,4.090622,0.1,181.07286,1607638689445
Fix,GT,37.3175715,-121.9481166,,4.030096,0.1,179.75404,1607638690445
Fix,GT,37.3175327,-121.9481156,,3.9977574,0.1,178.8197,1607638691445
Fix,GT,37.3174935,-121.948115,,4.32917,0.1,178.69885,1607638692445
Fix,GT,37.317451,-121.9481149,,4.7736216,0.1,179.28467,1607638693445
Fix,GT,37.317407,-121.9481162,,4.784579,0.1,180.58838,1607638694445
Fix,GT,37.3173646,-121.9481185,,4.4195743,0.1,181.39723,1607638695445
Fix,GT,37.3173275,-121.9481207,,3.5181534,0.1,181.23293,1607638696445
Fix,GT,37.3173006,-121.9481227,,2.2422159,0.1,180.94499,1607638697445
Fix,GT,37.3172838,-121.9481241,,1.5089633,0.1,180.73923,1607638698445
Fix,GT,37.3172689,-121.9481269,,1.9079819,0.1,183.55211,1607638699445
Fix,GT,37.3172502,-121.9481392,,2.737204,0.1,199.95764,1607638700445
Fix,GT,37.3172354,-121.9481693,,3.5738168,0.1,230.03484,1607638701445
Fix,GT,37.3172289,-121.9482167,,5.0943804,0.1,256.36423,1607638702445
Fix,GT,37.3172288,-121.9482845,,7.04779,0.1,270.0359,1607638703445
Fix,GT,37.3172329,-121.948374,,8.832625,0.1,273.89804,1607638704445
Fix,GT,37.317239,-121.9484826,,10.407649,0.1,274.23154,1607638705445
Fix,GT,37.3172457,-121.9486076,,11.721493,0.1,273.59207,1607638706445
Fix,GT,37.3172522,-121.9487435,,12.296653,0.1,273.39136,1607638707445
Fix,GT,37.3172597,-121.9488826,,12.410543,0.1,274.04263,1607638708445
Fix,GT,37.3172684,-121.9490229,,12.502898,0.1,274.40588,1607638709445
Fix,GT,37.317277,-121.9491625,,12.294367,0.1,274.16357,1607638710445
Fix,GT,37.3172846,-121.9492995,,12.045906,0.1,273.90887,1607638711445
Fix,GT,37.3172916,-121.9494326,,11.502694,0.1,273.74207,1607638712445
Fix,GT,37.3172978,-121.9495558,,10.205119,0.1,273.5126,1607638713445
Fix,GT,37.317303,-121.9496606,,8.40601,0.1,273.71277,1607638714445
Fix,GT,37.3173077,-121.9497452,,6.6425815,0.1,273.95697,1607638715445
Fix,GT,37.3173114,-121.9498102,,4.9821463,0.1,273.8693,1607638716445
Fix,GT,37.3173138,-121.9498575,,3.4149418,0.1,273.7365,1607638717445
Fix,GT,37.3173152,-121.9498879,,1.9576344,0.1,273.39172,1607638718445
Fix,GT,37.3173157,-121.9499017,,0.66262347,0.1,273.13574,1607638719445
Fix,GT,37.3173158,-121.9499042,,0.06630771,0.1,273.09027,1607638720445
Fix,GT,37.3173157,-121.9499042,,0.0563776,0.1,273.08752,1607638721445
Fix,GT,37.3173158,-121.9499042,,0.050056748,0.1,273.0836,1607638722445
Fix,GT,37.3173159,-121.9499042,,0.044441618,0.1,273.0813,1607638723445
Fix,GT,37.3173159,-121.9499043,,0.038183972,0.1,273.0796,1607638724445
Fix,GT,37.317316,-121.9499043,,0.032048922,0.1,273.07812,1607638725445
Fix,GT,37.317316,-121.9499043,,0.026802935,0.1,273.0769,1607638726445
Fix,GT,37.317316,-121.9499043,,0.022444192,0.1,273.07593,1607638727445
Fix,GT,37.317316,-121.9499043,,0.020947127,0.1,273.07513,1607638728445
Fix,GT,37.317316,-121.9499043,,0.02026568,0.1,273.07455,1607638729445
Fix,GT,37.3173159,-121.9499043,,0.015500519,0.1,273.07382,1607638730657
Fix,GT,37.3173159,-121.9499043,,0.01094864,0.1,273.07306,1607638731648
Fix,GT,37.3173159,-121.9499043,,0.008573778,0.1,273.0724,1607638732663
Fix,GT,37.3173159,-121.9499043,,0.0076106912,0.1,273.07184,1607638733657
Fix,GT,37.3173159,-121.9499044,,0.0078998925,0.1,273.0713,1607638734641
Fix,GT,37.3173159,-121.9499044,,0.008246211,0.1,273.07083,1607638735654
Fix,GT,37.3173159,-121.9499044,,0.008878668,0.1,273.07056,1607638736649
Fix,GT,37.3173159,-121.9499044,,0.00911071,0.1,273.07013,1607638737662
Fix,GT,37.3173159,-121.9499044,,0.009800231,0.1,273.06964,1607638738651
Fix,GT,37.3173159,-121.9499044,,0.010854008,0.1,273.06915,1607638739667
Fix,GT,37.3173159,-121.9499044,,0.010436317,0.1,273.06876,1607638740658
Fix,GT,37.3173159,-121.9499044,,0.010049876,0.1,273.06857,1607638741648
Fix,GT,37.3173159,-121.9499044,,0.010708568,0.1,273.0684,1607638742661
Fix,GT,37.3173159,-121.9499045,,0.010394626,0.1,273.06824,1607638743653
Fix,GT,37.3173159,-121.9499045,,0.009351924,0.1,273.06805,1607638744664
Fix,GT,37.3173159,-121.9499046,,0.009036437,0.1,273.06784,1607638745657
Fix,GT,37.3173159,-121.9499047,,0.009019371,0.1,273.06754,1607638746650
Fix,GT,37.3173159,-121.9499048,,0.008337799,0.1,273.0666,1607638747662
Fix,GT,37.3173159,-121.9499048,,0.0073975837,0.1,273.06604,1607638748648
Fix,GT,37.3173159,-121.949905,,0.003873297,0.1,273.05432,1607638749661
Fix,GT,37.3173159,-121.9499046,,0.0007653437,0.1,273.1317,1607638750657
Fix,GT,37.3173159,-121.9499043,,0.0006479287,0.1,273.17474,1607638751647
Fix,GT,37.3173159,-121.9499043,,0.0003364742,0.1,273.1741,1607638752663
Fix,GT,37.3173159,-121.9499043,,0.0,0.1,273.17334,1607638753653
Fix,GT,37.3173159,-121.9499043,,0.0014930638,0.1,273.16107,1607638754667
Fix,GT,37.3173159,-121.9499043,,0.0028482236,0.1,273.1627,1607638755660
Fix,GT,37.3173159,-121.9499043,,0.006991026,0.1,273.16626,1607638756649
Fix,GT,37.3173159,-121.9499043,,0.014331832,0.1,273.1656,1607638757661
Fix,GT,37.3173159,-121.9499043,,0.01701013,0.1,273.16483,1607638758655
Fix,GT,37.3173159,-121.9499043,,0.016353082,0.1,273.16406,1607638759667
Fix,GT,37.3173159,-121.9499043,,0.014718199,0.1,273.16342,1607638760657
Fix,GT,37.3173159,-121.9499043,,0.013388574,0.1,273.16284,1607638761648
Fix,GT,37.3173159,-121.9499043,,0.013012987,0.1,273.16223,1607638762661
Fix,GT,37.3173159,-121.9499043,,0.01431274,0.1,273.16162,1607638763656
Fix,GT,37.3173159,-121.9499043,,0.015667967,0.1,273.16098,1607638764667
Fix,GT,37.3173159,-121.9499043,,0.017317653,0.1,273.16043,1607638765658
Fix,GT,37.3173159,-121.9499043,,0.01928425,0.1,273.1599,1607638766642
Fix,GT,37.3173159,-121.9499043,,0.021932939,0.1,273.15936,1607638767639
Fix,GT,37.3173159,-121.9499043,,0.0236771,0.1,273.15872,1607638768655
Fix,GT,37.3173159,-121.9499043,,0.029378748,0.1,273.15805,1607638769666
Fix,GT,37.3173159,-121.9499043,,0.039254118,0.1,273.15814,1607638770654
Fix,GT,37.3173159,-121.9499043,,0.043135956,0.1,273.15778,1607638771642
Fix,GT,37.3173159,-121.9499043,,0.04198443,0.1,273.1569,1607638772638
Fix,GT,37.3173159,-121.9499043,,0.038700804,0.1,273.15613,1607638773656
Fix,GT,37.3173159,-121.9499043,,0.03733631,0.1,273.15546,1607638774665
Fix,GT,37.3173159,-121.9499043,,0.036605608,0.1,273.1549,1607638775655
Fix,GT,37.3173159,-121.9499043,,0.036159355,0.1,273.1543,1607638776642
Fix,GT,37.3173159,-121.9499043,,0.035493102,0.1,273.15366,1607638777633
Fix,GT,37.3173159,-121.9499043,,0.033157058,0.1,273.153,1607638778642
Fix,GT,37.3173159,-121.9499043,,0.037786175,0.1,273.1524,1607638779636
Fix,GT,37.3173159,-121.9499043,,0.04558623,0.1,273.15182,1607638780652
Fix,GT,37.3173159,-121.9499043,,0.04736497,0.1,273.15125,1607638781641
Fix,GT,37.3173159,-121.9499043,,0.046391778,0.1,273.15048,1607638782639
Fix,GT,37.3173159,-121.9499043,,0.045425273,0.1,273.14984,1607638783655
Fix,GT,37.3173159,-121.9499043,,0.045099888,0.1,273.1492,1607638784667
Fix,GT,37.3173159,-121.9499043,,0.045099888,0.1,273.14868,1607638785660
Fix,GT,37.3173159,-121.9499043,,0.045099888,0.1,273.14807,1607638786649
Fix,GT,37.3173159,-121.9499043,,0.045759052,0.1,273.14746,1607638787660
Fix,GT,37.3173159,-121.9499043,,0.046097722,0.1,273.14676,1607638788655
Fix,GT,37.3173159,-121.9499043,,0.045436643,0.1,273.14606,1607638789662
Fix,GT,37.3173159,-121.9499043,,0.045099888,0.1,273.14545,1607638790657
Fix,GT,37.3173159,-121.9499043,,0.045063898,0.1,273.14487,1607638791648
Fix,GT,37.3173159,-121.9499043,,0.044385165,0.1,273.14423,1607638792659
Fix,GT,37.3173159,-121.9499043,,0.042782545,0.1,273.14355,1607638793651
Fix,GT,37.3173159,-121.9499043,,0.04006679,0.1,273.14282,1607638794667
Fix,GT,37.3173159,-121.9499043,,0.03707949,0.1,273.14218,1607638795658
Fix,GT,37.3173159,-121.9499043,,0.032814346,0.1,273.14157,1607638796649
Fix,GT,37.3173159,-121.9499043,,0.029743234,0.1,273.141,1607638797662
Fix,GT,37.3173159,-121.9499043,,0.029721234,0.1,273.14035,1607638798653
Fix,GT,37.3173159,-121.9499043,,0.030033242,0.1,273.1396,1607638799667
Fix,GT,37.3173159,-121.9499043,,0.031982787,0.1,273.139,1607638800655
Fix,GT,37.3173159,-121.9499043,,0.0343121,0.1,273.1385,1607638801648
Fix,GT,37.3173159,-121.9499043,,0.040979907,0.1,273.13788,1607638802663
Fix,GT,37.3173159,-121.9499043,,0.042691987,0.1,273.1372,1607638803654
Fix,GT,37.3173159,-121.9499043,,0.039329767,0.1,273.1366,1607638804667
Fix,GT,37.3173159,-121.9499043,,0.038,0.1,273.13593,1607638805655
Fix,GT,37.3173159,-121.9499043,,0.03671103,0.1,273.13525,1607638806648
Fix,GT,37.3173159,-121.9499043,,0.03203871,0.1,273.13464,1607638807662
Fix,GT,37.3173159,-121.9499043,,0.024122227,0.1,273.13412,1607638808655
Fix,GT,37.3173159,-121.9499043,,0.016426941,0.1,273.1336,1607638809667
Fix,GT,37.3173159,-121.9499043,,0.011072507,0.1,273.13303,1607638810659
Fix,GT,37.3173159,-121.9499043,,0.0071082315,0.1,273.13226,1607638811650
Fix,GT,37.3173159,-121.9499043,,0.005538189,0.1,273.1314,1607638812656
Fix,GT,37.3173159,-121.9499042,,0.005849282,0.1,273.13065,1607638813754
Fix,GT,37.3173159,-121.9499042,,0.010443989,0.1,273.1305,1607638814466
Fix,GT,37.3173157,-121.9499074,,0.74569124,0.1,273.10034,1607638815657
Fix,GT,37.3173073,-121.9499241,,2.54562,0.1,273.05884,1607638816649
Fix,GT,37.31728,-121.9499596,,4.5953603,0.1,271.95505,1607638817663
Fix,GT,37.3172341,-121.9500113,,6.8536377,0.1,269.5164,1607638818656
Fix,GT,37.3172809,-121.9501145,,9.276861,0.1,267.60794,1607638819668
Fix,GT,37.3173084,-121.9502387,,11.49462,0.1,266.14932,1607638820658
Fix,GT,37.3172991,-121.9503785,,13.551116,0.1,265.03168,1607638821650
Fix,GT,37.3172865,-121.9505434,,15.482961,0.1,264.40527,1607638822661
Fix,GT,37.3172722,-121.9507266,,17.240492,0.1,264.46393,1607638823653
Fix,GT,37.3172577,-121.9509265,,18.746313,0.1,264.6607,1607638824645
Fix,GT,37.3172409,-121.9511462,,20.200203,0.1,264.71124,1607638825651
Fix,GT,37.3172225,-121.9513812,,21.672998,0.1,264.411,1607638826649
Fix,GT,37.3172013,-121.9516353,,22.987638,0.1,263.8073,1607638827663
Fix,GT,37.3171767,-121.9518976,,24.185411,0.1,262.96875,1607638828654
Fix,GT,37.3171475,-121.9521764,,24.905342,0.1,262.34583,1607638829668
Fix,GT,37.3171171,-121.9524533,,25.175322,0.1,261.95273,1607638830657
Fix,GT,37.3170839,-121.9527331,,25.35971,0.1,261.15137,1607638831650
Fix,GT,37.3170464,-121.9530204,,25.592754,0.1,260.33795,1607638832663
Fix,GT,37.3170071,-121.9533046,,25.949417,0.1,260.0441,1607638833655
Fix,GT,37.3169667,-121.953593,,26.354017,0.1,260.1885,1607638834647
Fix,GT,37.3169269,-121.9538923,,26.615341,0.1,260.9125,1607638835662
Fix,GT,37.3168905,-121.9541857,,26.684116,0.1,261.4264,1607638836649
Fix,GT,37.3168551,-121.9544874,,26.702564,0.1,261.7055,1607638837662
Fix,GT,37.3168212,-121.9547829,,26.737408,0.1,261.8785,1607638838653
Fix,GT,37.3167875,-121.9550865,,26.714943,0.1,262.32208,1607638839669
Fix,GT,37.3167573,-121.955381,,26.683361,0.1,263.13083,1607638840655
Fix,GT,37.3167306,-121.9556789,,26.771355,0.1,264.07556,1607638841649
Fix,GT,37.3167069,-121.9559838,,27.000114,0.1,264.58572,1607638842659
Fix,GT,37.3166848,-121.9562874,,27.26395,0.1,264.89664,1607638843655
Fix,GT,37.316664,-121.9565896,,27.244091,0.1,265.25226,1607638844641
Fix,GT,37.3166448,-121.9568984,,27.149393,0.1,265.7834,1607638845651
Fix,GT,37.3166287,-121.9572015,,27.14843,0.1,266.48364,1607638846642
Fix,GT,37.3166154,-121.9575134,,27.178844,0.1,267.37997,1607638847662
Fix,GT,37.3166064,-121.957818,,27.230381,0.1,268.27386,1607638848655
Fix,GT,37.3166006,-121.9581218,,27.293219,0.1,268.9223,1607638849643
Fix,GT,37.3165972,-121.9584349,,27.344406,0.1,269.39804,1607638850659
Fix,GT,37.3165964,-121.9587401,,27.399961,0.1,269.9593,1607638851649
Fix,GT,37.3165986,-121.9590444,,27.473797,0.1,270.73828,1607638852635
Fix,GT,37.3166039,-121.9593579,,27.555618,0.1,271.23315,1607638853648
Fix,GT,37.3166101,-121.9596752,,27.621082,0.1,271.24756,1607638854668
Fix,GT,37.3166149,-121.9599842,,27.699078,0.1,271.17844,1607638855656
Fix,GT,37.316619,-121.9602955,,27.781319,0.1,271.06424,1607638856648
Fix,GT,37.3166235,-121.9606131,,27.856812,0.1,271.0506,1607638857660
Fix,GT,37.3166284,-121.9609239,,27.923279,0.1,271.11084,1607638858648
Fix,GT,37.3166333,-121.9612445,,27.946676,0.1,271.0556,1607638859665
Fix,GT,37.3166382,-121.9615561,,27.927677,0.1,271.10745,1607638860654
Fix,GT,37.3166431,-121.9618681,,27.981537,0.1,271.12845,1607638861644
Fix,GT,37.316648,-121.9621876,,28.046871,0.1,271.10822,1607638862655
Fix,GT,37.3166531,-121.9625098,,27.987688,0.1,271.1155,1607638863675
Fix,GT,37.3166579,-121.9628205,,27.65205,0.1,271.11536,1607638864665
Fix,GT,37.3166621,-121.9631259,,27.191114,0.1,270.86603,1607638865653
Fix,GT,37.316665,-121.9634327,,26.69604,0.1,270.50577,1607638866662
Fix,GT,37.3166662,-121.9637323,,26.251926,0.1,270.0358,1607638867665
Fix,GT,37.3166648,-121.9640282,,25.867107,0.1,269.35516,1607638868671
Fix,GT,37.3166606,-121.964316,,25.589628,0.1,268.62552,1607638869664
Fix,GT,37.3166537,-121.9646079,,25.465149,0.1,268.02017,1607638870678
Fix,GT,37.3166451,-121.9648906,,25.517971,0.1,267.66177,1607638871663
Fix,GT,37.3166355,-121.9651796,,25.790129,0.1,267.657,1607638872663
Fix,GT,37.3166264,-121.9654696,,26.187176,0.1,267.7831,1607638873653
Fix,GT,37.3166172,-121.9657649,,26.544048,0.1,267.65015,1607638874646
Fix,GT,37.3166072,-121.9660685,,26.625038,0.1,267.58557,1607638875658
Fix,GT,37.3165975,-121.9663621,,26.541,0.1,267.61816,1607638876638
Fix,GT,37.3165874,-121.9666689,,26.578907,0.1,267.5982,1607638877664
Fix,GT,37.3165772,-121.9669672,,26.827196,0.1,267.43204,1607638878655
Fix,GT,37.3165664,-121.9672669,,27.06267,0.1,267.26862,1607638879641
Fix,GT,37.3165554,-121.9675741,,27.028389,0.1,267.39087,1607638880648
Fix,GT,37.3165455,-121.9678757,,26.802723,0.1,267.5263,1607638881642
Fix,GT,37.3165363,-121.9681814,,26.489567,0.1,267.93304,1607638882660
Fix,GT,37.3165313,-121.968477,,26.136639,0.1,269.46356,1607638883656
Fix,GT,37.316534,-121.9687725,,25.765985,0.1,271.61804,1607638884665
Fix,GT,37.3165439,-121.9690586,,25.460066,0.1,273.05682,1607638885656
Fix,GT,37.3165572,-121.9693394,,25.193336,0.1,273.3958,1607638886642
Fix,GT,37.3165704,-121.9696209,,24.976175,0.1,272.8441,1607638887638
Fix,GT,37.3165811,-121.9699056,,24.717165,0.1,272.23853,1607638888655
Fix,GT,37.3165896,-121.9701864,,24.396172,0.1,271.72995,1607638889668
Fix,GT,37.3165969,-121.9704573,,24.080864,0.1,271.70563,1607638890660
Fix,GT,37.3166054,-121.9707223,,23.773705,0.1,272.41394,1607638891642
Fix,GT,37.3166187,-121.9709874,,23.455952,0.1,274.19702,1607638892639
Fix,GT,37.3166397,-121.9712533,,23.185211,0.1,276.31665,1607638893656
Fix,GT,37.3166674,-121.971514,,22.933893,0.1,277.99255,1607638894667
Fix,GT,37.3166999,-121.9717648,,22.712627,0.1,279.6654,1607638895654
Fix,GT,37.316739,-121.9720108,,22.51815,0.1,282.21075,1607638896638
Fix,GT,37.316789,-121.9722554,,22.372208,0.1,285.61444,1607638897636
Fix,GT,37.3168525,-121.9724985,,22.261364,0.1,289.54968,1607638898653
Fix,GT,37.3169253,-121.9727285,,22.081978,0.1,292.787,1607638899643
Fix,GT,37.3170086,-121.9729562,,21.804064,0.1,295.55045,1607638900655
Fix,GT,37.3170982,-121.9731715,,21.376049,0.1,296.7312,1607638901643
Fix,GT,37.3172119,-121.9733703,,20.80567,0.1,296.73822,1607638902639
Fix,GT,37.3173537,-121.973549,,19.466908,0.1,296.38824,1607638903654
Fix,GT,37.3175543,-121.9736795,,16.948565,0.1,295.8814,1607638904643
Fix,GT,37.3174968,-121.9738856,,13.487679,0.1,296.46603,1607638905652
Fix,GT,37.3174521,-121.9740419,,10.421795,0.1,298.58557,1607638906642
Fix,GT,37.3174978,-121.9741309,,8.431958,0.1,304.7487,1607638907650
Fix,GT,37.3175468,-121.9741959,,7.715773,0.1,316.21356,1607638908646
Fix,GT,37.3176049,-121.9742426,,7.5203485,0.1,330.24286,1607638909664
Fix,GT,37.3176685,-121.9742673,,7.525836,0.1,345.84848,1607638910658
Fix,GT,37.3177347,-121.9742716,,7.5527945,0.1,358.3922,1607638911647
Fix,GT,37.3178029,-121.9742671,,7.4519815,0.1,2.9467468,1607638912659
Fix,GT,37.3178704,-121.974261,,7.721663,0.1,3.8934631,1607638913647
Fix,GT,37.3179401,-121.9742532,,7.9218845,0.1,5.6116333,1607638914642
Fix,GT,37.3180099,-121.9742368,,7.7593265,0.1,12.169556,1607638915650
Fix,GT,37.3180718,-121.9742095,,6.6483326,0.1,21.362488,1607638916647
Fix,GT,37.3181172,-121.974178,,4.637913,0.1,29.278076,1607638917657
Fix,GT,37.3181444,-121.974154,,2.9128804,0.1,32.809387,1607638918653
Fix,GT,37.3181616,-121.9741385,,1.3886011,0.1,33.46347,1607638919765
Fix,GT,37.3181657,-121.9741347,,0.5990247,0.1,33.47879,1607638920455
Fix,GT,37.3181673,-121.9741334,,0.023031402,0.1,33.486084,1607638921647
Fix,GT,37.3181675,-121.9741337,,0.019920176,0.1,33.491394,1607638922662
Fix,GT,37.3181679,-121.9741339,,0.017515134,0.1,33.49295,1607638923655
Fix,GT,37.3181684,-121.9741341,,0.015721818,0.1,33.49231,1607638924644
Fix,GT,37.3181687,-121.9741341,,0.013507294,0.1,33.49115,1607638925656
Fix,GT,37.318169,-121.9741341,,0.010896239,0.1,33.48993,1607638926647
Fix,GT,37.3181692,-121.9741341,,0.008682497,0.1,33.48883,1607638927662
Fix,GT,37.3181694,-121.9741341,,0.0063151633,0.1,33.487793,1607638928652
Fix,GT,37.3181696,-121.9741341,,0.005195024,0.1,33.48645,1607638929664
Fix,GT,37.3181696,-121.9741341,,0.005957625,0.1,33.485077,1607638930658
Fix,GT,37.3181696,-121.9741341,,0.0069287485,0.1,33.483826,1607638931650
Fix,GT,37.3181696,-121.9741341,,0.007772912,0.1,33.482605,1607638932660
Fix,GT,37.3181696,-121.974134,,0.009230312,0.1,33.481415,1607638933653
Fix,GT,37.3181696,-121.974134,,0.010230183,0.1,33.480347,1607638934644
Fix,GT,37.3181695,-121.9741341,,0.011272094,0.1,33.479218,1607638935657
Fix,GT,37.3181695,-121.9741341,,0.0117047,0.1,33.477966,1607638936649
Fix,GT,37.3181694,-121.9741341,,0.012330348,0.1,33.476746,1607638937662
Fix,GT,37.3181693,-121.9741341,,0.012031816,0.1,33.47525,1607638938653
Fix,GT,37.3181692,-121.974134,,0.0105493525,0.1,33.474426,1607638939766
Fix,GT,37.3181692,-121.974134,,0.010308544,0.1,33.473633,1607638940456
Fix,GT,37.3181691,-121.9741339,,0.009723963,0.1,33.47162,1607638941751
Fix,GT,37.3181691,-121.9741339,,0.0090516955,0.1,33.47058,1607638942461
Fix,GT,37.318169,-121.9741339,,0.007939204,0.1,33.468933,1607638943651
Fix,GT,37.318169,-121.9741338,,0.0059513114,0.1,33.46759,1607638944746
Fix,GT,37.318169,-121.9741338,,0.0053851646,0.1,33.466614,1607638945550
Fix,GT,37.318169,-121.9741338,,0.0045989244,0.1,33.465576,1607638946441
Fix,GT,37.318169,-121.9741337,,0.0030287122,0.1,33.463867,1607638947742
Fix,GT,37.318169,-121.9741337,,0.0028284271,0.1,33.4628,1607638948454
Fix,GT,37.318169,-121.9741336,,0.0024329051,0.1,33.461,1607638949667
Fix,GT,37.318169,-121.9741336,,0.0020805078,0.1,33.459656,1607638950658
Fix,GT,37.318169,-121.9741336,,0.008113065,0.1,33.459076,1607638951650
Fix,GT,37.3181691,-121.9741335,,0.0058476534,0.1,33.461823,1607638952763
Fix,GT,37.3181691,-121.9741335,,0.0036195684,0.1,33.461914,1607638953448
Fix,GT,37.3181691,-121.9741335,,0.004128179,0.1,33.459595,1607638954766
Fix,GT,37.3181691,-121.9741335,,0.004759066,0.1,33.45868,1607638955457
Fix,GT,37.3181691,-121.9741335,,0.0065806312,0.1,33.457184,1607638956751
Fix,GT,37.318169,-121.9741335,,0.0068668313,0.1,33.455933,1607638957562
Fix,GT,37.318169,-121.9741335,,0.007945302,0.1,33.4545,1607638958453
Fix,GT,37.3181695,-121.974133,,0.3633084,0.1,33.453735,1607638959768
Fix,GT,37.3181731,-121.9741299,,0.9841385,0.1,33.688812,1607638960456
Fix,GT,37.3181899,-121.974115,,2.6698751,0.1,34.571136,1607638961752
Fix,GT,37.3182067,-121.9741001,,3.5556836,0.1,34.978424,1607638962461
Fix,GT,37.3182445,-121.974077,,4.133936,0.1,23.647858,1607638963654
Fix,GT,37.3182766,-121.9740894,,3.8832762,0.1,347.83597,1607638964644
Fix,GT,37.3182886,-121.9741315,,3.9696102,0.1,299.82513,1607638965657
Fix,GT,37.3182702,-121.9741752,,5.018632,0.1,251.67429,1607638966648
Fix,GT,37.3182266,-121.9742115,,6.920169,0.1,218.31729,1607638967662
Fix,GT,37.318165,-121.9742505,,8.811606,0.1,207.16472,1607638968653
Fix,GT,37.3180862,-121.9742976,,10.427193,0.1,205.55367,1607638969667
Fix,GT,37.3179979,-121.9743523,,11.489342,0.1,207.01733,1607638970657
Fix,GT,37.3179066,-121.9744145,,11.668849,0.1,209.13142,1607638971648
Fix,GT,37.3178161,-121.9744815,,11.416973,0.1,211.13776,1607638972660
Fix,GT,37.3177307,-121.9745489,,11.127114,0.1,212.4347,1607638973653
Fix,GT,37.3176466,-121.9746174,,10.848449,0.1,212.92479,1607638974667
Fix,GT,37.3175664,-121.9746832,,10.628874,0.1,213.17049,1607638975658
Fix,GT,37.3174881,-121.9747484,,10.449412,0.1,213.46655,1607638976650
Fix,GT,37.3174079,-121.9748152,,10.674828,0.1,213.51323,1607638977664
Fix,GT,37.3173265,-121.9748834,,11.299332,0.1,213.77185,1607638978655
Fix,GT,37.3172384,-121.9749577,,11.962282,0.1,213.9704,1607638979668
Fix,GT,37.3171487,-121.9750332,,12.177188,0.1,214.08684,1607638980658
Fix,GT,37.3170593,-121.9751094,,11.936124,0.1,214.34743,1607638981651
Fix,GT,37.3169717,-121.9751823,,11.000526,0.1,213.041,1607638982662
Fix,GT,37.316891,-121.9752369,,9.642633,0.1,204.90971,1607638983656
Fix,GT,37.3168106,-121.9752561,,8.816094,0.1,184.18365,1607638984668
Fix,GT,37.3167391,-121.9752297,,8.484872,0.1,157.16418,1607638985660
Fix,GT,37.3166874,-121.9751652,,8.553948,0.1,130.1063,1607638986651
Fix,GT,37.3166543,-121.9750752,,9.107707,0.1,112.42157,1607638987665
Fix,GT,37.3166299,-121.9749747,,9.80602,0.1,106.726746,1607638988653
Fix,GT,37.3166059,-121.9748639,,10.845229,0.1,105.20953,1607638989645
Fix,GT,37.3165802,-121.9747365,,12.261887,0.1,104.16409,1607638990657
Fix,GT,37.3165529,-121.9745966,,13.39187,0.1,103.926575,1607638991650
Fix,GT,37.3165226,-121.9744432,,14.31785,0.1,104.03403,1607638992662
Fix,GT,37.3164902,-121.9742819,,15.416096,0.1,104.30832,1607638993654
Fix,GT,37.3164538,-121.9741046,,16.639946,0.1,104.52951,1607638994667
Fix,GT,37.3164156,-121.9739182,,17.773844,0.1,104.30664,1607638995657
Fix,GT,37.3163766,-121.9737205,,18.568913,0.1,103.714355,1607638996648
Fix,GT,37.3163372,-121.9735115,,18.99488,0.1,103.01526,1607638997660
Fix,GT,37.3163008,-121.9733017,,19.316185,0.1,101.72464,1607638998653
Fix,GT,37.316269,-121.9730845,,19.390486,0.1,99.447754,1607638999664
Fix,GT,37.3162453,-121.9728704,,19.221962,0.1,96.86926,1607639000656
Fix,GT,37.3162289,-121.9726579,,19.06521,0.1,94.80859,1607639001646
Fix,GT,37.3162168,-121.9724401,,19.14318,0.1,93.63037,1607639002660
Fix,GT,37.316207,-121.9722252,,19.293825,0.1,93.16327,1607639003653
Fix,GT,37.3161973,-121.9720103,,19.36979,0.1,93.368835,1607639004640
Fix,GT,37.3161861,-121.9717885,,19.41969,0.1,93.878204,1607639005656
Fix,GT,37.3161738,-121.9715727,,19.51695,0.1,94.36679,1607639006641
Fix,GT,37.3161601,-121.9713529,,19.842525,0.1,94.545715,1607639007635
Fix,GT,37.3161462,-121.9711217,,20.576405,0.1,94.10028,1607639008653
Fix,GT,37.3161342,-121.9708812,,21.560772,0.1,93.16766,1607639009668
Fix,GT,37.3161254,-121.9706361,,22.331184,0.1,92.16315,1607639010657
Fix,GT,37.3161199,-121.9703854,,22.831984,0.1,91.13208,1607639011641
Fix,GT,37.3161191,-121.9701273,,23.205528,0.1,89.622894,1607639012635
Fix,GT,37.3161236,-121.9698588,,23.592947,0.1,88.26056,1607639013653
Fix,GT,37.3161311,-121.969587,,24.049393,0.1,87.852325,1607639014666
Fix,GT,37.3161391,-121.9693159,,24.483755,0.1,87.8873,1607639015656
Fix,GT,37.3161471,-121.9690421,,24.796137,0.1,87.80182,1607639016641
Fix,GT,37.3161557,-121.9687635,,25.07618,0.1,87.69458,1607639017632
Fix,GT,37.3161646,-121.9684737,,25.386536,0.1,87.750916,1607639018652
Fix,GT,37.3161736,-121.9681814,,25.67696,0.1,87.80188,1607639019667
Fix,GT,37.3161817,-121.9678926,,26.186972,0.1,88.016235,1607639020656
Fix,GT,37.3161897,-121.9675968,,27.083828,0.1,87.90509,1607639021641
Fix,GT,37.3161992,-121.96729,,27.490067,0.1,87.59506,1607639022636
Fix,GT,37.3162092,-121.9669755,,27.142023,0.1,87.75244,1607639023655
Fix,GT,37.3162184,-121.9666763,,26.530577,0.1,87.75046,1607639024644
Fix,GT,37.3162279,-121.9663771,,25.882534,0.1,87.65344,1607639025657
Fix,GT,37.3162371,-121.9660909,,25.374481,0.1,87.65399,1607639026648
Fix,GT,37.3162462,-121.9658042,,24.887589,0.1,87.64569,1607639027659
Fix,GT,37.316255,-121.9655283,,24.396614,0.1,87.63495,1607639028653
Fix,GT,37.3162638,-121.9652518,,23.943052,0.1,87.57739,1607639029667
Fix,GT,37.316273,-121.9649875,,23.51709,0.1,87.321014,1607639030656
Fix,GT,37.3162819,-121.9647271,,23.102943,0.1,87.65875,1607639031647
Fix,GT,37.3162889,-121.9644653,,22.68266,0.1,88.42044,1607639032661
Fix,GT,37.3162933,-121.9642133,,22.408651,0.1,88.839966,1607639033652
Fix,GT,37.3162968,-121.9639589,,22.194435,0.1,89.10449,1607639034664
Fix,GT,37.3162986,-121.9637119,,21.952766,0.1,89.75104,1607639035656
Fix,GT,37.3162973,-121.963469,,21.581911,0.1,90.730835,1607639036644
Fix,GT,37.316294,-121.9632254,,21.028667,0.1,91.039215,1607639037657
Fix,GT,37.3162908,-121.9629931,,20.368073,0.1,90.80206,1607639038652
Fix,GT,37.3162879,-121.962764,,19.821537,0.1,90.80151,1607639039665
Fix,GT,37.3162849,-121.9625434,,19.58311,0.1,90.88187,1607639040658
Fix,GT,37.316282,-121.9623238,,19.629313,0.1,90.80615,1607639041652
Fix,GT,37.3162796,-121.9620984,,20.021078,0.1,90.74829,1607639042662
Fix,GT,37.3162765,-121.9618704,,20.716972,0.1,90.98523,1607639043655
Fix,GT,37.3162726,-121.9616291,,21.57122,0.1,90.866394,1607639044667
Fix,GT,37.3162694,-121.9613839,,22.41354,0.1,90.73392,1607639045656
Fix,GT,37.3162669,-121.9611293,,23.209003,0.1,90.53851,1607639046645
Fix,GT,37.3162647,-121.9608588,,23.879421,0.1,90.56229,1607639047662
Fix,GT,37.3162619,-121.9605907,,23.99755,0.1,90.77167,1607639048653
Fix,GT,37.3162584,-121.9603176,,23.820604,0.1,90.9317,1607639049666
Fix,GT,37.3162546,-121.9600522,,23.738987,0.1,90.96777,1607639050656
Fix,GT,37.3162512,-121.9597866,,23.745846,0.1,90.743866,1607639051648
Fix,GT,37.3162484,-121.9595147,,23.843021,0.1,90.814514,1607639052661
Fix,GT,37.3162451,-121.9592479,,23.98211,0.1,90.90683,1607639053650
Fix,GT,37.3162419,-121.9589792,,23.91505,0.1,90.68793,1607639054644
Fix,GT,37.3162401,-121.9587079,,23.65428,0.1,90.20068,1607639055655
Fix,GT,37.3162404,-121.9584434,,23.561964,0.1,89.60431,1607639056649
Fix,GT,37.316243,-121.9581739,,23.656286,0.1,88.98578,1607639057661
Fix,GT,37.3162476,-121.9579095,,23.603657,0.1,88.545715,1607639058652
Fix,GT,37.3162544,-121.9576413,,23.354988,0.1,87.828735,1607639059665
Fix,GT,37.3162635,-121.9573814,,23.265661,0.1,87.15021,1607639060656
Fix,GT,37.3162752,-121.9571191,,23.684542,0.1,86.53128,1607639061650
Fix,GT,37.3162897,-121.9568452,,24.34909,0.1,85.93054,1607639062663
Fix,GT,37.3163063,-121.9565709,,24.772533,0.1,85.42926,1607639063655
Fix,GT,37.3163253,-121.9562861,,25.308292,0.1,85.03671,1607639064667
Fix,GT,37.3163452,-121.9560015,,25.808277,0.1,84.94528,1607639065658
Fix,GT,37.3163657,-121.9557124,,26.019222,0.1,84.89499,1607639066650
Fix,GT,37.316387,-121.9554174,,25.874672,0.1,84.820465,1607639067660
Fix,GT,37.3164056,-121.9551314,,25.614574,0.1,85.68497,1607639068649
Fix,GT,37.3164202,-121.9548391,,25.696014,0.1,86.83096,1607639069662
Fix,GT,37.3164303,-121.9545499,,25.867455,0.1,87.92459,1607639070656
Fix,GT,37.3164365,-121.9542607,,25.742847,0.1,88.60138,1607639071649
Fix,GT,37.3164404,-121.953968,,25.446396,0.1,88.68582,1607639072661
Fix,GT,37.3164445,-121.9536852,,25.08005,0.1,88.58392,1607639073653
Fix,GT,37.3164492,-121.9534063,,24.664377,0.1,88.486755,1607639074647
Fix,GT,37.3164547,-121.9531279,,24.219707,0.1,88.26361,1607639075657
Fix,GT,37.3164606,-121.9528592,,23.78385,0.1,88.208435,1607639076650
Fix,GT,37.3164659,-121.9525908,,23.139006,0.1,88.41623,1607639077662
Fix,GT,37.3164703,-121.952341,,21.341139,0.1,88.563354,1607639078653
Fix,GT,37.3164737,-121.9521113,,18.613314,0.1,88.69107,1607639079669
Fix,GT,37.3164762,-121.9519195,,15.849546,0.1,88.6774,1607639080658
Fix,GT,37.3164769,-121.9517578,,13.067001,0.1,90.23343,1607639081649
Fix,GT,37.3164649,-121.9516266,,10.258846,0.1,101.46304,1607639082664
Fix,GT,37.3164335,-121.9515334,,8.308842,0.1,119.056885,1607639083654
Fix,GT,37.3163864,-121.9514736,,6.780357,0.1,140.10333,1607639084666
Fix,GT,37.3163383,-121.951446,,5.241725,0.1,158.00049,1607639085658
Fix,GT,37.3163002,-121.9514348,,3.5758858,0.1,166.66711,1607639086649
Fix,GT,37.3162762,-121.9514295,,1.7269795,0.1,168.68945,1607639087661
Fix,GT,37.3162683,-121.951428,,0.42530137,0.1,168.86548,1607639088651
Fix,GT,37.316267,-121.951428,,0.06052477,0.1,168.8717,1607639089665
Fix,GT,37.3162666,-121.9514282,,0.050807264,0.1,168.87018,1607639090655
Fix,GT,37.3162664,-121.9514284,,0.0428262,0.1,168.86945,1607639091649
Fix,GT,37.3162663,-121.9514284,,0.035146657,0.1,168.86865,1607639092660
Fix,GT,37.3162663,-121.9514284,,0.027819496,0.1,168.86786,1607639093653
Fix,GT,37.3162663,-121.9514284,,0.022456402,0.1,168.86731,1607639094643
Fix,GT,37.3162663,-121.9514284,,0.017548006,0.1,168.86688,1607639095657
Fix,GT,37.3162663,-121.9514284,,0.01295195,0.1,168.86633,1607639096648
Fix,GT,37.3162663,-121.9514284,,0.008670225,0.1,168.8656,1607639097662
Fix,GT,37.3162663,-121.9514284,,0.005217972,0.1,168.86493,1607639098653
Fix,GT,37.3162663,-121.9514284,,0.0020432656,0.1,168.86407,1607639099665
Fix,GT,37.3162663,-121.9514284,,0.0032658272,0.1,168.86346,1607639100652
Fix,GT,37.3162663,-121.9514284,,0.0065022367,0.1,168.86292,1607639101645
Fix,GT,37.3162663,-121.9514284,,0.009702841,0.1,168.86218,1607639102661
Fix,GT,37.3162664,-121.9514284,,0.012619937,0.1,168.86127,1607639103653
Fix,GT,37.3162665,-121.9514283,,0.016827155,0.1,168.86047,1607639104666
Fix,GT,37.3162666,-121.9514282,,0.022751106,0.1,168.85986,1607639105657
Fix,GT,37.3162669,-121.9514281,,0.029113417,0.1,168.85931,1607639106650
Fix,GT,37.3162673,-121.951428,,0.03633611,0.1,168.85876,1607639107661
Fix,GT,37.3162677,-121.9514278,,0.044904947,0.1,168.85803,1607639108654
Fix,GT,37.3162674,-121.9514273,,0.30488545,0.1,168.8659,1607639109667
Fix,GT,37.3162596,-121.9514248,,1.7053859,0.1,168.62982,1607639110658
Fix,GT,37.3162377,-121.951415,,3.5313182,0.1,163.33759,1607639111649
Fix,GT,37.3162038,-121.9513887,,5.2257514,0.1,149.95197,1607639112663
Fix,GT,37.3161703,-121.9513439,,6.4131594,0.1,133.02618,1607639113587
Fix,GT,37.3161394,-121.9512649,,6.783399,0.1,111.75699,1607639114758
Fix,GT,37.3161325,-121.9511968,,7.029471,0.1,96.68628,1607639115650
Fix,GT,37.3161323,-121.9511135,,7.9380245,0.1,90.52661,1607639116649
Fix,GT,37.316132,-121.9510125,,9.938865,0.1,90.92322,1607639117656
Fix,GT,37.3161296,-121.9508879,,11.524626,0.1,91.948425,1607639118673
Fix,GT,37.3161261,-121.9507565,,11.812607,0.1,92.12723,1607639119664
Fix,GT,37.3161226,-121.9506262,,11.621856,0.1,92.266846,1607639120650
Fix,GT,37.3161186,-121.9504953,,10.932658,0.1,92.4888,1607639121669
Fix,GT,37.3161169,-121.9503809,,9.48947,0.1,89.7113,1607639122661
Fix,GT,37.3161254,-121.9502798,,8.419901,0.1,80.84515,1607639123673
Fix,GT,37.3161516,-121.9501974,,7.6568203,0.1,64.00049,1607639124663
Fix,GT,37.3161983,-121.950138,,7.2579317,0.1,39.821472,1607639125677
Fix,GT,37.3162582,-121.9501125,,7.39769,0.1,14.82666,1607639126661
Fix,GT,37.3163259,-121.9501089,,7.972614,0.1,1.7884216,1607639127653
Fix,GT,37.3164008,-121.9501114,,8.7319765,0.1,359.07892,1607639128648
Fix,GT,37.3164825,-121.9501138,,9.034521,0.1,359.16473,1607639129665
Fix,GT,37.3165629,-121.9501158,,8.978102,0.1,359.29633,1607639130656
Fix,GT,37.316641,-121.9501175,,8.604503,0.1,359.49805,1607639131640
Fix,GT,37.3167215,-121.9501185,,7.6001477,0.1,359.84546,1607639132729
Fix,GT,37.316767,-121.9501188,,6.4605703,0.1,0.0078125,1607639133453
Fix,GT,37.3168248,-121.9501191,,4.068405,0.1,0.096832275,1607639134666
Fix,GT,37.316853,-121.9501193,,2.3467095,0.1,0.20587158,1607639135656
Fix,GT,37.3168672,-121.9501193,,0.85265577,0.1,0.3050232,1607639136657
Fix,GT,37.3168708,-121.9501194,,0.12946211,0.1,0.32943726,1607639137651
Fix,GT,37.3168709,-121.9501194,,0.0072294306,0.1,0.32913208,1607639138674
Fix,GT,37.3168709,-121.9501194,,0.0042618383,0.1,0.32733154,1607639139660
Fix,GT,37.3168709,-121.9501194,,0.0030573425,0.1,0.32608032,1607639140646
Fix,GT,37.3168709,-121.9501194,,0.0031072996,0.1,0.32495117,1607639141661
Fix,GT,37.3168709,-121.9501194,,0.0040180464,0.1,0.32382202,1607639142653
Fix,GT,37.3168709,-121.9501194,,0.0043169428,0.1,0.32281494,1607639143676
Fix,GT,37.3168709,-121.9501194,,0.004746769,0.1,0.32177734,1607639144665
Fix,GT,37.3168709,-121.9501194,,0.005950088,0.1,0.3206787,1607639145677
Fix,GT,37.3168709,-121.9501194,,0.006403125,0.1,0.31958008,1607639146670
Fix,GT,37.3168708,-121.9501194,,0.006403124,0.1,0.31866455,1607639147656
Fix,GT,37.3168714,-121.9501193,,0.18745111,0.1,0.322052,1607639148654
Fix,GT,37.3168751,-121.9501192,,0.55108726,0.1,0.32199097,1607639149761
Fix,GT,37.3168787,-121.9501192,,0.6016557,0.1,0.3196411,1607639150457
Fix,GT,37.3168836,-121.9501191,,0.48161948,0.1,0.3163147,1607639151437
Fix,GT,37.3168871,-121.9501191,,0.27711928,0.1,0.3126526,1607639152437
Fix,GT,37.3168887,-121.950119,,0.0855793,0.1,0.3097229,1607639153437
Fix,GT,37.3168889,-121.950119,,0.006358898,0.1,0.3086853,1607639154437
Fix,GT,37.3168889,-121.950119,,0.006403124,0.1,0.30734253,1607639155437
Fix,GT,37.3168889,-121.950119,,0.006403124,0.1,0.30615234,1607639156437
Fix,GT,37.3168889,-121.950119,,0.0057898154,0.1,0.30514526,1607639157437
Fix,GT,37.3168889,-121.950119,,0.0052871127,0.1,0.30438232,1607639158437
Fix,GT,37.3168889,-121.950119,,0.0053697415,0.1,0.30355835,1607639159437
Fix,GT,37.3168889,-121.950119,,0.005,0.1,0.30264282,1607639160437
Fix,GT,37.3168889,-121.950119,,0.0047692694,0.1,0.3017273,1607639161437
Fix,GT,37.3168889,-121.950119,,0.004871223,0.1,0.30081177,1607639162437
Fix,GT,37.3168889,-121.950119,,0.005385165,0.1,0.2996521,1607639163437
Fix,GT,37.3168889,-121.950119,,0.0049860775,0.1,0.29837036,1607639164437
Fix,GT,37.3168889,-121.950119,,0.0044721365,0.1,0.29730225,1607639165437
Fix,GT,37.3168889,-121.950119,,0.0044721365,0.1,0.2963562,1607639166437
Fix,GT,37.3168889,-121.950119,,0.0044721365,0.1,0.2954712,1607639167437
Fix,GT,37.3168889,-121.950119,,0.004472136,0.1,0.29455566,1607639168437
Fix,GT,37.3168889,-121.950119,,0.004472136,0.1,0.2935791,1607639169437
Fix,GT,37.3168889,-121.950119,,0.004871223,0.1,0.29244995,1607639170437
Fix,GT,37.3168889,-121.950119,,0.0053851646,0.1,0.29125977,1607639171437
Fix,GT,37.3168889,-121.950119,,0.0053851646,0.1,0.2902527,1607639172437
Fix,GT,37.3168889,-121.950119,,0.005580019,0.1,0.28930664,1607639173437
Fix,GT,37.3168889,-121.950119,,0.0060810503,0.1,0.28845215,1607639174437
Fix,GT,37.3168889,-121.950119,,0.0066950843,0.1,0.2875061,1607639175437
Fix,GT,37.3168889,-121.950119,,0.008480532,0.1,0.28601074,1607639176437
Fix,GT,37.3168889,-121.9501191,,0.01029563,0.1,0.28445435,1607639177437
Fix,GT,37.3168889,-121.9501191,,0.011272264,0.1,0.2835083,1607639178437
Fix,GT,37.3168889,-121.9501191,,0.013141219,0.1,0.2826233,1607639179437
Fix,GT,37.3168888,-121.9501191,,0.013928389,0.1,0.28207397,1607639180437
Fix,GT,37.3168899,-121.9501191,,0.31076378,0.1,0.28137207,1607639181437
Fix,GT,37.3168955,-121.950119,,0.968837,0.1,0.27493286,1607639182437
Fix,GT,37.3169066,-121.950119,,1.4612687,0.1,0.26239014,1607639183437
Fix,GT,37.3169211,-121.950119,,1.7809398,0.1,0.22845459,1607639184437
Fix,GT,37.3169396,-121.950119,,2.3741355,0.1,0.17089844,1607639185437
Fix,GT,37.3169661,-121.9501191,,3.539178,0.1,0.108551025,1607639186437
Fix,GT,37.3170048,-121.9501193,,4.9712124,0.1,0.05731201,1607639187437
Fix,GT,37.317054,-121.9501195,,5.76272,0.1,0.072052,1607639188437
Fix,GT,37.3171062,-121.9501208,,5.8289995,0.1,358.69843,1607639189437
Fix,GT,37.3171702,-121.9501329,,6.0406275,0.1,348.48953,1607639190651
Fix,GT,37.3172198,-121.9501633,,6.1348658,0.1,331.4148,1607639191666
Fix,GT,37.3172585,-121.9502141,,6.5860424,0.1,311.48895,1607639192661
Fix,GT,37.3172819,-121.9502857,,7.440316,0.1,289.34692,1607639193651
Fix,GT,37.317285,-121.9503755,,8.515469,0.1,270.36453,1607639194661
Fix,GT,37.3172769,-121.9504772,,10.000339,0.1,264.2059,1607639195648
Fix,GT,37.3172657,-121.9506013,,11.825677,0.1,263.96274,1607639196662
Fix,GT,37.3172534,-121.9507408,,13.364374,0.1,263.8988,1607639197646
Fix,GT,37.3172387,-121.950901,,14.632562,0.1,263.70972,1607639198667
Fix,GT,37.3172234,-121.9510695,,15.697628,0.1,263.79123,1607639199658
Fix,GT,37.3172074,-121.9512528,,16.40474,0.1,264.0648,1607639200673
Fix,GT,37.3171916,-121.9514375,,16.792625,0.1,263.92358,1607639201664
Fix,GT,37.3171745,-121.9516308,,17.254007,0.1,263.75455,1607639202678
Fix,GT,37.3171562,-121.9518228,,17.855082,0.1,263.14105,1607639203653
Fix,GT,37.3171353,-121.9520233,,18.03915,0.1,262.43115,1607639204651
Fix,GT,37.3171126,-121.9522274,,17.8922,0.1,261.96582,1607639205667
Fix,GT,37.3170898,-121.9524245,,17.694729,0.1,261.79352,1607639206659
Fix,GT,37.3170672,-121.9526199,,17.688185,0.1,261.9275,1607639207649
Fix,GT,37.3170447,-121.952819,,17.958883,0.1,262.06052,1607639208650
Fix,GT,37.3170215,-121.953025,,18.534275,0.1,261.99948,1607639209662
Fix,GT,37.3169975,-121.9532354,,19.339096,0.1,261.88843,1607639210658
Fix,GT,37.3169717,-121.9534585,,20.274351,0.1,261.76627,1607639211667
Fix,GT,37.3169452,-121.9536879,,21.209753,0.1,261.8383,1607639212658
Fix,GT,37.3169178,-121.9539278,,22.034039,0.1,261.80765,1607639213650
Fix,GT,37.3168887,-121.9541802,,22.621199,0.1,261.8808,1607639214661
Fix,GT,37.3168606,-121.9544323,,22.731339,0.1,262.2074,1607639215655
Fix,GT,37.3168327,-121.9546889,,22.540604,0.1,262.1746,1607639216668
Fix,GT,37.3168055,-121.9549372,,22.292904,0.1,262.19876,1607639217659
Fix,GT,37.3167788,-121.9551833,,22.02205,0.1,262.4263,1607639218652
Fix,GT,37.3167535,-121.9554303,,21.744991,0.1,262.9204,1607639219661
Fix,GT,37.3167311,-121.9556713,,21.644407,0.1,263.62048,1607639220653
Fix,GT,37.3167084,-121.9559174,,21.794952,0.1,263.06738,1607639221665
Fix,GT,37.3166832,-121.9561619,,22.380257,0.1,262.25726,1607639222658
Fix,GT,37.3166559,-121.9564151,,23.253174,0.1,262.6144,1607639223651
Fix,GT,37.3166308,-121.9566842,,24.221577,0.1,263.87958,1607639224663
Fix,GT,37.3166109,-121.9569596,,25.158216,0.1,265.49673,1607639225656
Fix,GT,37.3165956,-121.9572513,,26.099476,0.1,266.71417,1607639226667
Fix,GT,37.3165839,-121.9575485,,27.010513,0.1,267.47925,1607639227660
Fix,GT,37.3165747,-121.9578538,,27.882519,0.1,268.0921,1607639228647
Fix,GT,37.316568,-121.9581756,,28.594446,0.1,268.78412,1607639229657
Fix,GT,37.3165643,-121.958501,,29.144035,0.1,269.5759,1607639230656
Fix,GT,37.3165643,-121.9588365,,29.6511,0.1,270.40576,1607639231667
Fix,GT,37.3165678,-121.9591706,,30.14415,0.1,271.00952,1607639232658
Fix,GT,37.3165731,-121.9595115,,30.62685,0.1,271.1293,1607639233652
Fix,GT,37.316579,-121.9598627,,31.044804,0.1,271.25,1607639234661
Fix,GT,37.3165855,-121.9602121,,31.318464,0.1,271.28748,1607639235655
Fix,GT,37.3165916,-121.9605633,,31.509508,0.1,271.1513,1607639236646
Fix,GT,37.3165972,-121.9609236,,31.617569,0.1,270.9574,1607639237658
Fix,GT,37.316602,-121.9612774,,31.637215,0.1,270.8946,1607639238650
Fix,GT,37.3166073,-121.9616745,,31.611164,0.1,271.0317,1607639239763
Fix,GT,37.3166112,-121.9619206,,31.557331,0.1,271.10345,1607639240454
Fix,GT,37.3166179,-121.9623504,,31.40408,0.1,271.07437,1607639241664
Fix,GT,37.3166228,-121.9627023,,31.25549,0.1,270.92477,1607639242660
Fix,GT,37.3166276,-121.9630489,,30.926365,0.1,271.08823,1607639243648
Fix,GT,37.3166326,-121.9634348,,30.456396,0.1,270.65497,1607639244763
Fix,GT,37.3166336,-121.9636703,,30.253643,0.1,270.08777,1607639245450
Fix,GT,37.3166314,-121.9640729,,29.924154,0.1,269.20038,1607639246636
Fix,GT,37.3166254,-121.9644131,,29.653158,0.1,268.3909,1607639247649
Fix,GT,37.3166163,-121.9647471,,29.503605,0.1,267.88562,1607639248651
Fix,GT,37.3166062,-121.9650831,,29.481823,0.1,267.83008,1607639249662
Fix,GT,37.3165963,-121.9654132,,29.548307,0.1,267.76044,1607639250654
Fix,GT,37.3165859,-121.9657416,,29.643637,0.1,267.65375,1607639251638
Fix,GT,37.3165748,-121.9660799,,29.672039,0.1,267.62915,1607639252650
Fix,GT,37.316564,-121.9664141,,29.618885,0.1,267.58954,1607639253650
Fix,GT,37.3165526,-121.9667517,,29.586828,0.1,267.39606,1607639254662
Fix,GT,37.3165404,-121.9670828,,29.511509,0.1,267.23108,1607639255656
Fix,GT,37.3165282,-121.9674158,,29.366287,0.1,267.4274,1607639256659
Fix,GT,37.3165188,-121.967743,,29.162037,0.1,268.45367,1607639257651
Fix,GT,37.3165157,-121.9680707,,28.88628,0.1,270.20905,1607639258651
Fix,GT,37.3165201,-121.9683984,,28.539116,0.1,271.59256,1607639259663
Fix,GT,37.3165291,-121.9687138,,28.172255,0.1,272.42355,1607639260649
Fix,GT,37.3165417,-121.9690317,,27.786325,0.1,273.14166,1607639261658
Fix,GT,37.3165563,-121.9693403,,27.406631,0.1,273.44543,1607639262651
Fix,GT,37.3165703,-121.9696468,,27.026821,0.1,272.9417,1607639263651
Fix,GT,37.3165819,-121.9699525,,26.659462,0.1,272.35672,1607639264662
Fix,GT,37.3165905,-121.9702492,,26.31004,0.1,271.76923,1607639265656
Fix,GT,37.3165987,-121.970547,,25.959217,0.1,272.29675,1607639266666
Fix,GT,37.3166116,-121.9708352,,25.622108,0.1,273.84024,1607639267658
Fix,GT,37.3166312,-121.9711192,,25.314186,0.1,275.49518,1607639268650
Fix,GT,37.316657,-121.9714045,,24.999317,0.1,277.03003,1607639269662
Fix,GT,37.3166875,-121.9716772,,24.053703,0.1,278.55475,1607639270654
Fix,GT,37.3167242,-121.9719411,,22.86606,0.1,280.8539,1607639271669
Fix,GT,37.3167692,-121.9721858,,22.358145,0.1,284.6203,1607639272657
Fix,GT,37.3168286,-121.9724249,,22.438288,0.1,288.9901,1607639273650
Fix,GT,37.3169029,-121.9726638,,22.509853,0.1,292.78915,1607639274661
Fix,GT,37.3169864,-121.9728921,,22.367958,0.1,295.6278,1607639275653
Fix,GT,37.3170748,-121.9731141,,22.018608,0.1,296.88528,1607639276644
Fix,GT,37.3171644,-121.9733356,,21.46887,0.1,296.67917,1607639277656
Fix,GT,37.3172488,-121.973546,,20.6189,0.1,296.4782,1607639278645
Fix,GT,37.3173304,-121.9737504,,19.116928,0.1,296.3884,1607639279662
Fix,GT,37.3174022,-121.9739296,,16.638891,0.1,296.7985,1607639280652
Fix,GT,37.3174692,-121.9740758,,13.622507,0.1,302.1289,1607639281640
Fix,GT,37.31754,-121.9741828,,10.996399,0.1,314.829,1607639282649
Fix,GT,37.3176134,-121.9742454,,9.097135,0.1,330.93713,1607639283640
Fix,GT,37.3176858,-121.974273,,7.7608194,0.1,346.58627,1607639284661
Fix,GT,37.3177523,-121.9742809,,7.346124,0.1,355.3252,1607639285655
Fix,GT,37.3178187,-121.9742816,,7.5647163,0.1,359.5004,1607639286644
Fix,GT,37.3178891,-121.9742785,,7.795494,0.1,2.0950317,1607639287656
Fix,GT,37.3179581,-121.974267,,7.739748,0.1,9.107819,1607639288648
Fix,GT,37.3180245,-121.9742399,,7.625797,0.1,19.964417,1607639289662
Fix,GT,37.3180848,-121.9742016,,7.4966516,0.1,27.83194,1607639290651
Fix,GT,37.3181391,-121.9741599,,6.5885453,0.1,31.874939,1607639291646
Fix,GT,37.3181822,-121.9741236,,4.63875,0.1,33.84845,1607639292652
Fix,GT,37.3182083,-121.9741006,,2.4816282,0.1,34.444885,1607639293645
Fix,GT,37.3182193,-121.9740909,,0.6345011,0.1,34.5141,1607639294660
Fix,GT,37.3182212,-121.9740889,,0.04202331,0.1,34.524963,1607639295653
Fix,GT,37.3182211,-121.9740887,,0.0204928,0.1,34.52301,1607639296645
Fix,GT,37.3182211,-121.9740885,,0.01366909,0.1,34.520813,1607639297658
Fix,GT,37.318221,-121.9740885,,0.009614868,0.1,34.519653,1607639298649
Fix,GT,37.3182209,-121.9740885,,0.007909702,0.1,34.518677,1607639299661
Fix,GT,37.3182209,-121.9740885,,0.007213925,0.1,34.51758,1607639300652
Fix,GT,37.3182208,-121.9740886,,0.007686076,0.1,34.51648,1607639301645
Fix,GT,37.3182208,-121.9740886,,0.00754624,0.1,34.51529,1607639302659
Fix,GT,37.3182207,-121.9740887,,0.0066575566,0.1,34.5141,1607639303651
Fix,GT,37.3182207,-121.9740887,,0.005701594,0.1,34.513,1607639304663
Fix,GT,37.3182206,-121.9740888,,0.0045583206,0.1,34.512115,1607639305655
Fix,GT,37.3182206,-121.9740888,,0.0033717472,0.1,34.51114,1607639306669
Fix,GT,37.3182206,-121.9740888,,0.003,0.1,34.50998,1607639307659
Fix,GT,37.3182206,-121.9740888,,0.0023486775,0.1,34.509094,1607639308651
Fix,GT,37.3182206,-121.9740888,,0.002,0.1,34.508545,1607639309661
Fix,GT,37.3182206,-121.9740888,,0.002,0.1,34.50757,1607639310655
Fix,GT,37.3182206,-121.9740888,,0.002,0.1,34.50656,1607639311669
Fix,GT,37.3182206,-121.9740888,,0.0026585676,0.1,34.505707,1607639312658
Fix,GT,37.3182206,-121.9740888,,0.0023496014,0.1,34.50479,1607639313650
Fix,GT,37.3182206,-121.9740888,,0.0026637902,0.1,34.503906,1607639314663
Fix,GT,37.3182206,-121.9740888,,0.003,0.1,34.50305,1607639315656
Fix,GT,37.3182206,-121.9740888,,0.0031081429,0.1,34.502167,1607639316666
Fix,GT,37.3182206,-121.9740888,,0.0030552095,0.1,34.50113,1607639317659
Fix,GT,37.3182206,-121.9740888,,0.003105522,0.1,34.500153,1607639318650
Fix,GT,37.3182206,-121.9740888,,0.0031622779,0.1,34.499207,1607639319663
Fix,GT,37.3182206,-121.9740888,,0.0030558319,0.1,34.498444,1607639320655
Fix,GT,37.3182206,-121.9740888,,0.003,0.1,34.49756,1607639321666
Fix,GT,37.3182206,-121.9740888,,0.0031069447,0.1,34.497375,1607639322659
Fix,GT,37.3182206,-121.9740888,,0.0031622779,0.1,34.49707,1607639323650
Fix,GT,37.3182206,-121.9740888,,0.0031622776,0.1,34.49597,1607639324659
Fix,GT,37.3182206,-121.9740888,,0.0030560421,0.1,34.494934,1607639325654
Fix,GT,37.3182206,-121.9740888,,0.003,0.1,34.49402,1607639326665
Fix,GT,37.3182206,-121.9740888,,0.0023405778,0.1,34.493256,1607639327659
Fix,GT,37.3182206,-121.9740888,,0.0026498958,0.1,34.492493,1607639328649
Fix,GT,37.3182206,-121.9740888,,0.003,0.1,34.491364,1607639329662
Fix,GT,37.3182206,-121.9740888,,0.003,0.1,34.490387,1607639330655
Fix,GT,37.3182206,-121.9740888,,0.003,0.1,34.48932,1607639331667
Fix,GT,37.3182206,-121.9740888,,0.003,0.1,34.488434,1607639332659
Fix,GT,37.3182206,-121.9740888,,0.003,0.1,34.48755,1607639333651
Fix,GT,37.3182206,-121.9740888,,0.003,0.1,34.486694,1607639334662
Fix,GT,37.3182206,-121.9740888,,0.003,0.1,34.48575,1607639335655
Fix,GT,37.3182206,-121.9740888,,0.0031083787,0.1,34.48459,1607639336667
Fix,GT,37.3182206,-121.9740888,,0.0031622779,0.1,34.48349,1607639337658
Fix,GT,37.3182206,-121.9740888,,0.0030567297,0.1,34.482513,1607639338650
Fix,GT,37.3182206,-121.9740888,,0.003,0.1,34.481537,1607639339662
Fix,GT,37.3182206,-121.9740888,,0.003,0.1,34.480408,1607639340654
Fix,GT,37.3182206,-121.9740888,,0.003107892,0.1,34.47867,1607639341664
Fix,GT,37.3182206,-121.9740888,,0.0023983018,0.1,34.47763,1607639342657
Fix,GT,37.3182206,-121.9740888,,0.0027581966,0.1,34.4769,1607639343652
Fix,GT,37.3182206,-121.9740888,,0.0030546065,0.1,34.476135,1607639344663
Fix,GT,37.3182206,-121.9740888,,0.0024998905,0.1,34.475098,1607639345654
Fix,GT,37.3182206,-121.9740888,,0.0027451157,0.1,34.473663,1607639346666
Fix,GT,37.3182206,-121.9740888,,0.003,0.1,34.473053,1607639347657
Fix,GT,37.3182206,-121.9740888,,0.003,0.1,34.472412,1607639348650
Fix,GT,37.3182206,-121.9740888,,0.0023371894,0.1,34.470734,1607639349662
Fix,GT,37.3182206,-121.9740888,,0.0021545421,0.1,34.469116,1607639350654
Fix,GT,37.3182206,-121.9740888,,0.002743882,0.1,34.467712,1607639351664
Fix,GT,37.3182206,-121.9740888,,0.003,0.1,34.466614,1607639352658
Fix,GT,37.3182206,-121.9740888,,0.003,0.1,34.465607,1607639353652
Fix,GT,37.3182206,-121.9740888,,0.003,0.1,34.464325,1607639354662
Fix,GT,37.3182206,-121.9740888,,0.003735639,0.1,34.462982,1607639355655
Fix,GT,37.3182206,-121.9740888,,0.0034836158,0.1,34.46176,1607639356665
Fix,GT,37.3182206,-121.9740888,,0.0031622774,0.1,34.460632,1607639357656
Fix,GT,37.3182206,-121.9740888,,0.0031622776,0.1,34.45932,1607639358651
Fix,GT,37.3182206,-121.9740888,,0.0037978848,0.1,34.45804,1607639359661
Fix,GT,37.3182206,-121.9740888,,0.0034957265,0.1,34.456757,1607639360652
Fix,GT,37.3182206,-121.9740888,,0.0031622779,0.1,34.45526,1607639361665
Fix,GT,37.3182206,-121.9740888,,0.0031622779,0.1,34.4541,1607639362658
Fix,GT,37.3182206,-121.9740888,,0.0031622776,0.1,34.453003,1607639363650
Fix,GT,37.3182206,-121.9740888,,0.0031622774,0.1,34.45169,1607639364662
Fix,GT,37.3182206,-121.9740888,,0.0037902799,0.1,34.450134,1607639365653
Fix,GT,37.3182206,-121.9740888,,0.0034901337,0.1,34.448547,1607639366658
Fix,GT,37.3182206,-121.9740888,,0.003450328,0.1,34.446747,1607639367649
Fix,GT,37.3182206,-121.9740888,,0.0036055513,0.1,34.444855,1607639368649
Fix,GT,37.3182206,-121.9740888,,0.003605551,0.1,34.44284,1607639369661
Fix,GT,37.3182206,-121.9740888,,0.003096818,0.1,34.440674,1607639370654
Fix,GT,37.3182206,-121.9740888,,0.003340971,0.1,34.438507,1607639371659
Fix,GT,37.3182206,-121.9740888,,0.0031005996,0.1,34.43625,1607639372649
Fix,GT,37.3182206,-121.9740889,,0.0024437509,0.1,34.43399,1607639373649
Fix,GT,37.3182206,-121.9740889,,0.002236068,0.1,34.431732,1607639374661
Fix,GT,37.3182205,-121.9740889,,0.0020814287,0.1,34.429626,1607639375655
Fix,GT,37.3182205,-121.974089,,0.0021560395,0.1,34.427338,1607639376660
Fix,GT,37.3182205,-121.974089,,0.002236068,0.1,34.424988,1607639377650
Fix,GT,37.3182205,-121.974089,,0.0017015149,0.1,34.422607,1607639378650
Fix,GT,37.3182205,-121.974089,,0.0019578822,0.1,34.420105,1607639379661
Fix,GT,37.3182205,-121.974089,,0.002081562,0.1,34.417725,1607639380654
Fix,GT,37.3182205,-121.974089,,0.002,0.1,34.415405,1607639381659
Fix,GT,37.3182205,-121.974089,,0.0027570266,0.1,34.412903,1607639382651
Fix,GT,37.3182206,-121.974089,,0.003450446,0.1,34.41034,1607639383650
Fix,GT,37.3182206,-121.974089,,0.0026982604,0.1,34.407654,1607639384662
Fix,GT,37.3182206,-121.974089,,0.002081461,0.1,34.40509,1607639385654
Fix,GT,37.3182206,-121.974089,,0.0021569813,0.1,34.40274,1607639386664
Fix,GT,37.3182206,-121.9740889,,0.002236068,0.1,34.400085,1607639387658
Fix,GT,37.3182207,-121.9740889,,0.00427675,0.1,34.39737,1607639388648
Fix,GT,37.3182207,-121.9740889,,0.007105425,0.1,34.3945,1607639389657
Fix,GT,37.3182206,-121.974089,,0.010728585,0.1,34.391754,1607639390655
Fix,GT,37.3182206,-121.974089,,0.015696365,0.1,34.388977,1607639391666
Fix,GT,37.3182205,-121.9740891,,0.021609116,0.1,34.386322,1607639392657
Fix,GT,37.3182204,-121.9740891,,0.028692625,0.1,34.383606,1607639393651
Fix,GT,37.3182202,-121.9740892,,0.03697123,0.1,34.380707,1607639394662
Fix,GT,37.31822,-121.9740893,,0.04681621,0.1,34.377747,1607639395648
Fix,GT,37.3182197,-121.9740894,,0.057361133,0.1,34.374725,1607639396666
Fix,GT,37.3182201,-121.9740889,,0.38385084,0.1,34.367065,1607639397658
Fix,GT,37.3182274,-121.9740829,,1.7331512,0.1,33.696686,1607639398650
Fix,GT,37.3182488,-121.9740738,,3.0138671,0.1,23.199402,1607639399661
Fix,GT,37.3182766,-121.9740833,,3.312151,0.1,352.7728,1607639400656
Fix,GT,37.3182927,-121.9741182,,3.5102577,0.1,310.34222,1607639401666
Fix,GT,37.3182823,-121.9741642,,4.1007814,0.1,260.74014,1607639402759
Fix,GT,37.3182601,-121.9741884,,5.071498,0.1,234.61252,1607639403446
Fix,GT,37.3181951,-121.9742331,,7.5829024,0.1,209.60393,1607639404766
Fix,GT,37.3181495,-121.9742623,,8.756092,0.1,207.58505,1607639405453
Fix,GT,37.3180552,-121.9743229,,10.643638,0.1,207.19685,1607639406666
Fix,GT,37.3179668,-121.97438,,11.4612665,0.1,207.66805,1607639407659
Fix,GT,37.3178764,-121.9744413,,11.386418,0.1,209.13342,1607639408649
Fix,GT,37.3177908,-121.9745037,,10.172946,0.1,211.02405,1607639409661
Fix,GT,37.3177209,-121.9745585,,8.208326,0.1,212.50668,1607639410653
Fix,GT,37.3176662,-121.9746028,,6.062705,0.1,212.85156,1607639411668
Fix,GT,37.317627,-121.9746347,,4.549802,0.1,212.88194,1607639412660
Fix,GT,37.3175968,-121.9746593,,3.6750555,0.1,212.98238,1607639413649
Fix,GT,37.3175708,-121.9746809,,3.212985,0.1,213.17036,1607639414662
Fix,GT,37.3175475,-121.9747004,,3.0962903,0.1,213.33054,1607639415654
Fix,GT,37.3175237,-121.9747203,,3.2685225,0.1,213.3322,1607639416669
Fix,GT,37.3174975,-121.9747421,,3.892836,0.1,213.2409,1607639417658
Fix,GT,37.3174651,-121.9747688,,4.8140373,0.1,213.04907,1607639418651
Fix,GT,37.3174229,-121.9748033,,6.3811326,0.1,213.00246,1607639419662
Fix,GT,37.3173685,-121.9748485,,8.190566,0.1,213.37895,1607639420654
Fix,GT,37.3173033,-121.9749033,,8.994944,0.1,213.75117,1607639421663
Fix,GT,37.3172353,-121.9749605,,9.237004,0.1,213.76578,1607639422658
Fix,GT,37.3171668,-121.975018,,9.192057,0.1,213.80388,1607639423651
Fix,GT,37.3170989,-121.9750749,,8.644825,0.1,213.73312,1607639424663
Fix,GT,37.3170391,-121.9751251,,7.3073745,0.1,213.74716,1607639425655
Fix,GT,37.3169911,-121.9751651,,5.251908,0.1,213.52951,1607639426667
Fix,GT,37.3169598,-121.9751907,,3.0576706,0.1,212.8873,1607639427660
Fix,GT,37.3169438,-121.9752034,,1.1863198,0.1,212.47304,1607639428653
Fix,GT,37.3169396,-121.9752069,,0.2020284,0.1,212.38484,1607639429663
Fix,GT,37.3169395,-121.9752071,,0.008444194,0.1,212.38017,1607639430655
Fix,GT,37.3169396,-121.9752071,,0.0075690364,0.1,212.37784,1607639431665
Fix,GT,37.3169396,-121.9752072,,0.0048739417,0.1,212.37587,1607639432658
Fix,GT,37.3169396,-121.9752071,,0.0028981464,0.1,212.37453,1607639433649
Fix,GT,37.3169396,-121.9752071,,0.002236068,0.1,212.37329,1607639434663
Fix,GT,37.3169396,-121.9752071,,0.0016983144,0.1,212.37202,1607639435654
Fix,GT,37.3169396,-121.9752071,,0.00046728228,0.1,212.37059,1607639436669
Fix,GT,37.3169396,-121.9752071,,0.00065806153,0.1,212.36903,1607639437658
Fix,GT,37.3169396,-121.9752071,,0.00034941264,0.1,212.36775,1607639438650
Fix,GT,37.3169396,-121.9752071,,0.00066228147,0.1,212.36641,1607639439662
Fix,GT,37.3169395,-121.9752071,,0.00034408987,0.1,212.36499,1607639440655
Fix,GT,37.3169395,-121.9752071,,0.0,0.1,212.36342,1607639441665
Fix,GT,37.3169395,-121.9752071,,0.0006592848,0.1,212.36195,1607639442659
Fix,GT,37.3169395,-121.9752071,,0.001,0.1,212.36052,1607639443652
Fix,GT,37.3169395,-121.9752071,,0.001,0.1,212.35895,1607639444663
Fix,GT,37.3169395,-121.9752071,,0.0012717573,0.1,212.3576,1607639445656
Fix,GT,37.3169395,-121.9752071,,0.0014142136,0.1,212.35625,1607639446667
Fix,GT,37.3169395,-121.9752072,,0.0014142136,0.1,212.35468,1607639447658
Fix,GT,37.3169395,-121.9752072,,0.002334496,0.1,212.35316,1607639448650
Fix,GT,37.3169395,-121.9752072,,0.0028284271,0.1,212.35173,1607639449662
Fix,GT,37.3169395,-121.9752072,,0.0028284271,0.1,212.35042,1607639450655
Fix,GT,37.3169395,-121.9752072,,0.0024323175,0.1,212.34904,1607639451668
Fix,GT,37.3169395,-121.9752073,,0.0026259774,0.1,212.3476,1607639452658
Fix,GT,37.3169395,-121.9752073,,0.002447101,0.1,212.34607,1607639453643
Fix,GT,37.3169395,-121.9752073,,0.0014531862,0.1,212.34454,1607639454633
Fix,GT,37.3169395,-121.9752073,,0.0012678897,0.1,212.34308,1607639455646
Fix,GT,37.3169395,-121.9752073,,0.001963499,0.1,212.34149,1607639456668
Fix,GT,37.3169395,-121.9752073,,0.0037105805,0.1,212.34,1607639457659
Fix,GT,37.3169395,-121.9752073,,0.0066532083,0.1,212.33847,1607639458653
Fix,GT,37.3169395,-121.9752073,,0.010619488,0.1,212.33702,1607639459663
Fix,GT,37.3169395,-121.9752073,,0.015748147,0.1,212.33566,1607639460656
Fix,GT,37.3169396,-121.9752072,,0.022400443,0.1,212.33412,1607639461666
Fix,GT,37.3169396,-121.9752071,,0.030343235,0.1,212.33269,1607639462658
Fix,GT,37.3169397,-121.975207,,0.05079019,0.1,212.33197,1607639463650
Fix,GT,37.3169386,-121.9752075,,0.50351465,0.1,212.30067,1607639464663
Fix,GT,37.3169299,-121.975214,,1.8053958,0.1,211.96718,1607639465656
Fix,GT,37.3169078,-121.975229,,3.7644742,0.1,209.77246,1607639466667
Fix,GT,37.3168682,-121.975248,,5.8580017,0.1,201.76062,1607639467660
Fix,GT,37.3168118,-121.9752564,,6.807029,0.1,185.21205,1607639468651
Fix,GT,37.3167515,-121.9752364,,7.1713934,0.1,161.51013,1607639469663
Fix,GT,37.316701,-121.9751829,,8.065787,0.1,136.51483,1607639470656
Fix,GT,37.3166626,-121.9750955,,9.779784,0.1,116.29468,1607639471668
Fix,GT,37.3166329,-121.9749823,,11.6802435,0.1,107.53485,1607639472657
Fix,GT,37.3166032,-121.9748458,,13.610778,0.1,105.18219,1607639473649
Fix,GT,37.3165701,-121.9746846,,15.626301,0.1,104.343445,1607639474660
Fix,GT,37.3165344,-121.9745042,,17.604597,0.1,103.986084,1607639475651
Fix,GT,37.3164938,-121.9742979,,19.402264,0.1,104.01117,1607639476664
Fix,GT,37.3164509,-121.9740834,,19.992645,0.1,104.23651,1607639477657
Fix,GT,37.3164071,-121.9738667,,19.899387,0.1,104.34836,1607639478650
Fix,GT,37.3163633,-121.9736476,,19.636093,0.1,104.07129,1607639479663
Fix,GT,37.3163231,-121.9734356,,19.265942,0.1,102.918335,1607639480656
Fix,GT,37.3162886,-121.9732272,,18.896105,0.1,100.97647,1607639481645
Fix,GT,37.3162604,-121.9730167,,18.526411,0.1,98.53903,1607639482656
Fix,GT,37.3162413,-121.9728129,,18.176722,0.1,95.67728,1607639483648
Fix,GT,37.3162286,-121.9726084,,17.912766,0.1,93.793304,1607639484657
Fix,GT,37.3162197,-121.9724071,,18.008327,0.1,93.20117,1607639485654
Fix,GT,37.3162108,-121.9721999,,18.402218,0.1,93.256744,1607639486665
Fix,GT,37.3162006,-121.9719937,,18.810518,0.1,93.91058,1607639487650
Fix,GT,37.3161886,-121.9717799,,19.279423,0.1,94.235535,1607639488648
Fix,GT,37.316175,-121.9715577,,19.615465,0.1,94.47009,1607639489661
Fix,GT,37.3161623,-121.9713374,,19.85281,0.1,93.691864,1607639490653
Fix,GT,37.3161539,-121.9711126,,20.539667,0.1,92.08023,1607639491644
Fix,GT,37.3161497,-121.970873,,21.797962,0.1,90.86224,1607639492649
Fix,GT,37.3161485,-121.9706201,,23.23747,0.1,90.10965,1607639493645
Fix,GT,37.316149,-121.9703451,,24.651922,0.1,89.74353,1607639494663
Fix,GT,37.3161517,-121.9700626,,25.946678,0.1,89.02966,1607639495653
Fix,GT,37.3161576,-121.9697643,,27.348652,0.1,88.219055,1607639496646
Fix,GT,37.3161672,-121.969446,,28.795807,0.1,87.541046,1607639497651
Fix,GT,37.3161783,-121.9691159,,29.785006,0.1,87.52634,1607639498649
