MessageType,Provider,LatitudeDegrees,LongitudeDegrees,AltitudeMeters,SpeedMps,AccuracyMeters,BearingDegrees,UnixTimeMillis
Fix,GT,37.6269387,-122.4257597,,0.00044446657,0.1,336.3226,1597170001444
Fix,GT,37.6269387,-122.4257597,,0.001,0.1,336.3228,1597170002444
Fix,GT,37.6269387,-122.4257597,,0.00055553345,0.1,336.32272,1597170003444
Fix,GT,37.6269387,-122.4257597,,0.00044446663,0.1,336.3228,1597170004444
Fix,GT,37.6269387,-122.4257597,,0.001,0.1,336.3228,1597170005661
Fix,GT,37.6269387,-122.4257597,,0.001,0.1,336.32257,1597170006649
Fix,GT,37.6269387,-122.4257597,,0.001,0.1,336.32227,1597170007641
Fix,GT,37.6269387,-122.4257597,,0.0012744761,0.1,336.3223,1597170008662
Fix,GT,37.6269387,-122.4257597,,0.0014142136,0.1,336.32233,1597170009670
Fix,GT,37.6269387,-122.4257597,,0.0014142136,0.1,336.32227,1597170010663
Fix,GT,37.6269387,-122.4257597,,0.001145019,0.1,336.32233,1597170011649
Fix,GT,37.6269387,-122.4257597,,0.0003583079,0.1,336.32248,1597170012641
Fix,GT,37.6269387,-122.4257597,,0.0006535258,0.1,336.32248,1597170013653
Fix,GT,37.6269387,-122.4257597,,0.00034649845,0.1,336.32245,1597170014653
Fix,GT,37.6269387,-122.4257597,,0.0009390323,0.1,336.3225,1597170015663
Fix,GT,37.6269387,-122.4257597,,0.0014142136,0.1,336.32257,1597170016654
Fix,GT,37.6269387,-122.4257597,,0.0014142136,0.1,336.32245,1597170017663
Fix,GT,37.6269387,-122.4257597,,0.000476531,0.1,336.32236,1597170018663
Fix,GT,37.6269387,-122.4257597,,0.0,0.1,336.32242,1597170019649
Fix,GT,37.6269387,-122.4257597,,0.00061713887,0.1,336.32248,1597170020436
Fix,GT,37.6269387,-122.4257597,,0.0014142136,0.1,336.32242,1597170021436
Fix,GT,37.6269387,-122.4257597,,0.0016698409,0.1,336.32224,1597170022436
Fix,GT,37.6269387,-122.4257597,,0.001563617,0.1,336.32224,1597170023436
Fix,GT,37.6269387,-122.4257597,,0.001,0.1,336.32224,1597170024436
Fix,GT,37.6269387,-122.4257597,,0.001,0.1,336.3222,1597170025436
Fix,GT,37.6269387,-122.4257597,,0.001,0.1,336.32214,1597170026436
Fix,GT,37.6269387,-122.4257597,,0.0015393991,0.1,336.3219,1597170027436
Fix,GT,37.6269387,-122.4257597,,0.0012602856,0.1,336.32288,1597170028436
Fix,GT,37.6269388,-122.4257597,,0.07448997,0.1,336.3087,1597170029436
Fix,GT,37.626941,-122.4257616,,0.5901174,0.1,335.227,1597170030436
Fix,GT,37.6269484,-122.4257679,,1.3939635,0.1,332.066,1597170031436
Fix,GT,37.6269614,-122.4257785,,2.0641632,0.1,329.44577,1597170032436
Fix,GT,37.6269798,-122.425793,,2.8553305,0.1,328.9622,1597170033436
Fix,GT,37.6270048,-122.4258123,,3.6324902,0.1,328.57993,1597170034436
Fix,GT,37.6270347,-122.4258368,,4.2826233,0.1,327.41666,1597170035436
Fix,GT,37.6270683,-122.4258651,,4.7440424,0.1,326.44794,1597170036436
Fix,GT,37.6271054,-122.4258956,,5.077948,0.1,326.93954,1597170037436
Fix,GT,37.6271451,-122.4259266,,5.249301,0.1,328.54083,1597170038436
Fix,GT,37.6271851,-122.4259548,,4.7363987,0.1,331.35837,1597170039436
Fix,GT,37.6272188,-122.4259758,,3.3976755,0.1,333.87668,1597170040436
Fix,GT,37.6272406,-122.4259882,,1.9990983,0.1,335.11212,1597170041436
Fix,GT,37.6272557,-122.4259951,,1.7693341,0.1,338.1597,1597170042436
Fix,GT,37.6272756,-122.4259949,,2.4799461,0.1,353.3439,1597170043436
Fix,GT,37.6272988,-122.425977,,3.3038235,0.1,23.113434,1597170044436
Fix,GT,37.6273198,-122.4259385,,4.91039,0.1,51.00244,1597170045436
Fix,GT,37.6273431,-122.4258773,,7.0306454,0.1,64.04358,1597170046436
Fix,GT,37.6273728,-122.4257946,,8.839226,0.1,65.90268,1597170047436
Fix,GT,37.6274078,-122.4256967,,10.157494,0.1,65.87189,1597170048436
Fix,GT,37.627448,-122.4255873,,11.159076,0.1,65.23187,1597170049436
Fix,GT,37.627493,-122.4254693,,11.890966,0.1,64.44809,1597170050436
Fix,GT,37.6275415,-122.4253459,,12.397726,0.1,63.686737,1597170051436
Fix,GT,37.627593,-122.4252172,,13.113863,0.1,63.42752,1597170052436
Fix,GT,37.6276477,-122.4250797,,14.086592,0.1,63.617218,1597170053436
Fix,GT,37.6277055,-122.4249328,,14.809331,0.1,63.95807,1597170054436
Fix,GT,37.6277646,-122.4247809,,14.964784,0.1,64.09656,1597170055436
Fix,GT,37.6278241,-122.424629,,14.91083,0.1,63.79486,1597170056436
Fix,GT,37.6278833,-122.4244776,,14.8649845,0.1,64.26935,1597170057436
Fix,GT,37.6279392,-122.4243263,,14.557051,0.1,66.34488,1597170058436
Fix,GT,37.627986,-122.4241753,,14.051201,0.1,71.40613,1597170059436
Fix,GT,37.628016,-122.4240225,,13.878288,0.1,80.00049,1597170060436
Fix,GT,37.6280243,-122.4238661,,13.905905,0.1,90.76123,1597170061436
Fix,GT,37.6280091,-122.42371,,13.949459,0.1,101.01489,1597170062436
Fix,GT,37.6279767,-122.4235573,,13.95376,0.1,106.940125,1597170063436
Fix,GT,37.627941,-122.4234075,,13.6466465,0.1,105.87103,1597170064436
Fix,GT,37.6279158,-122.4232597,,13.142395,0.1,99.22958,1597170065436
Fix,GT,37.6279088,-122.4231156,,12.366728,0.1,89.95517,1597170066436
Fix,GT,37.627919,-122.4229859,,10.616621,0.1,81.17615,1597170067436
Fix,GT,37.6279386,-122.4228802,,8.663296,0.1,74.89661,1597170068436
Fix,GT,37.6279617,-122.4227946,,7.422152,0.1,70.16934,1597170069436
Fix,GT,37.6279858,-122.4227234,,6.305026,0.1,66.24878,1597170070436
Fix,GT,37.6280069,-122.4226681,,4.3850317,0.1,64.49527,1597170071436
Fix,GT,37.6280196,-122.4226358,,2.0380387,0.1,64.01697,1597170072436
Fix,GT,37.6280243,-122.422624,,0.63156503,0.1,63.894043,1597170073436
Fix,GT,37.6280268,-122.4226176,,1.0627601,0.1,63.82956,1597170074436
Fix,GT,37.6280345,-122.422598,,3.02569,0.1,63.87558,1597170075436
Fix,GT,37.6280562,-122.4225425,,6.016216,0.1,64.12851,1597170076644
Fix,GT,37.6280853,-122.4224676,,8.409473,0.1,64.27515,1597170077656
Fix,GT,37.6281187,-122.4223803,,9.937721,0.1,64.33508,1597170078591
Fix,GT,37.6281697,-122.4222497,,11.599409,0.1,63.543182,1597170079785
Fix,GT,37.6282155,-122.4221457,,12.431689,0.1,59.939087,1597170080655
Fix,GT,37.6282798,-122.4220289,,13.085773,0.1,52.700256,1597170081643
Fix,GT,37.6283625,-122.4219176,,13.640184,0.1,43.658295,1597170082656
Fix,GT,37.6284612,-122.4218241,,13.905977,0.1,33.220123,1597170083657
Fix,GT,37.6285736,-122.4217517,,14.107291,0.1,24.11142,1597170084666
Fix,GT,37.6286912,-122.4216931,,14.308653,0.1,21.182587,1597170085655
Fix,GT,37.6288091,-122.4216316,,14.385513,0.1,24.565918,1597170086642
Fix,GT,37.628923,-122.4215506,,14.343902,0.1,33.95404,1597170087654
Fix,GT,37.6290205,-122.4214457,,14.421894,0.1,45.46353,1597170088650
Fix,GT,37.6291016,-122.4213136,,14.82318,0.1,56.651062,1597170089663
Fix,GT,37.6291538,-122.4212008,,15.119345,0.1,61.88669,1597170090431
Fix,GT,37.6292157,-122.421047,,15.212227,0.1,64.00235,1597170091431
Fix,GT,37.6292758,-122.4208934,,14.945784,0.1,63.79419,1597170092431
Fix,GT,37.6293351,-122.4207451,,14.302233,0.1,63.415924,1597170093431
Fix,GT,37.6293909,-122.420607,,12.988396,0.1,63.269012,1597170094431
Fix,GT,37.6294405,-122.4204844,,11.311682,0.1,63.22296,1597170095431
Fix,GT,37.6294831,-122.4203789,,9.637277,0.1,63.248016,1597170096431
Fix,GT,37.6295179,-122.4202923,,7.4578485,0.1,63.561493,1597170097431
Fix,GT,37.6295426,-122.4202302,,4.8235416,0.1,63.78076,1597170098431
Fix,GT,37.6295567,-122.4201945,,2.2917533,0.1,63.904846,1597170099431
Fix,GT,37.6295623,-122.4201803,,0.862994,0.1,63.92148,1597170100431
Fix,GT,37.629566,-122.4201709,,1.3870138,0.1,63.896362,1597170101431
Fix,GT,37.629575,-122.4201482,,3.2943172,0.1,63.85251,1597170102431
Fix,GT,37.6295929,-122.4201029,,5.607235,0.1,63.81244,1597170103431
Fix,GT,37.6296203,-122.4200336,,7.8203983,0.1,63.882324,1597170104431
Fix,GT,37.6296546,-122.4199459,,9.435707,0.1,64.050415,1597170105431
Fix,GT,37.6296944,-122.4198446,,10.522554,0.1,63.983643,1597170106431
Fix,GT,37.6297389,-122.4197325,,11.5956135,0.1,63.51776,1597170107431
Fix,GT,37.6297888,-122.419611,,12.573059,0.1,62.374084,1597170108431
Fix,GT,37.6298459,-122.4194832,,13.196254,0.1,59.868103,1597170109431
Fix,GT,37.6299116,-122.4193554,,13.667976,0.1,55.488953,1597170110431
Fix,GT,37.6299889,-122.4192317,,14.156466,0.1,49.988953,1597170111431
Fix,GT,37.6300758,-122.4191131,,14.299128,0.1,46.657104,1597170112431
Fix,GT,37.6301653,-122.4189956,,14.409092,0.1,46.470184,1597170113431
Fix,GT,37.6302553,-122.4188769,,14.56974,0.1,46.55197,1597170114431
Fix,GT,37.6303455,-122.418758,,14.404221,0.1,46.56964,1597170115431
Fix,GT,37.630433,-122.4186401,,14.013346,0.1,47.961975,1597170116431
Fix,GT,37.6305133,-122.4185205,,13.593527,0.1,51.666992,1597170117431
Fix,GT,37.6305836,-122.4183971,,13.220211,0.1,56.736603,1597170118431
Fix,GT,37.630643,-122.4182715,,12.471291,0.1,61.018005,1597170119431
Fix,GT,37.6306934,-122.4181538,,11.050156,0.1,61.68164,1597170120431
Fix,GT,37.6307426,-122.4180553,,9.633133,0.1,54.71408,1597170121431
Fix,GT,37.6308009,-122.4179829,,8.910657,0.1,39.162354,1597170122431
Fix,GT,37.6308701,-122.4179409,,8.59539,0.1,20.154541,1597170123431
Fix,GT,37.6309457,-122.4179296,,8.716533,0.1,2.217682,1597170124431
Fix,GT,37.6310239,-122.4179417,,9.01265,0.1,350.7174,1597170125431
Fix,GT,37.6311031,-122.4179637,,9.055303,0.1,347.43018,1597170126431
Fix,GT,37.6311821,-122.4179876,,8.911511,0.1,346.5672,1597170127431
Fix,GT,37.6312584,-122.4180115,,8.462315,0.1,346.1234,1597170128431
Fix,GT,37.6313277,-122.418035,,7.3677073,0.1,344.46133,1597170129431
Fix,GT,37.6313842,-122.418058,,5.733805,0.1,341.3645,1597170130431
Fix,GT,37.6314318,-122.4180809,,3.6141791,0.1,338.82318,1597170131638
Fix,GT,37.6314557,-122.4180934,,2.2244496,0.1,337.97763,1597170132645
Fix,GT,37.6314697,-122.4181007,,1.0935415,0.1,337.5867,1597170133637
Fix,GT,37.6314744,-122.4181033,,0.26994362,0.1,337.49103,1597170134628
Fix,GT,37.631475,-122.4181036,,0.00926012,0.1,337.48645,1597170135649
Fix,GT,37.6314749,-122.4181036,,0.0014217509,0.1,337.4851,1597170136635
Fix,GT,37.6314755,-122.4181041,,0.28249994,0.1,337.47803,1597170137645
Fix,GT,37.6314822,-122.4181077,,1.5029207,0.1,337.3561,1597170138647
Fix,GT,37.6315022,-122.4181184,,3.3262439,0.1,337.15952,1597170139657
Fix,GT,37.6315372,-122.4181374,,5.3102126,0.1,337.0039,1597170140650
Fix,GT,37.6315875,-122.4181645,,7.024991,0.1,336.97345,1597170141634
Fix,GT,37.6316513,-122.4181992,,8.158395,0.1,336.74542,1597170142645
Fix,GT,37.6317224,-122.4182386,,8.976277,0.1,336.28513,1597170143646
Fix,GT,37.6318003,-122.4182826,,9.702468,0.1,336.0239,1597170144656
Fix,GT,37.6318809,-122.4183282,,10.13867,0.1,336.00937,1597170145646
Fix,GT,37.6319644,-122.4183753,,10.321161,0.1,336.00705,1597170146638
Fix,GT,37.6320495,-122.4184238,,10.240227,0.1,335.87726,1597170147645
Fix,GT,37.6321321,-122.4184704,,9.859592,0.1,336.23044,1597170148643
Fix,GT,37.6322134,-122.4185137,,9.512827,0.1,338.18347,1597170149655
Fix,GT,37.6322944,-122.4185491,,9.64021,0.1,342.58047,1597170150651
Fix,GT,37.6323788,-122.4185745,,9.854981,0.1,348.53366,1597170151638
Fix,GT,37.6324663,-122.4185897,,9.430191,0.1,354.1334,1597170152648
Fix,GT,37.6325492,-122.4185915,,8.823088,0.1,2.4526062,1597170153657
Fix,GT,37.6326245,-122.4185721,,8.561031,0.1,16.290588,1597170154650
Fix,GT,37.6326938,-122.4185261,,9.176497,0.1,32.170776,1597170155641
Fix,GT,37.6327596,-122.4184518,,10.39164,0.1,44.961273,1597170156654
Fix,GT,37.6328233,-122.4183557,,11.845581,0.1,51.83432,1597170157645
Fix,GT,37.6328912,-122.4182402,,13.039066,0.1,54.49228,1597170158658
Fix,GT,37.6329605,-122.4181153,,13.8768425,0.1,55.667877,1597170159657
Fix,GT,37.6330321,-122.4179822,,14.812168,0.1,56.26126,1597170160647
Fix,GT,37.6331082,-122.4178395,,15.871349,0.1,56.387024,1597170161635
Fix,GT,37.6331896,-122.4176852,,16.424423,0.1,56.755005,1597170162646
Fix,GT,37.6332708,-122.4175292,,16.68315,0.1,57.166748,1597170163641
Fix,GT,37.6333533,-122.4173686,,17.305058,0.1,57.642334,1597170164634
Fix,GT,37.6334389,-122.4171951,,18.299732,0.1,59.022186,1597170165647
Fix,GT,37.633523,-122.4170137,,19.114086,0.1,60.833862,1597170166636
Fix,GT,37.6336062,-122.4168173,,19.793266,0.1,63.320953,1597170167646
Fix,GT,37.6336852,-122.4166092,,20.134464,0.1,65.85739,1597170168665
Fix,GT,37.6337569,-122.4164007,,20.617802,0.1,67.69473,1597170169651
Fix,GT,37.6338272,-122.4161756,,21.809948,0.1,70.12445,1597170170663
Fix,GT,37.6338924,-122.4159335,,23.606232,0.1,72.769684,1597170171655
Fix,GT,37.6339527,-122.415672,,24.877163,0.1,75.11847,1597170172645
Fix,GT,37.6340077,-122.4153872,,25.489536,0.1,78.1268,1597170173669
Fix,GT,37.6340485,-122.4151059,,25.69648,0.1,81.62201,1597170174656
Fix,GT,37.6340769,-122.4148152,,25.884687,0.1,84.59265,1597170175661
Fix,GT,37.6340951,-122.4145218,,26.311195,0.1,86.92688,1597170176655
Fix,GT,37.6341041,-122.4142215,,26.570316,0.1,89.36139,1597170177657
Fix,GT,37.634103,-122.4139178,,26.590302,0.1,91.68637,1597170178665
Fix,GT,37.6340932,-122.4136199,,26.475506,0.1,93.54889,1597170179657
Fix,GT,37.6340755,-122.4133235,,26.286903,0.1,95.67502,1597170180651
Fix,GT,37.6340497,-122.4130298,,26.404783,0.1,97.21411,1597170181642
Fix,GT,37.634018,-122.412726,,27.135738,0.1,98.15277,1597170182652
Fix,GT,37.6339827,-122.4124222,,27.690414,0.1,99.00354,1597170183640
Fix,GT,37.6339422,-122.4121058,,27.81136,0.1,99.79242,1597170184658
Fix,GT,37.6338995,-122.4117967,,27.919472,0.1,100.3107,1597170185652
Fix,GT,37.6338559,-122.4114905,,27.903038,0.1,100.259796,1597170186636
Fix,GT,37.6338122,-122.4111757,,27.737389,0.1,100.02228,1597170187649
Fix,GT,37.6337699,-122.4108704,,27.511784,0.1,100.20438,1597170188639
Fix,GT,37.6337258,-122.4105591,,27.24089,0.1,100.314026,1597170189658
Fix,GT,37.6336845,-122.4102596,,26.841133,0.1,99.661896,1597170190649
Fix,GT,37.6336472,-122.4099646,,26.350826,0.1,98.794586,1597170191641
Fix,GT,37.6336134,-122.4096714,,25.743633,0.1,97.884094,1597170192645
Fix,GT,37.6335876,-122.4093855,,25.37775,0.1,95.32745,1597170193639
Fix,GT,37.6335738,-122.4091026,,25.279507,0.1,92.0199,1597170194629
Fix,GT,37.6335723,-122.4088092,,25.409973,0.1,88.88318,1597170195652
Fix,GT,37.6335827,-122.408519,,25.726702,0.1,86.252075,1597170196656
Fix,GT,37.633603,-122.4082303,,26.014763,0.1,83.95053,1597170197645
Fix,GT,37.6336321,-122.4079365,,26.14091,0.1,82.23163,1597170198647
Fix,GT,37.6336665,-122.4076401,,26.183258,0.1,81.526276,1597170199658
Fix,GT,37.6337024,-122.4073445,,26.361677,0.1,81.519714,1597170200663
Fix,GT,37.6337365,-122.407056,,26.53738,0.1,81.8551,1597170201635
Fix,GT,37.6337704,-122.4067555,,26.524733,0.1,82.50705,1597170202644
Fix,GT,37.6338008,-122.4064513,,26.41158,0.1,84.160126,1597170203666
Fix,GT,37.6338188,-122.4061576,,26.17033,0.1,88.085266,1597170204655
Fix,GT,37.6338155,-122.4058579,,25.90876,0.1,94.15549,1597170205672
Fix,GT,37.6337883,-122.4055728,,25.684166,0.1,100.08832,1597170206656
Fix,GT,37.6337391,-122.4052933,,25.399025,0.1,105.62738,1597170207646
Fix,GT,37.633666,-122.4050154,,25.067457,0.1,111.54648,1597170208670
Fix,GT,37.6335747,-122.4047617,,24.80951,0.1,117.406586,1597170209657
Fix,GT,37.6334613,-122.4045162,,24.59104,0.1,123.39563,1597170210673
Fix,GT,37.6333345,-122.4042961,,24.350788,0.1,128.91043,1597170211654
Fix,GT,37.6331921,-122.4040921,,24.132113,0.1,134.10959,1597170212643
Fix,GT,37.6330324,-122.4039023,,23.948563,0.1,139.58984,1597170213659
Fix,GT,37.6328646,-122.4037372,,23.790943,0.1,144.84119,1597170214650
Fix,GT,37.6326864,-122.4035931,,23.64074,0.1,150.09705,1597170215642
Fix,GT,37.6325072,-122.4034749,,23.57021,0.1,154.97144,1597170216594
Fix,GT,37.6322775,-122.403356,,23.550219,0.1,161.19763,1597170217766
Fix,GT,37.6320938,-122.4032878,,23.587942,0.1,166.02405,1597170218668
Fix,GT,37.6318866,-122.4032329,,23.69012,0.1,170.62457,1597170219663
Fix,GT,37.6316743,-122.4031954,,23.901222,0.1,173.49963,1597170220664
Fix,GT,37.631461,-122.4031653,,24.181662,0.1,174.00842,1597170221656
Fix,GT,37.6312455,-122.4031342,,24.57095,0.1,173.62311,1597170222644
Fix,GT,37.6310196,-122.4031001,,25.085564,0.1,173.39746,1597170223662
Fix,GT,37.6307932,-122.4030659,,25.61309,0.1,173.45026,1597170224661
Fix,GT,37.6305602,-122.403032,,25.987947,0.1,173.87573,1597170225669
Fix,GT,37.6303292,-122.403001,,26.20111,0.1,174.32318,1597170226657
Fix,GT,37.6300955,-122.4029711,,26.40908,0.1,174.46051,1597170227648
Fix,GT,37.6298544,-122.4029401,,26.645851,0.1,174.39417,1597170228663
Fix,GT,37.6296169,-122.4029092,,27.082869,0.1,174.33813,1597170229649
Fix,GT,37.6293669,-122.4028765,,27.668137,0.1,174.24658,1597170230667
Fix,GT,37.6291187,-122.4028424,,28.38535,0.1,173.7312,1597170231658
Fix,GT,37.6288637,-122.4028038,,29.08833,0.1,172.97571,1597170232649
Fix,GT,37.6285963,-122.4027596,,29.747562,0.1,172.57764,1597170233667
Fix,GT,37.6283328,-122.4027137,,30.425533,0.1,172.07037,1597170234649
Fix,GT,37.6280597,-122.4026621,,31.307333,0.1,171.17358,1597170235644
Fix,GT,37.6277732,-122.4026011,,32.17589,0.1,169.8537,1597170236659
Fix,GT,37.627491,-122.4025325,,32.24269,0.1,168.43158,1597170237648
Fix,GT,37.6272032,-122.4024529,,31.907394,0.1,166.94702,1597170238668
Fix,GT,37.6269289,-122.4023681,,31.603037,0.1,165.87482,1597170239655
Fix,GT,37.6266535,-122.4022764,,31.249748,0.1,164.53857,1597170240662
Fix,GT,37.6263848,-122.4021777,,30.85772,0.1,163.14081,1597170241662
Fix,GT,37.6261272,-122.4020733,,30.327562,0.1,161.33057,1597170242646
Fix,GT,37.6258672,-122.4019561,,29.854958,0.1,160.18817,1597170243665
Fix,GT,37.6256196,-122.4018448,,29.481384,0.1,160.8689,1597170244649
Fix,GT,37.6253654,-122.4017373,,29.015425,0.1,162.3949,1597170245666
Fix,GT,37.6251204,-122.4016407,,28.35339,0.1,163.34943,1597170246660
Fix,GT,37.6248813,-122.4015508,,27.881132,0.1,163.81036,1597170247645
Fix,GT,37.6246385,-122.4014612,,27.566158,0.1,164.08118,1597170248658
Fix,GT,37.6244015,-122.4013752,,27.310043,0.1,164.05579,1597170249656
Fix,GT,37.6241645,-122.4012885,,27.20349,0.1,163.922,1597170250662
Fix,GT,37.6239287,-122.4012022,,27.381512,0.1,164.16943,1597170251661
Fix,GT,37.6236941,-122.4011176,,27.472832,0.1,164.11475,1597170252648
Fix,GT,37.6234537,-122.4010291,,27.470798,0.1,163.70306,1597170253660
Fix,GT,37.6232192,-122.40094,,27.311457,0.1,163.10742,1597170254652
Fix,GT,37.6229869,-122.4008489,,27.284237,0.1,162.82,1597170255642
Fix,GT,37.6227468,-122.4007554,,27.821274,0.1,163.3482,1597170256655
Fix,GT,37.6225067,-122.4006655,,28.445076,0.1,163.8775,1597170257645
Fix,GT,37.6222531,-122.4005733,,28.787329,0.1,164.46753,1597170258666
Fix,GT,37.6220054,-122.4004871,,28.831789,0.1,164.98975,1597170259657
Fix,GT,37.6217533,-122.4004016,,28.708996,0.1,165.32306,1597170260663
Fix,GT,37.621505,-122.4003176,,28.453026,0.1,164.9627,1597170261662
Fix,GT,37.621263,-122.4002347,,28.156454,0.1,165.00745,1597170262645
Fix,GT,37.6210145,-122.4001499,,27.84164,0.1,165.11029,1597170263666
Fix,GT,37.6207772,-122.4000681,,27.629843,0.1,164.61987,1597170264651
Fix,GT,37.6205338,-122.3999809,,27.554527,0.1,164.14996,1597170265669
Fix,GT,37.6202971,-122.3998948,,27.9939,0.1,163.97632,1597170266654
Fix,GT,37.6200531,-122.3998053,,28.923363,0.1,163.96075,1597170267645
Fix,GT,37.6197964,-122.3997122,,29.322834,0.1,164.38971,1597170268661
Fix,GT,37.6195429,-122.3996225,,29.336493,0.1,164.7085,1597170269657
Fix,GT,37.6192868,-122.3995336,,29.467045,0.1,164.84851,1597170270662
Fix,GT,37.6190289,-122.3994453,,29.770515,0.1,165.14893,1597170271664
Fix,GT,37.618773,-122.3993591,,30.132782,0.1,165.24207,1597170272645
Fix,GT,37.6185047,-122.3992688,,30.445301,0.1,165.25623,1597170273662
Fix,GT,37.6182473,-122.3991825,,30.663094,0.1,165.37335,1597170274630
Fix,GT,37.6179774,-122.399093,,30.616676,0.1,165.55298,1597170275640
Fix,GT,37.6177121,-122.3990054,,30.425354,0.1,165.45703,1597170276638
Fix,GT,37.6174452,-122.3989165,,30.263641,0.1,165.3451,1597170277647
Fix,GT,37.6171833,-122.3988286,,30.137976,0.1,165.2262,1597170278644
Fix,GT,37.6169204,-122.3987393,,29.997282,0.1,164.96106,1597170279650
Fix,GT,37.6166615,-122.3986482,,29.945126,0.1,164.15112,1597170280645
Fix,GT,37.616403,-122.3985514,,30.024626,0.1,162.83862,1597170281644
Fix,GT,37.6161455,-122.3984462,,30.05735,0.1,161.3551,1597170282645
Fix,GT,37.6158897,-122.3983325,,30.190693,0.1,159.90277,1597170283646
Fix,GT,37.6156321,-122.398208,,30.525955,0.1,158.22522,1597170284655
Fix,GT,37.6153809,-122.3980749,,30.807198,0.1,156.23865,1597170285643
Fix,GT,37.6151246,-122.3979255,,31.013601,0.1,154.28229,1597170286658
Fix,GT,37.6148773,-122.3977696,,31.118856,0.1,152.71045,1597170287646
Fix,GT,37.6146299,-122.3976034,,31.110447,0.1,151.33807,1597170288646
Fix,GT,37.6143834,-122.3974285,,31.117477,0.1,149.99686,1597170289656
Fix,GT,37.6141447,-122.3972501,,31.05413,0.1,148.8005,1597170290648
Fix,GT,37.6139056,-122.3970619,,30.879261,0.1,147.1023,1597170291659
Fix,GT,37.6136786,-122.3968711,,30.691437,0.1,145.5358,1597170292644
Fix,GT,37.6134544,-122.3966724,,30.656284,0.1,144.18066,1597170293638
Fix,GT,37.6132351,-122.3964668,,30.678438,0.1,142.65186,1597170294628
Fix,GT,37.6130153,-122.3962482,,30.699238,0.1,140.97867,1597170295641
Fix,GT,37.6128026,-122.3960242,,30.837734,0.1,139.37054,1597170296643
Fix,GT,37.6125924,-122.395792,,31.045841,0.1,138.26831,1597170297647
Fix,GT,37.6124293,-122.3956051,,31.235764,0.1,137.38062,1597170298434
Fix,GT,37.6122241,-122.3953607,,31.503605,0.1,135.96136,1597170299434
Fix,GT,37.6120224,-122.3951082,,31.745613,0.1,134.46198,1597170300434
Fix,GT,37.6118241,-122.3948473,,31.929434,0.1,133.1618,1597170301434
Fix,GT,37.6116297,-122.3945799,,32.042988,0.1,131.91483,1597170302434
Fix,GT,37.61144,-122.3943067,,31.988869,0.1,130.54626,1597170303434
Fix,GT,37.611256,-122.3940293,,31.78677,0.1,129.44205,1597170304434
Fix,GT,37.6110762,-122.3937505,,31.595863,0.1,128.96759,1597170305434
Fix,GT,37.6108983,-122.3934726,,31.391808,0.1,129.14243,1597170306434
Fix,GT,37.610721,-122.3931971,,31.168882,0.1,129.18005,1597170307434
Fix,GT,37.6105451,-122.3929232,,31.021944,0.1,128.8841,1597170308434
Fix,GT,37.6103714,-122.3926487,,30.894,0.1,128.52933,1597170309434
Fix,GT,37.6101992,-122.3923748,,30.726357,0.1,128.65338,1597170310434
Fix,GT,37.6100274,-122.392103,,30.577991,0.1,128.69498,1597170311434
Fix,GT,37.6098562,-122.3918324,,30.54418,0.1,128.77771,1597170312434
Fix,GT,37.6096838,-122.3915613,,30.81093,0.1,128.95325,1597170313434
Fix,GT,37.6095083,-122.3912872,,31.354649,0.1,129.13629,1597170314434
Fix,GT,37.6093289,-122.3910092,,31.84401,0.1,129.30435,1597170315434
Fix,GT,37.6091473,-122.3907284,,32.069447,0.1,129.41699,1597170316434
Fix,GT,37.6089645,-122.3904461,,32.12897,0.1,129.41681,1597170317434
Fix,GT,37.6087819,-122.3901646,,32.00006,0.1,129.46979,1597170318434
Fix,GT,37.6086,-122.3898844,,31.90275,0.1,129.41418,1597170319434
Fix,GT,37.608418,-122.3896038,,32.08278,0.1,129.45886,1597170320434
Fix,GT,37.6082341,-122.3893207,,32.45678,0.1,129.518,1597170321434
Fix,GT,37.6080476,-122.3890347,,32.854877,0.1,129.64105,1597170322434
Fix,GT,37.6078582,-122.3887454,,33.29885,0.1,129.69559,1597170323434
Fix,GT,37.6076667,-122.3884533,,33.487865,0.1,129.77435,1597170324434
Fix,GT,37.6074746,-122.3881613,,33.398674,0.1,129.8681,1597170325434
Fix,GT,37.6072832,-122.3878698,,33.336346,0.1,129.61713,1597170326434
Fix,GT,37.6070929,-122.3875774,,33.38846,0.1,129.41602,1597170327434
Fix,GT,37.6069025,-122.3872841,,33.456352,0.1,129.51431,1597170328434
Fix,GT,37.6067116,-122.3869908,,33.435234,0.1,129.55313,1597170329434
Fix,GT,37.6065209,-122.3866978,,33.40813,0.1,129.53009,1597170330434
Fix,GT,37.6063303,-122.3864055,,33.35558,0.1,129.59454,1597170331434
Fix,GT,37.60614,-122.3861136,,33.312874,0.1,129.50555,1597170332434
Fix,GT,37.6059499,-122.3858218,,33.2855,0.1,129.58707,1597170333434
Fix,GT,37.6057597,-122.3855309,,33.213867,0.1,129.61926,1597170334434
Fix,GT,37.60557,-122.385241,,33.088837,0.1,129.58386,1597170335434
Fix,GT,37.6053815,-122.3849515,,32.963776,0.1,129.61163,1597170336434
Fix,GT,37.6051547,-122.3846023,,32.959976,0.1,129.30374,1597170337642
Fix,GT,37.6049633,-122.3843064,,33.020008,0.1,129.45929,1597170338663
Fix,GT,37.6047764,-122.3840191,,32.96881,0.1,129.53009,1597170339656
Fix,GT,37.6045868,-122.3837279,,32.94577,0.1,129.54288,1597170340664
Fix,GT,37.6043998,-122.3834406,,32.805992,0.1,129.68195,1597170341660
Fix,GT,37.6042127,-122.3831544,,32.4561,0.1,129.60925,1597170342662
Fix,GT,37.6040285,-122.382872,,32.040096,0.1,129.50998,1597170343662
Fix,GT,37.6038486,-122.3825953,,31.733856,0.1,129.51532,1597170344653
Fix,GT,37.6036658,-122.382314,,31.656982,0.1,129.3977,1597170345665
Fix,GT,37.6034868,-122.3820387,,31.630123,0.1,129.56622,1597170346657
Fix,GT,37.6033054,-122.3817614,,31.496487,0.1,129.79684,1597170347661
Fix,GT,37.6031243,-122.3814858,,31.366661,0.1,129.72357,1597170348666
Fix,GT,37.6029435,-122.3812098,,31.330606,0.1,129.6091,1597170349673
Fix,GT,37.6027703,-122.3809438,,31.339716,0.1,129.47693,1597170350642
Fix,GT,37.6025894,-122.3806651,,31.322489,0.1,129.45966,1597170351655
Fix,GT,37.6024137,-122.3803949,,31.222698,0.1,129.48499,1597170352641
Fix,GT,37.6022333,-122.3801174,,30.942778,0.1,129.51999,1597170353658
Fix,GT,37.6020591,-122.3798498,,30.759567,0.1,129.56616,1597170354648
Fix,GT,37.6018826,-122.3795779,,30.686935,0.1,129.3179,1597170355657
Fix,GT,37.6017098,-122.3793098,,30.573074,0.1,129.2352,1597170356651
Fix,GT,37.6015384,-122.3790447,,30.41901,0.1,129.46344,1597170357641
Fix,GT,37.6013621,-122.3787746,,30.258066,0.1,129.65881,1597170358657
Fix,GT,37.6011896,-122.3785113,,30.012383,0.1,129.70062,1597170359656
Fix,GT,37.601017,-122.3782477,,29.679749,0.1,129.67914,1597170360666
Fix,GT,37.6008498,-122.3779925,,29.319283,0.1,129.70001,1597170361656
Fix,GT,37.6006818,-122.3777357,,28.938976,0.1,129.61255,1597170362664
Fix,GT,37.600518,-122.3774845,,28.541492,0.1,129.50012,1597170363662
Fix,GT,37.6003539,-122.3772324,,28.10426,0.1,129.49817,1597170364677
Fix,GT,37.6001967,-122.3769913,,27.689377,0.1,129.66037,1597170365664
Fix,GT,37.6000401,-122.3767528,,27.382378,0.1,129.76965,1597170366656
Fix,GT,37.5998862,-122.3765185,,27.129692,0.1,129.74646,1597170367641
Fix,GT,37.5997286,-122.3762772,,26.80943,0.1,129.44418,1597170368663
Fix,GT,37.5995771,-122.376043,,26.704529,0.1,129.24179,1597170369659
Fix,GT,37.5994243,-122.3758061,,26.597984,0.1,129.23154,1597170370670
Fix,GT,37.5992761,-122.3755758,,26.575336,0.1,129.202,1597170371655
Fix,GT,37.5991268,-122.3753442,,26.852468,0.1,129.23724,1597170372641
Fix,GT,37.5989697,-122.3751001,,27.41631,0.1,129.19244,1597170373664
Fix,GT,37.5988157,-122.3748606,,27.970951,0.1,129.20166,1597170374646
Fix,GT,37.5986534,-122.3746091,,28.636635,0.1,129.34729,1597170375657
Fix,GT,37.5984895,-122.3743564,,29.216228,0.1,129.43536,1597170376652
Fix,GT,37.5983227,-122.3740994,,29.735104,0.1,129.44412,1597170377645
Fix,GT,37.5981481,-122.3738304,,30.20662,0.1,129.49557,1597170378667
Fix,GT,37.5979773,-122.3735673,,30.172752,0.1,129.37613,1597170379659
Fix,GT,37.5978057,-122.3733017,,29.748598,0.1,129.32324,1597170380667
Fix,GT,37.5976399,-122.3730448,,29.194191,0.1,129.22824,1597170381658
Fix,GT,37.5974786,-122.3727945,,28.569298,0.1,129.23859,1597170382642
Fix,GT,37.5973146,-122.3725396,,28.111916,0.1,129.18329,1597170383664
Fix,GT,37.5971547,-122.3722914,,27.78349,0.1,129.33554,1597170384674
Fix,GT,37.5969975,-122.3720494,,27.6405,0.1,129.54163,1597170385670
Fix,GT,37.5968415,-122.3718105,,27.67758,0.1,129.69376,1597170386657
Fix,GT,37.5966848,-122.3715722,,27.728762,0.1,129.87555,1597170387642
Fix,GT,37.5965225,-122.3713257,,27.705322,0.1,129.83209,1597170388661
Fix,GT,37.5963618,-122.3710806,,27.709068,0.1,129.65121,1597170389674
Fix,GT,37.5962056,-122.3708414,,27.783035,0.1,129.52582,1597170390658
Fix,GT,37.5960474,-122.3705984,,27.616611,0.1,129.52777,1597170391659
Fix,GT,37.5958936,-122.3703619,,27.287643,0.1,129.5318,1597170392642
Fix,GT,37.5957353,-122.3701189,,27.279343,0.1,129.58817,1597170393659
Fix,GT,37.5955815,-122.3698837,,27.339182,0.1,129.7319,1597170394645
Fix,GT,37.5954225,-122.3696412,,27.450499,0.1,129.76868,1597170395658
Fix,GT,37.5952697,-122.369408,,27.466162,0.1,129.65668,1597170396629
Fix,GT,37.5951108,-122.3691645,,27.484356,0.1,129.49918,1597170397641
Fix,GT,37.5949543,-122.3689237,,27.479475,0.1,129.41452,1597170398640
Fix,GT,37.5947955,-122.3686789,,27.550293,0.1,129.4161,1597170399654
Fix,GT,37.5946733,-122.3684905,,27.639706,0.1,129.4541,1597170400433
Fix,GT,37.5945154,-122.368248,,27.70039,0.1,129.65216,1597170401433
Fix,GT,37.5943563,-122.3680061,,27.678665,0.1,129.90701,1597170402433
Fix,GT,37.5941972,-122.3677651,,27.63704,0.1,129.89789,1597170403433
Fix,GT,37.5940384,-122.3675239,,27.726475,0.1,129.78204,1597170404433
Fix,GT,37.5938784,-122.3672801,,28.10336,0.1,129.64185,1597170405433
Fix,GT,37.5937168,-122.3670326,,28.441029,0.1,129.54114,1597170406433
Fix,GT,37.5935546,-122.3667837,,28.362133,0.1,129.58539,1597170407433
Fix,GT,37.5933933,-122.3665364,,28.079582,0.1,129.56097,1597170408433
Fix,GT,37.5932341,-122.366292,,27.722345,0.1,129.58209,1597170409433
Fix,GT,37.5930765,-122.3660508,,27.4389,0.1,129.65985,1597170410433
Fix,GT,37.5929199,-122.365811,,27.436773,0.1,129.46106,1597170411433
Fix,GT,37.5927638,-122.3655684,,27.685688,0.1,128.9881,1597170412433
Fix,GT,37.592607,-122.3653228,,27.907263,0.1,129.06659,1597170413433
Fix,GT,37.5924478,-122.3650772,,28.0137,0.1,129.69904,1597170414433
Fix,GT,37.5922867,-122.3648322,,28.209877,0.1,129.80481,1597170415433
Fix,GT,37.592124,-122.3645832,,28.759914,0.1,129.49646,1597170416433
Fix,GT,37.5919586,-122.3643274,,29.44779,0.1,129.12445,1597170417433
Fix,GT,37.5917906,-122.3640641,,30.184395,0.1,128.83813,1597170418433
Fix,GT,37.5916187,-122.3637936,,30.913586,0.1,128.9159,1597170419433
Fix,GT,37.5914433,-122.3635191,,31.227657,0.1,129.1236,1597170420433
Fix,GT,37.5912663,-122.3632443,,31.24885,0.1,129.34131,1597170421433
Fix,GT,37.5910876,-122.362969,,31.60743,0.1,129.45233,1597170422433
Fix,GT,37.5909059,-122.3626897,,32.096184,0.1,129.55011,1597170423433
Fix,GT,37.5907217,-122.3624074,,32.30002,0.1,129.65125,1597170424433
Fix,GT,37.5905371,-122.3621255,,32.1936,0.1,129.70306,1597170425433
Fix,GT,37.5903534,-122.361844,,32.10392,0.1,129.48932,1597170426433
Fix,GT,37.5901708,-122.361562,,32.157654,0.1,129.21799,1597170427433
Fix,GT,37.5899883,-122.3612783,,32.303852,0.1,129.17249,1597170428433
Fix,GT,37.5898055,-122.3609941,,32.210014,0.1,129.13672,1597170429433
Fix,GT,37.5896245,-122.3607109,,31.93888,0.1,128.77933,1597170430433
Fix,GT,37.5894469,-122.3604284,,31.650944,0.1,128.15173,1597170431433
Fix,GT,37.589274,-122.3601454,,31.38966,0.1,127.0932,1597170432433
Fix,GT,37.5891071,-122.3598594,,31.268887,0.1,125.43811,1597170433433
Fix,GT,37.5889479,-122.3595672,,31.326597,0.1,123.55676,1597170434433
Fix,GT,37.5887962,-122.3592668,,31.56237,0.1,121.66461,1597170435433
Fix,GT,37.588651,-122.3589578,,31.816303,0.1,119.92554,1597170436433
Fix,GT,37.588511,-122.3586421,,32.024708,0.1,118.81888,1597170437433
Fix,GT,37.5883741,-122.3583225,,32.05449,0.1,118.01822,1597170438433
Fix,GT,37.5882417,-122.358001,,31.938826,0.1,116.77545,1597170439433
Fix,GT,37.5881159,-122.3576754,,32.06462,0.1,115.200195,1597170440433
Fix,GT,37.587997,-122.3573437,,32.187283,0.1,113.47504,1597170441433
Fix,GT,37.5878861,-122.3570081,,31.978409,0.1,111.83008,1597170442433
Fix,GT,37.5877841,-122.3566708,,31.790787,0.1,110.02405,1597170443433
Fix,GT,37.587691,-122.3563312,,31.737322,0.1,108.28912,1597170444433
Fix,GT,37.5876053,-122.3559886,,31.683712,0.1,106.86926,1597170445433
Fix,GT,37.5875263,-122.3556442,,31.600311,0.1,105.541504,1597170446433
Fix,GT,37.5874542,-122.355299,,31.478884,0.1,104.089966,1597170447433
Fix,GT,37.5873898,-122.3549517,,31.528809,0.1,102.42053,1597170448433
Fix,GT,37.5873332,-122.3546011,,31.689194,0.1,100.84558,1597170449433
Fix,GT,37.5872835,-122.3542464,,31.928795,0.1,99.48212,1597170450433
Fix,GT,37.5872402,-122.353888,,32.0639,0.1,97.8934,1597170451433
Fix,GT,37.5872055,-122.353528,,31.985332,0.1,96.172424,1597170452433
Fix,GT,37.5871793,-122.3531684,,31.785858,0.1,94.60202,1597170453433
Fix,GT,37.5871608,-122.3528106,,31.57423,0.1,93.16266,1597170454433
Fix,GT,37.5871482,-122.3524539,,31.542349,0.1,92.19641,1597170455433
Fix,GT,37.5871396,-122.3520972,,31.515503,0.1,91.7962,1597170456433
Fix,GT,37.5871318,-122.3517401,,31.627026,0.1,91.88928,1597170457433
Fix,GT,37.587123,-122.3513815,,31.763184,0.1,92.026245,1597170458433
Fix,GT,37.5871134,-122.3510228,,31.629477,0.1,92.1532,1597170459433
Fix,GT,37.5871039,-122.3506662,,31.407402,0.1,92.086975,1597170460433
Fix,GT,37.5870953,-122.3503118,,31.219803,0.1,91.9379,1597170461433
Fix,GT,37.5870869,-122.3499597,,30.995182,0.1,91.93521,1597170462433
Fix,GT,37.5870787,-122.3496096,,30.901012,0.1,91.94531,1597170463433
Fix,GT,37.5870704,-122.3492598,,30.962212,0.1,91.93811,1597170464433
Fix,GT,37.5870621,-122.3489096,,30.92365,0.1,91.9765,1597170465433
Fix,GT,37.5870533,-122.3485607,,30.725403,0.1,92.09039,1597170466433
Fix,GT,37.5870442,-122.3482144,,30.485565,0.1,92.18091,1597170467433
Fix,GT,37.5870348,-122.3478704,,30.387367,0.1,92.24042,1597170468433
Fix,GT,37.5870254,-122.347526,,30.560696,0.1,92.19653,1597170469433
Fix,GT,37.5870163,-122.3471784,,30.876453,0.1,92.15588,1597170470433
Fix,GT,37.5870067,-122.3468282,,30.98188,0.1,92.360535,1597170471433
Fix,GT,37.586996,-122.346478,,30.980116,0.1,92.58383,1597170472433
Fix,GT,37.5869846,-122.3461266,,31.174545,0.1,92.6134,1597170473433
Fix,GT,37.5869732,-122.3457727,,31.375671,0.1,92.50186,1597170474433
Fix,GT,37.5869623,-122.3454178,,31.331818,0.1,92.397156,1597170475433
Fix,GT,37.5869521,-122.3450641,,31.188873,0.1,92.146515,1597170476433
Fix,GT,37.5869434,-122.3447109,,31.252102,0.1,91.82846,1597170477433
Fix,GT,37.5869355,-122.3443561,,31.486917,0.1,91.880554,1597170478433
Fix,GT,37.586927,-122.3439986,,31.70793,0.1,92.0614,1597170479433
Fix,GT,37.586918,-122.3436383,,31.96503,0.1,92.03299,1597170480433
Fix,GT,37.5869068,-122.3431929,,32.092583,0.1,92.096344,1597170481661
Fix,GT,37.5868977,-122.3428353,,32.15126,0.1,92.07663,1597170482645
Fix,GT,37.5868884,-122.3424635,,32.27809,0.1,91.996765,1597170483665
Fix,GT,37.5868793,-122.3421,,32.38005,0.1,92.05652,1597170484658
Fix,GT,37.5868695,-122.3417287,,32.296303,0.1,92.08441,1597170485672
Fix,GT,37.5868604,-122.3413662,,32.160957,0.1,92.00726,1597170486667
Fix,GT,37.5868515,-122.3410085,,32.10386,0.1,92.005035,1597170487650
Fix,GT,37.5868422,-122.3406398,,31.887756,0.1,92.0943,1597170488668
Fix,GT,37.5868331,-122.3402866,,31.534248,0.1,92.14957,1597170489652
Fix,GT,37.5868235,-122.3399251,,31.204895,0.1,92.10913,1597170490670
Fix,GT,37.5868143,-122.3395756,,30.94294,0.1,92.137024,1597170491665
Fix,GT,37.5868051,-122.3392303,,31.056746,0.1,92.201294,1597170492650
Fix,GT,37.5867974,-122.3389527,,31.325205,0.1,92.25073,1597170493436
Fix,GT,37.5867874,-122.3385968,,31.552612,0.1,92.21002,1597170494436
Fix,GT,37.5867781,-122.3382391,,31.673645,0.1,91.99823,1597170495436
Fix,GT,37.5867697,-122.3378798,,31.814453,0.1,91.91022,1597170496436
Fix,GT,37.5867609,-122.3375193,,31.864662,0.1,92.092285,1597170497436
Fix,GT,37.5867512,-122.3371584,,31.916008,0.1,92.284,1597170498436
Fix,GT,37.5867409,-122.336797,,31.980383,0.1,92.2211,1597170499436
Fix,GT,37.586731,-122.3364349,,32.000473,0.1,92.08325,1597170500436
Fix,GT,37.5867217,-122.3360737,,31.777187,0.1,92.2225,1597170501436
Fix,GT,37.5867117,-122.3357156,,31.530067,0.1,92.18768,1597170502436
Fix,GT,37.5867024,-122.3353587,,31.5848,0.1,91.97888,1597170503436
Fix,GT,37.5866935,-122.3349998,,31.854279,0.1,92.06723,1597170504436
Fix,GT,37.5866836,-122.3346382,,32.017822,0.1,92.325745,1597170505436
Fix,GT,37.5866715,-122.3342764,,31.925404,0.1,93.12567,1597170506436
Fix,GT,37.5866533,-122.3339165,,31.76237,0.1,94.85132,1597170507436
Fix,GT,37.5866246,-122.3335594,,31.680502,0.1,97.38464,1597170508436
Fix,GT,37.5865831,-122.3332043,,31.71423,0.1,100.25397,1597170509436
Fix,GT,37.5865275,-122.332852,,31.70647,0.1,102.938995,1597170510436
Fix,GT,37.5864585,-122.3325046,,31.520863,0.1,105.87024,1597170511436
Fix,GT,37.5863754,-122.3321649,,31.301495,0.1,109.08209,1597170512436
Fix,GT,37.5862781,-122.3318324,,31.325233,0.1,111.98035,1597170513436
Fix,GT,37.5861671,-122.3315055,,31.495548,0.1,114.906494,1597170514436
Fix,GT,37.5860416,-122.3311842,,31.739355,0.1,118.05548,1597170515436
Fix,GT,37.5859006,-122.3308701,,31.932499,0.1,121.641785,1597170516436
Fix,GT,37.5857436,-122.3305672,,31.954134,0.1,125.18393,1597170517436
Fix,GT,37.5855735,-122.3302763,,31.815495,0.1,128.12006,1597170518436
Fix,GT,37.5853932,-122.3299969,,31.758137,0.1,130.6803,1597170519436
Fix,GT,37.5852025,-122.3297284,,31.807137,0.1,133.63382,1597170520436
Fix,GT,37.5850005,-122.3294726,,31.852272,0.1,136.5972,1597170521436
Fix,GT,37.5847892,-122.3292292,,31.7715,0.1,138.76935,1597170522436
Fix,GT,37.584574,-122.3289929,,31.67574,0.1,139.31012,1597170523436
Fix,GT,37.5843588,-122.3287573,,31.675465,0.1,139.03088,1597170524436
Fix,GT,37.5841439,-122.3285216,,31.607227,0.1,139.13065,1597170525436
Fix,GT,37.5839301,-122.3282864,,31.475231,0.1,138.87338,1597170526436
Fix,GT,37.583718,-122.3280508,,31.41277,0.1,138.70435,1597170527436
Fix,GT,37.5835053,-122.3278152,,31.532375,0.1,138.96451,1597170528436
Fix,GT,37.5832905,-122.3275799,,31.715002,0.1,139.23166,1597170529436
Fix,GT,37.5830743,-122.3273451,,31.70151,0.1,139.50049,1597170530436
Fix,GT,37.5828087,-122.3270585,,31.53844,0.1,139.53534,1597170531665
Fix,GT,37.5825954,-122.3268282,,31.469814,0.1,139.55402,1597170532656
Fix,GT,37.5823804,-122.3265958,,31.384666,0.1,139.50476,1597170533657
Fix,GT,37.5821662,-122.3263631,,31.19347,0.1,139.36221,1597170534661
Fix,GT,37.5819558,-122.3261342,,31.028425,0.1,139.28204,1597170535654
Fix,GT,37.5817465,-122.3259056,,31.09798,0.1,139.17435,1597170536645
Fix,GT,37.5815329,-122.3256724,,31.107738,0.1,139.29468,1597170537654
Fix,GT,37.5813221,-122.3254439,,30.938972,0.1,139.63678,1597170538650
Fix,GT,37.5811068,-122.3252119,,30.872318,0.1,139.54044,1597170539669
Fix,GT,37.580899,-122.3249866,,30.878277,0.1,139.40164,1597170540656
Fix,GT,37.5806856,-122.3247549,,30.85846,0.1,139.38922,1597170541670
Fix,GT,37.5804777,-122.3245291,,30.879099,0.1,139.35474,1597170542658
Fix,GT,37.5802673,-122.3243002,,31.056828,0.1,139.30118,1597170543656
Fix,GT,37.5800533,-122.3240673,,31.109882,0.1,139.4018,1597170544666
Fix,GT,37.5798436,-122.3238397,,30.91927,0.1,139.44403,1597170545657
Fix,GT,37.5796324,-122.3236104,,30.601902,0.1,139.36813,1597170546664
Fix,GT,37.5794267,-122.3233867,,30.243645,0.1,139.37451,1597170547656
Fix,GT,37.5792228,-122.3231652,,29.884804,0.1,139.43762,1597170548652
Fix,GT,37.5790172,-122.3229425,,29.524017,0.1,139.53442,1597170549666
Fix,GT,37.5788233,-122.3227329,,29.197472,0.1,139.61176,1597170550633
Fix,GT,37.5786226,-122.3225166,,29.055344,0.1,139.61221,1597170551642
Fix,GT,37.5784247,-122.3223023,,29.2563,0.1,139.36859,1597170552637
Fix,GT,37.5782213,-122.3220801,,29.676834,0.1,139.1399,1597170553653
Fix,GT,37.5780217,-122.3218609,,30.052975,0.1,139.09116,1597170554637
Fix,GT,37.5778186,-122.3216397,,30.00462,0.1,139.45657,1597170555630
Fix,GT,37.5776118,-122.3214166,,29.852377,0.1,139.6058,1597170556641
Fix,GT,37.5774092,-122.3211975,,30.006813,0.1,139.36917,1597170557633
Fix,GT,37.5772,-122.3209695,,30.220322,0.1,139.27081,1597170558654
Fix,GT,37.5769967,-122.3207478,,30.540806,0.1,139.29065,1597170559638
Fix,GT,37.5767893,-122.3205221,,30.793003,0.1,139.4112,1597170560631
Fix,GT,37.576575,-122.3202902,,30.776768,0.1,139.57553,1597170561651
Fix,GT,37.5763686,-122.3200676,,30.57827,0.1,139.51526,1597170562634
Fix,GT,37.5761565,-122.3198383,,30.294079,0.1,139.50836,1597170563654
Fix,GT,37.5759519,-122.3196171,,30.166777,0.1,139.56305,1597170564646
Fix,GT,37.5757433,-122.319392,,30.352573,0.1,139.51364,1597170565655
Fix,GT,37.5755353,-122.3191664,,30.77226,0.1,139.35779,1597170566652
Fix,GT,37.5753288,-122.3189415,,30.901741,0.1,139.21265,1597170567635
Fix,GT,37.5751146,-122.3187072,,30.812998,0.1,139.18918,1597170568657
Fix,GT,37.5749073,-122.3184807,,30.82428,0.1,139.34174,1597170569646
Fix,GT,37.5746944,-122.3182499,,30.859066,0.1,139.50568,1597170570658
Fix,GT,37.5744854,-122.3180235,,30.87478,0.1,139.47327,1597170571650
Fix,GT,37.574278,-122.3177988,,30.90699,0.1,139.50226,1597170572634
Fix,GT,37.5740627,-122.3175653,,31.184258,0.1,139.38812,1597170573652
Fix,GT,37.573852,-122.3173358,,31.4618,0.1,139.1654,1597170574639
Fix,GT,37.5736398,-122.3171037,,31.54774,0.1,139.2229,1597170575629
Fix,GT,37.5734218,-122.3168663,,31.455374,0.1,139.40826,1597170576645
Fix,GT,37.57321,-122.3166362,,31.190762,0.1,139.34473,1597170577637
Fix,GT,37.572995,-122.3164023,,31.053722,0.1,139.31647,1597170578651
Fix,GT,37.5727853,-122.3161738,,31.144098,0.1,139.28143,1597170579643
Fix,GT,37.572569,-122.315938,,31.368315,0.1,139.38898,1597170580660
Fix,GT,37.5723556,-122.315706,,31.679394,0.1,139.32602,1597170581654
Fix,GT,37.572142,-122.3154733,,32.020935,0.1,139.20123,1597170582638
Fix,GT,37.5719226,-122.3152334,,32.08322,0.1,139.15039,1597170583645
Fix,GT,37.5717047,-122.3149953,,32.109695,0.1,139.22498,1597170584644
Fix,GT,37.5714875,-122.3147585,,32.243958,0.1,139.25403,1597170585636
Fix,GT,37.5712653,-122.3145166,,32.38405,0.1,139.25665,1597170586645
Fix,GT,37.5710462,-122.3142788,,32.524414,0.1,139.44968,1597170587636
Fix,GT,37.5707973,-122.3140093,,32.830177,0.1,139.23267,1597170588751
Fix,GT,37.5706424,-122.3138406,,32.87463,0.1,139.19415,1597170589444
Fix,GT,37.5703701,-122.3135443,,32.77296,0.1,139.39679,1597170590662
Fix,GT,37.5701471,-122.3133031,,32.77505,0.1,139.51535,1597170591659
Fix,GT,37.569928,-122.3130671,,32.83899,0.1,139.58826,1597170592634
Fix,GT,37.5696992,-122.3128209,,32.796158,0.1,139.6182,1597170593652
Fix,GT,37.5694788,-122.3125831,,32.719856,0.1,139.44,1597170594637
Fix,GT,37.5692574,-122.3123428,,32.669617,0.1,139.35608,1597170595630
Fix,GT,37.5690323,-122.3120988,,32.60848,0.1,139.46643,1597170596641
Fix,GT,37.5688102,-122.311859,,32.621166,0.1,139.66956,1597170597637
Fix,GT,37.5685813,-122.3116134,,32.610096,0.1,139.72797,1597170598661
Fix,GT,37.5683609,-122.3113763,,32.503548,0.1,139.59708,1597170599650
Fix,GT,37.5681369,-122.311134,,32.311287,0.1,139.4104,1597170600662
Fix,GT,37.5679196,-122.3108974,,32.082386,0.1,139.23816,1597170601654
Fix,GT,37.5677057,-122.3106641,,31.962284,0.1,139.2948,1597170602636
Fix,GT,37.567486,-122.3104252,,31.981586,0.1,139.39972,1597170603645
Fix,GT,37.5672682,-122.310189,,32.08802,0.1,139.35425,1597170604642
Fix,GT,37.5670447,-122.309946,,32.296333,0.1,139.26086,1597170605662
Fix,GT,37.5668252,-122.3097071,,32.608776,0.1,139.33173,1597170606655
Fix,GT,37.5666064,-122.3094693,,32.79429,0.1,139.3695,1597170607636
Fix,GT,37.5663791,-122.3092227,,32.686386,0.1,139.52618,1597170608654
Fix,GT,37.5661573,-122.3089841,,32.513824,0.1,139.81723,1597170609648
Fix,GT,37.565936,-122.3087473,,32.463676,0.1,139.73877,1597170610641
Fix,GT,37.5657142,-122.3085089,,32.30058,0.1,139.55804,1597170611641
Fix,GT,37.5654958,-122.3082721,,31.974022,0.1,139.36139,1597170612637
Fix,GT,37.5652764,-122.308033,,31.588568,0.1,139.29346,1597170613652
Fix,GT,37.5650648,-122.3078024,,31.209446,0.1,139.32199,1597170614642
Fix,GT,37.5648551,-122.3075741,,30.954494,0.1,139.31622,1597170615633
Fix,GT,37.5646426,-122.3073426,,30.7441,0.1,139.2518,1597170616645
Fix,GT,37.5644363,-122.307117,,30.597754,0.1,139.11722,1597170617634
Fix,GT,37.5642267,-122.3068873,,30.523499,0.1,139.21143,1597170618645
Fix,GT,37.5640204,-122.3066628,,30.492443,0.1,139.44775,1597170619639
Fix,GT,37.5638082,-122.3064329,,30.532652,0.1,139.44492,1597170620658
Fix,GT,37.5636008,-122.3062079,,30.752563,0.1,139.45901,1597170621651
Fix,GT,37.5633937,-122.3059839,,30.893068,0.1,139.48529,1597170622634
Fix,GT,37.5631782,-122.3057506,,30.930065,0.1,139.46823,1597170623655
Fix,GT,37.5629693,-122.3055235,,30.867138,0.1,139.3999,1597170624647
Fix,GT,37.562762,-122.3052984,,30.651608,0.1,139.4342,1597170625636
Fix,GT,37.5625509,-122.3050699,,30.496775,0.1,139.4826,1597170626648
Fix,GT,37.5623453,-122.304847,,30.498512,0.1,139.35663,1597170627637
Fix,GT,37.5621344,-122.3046172,,30.593153,0.1,139.14465,1597170628651
Fix,GT,37.5619272,-122.3043905,,30.599888,0.1,139.36517,1597170629648
Fix,GT,37.5617159,-122.3041624,,30.471401,0.1,139.71405,1597170630660
Fix,GT,37.5615083,-122.3039391,,30.45106,0.1,139.64478,1597170631656
Fix,GT,37.5613007,-122.303715,,30.439247,0.1,139.51959,1597170632654
Fix,GT,37.5610933,-122.3034907,,30.340164,0.1,139.4945,1597170633653
Fix,GT,37.5608854,-122.3032653,,30.341808,0.1,139.53339,1597170634658
Fix,GT,37.5606794,-122.3030436,,30.377268,0.1,139.84515,1597170635649
Fix,GT,37.5604711,-122.3028247,,30.305054,0.1,140.66968,1597170636643
Fix,GT,37.5602568,-122.3026056,,30.256886,0.1,141.50473,1597170637656
Fix,GT,37.5600429,-122.3023935,,30.211197,0.1,142.48651,1597170638656
Fix,GT,37.5598237,-122.3021829,,30.217157,0.1,143.1189,1597170639669
Fix,GT,37.5596086,-122.3019797,,30.13816,0.1,143.43954,1597170640659
Fix,GT,37.5593889,-122.3017749,,29.945421,0.1,144.02994,1597170641670
Fix,GT,37.5591745,-122.3015785,,29.70332,0.1,144.32275,1597170642656
Fix,GT,37.5589596,-122.3013842,,29.406223,0.1,144.61447,1597170643650
Fix,GT,37.558741,-122.3011874,,29.054714,0.1,144.5777,1597170644671
Fix,GT,37.5585324,-122.3009986,,28.710695,0.1,144.49875,1597170645660
Fix,GT,37.55832,-122.3008074,,28.364964,0.1,144.77682,1597170646676
Fix,GT,37.5581163,-122.3006268,,28.121502,0.1,145.28442,1597170647656
Fix,GT,37.55791,-122.3004465,,28.050049,0.1,145.50299,1597170648650
Fix,GT,37.5577002,-122.3002638,,27.947594,0.1,145.48413,1597170649662
Fix,GT,37.5574935,-122.3000835,,27.88507,0.1,145.40665,1597170650662
Fix,GT,37.5572858,-122.2999002,,28.002243,0.1,144.89093,1597170651671
Fix,GT,37.5570827,-122.2997177,,28.238083,0.1,144.4772,1597170652657
Fix,GT,37.5568772,-122.2995302,,28.34657,0.1,144.07025,1597170653652
Fix,GT,37.55667,-122.2993387,,28.366459,0.1,143.81396,1597170654660
Fix,GT,37.5564665,-122.2991497,,28.469574,0.1,143.76846,1597170655649
Fix,GT,37.5562608,-122.2989593,,28.580706,0.1,143.88306,1597170656643
Fix,GT,37.5560631,-122.2987768,,28.70509,0.1,143.88864,1597170657594
Fix,GT,37.5558169,-122.2985484,,28.960289,0.1,143.6607,1597170658773
Fix,GT,37.55563,-122.2983741,,29.004509,0.1,143.7044,1597170659663
Fix,GT,37.555422,-122.2981811,,28.975025,0.1,143.88202,1597170660653
Fix,GT,37.5552089,-122.2979846,,28.972519,0.1,143.90094,1597170661666
Fix,GT,37.5550011,-122.2977923,,29.034124,0.1,143.73553,1597170662654
Fix,GT,37.554791,-122.2975963,,29.111834,0.1,143.45297,1597170663653
Fix,GT,37.5545786,-122.2973958,,29.052052,0.1,143.13553,1597170664666
Fix,GT,37.5543736,-122.2971997,,28.807304,0.1,142.66632,1597170665654
Fix,GT,37.5541658,-122.296997,,28.468266,0.1,142.2237,1597170666674
Fix,GT,37.5539693,-122.2968037,,28.14634,0.1,142.1076,1597170667653
Fix,GT,37.5537705,-122.2966084,,27.845106,0.1,142.48053,1597170668654
Fix,GT,37.55357,-122.2964145,,27.65942,0.1,143.01776,1597170669665
Fix,GT,37.5533536,-122.296209,,27.65213,0.1,143.39069,1597170670755
Fix,GT,37.5530171,-122.2958935,,27.760574,0.1,143.70184,1597170672437
Fix,GT,37.552815,-122.2957063,,27.988102,0.1,144.0214,1597170673437
Fix,GT,37.5526101,-122.2955176,,28.418442,0.1,143.97928,1597170674437
Fix,GT,37.5524021,-122.2953252,,28.91063,0.1,143.80432,1597170675437
Fix,GT,37.5521916,-122.2951292,,29.25824,0.1,143.61536,1597170676437
Fix,GT,37.5519791,-122.2949309,,29.521524,0.1,143.6836,1597170677437
Fix,GT,37.5517635,-122.2947309,,29.993176,0.1,143.82214,1597170678437
Fix,GT,37.5515442,-122.2945283,,30.431618,0.1,143.95227,1597170679437
Fix,GT,37.5513221,-122.2943235,,30.671154,0.1,143.87161,1597170680437
Fix,GT,37.5510999,-122.2941173,,30.579151,0.1,143.62836,1597170681437
Fix,GT,37.5508804,-122.2939115,,30.203165,0.1,143.38507,1597170682437
Fix,GT,37.5506645,-122.2937077,,29.748001,0.1,143.27536,1597170683437
Fix,GT,37.5504517,-122.2935072,,29.332283,0.1,143.4964,1597170684437
Fix,GT,37.5502405,-122.2933095,,29.163498,0.1,143.53223,1597170685437
Fix,GT,37.5500299,-122.2931119,,29.22552,0.1,143.37888,1597170686437
Fix,GT,37.5498186,-122.2929133,,29.34219,0.1,143.41513,1597170687437
Fix,GT,37.5496065,-122.2927149,,29.355843,0.1,143.5928,1597170688437
Fix,GT,37.5493946,-122.2925163,,29.3599,0.1,143.37744,1597170689437
Fix,GT,37.5491826,-122.2923159,,29.558065,0.1,143.12628,1597170690437
Fix,GT,37.5489691,-122.2921138,,29.75594,0.1,143.34943,1597170691437
Fix,GT,37.5487539,-122.2919125,,29.759956,0.1,143.70224,1597170692437
Fix,GT,37.5485386,-122.291713,,29.606693,0.1,143.87769,1597170693437
Fix,GT,37.5483242,-122.2915159,,29.368763,0.1,144.16583,1597170694437
Fix,GT,37.5481108,-122.2913204,,29.321823,0.1,144.08038,1597170695437
Fix,GT,37.5478973,-122.2911235,,29.475487,0.1,143.82944,1597170696437
Fix,GT,37.5476827,-122.2909245,,29.806118,0.1,143.72983,1597170697437
Fix,GT,37.5474659,-122.2907224,,30.126488,0.1,143.59448,1597170698437
Fix,GT,37.5472474,-122.2905191,,30.201597,0.1,143.75848,1597170699437
Fix,GT,37.5470286,-122.2903165,,30.114357,0.1,143.75217,1597170700437
Fix,GT,37.546811,-122.2901139,,30.034565,0.1,143.58966,1597170701437
Fix,GT,37.5465936,-122.2899112,,30.114548,0.1,143.68854,1597170702437
Fix,GT,37.5463749,-122.2897081,,30.285032,0.1,143.7229,1597170703437
Fix,GT,37.5461549,-122.2895039,,30.427711,0.1,143.79001,1597170704437
Fix,GT,37.545886,-122.2892543,,30.542492,0.1,143.70255,1597170705654
Fix,GT,37.5456622,-122.2890462,,30.535122,0.1,143.72351,1597170706666
Fix,GT,37.5454446,-122.2888436,,30.529175,0.1,143.61832,1597170707651
Fix,GT,37.5452233,-122.2886373,,30.619831,0.1,143.6308,1597170708652
Fix,GT,37.5449992,-122.2884288,,30.549654,0.1,143.7922,1597170709663
Fix,GT,37.5447801,-122.2882256,,30.63747,0.1,143.73306,1597170710653
Fix,GT,37.5445337,-122.2879969,,30.824553,0.1,144.01297,1597170711758
Fix,GT,37.5443784,-122.2878546,,30.863201,0.1,144.1944,1597170712449
Fix,GT,37.5441087,-122.2876078,,30.901428,0.1,143.92612,1597170713649
Fix,GT,37.5438832,-122.2873986,,30.936073,0.1,143.73059,1597170714655
Fix,GT,37.5436611,-122.2871926,,30.83475,0.1,143.84155,1597170715647
Fix,GT,37.5434348,-122.2869833,,30.720436,0.1,143.88965,1597170716661
Fix,GT,37.5432139,-122.2867787,,30.729317,0.1,143.7644,1597170717653
Fix,GT,37.5429924,-122.2865726,,30.778904,0.1,143.61047,1597170718648
Fix,GT,37.542767,-122.2863622,,30.819359,0.1,143.70105,1597170719660
Fix,GT,37.5425455,-122.2861572,,30.889019,0.1,143.89243,1597170720650
Fix,GT,37.5423171,-122.2859467,,31.039951,0.1,144.01147,1597170721666
Fix,GT,37.5420945,-122.285742,,31.253016,0.1,144.00739,1597170722649
Fix,GT,37.5418666,-122.285532,,31.455662,0.1,143.89935,1597170723649
Fix,GT,37.5416354,-122.2853192,,31.361504,0.1,144.1012,1597170724661
Fix,GT,37.54141,-122.2851134,,31.058538,0.1,144.1955,1597170725651
Fix,GT,37.5411822,-122.2849051,,30.727295,0.1,144.15344,1597170726664
Fix,GT,37.5409616,-122.284703,,30.67012,0.1,144.14581,1597170727652
Fix,GT,37.5407393,-122.2844999,,30.610777,0.1,144.24966,1597170728648
Fix,GT,37.5405132,-122.2842929,,30.625875,0.1,144.05493,1597170729663
Fix,GT,37.5402926,-122.2840894,,30.722801,0.1,143.84058,1597170730654
Fix,GT,37.5400663,-122.2838799,,30.813316,0.1,143.77405,1597170731668
Fix,GT,37.5398472,-122.2836776,,30.6538,0.1,143.9674,1597170732649
Fix,GT,37.5396257,-122.2834733,,30.309235,0.1,144.0141,1597170733650
Fix,GT,37.5394055,-122.283271,,30.052437,0.1,144.0708,1597170734654
Fix,GT,37.5391889,-122.2830724,,29.855927,0.1,144.0781,1597170735647
Fix,GT,37.5389702,-122.2828718,,29.635345,0.1,144.10904,1597170736658
Fix,GT,37.5387571,-122.2826764,,29.496939,0.1,144.06042,1597170737649
Fix,GT,37.538542,-122.2824789,,29.520956,0.1,143.9682,1597170738652
Fix,GT,37.5383236,-122.282277,,29.851315,0.1,143.69443,1597170739666
Fix,GT,37.5381097,-122.2820771,,29.913944,0.1,143.56268,1597170740655
Fix,GT,37.5378923,-122.2818734,,29.848465,0.1,143.51831,1597170741663
Fix,GT,37.53768,-122.2816751,,29.732376,0.1,143.74536,1597170742649
Fix,GT,37.5374653,-122.2814762,,29.476627,0.1,143.88599,1597170743649
Fix,GT,37.5372512,-122.2812786,,29.284172,0.1,143.86758,1597170744654
Fix,GT,37.5370403,-122.2810831,,29.4789,0.1,143.71472,1597170745645
Fix,GT,37.5368221,-122.2808803,,29.531055,0.1,143.77103,1597170746665
Fix,GT,37.5366108,-122.2806846,,29.436111,0.1,143.88556,1597170747654
Fix,GT,37.5363978,-122.2804879,,29.41333,0.1,143.86722,1597170748651
Fix,GT,37.5361816,-122.2802884,,29.265255,0.1,143.84106,1597170749666
Fix,GT,37.5359724,-122.2800944,,29.237118,0.1,143.7396,1597170750653
Fix,GT,37.5357569,-122.2798943,,29.137188,0.1,143.76025,1597170751672
Fix,GT,37.5355509,-122.2797043,,28.903473,0.1,143.99481,1597170752649
Fix,GT,37.5353417,-122.2795125,,28.666626,0.1,144.06726,1597170753648
Fix,GT,37.5351118,-122.2793013,,28.531517,0.1,143.92877,1597170754754
Fix,GT,37.534969,-122.2791691,,28.50115,0.1,143.77075,1597170755445
Fix,GT,37.5347192,-122.2789369,,28.311628,0.1,143.69089,1597170756658
Fix,GT,37.534517,-122.2787495,,28.006947,0.1,143.86218,1597170757649
Fix,GT,37.5343147,-122.278563,,27.709955,0.1,143.97382,1597170758649
Fix,GT,37.534112,-122.2783765,,27.591007,0.1,143.91623,1597170759658
Fix,GT,37.5339131,-122.2781926,,27.629078,0.1,143.8241,1597170760651
Fix,GT,37.5337105,-122.2780045,,27.696148,0.1,143.69244,1597170761662
Fix,GT,37.5335112,-122.2778188,,28.000603,0.1,143.6272,1597170762652
Fix,GT,37.533307,-122.2776287,,28.533304,0.1,143.68906,1597170763651
Fix,GT,37.5331132,-122.2774483,,29.086346,0.1,143.64209,1597170764581
Fix,GT,37.5328581,-122.2772111,,29.92746,0.1,143.82251,1597170765776
Fix,GT,37.532666,-122.2770336,,30.411934,0.1,143.84564,1597170766651
Fix,GT,37.5324496,-122.2768335,,30.565231,0.1,143.85803,1597170767629
Fix,GT,37.5322228,-122.276624,,30.449133,0.1,143.92538,1597170768652
Fix,GT,37.5320035,-122.276422,,30.16232,0.1,143.91998,1597170769648
Fix,GT,37.5317841,-122.2762192,,29.81939,0.1,143.60962,1597170770657
Fix,GT,37.5315722,-122.2760197,,29.583334,0.1,143.06924,1597170771646
Fix,GT,37.5313645,-122.2758208,,29.467098,0.1,142.68066,1597170772629
Fix,GT,37.5311499,-122.275612,,29.552824,0.1,142.00848,1597170773650
Fix,GT,37.5309437,-122.2754072,,29.642542,0.1,141.54907,1597170774636
Fix,GT,37.5307327,-122.275194,,29.698719,0.1,141.04669,1597170775649
Fix,GT,37.5305279,-122.2749825,,29.776888,0.1,140.42584,1597170776639
Fix,GT,37.5303236,-122.274768,,29.945835,0.1,140.0581,1597170777630
Fix,GT,37.5301125,-122.2745426,,30.330574,0.1,139.56299,1597170778650
Fix,GT,37.5299068,-122.2743189,,30.597809,0.1,138.86081,1597170779642
Fix,GT,37.529697,-122.2740849,,30.812841,0.1,138.23291,1597170780656
Fix,GT,37.5294914,-122.2738511,,30.918097,0.1,137.91623,1597170781652
Fix,GT,37.5292882,-122.2736203,,31.009897,0.1,138.16348,1597170782634
Fix,GT,37.5290766,-122.2733804,,31.2232,0.1,137.9668,1597170783651
Fix,GT,37.5288704,-122.2731446,,31.273746,0.1,137.82602,1597170784641
Fix,GT,37.5286604,-122.272904,,31.117313,0.1,137.82861,1597170785652
Fix,GT,37.5284556,-122.2726692,,31.001759,0.1,137.82574,1597170786644
Fix,GT,37.5282519,-122.2724356,,31.003498,0.1,137.85779,1597170787632
Fix,GT,37.5280433,-122.2721973,,31.033207,0.1,137.99707,1597170788641
Fix,GT,37.5278364,-122.2719615,,31.200998,0.1,138.00455,1597170789639
Fix,GT,37.5276251,-122.2717205,,31.265858,0.1,137.94958,1597170790652
Fix,GT,37.5274142,-122.2714805,,31.076876,0.1,138.11554,1597170791665
Fix,GT,37.5272099,-122.2712481,,30.838272,0.1,138.02829,1597170792653
Fix,GT,37.5270075,-122.2710172,,30.618923,0.1,138.02072,1597170793641
Fix,GT,37.5268012,-122.2707828,,30.402603,0.1,138.01892,1597170794653
Fix,GT,37.5266007,-122.2705547,,30.167233,0.1,137.97412,1597170795645
Fix,GT,37.5263981,-122.2703232,,29.921417,0.1,137.94376,1597170796657
Fix,GT,37.5262011,-122.2700984,,29.785076,0.1,137.96945,1597170797648
Fix,GT,37.5260025,-122.2698719,,29.849926,0.1,138.16559,1597170798646
Fix,GT,37.525799,-122.2696433,,29.934164,0.1,138.59637,1597170799661
Fix,GT,37.5255986,-122.2694202,,29.980587,0.1,138.66772,1597170800653
Fix,GT,37.5253938,-122.2691915,,30.219479,0.1,138.47583,1597170801664
Fix,GT,37.5251923,-122.2689648,,30.490242,0.1,138.38104,1597170802652
Fix,GT,37.5249877,-122.2687342,,30.635757,0.1,138.27472,1597170803650
Fix,GT,37.52478,-122.2684995,,30.763058,0.1,138.15842,1597170804660
Fix,GT,37.5245755,-122.2682672,,30.92414,0.1,138.07178,1597170805653
Fix,GT,37.5243658,-122.2680288,,31.183216,0.1,138.08978,1597170806664
Fix,GT,37.5241594,-122.2677943,,31.49729,0.1,138.09192,1597170807650
Fix,GT,37.5239478,-122.267554,,31.836002,0.1,138.13171,1597170808650
Fix,GT,37.5237309,-122.2673085,,32.04448,0.1,138.2677,1597170809664
Fix,GT,37.5235194,-122.2670706,,32.087498,0.1,138.49731,1597170810646
Fix,GT,37.5233007,-122.2668264,,31.959152,0.1,138.64215,1597170811661
Fix,GT,37.5230885,-122.2665897,,31.772282,0.1,138.50531,1597170812649
Fix,GT,37.5228759,-122.2663506,,31.587715,0.1,138.27014,1597170813649
Fix,GT,37.5226619,-122.2661085,,31.39892,0.1,138.16364,1597170814664
Fix,GT,37.5224541,-122.2658725,,31.311115,0.1,138.00742,1597170815656
Fix,GT,37.5222453,-122.2656345,,31.152117,0.1,137.98016,1597170816658
Fix,GT,37.52204,-122.2654008,,30.901142,0.1,138.07538,1597170817650
Fix,GT,37.5218353,-122.2651685,,30.71764,0.1,138.12183,1597170818644
Fix,GT,37.5216266,-122.2649316,,30.652979,0.1,138.0904,1597170819662
Fix,GT,37.521423,-122.2647004,,30.721567,0.1,138.09479,1597170820655
Fix,GT,37.5212158,-122.2644652,,30.71037,0.1,138.22272,1597170821664
Fix,GT,37.5210119,-122.2642352,,30.620247,0.1,138.36475,1597170822656
Fix,GT,37.5208031,-122.2640006,,30.611935,0.1,138.4328,1597170823671
Fix,GT,37.5206003,-122.2637731,,30.623663,0.1,138.42148,1597170824657
Fix,GT,37.5203958,-122.263543,,30.56511,0.1,138.24884,1597170825654
Fix,GT,37.520189,-122.2633083,,30.503193,0.1,137.9259,1597170826667
Fix,GT,37.5199887,-122.2630788,,30.51109,0.1,137.78033,1597170827654
Fix,GT,37.5197872,-122.2628485,,30.653862,0.1,137.95135,1597170828643
Fix,GT,37.5195778,-122.2626105,,30.83332,0.1,138.16315,1597170829663
Fix,GT,37.5193726,-122.2623788,,30.870655,0.1,138.28918,1597170830655
Fix,GT,37.5191631,-122.2621425,,30.963701,0.1,138.15112,1597170831667
Fix,GT,37.5189574,-122.2619087,,31.14343,0.1,138.00348,1597170832659
Fix,GT,37.5187484,-122.2616709,,31.31425,0.1,138.05469,1597170833661
Fix,GT,37.5185395,-122.261434,,31.474068,0.1,138.21399,1597170834656
Fix,GT,37.5183292,-122.2611968,,31.638222,0.1,138.32513,1597170835650
Fix,GT,37.5181141,-122.2609546,,31.6627,0.1,138.32745,1597170836663
Fix,GT,37.5179053,-122.2607189,,31.549335,0.1,138.20709,1597170837649
Fix,GT,37.5176908,-122.2604759,,31.422794,0.1,138.19067,1597170838668
Fix,GT,37.517483,-122.2602405,,31.348883,0.1,138.12402,1597170839657
Fix,GT,37.5172736,-122.2600022,,31.282951,0.1,137.9491,1597170840659
Fix,GT,37.5170626,-122.2597617,,31.219936,0.1,138.07922,1597170841671
Fix,GT,37.5168584,-122.2595306,,31.18543,0.1,138.26959,1597170842649
Fix,GT,37.5166488,-122.2592945,,31.12878,0.1,138.38449,1597170843652
Fix,GT,37.5164381,-122.2590574,,31.05573,0.1,138.2937,1597170844662
Fix,GT,37.516232,-122.2588248,,30.97976,0.1,138.19055,1597170845653
Fix,GT,37.5160227,-122.2585879,,30.933666,0.1,138.17612,1597170846664
Fix,GT,37.515819,-122.2583571,,30.967522,0.1,138.12518,1597170847649
Fix,GT,37.5156113,-122.2581218,,31.074032,0.1,138.2406,1597170848649
Fix,GT,37.5154007,-122.2578841,,31.070663,0.1,138.2172,1597170849660
Fix,GT,37.515196,-122.2576526,,30.964275,0.1,138.23737,1597170850646
Fix,GT,37.5149866,-122.2574162,,30.860344,0.1,138.31488,1597170851657
Fix,GT,37.5147814,-122.2571849,,30.873253,0.1,138.28287,1597170852649
Fix,GT,37.5145758,-122.2569529,,30.925823,0.1,138.1955,1597170853642
Fix,GT,37.5143662,-122.2567157,,30.977283,0.1,138.16754,1597170854653
Fix,GT,37.5141599,-122.2564823,,31.014824,0.1,138.26926,1597170855648
Fix,GT,37.5139498,-122.2562465,,30.997437,0.1,138.46375,1597170856656
Fix,GT,37.5137433,-122.256015,,30.90271,0.1,138.46344,1597170857649
Fix,GT,37.5135365,-122.2557829,,30.831678,0.1,138.3782,1597170858647
Fix,GT,37.5133278,-122.255548,,30.765507,0.1,138.31488,1597170859657
Fix,GT,37.5131244,-122.2553182,,30.674921,0.1,138.25568,1597170860646
Fix,GT,37.5129147,-122.2550815,,30.574394,0.1,138.29059,1597170861667
Fix,GT,37.5127129,-122.2548542,,30.475307,0.1,138.3262,1597170862654
Fix,GT,37.5125096,-122.254625,,30.377048,0.1,138.20135,1597170863650
Fix,GT,37.5123045,-122.2543921,,30.300083,0.1,137.96405,1597170864662
Fix,GT,37.5121045,-122.2541644,,30.188509,0.1,138.09064,1597170865652
