MessageType,Provider,LatitudeDegrees,LongitudeDegrees,AltitudeMeters,SpeedMps,AccuracyMeters,BearingDegrees,UnixTimeMillis
Fix,GT,37.4273296,-122.0699109,,0.001,0.1,180.83191,1597354877444
Fix,GT,37.4273296,-122.0699109,,0.001,0.1,180.8319,1597354878444
Fix,GT,37.4273296,-122.0699109,,0.0005555333,0.1,180.83197,1597354879444
Fix,GT,37.4273296,-122.0699109,,0.0004444668,0.1,180.83214,1597354880444
Fix,GT,37.4273296,-122.0699109,,0.001,0.1,180.83217,1597354881444
Fix,GT,37.4273296,-122.0699109,,0.0011841042,0.1,180.83195,1597354882444
Fix,GT,37.4273296,-122.0699109,,0.0014142136,0.1,180.83168,1597354883444
Fix,GT,37.4273296,-122.0699109,,0.0014142136,0.1,180.83171,1597354884444
Fix,GT,37.4273296,-122.0699109,,0.0012301095,0.1,180.8317,1597354885444
Fix,GT,37.4273296,-122.0699109,,0.0010000002,0.1,180.83168,1597354886444
Fix,GT,37.4273296,-122.0699109,,0.0010000002,0.1,180.83145,1597354887444
Fix,GT,37.4273296,-122.0699109,,0.001,0.1,180.83124,1597354888444
Fix,GT,37.4273296,-122.0699109,,0.001,0.1,180.83128,1597354889444
Fix,GT,37.4273296,-122.0699109,,0.0011841042,0.1,180.83133,1597354890444
Fix,GT,37.4273296,-122.0699109,,0.0012301095,0.1,180.8313,1597354891444
Fix,GT,37.4273296,-122.0699109,,0.00055553333,0.1,180.83167,1597354892444
Fix,GT,37.4273296,-122.0699109,,0.00044446677,0.1,180.832,1597354893444
Fix,GT,37.4273296,-122.0699109,,0.0010000002,0.1,180.8317,1597354894444
Fix,GT,37.4273296,-122.0699109,,0.0011841042,0.1,180.8313,1597354895444
Fix,GT,37.4273296,-122.0699109,,0.0016745762,0.1,180.83147,1597354896444
Fix,GT,37.4273296,-122.0699109,,0.0015555334,0.1,180.83177,1597354897444
Fix,GT,37.4273296,-122.0699109,,0.0011841042,0.1,180.83153,1597354898444
Fix,GT,37.4273296,-122.0699109,,0.0014142136,0.1,180.83138,1597354899444
Fix,GT,37.4273296,-122.0699109,,0.0012301095,0.1,180.83116,1597354900444
Fix,GT,37.4273296,-122.0699109,,0.0010000002,0.1,180.83104,1597354901444
Fix,GT,37.4273296,-122.0699109,,0.0010000002,0.1,180.83115,1597354902444
Fix,GT,37.4273296,-122.0699109,,0.0010000002,0.1,180.83131,1597354903444
Fix,GT,37.4273296,-122.0699109,,0.0011841042,0.1,180.83138,1597354904444
Fix,GT,37.4273296,-122.0699109,,0.0012301095,0.1,180.83128,1597354905444
Fix,GT,37.4273296,-122.0699109,,0.0010000002,0.1,180.83119,1597354906444
Fix,GT,37.4273296,-122.0699109,,0.0010000002,0.1,180.83104,1597354907444
Fix,GT,37.4273296,-122.0699109,,0.00055553333,0.1,180.83095,1597354908444
Fix,GT,37.4273296,-122.0699109,,0.0,0.1,180.8311,1597354909444
Fix,GT,37.4273296,-122.0699109,,0.0008889336,0.1,180.83138,1597354910444
Fix,GT,37.4273296,-122.0699109,,0.0017396375,0.1,180.83136,1597354911444
Fix,GT,37.4273296,-122.0699109,,0.0014142136,0.1,180.83118,1597354912444
Fix,GT,37.4273296,-122.0699109,,0.0014142136,0.1,180.8312,1597354913444
Fix,GT,37.4273296,-122.0699109,,0.0016745762,0.1,180.83119,1597354914444
Fix,GT,37.4273296,-122.0699109,,0.0011110666,0.1,180.83119,1597354915444
Fix,GT,37.4273296,-122.0699109,,0.0004444668,0.1,180.8312,1597354916444
Fix,GT,37.4273296,-122.0699109,,0.001,0.1,180.83125,1597354917444
Fix,GT,37.4273296,-122.0699109,,0.0014444669,0.1,180.8312,1597354918444
Fix,GT,37.4273296,-122.0699109,,0.002444467,0.1,180.83107,1597354919444
Fix,GT,37.4273296,-122.0699109,,0.0025555333,0.1,180.83098,1597354920444
Fix,GT,37.4273296,-122.0699109,,0.0025165938,0.1,180.83092,1597354921444
Fix,GT,37.4273296,-122.0699109,,0.0027506081,0.1,180.83087,1597354922444
Fix,GT,37.4273296,-122.0699109,,0.001870781,0.1,180.8308,1597354923444
Fix,GT,37.4273296,-122.0699109,,0.00078564265,0.1,180.83069,1597354924444
Fix,GT,37.4273296,-122.0699109,,0.000993858,0.1,180.83061,1597354925444
Fix,GT,37.4273296,-122.0699109,,0.0016866769,0.1,180.83067,1597354926444
Fix,GT,37.4273296,-122.0699109,,0.0014444669,0.1,180.83058,1597354927444
Fix,GT,37.4273296,-122.0699109,,0.0011110666,0.1,180.83046,1597354928444
Fix,GT,37.4273296,-122.0699109,,0.0004444668,0.1,180.83035,1597354929444
Fix,GT,37.4273296,-122.0699109,,0.001,0.1,180.83041,1597354930444
Fix,GT,37.4273296,-122.0699109,,0.001812675,0.1,180.83015,1597354931444
Fix,GT,37.4273296,-122.0699109,,0.002199856,0.1,180.82994,1597354932444
Fix,GT,37.4273296,-122.0699109,,0.0012301094,0.1,180.83012,1597354933444
Fix,GT,37.4273295,-122.0699109,,0.08989778,0.1,180.83244,1597354934444
Fix,GT,37.4273275,-122.069911,,0.4534673,0.1,180.84865,1597354935444
Fix,GT,37.4273209,-122.0699113,,0.99276286,0.1,181.5361,1597354936444
Fix,GT,37.4273094,-122.0699125,,1.602654,0.1,182.90775,1597354937444
Fix,GT,37.4272911,-122.0699142,,2.5885558,0.1,183.65718,1597354938444
Fix,GT,37.4272617,-122.0699166,,3.9823675,0.1,183.79709,1597354939444
Fix,GT,37.4272188,-122.0699202,,5.4836245,0.1,183.99452,1597354940444
Fix,GT,37.4271643,-122.0699252,,6.4832687,0.1,184.44405,1597354941444
Fix,GT,37.4271048,-122.0699306,,6.646098,0.1,183.99034,1597354942444
Fix,GT,37.4270458,-122.0699341,,6.4436054,0.1,182.35492,1597354943444
Fix,GT,37.4269893,-122.0699359,,6.0355625,0.1,181.31773,1597354944444
Fix,GT,37.4269386,-122.0699377,,5.1192636,0.1,182.05254,1597354945444
Fix,GT,37.4268987,-122.0699438,,3.880593,0.1,188.55081,1597354946444
Fix,GT,37.4268707,-122.0699599,,3.127647,0.1,204.90569,1597354947444
Fix,GT,37.4268542,-122.0699867,,2.9243963,0.1,228.87016,1597354948444
Fix,GT,37.4268481,-122.0700194,,3.0847833,0.1,251.264,1597354949444
Fix,GT,37.4268437,-122.0700562,,3.564987,0.1,258.96255,1597354950444
Fix,GT,37.4268301,-122.0700957,,4.0200806,0.1,246.52924,1597354951444
Fix,GT,37.4268022,-122.070127,,4.378131,0.1,221.78899,1597354952444
Fix,GT,37.4267627,-122.0701422,,4.9193707,0.1,197.56076,1597354953444
Fix,GT,37.426714,-122.0701449,,5.9135737,0.1,183.17964,1597354954444
Fix,GT,37.4266554,-122.0701428,,6.9738464,0.1,178.98468,1597354955444
Fix,GT,37.4265901,-122.0701406,,7.411621,0.1,178.92322,1597354956444
Fix,GT,37.4265239,-122.0701392,,7.2699213,0.1,179.67285,1597354957444
Fix,GT,37.4264587,-122.0701394,,7.3397956,0.1,180.58281,1597354958444
Fix,GT,37.4263897,-122.07014,,8.066418,0.1,180.64174,1597354959444
Fix,GT,37.4263127,-122.0701403,,9.048534,0.1,180.27737,1597354960444
Fix,GT,37.4262276,-122.0701394,,9.793887,0.1,179.76103,1597354961444
Fix,GT,37.426138,-122.0701378,,10.004181,0.1,179.4143,1597354962444
Fix,GT,37.4260484,-122.0701363,,9.870277,0.1,179.4953,1597354963444
Fix,GT,37.4259601,-122.070136,,9.730866,0.1,180.61029,1597354964444
Fix,GT,37.4258736,-122.0701383,,9.458754,0.1,182.06886,1597354965444
Fix,GT,37.4257896,-122.070142,,9.246574,0.1,182.02707,1597354966444
Fix,GT,37.4257068,-122.0701441,,9.1089115,0.1,180.84866,1597354967444
Fix,GT,37.4256259,-122.070143,,8.789584,0.1,179.23358,1597354968444
Fix,GT,37.425548,-122.0701409,,8.551825,0.1,179.14105,1597354969444
Fix,GT,37.4254711,-122.0701418,,8.579996,0.1,181.36404,1597354970444
Fix,GT,37.4253937,-122.0701454,,8.578888,0.1,182.22084,1597354971444
Fix,GT,37.4253173,-122.070147,,8.324385,0.1,180.47427,1597354972444
Fix,GT,37.4252452,-122.0701462,,7.5477095,0.1,179.34052,1597354973444
Fix,GT,37.4251825,-122.070144,,6.3854494,0.1,177.888,1597354974444
Fix,GT,37.4251298,-122.0701356,,5.521429,0.1,170.03577,1597354975444
Fix,GT,37.4250869,-122.0701112,,5.0629406,0.1,151.73996,1597354976444
Fix,GT,37.4250596,-122.0700698,,4.60328,0.1,126.578705,1597354977444
Fix,GT,37.4250476,-122.0700231,,4.118672,0.1,108.08618,1597354978444
Fix,GT,37.4250371,-122.0699817,,3.6015491,0.1,109.339905,1597354979444
Fix,GT,37.4250177,-122.0699525,,3.2823615,0.1,128.36401,1597354980444
Fix,GT,37.4249894,-122.0699396,,3.5040498,0.1,155.13092,1597354981444
Fix,GT,37.4249555,-122.0699457,,4.235626,0.1,185.03735,1597354982444
Fix,GT,37.4249205,-122.0699756,,5.3568525,0.1,214.28323,1597354983444
Fix,GT,37.4248923,-122.070031,,6.5607266,0.1,240.41768,1597354984444
Fix,GT,37.4248783,-122.0701075,,7.572754,0.1,260.59955,1597354985444
Fix,GT,37.424875,-122.0701969,,8.290412,0.1,269.17694,1597354986444
Fix,GT,37.4248747,-122.0702943,,8.967943,0.1,270.8112,1597354987444
Fix,GT,37.4248751,-122.0704,,9.800209,0.1,270.94437,1597354988444
Fix,GT,37.4248758,-122.070516,,10.755426,0.1,270.6746,1597354989444
Fix,GT,37.4248754,-122.0706424,,11.563482,0.1,269.96838,1597354990444
Fix,GT,37.4248744,-122.0707764,,12.112487,0.1,269.70377,1597354991444
Fix,GT,37.4248731,-122.0709159,,12.560885,0.1,269.70703,1597354992444
Fix,GT,37.4248724,-122.071059,,12.722934,0.1,270.1676,1597354993444
Fix,GT,37.4248728,-122.0712023,,12.656412,0.1,270.7849,1597354994444
Fix,GT,37.4248742,-122.0713454,,12.767141,0.1,270.97134,1597354995444
Fix,GT,37.4248754,-122.0714908,,12.983343,0.1,270.76263,1597354996444
Fix,GT,37.4248761,-122.0716382,,13.05448,0.1,270.56357,1597354997444
Fix,GT,37.4248766,-122.0717853,,12.989318,0.1,270.4578,1597354998444
Fix,GT,37.4248767,-122.0719318,,12.984752,0.1,270.1307,1597354999444
Fix,GT,37.4248762,-122.0720785,,12.965634,0.1,269.92303,1597355000444
Fix,GT,37.4248757,-122.0722246,,12.902601,0.1,269.9607,1597355001444
Fix,GT,37.4248753,-122.0723704,,12.908766,0.1,269.9801,1597355002444
Fix,GT,37.4248748,-122.0725164,,12.944365,0.1,269.90033,1597355003444
Fix,GT,37.4248739,-122.0726631,,13.016676,0.1,269.8529,1597355004444
Fix,GT,37.4248734,-122.0728106,,13.128333,0.1,269.9092,1597355005444
Fix,GT,37.4248728,-122.0729594,,13.203577,0.1,269.96973,1597355006444
Fix,GT,37.4248724,-122.0731086,,13.186083,0.1,270.09866,1597355007444
Fix,GT,37.4248724,-122.0732577,,13.203571,0.1,270.14392,1597355008444
Fix,GT,37.4248719,-122.0734075,,13.316744,0.1,269.76147,1597355009444
Fix,GT,37.4248703,-122.0735586,,13.433975,0.1,269.42175,1597355010444
Fix,GT,37.4248683,-122.073711,,13.520995,0.1,269.34338,1597355011444
Fix,GT,37.4248665,-122.073864,,13.576868,0.1,269.52173,1597355012444
Fix,GT,37.4248664,-122.0740177,,13.663771,0.1,270.63086,1597355013444
Fix,GT,37.4248684,-122.0741725,,13.738985,0.1,271.1267,1597355014444
Fix,GT,37.4248695,-122.074328,,13.806976,0.1,270.3684,1597355015444
Fix,GT,37.4248695,-122.0744844,,13.891723,0.1,270.2891,1597355016444
Fix,GT,37.4248703,-122.0746413,,13.8639145,0.1,270.65604,1597355017444
Fix,GT,37.4248713,-122.0747971,,13.673096,0.1,270.68594,1597355018444
Fix,GT,37.4248724,-122.0749497,,13.33428,0.1,270.71063,1597355019444
Fix,GT,37.4248734,-122.0750987,,13.035854,0.1,270.618,1597355020444
Fix,GT,37.4248738,-122.0752447,,12.820141,0.1,270.28192,1597355021444
Fix,GT,37.4248738,-122.0753885,,12.6533575,0.1,270.17255,1597355022444
Fix,GT,37.4248738,-122.0755309,,12.55145,0.1,270.25244,1597355023444
Fix,GT,37.4248736,-122.0756723,,12.471699,0.1,270.08112,1597355024444
Fix,GT,37.4248732,-122.0758129,,12.418704,0.1,270.02325,1597355025444
Fix,GT,37.424873,-122.075953,,12.388908,0.1,270.08896,1597355026444
Fix,GT,37.4248728,-122.0760931,,12.433485,0.1,270.03998,1597355027444
Fix,GT,37.4248724,-122.0762339,,12.479181,0.1,269.89972,1597355028444
Fix,GT,37.4248715,-122.0763745,,12.368203,0.1,269.69547,1597355029444
Fix,GT,37.4248703,-122.076513,,12.175638,0.1,269.74512,1597355030444
Fix,GT,37.4248698,-122.0766496,,12.079595,0.1,270.13934,1597355031444
Fix,GT,37.42487,-122.0767856,,11.9802065,0.1,270.57324,1597355032444
Fix,GT,37.4248708,-122.0769196,,11.731349,0.1,270.7163,1597355033444
Fix,GT,37.4248714,-122.0770504,,11.406336,0.1,270.44073,1597355034444
Fix,GT,37.4248712,-122.077177,,10.996828,0.1,270.00827,1597355035444
Fix,GT,37.4248701,-122.0772988,,10.490635,0.1,269.2831,1597355036444
Fix,GT,37.4248672,-122.0774128,,9.635014,0.1,267.79514,1597355037444
Fix,GT,37.424862,-122.0775142,,8.28403,0.1,266.0833,1597355038444
Fix,GT,37.4248556,-122.0775988,,6.71307,0.1,264.44275,1597355039444
Fix,GT,37.4248496,-122.0776642,,4.921315,0.1,263.69894,1597355040444
Fix,GT,37.4248464,-122.0777082,,2.9594243,0.1,265.36472,1597355041444
Fix,GT,37.4248457,-122.0777316,,1.2731351,0.1,267.74887,1597355042444
Fix,GT,37.4248458,-122.0777396,,0.2765621,0.1,268.89597,1597355043444
Fix,GT,37.4248459,-122.077741,,0.0424511,0.1,269.07245,1597355044444
Fix,GT,37.424846,-122.0777415,,0.04556077,0.1,269.13977,1597355045444
Fix,GT,37.4248462,-122.0777419,,0.03282687,0.1,269.20068,1597355046444
Fix,GT,37.4248464,-122.0777421,,0.13046622,0.1,269.25546,1597355047444
Fix,GT,37.4248466,-122.0777461,,0.7743792,0.1,269.59866,1597355048444
Fix,GT,37.424847,-122.0777623,,2.1977932,0.1,270.102,1597355049444
Fix,GT,37.4248473,-122.0777968,,3.87411,0.1,270.22632,1597355050444
Fix,GT,37.4248463,-122.0778492,,5.2509046,0.1,268.06927,1597355051444
Fix,GT,37.4248383,-122.0779121,,5.8730106,0.1,258.79404,1597355052444
Fix,GT,37.4248164,-122.0779726,,6.0368624,0.1,242.5437,1597355053444
Fix,GT,37.4247782,-122.0780253,,6.7648954,0.1,225.36153,1597355054444
Fix,GT,37.4247227,-122.0780682,,7.8272905,0.1,208.71518,1597355055444
Fix,GT,37.4246515,-122.0780944,,8.782274,0.1,193.28737,1597355056444
Fix,GT,37.4245687,-122.0781029,,9.711007,0.1,182.80096,1597355057444
Fix,GT,37.424477,-122.0780998,,10.566235,0.1,177.99695,1597355058444
Fix,GT,37.424379,-122.0780923,,11.13317,0.1,176.63062,1597355059444
Fix,GT,37.4242783,-122.0780831,,11.214825,0.1,176.03558,1597355060444
Fix,GT,37.4241784,-122.0780733,,11.013151,0.1,175.82568,1597355061444
Fix,GT,37.4240808,-122.0780642,,10.67789,0.1,176.30109,1597355062444
Fix,GT,37.423987,-122.0780559,,10.15436,0.1,176.07239,1597355063444
Fix,GT,37.423899,-122.0780467,,9.379844,0.1,175.09729,1597355064444
Fix,GT,37.4238195,-122.0780373,,8.2774105,0.1,174.9519,1597355065444
Fix,GT,37.4237505,-122.07803,,7.062146,0.1,175.66711,1597355066444
Fix,GT,37.4236928,-122.0780251,,5.7156196,0.1,176.87695,1597355067444
Fix,GT,37.4236484,-122.0780225,,4.153103,0.1,177.79736,1597355068444
Fix,GT,37.4236168,-122.078021,,2.9615235,0.1,178.01965,1597355069444
Fix,GT,37.4235935,-122.0780199,,2.3134847,0.1,178.04303,1597355070444
Fix,GT,37.4235757,-122.078019,,1.5709904,0.1,178.05756,1597355071444
Fix,GT,37.4235659,-122.0780185,,0.62914664,0.1,178.07892,1597355072444
Fix,GT,37.423563,-122.0780184,,0.085801035,0.1,178.08801,1597355073444
Fix,GT,37.4235624,-122.0780184,,0.06904626,0.1,178.09265,1597355074444
Fix,GT,37.423562,-122.0780184,,0.037580945,0.1,178.0951,1597355075444
Fix,GT,37.4235619,-122.0780184,,0.0037415638,0.1,178.09503,1597355076444
Fix,GT,37.4235619,-122.0780184,,0.0029768124,0.1,178.09454,1597355077444
Fix,GT,37.4235619,-122.0780184,,0.0030138926,0.1,178.09448,1597355078444
Fix,GT,37.4235619,-122.0780184,,0.0020157539,0.1,178.09442,1597355079444
Fix,GT,37.4235619,-122.0780184,,0.001444466,0.1,178.09436,1597355080444
Fix,GT,37.4235619,-122.0780184,,0.002104924,0.1,178.09436,1597355081444
Fix,GT,37.4235619,-122.0780184,,0.0018707819,0.1,178.09412,1597355082444
Fix,GT,37.4235619,-122.0780184,,0.0016745756,0.1,178.09387,1597355083444
Fix,GT,37.4235619,-122.0780184,,0.002104924,0.1,178.09375,1597355084444
Fix,GT,37.4235619,-122.0780184,,0.002236068,0.1,178.09357,1597355085444
Fix,GT,37.4235618,-122.0780184,,0.060463004,0.1,178.09564,1597355086444
Fix,GT,37.4235594,-122.0780183,,0.58826476,0.1,178.11804,1597355087444
Fix,GT,37.423549,-122.0780178,,1.8111418,0.1,178.23022,1597355088444
Fix,GT,37.4235257,-122.0780171,,3.3542676,0.1,178.61713,1597355089444
Fix,GT,37.423488,-122.0780163,,5.0684786,0.1,179.22754,1597355090444
Fix,GT,37.4234342,-122.0780159,,6.924062,0.1,179.94055,1597355091444
Fix,GT,37.4233638,-122.0780165,,8.633637,0.1,180.71747,1597355092444
Fix,GT,37.4232792,-122.0780179,,10.066677,0.1,180.97206,1597355093444
Fix,GT,37.4231825,-122.0780196,,11.382839,0.1,181.18584,1597355094444
Fix,GT,37.4230743,-122.0780236,,12.628569,0.1,182.46121,1597355095444
Fix,GT,37.4229555,-122.078032,,13.796437,0.1,183.81728,1597355096444
Fix,GT,37.4228266,-122.0780426,,14.858184,0.1,183.99576,1597355097444
Fix,GT,37.4226883,-122.0780532,,15.85639,0.1,183.76488,1597355098444
Fix,GT,37.4225417,-122.0780649,,16.683287,0.1,184.11555,1597355099444
Fix,GT,37.4223888,-122.0780791,,17.30458,0.1,184.54224,1597355100444
Fix,GT,37.4222318,-122.0780928,,17.53227,0.1,183.87003,1597355101444
Fix,GT,37.4220742,-122.078101,,17.460434,0.1,181.6117,1597355102444
Fix,GT,37.4219176,-122.0781008,,17.27243,0.1,179.0202,1597355103444
Fix,GT,37.4217638,-122.0780919,,16.895977,0.1,176.42554,1597355104444
Fix,GT,37.4216146,-122.0780746,,16.354378,0.1,173.90894,1597355105444
Fix,GT,37.4214714,-122.078052,,15.655561,0.1,172.85693,1597355106444
Fix,GT,37.4213343,-122.0780304,,15.023476,0.1,173.54535,1597355107444
Fix,GT,37.4212007,-122.0780143,,14.865997,0.1,175.98688,1597355108444
Fix,GT,37.4210665,-122.078007,,15.046365,0.1,178.79071,1597355109444
Fix,GT,37.4209298,-122.0780058,,15.378433,0.1,180.2887,1597355110444
Fix,GT,37.420789,-122.0780068,,15.865695,0.1,180.69128,1597355111444
Fix,GT,37.4206436,-122.0780086,,16.394737,0.1,180.91258,1597355112444
Fix,GT,37.4204934,-122.0780109,,16.961266,0.1,180.99966,1597355113444
Fix,GT,37.4203376,-122.0780133,,17.624859,0.1,180.89546,1597355114444
Fix,GT,37.4201761,-122.0780156,,18.230473,0.1,180.84897,1597355115444
Fix,GT,37.4200095,-122.0780176,,18.771828,0.1,180.81705,1597355116444
Fix,GT,37.4198382,-122.0780193,,19.254097,0.1,180.63737,1597355117444
Fix,GT,37.4196632,-122.0780204,,19.54265,0.1,180.51666,1597355118444
Fix,GT,37.4194867,-122.0780216,,19.635899,0.1,180.5997,1597355119444
Fix,GT,37.4193096,-122.078023,,19.668951,0.1,180.5747,1597355120444
Fix,GT,37.4191322,-122.0780243,,19.7379,0.1,180.52655,1597355121444
Fix,GT,37.4189538,-122.0780255,,19.871307,0.1,180.54424,1597355122444
Fix,GT,37.4187741,-122.0780265,,19.97789,0.1,180.46428,1597355123444
Fix,GT,37.4185942,-122.0780277,,19.930061,0.1,180.70303,1597355124444
Fix,GT,37.4184147,-122.0780305,,19.936033,0.1,181.28307,1597355125444
Fix,GT,37.4182347,-122.0780384,,20.05861,0.1,182.98741,1597355126444
Fix,GT,37.4180538,-122.0780549,,20.185743,0.1,185.26294,1597355127444
Fix,GT,37.4178716,-122.0780749,,20.413097,0.1,184.85883,1597355128444
Fix,GT,37.417687,-122.0780899,,20.661488,0.1,183.08482,1597355129444
Fix,GT,37.4175001,-122.0780979,,20.843494,0.1,181.51985,1597355130444
Fix,GT,37.4173118,-122.0781006,,20.946793,0.1,180.52226,1597355131444
Fix,GT,37.4171229,-122.0781011,,20.944206,0.1,180.39296,1597355132444
Fix,GT,37.4169347,-122.0781016,,20.736946,0.1,180.43736,1597355133444
Fix,GT,37.4167507,-122.0781025,,20.022358,0.1,180.53432,1597355134444
Fix,GT,37.4165757,-122.0781038,,18.728554,0.1,180.59848,1597355135444
Fix,GT,37.416414,-122.0781053,,17.111332,0.1,180.6945,1597355136444
Fix,GT,37.4162682,-122.0781071,,15.260428,0.1,180.96062,1597355137444
Fix,GT,37.41614,-122.0781099,,13.154351,0.1,181.53711,1597355138444
Fix,GT,37.4160315,-122.0781143,,10.951805,0.1,182.5393,1597355139444
Fix,GT,37.4159426,-122.0781202,,8.86805,0.1,183.6342,1597355140444
Fix,GT,37.4158713,-122.0781257,,7.0160694,0.1,183.7894,1597355141444
Fix,GT,37.4158158,-122.0781293,,5.3705,0.1,182.98148,1597355142444
Fix,GT,37.4157746,-122.0781312,,3.7485082,0.1,182.38748,1597355143444
Fix,GT,37.4157474,-122.0781325,,2.3145566,0.1,182.24286,1597355144444
Fix,GT,37.4157317,-122.078133,,1.2743866,0.1,182.14792,1597355145444
Fix,GT,37.4157234,-122.0781333,,0.6207474,0.1,182.07483,1597355146444
Fix,GT,37.4157195,-122.0781334,,0.31135264,0.1,182.03708,1597355147444
Fix,GT,37.4157171,-122.0781335,,0.24262795,0.1,182.01137,1597355148444
Fix,GT,37.4157148,-122.0781335,,0.27575758,0.1,181.9777,1597355149444
Fix,GT,37.4157126,-122.0781336,,0.20904374,0.1,181.94366,1597355150444
Fix,GT,37.4157102,-122.0781336,,0.38046095,0.1,181.90608,1597355151444
Fix,GT,37.4157031,-122.0781339,,1.4285476,0.1,181.85785,1597355152444
Fix,GT,37.415681,-122.0781345,,3.6786327,0.1,181.78908,1597355153444
Fix,GT,37.4156358,-122.0781355,,6.3373747,0.1,181.32152,1597355154444
Fix,GT,37.415569,-122.0781361,,8.37438,0.1,180.57886,1597355155444
Fix,GT,37.4154864,-122.0781362,,9.852785,0.1,180.12587,1597355156444
Fix,GT,37.4153924,-122.0781355,,11.006811,0.1,179.8999,1597355157444
Fix,GT,37.4152893,-122.0781349,,11.770742,0.1,180.17316,1597355158444
Fix,GT,37.415182,-122.0781365,,11.970013,0.1,181.51482,1597355159444
Fix,GT,37.4150747,-122.0781425,,11.956581,0.1,183.56157,1597355160444
Fix,GT,37.4149646,-122.0781522,,12.633522,0.1,184.35168,1597355161444
Fix,GT,37.4148466,-122.0781616,,13.47974,0.1,183.47667,1597355162444
Fix,GT,37.4147244,-122.0781679,,13.472209,0.1,182.12979,1597355163444
Fix,GT,37.4146055,-122.0781709,,12.839175,0.1,180.94266,1597355164444
Fix,GT,37.4144941,-122.0781713,,11.86064,0.1,180.24728,1597355165444
Fix,GT,37.414391,-122.0781707,,11.003618,0.1,179.84877,1597355166444
Fix,GT,37.414295,-122.0781696,,10.24891,0.1,179.57849,1597355167444
Fix,GT,37.4142071,-122.0781684,,9.234634,0.1,179.77966,1597355168444
Fix,GT,37.414131,-122.0781681,,7.52774,0.1,180.31648,1597355169444
Fix,GT,37.4140728,-122.0781686,,5.3709316,0.1,180.70393,1597355170444
Fix,GT,37.4140326,-122.0781691,,3.6698003,0.1,180.7316,1597355171444
Fix,GT,37.4140048,-122.0781692,,2.5865593,0.1,180.56952,1597355172444
Fix,GT,37.413984,-122.0781692,,2.1101215,0.1,180.4235,1597355173444
Fix,GT,37.4139663,-122.0781693,,1.7361155,0.1,180.30835,1597355174444
Fix,GT,37.4139538,-122.0781692,,0.9954372,0.1,180.22212,1597355175444
Fix,GT,37.413948,-122.0781692,,0.31112686,0.1,180.17647,1597355176444
Fix,GT,37.4139465,-122.0781692,,0.06003825,0.1,180.16185,1597355177444
Fix,GT,37.4139463,-122.0781692,,0.036370967,0.1,180.15892,1597355178444
Fix,GT,37.4139461,-122.0781692,,0.030905932,0.1,180.15714,1597355179444
Fix,GT,37.413946,-122.0781692,,0.012862917,0.1,180.15564,1597355180444
Fix,GT,37.413946,-122.0781692,,0.0014142136,0.1,180.15445,1597355181444
Fix,GT,37.413946,-122.0781692,,0.0014142136,0.1,180.1542,1597355182444
Fix,GT,37.4139459,-122.0781692,,0.0014142136,0.1,180.15431,1597355183444
Fix,GT,37.4139459,-122.0781692,,0.0012301094,0.1,180.15425,1597355184444
Fix,GT,37.4139459,-122.0781692,,0.0011841042,0.1,180.15405,1597355185444
Fix,GT,37.4139459,-122.0781692,,0.0014142136,0.1,180.15378,1597355186444
Fix,GT,37.4139459,-122.0781692,,0.0014142136,0.1,180.15356,1597355187444
Fix,GT,37.4139459,-122.0781692,,0.0014142136,0.1,180.15352,1597355188444
Fix,GT,37.4139459,-122.0781692,,0.0020427846,0.1,180.15366,1597355189444
Fix,GT,37.4139459,-122.0781692,,0.0021998559,0.1,180.1537,1597355190444
Fix,GT,37.4139459,-122.0781692,,0.0012301094,0.1,180.15361,1597355191444
Fix,GT,37.4139459,-122.0781692,,0.001,0.1,180.1535,1597355192444
Fix,GT,37.4139459,-122.0781692,,0.0011841042,0.1,180.1533,1597355193444
Fix,GT,37.4139459,-122.0781692,,0.0012301094,0.1,180.15303,1597355194444
Fix,GT,37.4139459,-122.0781692,,0.0011841042,0.1,180.15298,1597355195444
Fix,GT,37.4139459,-122.0781693,,0.0012301094,0.1,180.1531,1597355196444
Fix,GT,37.4139459,-122.0781693,,0.0011841042,0.1,180.15305,1597355197444
Fix,GT,37.4139459,-122.0781693,,0.0012301094,0.1,180.15283,1597355198444
Fix,GT,37.4139459,-122.0781693,,0.012120218,0.1,180.15259,1597355199444
Fix,GT,37.4139445,-122.0781693,,0.31936017,0.1,180.13956,1597355200444
Fix,GT,37.4139373,-122.0781693,,1.4176003,0.1,180.07503,1597355201444
Fix,GT,37.4139167,-122.0781692,,3.3836164,0.1,179.9439,1597355202444
Fix,GT,37.4138759,-122.0781686,,5.761332,0.1,179.67334,1597355203444
Fix,GT,37.4138142,-122.0781678,,7.837424,0.1,179.60052,1597355204444
Fix,GT,37.4137371,-122.0781673,,9.207109,0.1,179.97937,1597355205444
Fix,GT,37.4136502,-122.0781674,,10.049456,0.1,180.36586,1597355206444
Fix,GT,37.4135573,-122.0781683,,10.476423,0.1,180.66812,1597355207444
Fix,GT,37.4134622,-122.0781698,,10.590867,0.1,181.1802,1597355208444
Fix,GT,37.4133673,-122.0781733,,10.48988,0.1,182.31166,1597355209444
Fix,GT,37.4132731,-122.0781791,,10.618961,0.1,183.39203,1597355210444
Fix,GT,37.4131737,-122.0781865,,11.627706,0.1,183.68513,1597355211444
Fix,GT,37.4130633,-122.0781942,,12.909127,0.1,183.2239,1597355212444
Fix,GT,37.4129419,-122.0782005,,14.002201,0.1,182.34375,1597355213444
Fix,GT,37.4128117,-122.0782051,,14.894932,0.1,181.57364,1597355214444
Fix,GT,37.4126745,-122.0782078,,15.578789,0.1,180.97147,1597355215444
Fix,GT,37.4125321,-122.0782096,,16.008986,0.1,180.79893,1597355216444
Fix,GT,37.4123875,-122.0782117,,15.983839,0.1,180.9019,1597355217444
Fix,GT,37.4122462,-122.078214,,15.318106,0.1,181.22372,1597355218444
Fix,GT,37.412112,-122.0782178,,14.506146,0.1,181.8244,1597355219444
Fix,GT,37.411984,-122.0782228,,13.93726,0.1,182.18047,1597355220444
Fix,GT,37.4118607,-122.0782277,,13.458006,0.1,181.92686,1597355221444
Fix,GT,37.4117415,-122.0782314,,13.008795,0.1,181.44612,1597355222444
Fix,GT,37.411627,-122.0782341,,12.360514,0.1,181.18384,1597355223444
Fix,GT,37.4115197,-122.0782358,,11.466944,0.1,180.74298,1597355224444
Fix,GT,37.41142,-122.0782367,,10.770254,0.1,180.79767,1597355225444
Fix,GT,37.4113259,-122.0782415,,10.184499,0.1,183.58896,1597355226444
Fix,GT,37.4112388,-122.0782554,,9.411589,0.1,189.65459,1597355227444
Fix,GT,37.4111595,-122.0782827,,9.135338,0.1,198.34648,1597355228444
Fix,GT,37.4110844,-122.0783296,,9.60244,0.1,209.9284,1597355229444
Fix,GT,37.4110163,-122.0784001,,10.166272,0.1,223.9079,1597355230444
Fix,GT,37.4109627,-122.0784948,,10.706912,0.1,239.94653,1597355231444
Fix,GT,37.4109324,-122.078611,,11.344292,0.1,258.3528,1597355232444
Fix,GT,37.410935,-122.0787402,,11.937733,0.1,278.63593,1597355233444
Fix,GT,37.410974,-122.0788668,,12.416231,0.1,298.109,1597355234444
Fix,GT,37.4110432,-122.078977,,12.681006,0.1,314.4799,1597355235444
Fix,GT,37.4111341,-122.0790611,,12.691402,0.1,329.7333,1597355236444
Fix,GT,37.4112392,-122.0791122,,12.642086,0.1,344.85284,1597355237444
Fix,GT,37.4113509,-122.0791285,,12.592271,0.1,359.51385,1597355238444
Fix,GT,37.4114616,-122.0791073,,12.586777,0.1,15.289734,1597355239444
Fix,GT,37.4115624,-122.0790468,,12.585344,0.1,32.802307,1597355240444
Fix,GT,37.4116435,-122.0789506,,12.619141,0.1,50.651093,1597355241444
Fix,GT,37.4116984,-122.0788274,,12.764293,0.1,67.81128,1597355242444
Fix,GT,37.4117234,-122.0786873,,13.080477,0.1,84.39877,1597355243444
Fix,GT,37.4117166,-122.0785381,,13.804292,0.1,99.49356,1597355244444
Fix,GT,37.4116804,-122.0783832,,14.962408,0.1,110.68524,1597355245444
Fix,GT,37.4116232,-122.0782226,,16.142593,0.1,116.19058,1597355246444
Fix,GT,37.4115557,-122.0780539,,17.207607,0.1,117.141815,1597355247444
Fix,GT,37.4114829,-122.0778758,,18.177998,0.1,117.65692,1597355248444
Fix,GT,37.4114052,-122.0776893,,19.02039,0.1,118.05789,1597355249444
Fix,GT,37.4113233,-122.0774954,,19.757421,0.1,118.142914,1597355250444
Fix,GT,37.4112385,-122.0772948,,20.386532,0.1,118.06262,1597355251444
Fix,GT,37.4111522,-122.0770878,,20.95592,0.1,117.68457,1597355252444
Fix,GT,37.4110648,-122.0768747,,21.453732,0.1,117.42502,1597355253444
Fix,GT,37.4109758,-122.076657,,21.826103,0.1,117.50375,1597355254444
Fix,GT,37.4108847,-122.0764368,,22.07302,0.1,117.71912,1597355255444
Fix,GT,37.4107928,-122.0762146,,22.206331,0.1,117.35242,1597355256444
Fix,GT,37.4107024,-122.0759906,,22.256502,0.1,116.797485,1597355257444
Fix,GT,37.4106132,-122.0757645,,22.388584,0.1,116.44983,1597355258444
Fix,GT,37.4105237,-122.0755363,,22.620686,0.1,116.33145,1597355259444
Fix,GT,37.4104331,-122.0753063,,22.754333,0.1,116.71048,1597355260444
Fix,GT,37.4103408,-122.0750765,,22.814621,0.1,117.11456,1597355261444
Fix,GT,37.4102463,-122.0748465,,23.055508,0.1,117.67801,1597355262444
Fix,GT,37.4101482,-122.0746143,,23.434015,0.1,118.512054,1597355263444
Fix,GT,37.4100462,-122.0743812,,23.615643,0.1,119.349945,1597355264444
Fix,GT,37.4099413,-122.0741479,,23.840717,0.1,119.68323,1597355265444
Fix,GT,37.409835,-122.0739118,,24.116653,0.1,119.414856,1597355266444
Fix,GT,37.4097292,-122.0736738,,24.067265,0.1,119.25403,1597355267444
Fix,GT,37.409624,-122.0734368,,23.970755,0.1,119.15384,1597355268444
Fix,GT,37.4095191,-122.0732002,,23.931873,0.1,119.24823,1597355269444
Fix,GT,37.4094142,-122.0729655,,23.654392,0.1,119.60245,1597355270444
Fix,GT,37.4093095,-122.0727355,,23.224401,0.1,120.04407,1597355271444
Fix,GT,37.4092058,-122.0725098,,22.942482,0.1,120.108154,1597355272444
Fix,GT,37.4091032,-122.0722849,,22.995295,0.1,119.73166,1597355273444
Fix,GT,37.4090007,-122.0720578,,23.208336,0.1,119.73749,1597355274444
Fix,GT,37.4088956,-122.0718303,,23.334148,0.1,120.92377,1597355275444
Fix,GT,37.4087844,-122.0716067,,23.334652,0.1,123.48456,1597355276444
Fix,GT,37.4086641,-122.0713919,,23.151104,0.1,127.20688,1597355277444
Fix,GT,37.4085335,-122.0711916,,22.743864,0.1,131.69263,1597355278444
Fix,GT,37.4083936,-122.071007,,22.452438,0.1,135.7243,1597355279444
Fix,GT,37.4082454,-122.0708361,,22.299202,0.1,139.63287,1597355280444
Fix,GT,37.4080885,-122.0706801,,22.241764,0.1,144.05078,1597355281444
Fix,GT,37.4079227,-122.0705402,,22.182476,0.1,148.5307,1597355282444
Fix,GT,37.4077498,-122.0704171,,21.959898,0.1,152.75879,1597355283444
Fix,GT,37.4075725,-122.0703118,,21.674978,0.1,156.98645,1597355284444
Fix,GT,37.4073911,-122.0702239,,21.571148,0.1,161.09167,1597355285444
Fix,GT,37.4072057,-122.0701525,,21.534084,0.1,165.0982,1597355286444
Fix,GT,37.4070169,-122.0700981,,21.587448,0.1,169.47943,1597355287444
Fix,GT,37.4068238,-122.0700621,,21.804995,0.1,173.89496,1597355288444
Fix,GT,37.4066268,-122.0700422,,22.106182,0.1,177.04218,1597355289444
Fix,GT,37.4064261,-122.0700323,,22.5318,0.1,178.71771,1597355290444
Fix,GT,37.4062207,-122.0700275,,23.10265,0.1,179.51929,1597355291444
Fix,GT,37.4060095,-122.0700243,,23.83677,0.1,179.51294,1597355292444
Fix,GT,37.4057907,-122.0700203,,24.73534,0.1,179.29236,1597355293444
Fix,GT,37.4055638,-122.0700157,,25.620127,0.1,179.22449,1597355294444
Fix,GT,37.4053293,-122.0700107,,26.42281,0.1,179.27557,1597355295444
Fix,GT,37.4050882,-122.0700059,,27.08199,0.1,179.45837,1597355296444
Fix,GT,37.4048419,-122.070003,,27.589327,0.1,179.94336,1597355297444
Fix,GT,37.4045915,-122.0700035,,27.996452,0.1,180.50235,1597355298444
Fix,GT,37.4043379,-122.0700064,,28.27831,0.1,180.86205,1597355299444
Fix,GT,37.4040822,-122.0700103,,28.499393,0.1,180.95114,1597355300444
Fix,GT,37.4038247,-122.0700143,,28.64722,0.1,180.92194,1597355301444
Fix,GT,37.4035664,-122.0700177,,28.70919,0.1,180.73859,1597355302444
Fix,GT,37.4033083,-122.0700205,,28.607645,0.1,180.7427,1597355303444
Fix,GT,37.4030517,-122.0700234,,28.342102,0.1,180.83513,1597355304444
Fix,GT,37.4027971,-122.0700262,,28.180977,0.1,180.58961,1597355305444
Fix,GT,37.4025429,-122.0700277,,28.267685,0.1,180.3747,1597355306444
Fix,GT,37.4022871,-122.0700284,,28.529228,0.1,180.374,1597355307444
Fix,GT,37.4020284,-122.0700297,,28.869259,0.1,180.51886,1597355308444
Fix,GT,37.4017669,-122.0700319,,29.218756,0.1,180.5708,1597355309444
Fix,GT,37.4015017,-122.0700335,,29.620169,0.1,180.37154,1597355310444
Fix,GT,37.4012334,-122.0700338,,29.864305,0.1,180.097,1597355311444
Fix,GT,37.4009641,-122.070032,,29.86042,0.1,179.42737,1597355312444
Fix,GT,37.4006958,-122.0700237,,29.731812,0.1,177.73584,1597355313444
Fix,GT,37.4004291,-122.070003,,29.598186,0.1,175.46313,1597355314444
Fix,GT,37.4001643,-122.0699692,,29.482994,0.1,173.12207,1597355315444
Fix,GT,37.3999019,-122.0699222,,29.358637,0.1,170.85962,1597355316444
Fix,GT,37.3996422,-122.069864,,29.21217,0.1,169.12445,1597355317444
Fix,GT,37.3993846,-122.0697983,,29.15043,0.1,168.23096,1597355318444
Fix,GT,37.3991279,-122.0697297,,29.109089,0.1,168.06921,1597355319444
Fix,GT,37.3988719,-122.0696612,,28.984869,0.1,168.20673,1597355320444
Fix,GT,37.398617,-122.0695931,,28.852367,0.1,168.12256,1597355321444
Fix,GT,37.3983633,-122.0695246,,28.757774,0.1,168.01648,1597355322444
Fix,GT,37.3981103,-122.0694561,,28.701061,0.1,168.02985,1597355323444
Fix,GT,37.3978576,-122.0693876,,28.658356,0.1,168.00732,1597355324444
Fix,GT,37.3976059,-122.0693193,,28.461044,0.1,168.03339,1597355325444
Fix,GT,37.3973568,-122.0692525,,28.074055,0.1,168.17212,1597355326444
Fix,GT,37.3971114,-122.0691869,,27.614447,0.1,168.11487,1597355327444
Fix,GT,37.3968705,-122.0691214,,27.07956,0.1,167.8772,1597355328444
Fix,GT,37.3966345,-122.0690563,,26.580551,0.1,167.73138,1597355329444
Fix,GT,37.3964021,-122.0689921,,26.230484,0.1,167.83026,1597355330444
Fix,GT,37.3961724,-122.0689297,,25.914333,0.1,168.10504,1597355331444
Fix,GT,37.3959454,-122.0688691,,25.631847,0.1,168.30847,1597355332444
Fix,GT,37.3957197,-122.0688098,,25.640453,0.1,168.5329,1597355333444
Fix,GT,37.3954917,-122.068753,,26.00618,0.1,169.49414,1597355334444
Fix,GT,37.3952579,-122.0687011,,26.684917,0.1,170.7721,1597355335444
Fix,GT,37.3950167,-122.0686524,,27.548523,0.1,171.21552,1597355336444
Fix,GT,37.394768,-122.0686035,,28.316645,0.1,171.53027,1597355337444
Fix,GT,37.3945125,-122.0685579,,28.946112,0.1,172.85132,1597355338444
Fix,GT,37.3942511,-122.0685212,,29.442608,0.1,174.97559,1597355339444
Fix,GT,37.3939852,-122.068497,,29.731577,0.1,177.1352,1597355340444
Fix,GT,37.393718,-122.0684845,,29.595154,0.1,178.85187,1597355341444
Fix,GT,37.3934528,-122.0684804,,29.259518,0.1,180.21722,1597355342444
Fix,GT,37.3931898,-122.0684838,,29.148876,0.1,181.47997,1597355343444
Fix,GT,37.3929275,-122.0684947,,29.117432,0.1,182.78467,1597355344444
Fix,GT,37.3926658,-122.0685128,,29.076538,0.1,183.9762,1597355345444
Fix,GT,37.3924043,-122.0685367,,29.156948,0.1,184.74654,1597355346444
Fix,GT,37.3921418,-122.068563,,29.266441,0.1,184.84558,1597355347444
Fix,GT,37.3918786,-122.0685887,,29.337757,0.1,184.52454,1597355348444
Fix,GT,37.3916148,-122.0686132,,29.311016,0.1,184.39796,1597355349444
Fix,GT,37.3913524,-122.0686373,,29.079067,0.1,184.48952,1597355350444
Fix,GT,37.3910933,-122.068662,,28.559364,0.1,184.67519,1597355351444
Fix,GT,37.3908399,-122.0686875,,27.874031,0.1,184.9191,1597355352444
Fix,GT,37.3905926,-122.0687133,,27.2441,0.1,184.97879,1597355353444
Fix,GT,37.3903499,-122.0687378,,26.801739,0.1,184.63419,1597355354444
Fix,GT,37.3901101,-122.06876,,26.595755,0.1,184.21785,1597355355444
Fix,GT,37.3898718,-122.0687806,,26.431038,0.1,184.13765,1597355356444
Fix,GT,37.3896349,-122.0688014,,26.270853,0.1,184.26567,1597355357444
Fix,GT,37.3893993,-122.0688222,,26.175446,0.1,184.19513,1597355358444
Fix,GT,37.3891642,-122.0688424,,26.132627,0.1,184.05293,1597355359444
Fix,GT,37.3889293,-122.0688605,,26.116837,0.1,183.23819,1597355360444
Fix,GT,37.3886943,-122.0688719,,26.130915,0.1,181.3841,1597355361444
Fix,GT,37.3884581,-122.0688738,,26.361332,0.1,179.6265,1597355362444
Fix,GT,37.388219,-122.0688674,,26.762482,0.1,178.22693,1597355363444
Fix,GT,37.3879766,-122.0688534,,27.052406,0.1,176.64087,1597355364444
Fix,GT,37.3877319,-122.0688305,,27.434025,0.1,175.15723,1597355365444
Fix,GT,37.3874838,-122.0688016,,27.836357,0.1,174.68573,1597355366444
Fix,GT,37.3872335,-122.0687723,,27.909237,0.1,175.03003,1597355367444
Fix,GT,37.3869836,-122.0687447,,27.732388,0.1,175.19092,1597355368444
Fix,GT,37.3867355,-122.0687178,,27.517101,0.1,175.22571,1597355369444
Fix,GT,37.3864893,-122.0686908,,27.34317,0.1,175.13611,1597355370444
Fix,GT,37.3862449,-122.0686632,,27.091068,0.1,175.05096,1597355371444
Fix,GT,37.3860025,-122.0686358,,26.975203,0.1,175.05884,1597355372444
Fix,GT,37.3857598,-122.0686079,,27.149418,0.1,174.94781,1597355373444
Fix,GT,37.3855153,-122.0685798,,27.325453,0.1,175.03552,1597355374444
Fix,GT,37.38527,-122.0685528,,27.292917,0.1,175.28918,1597355375444
Fix,GT,37.3850261,-122.068527,,26.997816,0.1,175.47705,1597355376444
Fix,GT,37.3847858,-122.068502,,26.555344,0.1,175.45496,1597355377444
Fix,GT,37.3845488,-122.0684767,,26.307175,0.1,175.20862,1597355378444
Fix,GT,37.3843124,-122.0684499,,26.430614,0.1,174.79852,1597355379444
Fix,GT,37.3840741,-122.0684207,,26.663952,0.1,174.5119,1597355380444
Fix,GT,37.3838344,-122.0683911,,26.805527,0.1,174.6773,1597355381444
Fix,GT,37.3835927,-122.068362,,27.083954,0.1,174.77417,1597355382444
Fix,GT,37.3833484,-122.0683332,,27.313362,0.1,174.90924,1597355383444
Fix,GT,37.3831036,-122.0683057,,27.21358,0.1,175.25684,1597355384444
Fix,GT,37.3828598,-122.0682797,,27.162373,0.1,175.43823,1597355385444
Fix,GT,37.3826152,-122.0682538,,27.373663,0.1,175.40033,1597355386444
Fix,GT,37.3823678,-122.0682274,,27.771019,0.1,175.25818,1597355387444
Fix,GT,37.382117,-122.0682001,,28.110392,0.1,175.28668,1597355388444
Fix,GT,37.3818636,-122.068173,,28.328186,0.1,175.396,1597355389444
Fix,GT,37.3816084,-122.068146,,28.52669,0.1,175.30261,1597355390444
Fix,GT,37.3813511,-122.0681181,,28.763742,0.1,175.27185,1597355391444
Fix,GT,37.3810919,-122.0680901,,28.964548,0.1,175.31824,1597355392444
Fix,GT,37.3808315,-122.0680622,,29.015354,0.1,175.32812,1597355393444
Fix,GT,37.3805715,-122.0680341,,28.90149,0.1,175.24146,1597355394444
Fix,GT,37.3803131,-122.0680056,,28.665958,0.1,175.14233,1597355395444
Fix,GT,37.3800571,-122.0679772,,28.3693,0.1,175.16711,1597355396444
Fix,GT,37.3798037,-122.0679496,,28.08813,0.1,175.29944,1597355397444
Fix,GT,37.3795523,-122.0679227,,27.949183,0.1,175.37714,1597355398444
Fix,GT,37.3793012,-122.0678957,,28.010181,0.1,175.22363,1597355399444
Fix,GT,37.3790491,-122.0678678,,28.14438,0.1,175.11694,1597355400444
Fix,GT,37.3787961,-122.0678398,,28.215544,0.1,175.25348,1597355401444
Fix,GT,37.3785426,-122.0678132,,28.2327,0.1,175.62048,1597355402444
Fix,GT,37.3782888,-122.0677895,,28.232681,0.1,176.38812,1597355403444
Fix,GT,37.3780352,-122.0677714,,28.159405,0.1,177.73535,1597355404444
Fix,GT,37.3777817,-122.0677623,,28.120296,0.1,179.49573,1597355405444
Fix,GT,37.3775286,-122.0677633,,28.07341,0.1,181.45827,1597355406444
Fix,GT,37.3772762,-122.0677753,,27.998636,0.1,183.40729,1597355407444
Fix,GT,37.3770247,-122.0677973,,27.951405,0.1,185.03815,1597355408444
Fix,GT,37.3767742,-122.0678269,,27.901016,0.1,186.12738,1597355409444
Fix,GT,37.3765246,-122.0678606,,27.816755,0.1,186.52713,1597355410444
Fix,GT,37.3762759,-122.0678946,,27.74333,0.1,186.36925,1597355411444
Fix,GT,37.3760272,-122.067927,,27.76215,0.1,185.95761,1597355412444
Fix,GT,37.3757787,-122.0679579,,27.601349,0.1,185.7851,1597355413444
Fix,GT,37.3755329,-122.0679867,,27.17451,0.1,185.21117,1597355414444
Fix,GT,37.3752909,-122.06801,,26.736576,0.1,183.75124,1597355415444
Fix,GT,37.3750513,-122.068024,,26.555782,0.1,181.64523,1597355416444
Fix,GT,37.374812,-122.0680252,,26.590546,0.1,179.06001,1597355417444
Fix,GT,37.3745728,-122.0680134,,26.573477,0.1,176.64258,1597355418444
Fix,GT,37.3743343,-122.0679898,,26.55598,0.1,174.51782,1597355419444
Fix,GT,37.3740964,-122.0679547,,26.639494,0.1,172.19238,1597355420444
Fix,GT,37.3738591,-122.0679063,,26.755024,0.1,169.52356,1597355421444
Fix,GT,37.3736235,-122.0678437,,26.67341,0.1,166.78754,1597355422444
Fix,GT,37.3733922,-122.0677681,,26.38429,0.1,164.26367,1597355423444
Fix,GT,37.3731661,-122.0676813,,26.135601,0.1,161.96771,1597355424444
Fix,GT,37.3729441,-122.0675841,,26.181816,0.1,159.74316,1597355425444
Fix,GT,37.3727237,-122.0674751,,26.504417,0.1,157.35718,1597355426444
Fix,GT,37.3725038,-122.067353,,26.899605,0.1,155.22028,1597355427444
Fix,GT,37.3722835,-122.0672206,,27.346992,0.1,153.95612,1597355428444
Fix,GT,37.3720609,-122.0670821,,27.826939,0.1,153.7467,1597355429444
Fix,GT,37.3718343,-122.0669424,,28.219833,0.1,154.22766,1597355430444
Fix,GT,37.3716043,-122.066803,,28.503475,0.1,154.5003,1597355431444
Fix,GT,37.3713718,-122.0666628,,28.761412,0.1,154.5368,1597355432444
Fix,GT,37.3711374,-122.0665215,,28.96624,0.1,154.5141,1597355433444
Fix,GT,37.3709019,-122.0663794,,29.039017,0.1,154.52759,1597355434444
Fix,GT,37.3706668,-122.0662375,,28.888056,0.1,154.55505,1597355435444
Fix,GT,37.3704335,-122.0660967,,28.597443,0.1,154.47052,1597355436444
Fix,GT,37.3702027,-122.0659567,,28.329315,0.1,154.24237,1597355437444
Fix,GT,37.3699742,-122.065817,,28.081448,0.1,154.11804,1597355438444
Fix,GT,37.3697478,-122.0656784,,27.816128,0.1,154.25671,1597355439444
Fix,GT,37.3695235,-122.0655419,,27.516254,0.1,154.2796,1597355440444
Fix,GT,37.3693017,-122.0654069,,27.221111,0.1,154.30878,1597355441444
Fix,GT,37.3690815,-122.0652733,,27.10276,0.1,154.42346,1597355442444
Fix,GT,37.3688612,-122.0651401,,27.199543,0.1,154.43262,1597355443444
Fix,GT,37.3686401,-122.0650062,,27.2495,0.1,154.39886,1597355444444
Fix,GT,37.3684194,-122.0648728,,27.092318,0.1,154.49054,1597355445444
Fix,GT,37.3682002,-122.0647406,,26.942665,0.1,154.495,1597355446444
Fix,GT,37.3679812,-122.0646084,,27.062263,0.1,154.47357,1597355447444
Fix,GT,37.3677605,-122.064475,,27.331345,0.1,154.44556,1597355448444
Fix,GT,37.3675376,-122.0643398,,27.644228,0.1,154.27881,1597355449444
Fix,GT,37.3673126,-122.0642028,,27.889671,0.1,154.32465,1597355450444
Fix,GT,37.3670857,-122.0640658,,27.97968,0.1,154.66089,1597355451444
Fix,GT,37.3668576,-122.0639301,,28.07249,0.1,154.9079,1597355452444
Fix,GT,37.3666284,-122.0637959,,28.084396,0.1,155.58154,1597355453444
Fix,GT,37.3663976,-122.0636674,,28.006084,0.1,157.19214,1597355454444
Fix,GT,37.3661637,-122.0635484,,28.063412,0.1,159.2799,1597355455444
Fix,GT,37.3659256,-122.0634405,,28.184305,0.1,161.61804,1597355456444
Fix,GT,37.3656832,-122.0633442,,28.267952,0.1,163.88629,1597355457444
Fix,GT,37.3654375,-122.0632596,,28.301735,0.1,166.03613,1597355458444
Fix,GT,37.3651897,-122.0631874,,28.163593,0.1,168.30865,1597355459444
Fix,GT,37.364942,-122.0631275,,27.868702,0.1,170.3844,1597355460444
Fix,GT,37.3646949,-122.0630789,,27.707138,0.1,172.32703,1597355461444
Fix,GT,37.3644471,-122.0630412,,27.715027,0.1,174.34216,1597355462444
Fix,GT,37.3641982,-122.0630151,,27.735044,0.1,176.66638,1597355463444
Fix,GT,37.3639486,-122.0630014,,27.753769,0.1,178.81195,1597355464444
Fix,GT,37.3636983,-122.0629972,,27.853172,0.1,180.07428,1597355465444
Fix,GT,37.3634465,-122.0629979,,28.04638,0.1,180.71553,1597355466444
Fix,GT,37.3631928,-122.0630019,,28.261585,0.1,181.08632,1597355467444
Fix,GT,37.3629372,-122.0630072,,28.455471,0.1,181.14899,1597355468444
Fix,GT,37.3626802,-122.0630124,,28.610245,0.1,181.12352,1597355469444
Fix,GT,37.362422,-122.0630174,,28.688354,0.1,181.10515,1597355470444
Fix,GT,37.3621636,-122.0630225,,28.660648,0.1,181.16747,1597355471444
Fix,GT,37.3619055,-122.0630283,,28.66172,0.1,181.27287,1597355472444
Fix,GT,37.3616469,-122.0630342,,28.765211,0.1,181.23573,1597355473444
Fix,GT,37.3613872,-122.0630397,,28.8773,0.1,181.17787,1597355474444
Fix,GT,37.3611267,-122.0630453,,28.938795,0.1,181.22577,1597355475444
Fix,GT,37.3608659,-122.0630511,,28.98045,0.1,181.22604,1597355476444
Fix,GT,37.3606044,-122.0630568,,29.101397,0.1,181.18994,1597355477444
Fix,GT,37.3603414,-122.0630627,,29.283781,0.1,181.27559,1597355478444
Fix,GT,37.3600767,-122.0630691,,29.46914,0.1,181.28174,1597355479444
Fix,GT,37.3598105,-122.0630744,,29.612026,0.1,180.83347,1597355480444
Fix,GT,37.3595437,-122.0630759,,29.57586,0.1,179.9401,1597355481444
Fix,GT,37.3592774,-122.0630713,,29.53326,0.1,178.7334,1597355482444
Fix,GT,37.3590111,-122.0630594,,29.635424,0.1,177.5357,1597355483444
Fix,GT,37.3587441,-122.063041,,29.700264,0.1,176.43103,1597355484444
Fix,GT,37.3584773,-122.0630158,,29.687708,0.1,175.22754,1597355485444
Fix,GT,37.3582107,-122.0629828,,29.777145,0.1,173.85077,1597355486444
Fix,GT,37.3579436,-122.0629423,,29.928581,0.1,172.68677,1597355487444
Fix,GT,37.3576763,-122.0628953,,29.99348,0.1,171.60077,1597355488444
Fix,GT,37.3574094,-122.0628417,,30.012238,0.1,170.448,1597355489444
Fix,GT,37.3571434,-122.0627815,,29.980259,0.1,169.43536,1597355490444
Fix,GT,37.3568787,-122.062716,,29.915163,0.1,168.47382,1597355491444
Fix,GT,37.3566155,-122.0626447,,29.860909,0.1,167.37183,1597355492444
Fix,GT,37.3563538,-122.0625668,,29.833237,0.1,166.22516,1597355493444
Fix,GT,37.3560937,-122.0624829,,29.7608,0.1,165.20703,1597355494444
Fix,GT,37.3558363,-122.0623938,,29.490253,0.1,164.193,1597355495444
Fix,GT,37.3555836,-122.0622998,,29.014416,0.1,163.03485,1597355496444
Fix,GT,37.3553366,-122.062201,,28.525915,0.1,161.86792,1597355497444
Fix,GT,37.3550953,-122.0620981,,28.071178,0.1,160.84369,1597355498444
Fix,GT,37.3548592,-122.0619914,,27.676208,0.1,159.81628,1597355499444
Fix,GT,37.3546272,-122.0618806,,27.438576,0.1,158.77869,1597355500444
Fix,GT,37.3543981,-122.0617658,,27.336859,0.1,158.13464,1597355501444
Fix,GT,37.35417,-122.0616501,,27.3098,0.1,158.18372,1597355502444
Fix,GT,37.3539413,-122.0615348,,27.427526,0.1,158.32361,1597355503444
Fix,GT,37.3537113,-122.0614191,,27.610912,0.1,158.3081,1597355504444
Fix,GT,37.3534801,-122.0613028,,27.672012,0.1,158.37183,1597355505444
Fix,GT,37.3532486,-122.0611868,,27.681885,0.1,158.5675,1597355506444
Fix,GT,37.3530165,-122.0610731,,27.631416,0.1,159.2998,1597355507444
Fix,GT,37.3527836,-122.0609651,,27.519863,0.1,160.55554,1597355508444
Fix,GT,37.3525498,-122.0608638,,27.427422,0.1,161.71991,1597355509444
Fix,GT,37.3523149,-122.0607682,,27.397232,0.1,162.70154,1597355510444
Fix,GT,37.3520789,-122.0606778,,27.391268,0.1,163.7724,1597355511444
Fix,GT,37.3518416,-122.0605933,,27.384315,0.1,164.96753,1597355512444
Fix,GT,37.3516029,-122.0605146,,27.443441,0.1,165.98804,1597355513444
Fix,GT,37.3513621,-122.0604404,,27.61821,0.1,166.88788,1597355514444
Fix,GT,37.3511185,-122.0603712,,27.846207,0.1,168.0227,1597355515444
Fix,GT,37.3508717,-122.060308,,28.098003,0.1,169.28394,1597355516444
Fix,GT,37.3506215,-122.0602505,,28.338717,0.1,170.41339,1597355517444
Fix,GT,37.350369,-122.0601988,,28.473042,0.1,171.4837,1597355518444
Fix,GT,37.3501148,-122.060153,,28.51398,0.1,172.59833,1597355519444
Fix,GT,37.34986,-122.0601135,,28.455992,0.1,173.7378,1597355520444
Fix,GT,37.3496053,-122.0600796,,28.40804,0.1,174.62616,1597355521444
Fix,GT,37.34935,-122.0600507,,28.515413,0.1,175.552,1597355522444
Fix,GT,37.3490928,-122.0600274,,28.700394,0.1,176.61646,1597355523444
Fix,GT,37.3488339,-122.0600098,,28.863548,0.1,177.61182,1597355524444
Fix,GT,37.3485735,-122.0599973,,28.984072,0.1,178.48352,1597355525444
Fix,GT,37.348312,-122.0599898,,29.061476,0.1,179.40497,1597355526444
Fix,GT,37.3480501,-122.0599874,,29.075253,0.1,180.1665,1597355527444
Fix,GT,37.3477883,-122.0599877,,29.033916,0.1,180.31664,1597355528444
Fix,GT,37.347527,-122.059988,,28.969692,0.1,180.18193,1597355529444
Fix,GT,37.3472663,-122.0599875,,28.872696,0.1,180.1843,1597355530444
Fix,GT,37.3470069,-122.0599875,,28.702587,0.1,180.30544,1597355531444
Fix,GT,37.3467492,-122.0599882,,28.504963,0.1,180.34743,1597355532444
Fix,GT,37.3464932,-122.0599887,,28.301384,0.1,180.23424,1597355533444
Fix,GT,37.3462391,-122.0599885,,28.082127,0.1,180.16243,1597355534444
Fix,GT,37.345987,-122.0599881,,27.881786,0.1,180.1631,1597355535444
Fix,GT,37.3457363,-122.0599874,,27.777973,0.1,180.0658,1597355536444
Fix,GT,37.3454859,-122.0599863,,27.832293,0.1,179.9545,1597355537444
Fix,GT,37.3452345,-122.0599847,,27.985004,0.1,179.89758,1597355538444
Fix,GT,37.3449814,-122.0599827,,28.214165,0.1,179.8252,1597355539444
Fix,GT,37.3447257,-122.0599802,,28.539572,0.1,179.72308,1597355540444
Fix,GT,37.3444669,-122.0599772,,28.897102,0.1,179.70612,1597355541444
Fix,GT,37.3442049,-122.0599739,,29.263145,0.1,179.60638,1597355542444
Fix,GT,37.3439398,-122.0599698,,29.608318,0.1,179.44604,1597355543444
Fix,GT,37.3436713,-122.0599652,,30.00858,0.1,179.42102,1597355544444
Fix,GT,37.3433987,-122.0599605,,30.513294,0.1,179.37811,1597355545444
Fix,GT,37.3431215,-122.0599549,,31.04206,0.1,179.22754,1597355546444
Fix,GT,37.3428399,-122.0599489,,31.435465,0.1,179.37402,1597355547444
Fix,GT,37.3425559,-122.059945,,31.567814,0.1,179.89429,1597355548444
Fix,GT,37.3422721,-122.059944,,31.380339,0.1,180.24138,1597355549444
Fix,GT,37.3419907,-122.0599444,,31.084003,0.1,180.24367,1597355550444
Fix,GT,37.3417119,-122.0599444,,30.823132,0.1,180.16321,1597355551444
Fix,GT,37.341435,-122.0599439,,30.669071,0.1,180.09044,1597355552444
Fix,GT,37.341159,-122.0599431,,30.60698,0.1,180.07825,1597355553444
Fix,GT,37.3408834,-122.0599423,,30.567719,0.1,180.11432,1597355554444
Fix,GT,37.3406081,-122.0599418,,30.555674,0.1,180.184,1597355555444
Fix,GT,37.3403329,-122.0599419,,30.5317,0.1,180.2855,1597355556444
Fix,GT,37.3400582,-122.0599427,,30.395939,0.1,180.41931,1597355557444
Fix,GT,37.3397862,-122.0599439,,29.879803,0.1,180.37048,1597355558444
Fix,GT,37.3395216,-122.0599438,,28.744827,0.1,180.01534,1597355559444
Fix,GT,37.3392696,-122.0599411,,27.123466,0.1,179.37964,1597355560444
Fix,GT,37.3390321,-122.0599354,,25.674082,0.1,178.72455,1597355561444
Fix,GT,37.3388055,-122.0599264,,24.747005,0.1,177.99268,1597355562444
Fix,GT,37.3385859,-122.0599137,,24.079147,0.1,177.07721,1597355563444
Fix,GT,37.3383715,-122.0598975,,23.633808,0.1,176.39166,1597355564444
Fix,GT,37.33816,-122.0598788,,23.497665,0.1,175.79211,1597355565444
Fix,GT,37.3379472,-122.0598557,,24.035995,0.1,174.4226,1597355566444
Fix,GT,37.3377279,-122.0598219,,25.25386,0.1,172.02551,1597355567444
Fix,GT,37.3374968,-122.0597741,,26.871887,0.1,169.80524,1597355568444
Fix,GT,37.3372516,-122.0597134,,28.594234,0.1,168.34058,1597355569444
Fix,GT,37.3369933,-122.0596443,,30.001781,0.1,168.00128,1597355570444
Fix,GT,37.336724,-122.0595715,,31.123547,0.1,168.02985,1597355571444
Fix,GT,37.3364465,-122.0594963,,31.785488,0.1,167.93695,1597355572444
Fix,GT,37.3361659,-122.0594195,,31.882217,0.1,167.88965,1597355573444
Fix,GT,37.3358864,-122.0593441,,31.540634,0.1,168.36658,1597355574444
Fix,GT,37.3356103,-122.0592739,,30.973114,0.1,169.30511,1597355575444
Fix,GT,37.3353389,-122.0592105,,30.224571,0.1,170.15436,1597355576444
Fix,GT,37.3350751,-122.0591545,,29.106617,0.1,171.05975,1597355577444
Fix,GT,37.3348223,-122.0591054,,27.608925,0.1,171.73743,1597355578444
Fix,GT,37.334584,-122.0590612,,25.762428,0.1,171.59705,1597355579444
Fix,GT,37.3343651,-122.0590179,,23.314758,0.1,170.63745,1597355580444
Fix,GT,37.3341703,-122.0589758,,20.587437,0.1,170.37146,1597355581444
Fix,GT,37.3339966,-122.0589422,,18.58323,0.1,172.76685,1597355582444
Fix,GT,37.3338343,-122.0589268,,17.820648,0.1,178.8852,1597355583444
Fix,GT,37.3336756,-122.0589399,,17.67119,0.1,188.23392,1597355584444
Fix,GT,37.3335227,-122.0589879,,17.584946,0.1,199.2654,1597355585444
Fix,GT,37.3333809,-122.0590728,,17.647015,0.1,211.13199,1597355586444
Fix,GT,37.3332555,-122.0591938,,17.829803,0.1,223.2003,1597355587444
Fix,GT,37.3331497,-122.0593464,,18.217178,0.1,234.09,1597355588444
Fix,GT,37.3330648,-122.0595247,,18.757702,0.1,243.78326,1597355589444
Fix,GT,37.3330013,-122.0597233,,19.329052,0.1,251.89044,1597355590444
Fix,GT,37.332955,-122.0599386,,20.230564,0.1,257.80634,1597355591444
Fix,GT,37.332924,-122.0601698,,21.337088,0.1,263.64825,1597355592444
Fix,GT,37.3329118,-122.0604169,,22.574633,0.1,269.58896,1597355593444
Fix,GT,37.3329204,-122.0606786,,23.910583,0.1,275.51904,1597355594444
Fix,GT,37.3329523,-122.0609517,,25.051605,0.1,281.6422,1597355595444
Fix,GT,37.3330085,-122.0612308,,25.997934,0.1,286.97733,1597355596444
Fix,GT,37.3330841,-122.0615139,,26.926687,0.1,290.12704,1597355597444
Fix,GT,37.3331706,-122.0618013,,27.405079,0.1,291.55548,1597355598444
Fix,GT,37.3332615,-122.0620876,,27.114662,0.1,292.23254,1597355599444
Fix,GT,37.3333527,-122.062368,,26.559158,0.1,292.46158,1597355600444
Fix,GT,37.3334409,-122.0626433,,26.071499,0.1,291.72562,1597355601444
Fix,GT,37.3335246,-122.062917,,25.978813,0.1,290.7373,1597355602444
Fix,GT,37.3336073,-122.0631935,,26.455223,0.1,290.96542,1597355603444
Fix,GT,37.3336953,-122.0634761,,27.303509,0.1,292.08548,1597355604444
Fix,GT,37.3337912,-122.0637662,,28.347904,0.1,293.06165,1597355605444
Fix,GT,37.3338925,-122.0640661,,29.350113,0.1,292.99908,1597355606444
Fix,GT,37.3339948,-122.0643765,,30.121029,0.1,291.8578,1597355607444
Fix,GT,37.334092,-122.0646969,,30.626938,0.1,289.946,1597355608444
Fix,GT,37.3341815,-122.0650263,,31.054527,0.1,287.85608,1597355609444
Fix,GT,37.3342621,-122.0653639,,31.400368,0.1,285.5399,1597355610444
Fix,GT,37.3343325,-122.0657083,,31.607899,0.1,283.23383,1597355611444
Fix,GT,37.3343924,-122.0660579,,31.75592,0.1,281.0218,1597355612444
Fix,GT,37.3344414,-122.0664109,,31.760214,0.1,278.95795,1597355613444
Fix,GT,37.3344808,-122.0667646,,31.479158,0.1,277.00806,1597355614444
Fix,GT,37.3345096,-122.0671151,,30.92873,0.1,274.86777,1597355615444
Fix,GT,37.3345277,-122.0674597,,30.29171,0.1,272.83945,1597355616444
Fix,GT,37.3345363,-122.0677982,,29.76291,0.1,270.9636,1597355617444
Fix,GT,37.3345359,-122.0681318,,29.42062,0.1,269.09833,1597355618444
Fix,GT,37.3345269,-122.0684627,,29.24961,0.1,267.1772,1597355619444
Fix,GT,37.3345086,-122.0687919,,29.276077,0.1,265.0942,1597355620444
Fix,GT,37.3344805,-122.0691215,,29.542059,0.1,262.97662,1597355621444
Fix,GT,37.3344421,-122.0694536,,29.974361,0.1,260.76785,1597355622444
Fix,GT,37.3343933,-122.0697884,,30.29039,0.1,258.88202,1597355623444
Fix,GT,37.3343371,-122.070123,,30.261303,0.1,257.6867,1597355624444
Fix,GT,37.3342771,-122.0704545,,29.989819,0.1,257.15738,1597355625444
Fix,GT,37.3342161,-122.070783,,29.809334,0.1,256.98993,1597355626444
Fix,GT,37.3341544,-122.0711102,,29.78804,0.1,256.86276,1597355627444
Fix,GT,37.3340919,-122.071437,,29.759127,0.1,256.61542,1597355628444
Fix,GT,37.3340292,-122.0717634,,29.7551,0.1,256.77295,1597355629444
Fix,GT,37.333968,-122.0720905,,29.81472,0.1,257.231,1597355630444
Fix,GT,37.3339078,-122.0724188,,29.871449,0.1,257.2545,1597355631444
Fix,GT,37.3338472,-122.0727475,,29.884933,0.1,257.19513,1597355632444
Fix,GT,37.3337883,-122.0730761,,29.796871,0.1,258.14093,1597355633444
Fix,GT,37.3337368,-122.0734051,,29.679726,0.1,260.39636,1597355634444
Fix,GT,37.3336958,-122.0737358,,29.670506,0.1,262.35272,1597355635444
Fix,GT,37.3336631,-122.0740685,,29.760921,0.1,264.30038,1597355636444
Fix,GT,37.3336408,-122.0744036,,29.912045,0.1,266.94745,1597355637444
Fix,GT,37.3336315,-122.0747417,,30.101887,0.1,269.53577,1597355638444
Fix,GT,37.3336331,-122.0750825,,30.316635,0.1,271.61957,1597355639444
Fix,GT,37.333644,-122.0754255,,30.54707,0.1,273.66345,1597355640444
Fix,GT,37.3336659,-122.0757702,,30.765034,0.1,276.0622,1597355641444
Fix,GT,37.3336993,-122.0761158,,30.96981,0.1,278.38605,1597355642444
Fix,GT,37.3337442,-122.0764615,,31.16003,0.1,280.81067,1597355643444
Fix,GT,37.3338024,-122.0768064,,31.357895,0.1,283.851,1597355644444
Fix,GT,37.3338759,-122.077149,,31.584076,0.1,286.74713,1597355645444
Fix,GT,37.3339619,-122.0774898,,31.816246,0.1,288.89413,1597355646444
Fix,GT,37.3340585,-122.077829,,32.079494,0.1,291.22372,1597355647444
Fix,GT,37.3341677,-122.0781652,,32.36887,0.1,293.92902,1597355648444
Fix,GT,37.3342915,-122.0784974,,32.652836,0.1,296.76523,1597355649444
Fix,GT,37.3344287,-122.078825,,32.911663,0.1,299.2102,1597355650444
Fix,GT,37.3345777,-122.0791464,,32.970306,0.1,301.87473,1597355651444
Fix,GT,37.3347387,-122.0794582,,32.88213,0.1,304.60724,1597355652444
Fix,GT,37.3349109,-122.0797606,,33.006104,0.1,307.09058,1597355653444
Fix,GT,37.3350948,-122.0800551,,33.297142,0.1,309.6529,1597355654444
Fix,GT,37.3352907,-122.0803417,,33.610283,0.1,312.08273,1597355655444
Fix,GT,37.3354968,-122.080622,,33.985146,0.1,313.77167,1597355656444
Fix,GT,37.3357103,-122.0808999,,34.37463,0.1,314.479,1597355657444
Fix,GT,37.3359279,-122.0811789,,34.73822,0.1,314.53018,1597355658444
Fix,GT,37.3361472,-122.0814615,,35.100773,0.1,314.2775,1597355659444
Fix,GT,37.3363675,-122.0817478,,35.35312,0.1,314.08105,1597355660444
Fix,GT,37.3365879,-122.0820367,,35.462196,0.1,313.70392,1597355661444
Fix,GT,37.3368069,-122.0823285,,35.515945,0.1,313.07376,1597355662444
Fix,GT,37.3370237,-122.0826234,,35.50222,0.1,312.31592,1597355663444
Fix,GT,37.3372355,-122.0829224,,35.30294,0.1,310.8709,1597355664444
Fix,GT,37.3374385,-122.0832269,,35.0011,0.1,308.97235,1597355665444
Fix,GT,37.3376329,-122.0835363,,34.79297,0.1,307.6581,1597355666444
Fix,GT,37.3378211,-122.0838492,,34.61563,0.1,306.38754,1597355667444
Fix,GT,37.3380021,-122.084165,,34.302795,0.1,305.4066,1597355668444
Fix,GT,37.3381787,-122.0844805,,34.03138,0.1,305.22894,1597355669444
Fix,GT,37.3383544,-122.0847954,,34.10839,0.1,305.00366,1597355670444
Fix,GT,37.3385301,-122.0851135,,34.44722,0.1,304.84045,1597355671444
Fix,GT,37.3387071,-122.085435,,34.768368,0.1,304.8113,1597355672444
Fix,GT,37.3388855,-122.085759,,34.96247,0.1,304.84555,1597355673444
Fix,GT,37.3390649,-122.0860839,,35.06284,0.1,304.94925,1597355674444
Fix,GT,37.3392454,-122.0864094,,35.13661,0.1,305.1141,1597355675444
Fix,GT,37.3394265,-122.0867343,,35.07781,0.1,305.16934,1597355676444
Fix,GT,37.3396066,-122.0870584,,34.85626,0.1,304.9956,1597355677444
Fix,GT,37.3397845,-122.0873815,,34.660427,0.1,304.57413,1597355678444
Fix,GT,37.3399596,-122.0877053,,34.716324,0.1,303.96912,1597355679444
Fix,GT,37.3401331,-122.0880339,,35.12249,0.1,303.27176,1597355680444
Fix,GT,37.3403052,-122.0883695,,35.555187,0.1,302.506,1597355681444
Fix,GT,37.3404755,-122.0887113,,35.828835,0.1,301.76096,1597355682444
Fix,GT,37.3406436,-122.0890578,,36.026833,0.1,301.1678,1597355683444
Fix,GT,37.3408099,-122.0894084,,36.250736,0.1,300.62634,1597355684444
Fix,GT,37.3409757,-122.0897621,,36.450706,0.1,300.68045,1597355685444
Fix,GT,37.3411435,-122.0901167,,36.590767,0.1,301.202,1597355686444
Fix,GT,37.3413153,-122.0904694,,36.640846,0.1,302.20682,1597355687444
Fix,GT,37.3414941,-122.0908169,,36.629448,0.1,304.1464,1597355688444
Fix,GT,37.3416826,-122.0911562,,36.62678,0.1,306.2533,1597355689444
Fix,GT,37.3418813,-122.0914852,,36.488724,0.1,308.80096,1597355690444
Fix,GT,37.3420911,-122.0918004,,36.256042,0.1,311.58917,1597355691444
Fix,GT,37.3423109,-122.0921007,,35.947613,0.1,314.13205,1597355692444
Fix,GT,37.342538,-122.0923866,,35.52413,0.1,316.2179,1597355693444
Fix,GT,37.3427692,-122.0926605,,35.174023,0.1,317.5351,1597355694444
Fix,GT,37.3430025,-122.0929281,,35.067295,0.1,317.76508,1597355695444
Fix,GT,37.3432356,-122.0931953,,35.026783,0.1,317.6189,1597355696444
Fix,GT,37.3434677,-122.0934623,,34.916245,0.1,317.7291,1597355697444
Fix,GT,37.3436994,-122.0937273,,34.70822,0.1,317.8913,1597355698444
Fix,GT,37.3439291,-122.0939901,,34.31926,0.1,317.4682,1597355699444
Fix,GT,37.3441524,-122.094254,,33.812107,0.1,316.05777,1597355700444
Fix,GT,37.3443665,-122.0945225,,33.489143,0.1,314.07043,1597355701444
Fix,GT,37.3445718,-122.0947988,,33.434937,0.1,311.7202,1597355702444
Fix,GT,37.3447673,-122.0950859,,33.454792,0.1,309.22015,1597355703444
Fix,GT,37.3449529,-122.0953833,,33.431007,0.1,306.89172,1597355704444
Fix,GT,37.345128,-122.0956894,,33.266815,0.1,304.3559,1597355705444
Fix,GT,37.3452917,-122.0960024,,33.07568,0.1,302.09143,1597355706444
Fix,GT,37.3454453,-122.0963216,,33.010044,0.1,300.13956,1597355707444
Fix,GT,37.3455899,-122.096647,,33.027443,0.1,298.4297,1597355708444
Fix,GT,37.3457298,-122.0969765,,33.10435,0.1,297.84323,1597355709444
Fix,GT,37.3458693,-122.0973073,,33.17543,0.1,298.09863,1597355710444
Fix,GT,37.3460092,-122.0976384,,33.221676,0.1,298.0492,1597355711444
Fix,GT,37.3461484,-122.0979712,,33.404736,0.1,297.60004,1597355712444
Fix,GT,37.346286,-122.0983082,,33.637657,0.1,296.9612,1597355713444
Fix,GT,37.3464218,-122.0986477,,33.58277,0.1,296.7205,1597355714444
Fix,GT,37.3465566,-122.0989854,,33.314316,0.1,296.89047,1597355715444
Fix,GT,37.3466914,-122.0993193,,32.970737,0.1,297.27585,1597355716444
Fix,GT,37.3468268,-122.0996482,,32.632385,0.1,297.7293,1597355717444
Fix,GT,37.346963,-122.0999733,,32.475643,0.1,298.06195,1597355718444
Fix,GT,37.3471,-122.1002971,,32.450436,0.1,298.1511,1597355719444
Fix,GT,37.3472368,-122.1006199,,32.319984,0.1,298.19617,1597355720444
Fix,GT,37.3473735,-122.100941,,32.19721,0.1,298.38586,1597355721444
Fix,GT,37.3475113,-122.1012608,,32.21771,0.1,298.80286,1597355722444
Fix,GT,37.347653,-122.1015785,,32.288383,0.1,300.2648,1597355723444
Fix,GT,37.3478032,-122.1018908,,32.333725,0.1,302.59366,1597355724444
Fix,GT,37.347964,-122.1021952,,32.37407,0.1,305.11804,1597355725444
Fix,GT,37.3481362,-122.1024899,,32.398125,0.1,308.10132,1597355726444
Fix,GT,37.3483207,-122.1027727,,32.3769,0.1,311.17816,1597355727444
Fix,GT,37.3485163,-122.103043,,32.307243,0.1,313.9872,1597355728444
Fix,GT,37.3487215,-122.103301,,32.27533,0.1,316.5832,1597355729444
Fix,GT,37.348936,-122.1035468,,32.282963,0.1,319.24612,1597355730444
Fix,GT,37.3491595,-122.1037801,,32.335938,0.1,321.90408,1597355731444
Fix,GT,37.3493922,-122.1039997,,32.365906,0.1,324.87216,1597355732444
Fix,GT,37.3496335,-122.1042047,,32.38518,0.1,327.39862,1597355733444
Fix,GT,37.3498808,-122.1043994,,32.464043,0.1,328.68,1597355734444
Fix,GT,37.3501308,-122.1045901,,32.510544,0.1,329.104,1597355735444
Fix,GT,37.3503816,-122.1047791,,32.42211,0.1,329.2554,1597355736444
