MessageType,Provider,LatitudeDegrees,LongitudeDegrees,AltitudeMeters,SpeedMps,AccuracyMeters,BearingDegrees,UnixTimeMillis
Fix,GT,37.6265374,-122.4256702,,0.0014142136,0.1,83.61832,1599242399429
Fix,GT,37.6265374,-122.4256702,,0.0008064583,0.1,83.618256,1599242400429
Fix,GT,37.6265374,-122.4256702,,0.00060775527,0.1,83.618286,1599242401429
Fix,GT,37.6265374,-122.4256702,,0.021045713,0.1,83.618256,1599242402429
Fix,GT,37.6265374,-122.42567,,0.047984086,0.1,83.61984,1599242403429
Fix,GT,37.6265374,-122.4256698,,0.029394284,0.1,83.621826,1599242404429
Fix,GT,37.6265374,-122.4256699,,0.0030925393,0.1,83.622375,1599242405429
Fix,GT,37.6265374,-122.4256699,,0.048938077,0.1,83.62479,1599242406429
Fix,GT,37.6265377,-122.4256666,,0.65968704,0.1,83.5871,1599242407429
Fix,GT,37.6265395,-122.4256497,,2.4413261,0.1,83.27576,1599242408429
Fix,GT,37.6265438,-122.4256087,,4.677499,0.1,82.412476,1599242409429
Fix,GT,37.6265515,-122.4255455,,6.41063,0.1,81.344055,1599242410429
Fix,GT,37.6265611,-122.4254679,,7.4366455,0.1,81.45261,1599242411429
Fix,GT,37.6265703,-122.4253817,,7.8118963,0.1,82.404816,1599242412429
Fix,GT,37.6265813,-122.4252936,,7.926688,0.1,80.26343,1599242413429
Fix,GT,37.6265971,-122.4252076,,7.5677423,0.1,75.739685,1599242414429
Fix,GT,37.6266151,-122.4251296,,6.691573,0.1,72.89313,1599242415429
Fix,GT,37.6266331,-122.4250633,,5.662837,0.1,70.851074,1599242416429
Fix,GT,37.6266484,-122.4250098,,4.235444,0.1,70.73456,1599242417429
Fix,GT,37.6266574,-122.4249749,,2.2315288,0.1,72.84711,1599242418429
Fix,GT,37.6266603,-122.4249613,,0.5975962,0.1,74.12512,1599242419429
Fix,GT,37.6266605,-122.4249601,,0.010756973,0.1,74.267944,1599242420429
Fix,GT,37.6266605,-122.4249602,,0.0077106543,0.1,74.26459,1599242421429
Fix,GT,37.6266605,-122.4249602,,0.006605819,0.1,74.26535,1599242422429
Fix,GT,37.6266605,-122.4249602,,0.0067415703,0.1,74.265045,1599242423429
Fix,GT,37.6266606,-122.4249594,,0.19920836,0.1,74.42316,1599242424429
Fix,GT,37.626661,-122.4249562,,0.49535483,0.1,75.23233,1599242425429
Fix,GT,37.6266613,-122.4249505,,0.63648,0.1,77.55469,1599242426429
Fix,GT,37.6266606,-122.4249417,,0.9292029,0.1,83.01886,1599242427429
Fix,GT,37.6266577,-122.4249287,,1.3482344,0.1,92.34598,1599242428429
Fix,GT,37.6266499,-122.4249102,,2.198779,0.1,106.55728,1599242429429
Fix,GT,37.6266315,-122.4248858,,3.5924592,0.1,125.98456,1599242430429
Fix,GT,37.6265999,-122.4248578,,4.9356365,0.1,142.3135,1599242431429
Fix,GT,37.6265568,-122.4248246,,6.353454,0.1,147.9411,1599242432429
Fix,GT,37.6265032,-122.4247804,,7.8330708,0.1,146.40015,1599242433429
Fix,GT,37.6264411,-122.4247265,,8.682836,0.1,145.31259,1599242434429
Fix,GT,37.6263764,-122.4246728,,8.2766285,0.1,147.22574,1599242435429
Fix,GT,37.6263178,-122.4246284,,6.726824,0.1,149.66318,1599242436429
Fix,GT,37.6262734,-122.4245974,,4.4778585,0.1,151.23721,1599242437429
Fix,GT,37.6262457,-122.4245791,,2.56052,0.1,152.1087,1599242438429
Fix,GT,37.6262308,-122.4245694,,1.2740698,0.1,152.40607,1599242439429
Fix,GT,37.6262248,-122.4245655,,0.3066172,0.1,152.49896,1599242440429
Fix,GT,37.626224,-122.424565,,0.014123218,0.1,152.51514,1599242441429
Fix,GT,37.626224,-122.424565,,0.002429748,0.1,152.51434,1599242442429
Fix,GT,37.626224,-122.4245649,,0.0026717018,0.1,152.5141,1599242443429
Fix,GT,37.6262241,-122.4245649,,0.0024906332,0.1,152.51453,1599242444429
Fix,GT,37.626224,-122.4245648,,0.0031623947,0.1,152.51453,1599242445429
Fix,GT,37.626224,-122.4245649,,0.0039779646,0.1,152.51428,1599242446429
Fix,GT,37.626224,-122.4245649,,0.003909227,0.1,152.51367,1599242447429
Fix,GT,37.626224,-122.4245649,,0.0046861325,0.1,152.51355,1599242448429
Fix,GT,37.626224,-122.4245649,,0.006708204,0.1,152.5138,1599242449429
Fix,GT,37.626224,-122.4245649,,0.006708204,0.1,152.5138,1599242450429
Fix,GT,37.6262241,-122.4245649,,0.0072901063,0.1,152.51367,1599242451429
Fix,GT,37.6262237,-122.4245645,,0.2194793,0.1,152.54663,1599242452429
Fix,GT,37.6262158,-122.4245598,,1.867622,0.1,153.18805,1599242453429
Fix,GT,37.6261894,-122.4245446,,4.404208,0.1,154.8518,1599242454429
Fix,GT,37.626148,-122.4245214,,5.386365,0.1,155.91309,1599242455429
Fix,GT,37.626104,-122.4244958,,5.2683816,0.1,155.00452,1599242456429
Fix,GT,37.6260631,-122.4244693,,5.066121,0.1,152.40845,1599242457429
Fix,GT,37.6260223,-122.4244361,,5.8301964,0.1,146.22275,1599242458429
Fix,GT,37.6259811,-122.4243848,,7.079877,0.1,132.90814,1599242459429
Fix,GT,37.6259508,-122.4243126,,7.681654,0.1,113.275024,1599242460429
Fix,GT,37.625941,-122.424223,,8.768939,0.1,93.56201,1599242461429
Fix,GT,37.6259532,-122.4241171,,10.414467,0.1,78.15997,1599242462429
Fix,GT,37.6259861,-122.4239979,,11.907938,0.1,68.36139,1599242463429
Fix,GT,37.6260311,-122.4238713,,12.332052,0.1,65.23337,1599242464429
Fix,GT,37.6260753,-122.4237484,,11.313328,0.1,65.98941,1599242465429
Fix,GT,37.6261127,-122.4236391,,9.620359,0.1,66.51544,1599242466429
Fix,GT,37.6261436,-122.4235493,,7.5554934,0.1,66.03735,1599242467429
Fix,GT,37.6261666,-122.4234838,,5.042885,0.1,65.55298,1599242468429
Fix,GT,37.6261799,-122.4234465,,2.2270586,0.1,65.5939,1599242469429
Fix,GT,37.6261841,-122.4234345,,0.3989914,0.1,65.63541,1599242470429
Fix,GT,37.6261843,-122.4234339,,0.005910398,0.1,65.64905,1599242471429
Fix,GT,37.6261843,-122.423434,,0.0072519965,0.1,65.64795,1599242472429
Fix,GT,37.6261843,-122.423434,,0.003415055,0.1,65.64795,1599242473429
Fix,GT,37.6261843,-122.423434,,0.0031622774,0.1,65.64752,1599242474429
Fix,GT,37.6261843,-122.423434,,0.0027642406,0.1,65.64728,1599242475429
Fix,GT,37.6261843,-122.423434,,0.0021346183,0.1,65.647675,1599242476429
Fix,GT,37.6261843,-122.423434,,0.0021014498,0.1,65.6478,1599242477429
Fix,GT,37.6261843,-122.423434,,0.0018828774,0.1,65.64758,1599242478429
Fix,GT,37.6261843,-122.423434,,0.0014142136,0.1,65.64734,1599242479429
Fix,GT,37.6261843,-122.423434,,0.0014142136,0.1,65.64737,1599242480429
Fix,GT,37.6261843,-122.423434,,0.0017674041,0.1,65.64755,1599242481429
Fix,GT,37.6261843,-122.423434,,0.0018828774,0.1,65.64761,1599242482429
Fix,GT,37.6261843,-122.423434,,0.0017674041,0.1,65.64746,1599242483429
Fix,GT,37.6261843,-122.423434,,0.0018828774,0.1,65.64734,1599242484429
Fix,GT,37.6261843,-122.423434,,0.0017674041,0.1,65.64722,1599242485429
Fix,GT,37.6261843,-122.423434,,0.002236068,0.1,65.64725,1599242486429
Fix,GT,37.6261843,-122.423434,,0.002236068,0.1,65.64728,1599242487429
Fix,GT,37.6261843,-122.423434,,0.0017048698,0.1,65.64752,1599242488429
Fix,GT,37.6261843,-122.423434,,0.0015311982,0.1,65.647644,1599242489429
Fix,GT,37.6261843,-122.423434,,0.002236068,0.1,65.647644,1599242490429
Fix,GT,37.6261843,-122.423434,,0.0021346181,0.1,65.648834,1599242491429
Fix,GT,37.6261843,-122.423434,,0.0017482592,0.1,65.6496,1599242492429
Fix,GT,37.6261843,-122.423434,,0.0012362059,0.1,65.648834,1599242493429
Fix,GT,37.6261843,-122.423434,,0.001,0.1,65.64877,1599242494429
Fix,GT,37.6261843,-122.423434,,0.0011780076,0.1,65.64871,1599242495429
Fix,GT,37.6261843,-122.423434,,0.0014142136,0.1,65.64871,1599242496429
Fix,GT,37.6261843,-122.423434,,0.0023559376,0.1,65.64847,1599242497429
Fix,GT,37.6261843,-122.423434,,0.0042048134,0.1,65.648254,1599242498429
Fix,GT,37.6261843,-122.423434,,0.005890038,0.1,65.64819,1599242499429
Fix,GT,37.6261843,-122.423434,,0.007994372,0.1,65.6481,1599242500429
Fix,GT,37.6261843,-122.4234341,,0.010432316,0.1,65.64813,1599242501429
Fix,GT,37.6261844,-122.4234341,,0.012883217,0.1,65.65903,1599242502429
Fix,GT,37.6261845,-122.4234341,,0.016578492,0.1,65.67398,1599242503429
Fix,GT,37.6261846,-122.4234341,,0.07302712,0.1,65.71283,1599242504429
Fix,GT,37.6261858,-122.4234295,,0.7565753,0.1,67.39502,1599242505429
Fix,GT,37.6261875,-122.4234145,,1.5973238,0.1,74.82922,1599242506429
Fix,GT,37.6261867,-122.423396,,1.5519311,0.1,86.58185,1599242507429
Fix,GT,37.6261833,-122.4233795,,1.4671677,0.1,97.397125,1599242508429
Fix,GT,37.6261773,-122.4233642,,1.558517,0.1,108.540955,1599242509429
Fix,GT,37.6261662,-122.4233485,,2.0773005,0.1,121.68021,1599242510429
Fix,GT,37.6261473,-122.4233297,,2.9866445,0.1,135.60165,1599242511429
Fix,GT,37.6261219,-122.4233098,,3.4669902,0.1,145.43192,1599242512429
Fix,GT,37.626094,-122.4232899,,3.5808442,0.1,149.38998,1599242513429
Fix,GT,37.6260652,-122.4232701,,3.6978517,0.1,150.8642,1599242514429
Fix,GT,37.6260359,-122.4232505,,3.6395254,0.1,151.96039,1599242515429
Fix,GT,37.626008,-122.423232,,3.306068,0.1,152.02576,1599242516429
Fix,GT,37.6259824,-122.4232136,,3.3733683,0.1,150.45453,1599242517429
Fix,GT,37.625953,-122.4231918,,4.3308754,0.1,149.72913,1599242518429
Fix,GT,37.6259144,-122.423165,,5.3953266,0.1,151.6297,1599242519429
Fix,GT,37.6258672,-122.4231376,,6.0953584,0.1,155.95557,1599242520429
Fix,GT,37.6258132,-122.4231135,,6.5723667,0.1,161.37549,1599242521429
Fix,GT,37.6257546,-122.4230942,,6.9250035,0.1,166.3371,1599242522429
Fix,GT,37.625691,-122.4230809,,7.3711452,0.1,171.98425,1599242523429
Fix,GT,37.6256226,-122.4230773,,7.8184123,0.1,179.62463,1599242524429
Fix,GT,37.6255507,-122.4230855,,8.218078,0.1,186.81056,1599242525429
Fix,GT,37.6254765,-122.4231011,,8.481116,0.1,189.67096,1599242526429
Fix,GT,37.6253998,-122.4231151,,8.6745405,0.1,187.06529,1599242527429
Fix,GT,37.6253215,-122.4231205,,8.803577,0.1,181.08202,1599242528429
Fix,GT,37.625242,-122.4231122,,9.066549,0.1,172.5658,1599242529429
Fix,GT,37.6251614,-122.423087,,9.489275,0.1,163.35803,1599242530429
Fix,GT,37.6250798,-122.4230469,,10.037436,0.1,157.07019,1599242531429
Fix,GT,37.6249949,-122.4229976,,10.745561,0.1,154.58423,1599242532429
Fix,GT,37.6249049,-122.4229426,,11.511005,0.1,154.00238,1599242533429
Fix,GT,37.6248085,-122.4228833,,12.280235,0.1,154.0401,1599242534429
Fix,GT,37.6247072,-122.4228221,,12.572333,0.1,154.42365,1599242535429
Fix,GT,37.6246053,-122.422761,,12.4483185,0.1,154.41583,1599242536429
Fix,GT,37.6245054,-122.4227007,,12.010783,0.1,154.47546,1599242537429
Fix,GT,37.6244107,-122.422645,,11.117458,0.1,154.99677,1599242538429
Fix,GT,37.6243232,-122.4225932,,10.381314,0.1,154.5238,1599242539429
Fix,GT,37.6242423,-122.4225436,,9.481324,0.1,153.86072,1599242540429
Fix,GT,37.624171,-122.4224993,,8.090343,0.1,153.65051,1599242541429
Fix,GT,37.6241127,-122.4224634,,6.384284,0.1,154.11115,1599242542429
Fix,GT,37.6240651,-122.4224355,,5.361476,0.1,155.18811,1599242543429
Fix,GT,37.6240195,-122.42241,,5.798282,0.1,155.97992,1599242544429
Fix,GT,37.6239699,-122.4223836,,6.0005603,0.1,157.021,1599242545429
Fix,GT,37.6239214,-122.4223594,,5.4629316,0.1,158.54974,1599242546429
Fix,GT,37.6238774,-122.4223404,,4.9287663,0.1,161.79663,1599242547429
Fix,GT,37.6238341,-122.4223311,,4.9917116,0.1,172.18701,1599242548429
Fix,GT,37.6237904,-122.4223414,,5.02496,0.1,193.29585,1599242549429
Fix,GT,37.6237524,-122.4223757,,5.580614,0.1,216.90721,1599242550429
Fix,GT,37.6237187,-122.4224315,,6.9551935,0.1,233.36453,1599242551429
Fix,GT,37.6236832,-122.4225058,,8.308716,0.1,239.28564,1599242552429
Fix,GT,37.6236424,-122.4225914,,9.135214,0.1,238.32033,1599242553429
Fix,GT,37.6235973,-122.4226781,,8.892006,0.1,236.00336,1599242554429
Fix,GT,37.6235565,-122.4227541,,7.1253357,0.1,236.20703,1599242555429
Fix,GT,37.6235277,-122.4228138,,5.304344,0.1,239.39554,1599242556429
Fix,GT,37.6235089,-122.4228629,,4.3428,0.1,244.71375,1599242557429
Fix,GT,37.6234983,-122.4229054,,3.5894852,0.1,253.23117,1599242558429
Fix,GT,37.6234971,-122.422946,,3.732892,0.1,267.2523,1599242559429
Fix,GT,37.6235084,-122.4229906,,4.642149,0.1,287.68964,1599242560429
Fix,GT,37.6235372,-122.4230349,,5.579876,0.1,310.50934,1599242561429
Fix,GT,37.6235839,-122.4230754,,7.1430016,0.1,326.5156,1599242562429
Fix,GT,37.6236476,-122.4231189,,9.0815525,0.1,331.86075,1599242563429
Fix,GT,37.6237278,-122.4231716,,10.895384,0.1,332.29724,1599242564429
Fix,GT,37.623821,-122.4232328,,12.339123,0.1,332.28983,1599242565429
Fix,GT,37.6239248,-122.4232996,,13.475969,0.1,333.10336,1599242566429
Fix,GT,37.6240368,-122.4233687,,14.14657,0.1,333.97604,1599242567429
Fix,GT,37.6241528,-122.4234394,,14.454762,0.1,333.78516,1599242568429
Fix,GT,37.6242703,-122.423513,,14.696149,0.1,333.188,1599242569429
Fix,GT,37.6243893,-122.423589,,14.90151,0.1,332.92657,1599242570429
Fix,GT,37.624509,-122.4236651,,14.70406,0.1,333.3703,1599242571429
Fix,GT,37.624624,-122.4237362,,13.530693,0.1,334.24918,1599242572429
Fix,GT,37.624728,-122.4237967,,11.951335,0.1,336.12625,1599242573429
Fix,GT,37.6248243,-122.4238436,,11.10115,0.1,340.60895,1599242574429
Fix,GT,37.6249181,-122.4238777,,10.60017,0.1,345.0688,1599242575429
Fix,GT,37.6250099,-122.4239043,,10.4500475,0.1,347.47275,1599242576429
Fix,GT,37.6251045,-122.4239292,,11.060699,0.1,348.076,1599242577429
Fix,GT,37.6252052,-122.4239572,,11.732908,0.1,347.04932,1599242578429
Fix,GT,37.6253079,-122.4239895,,11.706528,0.1,345.2595,1599242579429
Fix,GT,37.6254074,-122.4240257,,11.212881,0.1,342.82553,1599242580429
Fix,GT,37.6254972,-122.4240636,,9.658205,0.1,340.14874,1599242581429
Fix,GT,37.6255688,-122.4240983,,7.4354615,0.1,337.72192,1599242582429
Fix,GT,37.6256234,-122.4241281,,6.0269885,0.1,336.04462,1599242583429
Fix,GT,37.6256685,-122.4241547,,4.8931656,0.1,334.56555,1599242584429
Fix,GT,37.6257027,-122.4241759,,3.63298,0.1,333.44492,1599242585429
Fix,GT,37.6257277,-122.4241918,,2.7394207,0.1,332.8775,1599242586429
Fix,GT,37.6257473,-122.4242045,,2.1018045,0.1,332.60013,1599242587429
Fix,GT,37.6257608,-122.4242133,,1.2454396,0.1,332.53748,1599242588429
Fix,GT,37.6257677,-122.4242178,,0.5337469,0.1,332.49582,1599242589429
Fix,GT,37.6257699,-122.4242192,,0.065110594,0.1,332.48584,1599242590429
Fix,GT,37.62577,-122.4242192,,0.008292463,0.1,332.48895,1599242591429
Fix,GT,37.62577,-122.4242192,,0.007159733,0.1,332.4871,1599242592429
Fix,GT,37.62577,-122.4242192,,0.0066058184,0.1,332.48596,1599242593429
Fix,GT,37.62577,-122.4242192,,0.0051876977,0.1,332.4858,1599242594429
Fix,GT,37.62577,-122.4242192,,0.0040529044,0.1,332.48587,1599242595429
Fix,GT,37.62577,-122.4242192,,0.0041231057,0.1,332.48596,1599242596429
Fix,GT,37.62577,-122.4242192,,0.0037101908,0.1,332.486,1599242597429
Fix,GT,37.62577,-122.4242192,,0.0031622774,0.1,332.4859,1599242598429
Fix,GT,37.62577,-122.4242192,,0.0031622774,0.1,332.48578,1599242599429
Fix,GT,37.62577,-122.4242192,,0.00276424,0.1,332.48553,1599242600429
Fix,GT,37.62577,-122.4242192,,0.0024906336,0.1,332.48523,1599242601429
Fix,GT,37.62577,-122.4242192,,0.0025738613,0.1,332.48544,1599242602429
Fix,GT,37.62577,-122.4242192,,0.002236068,0.1,332.4855,1599242603429
Fix,GT,37.62577,-122.4242192,,0.002236068,0.1,332.48547,1599242604429
Fix,GT,37.62577,-122.4242192,,0.002236068,0.1,332.48535,1599242605429
Fix,GT,37.62577,-122.4242192,,0.002236068,0.1,332.4851,1599242606429
Fix,GT,37.62577,-122.4242192,,0.0018828769,0.1,332.48514,1599242607429
Fix,GT,37.62577,-122.4242192,,0.0017674046,0.1,332.4851,1599242608429
Fix,GT,37.62577,-122.4242192,,0.002236068,0.1,332.48514,1599242609429
Fix,GT,37.62577,-122.4242192,,0.002236068,0.1,332.4851,1599242610429
Fix,GT,37.62577,-122.4242192,,0.002134618,0.1,332.48502,1599242611429
Fix,GT,37.62577,-122.4242192,,0.002,0.1,-27.515003,1599242612429
Fix,GT,37.62577,-122.4242192,,0.002,0.1,332.48492,1599242613429
Fix,GT,37.62577,-122.4242192,,0.0015702511,0.1,332.4848,1599242614429
Fix,GT,37.62577,-122.4242192,,0.001,0.1,332.48474,1599242615429
Fix,GT,37.62577,-122.4242192,,0.001,0.1,332.48526,1599242616429
Fix,GT,37.62577,-122.4242192,,0.001,0.1,332.48578,1599242617429
Fix,GT,37.62577,-122.4242192,,0.001,0.1,332.48547,1599242618429
Fix,GT,37.62577,-122.4242192,,0.001,0.1,332.48532,1599242619429
Fix,GT,37.62577,-122.4242192,,0.000570251,0.1,332.4851,1599242620429
Fix,GT,37.6257701,-122.4242192,,0.0004297491,0.1,332.4849,1599242621429
Fix,GT,37.6257701,-122.4242192,,0.0014297492,0.1,332.48495,1599242622429
Fix,GT,37.6257709,-122.4242197,,0.30849886,0.1,332.4868,1599242623429
Fix,GT,37.6257748,-122.4242224,,0.7947446,0.1,332.3921,1599242624429
Fix,GT,37.625781,-122.4242265,,0.6960118,0.1,332.2093,1599242625429
Fix,GT,37.6257845,-122.424229,,0.24809211,0.1,332.12796,1599242626429
Fix,GT,37.6257863,-122.4242302,,0.43558156,0.1,332.17297,1599242627429
Fix,GT,37.6257933,-122.4242344,,1.3228656,0.1,332.63187,1599242628429
Fix,GT,37.6258056,-122.4242418,,1.535831,0.1,333.52274,1599242629429
Fix,GT,37.6258168,-122.4242484,,1.2259352,0.1,334.2547,1599242630429
Fix,GT,37.6258261,-122.4242537,,1.2095011,0.1,334.62485,1599242631429
Fix,GT,37.6258365,-122.4242603,,1.5480084,0.1,333.97116,1599242632429
Fix,GT,37.6258504,-122.4242716,,2.1417775,0.1,329.51187,1599242633429
Fix,GT,37.625865,-122.4242904,,2.6157908,0.1,318.79935,1599242634429
Fix,GT,37.6258794,-122.4243199,,3.5391102,0.1,304.84998,1599242635429
Fix,GT,37.625893,-122.4243658,,5.2757196,0.1,291.42282,1599242636429
Fix,GT,37.6259007,-122.4244358,,7.394308,0.1,276.08603,1599242637429
Fix,GT,37.6258916,-122.4245279,,9.201665,0.1,259.57837,1599242638429
Fix,GT,37.6258623,-122.424635,,10.920559,0.1,249.03564,1599242639429
Fix,GT,37.6258197,-122.4247564,,12.354063,0.1,245.29724,1599242640429
Fix,GT,37.6257699,-122.4248891,,13.436701,0.1,244.3448,1599242641429
Fix,GT,37.6257158,-122.4250324,,14.563257,0.1,244.53668,1599242642429
Fix,GT,37.6256585,-122.4251863,,15.4564495,0.1,245.2244,1599242643429
Fix,GT,37.6256005,-122.4253492,,15.958122,0.1,246.43088,1599242644429
Fix,GT,37.6255461,-122.4255177,,16.021376,0.1,249.0933,1599242645429
Fix,GT,37.6255003,-122.4256876,,15.663522,0.1,252.6268,1599242646429
Fix,GT,37.6254623,-122.4258567,,15.344435,0.1,254.96375,1599242647429
Fix,GT,37.625428,-122.4260229,,14.864552,0.1,255.93405,1599242648429
Fix,GT,37.6253989,-122.4261813,,13.801135,0.1,258.08508,1599242649429
Fix,GT,37.6253766,-122.4263284,,12.658411,0.1,260.16046,1599242650429
Fix,GT,37.6253582,-122.4264639,,11.575013,0.1,260.36877,1599242651429
Fix,GT,37.6253398,-122.4265869,,10.572962,0.1,258.57797,1599242652429
Fix,GT,37.6253183,-122.4266986,,9.754001,0.1,255.37186,1599242653429
Fix,GT,37.6252942,-122.4268002,,8.989559,0.1,252.37494,1599242654429
Fix,GT,37.6252688,-122.4268924,,8.248432,0.1,250.4414,1599242655429
Fix,GT,37.625244,-122.4269762,,7.55812,0.1,249.23111,1599242656429
Fix,GT,37.6252205,-122.4270525,,6.881117,0.1,248.39206,1599242657429
Fix,GT,37.6251987,-122.4271211,,6.1646338,0.1,248.09518,1599242658429
Fix,GT,37.6251795,-122.4271814,,5.2947884,0.1,248.15903,1599242659429
Fix,GT,37.6251636,-122.4272322,,4.3783545,0.1,248.28021,1599242660429
Fix,GT,37.6251502,-122.4272745,,3.7755232,0.1,248.31839,1599242661429
Fix,GT,37.6251374,-122.4273151,,4.1290545,0.1,248.31433,1599242662429
Fix,GT,37.6251214,-122.4273656,,5.579754,0.1,248.28668,1599242663429
Fix,GT,37.6251004,-122.4274321,,6.965438,0.1,248.3759,1599242664429
Fix,GT,37.6250766,-122.4275088,,7.4061985,0.1,248.73802,1599242665429
Fix,GT,37.6250532,-122.4275848,,6.880704,0.1,248.94766,1599242666429
Fix,GT,37.6250329,-122.4276511,,5.5321846,0.1,248.85648,1599242667429
Fix,GT,37.6250178,-122.4276993,,3.5711977,0.1,248.55641,1599242668429
Fix,GT,37.6250092,-122.4277262,,1.5587507,0.1,248.19211,1599242669429
Fix,GT,37.6250063,-122.4277351,,0.2600398,0.1,248.0388,1599242670429
Fix,GT,37.6250062,-122.4277353,,0.0047579473,0.1,248.02933,1599242671429
Fix,GT,37.6250062,-122.4277353,,0.002671701,0.1,248.02911,1599242672429
Fix,GT,37.6250062,-122.4277353,,0.0021346181,0.1,248.02881,1599242673429
Fix,GT,37.6250062,-122.4277353,,0.0015702508,0.1,248.02884,1599242674429
Fix,GT,37.6250062,-122.4277353,,0.0015311994,0.1,248.02881,1599242675429
Fix,GT,37.6250062,-122.4277353,,0.0017048687,0.1,248.0289,1599242676429
Fix,GT,37.6250062,-122.4277353,,0.001,0.1,248.02876,1599242677429
Fix,GT,37.6250062,-122.4277353,,0.001178008,0.1,248.02856,1599242678429
Fix,GT,37.6250062,-122.4277353,,0.0014142136,0.1,248.02858,1599242679429
Fix,GT,37.6250062,-122.4277353,,0.0012362056,0.1,248.0285,1599242680429
Fix,GT,37.6250062,-122.4277353,,0.001178008,0.1,248.0284,1599242681429
Fix,GT,37.6250062,-122.4277353,,0.0012362056,0.1,248.02826,1599242682429
Fix,GT,37.6250062,-122.4277353,,0.001,0.1,248.02832,1599242683429
Fix,GT,37.6250062,-122.4277353,,0.001178008,0.1,248.02858,1599242684429
Fix,GT,37.6250062,-122.4277353,,0.0014142136,0.1,248.02847,1599242685429
Fix,GT,37.6250062,-122.4277353,,0.0014142136,0.1,248.02805,1599242686429
Fix,GT,37.6250062,-122.4277353,,0.001767405,0.1,248.0279,1599242687429
Fix,GT,37.6250062,-122.4277353,,0.002134618,0.1,248.02774,1599242688429
Fix,GT,37.6250062,-122.4277353,,0.0021014502,0.1,248.02756,1599242689429
Fix,GT,37.6250062,-122.4277353,,0.0026341057,0.1,248.02737,1599242690429
Fix,GT,37.6250062,-122.4277353,,0.0035751928,0.1,248.02728,1599242691429
Fix,GT,37.6250062,-122.4277352,,0.032038145,0.1,248.03035,1599242692429
Fix,GT,37.625006,-122.4277361,,0.40369093,0.1,247.98398,1599242693429
Fix,GT,37.6250026,-122.4277456,,1.7333772,0.1,247.59305,1599242694429
Fix,GT,37.6249919,-122.4277754,,4.1157017,0.1,246.10815,1599242695429
Fix,GT,37.62497,-122.4278299,,6.7297025,0.1,243.27075,1599242696429
Fix,GT,37.6249354,-122.4279077,,9.081176,0.1,240.22098,1599242697429
Fix,GT,37.6248865,-122.428006,,11.374185,0.1,237.17319,1599242698429
Fix,GT,37.6248222,-122.4281205,,13.303372,0.1,233.59547,1599242699429
Fix,GT,37.6247438,-122.428244,,14.414183,0.1,230.2041,1599242700429
Fix,GT,37.624657,-122.4283678,,14.486959,0.1,227.6006,1599242701429
Fix,GT,37.6245684,-122.428483,,13.812386,0.1,224.6687,1599242702429
Fix,GT,37.6244801,-122.4285833,,12.528386,0.1,220.1789,1599242703429
Fix,GT,37.6243987,-122.4286629,,10.107652,0.1,216.15167,1599242704429
Fix,GT,37.6243357,-122.4287174,,6.8796186,0.1,213.58997,1599242705429
Fix,GT,37.6242954,-122.4287496,,3.803266,0.1,212.18507,1599242706429
Fix,GT,37.6242756,-122.4287649,,1.3739929,0.1,211.69835,1599242707429
Fix,GT,37.6242702,-122.428769,,0.12989698,0.1,211.59549,1599242708429
Fix,GT,37.6242703,-122.428769,,0.00775507,0.1,211.5906,1599242709429
Fix,GT,37.6242702,-122.428769,,0.0051843445,0.1,211.58952,1599242710429
Fix,GT,37.6242702,-122.428769,,0.0031622774,0.1,211.59023,1599242711429
Fix,GT,37.6242702,-122.4287691,,0.0027642397,0.1,211.59032,1599242712429
Fix,GT,37.6242702,-122.4287691,,0.002236068,0.1,211.59027,1599242713429
Fix,GT,37.6242701,-122.4287691,,0.002236068,0.1,211.59007,1599242714429
Fix,GT,37.6242701,-122.4287691,,0.0018828767,0.1,211.58995,1599242715429
Fix,GT,37.6242701,-122.4287691,,0.0014142136,0.1,211.59009,1599242716429
Fix,GT,37.6242701,-122.4287691,,0.0014142136,0.1,211.5902,1599242717429
Fix,GT,37.6242701,-122.4287691,,0.0014142136,0.1,211.59016,1599242718429
Fix,GT,37.6242701,-122.4287692,,0.0014142136,0.1,211.59006,1599242719429
Fix,GT,37.6242701,-122.4287692,,0.0014142136,0.1,211.59,1599242720429
Fix,GT,37.6242701,-122.4287692,,0.0014142136,0.1,211.59007,1599242721429
Fix,GT,37.6242701,-122.4287692,,0.0014142136,0.1,211.59013,1599242722429
Fix,GT,37.6242701,-122.4287692,,0.0017674048,0.1,211.59016,1599242723429
Fix,GT,37.6242701,-122.4287692,,0.0018828767,0.1,211.59023,1599242724429
Fix,GT,37.6242701,-122.4287692,,0.0014142136,0.1,211.59026,1599242725429
Fix,GT,37.6242701,-122.4287692,,0.0017674048,0.1,211.59007,1599242726429
Fix,GT,37.6242701,-122.4287692,,0.002236068,0.1,211.58994,1599242727429
Fix,GT,37.6242701,-122.4287692,,0.002236068,0.1,211.59001,1599242728429
Fix,GT,37.6242701,-122.4287692,,0.002236068,0.1,211.59006,1599242729429
Fix,GT,37.6242701,-122.4287692,,0.002236068,0.1,211.59006,1599242730429
Fix,GT,37.6242701,-122.4287692,,0.0018828767,0.1,211.58998,1599242731429
Fix,GT,37.6242701,-122.4287692,,0.0017674047,0.1,211.58995,1599242732429
Fix,GT,37.6242701,-122.4287692,,0.0018828769,0.1,211.59009,1599242733429
Fix,GT,37.6242701,-122.4287692,,0.0017674047,0.1,211.59013,1599242734429
Fix,GT,37.6242701,-122.4287692,,0.002236068,0.1,211.59006,1599242735429
Fix,GT,37.6242701,-122.4287692,,0.002236068,0.1,211.58994,1599242736429
Fix,GT,37.6242701,-122.4287692,,0.0018828767,0.1,211.58987,1599242737429
Fix,GT,37.6242701,-122.4287692,,0.0020219702,0.1,211.58995,1599242738429
Fix,GT,37.62427,-122.4287692,,0.0028284271,0.1,211.59003,1599242739429
Fix,GT,37.62427,-122.4287692,,0.0028284271,0.1,211.59001,1599242740429
Fix,GT,37.62427,-122.4287692,,0.0028284271,0.1,211.59001,1599242741429
Fix,GT,37.62427,-122.4287692,,0.0031623954,0.1,211.58997,1599242742429
Fix,GT,37.62427,-122.4287692,,0.0036055516,0.1,211.5899,1599242743429
Fix,GT,37.6242701,-122.4287692,,0.0032715832,0.1,211.58981,1599242744429
Fix,GT,37.62427,-122.4287694,,0.12727387,0.1,211.60242,1599242745429
Fix,GT,37.6242647,-122.4287738,,1.4606987,0.1,211.89973,1599242746429
Fix,GT,37.6242443,-122.4287894,,3.8117437,0.1,211.22943,1599242747429
Fix,GT,37.6242049,-122.4288126,,5.8044977,0.1,204.63016,1599242748429
Fix,GT,37.6241459,-122.4288288,,7.8014107,0.1,190.1674,1599242749429
Fix,GT,37.6240694,-122.4288229,,9.453688,0.1,172.7102,1599242750429
Fix,GT,37.6239827,-122.4287872,,10.965488,0.1,157.92017,1599242751429
Fix,GT,37.6238904,-122.4287238,,12.560857,0.1,149.50183,1599242752429
Fix,GT,37.6237889,-122.4286413,,14.25922,0.1,146.6756,1599242753429
Fix,GT,37.6236758,-122.428548,,15.694069,0.1,146.31805,1599242754429
Fix,GT,37.6235536,-122.428447,,16.744286,0.1,146.36151,1599242755429
Fix,GT,37.6234238,-122.4283399,,17.668797,0.1,146.7185,1599242756429
Fix,GT,37.6232873,-122.4282295,,18.33564,0.1,147.43155,1599242757429
Fix,GT,37.6231454,-122.4281174,,18.847271,0.1,148.00336,1599242758429
Fix,GT,37.6229987,-122.4280038,,19.371134,0.1,148.34943,1599242759429
Fix,GT,37.6228475,-122.4278876,,19.911724,0.1,148.62302,1599242760429
Fix,GT,37.6226924,-122.4277694,,20.421402,0.1,148.66763,1599242761429
Fix,GT,37.6225326,-122.4276467,,21.148903,0.1,148.44165,1599242762429
Fix,GT,37.6223674,-122.4275205,,21.663998,0.1,148.86145,1599242763429
Fix,GT,37.6221988,-122.427395,,21.788319,0.1,149.54498,1599242764429
Fix,GT,37.6220285,-122.4272711,,21.906042,0.1,149.93475,1599242765429
Fix,GT,37.621856,-122.4271458,,22.421013,0.1,149.64246,1599242766429
Fix,GT,37.6216784,-122.4270149,,23.299915,0.1,149.28159,1599242767429
Fix,GT,37.621495,-122.4268776,,23.99309,0.1,149.13757,1599242768429
Fix,GT,37.6213075,-122.4267377,,24.41209,0.1,149.23276,1599242769429
Fix,GT,37.6211167,-122.4265944,,25.017231,0.1,148.92657,1599242770429
Fix,GT,37.6209201,-122.4264451,,25.96378,0.1,149.07462,1599242771429
Fix,GT,37.6207136,-122.4262939,,27.02536,0.1,150.26208,1599242772429
Fix,GT,37.6204967,-122.4261435,,27.939404,0.1,151.6604,1599242773429
Fix,GT,37.620271,-122.4259957,,28.540785,0.1,152.87463,1599242774429
Fix,GT,37.6200402,-122.4258489,,28.831749,0.1,153.01147,1599242775429
Fix,GT,37.6198084,-122.4257006,,28.87364,0.1,152.84155,1599242776429
Fix,GT,37.6195778,-122.4255517,,28.616022,0.1,152.70197,1599242777429
Fix,GT,37.6193503,-122.4254046,,28.158072,0.1,152.81097,1599242778429
Fix,GT,37.6191262,-122.4252621,,27.613293,0.1,153.37567,1599242779429
Fix,GT,37.6189049,-122.4251259,,27.077065,0.1,154.43268,1599242780429
Fix,GT,37.6186847,-122.4250002,,26.597326,0.1,156.69507,1599242781429
Fix,GT,37.6184642,-122.4248895,,26.126926,0.1,159.43335,1599242782429
Fix,GT,37.6182437,-122.424792,,25.763065,0.1,161.47675,1599242783429
Fix,GT,37.6180232,-122.424705,,25.536255,0.1,163.4574,1599242784429
Fix,GT,37.6178023,-122.4246291,,25.292,0.1,165.88129,1599242785429
Fix,GT,37.6175814,-122.4245651,,25.040993,0.1,167.74078,1599242786429
Fix,GT,37.6173614,-122.4245076,,24.860306,0.1,168.54291,1599242787429
Fix,GT,37.6171417,-122.4244552,,24.801355,0.1,170.07849,1599242788429
Fix,GT,37.6169207,-122.4244133,,24.817007,0.1,172.56305,1599242789429
Fix,GT,37.6166982,-122.4243834,,24.869736,0.1,175.07397,1599242790429
Fix,GT,37.6164741,-122.4243666,,25.018646,0.1,177.68213,1599242791429
Fix,GT,37.6162476,-122.4243627,,25.259098,0.1,180.30151,1599242792429
Fix,GT,37.6160194,-122.4243699,,25.380196,0.1,182.48155,1599242793429
Fix,GT,37.6157909,-122.4243876,,25.419815,0.1,184.30177,1599242794429
Fix,GT,37.6155632,-122.4244148,,25.34201,0.1,186.22182,1599242795429
Fix,GT,37.6153374,-122.4244513,,25.20361,0.1,188.21518,1599242796429
Fix,GT,37.6151139,-122.4244981,,25.128899,0.1,190.34265,1599242797429
Fix,GT,37.6148907,-122.4245553,,25.461039,0.1,192.51811,1599242798429
Fix,GT,37.6146652,-122.4246246,,26.080498,0.1,194.76508,1599242799429
Fix,GT,37.6144371,-122.4247069,,26.617657,0.1,196.97702,1599242800429
Fix,GT,37.6142071,-122.4248017,,27.08545,0.1,199.01376,1599242801429
Fix,GT,37.6139764,-122.4249083,,27.421165,0.1,201.20284,1599242802429
Fix,GT,37.6137477,-122.4250271,,27.50226,0.1,203.60622,1599242803429
Fix,GT,37.6135235,-122.4251581,,27.368465,0.1,206.09901,1599242804429
Fix,GT,37.6133052,-122.4252996,,27.150372,0.1,208.22897,1599242805429
Fix,GT,37.6130925,-122.4254473,,26.776306,0.1,209.28699,1599242806429
Fix,GT,37.6128836,-122.4255957,,26.461882,0.1,209.50404,1599242807429
Fix,GT,37.6126774,-122.4257432,,26.183994,0.1,209.69695,1599242808429
Fix,GT,37.6124739,-122.4258899,,25.951294,0.1,209.77217,1599242809429
Fix,GT,37.6122708,-122.426036,,25.99018,0.1,209.56529,1599242810429
Fix,GT,37.6120662,-122.4261813,,26.275469,0.1,209.35434,1599242811429
Fix,GT,37.6118575,-122.4263288,,26.96645,0.1,209.27423,1599242812429
Fix,GT,37.6116412,-122.4264794,,27.792477,0.1,208.60007,1599242813429
Fix,GT,37.6114184,-122.4266288,,28.15438,0.1,207.46585,1599242814429
Fix,GT,37.6111929,-122.4267723,,28.036663,0.1,206.21837,1599242815429
Fix,GT,37.6109665,-122.426909,,27.759777,0.1,204.99309,1599242816429
Fix,GT,37.6107386,-122.4270387,,27.810774,0.1,203.65805,1599242817429
Fix,GT,37.6105078,-122.4271627,,27.965805,0.1,202.58339,1599242818429
Fix,GT,37.6102749,-122.4272817,,27.87019,0.1,201.56389,1599242819429
Fix,GT,37.6100418,-122.4273947,,27.627651,0.1,200.52228,1599242820429
Fix,GT,37.6098087,-122.4275009,,27.390015,0.1,199.23215,1599242821429
Fix,GT,37.6095758,-122.4275993,,27.1904,0.1,197.89528,1599242822429
Fix,GT,37.6093432,-122.4276913,,26.918951,0.1,197.0076,1599242823429
Fix,GT,37.6091125,-122.4277774,,26.545448,0.1,195.9146,1599242824429
Fix,GT,37.6088838,-122.4278546,,26.179623,0.1,194.34604,1599242825429
Fix,GT,37.6086557,-122.4279237,,26.0211,0.1,193.05127,1599242826429
Fix,GT,37.6084272,-122.4279875,,25.95261,0.1,191.97876,1599242827429
Fix,GT,37.6081979,-122.4280463,,25.996681,0.1,191.03508,1599242828429
Fix,GT,37.6079663,-122.4281007,,26.366573,0.1,190.0782,1599242829429
Fix,GT,37.6077295,-122.428151,,26.99698,0.1,189.05286,1599242830429
Fix,GT,37.6074864,-122.4281966,,27.58168,0.1,187.89664,1599242831429
Fix,GT,37.6072376,-122.4282367,,28.101633,0.1,186.74161,1599242832429
Fix,GT,37.606983,-122.428271,,28.776402,0.1,185.27171,1599242833429
Fix,GT,37.6067223,-122.428296,,29.24078,0.1,183.33275,1599242834429
Fix,GT,37.6064586,-122.4283082,,29.27147,0.1,180.85391,1599242835429
Fix,GT,37.6061954,-122.4283055,,29.21497,0.1,178.09863,1599242836429
Fix,GT,37.6059324,-122.428289,,29.277954,0.1,176.10254,1599242837429
Fix,GT,37.6056688,-122.4282615,,29.440548,0.1,174.3476,1599242838429
Fix,GT,37.6054048,-122.4282239,,29.569942,0.1,172.5199,1599242839429
Fix,GT,37.6051408,-122.4281752,,29.667126,0.1,170.54675,1599242840429
Fix,GT,37.604877,-122.4281149,,29.845257,0.1,168.66443,1599242841429
Fix,GT,37.6046142,-122.428043,,29.822811,0.1,166.55505,1599242842429
Fix,GT,37.6043543,-122.4279583,,29.82611,0.1,164.26776,1599242843429
Fix,GT,37.6040959,-122.4278606,,30.138412,0.1,162.22382,1599242844429
Fix,GT,37.6038371,-122.4277511,,30.508331,0.1,160.60071,1599242845429
Fix,GT,37.6035785,-122.4276311,,30.674034,0.1,158.66187,1599242846429
Fix,GT,37.6033231,-122.427498,,30.730831,0.1,156.10101,1599242847429
Fix,GT,37.6030718,-122.4273499,,30.892553,0.1,153.67627,1599242848429
Fix,GT,37.6028244,-122.4271886,,30.99804,0.1,151.48883,1599242849429
Fix,GT,37.6025804,-122.427016,,31.182299,0.1,149.62997,1599242850429
Fix,GT,37.6023393,-122.426833,,31.353806,0.1,147.90579,1599242851429
Fix,GT,37.6021025,-122.4266392,,31.367693,0.1,145.78583,1599242852429
Fix,GT,37.6018726,-122.4264343,,31.182957,0.1,143.44467,1599242853429
Fix,GT,37.6016508,-122.4262199,,30.945805,0.1,141.15405,1599242854429
Fix,GT,37.6014374,-122.4259965,,30.761988,0.1,139.10577,1599242855429
Fix,GT,37.6012311,-122.4257642,,30.754406,0.1,137.19022,1599242856429
Fix,GT,37.60103,-122.4255242,,30.833878,0.1,135.75137,1599242857429
Fix,GT,37.6008319,-122.4252782,,30.988028,0.1,134.93463,1599242858429
Fix,GT,37.600634,-122.4250285,,31.299599,0.1,134.85681,1599242859429
Fix,GT,37.6004329,-122.4247776,,31.605953,0.1,135.53024,1599242860429
Fix,GT,37.6002269,-122.4245281,,31.887686,0.1,136.24734,1599242861429
Fix,GT,37.6000192,-122.4242769,,32.08506,0.1,135.7356,1599242862429
Fix,GT,37.5998133,-122.4240206,,32.26165,0.1,134.6799,1599242863429
Fix,GT,37.5996081,-122.4237609,,32.364243,0.1,134.76355,1599242864429
Fix,GT,37.5994012,-122.4235023,,32.385536,0.1,135.27771,1599242865429
Fix,GT,37.5991935,-122.4232446,,32.436382,0.1,135.20117,1599242866429
Fix,GT,37.5989855,-122.4229858,,32.513493,0.1,135.11353,1599242867429
Fix,GT,37.5987771,-122.4227263,,32.62068,0.1,135.19067,1599242868429
Fix,GT,37.5985673,-122.4224664,,32.768154,0.1,135.47632,1599242869429
Fix,GT,37.5983553,-122.4222071,,32.900223,0.1,135.87265,1599242870429
Fix,GT,37.5981419,-122.4219473,,33.018604,0.1,135.64838,1599242871429
Fix,GT,37.5979291,-122.4216853,,33.136967,0.1,135.41321,1599242872429
Fix,GT,37.5977154,-122.4214216,,33.393692,0.1,135.50531,1599242873429
Fix,GT,37.5974992,-122.4211565,,33.623634,0.1,135.68744,1599242874429
Fix,GT,37.597282,-122.4208907,,33.65055,0.1,135.71768,1599242875429
Fix,GT,37.5970648,-122.4206251,,33.61103,0.1,135.8389,1599242876429
Fix,GT,37.5968467,-122.420361,,33.604317,0.1,136.27838,1599242877429
Fix,GT,37.5966261,-122.4201001,,33.645958,0.1,137.28354,1599242878429
Fix,GT,37.5964004,-122.4198451,,33.738525,0.1,138.95749,1599242879429
Fix,GT,37.5961683,-122.4195972,,33.92304,0.1,140.33075,1599242880429
Fix,GT,37.5959305,-122.4193532,,34.23942,0.1,140.96628,1599242881429
Fix,GT,37.5956892,-122.4191083,,34.592693,0.1,141.19531,1599242882429
Fix,GT,37.5954456,-122.4188615,,34.891144,0.1,141.22601,1599242883429
Fix,GT,37.5951987,-122.4186146,,35.15737,0.1,141.54037,1599242884429
Fix,GT,37.5949495,-122.418368,,35.207054,0.1,141.8461,1599242885429
Fix,GT,37.5947007,-122.4181232,,34.89587,0.1,141.9638,1599242886429
Fix,GT,37.5944541,-122.4178815,,34.52503,0.1,141.95795,1599242887429
Fix,GT,37.5942101,-122.4176419,,34.21138,0.1,141.83795,1599242888429
Fix,GT,37.5939691,-122.4174036,,33.860306,0.1,141.6615,1599242889429
Fix,GT,37.593731,-122.417167,,33.48966,0.1,141.53363,1599242890429
Fix,GT,37.5934956,-122.4169327,,33.205444,0.1,141.5799,1599242891429
Fix,GT,37.5932614,-122.4167006,,33.03533,0.1,141.78192,1599242892429
Fix,GT,37.5930274,-122.4164705,,32.898155,0.1,141.9071,1599242893429
Fix,GT,37.5927946,-122.4162417,,32.690144,0.1,141.89728,1599242894429
Fix,GT,37.5925635,-122.4160143,,32.46579,0.1,141.83542,1599242895429
Fix,GT,37.5923341,-122.4157881,,32.255177,0.1,141.80225,1599242896429
Fix,GT,37.5921061,-122.4155633,,32.10208,0.1,141.89233,1599242897429
Fix,GT,37.5918784,-122.4153402,,31.981493,0.1,142.11548,1599242898429
Fix,GT,37.5916512,-122.4151194,,31.758066,0.1,142.23877,1599242899429
Fix,GT,37.5914261,-122.4149001,,31.49371,0.1,142.03119,1599242900429
Fix,GT,37.5912037,-122.4146811,,31.20788,0.1,141.64954,1599242901429
Fix,GT,37.5909843,-122.4144628,,30.892881,0.1,141.46161,1599242902429
Fix,GT,37.5907677,-122.4142461,,30.604939,0.1,141.37741,1599242903429
Fix,GT,37.5905527,-122.4140311,,30.386936,0.1,141.55774,1599242904429
Fix,GT,37.590338,-122.4138195,,30.127872,0.1,142.18872,1599242905429
Fix,GT,37.5901237,-122.4136133,,29.78669,0.1,142.64148,1599242906429
Fix,GT,37.5899118,-122.4134097,,29.450798,0.1,142.37778,1599242907429
Fix,GT,37.5897033,-122.4132062,,29.184067,0.1,141.71301,1599242908429
Fix,GT,37.5894975,-122.4130015,,29.107243,0.1,141.42151,1599242909429
Fix,GT,37.5892912,-122.4127966,,29.235703,0.1,141.80194,1599242910429
Fix,GT,37.5890827,-122.4125926,,29.438251,0.1,142.14154,1599242911429
Fix,GT,37.5888725,-122.4123865,,29.791042,0.1,141.75958,1599242912429
Fix,GT,37.5886606,-122.4121743,,30.359285,0.1,141.12582,1599242913429
Fix,GT,37.5884456,-122.4119564,,30.994621,0.1,141.30286,1599242914429
Fix,GT,37.5882258,-122.4117354,,31.501616,0.1,141.719,1599242915429
Fix,GT,37.588002,-122.411513,,31.857798,0.1,141.57175,1599242916429
Fix,GT,37.5877768,-122.4112872,,32.13388,0.1,141.16492,1599242917429
Fix,GT,37.5875507,-122.4110559,,32.614655,0.1,140.29297,1599242918429
Fix,GT,37.5873256,-122.4108144,,33.10576,0.1,138.50409,1599242919429
Fix,GT,37.5871039,-122.4105601,,33.489037,0.1,136.52649,1599242920429
Fix,GT,37.5868867,-122.4102944,,33.77312,0.1,134.76031,1599242921429
Fix,GT,37.586674,-122.4100188,,34.09178,0.1,133.33679,1599242922429
Fix,GT,37.5864624,-122.409736,,34.434784,0.1,132.94843,1599242923429
Fix,GT,37.5862491,-122.4094512,,34.58587,0.1,133.19159,1599242924429
Fix,GT,37.5860347,-122.4091658,,34.795574,0.1,133.07333,1599242925429
Fix,GT,37.5858195,-122.4088766,,35.129436,0.1,132.85144,1599242926429
Fix,GT,37.5856029,-122.4085855,,35.182137,0.1,133.11908,1599242927429
Fix,GT,37.5853856,-122.4082974,,34.929398,0.1,133.67068,1599242928429
Fix,GT,37.5851683,-122.4080135,,34.648678,0.1,134.00644,1599242929429
Fix,GT,37.5849503,-122.4077356,,34.295536,0.1,135.24551,1599242930429
Fix,GT,37.5847291,-122.4074679,,33.867405,0.1,137.00684,1599242931429
Fix,GT,37.5845049,-122.4072115,,33.45593,0.1,138.23712,1599242932429
Fix,GT,37.5842783,-122.4069648,,33.070816,0.1,139.69855,1599242933429
Fix,GT,37.5840505,-122.4067267,,32.72214,0.1,140.66919,1599242934429
Fix,GT,37.5838219,-122.4064953,,32.44696,0.1,141.66168,1599242935429
Fix,GT,37.5835907,-122.4062712,,32.39282,0.1,143.03204,1599242936429
Fix,GT,37.5833549,-122.4060539,,32.532726,0.1,144.34906,1599242937429
Fix,GT,37.5831139,-122.4058423,,32.757576,0.1,145.76886,1599242938429
Fix,GT,37.5828659,-122.4056368,,33.210426,0.1,147.36151,1599242939429
Fix,GT,37.58261,-122.4054359,,33.776814,0.1,148.48895,1599242940429
Fix,GT,37.5823476,-122.4052375,,34.236618,0.1,149.23077,1599242941429
Fix,GT,37.5820792,-122.4050412,,34.673397,0.1,150.45386,1599242942429
Fix,GT,37.5818037,-122.4048507,,35.1556,0.1,151.88702,1599242943429
Fix,GT,37.5815207,-122.4046664,,35.59581,0.1,153.16248,1599242944429
Fix,GT,37.581231,-122.4044874,,36.049244,0.1,154.48926,1599242945429
Fix,GT,37.5809349,-122.4043147,,36.41733,0.1,155.75476,1599242946429
Fix,GT,37.580634,-122.4041464,,36.688324,0.1,155.97363,1599242947429
Fix,GT,37.5803315,-122.4039747,,37.00477,0.1,155.17633,1599242948429
Fix,GT,37.5800278,-122.4037962,,37.467278,0.1,154.67883,1599242949429
Fix,GT,37.5797202,-122.4036142,,38.020046,0.1,154.88239,1599242950429
Fix,GT,37.5794075,-122.4034314,,38.51052,0.1,155.06519,1599242951429
Fix,GT,37.5790913,-122.4032475,,38.713886,0.1,155.19525,1599242952429
Fix,GT,37.5787745,-122.403065,,38.599785,0.1,155.42816,1599242953429
Fix,GT,37.5784593,-122.4028845,,38.309105,0.1,155.41089,1599242954429
Fix,GT,37.5781463,-122.4027043,,38.107193,0.1,155.20361,1599242955429
Fix,GT,37.577835,-122.4025232,,38.057434,0.1,155.09119,1599242956429
Fix,GT,37.5775232,-122.4023424,,38.191742,0.1,155.23639,1599242957429
Fix,GT,37.5772092,-122.402162,,38.464314,0.1,155.4718,1599242958429
Fix,GT,37.5768922,-122.4019812,,38.82572,0.1,155.52228,1599242959429
Fix,GT,37.5765722,-122.4017982,,39.219696,0.1,155.39886,1599242960429
Fix,GT,37.5762495,-122.4016127,,39.525375,0.1,155.31061,1599242961429
Fix,GT,37.5759249,-122.4014258,,39.743652,0.1,155.29352,1599242962429
Fix,GT,37.5755989,-122.401238,,39.80684,0.1,155.26971,1599242963429
Fix,GT,37.5752733,-122.4010504,,39.683273,0.1,155.28857,1599242964429
Fix,GT,37.5749491,-122.4008632,,39.50569,0.1,155.20801,1599242965429
Fix,GT,37.5746268,-122.4006763,,39.266945,0.1,155.1283,1599242966429
Fix,GT,37.5743075,-122.4004892,,38.93764,0.1,154.65393,1599242967429
Fix,GT,37.5739939,-122.4002968,,38.551468,0.1,152.97736,1599242968429
Fix,GT,37.5736894,-122.4000921,,38.114174,0.1,150.34882,1599242969429
Fix,GT,37.5733968,-122.3998721,,37.629128,0.1,147.54648,1599242970429
Fix,GT,37.573117,-122.3996376,,37.05288,0.1,144.71649,1599242971429
Fix,GT,37.5728509,-122.3993922,,36.18094,0.1,142.65527,1599242972429
Fix,GT,37.5725973,-122.3991456,,34.956745,0.1,142.00262,1599242973429
Fix,GT,37.572354,-122.3989066,,33.6062,0.1,141.78946,1599242974429
Fix,GT,37.5721206,-122.398676,,32.34011,0.1,141.76166,1599242975429
Fix,GT,37.571895,-122.3984531,,31.47142,0.1,141.64032,1599242976429
Fix,GT,37.5716746,-122.3982334,,31.04545,0.1,141.26648,1599242977429
Fix,GT,37.571457,-122.398015,,30.791893,0.1,141.38309,1599242978429
Fix,GT,37.5712403,-122.3977996,,30.536104,0.1,141.78442,1599242979429
Fix,GT,37.5710245,-122.3975875,,30.28701,0.1,141.95688,1599242980429
Fix,GT,37.5708099,-122.3973768,,30.127699,0.1,141.95856,1599242981429
Fix,GT,37.5705964,-122.3971671,,30.032024,0.1,141.83612,1599242982429
Fix,GT,37.5703842,-122.3969569,,29.978956,0.1,141.61786,1599242983429
Fix,GT,37.570172,-122.3967462,,30.063263,0.1,141.6651,1599242984429
Fix,GT,37.5699589,-122.3965358,,30.102337,0.1,141.83038,1599242985429
Fix,GT,37.569746,-122.396326,,29.98452,0.1,141.81866,1599242986429
Fix,GT,37.5695344,-122.3961166,,29.792133,0.1,141.64746,1599242987429
Fix,GT,37.569325,-122.395908,,29.54218,0.1,141.40277,1599242988429
Fix,GT,37.5691177,-122.3957,,29.371492,0.1,141.2026,1599242989429
Fix,GT,37.568912,-122.395493,,29.174839,0.1,141.37457,1599242990429
Fix,GT,37.5687072,-122.3952884,,28.916584,0.1,141.67429,1599242991429
Fix,GT,37.5685043,-122.3950843,,28.784155,0.1,140.84381,1599242992429
Fix,GT,37.5683056,-122.3948748,,28.828629,0.1,139.02448,1599242993429
Fix,GT,37.5681125,-122.394655,,29.052319,0.1,136.57904,1599242994429
Fix,GT,37.5679267,-122.3944227,,29.160355,0.1,133.80841,1599242995429
Fix,GT,37.5677487,-122.3941798,,29.198193,0.1,131.63324,1599242996429
Fix,GT,37.5675766,-122.3939286,,29.330349,0.1,129.87363,1599242997429
Fix,GT,37.5674105,-122.3936703,,29.326422,0.1,127.842285,1599242998429
Fix,GT,37.567253,-122.3934046,,29.213001,0.1,125.270874,1599242999429
Fix,GT,37.5671067,-122.393131,,29.113691,0.1,122.71475,1599243000429
Fix,GT,37.5669688,-122.3928506,,29.139818,0.1,120.835266,1599243001429
Fix,GT,37.5668372,-122.3925644,,29.251225,0.1,119.13599,1599243002429
Fix,GT,37.5667118,-122.3922721,,29.457943,0.1,117.3862,1599243003429
Fix,GT,37.5665933,-122.3919725,,29.654106,0.1,115.326294,1599243004429
Fix,GT,37.5664837,-122.3916657,,29.799637,0.1,112.91974,1599243005429
Fix,GT,37.5663825,-122.3913524,,29.958645,0.1,111.51041,1599243006429
Fix,GT,37.5662816,-122.3910369,,30.104336,0.1,112.198364,1599243007429
Fix,GT,37.5661752,-122.3907234,,30.108837,0.1,113.56445,1599243008429
Fix,GT,37.5660654,-122.3904125,,29.97652,0.1,113.844086,1599243009429
Fix,GT,37.565956,-122.3901031,,29.856516,0.1,113.772,1599243010429
Fix,GT,37.5658448,-122.3897959,,29.803406,0.1,114.888306,1599243011429
Fix,GT,37.5657249,-122.3894941,,29.823084,0.1,117.97601,1599243012429
Fix,GT,37.5655917,-122.3892002,,29.956768,0.1,121.12814,1599243013429
Fix,GT,37.565446,-122.3889141,,30.117508,0.1,123.989075,1599243014429
Fix,GT,37.5652881,-122.3886362,,30.28806,0.1,126.947296,1599243015429
Fix,GT,37.5651172,-122.3883673,,30.486359,0.1,129.97357,1599243016429
Fix,GT,37.5649353,-122.3881077,,30.628614,0.1,132.5752,1599243017429
Fix,GT,37.5647435,-122.387857,,30.85822,0.1,135.13873,1599243018429
Fix,GT,37.56454,-122.3876166,,31.148432,0.1,138.29633,1599243019429
Fix,GT,37.5643247,-122.3873888,,31.368168,0.1,141.1167,1599243020429
Fix,GT,37.5641022,-122.3871687,,31.485296,0.1,142.1701,1599243021429
Fix,GT,37.5638777,-122.3869498,,31.645235,0.1,141.90924,1599243022429
Fix,GT,37.5636529,-122.386727,,31.964302,0.1,141.41235,1599243023429
Fix,GT,37.5634262,-122.3865002,,32.345165,0.1,141.38745,1599243024429
Fix,GT,37.5631972,-122.3862712,,32.60144,0.1,141.34485,1599243025429
Fix,GT,37.5629668,-122.3860403,,32.845425,0.1,141.28241,1599243026429
Fix,GT,37.5627349,-122.3858072,,33.08104,0.1,141.16595,1599243027429
Fix,GT,37.562502,-122.3855717,,33.34588,0.1,141.00998,1599243028429
Fix,GT,37.5622672,-122.3853334,,33.645695,0.1,141.01361,1599243029429
Fix,GT,37.5620301,-122.3850938,,33.88929,0.1,141.21332,1599243030429
Fix,GT,37.5617907,-122.3848531,,34.17694,0.1,141.30298,1599243031429
Fix,GT,37.5615494,-122.384611,,34.354115,0.1,141.29425,1599243032429
Fix,GT,37.5613071,-122.3843674,,34.524868,0.1,141.21732,1599243033429
Fix,GT,37.5610637,-122.3841228,,34.66923,0.1,141.32141,1599243034429
Fix,GT,37.5608188,-122.3838784,,34.71202,0.1,141.66833,1599243035429
Fix,GT,37.5605729,-122.3836361,,34.61737,0.1,141.89163,1599243036429
Fix,GT,37.5603286,-122.3833955,,34.2618,0.1,141.72302,1599243037429
Fix,GT,37.5600889,-122.383157,,33.623947,0.1,141.32498,1599243038429
Fix,GT,37.5598543,-122.3829212,,33.05291,0.1,141.18347,1599243039429
Fix,GT,37.5596236,-122.3826896,,32.495495,0.1,141.5409,1599243040429
Fix,GT,37.5593958,-122.3824644,,31.850643,0.1,141.9325,1599243041429
Fix,GT,37.5591717,-122.3822451,,31.20437,0.1,142.0299,1599243042429
Fix,GT,37.5589514,-122.3820315,,30.574776,0.1,142.60641,1599243043429
Fix,GT,37.5587326,-122.3818268,,30.0029,0.1,144.06049,1599243044429
Fix,GT,37.558513,-122.3816341,,29.510303,0.1,145.93246,1599243045429
Fix,GT,37.5582914,-122.3814529,,29.234844,0.1,147.70825,1599243046429
Fix,GT,37.5580671,-122.3812797,,29.257523,0.1,148.96036,1599243047429
Fix,GT,37.5578396,-122.3811116,,29.363255,0.1,149.91714,1599243048429
Fix,GT,37.5576088,-122.3809475,,29.522083,0.1,150.8876,1599243049429
Fix,GT,37.5573738,-122.3807869,,29.82423,0.1,151.9053,1599243050429
Fix,GT,37.5571341,-122.3806288,,30.233734,0.1,152.57678,1599243051429
Fix,GT,37.5568905,-122.3804711,,30.592007,0.1,152.62183,1599243052429
Fix,GT,37.5566446,-122.3803107,,30.90997,0.1,152.23181,1599243053429
Fix,GT,37.5563973,-122.3801468,,31.165209,0.1,151.97156,1599243054429
Fix,GT,37.5561484,-122.3799805,,31.506355,0.1,151.92783,1599243055429
Fix,GT,37.5558959,-122.3798121,,31.96045,0.1,151.99649,1599243056429
Fix,GT,37.5556396,-122.3796417,,32.368397,0.1,152.08447,1599243057429
Fix,GT,37.5553797,-122.3794696,,32.883514,0.1,152.15967,1599243058429
Fix,GT,37.5551159,-122.3792954,,33.292744,0.1,152.25269,1599243059429
Fix,GT,37.554849,-122.3791199,,33.560226,0.1,152.3313,1599243060429
Fix,GT,37.5545809,-122.3789436,,33.61434,0.1,152.22491,1599243061429
Fix,GT,37.5543132,-122.3787665,,33.565998,0.1,152.11475,1599243062429
Fix,GT,37.554046,-122.3785892,,33.56482,0.1,152.02246,1599243063429
Fix,GT,37.5537794,-122.3784116,,33.347767,0.1,151.98993,1599243064429
Fix,GT,37.5535161,-122.3782337,,33.001793,0.1,151.30792,1599243065429
Fix,GT,37.5532576,-122.3780511,,32.90393,0.1,149.89615,1599243066429
Fix,GT,37.5530009,-122.3778609,,33.30223,0.1,149.02759,1599243067429
Fix,GT,37.5527419,-122.3776634,,33.909264,0.1,148.29822,1599243068429
Fix,GT,37.5524814,-122.3774583,,34.282005,0.1,147.30875,1599243069429
Fix,GT,37.5522217,-122.3772445,,34.73062,0.1,146.04071,1599243070429
Fix,GT,37.5519622,-122.3770199,,35.223793,0.1,144.72748,1599243071429
Fix,GT,37.5517029,-122.3767857,,35.66646,0.1,143.66891,1599243072429
Fix,GT,37.5514431,-122.3765434,,36.19462,0.1,143.04303,1599243073429
Fix,GT,37.5511803,-122.3762958,,36.756966,0.1,143.13861,1599243074429
Fix,GT,37.550912,-122.3760465,,37.308586,0.1,143.60071,1599243075429
Fix,GT,37.5506397,-122.375796,,37.5254,0.1,143.83868,1599243076429
Fix,GT,37.550366,-122.3755468,,37.5091,0.1,144.34473,1599243077429
Fix,GT,37.55009,-122.3753002,,37.77153,0.1,144.77042,1599243078429
Fix,GT,37.5498097,-122.3750519,,38.375877,0.1,144.70245,1599243079429
Fix,GT,37.5495253,-122.3747994,,38.915386,0.1,144.59888,1599243080429
Fix,GT,37.5492377,-122.374543,,39.374435,0.1,144.53162,1599243081429
Fix,GT,37.5489465,-122.374283,,39.951374,0.1,144.49213,1599243082429
Fix,GT,37.5486515,-122.374019,,40.4228,0.1,144.3675,1599243083429
Fix,GT,37.5483547,-122.3737513,,40.6647,0.1,144.02954,1599243084429
Fix,GT,37.5480577,-122.3734803,,40.797874,0.1,143.74649,1599243085429
Fix,GT,37.5477606,-122.3732072,,40.91854,0.1,143.71039,1599243086429
Fix,GT,37.5474628,-122.3729333,,41.04267,0.1,143.66718,1599243087429
Fix,GT,37.5471643,-122.3726584,,41.144142,0.1,143.59833,1599243088429
Fix,GT,37.5468653,-122.3723827,,41.209198,0.1,143.54132,1599243089429
Fix,GT,37.5465664,-122.3721056,,41.230965,0.1,143.39648,1599243090429
Fix,GT,37.546268,-122.3718278,,41.196037,0.1,143.37158,1599243091429
Fix,GT,37.5459701,-122.3715504,,41.1251,0.1,143.32953,1599243092429
Fix,GT,37.5456733,-122.3712734,,40.96293,0.1,143.28705,1599243093429
Fix,GT,37.5453781,-122.3709977,,40.718475,0.1,143.35074,1599243094429
Fix,GT,37.545084,-122.3707244,,40.508827,0.1,143.54977,1599243095429
Fix,GT,37.5447906,-122.3704537,,40.302887,0.1,143.73035,1599243096429
Fix,GT,37.5444984,-122.3701851,,40.094193,0.1,143.67761,1599243097429
Fix,GT,37.5442081,-122.3699169,,39.92585,0.1,143.50333,1599243098429
Fix,GT,37.5439194,-122.3696484,,39.792313,0.1,143.29865,1599243099429
Fix,GT,37.5436329,-122.36938,,39.54142,0.1,143.09125,1599243100429
Fix,GT,37.5433491,-122.369113,,39.15816,0.1,143.0882,1599243101429
Fix,GT,37.5430678,-122.3688492,,38.77176,0.1,143.35944,1599243102429
Fix,GT,37.5427878,-122.3685904,,38.414764,0.1,143.89832,1599243103429
Fix,GT,37.5425084,-122.3683372,,38.07737,0.1,144.349,1599243104429
Fix,GT,37.54223,-122.3680887,,37.73368,0.1,144.8888,1599243105429
Fix,GT,37.5419514,-122.3678474,,37.398277,0.1,146.00293,1599243106429
Fix,GT,37.5416712,-122.3676156,,37.092415,0.1,147.26355,1599243107429
Fix,GT,37.5413894,-122.3673928,,36.85149,0.1,148.305,1599243108429
Fix,GT,37.5411061,-122.3671771,,36.713753,0.1,149.1795,1599243109429
Fix,GT,37.5408211,-122.3669669,,36.65223,0.1,149.86658,1599243110429
Fix,GT,37.5405346,-122.3667616,,36.600628,0.1,150.63641,1599243111429
Fix,GT,37.5402464,-122.3665606,,36.54469,0.1,151.17639,1599243112429
Fix,GT,37.5399573,-122.3663632,,36.520203,0.1,151.72592,1599243113429
Fix,GT,37.5396665,-122.3661692,,36.551155,0.1,152.06793,1599243114429
Fix,GT,37.5393752,-122.3659756,,36.61908,0.1,151.8747,1599243115429
Fix,GT,37.5390842,-122.3657793,,36.703842,0.1,151.43793,1599243116429
Fix,GT,37.5387936,-122.3655803,,36.817394,0.1,151.10275,1599243117429
Fix,GT,37.5385027,-122.3653787,,36.949123,0.1,150.94247,1599243118429
Fix,GT,37.5382109,-122.3651757,,37.08761,0.1,150.99448,1599243119429
Fix,GT,37.5379175,-122.3649733,,37.213615,0.1,151.31335,1599243120429
Fix,GT,37.5376221,-122.3647726,,37.327705,0.1,151.69458,1599243121429
Fix,GT,37.5373253,-122.3645731,,37.4053,0.1,151.83115,1599243122429
Fix,GT,37.537028,-122.3643738,,37.424545,0.1,151.7937,1599243123429
Fix,GT,37.5367307,-122.3641742,,37.40901,0.1,151.78253,1599243124429
Fix,GT,37.5364336,-122.3639746,,37.385452,0.1,151.72614,1599243125429
Fix,GT,37.5361373,-122.363774,,37.334488,0.1,151.45874,1599243126429
Fix,GT,37.5358421,-122.3635725,,37.247284,0.1,151.35098,1599243127429
Fix,GT,37.5355477,-122.3633717,,37.129993,0.1,151.51767,1599243128429
Fix,GT,37.5352536,-122.3631728,,37.014496,0.1,151.74841,1599243129429
Fix,GT,37.5349597,-122.3629762,,36.905537,0.1,152.04053,1599243130429
Fix,GT,37.5346653,-122.3627838,,36.782604,0.1,152.97809,1599243131429
Fix,GT,37.5343682,-122.3626007,,36.667015,0.1,154.72528,1599243132429
Fix,GT,37.5340682,-122.3624287,,36.555523,0.1,155.98444,1599243133429
Fix,GT,37.5337664,-122.3622649,,36.414627,0.1,157.26862,1599243134429
Fix,GT,37.5334626,-122.3621121,,36.260765,0.1,159.1582,1599243135429
Fix,GT,37.5331564,-122.3619714,,36.147583,0.1,160.47168,1599243136429
Fix,GT,37.5328489,-122.3618381,,36.04937,0.1,161.18445,1599243137429
Fix,GT,37.5325415,-122.3617084,,35.8817,0.1,161.46912,1599243138429
Fix,GT,37.5322358,-122.3615806,,35.64424,0.1,161.41211,1599243139429
Fix,GT,37.5319326,-122.3614525,,35.398327,0.1,161.23346,1599243140429
Fix,GT,37.5316314,-122.3613244,,35.190735,0.1,161.20508,1599243141429
Fix,GT,37.5313319,-122.3611971,,34.978848,0.1,161.22357,1599243142429
Fix,GT,37.5310344,-122.3610706,,34.742817,0.1,161.2041,1599243143429
Fix,GT,37.5307391,-122.3609447,,34.47751,0.1,161.10211,1599243144429
Fix,GT,37.5304464,-122.3608186,,34.193916,0.1,160.82788,1599243145429
Fix,GT,37.5301567,-122.3606918,,33.93925,0.1,160.58032,1599243146429
Fix,GT,37.5298689,-122.3605653,,33.724625,0.1,160.7862,1599243147429
Fix,GT,37.5295824,-122.3604416,,33.519627,0.1,161.25122,1599243148429
Fix,GT,37.5292968,-122.3603215,,33.341427,0.1,161.50647,1599243149429
Fix,GT,37.5290123,-122.3602032,,33.16304,0.1,161.73267,1599243150429
Fix,GT,37.5287293,-122.3600859,,32.980606,0.1,161.5304,1599243151429
Fix,GT,37.5284485,-122.3599674,,32.767715,0.1,161.13226,1599243152429
Fix,GT,37.5281703,-122.3598483,,32.481686,0.1,161.1806,1599243153429
Fix,GT,37.5278946,-122.3597307,,32.140465,0.1,161.17487,1599243154429
Fix,GT,37.5276221,-122.3596124,,31.932217,0.1,160.51367,1599243155429
Fix,GT,37.5273517,-122.3594883,,32.00158,0.1,159.33252,1599243156429
Fix,GT,37.5270828,-122.3593558,,32.05935,0.1,157.73767,1599243157429
Fix,GT,37.5268184,-122.3592122,,31.925858,0.1,155.34045,1599243158429
Fix,GT,37.5265603,-122.3590553,,31.761192,0.1,152.92444,1599243159429
Fix,GT,37.5263086,-122.3588868,,31.550987,0.1,150.75214,1599243160429
Fix,GT,37.5260652,-122.3587066,,31.208124,0.1,147.93256,1599243161429
Fix,GT,37.5258321,-122.3585141,,30.756443,0.1,145.46301,1599243162429
Fix,GT,37.5256072,-122.3583156,,30.225761,0.1,144.42831,1599243163429
Fix,GT,37.5253879,-122.3581181,,29.720085,0.1,144.27887,1599243164429
Fix,GT,37.5251713,-122.3579236,,29.4333,0.1,144.3895,1599243165429
Fix,GT,37.5249554,-122.3577306,,29.402317,0.1,144.48645,1599243166429
Fix,GT,37.5247393,-122.3575384,,29.356974,0.1,144.72833,1599243167429
Fix,GT,37.5245235,-122.3573482,,29.195805,0.1,144.91162,1599243168429
Fix,GT,37.524308,-122.35716,,29.11375,0.1,145.21695,1599243169429
Fix,GT,37.5240906,-122.3569752,,29.181812,0.1,146.52618,1599243170429
Fix,GT,37.5238679,-122.3567978,,29.380714,0.1,148.53333,1599243171429
Fix,GT,37.5236386,-122.356629,,29.654202,0.1,150.45697,1599243172429
Fix,GT,37.523403,-122.3564678,,29.899603,0.1,152.19257,1599243173429
Fix,GT,37.5231622,-122.3563149,,29.969837,0.1,154.05469,1599243174429
Fix,GT,37.522917,-122.3561718,,30.084213,0.1,155.89978,1599243175429
Fix,GT,37.5226672,-122.3560366,,30.288343,0.1,157.20917,1599243176429
Fix,GT,37.5224142,-122.3559055,,30.445381,0.1,157.69763,1599243177429
Fix,GT,37.5221598,-122.355775,,30.563572,0.1,157.6961,1599243178429
Fix,GT,37.5219043,-122.3556439,,30.72573,0.1,157.71777,1599243179429
Fix,GT,37.521647,-122.3555121,,30.955559,0.1,157.73486,1599243180429
Fix,GT,37.521388,-122.3553791,,31.162025,0.1,157.63074,1599243181429
Fix,GT,37.5211275,-122.3552442,,31.362331,0.1,157.46246,1599243182429
Fix,GT,37.520866,-122.3551069,,31.583586,0.1,157.09729,1599243183429
Fix,GT,37.5206032,-122.3549657,,31.8541,0.1,156.42944,1599243184429
Fix,GT,37.5203403,-122.3548188,,32.006042,0.1,155.48389,1599243185429
Fix,GT,37.5200788,-122.3546652,,32.0908,0.1,154.28766,1599243186429
Fix,GT,37.5198194,-122.3545039,,32.193962,0.1,152.9754,1599243187429
Fix,GT,37.5195618,-122.3543355,,32.271404,0.1,151.92426,1599243188429
Fix,GT,37.5193061,-122.3541613,,32.29682,0.1,150.98105,1599243189429
Fix,GT,37.519053,-122.3539812,,32.290115,0.1,149.70221,1599243190429
Fix,GT,37.5188035,-122.3537936,,32.269676,0.1,148.3237,1599243191429
Fix,GT,37.518558,-122.3535987,,32.195057,0.1,146.93286,1599243192429
Fix,GT,37.518317,-122.3533976,,32.00402,0.1,145.72406,1599243193429
Fix,GT,37.5180813,-122.3531929,,31.613377,0.1,144.82526,1599243194429
Fix,GT,37.5178511,-122.3529865,,31.217827,0.1,143.9921,1599243195429
Fix,GT,37.5176265,-122.3527775,,30.83435,0.1,142.66553,1599243196429
Fix,GT,37.5174092,-122.3525635,,30.501617,0.1,140.96393,1599243197429
Fix,GT,37.5171984,-122.3523447,,30.210339,0.1,139.77142,1599243198429
Fix,GT,37.516993,-122.3521242,,29.709314,0.1,139.08463,1599243199429
Fix,GT,37.5167927,-122.3519064,,29.143612,0.1,139.0794,1599243200429
Fix,GT,37.5165944,-122.3516928,,28.913708,0.1,139.56793,1599243201429
Fix,GT,37.5163957,-122.3514824,,28.795528,0.1,139.80396,1599243202429
Fix,GT,37.5161977,-122.3512722,,28.804604,0.1,139.38681,1599243203429
Fix,GT,37.5160005,-122.3510588,,29.02285,0.1,138.99997,1599243204429
Fix,GT,37.5158017,-122.3508428,,29.405764,0.1,139.19092,1599243205429
Fix,GT,37.5155988,-122.3506252,,29.762484,0.1,139.65686,1599243206429
Fix,GT,37.5153931,-122.3504077,,29.930534,0.1,139.9436,1599243207429
Fix,GT,37.5151863,-122.3501891,,30.115469,0.1,139.6947,1599243208429
Fix,GT,37.5149793,-122.3499664,,30.392046,0.1,139.03583,1599243209429
Fix,GT,37.5147718,-122.34974,,30.616302,0.1,138.88248,1599243210429
Fix,GT,37.514563,-122.3495125,,30.760105,0.1,139.01672,1599243211429
Fix,GT,37.5143527,-122.3492841,,30.977211,0.1,139.03778,1599243212429
Fix,GT,37.5141407,-122.3490536,,31.242245,0.1,139.03894,1599243213429
Fix,GT,37.5139268,-122.348822,,31.454391,0.1,139.31299,1599243214429
Fix,GT,37.5137108,-122.3485904,,31.618542,0.1,139.53262,1599243215429
Fix,GT,37.5134935,-122.3483574,,31.801517,0.1,139.40189,1599243216429
Fix,GT,37.5132757,-122.348122,,31.991653,0.1,139.06897,1599243217429
Fix,GT,37.5130583,-122.3478831,,32.125977,0.1,138.432,1599243218429
Fix,GT,37.5128424,-122.3476402,,32.252018,0.1,137.82416,1599243219429
Fix,GT,37.5126274,-122.3473936,,32.391308,0.1,137.29022,1599243220429
Fix,GT,37.5124138,-122.347143,,32.524902,0.1,136.50198,1599243221429
Fix,GT,37.5122017,-122.346888,,32.655308,0.1,135.91919,1599243222429
Fix,GT,37.5119907,-122.3466297,,32.762943,0.1,135.54608,1599243223429
Fix,GT,37.5117806,-122.3463687,,32.82963,0.1,134.97076,1599243224429
Fix,GT,37.5115724,-122.3461047,,32.872375,0.1,134.32239,1599243225429
Fix,GT,37.5113665,-122.3458376,,32.872116,0.1,133.67963,1599243226429
Fix,GT,37.5111635,-122.345568,,32.738808,0.1,133.05228,1599243227429
Fix,GT,37.5109635,-122.3452967,,32.609158,0.1,132.41699,1599243228429
Fix,GT,37.5107667,-122.3450236,,32.525196,0.1,131.77185,1599243229429
Fix,GT,37.5105727,-122.3447484,,32.48101,0.1,131.08466,1599243230429
Fix,GT,37.5103813,-122.3444707,,32.45358,0.1,130.39276,1599243231429
Fix,GT,37.510192,-122.3441908,,32.478127,0.1,130.13446,1599243232429
Fix,GT,37.5100032,-122.3439095,,32.58554,0.1,129.87146,1599243233429
Fix,GT,37.5098155,-122.3436253,,32.70691,0.1,129.12012,1599243234429
Fix,GT,37.5096302,-122.3433371,,32.789604,0.1,128.42694,1599243235429
Fix,GT,37.5094475,-122.3430457,,32.760506,0.1,127.73166,1599243236429
Fix,GT,37.5092677,-122.3427523,,32.685295,0.1,127.22275,1599243237429
Fix,GT,37.5090894,-122.3424582,,32.689053,0.1,127.216705,1599243238429
Fix,GT,37.5089102,-122.3421642,,32.80669,0.1,127.352234,1599243239429
Fix,GT,37.5087304,-122.3418688,,32.921707,0.1,127.07388,1599243240429
Fix,GT,37.5085515,-122.3415713,,32.98053,0.1,126.902954,1599243241429
Fix,GT,37.5083722,-122.3412731,,33.127422,0.1,127.04709,1599243242429
Fix,GT,37.5081911,-122.3409738,,33.314884,0.1,127.3067,1599243243429
Fix,GT,37.5080082,-122.3406743,,33.419357,0.1,127.492584,1599243244429
Fix,GT,37.5078244,-122.3403742,,33.52321,0.1,127.423676,1599243245429
Fix,GT,37.5076403,-122.3400723,,33.68453,0.1,127.286896,1599243246429
Fix,GT,37.5074556,-122.3397693,,33.768612,0.1,127.36661,1599243247429
Fix,GT,37.5072705,-122.3394665,,33.72795,0.1,127.55005,1599243248429
Fix,GT,37.5070852,-122.3391645,,33.68807,0.1,127.50876,1599243249429
Fix,GT,37.5069004,-122.3388627,,33.628033,0.1,127.35721,1599243250429
Fix,GT,37.5067169,-122.3385607,,33.52112,0.1,127.21753,1599243251429
Fix,GT,37.5065343,-122.3382598,,33.357285,0.1,127.19586,1599243252429
Fix,GT,37.5063526,-122.3379606,,33.15673,0.1,127.27069,1599243253429
Fix,GT,37.5061719,-122.3376636,,32.931957,0.1,127.34277,1599243254429
Fix,GT,37.5059918,-122.3373693,,32.66901,0.1,127.580414,1599243255429
Fix,GT,37.505812,-122.3370788,,32.374016,0.1,128.00464,1599243256429
Fix,GT,37.5056326,-122.3367923,,32.107014,0.1,128.04376,1599243257429
Fix,GT,37.5054546,-122.3365064,,32.123657,0.1,127.76489,1599243258429
