MessageType,Provider,LatitudeDegrees,LongitudeDegrees,AltitudeMeters,SpeedMps,AccuracyMeters,BearingDegrees,UnixTimeMillis
Fix,GT,37.424054,-122.0907317,,0.0039860555,0.1,322.07312,1592515701439
Fix,GT,37.4240539,-122.0907315,,0.0042648287,0.1,322.07214,1592515702439
Fix,GT,37.4240539,-122.0907312,,0.05533665,0.1,322.06198,1592515703439
Fix,GT,37.4240547,-122.0907319,,0.26980966,0.1,322.30878,1592515704439
Fix,GT,37.4240584,-122.0907355,,0.8140388,0.1,323.36893,1592515705439
Fix,GT,37.4240681,-122.090745,,1.8713429,0.1,325.62418,1592515706439
Fix,GT,37.4240866,-122.0907597,,2.7799916,0.1,331.77185,1592515707439
Fix,GT,37.4241126,-122.0907705,,3.0657415,0.1,345.63992,1592515708439
Fix,GT,37.4241426,-122.0907684,,3.3240225,0.1,6.7377625,1592515709439
Fix,GT,37.4241715,-122.0907502,,3.5512471,0.1,30.185242,1592515710439
Fix,GT,37.4241951,-122.0907223,,3.389691,0.1,47.56253,1592515711439
Fix,GT,37.4242133,-122.0906955,,2.7517905,0.1,54.046997,1592515712439
Fix,GT,37.4242277,-122.090675,,2.0372567,0.1,54.360016,1592515713439
Fix,GT,37.4242366,-122.090662,,0.9745213,0.1,54.12857,1592515714439
Fix,GT,37.4242397,-122.0906577,,0.09088431,0.1,54.04892,1592515715439
Fix,GT,37.4242401,-122.0906579,,0.0052595227,0.1,54.05414,1592515716439
Fix,GT,37.4242403,-122.090658,,0.004722996,0.1,54.05664,1592515717439
Fix,GT,37.4242402,-122.0906575,,0.004940044,0.1,54.055786,1592515718439
Fix,GT,37.4242401,-122.0906569,,0.0054660933,0.1,54.054443,1592515719439
Fix,GT,37.4242394,-122.0906529,,0.30812314,0.1,54.02588,1592515720439
Fix,GT,37.4242406,-122.0906426,,0.99674547,0.1,54.916412,1592515721439
Fix,GT,37.4242452,-122.0906278,,1.6020654,0.1,60.69922,1592515722439
Fix,GT,37.4242483,-122.0906054,,2.2183342,0.1,75.63269,1592515723439
Fix,GT,37.424243,-122.0905741,,2.991331,0.1,99.55505,1592515724439
Fix,GT,37.4242249,-122.0905411,,3.671211,0.1,125.62866,1592515725439
Fix,GT,37.4241967,-122.0905107,,4.3115673,0.1,142.6243,1592515726439
Fix,GT,37.4241628,-122.0904785,,5.0879726,0.1,147.85889,1592515727439
Fix,GT,37.4241236,-122.0904408,,5.9073544,0.1,148.08331,1592515728439
Fix,GT,37.424079,-122.0903988,,6.6449504,0.1,148.56024,1592515729439
Fix,GT,37.4240291,-122.090356,,6.9883995,0.1,151.59924,1592515730439
Fix,GT,37.4239757,-122.090317,,6.734249,0.1,156.18774,1592515731439
Fix,GT,37.4239213,-122.0902896,,6.3044076,0.1,165.73651,1592515732439
Fix,GT,37.4238653,-122.0902844,,6.263606,0.1,184.42627,1592515733439
Fix,GT,37.4238095,-122.0903075,,6.7582197,0.1,207.34534,1592515734439
Fix,GT,37.4237604,-122.0903618,,7.7502775,0.1,231.0353,1592515735439
Fix,GT,37.4237225,-122.0904438,,8.900576,0.1,247.96011,1592515736439
Fix,GT,37.4236897,-122.0905435,,10.099332,0.1,253.35396,1592515737439
Fix,GT,37.423653,-122.0906549,,11.228356,0.1,252.17207,1592515738439
Fix,GT,37.4236079,-122.0907745,,12.206778,0.1,248.33347,1592515739439
Fix,GT,37.4235512,-122.0908965,,12.87384,0.1,243.09293,1592515740439
Fix,GT,37.4234828,-122.091016,,13.23933,0.1,237.51395,1592515741439
Fix,GT,37.4234048,-122.0911287,,13.30932,0.1,232.39708,1592515742439
Fix,GT,37.4233201,-122.0912336,,13.228483,0.1,228.54298,1592515743439
Fix,GT,37.4232316,-122.0913314,,13.126577,0.1,225.35411,1592515744439
Fix,GT,37.4231396,-122.0914205,,12.966402,0.1,222.15866,1592515745439
Fix,GT,37.423046,-122.0915026,,12.694147,0.1,220.66068,1592515746439
Fix,GT,37.4229559,-122.0915865,,12.389538,0.1,223.87843,1592515747439
Fix,GT,37.4228751,-122.0916809,,12.130581,0.1,231.4674,1592515748439
Fix,GT,37.4228079,-122.0917884,,12.03471,0.1,240.8133,1592515749439
Fix,GT,37.4227545,-122.091909,,12.38917,0.1,248.79868,1592515750439
Fix,GT,37.4227078,-122.0920401,,12.919543,0.1,251.98291,1592515751439
Fix,GT,37.4226609,-122.0921754,,13.099654,0.1,251.96637,1592515752439
Fix,GT,37.4226135,-122.0923106,,13.044689,0.1,251.608,1592515753439
Fix,GT,37.4225657,-122.0924446,,12.926513,0.1,251.2323,1592515754439
Fix,GT,37.4225181,-122.0925775,,12.915789,0.1,251.39682,1592515755439
Fix,GT,37.4224714,-122.092712,,13.095345,0.1,252.26811,1592515756439
Fix,GT,37.4224259,-122.0928501,,13.382395,0.1,253.60245,1592515757439
Fix,GT,37.4223825,-122.0929932,,13.74935,0.1,255.32913,1592515758439
Fix,GT,37.4223414,-122.0931413,,13.990847,0.1,257.16245,1592515759439
Fix,GT,37.4223072,-122.0932935,,13.978592,0.1,262.03308,1592515760439
Fix,GT,37.4222898,-122.0934502,,14.107916,0.1,271.81323,1592515761439
Fix,GT,37.4222972,-122.0936113,,14.546344,0.1,283.9438,1592515762439
Fix,GT,37.4223331,-122.093772,,15.046862,0.1,296.089,1592515763439
Fix,GT,37.4223955,-122.0939262,,15.575657,0.1,306.07343,1592515764439
Fix,GT,37.422476,-122.0940743,,16.14012,0.1,311.69043,1592515765439
Fix,GT,37.4225661,-122.0942224,,16.874357,0.1,313.39078,1592515766439
Fix,GT,37.4226629,-122.0943768,,17.956444,0.1,313.8901,1592515767439
Fix,GT,37.4227675,-122.094541,,19.203396,0.1,314.6341,1592515768439
Fix,GT,37.4228817,-122.0947128,,20.349472,0.1,316.00748,1592515769439
Fix,GT,37.4230054,-122.0948911,,21.476135,0.1,317.09283,1592515770439
Fix,GT,37.4231379,-122.0950769,,22.645676,0.1,317.55792,1592515771439
Fix,GT,37.4232777,-122.0952721,,23.803553,0.1,317.472,1592515772439
Fix,GT,37.4234227,-122.0954768,,24.66039,0.1,317.0277,1592515773439
Fix,GT,37.4235705,-122.0956887,,25.165533,0.1,316.61304,1592515774439
Fix,GT,37.4237199,-122.095906,,25.645075,0.1,316.19553,1592515775439
Fix,GT,37.4238711,-122.0961288,,26.131668,0.1,315.84952,1592515776439
Fix,GT,37.424025,-122.0963559,,26.64422,0.1,316.22955,1592515777439
Fix,GT,37.4241849,-122.0965845,,27.162151,0.1,317.53488,1592515778439
Fix,GT,37.4243517,-122.096813,,27.67537,0.1,318.60767,1592515779439
Fix,GT,37.4245243,-122.0970425,,28.152441,0.1,319.29263,1592515780439
Fix,GT,37.4247028,-122.0972722,,28.599686,0.1,320.40292,1592515781439
Fix,GT,37.4248878,-122.097501,,29.061691,0.1,321.51117,1592515782439
Fix,GT,37.4250781,-122.0977301,,29.481401,0.1,322.14536,1592515783439
Fix,GT,37.4252727,-122.0979591,,29.707607,0.1,322.82175,1592515784439
Fix,GT,37.4254702,-122.0981861,,29.734177,0.1,323.5431,1592515785439
Fix,GT,37.4256706,-122.0984093,,29.758244,0.1,324.48328,1592515786439
Fix,GT,37.425874,-122.098629,,29.817558,0.1,325.24973,1592515787439
Fix,GT,37.4260794,-122.0988463,,29.832851,0.1,325.68848,1592515788439
Fix,GT,37.4262858,-122.0990621,,29.817421,0.1,326.0062,1592515789439
Fix,GT,37.4264927,-122.0992765,,29.740479,0.1,326.08423,1592515790439
Fix,GT,37.4266989,-122.09949,,29.621674,0.1,326.03235,1592515791439
Fix,GT,37.4269039,-122.0997033,,29.525913,0.1,325.8291,1592515792439
Fix,GT,37.4271077,-122.0999171,,29.463852,0.1,325.5969,1592515793439
Fix,GT,37.4273106,-122.1001314,,29.40289,0.1,325.46164,1592515794439
Fix,GT,37.4275123,-122.1003461,,29.314846,0.1,325.18192,1592515795439
Fix,GT,37.4277128,-122.1005608,,29.212126,0.1,325.12607,1592515796439
Fix,GT,37.4279128,-122.1007743,,29.128263,0.1,325.41586,1592515797439
Fix,GT,37.4281134,-122.1009862,,29.095963,0.1,325.65973,1592515798439
Fix,GT,37.4283142,-122.1011973,,29.098934,0.1,325.72238,1592515799439
Fix,GT,37.4285155,-122.101408,,29.111198,0.1,325.90823,1592515800439
Fix,GT,37.4287174,-122.101618,,29.100525,0.1,325.9829,1592515801439
Fix,GT,37.4289186,-122.101828,,28.98052,0.1,325.73206,1592515802439
Fix,GT,37.4291178,-122.1020378,,28.719517,0.1,325.43973,1592515803439
Fix,GT,37.4293147,-122.1022465,,28.505304,0.1,325.4207,1592515804439
Fix,GT,37.4295111,-122.1024536,,28.45378,0.1,325.747,1592515805439
Fix,GT,37.4297085,-122.1026593,,28.488571,0.1,326.0707,1592515806439
Fix,GT,37.4299066,-122.1028644,,28.528662,0.1,326.152,1592515807439
Fix,GT,37.4301047,-122.1030694,,28.442204,0.1,325.97617,1592515808439
Fix,GT,37.430301,-122.1032744,,28.256306,0.1,325.67096,1592515809439
Fix,GT,37.4304948,-122.1034794,,28.029945,0.1,325.3939,1592515810439
Fix,GT,37.4306861,-122.1036834,,27.68111,0.1,325.20694,1592515811439
Fix,GT,37.4308742,-122.1038847,,27.228065,0.1,325.24493,1592515812439
Fix,GT,37.43106,-122.1040825,,26.902962,0.1,325.42444,1592515813439
Fix,GT,37.4312448,-122.1042782,,26.82729,0.1,325.49918,1592515814439
Fix,GT,37.4314296,-122.1044733,,26.765062,0.1,325.5795,1592515815439
Fix,GT,37.4316136,-122.1046672,,26.572184,0.1,325.6176,1592515816439
Fix,GT,37.4317962,-122.1048595,,26.376804,0.1,325.61063,1592515817439
Fix,GT,37.431978,-122.1050508,,26.320253,0.1,325.66797,1592515818439
Fix,GT,37.4321599,-122.1052418,,26.357723,0.1,325.75256,1592515819439
Fix,GT,37.4323422,-122.1054328,,26.357437,0.1,325.8049,1592515820439
Fix,GT,37.4325245,-122.1056233,,26.336206,0.1,325.8373,1592515821439
Fix,GT,37.4327072,-122.105814,,26.487875,0.1,325.92426,1592515822439
Fix,GT,37.4328918,-122.1060062,,26.772268,0.1,325.96255,1592515823439
Fix,GT,37.4330782,-122.1062007,,27.059477,0.1,325.81332,1592515824439
Fix,GT,37.4332663,-122.1063978,,27.352661,0.1,325.71976,1592515825439
Fix,GT,37.4334564,-122.1065973,,27.662777,0.1,325.74316,1592515826439
Fix,GT,37.4336484,-122.1067988,,27.918425,0.1,325.7447,1592515827439
Fix,GT,37.4338421,-122.107002,,28.131271,0.1,325.7158,1592515828439
Fix,GT,37.4340371,-122.1072068,,28.304394,0.1,325.6739,1592515829439
Fix,GT,37.4342328,-122.1074129,,28.419636,0.1,325.59055,1592515830439
Fix,GT,37.4344293,-122.10762,,28.540194,0.1,325.69327,1592515831439
Fix,GT,37.4346269,-122.1078272,,28.659815,0.1,325.8946,1592515832439
Fix,GT,37.4348259,-122.1080344,,28.75193,0.1,325.9733,1592515833439
Fix,GT,37.4350256,-122.108242,,28.816631,0.1,326.01736,1592515834439
Fix,GT,37.4352255,-122.10845,,28.85979,0.1,325.8881,1592515835439
Fix,GT,37.4354252,-122.1086591,,28.905197,0.1,325.72327,1592515836439
Fix,GT,37.4356252,-122.108869,,28.978172,0.1,325.74347,1592515837439
Fix,GT,37.4358258,-122.1090794,,29.054974,0.1,325.67682,1592515838439
Fix,GT,37.4360265,-122.1092909,,29.131025,0.1,325.632,1592515839439
Fix,GT,37.4362279,-122.1095026,,29.200222,0.1,325.7815,1592515840439
Fix,GT,37.4364301,-122.1097143,,29.270119,0.1,325.8066,1592515841439
Fix,GT,37.4366326,-122.1099268,,29.355736,0.1,325.6988,1592515842439
Fix,GT,37.4368357,-122.1101403,,29.45916,0.1,325.6161,1592515843439
Fix,GT,37.437039,-122.1103552,,29.576044,0.1,325.5503,1592515844439
Fix,GT,37.4372434,-122.1105712,,29.730072,0.1,325.56024,1592515845439
Fix,GT,37.4374489,-122.1107877,,29.854223,0.1,325.72934,1592515846439
Fix,GT,37.4376554,-122.1110044,,29.925495,0.1,325.79742,1592515847439
Fix,GT,37.4378626,-122.1112215,,29.989819,0.1,325.70148,1592515848439
Fix,GT,37.4380696,-122.1114395,,30.004814,0.1,325.57812,1592515849439
Fix,GT,37.438276,-122.1116581,,29.926006,0.1,325.49023,1592515850439
Fix,GT,37.4384819,-122.1118753,,29.772144,0.1,325.7187,1592515851439
Fix,GT,37.4386874,-122.11209,,29.59473,0.1,325.87875,1592515852439
Fix,GT,37.4388918,-122.1123033,,29.415407,0.1,325.89398,1592515853439
Fix,GT,37.4390952,-122.1125149,,29.24593,0.1,326.06747,1592515854439
Fix,GT,37.439298,-122.1127245,,29.0837,0.1,326.1489,1592515855439
Fix,GT,37.4394997,-122.112933,,28.939098,0.1,326.02957,1592515856439
Fix,GT,37.4396998,-122.1131416,,28.824558,0.1,325.86703,1592515857439
Fix,GT,37.439899,-122.1133499,,28.762903,0.1,325.7726,1592515858439
Fix,GT,37.4400978,-122.1135586,,28.79132,0.1,325.6205,1592515859439
Fix,GT,37.4402965,-122.1137683,,28.858746,0.1,325.53268,1592515860439
Fix,GT,37.4404956,-122.113979,,28.97229,0.1,325.42642,1592515861439
Fix,GT,37.4406955,-122.1141911,,29.16282,0.1,325.48718,1592515862439
Fix,GT,37.4408971,-122.1144043,,29.351265,0.1,325.54636,1592515863439
Fix,GT,37.4411,-122.1146185,,29.503643,0.1,325.57184,1592515864439
Fix,GT,37.4413039,-122.1148334,,29.591755,0.1,325.6227,1592515865439
Fix,GT,37.4415081,-122.1150485,,29.600872,0.1,325.64392,1592515866439
Fix,GT,37.4417125,-122.1152637,,29.646812,0.1,325.7499,1592515867439
Fix,GT,37.4419176,-122.1154791,,29.705307,0.1,325.6985,1592515868439
Fix,GT,37.4421227,-122.1156949,,29.718987,0.1,325.70847,1592515869439
Fix,GT,37.4423282,-122.1159103,,29.741661,0.1,325.8433,1592515870439
Fix,GT,37.4425338,-122.1161256,,29.700901,0.1,325.75354,1592515871439
Fix,GT,37.4427385,-122.1163407,,29.566109,0.1,325.69623,1592515872439
Fix,GT,37.4429419,-122.1165546,,29.360027,0.1,325.73773,1592515873439
Fix,GT,37.4431439,-122.1167669,,29.136889,0.1,325.68637,1592515874439
Fix,GT,37.4433447,-122.1169774,,28.978508,0.1,325.85968,1592515875439
Fix,GT,37.4435453,-122.1171865,,28.908348,0.1,325.91852,1592515876439
Fix,GT,37.4437454,-122.117395,,28.804447,0.1,325.8719,1592515877439
Fix,GT,37.4439441,-122.1176029,,28.608181,0.1,325.80298,1592515878439
Fix,GT,37.444141,-122.1178092,,28.324192,0.1,325.75827,1592515879439
Fix,GT,37.4443358,-122.1180134,,28.018005,0.1,325.7965,1592515880439
Fix,GT,37.4445284,-122.1182155,,27.722736,0.1,325.7431,1592515881439
Fix,GT,37.444719,-122.1184157,,27.451847,0.1,325.73575,1592515882439
Fix,GT,37.4449082,-122.1186139,,27.298046,0.1,325.88376,1592515883439
Fix,GT,37.4450974,-122.1188112,,27.326107,0.1,325.96393,1592515884439
Fix,GT,37.4452872,-122.1190088,,27.419327,0.1,325.96426,1592515885439
Fix,GT,37.4454775,-122.1192071,,27.490082,0.1,325.87183,1592515886439
Fix,GT,37.4456677,-122.1194058,,27.428509,0.1,325.77545,1592515887439
Fix,GT,37.4458566,-122.1196037,,27.256401,0.1,325.67627,1592515888439
Fix,GT,37.4460442,-122.1198013,,27.169903,0.1,325.5664,1592515889439
Fix,GT,37.4462315,-122.1199993,,27.224632,0.1,325.49695,1592515890439
Fix,GT,37.4464191,-122.1201981,,27.263111,0.1,325.42343,1592515891439
Fix,GT,37.4466064,-122.1203969,,27.16956,0.1,325.49094,1592515892439
Fix,GT,37.4467932,-122.1205938,,26.98053,0.1,325.69263,1592515893439
Fix,GT,37.4469791,-122.120789,,26.83833,0.1,325.74408,1592515894439
Fix,GT,37.4471644,-122.1209835,,26.817661,0.1,325.8159,1592515895439
Fix,GT,37.4473501,-122.1211774,,26.805336,0.1,325.9516,1592515896439
Fix,GT,37.4475358,-122.1213708,,26.748829,0.1,325.95593,1592515897439
Fix,GT,37.4477209,-122.1215641,,26.755281,0.1,325.8429,1592515898439
Fix,GT,37.4479061,-122.121758,,26.808247,0.1,325.78983,1592515899439
Fix,GT,37.4480919,-122.1219523,,26.8588,0.1,325.8704,1592515900439
Fix,GT,37.4482781,-122.1221467,,26.922104,0.1,325.94455,1592515901439
Fix,GT,37.4484651,-122.1223413,,27.017565,0.1,325.9425,1592515902439
Fix,GT,37.4486528,-122.1225367,,27.120596,0.1,325.9367,1592515903439
Fix,GT,37.4488412,-122.1227329,,27.22868,0.1,325.90482,1592515904439
Fix,GT,37.4490302,-122.12293,,27.343464,0.1,325.9236,1592515905439
Fix,GT,37.4492198,-122.1231281,,27.392696,0.1,325.7839,1592515906439
Fix,GT,37.4494086,-122.1233271,,27.34494,0.1,325.50253,1592515907439
Fix,GT,37.4495966,-122.1235264,,27.325865,0.1,325.4481,1592515908439
Fix,GT,37.4497848,-122.1237259,,27.381836,0.1,325.4395,1592515909439
Fix,GT,37.4499733,-122.123926,,27.427109,0.1,325.39206,1592515910439
Fix,GT,37.450162,-122.1241266,,27.465584,0.1,325.38394,1592515911439
Fix,GT,37.4503509,-122.1243276,,27.501415,0.1,325.40222,1592515912439
Fix,GT,37.4505399,-122.124529,,27.545862,0.1,325.22018,1592515913439
Fix,GT,37.450728,-122.1247328,,27.634758,0.1,324.42108,1592515914439
Fix,GT,37.4509138,-122.1249415,,27.757004,0.1,323.23654,1592515915439
Fix,GT,37.4510973,-122.1251554,,27.853386,0.1,322.36768,1592515916439
Fix,GT,37.4512787,-122.1253731,,27.880316,0.1,321.50253,1592515917439
Fix,GT,37.4514571,-122.1255949,,27.908249,0.1,320.33322,1592515918439
Fix,GT,37.4516322,-122.1258216,,27.983822,0.1,319.2098,1592515919439
Fix,GT,37.4518044,-122.1260532,,28.052216,0.1,318.1249,1592515920439
Fix,GT,37.4519734,-122.126289,,28.079012,0.1,317.14166,1592515921439
Fix,GT,37.4521393,-122.1265286,,28.083603,0.1,316.0734,1592515922439
Fix,GT,37.4523008,-122.1267719,,27.930428,0.1,314.78677,1592515923439
Fix,GT,37.4524565,-122.1270172,,27.61517,0.1,313.6583,1592515924439
Fix,GT,37.4526079,-122.1272636,,27.519266,0.1,312.9532,1592515925439
Fix,GT,37.4527577,-122.1275123,,27.605843,0.1,312.53836,1592515926439
Fix,GT,37.4529066,-122.127763,,27.697792,0.1,312.14758,1592515927439
Fix,GT,37.4530546,-122.1280155,,27.762543,0.1,311.89114,1592515928439
Fix,GT,37.4532022,-122.1282686,,27.71528,0.1,311.8533,1592515929439
Fix,GT,37.4533495,-122.1285207,,27.567245,0.1,311.89508,1592515930439
Fix,GT,37.4534961,-122.128771,,27.382458,0.1,311.97867,1592515931439
Fix,GT,37.453642,-122.1290198,,27.30182,0.1,311.92587,1592515932439
Fix,GT,37.4537876,-122.129269,,27.373585,0.1,311.87698,1592515933439
Fix,GT,37.4539338,-122.1295188,,27.453907,0.1,311.96777,1592515934439
Fix,GT,37.4540804,-122.1297687,,27.451275,0.1,311.99603,1592515935439
Fix,GT,37.454227,-122.1300186,,27.458355,0.1,311.93057,1592515936439
Fix,GT,37.4543736,-122.1302692,,27.57635,0.1,311.86536,1592515937439
Fix,GT,37.454521,-122.1305214,,27.75459,0.1,311.86682,1592515938439
Fix,GT,37.4546695,-122.1307751,,27.924639,0.1,311.96008,1592515939439
Fix,GT,37.4548193,-122.1310299,,28.08957,0.1,312.056,1592515940439
Fix,GT,37.4549696,-122.1312863,,28.247498,0.1,311.89896,1592515941439
Fix,GT,37.4551203,-122.1315444,,28.36351,0.1,311.7736,1592515942439
Fix,GT,37.4552714,-122.1318034,,28.389591,0.1,311.84656,1592515943439
Fix,GT,37.4554223,-122.1320617,,28.252426,0.1,311.84766,1592515944439
Fix,GT,37.455572,-122.1323177,,27.917912,0.1,311.97397,1592515945439
Fix,GT,37.4557208,-122.13257,,27.599312,0.1,312.2176,1592515946439
Fix,GT,37.4558687,-122.1328194,,27.414509,0.1,312.34845,1592515947439
Fix,GT,37.4560161,-122.133067,,27.268501,0.1,312.42038,1592515948439
Fix,GT,37.456163,-122.1333132,,27.16912,0.1,312.43158,1592515949439
Fix,GT,37.4563098,-122.1335592,,27.216805,0.1,312.41837,1592515950439
Fix,GT,37.4564569,-122.1338063,,27.359776,0.1,312.3532,1592515951439
Fix,GT,37.4566042,-122.1340548,,27.429195,0.1,312.17102,1592515952439
Fix,GT,37.4567512,-122.134304,,27.428722,0.1,312.07153,1592515953439
Fix,GT,37.4568976,-122.1345532,,27.359276,0.1,311.9732,1592515954439
Fix,GT,37.457043,-122.1348017,,27.145834,0.1,311.82892,1592515955439
Fix,GT,37.4571869,-122.1350481,,26.912622,0.1,311.91168,1592515956439
Fix,GT,37.4573303,-122.1352924,,26.784279,0.1,312.0515,1592515957439
Fix,GT,37.4574735,-122.1355352,,26.647476,0.1,312.1258,1592515958439
Fix,GT,37.4576159,-122.1357764,,26.477146,0.1,312.07584,1592515959439
Fix,GT,37.4577568,-122.1360166,,26.318398,0.1,311.953,1592515960439
Fix,GT,37.4578968,-122.1362557,,26.184185,0.1,311.9587,1592515961439
Fix,GT,37.4580366,-122.1364937,,26.111387,0.1,312.05756,1592515962439
Fix,GT,37.4581766,-122.136731,,26.131252,0.1,312.1918,1592515963439
Fix,GT,37.458317,-122.1369687,,26.224754,0.1,312.10672,1592515964439
Fix,GT,37.4584576,-122.1372078,,26.34146,0.1,312.02417,1592515965439
Fix,GT,37.4585987,-122.1374478,,26.410198,0.1,312.09033,1592515966439
Fix,GT,37.4587398,-122.1376876,,26.299229,0.1,312.0717,1592515967439
Fix,GT,37.4588798,-122.1379256,,26.016468,0.1,312.02423,1592515968439
Fix,GT,37.4590186,-122.1381614,,25.86525,0.1,312.12808,1592515969439
Fix,GT,37.4591575,-122.1383965,,25.957687,0.1,312.2271,1592515970439
Fix,GT,37.4592973,-122.1386329,,26.10664,0.1,312.14972,1592515971439
Fix,GT,37.4594371,-122.1388705,,26.131798,0.1,311.94757,1592515972439
Fix,GT,37.4595759,-122.1391085,,26.039583,0.1,311.70233,1592515973439
Fix,GT,37.4597138,-122.1393459,,25.929663,0.1,311.71048,1592515974439
Fix,GT,37.4598517,-122.1395818,,25.813065,0.1,312.04782,1592515975439
Fix,GT,37.4599896,-122.1398157,,25.681484,0.1,312.08105,1592515976439
Fix,GT,37.4601265,-122.140049,,25.619282,0.1,311.96692,1592515977439
Fix,GT,37.4602635,-122.1402825,,25.677582,0.1,312.04523,1592515978439
Fix,GT,37.4604009,-122.1405163,,25.72025,0.1,312.01538,1592515979439
Fix,GT,37.4605383,-122.1407504,,25.718525,0.1,312.02307,1592515980439
Fix,GT,37.4606759,-122.1409843,,25.716026,0.1,312.21252,1592515981439
Fix,GT,37.4608141,-122.1412178,,25.742855,0.1,312.24713,1592515982439
Fix,GT,37.4609522,-122.1414515,,25.739416,0.1,312.14987,1592515983439
Fix,GT,37.4610899,-122.1416852,,25.67752,0.1,312.08917,1592515984439
Fix,GT,37.4612273,-122.1419183,,25.613209,0.1,312.1931,1592515985439
Fix,GT,37.4613648,-122.1421505,,25.578213,0.1,312.27008,1592515986439
Fix,GT,37.4615022,-122.1423825,,25.557663,0.1,312.12262,1592515987439
Fix,GT,37.4616386,-122.1426153,,25.593498,0.1,311.84204,1592515988439
Fix,GT,37.4617748,-122.1428494,,25.69421,0.1,311.7724,1592515989439
Fix,GT,37.4619119,-122.1430841,,25.786375,0.1,311.97034,1592515990439
Fix,GT,37.46205,-122.1433191,,25.897854,0.1,312.01608,1592515991439
Fix,GT,37.4621884,-122.1435558,,26.033482,0.1,311.8,1592515992439
Fix,GT,37.4623268,-122.1437943,,26.16172,0.1,311.519,1592515993439
Fix,GT,37.462465,-122.1440351,,26.336304,0.1,311.27347,1592515994439
Fix,GT,37.4626036,-122.1442779,,26.521122,0.1,311.22208,1592515995439
Fix,GT,37.4627434,-122.144522,,26.685457,0.1,311.45096,1592515996439
Fix,GT,37.4628854,-122.1447666,,26.843086,0.1,311.8887,1592515997439
Fix,GT,37.4630295,-122.1450114,,26.994827,0.1,312.2005,1592515998439
Fix,GT,37.4631752,-122.1452569,,27.15083,0.1,312.36163,1592515999439
Fix,GT,37.4633218,-122.1455036,,27.299583,0.1,312.32642,1592516000439
Fix,GT,37.4634687,-122.1457519,,27.396046,0.1,312.0812,1592516001439
Fix,GT,37.4636151,-122.1460013,,27.412304,0.1,311.9537,1592516002439
Fix,GT,37.4637612,-122.1462508,,27.352057,0.1,311.87604,1592516003439
Fix,GT,37.4639064,-122.1464998,,27.231873,0.1,311.75134,1592516004439
Fix,GT,37.4640505,-122.1467476,,27.019825,0.1,311.71872,1592516005439
Fix,GT,37.4641932,-122.1469929,,26.710892,0.1,311.79773,1592516006439
Fix,GT,37.4643345,-122.1472352,,26.409046,0.1,311.853,1592516007439
Fix,GT,37.4644747,-122.1474748,,26.183632,0.1,312.00586,1592516008439
Fix,GT,37.4646143,-122.1477121,,25.967136,0.1,312.067,1592516009439
Fix,GT,37.4647523,-122.1479472,,25.69365,0.1,311.99554,1592516010439
Fix,GT,37.4648887,-122.1481797,,25.393452,0.1,312.0061,1592516011439
Fix,GT,37.4650235,-122.1484096,,25.104723,0.1,311.90225,1592516012439
Fix,GT,37.4651569,-122.1486376,,24.975151,0.1,311.97443,1592516013439
Fix,GT,37.4652911,-122.148865,,25.107796,0.1,312.2973,1592516014439
Fix,GT,37.4654269,-122.1490933,,25.27367,0.1,312.45367,1592516015439
Fix,GT,37.4655635,-122.1493227,,25.383644,0.1,312.26813,1592516016439
Fix,GT,37.4656995,-122.1495537,,25.44077,0.1,311.92572,1592516017439
Fix,GT,37.465835,-122.1497858,,25.454716,0.1,311.7961,1592516018439
Fix,GT,37.4659706,-122.1500179,,25.476662,0.1,311.94357,1592516019439
Fix,GT,37.4661066,-122.1502501,,25.500935,0.1,311.99164,1592516020439
Fix,GT,37.4662425,-122.1504824,,25.438549,0.1,311.84186,1592516021439
Fix,GT,37.4663774,-122.150714,,25.312366,0.1,311.72696,1592516022439
Fix,GT,37.4665116,-122.1509446,,25.228666,0.1,311.82138,1592516023439
Fix,GT,37.4666459,-122.1511746,,25.228771,0.1,311.89792,1592516024439
Fix,GT,37.4667804,-122.1514049,,25.286747,0.1,311.8727,1592516025439
Fix,GT,37.4669152,-122.1516358,,25.356438,0.1,311.82828,1592516026439
Fix,GT,37.4670504,-122.1518674,,25.437588,0.1,311.95984,1592516027439
Fix,GT,37.467187,-122.1520993,,25.578392,0.1,312.21024,1592516028439
Fix,GT,37.4673247,-122.1523323,,25.741554,0.1,312.0963,1592516029439
Fix,GT,37.4674622,-122.152567,,25.790615,0.1,311.85828,1592516030439
Fix,GT,37.4675998,-122.1528022,,25.873234,0.1,312.01123,1592516031439
Fix,GT,37.4677392,-122.153038,,26.057259,0.1,312.32166,1592516032439
Fix,GT,37.4678802,-122.1532747,,26.22459,0.1,312.46344,1592516033439
Fix,GT,37.4680223,-122.1535126,,26.345535,0.1,312.4937,1592516034439
Fix,GT,37.4681644,-122.1537511,,26.302696,0.1,312.33966,1592516035439
Fix,GT,37.4683048,-122.1539889,,26.036964,0.1,312.03534,1592516036439
Fix,GT,37.4684427,-122.1542242,,25.599304,0.1,311.97864,1592516037439
Fix,GT,37.4685781,-122.1544546,,24.985483,0.1,312.0514,1592516038439
Fix,GT,37.4687102,-122.1546791,,24.413813,0.1,312.12354,1592516039439
Fix,GT,37.4688399,-122.1548989,,24.013325,0.1,312.1743,1592516040439
Fix,GT,37.4689678,-122.1551156,,23.70066,0.1,312.1255,1592516041439
Fix,GT,37.4690941,-122.1553303,,23.564728,0.1,312.03055,1592516042439
Fix,GT,37.46922,-122.1555451,,23.681408,0.1,311.98245,1592516043439
Fix,GT,37.4693472,-122.1557616,,23.895357,0.1,312.0303,1592516044439
Fix,GT,37.4694755,-122.1559799,,24.102867,0.1,312.05814,1592516045439
Fix,GT,37.469605,-122.1562002,,24.314909,0.1,312.02945,1592516046439
Fix,GT,37.4697354,-122.1564225,,24.518503,0.1,311.9643,1592516047439
Fix,GT,37.4698666,-122.1566471,,24.73547,0.1,311.75598,1592516048439
Fix,GT,37.4699979,-122.1568744,,24.954706,0.1,311.4735,1592516049439
Fix,GT,37.4701298,-122.1571043,,25.14906,0.1,311.36914,1592516050439
Fix,GT,37.4702626,-122.157336,,25.34606,0.1,311.4073,1592516051439
Fix,GT,37.4703971,-122.1575691,,25.572266,0.1,311.67007,1592516052439
Fix,GT,37.4705336,-122.1578036,,25.806244,0.1,311.98413,1592516053439
Fix,GT,37.4706724,-122.158039,,25.94148,0.1,312.21234,1592516054439
Fix,GT,37.470812,-122.1582743,,25.926888,0.1,312.35846,1592516055439
Fix,GT,37.4709515,-122.1585091,,25.938976,0.1,312.30902,1592516056439
Fix,GT,37.4710912,-122.158745,,26.04044,0.1,312.14697,1592516057439
Fix,GT,37.4712305,-122.158982,,26.053898,0.1,311.9806,1592516058439
Fix,GT,37.4713691,-122.1592191,,25.93977,0.1,311.7687,1592516059439
Fix,GT,37.4715066,-122.1594556,,25.892563,0.1,311.7444,1592516060439
Fix,GT,37.4716446,-122.1596924,,26.029713,0.1,311.84497,1592516061439
Fix,GT,37.4717836,-122.1599304,,26.160309,0.1,311.9157,1592516062439
Fix,GT,37.4719231,-122.1601689,,26.187107,0.1,311.9325,1592516063439
Fix,GT,37.4720628,-122.1604078,,26.269226,0.1,311.887,1592516064439
Fix,GT,37.4722033,-122.1606478,,26.40242,0.1,311.97482,1592516065439
Fix,GT,37.4723448,-122.1608884,,26.46017,0.1,312.1284,1592516066439
Fix,GT,37.4724864,-122.1611285,,26.35205,0.1,312.17365,1592516067439
Fix,GT,37.472627,-122.1613668,,26.09605,0.1,312.10126,1592516068439
Fix,GT,37.4727656,-122.1616029,,25.790152,0.1,311.89438,1592516069439
Fix,GT,37.4729017,-122.1618366,,25.40841,0.1,311.79623,1592516070439
Fix,GT,37.473036,-122.1620666,,25.076206,0.1,311.97516,1592516071439
Fix,GT,37.4731701,-122.1622943,,25.05093,0.1,312.1953,1592516072439
Fix,GT,37.4733052,-122.1625225,,25.235497,0.1,312.30975,1592516073439
Fix,GT,37.4734414,-122.1627522,,25.401154,0.1,312.17883,1592516074439
Fix,GT,37.4735778,-122.1629839,,25.566736,0.1,311.9976,1592516075439
Fix,GT,37.4737147,-122.1632176,,25.736515,0.1,311.9072,1592516076439
Fix,GT,37.4738523,-122.1634531,,25.928146,0.1,311.835,1592516077439
Fix,GT,37.4739903,-122.16369,,25.957945,0.1,311.72922,1592516078439
Fix,GT,37.4741274,-122.1639263,,25.712112,0.1,311.60376,1592516079439
Fix,GT,37.4742628,-122.16416,,25.40808,0.1,311.696,1592516080439
Fix,GT,37.4743976,-122.164391,,25.284046,0.1,311.96808,1592516081439
Fix,GT,37.4745335,-122.1646217,,25.521843,0.1,312.2162,1592516082439
Fix,GT,37.4746717,-122.164855,,25.902946,0.1,312.36584,1592516083439
Fix,GT,37.4748122,-122.1650913,,26.22062,0.1,312.32297,1592516084439
Fix,GT,37.4749536,-122.1653303,,26.413868,0.1,312.13684,1592516085439
Fix,GT,37.475095,-122.165571,,26.485035,0.1,312.00833,1592516086439
Fix,GT,37.4752364,-122.165812,,26.420364,0.1,311.99692,1592516087439
Fix,GT,37.4753768,-122.1660518,,26.232655,0.1,311.80774,1592516088439
Fix,GT,37.4755155,-122.1662902,,25.979229,0.1,311.74432,1592516089439
Fix,GT,37.4756527,-122.1665261,,25.678503,0.1,311.81757,1592516090439
Fix,GT,37.4757883,-122.1667594,,25.426128,0.1,311.69418,1592516091439
Fix,GT,37.4759229,-122.1669913,,25.376572,0.1,311.71878,1592516092439
Fix,GT,37.4760582,-122.1672234,,25.513237,0.1,311.86282,1592516093439
Fix,GT,37.4761949,-122.1674568,,25.709114,0.1,312.02496,1592516094439
Fix,GT,37.4763333,-122.1676913,,25.921734,0.1,312.3045,1592516095439
Fix,GT,37.4764738,-122.1679271,,26.168816,0.1,312.54663,1592516096439
Fix,GT,37.4766168,-122.1681643,,26.441807,0.1,312.9224,1592516097439
Fix,GT,37.4767629,-122.1684026,,26.729532,0.1,313.5044,1592516098439
Fix,GT,37.4769113,-122.1686423,,26.95744,0.1,313.44135,1592516099439
Fix,GT,37.4770591,-122.1688846,,26.983185,0.1,312.763,1592516100439
Fix,GT,37.4772044,-122.1691281,,26.805782,0.1,312.2631,1592516101439
Fix,GT,37.4773469,-122.1693711,,26.608044,0.1,311.75555,1592516102439
Fix,GT,37.477487,-122.1696148,,26.599775,0.1,311.23105,1592516103439
Fix,GT,37.4776266,-122.1698604,,26.78484,0.1,311.18506,1592516104439
Fix,GT,37.4777679,-122.1701079,,27.074474,0.1,311.47025,1592516105439
Fix,GT,37.4779119,-122.1703572,,27.389671,0.1,311.69574,1592516106439
Fix,GT,37.4780579,-122.1706085,,27.595985,0.1,311.777,1592516107439
Fix,GT,37.4782047,-122.1708608,,27.651794,0.1,311.78687,1592516108439
Fix,GT,37.4783516,-122.1711131,,27.621664,0.1,311.8728,1592516109439
Fix,GT,37.4784986,-122.1713643,,27.472046,0.1,311.94244,1592516110439
Fix,GT,37.478644,-122.1716137,,27.173767,0.1,311.73145,1592516111439
Fix,GT,37.4787868,-122.1718607,,26.794498,0.1,311.51038,1592516112439
Fix,GT,37.478928,-122.172105,,26.62803,0.1,311.6925,1592516113439
Fix,GT,37.4790697,-122.1723479,,26.602116,0.1,312.056,1592516114439
Fix,GT,37.4792116,-122.1725889,,26.386662,0.1,312.2131,1592516115439
Fix,GT,37.4793526,-122.1728271,,26.102646,0.1,312.3291,1592516116439
Fix,GT,37.4794924,-122.1730624,,25.788,0.1,312.45526,1592516117439
Fix,GT,37.4796306,-122.1732946,,25.477062,0.1,312.34506,1592516118439
Fix,GT,37.4797666,-122.1735245,,25.163792,0.1,312.18207,1592516119439
Fix,GT,37.4799004,-122.1737516,,24.789768,0.1,312.02313,1592516120439
Fix,GT,37.4800316,-122.1739766,,24.600445,0.1,311.6426,1592516121439
Fix,GT,37.4801611,-122.1742024,,24.6355,0.1,311.31165,1592516122439
Fix,GT,37.4802911,-122.174429,,24.75549,0.1,311.49847,1592516123439
Fix,GT,37.4804225,-122.1746563,,24.925323,0.1,311.71613,1592516124439
Fix,GT,37.4805548,-122.174885,,25.083796,0.1,311.53033,1592516125439
Fix,GT,37.4806876,-122.1751156,,25.236198,0.1,311.55594,1592516126439
Fix,GT,37.4808219,-122.1753473,,25.425922,0.1,311.85522,1592516127439
Fix,GT,37.4809578,-122.1755798,,25.617373,0.1,311.987,1592516128439
Fix,GT,37.4810952,-122.1758139,,25.863224,0.1,312.08734,1592516129439
Fix,GT,37.4812348,-122.1760506,,26.29642,0.1,312.26566,1592516130439
Fix,GT,37.4813776,-122.176292,,26.879103,0.1,312.24048,1592516131439
Fix,GT,37.4815226,-122.1765394,,27.437778,0.1,311.77393,1592516132439
Fix,GT,37.4816685,-122.1767935,,27.962711,0.1,311.238,1592516133439
Fix,GT,37.4818158,-122.1770536,,28.47277,0.1,310.97284,1592516134439
Fix,GT,37.4819649,-122.1773188,,28.920826,0.1,310.74396,1592516135439
Fix,GT,37.4821139,-122.1775886,,29.069544,0.1,309.9405,1592516136439
Fix,GT,37.4822586,-122.1778612,,28.867104,0.1,308.7416,1592516137439
Fix,GT,37.4823977,-122.1781351,,28.593605,0.1,307.6606,1592516138439
Fix,GT,37.4825321,-122.1784093,,28.37895,0.1,306.9191,1592516139439
Fix,GT,37.4826635,-122.1786838,,28.286718,0.1,306.34274,1592516140439
Fix,GT,37.4827921,-122.1789599,,28.301977,0.1,305.4936,1592516141439
Fix,GT,37.4829168,-122.1792381,,28.163704,0.1,304.55322,1592516142439
Fix,GT,37.4830368,-122.1795163,,27.812012,0.1,303.5401,1592516143439
Fix,GT,37.4831513,-122.1797934,,27.37954,0.1,302.57983,1592516144439
Fix,GT,37.4832605,-122.1800678,,26.877167,0.1,301.93317,1592516145439
Fix,GT,37.4833659,-122.1803383,,26.364532,0.1,301.53412,1592516146439
Fix,GT,37.4834676,-122.1806046,,25.859499,0.1,300.97986,1592516147439
Fix,GT,37.4835651,-122.1808671,,25.316708,0.1,300.3306,1592516148439
Fix,GT,37.4836585,-122.181125,,24.815723,0.1,299.8724,1592516149439
Fix,GT,37.4837486,-122.1813788,,24.361523,0.1,299.4224,1592516150439
Fix,GT,37.4838354,-122.1816291,,23.95176,0.1,298.84692,1592516151439
Fix,GT,37.4839186,-122.181877,,23.643873,0.1,298.11163,1592516152439
Fix,GT,37.4839982,-122.1821233,,23.380539,0.1,297.3438,1592516153439
Fix,GT,37.4840745,-122.1823681,,23.098944,0.1,296.70483,1592516154439
Fix,GT,37.4841479,-122.1826107,,22.802847,0.1,296.2723,1592516155439
Fix,GT,37.4842194,-122.1828506,,22.518034,0.1,296.06805,1592516156439
Fix,GT,37.4842897,-122.1830878,,22.2588,0.1,295.94437,1592516157439
Fix,GT,37.4843585,-122.183323,,22.123672,0.1,295.6935,1592516158439
Fix,GT,37.4844261,-122.1835588,,22.259422,0.1,295.27954,1592516159439
Fix,GT,37.4844931,-122.1837978,,22.539936,0.1,294.75146,1592516160439
Fix,GT,37.4845586,-122.1840404,,22.777792,0.1,294.03558,1592516161439
Fix,GT,37.4846221,-122.1842866,,23.009956,0.1,293.2743,1592516162439
Fix,GT,37.4846846,-122.1845361,,23.267735,0.1,292.96198,1592516163439
Fix,GT,37.4847473,-122.1847887,,23.54472,0.1,292.97922,1592516164439
Fix,GT,37.4848105,-122.1850444,,23.816685,0.1,292.71088,1592516165439
Fix,GT,37.4848731,-122.1853034,,24.053663,0.1,292.3474,1592516166439
Fix,GT,37.4849349,-122.1855654,,24.291687,0.1,291.9828,1592516167439
Fix,GT,37.4849961,-122.1858305,,24.550194,0.1,291.56726,1592516168439
Fix,GT,37.4850559,-122.186099,,24.762192,0.1,290.9093,1592516169439
Fix,GT,37.485113,-122.1863706,,24.936714,0.1,289.96594,1592516170439
Fix,GT,37.4851675,-122.1866451,,25.123192,0.1,289.31458,1592516171439
Fix,GT,37.4852208,-122.1869223,,25.323112,0.1,289.08124,1592516172439
Fix,GT,37.4852734,-122.1872021,,25.513435,0.1,288.75842,1592516173439
Fix,GT,37.4853248,-122.1874843,,25.699205,0.1,288.28912,1592516174439
Fix,GT,37.4853744,-122.1877691,,25.874641,0.1,287.66647,1592516175439
Fix,GT,37.4854217,-122.1880565,,26.059135,0.1,286.97034,1592516176439
Fix,GT,37.4854668,-122.1883467,,26.23997,0.1,286.41742,1592516177439
Fix,GT,37.4855104,-122.1886393,,26.415283,0.1,286.0915,1592516178439
Fix,GT,37.485553,-122.1889341,,26.580936,0.1,285.69067,1592516179439
Fix,GT,37.4855935,-122.1892308,,26.670668,0.1,285.02173,1592516180439
Fix,GT,37.4856315,-122.1895282,,26.557102,0.1,284.50476,1592516181439
Fix,GT,37.4856679,-122.1898234,,26.273489,0.1,284.46155,1592516182439
Fix,GT,37.4857046,-122.1901152,,25.977043,0.1,284.6624,1592516183439
Fix,GT,37.4857415,-122.1904036,,25.688644,0.1,284.75327,1592516184439
Fix,GT,37.4857782,-122.1906886,,25.366993,0.1,284.65244,1592516185439
Fix,GT,37.4858138,-122.1909699,,25.038864,0.1,284.5727,1592516186439
Fix,GT,37.4858489,-122.1912489,,24.967613,0.1,284.4905,1592516187439
Fix,GT,37.4858837,-122.1915286,,25.138538,0.1,284.43747,1592516188439
Fix,GT,37.4859187,-122.1918101,,25.231928,0.1,284.47903,1592516189439
Fix,GT,37.4859539,-122.1920922,,25.276432,0.1,284.5235,1592516190439
Fix,GT,37.4859892,-122.1923749,,25.337143,0.1,284.43033,1592516191439
Fix,GT,37.4860242,-122.1926585,,25.432993,0.1,284.3416,1592516192439
Fix,GT,37.486059,-122.1929435,,25.56713,0.1,284.23236,1592516193439
Fix,GT,37.4860936,-122.1932302,,25.722883,0.1,284.18677,1592516194439
Fix,GT,37.4861284,-122.1935185,,25.822947,0.1,284.22418,1592516195439
Fix,GT,37.4861632,-122.193807,,25.793442,0.1,284.23767,1592516196439
Fix,GT,37.486198,-122.1940945,,25.640972,0.1,284.27985,1592516197439
Fix,GT,37.486233,-122.1943804,,25.499187,0.1,284.36255,1592516198439
Fix,GT,37.4862679,-122.1946644,,25.321487,0.1,284.34778,1592516199439
Fix,GT,37.4863024,-122.1949462,,25.10561,0.1,284.3531,1592516200439
Fix,GT,37.486337,-122.1952259,,24.956566,0.1,284.50116,1592516201439
Fix,GT,37.4863719,-122.1955039,,24.838367,0.1,284.60413,1592516202439
Fix,GT,37.4864071,-122.1957805,,24.705864,0.1,284.64423,1592516203439
Fix,GT,37.4864419,-122.1960558,,24.600475,0.1,284.61804,1592516204439
Fix,GT,37.486477,-122.1963301,,24.558266,0.1,284.66824,1592516205439
Fix,GT,37.486512,-122.1966045,,24.612818,0.1,284.6985,1592516206439
Fix,GT,37.4865468,-122.1968798,,24.65761,0.1,284.53455,1592516207439
Fix,GT,37.4865809,-122.1971548,,24.534752,0.1,284.2919,1592516208439
Fix,GT,37.4866136,-122.1974278,,24.285057,0.1,284.0888,1592516209439
Fix,GT,37.4866458,-122.1976979,,24.023232,0.1,284.0876,1592516210439
Fix,GT,37.486678,-122.1979653,,23.832073,0.1,284.2719,1592516211439
Fix,GT,37.4867108,-122.1982313,,23.80178,0.1,284.5355,1592516212439
Fix,GT,37.4867447,-122.1984974,,23.869621,0.1,284.73184,1592516213439
Fix,GT,37.486779,-122.1987645,,24.002504,0.1,284.69424,1592516214439
Fix,GT,37.486813,-122.1990338,,24.21833,0.1,284.56995,1592516215439
Fix,GT,37.486847,-122.1993055,,24.440449,0.1,284.4904,1592516216439
Fix,GT,37.4868812,-122.1995796,,24.627018,0.1,284.48883,1592516217439
Fix,GT,37.4869156,-122.1998555,,24.758339,0.1,284.51654,1592516218439
Fix,GT,37.4869503,-122.2001325,,24.841257,0.1,284.4713,1592516219439
Fix,GT,37.4869847,-122.2004107,,24.95628,0.1,284.3482,1592516220439
Fix,GT,37.4870189,-122.2006908,,25.153492,0.1,284.26254,1592516221439
Fix,GT,37.4870534,-122.2009731,,25.361885,0.1,284.3469,1592516222439
Fix,GT,37.4870888,-122.2012575,,25.55925,0.1,284.5363,1592516223439
Fix,GT,37.4871249,-122.2015435,,25.618893,0.1,284.61572,1592516224439
Fix,GT,37.4871609,-122.201829,,25.4703,0.1,284.50183,1592516225439
Fix,GT,37.4871959,-122.2021122,,25.203182,0.1,284.28476,1592516226439
Fix,GT,37.48723,-122.2023921,,24.875801,0.1,284.22372,1592516227439
Fix,GT,37.4872634,-122.2026682,,24.520432,0.1,284.25836,1592516228439
Fix,GT,37.4872965,-122.2029404,,24.198483,0.1,284.2518,1592516229439
Fix,GT,37.4873292,-122.2032093,,23.937466,0.1,284.25772,1592516230439
Fix,GT,37.4873618,-122.2034763,,23.855839,0.1,284.33286,1592516231439
Fix,GT,37.4873948,-122.2037433,,23.916878,0.1,284.48608,1592516232439
Fix,GT,37.4874283,-122.2040102,,23.83204,0.1,284.52383,1592516233439
Fix,GT,37.4874614,-122.2042752,,23.60662,0.1,284.48672,1592516234439
Fix,GT,37.4874943,-122.2045373,,23.341574,0.1,284.6208,1592516235439
Fix,GT,37.4875274,-122.2047964,,23.061226,0.1,284.6932,1592516236439
Fix,GT,37.4875599,-122.2050527,,22.872833,0.1,284.5148,1592516237439
Fix,GT,37.4875916,-122.2053081,,22.906464,0.1,284.35333,1592516238439
Fix,GT,37.4876231,-122.2055651,,23.090069,0.1,284.3179,1592516239439
Fix,GT,37.487655,-122.2058241,,23.271473,0.1,284.38232,1592516240439
Fix,GT,37.4876874,-122.2060854,,23.481812,0.1,284.45715,1592516241439
Fix,GT,37.4877203,-122.206349,,23.722466,0.1,284.5323,1592516242439
Fix,GT,37.4877541,-122.2066157,,24.040022,0.1,284.66556,1592516243439
Fix,GT,37.4877889,-122.2068858,,24.31351,0.1,284.97906,1592516244439
Fix,GT,37.4878257,-122.2071571,,24.254726,0.1,285.50836,1592516245439
Fix,GT,37.4878642,-122.2074255,,23.967405,0.1,286.10794,1592516246439
Fix,GT,37.4879046,-122.2076902,,23.728825,0.1,286.70227,1592516247439
Fix,GT,37.4879468,-122.207953,,23.722202,0.1,287.23755,1592516248439
Fix,GT,37.4879911,-122.2082164,,23.88879,0.1,287.7821,1592516249439
Fix,GT,37.4880379,-122.2084812,,24.076721,0.1,288.39578,1592516250439
Fix,GT,37.4880872,-122.2087476,,24.275301,0.1,288.86505,1592516251439
Fix,GT,37.4881381,-122.2090158,,24.491428,0.1,289.0495,1592516252439
Fix,GT,37.4881899,-122.2092863,,24.719318,0.1,289.23196,1592516253439
Fix,GT,37.4882434,-122.2095592,,24.978394,0.1,289.61996,1592516254439
Fix,GT,37.4882994,-122.2098346,,25.270159,0.1,290.1806,1592516255439
Fix,GT,37.4883584,-122.2101123,,25.538025,0.1,290.8927,1592516256439
Fix,GT,37.4884209,-122.2103914,,25.728947,0.1,291.65616,1592516257439
Fix,GT,37.4884864,-122.2106711,,25.830194,0.1,292.2605,1592516258439
Fix,GT,37.4885543,-122.2109507,,25.86272,0.1,292.80896,1592516259439
Fix,GT,37.4886243,-122.2112295,,25.818037,0.1,293.35,1592516260439
Fix,GT,37.4886957,-122.2115067,,25.65364,0.1,293.73682,1592516261439
Fix,GT,37.4887678,-122.2117804,,25.267334,0.1,294.0351,1592516262439
Fix,GT,37.4888398,-122.2120482,,24.733013,0.1,294.42444,1592516263439
Fix,GT,37.4889123,-122.212311,,24.450108,0.1,294.9391,1592516264439
Fix,GT,37.4889861,-122.2125713,,24.418755,0.1,295.48285,1592516265439
Fix,GT,37.4890621,-122.2128298,,24.325912,0.1,296.36044,1592516266439
Fix,GT,37.4891414,-122.213086,,24.317787,0.1,297.25613,1592516267439
Fix,GT,37.4892232,-122.2133414,,24.36405,0.1,297.69543,1592516268439
Fix,GT,37.4893064,-122.2135962,,24.314905,0.1,298.0694,1592516269439
Fix,GT,37.4893904,-122.2138493,,24.181168,0.1,298.42456,1592516270439
Fix,GT,37.4894752,-122.2141003,,24.042437,0.1,298.74237,1592516271439
Fix,GT,37.4895606,-122.2143495,,23.923462,0.1,299.04053,1592516272439
Fix,GT,37.489647,-122.2145967,,23.812191,0.1,299.55707,1592516273439
Fix,GT,37.489735,-122.2148414,,23.687027,0.1,300.1841,1592516274439
Fix,GT,37.4898245,-122.215084,,23.580484,0.1,300.60657,1592516275439
Fix,GT,37.4899146,-122.2153246,,23.45816,0.1,300.98883,1592516276439
Fix,GT,37.4900058,-122.2155635,,23.386673,0.1,301.4584,1592516277439
Fix,GT,37.4900987,-122.2158008,,23.3779,0.1,302.03238,1592516278439
Fix,GT,37.4901934,-122.2160369,,23.379616,0.1,302.58157,1592516279439
Fix,GT,37.49029,-122.2162722,,23.423626,0.1,303.17838,1592516280439
Fix,GT,37.4903888,-122.2165066,,23.50378,0.1,303.81476,1592516281439
Fix,GT,37.4904898,-122.2167404,,23.470388,0.1,304.38498,1592516282439
Fix,GT,37.4905917,-122.2169712,,23.107422,0.1,304.80148,1592516283439
Fix,GT,37.4906921,-122.217196,,22.440125,0.1,304.9476,1592516284439
Fix,GT,37.4907894,-122.2174137,,21.714771,0.1,304.8739,1592516285439
Fix,GT,37.4908836,-122.2176249,,21.157314,0.1,304.80673,1592516286439
Fix,GT,37.4909756,-122.217832,,20.849476,0.1,304.73993,1592516287439
Fix,GT,37.4910665,-122.218037,,20.637117,0.1,304.65848,1592516288439
Fix,GT,37.4911563,-122.2182401,,20.432713,0.1,304.62137,1592516289439
Fix,GT,37.4912449,-122.2184411,,20.218466,0.1,304.60428,1592516290439
Fix,GT,37.4913327,-122.2186401,,20.007326,0.1,304.6124,1592516291439
Fix,GT,37.4914198,-122.218837,,19.81551,0.1,304.66122,1592516292439
Fix,GT,37.4915062,-122.2190318,,19.626863,0.1,304.7902,1592516293439
Fix,GT,37.4915923,-122.2192246,,19.503191,0.1,304.93488,1592516294439
Fix,GT,37.4916786,-122.2194176,,19.725859,0.1,304.9018,1592516295439
Fix,GT,37.4917665,-122.2196149,,20.241375,0.1,304.79715,1592516296439
Fix,GT,37.4918564,-122.2198173,,20.7287,0.1,304.75986,1592516297439
Fix,GT,37.491948,-122.2200241,,21.1283,0.1,304.70435,1592516298439
Fix,GT,37.492041,-122.2202342,,21.345432,0.1,304.68002,1592516299439
Fix,GT,37.4921349,-122.2204458,,21.495861,0.1,304.82376,1592516300439
Fix,GT,37.4922302,-122.2206588,,21.740498,0.1,305.03046,1592516301439
Fix,GT,37.4923276,-122.2208744,,22.11499,0.1,305.25317,1592516302439
Fix,GT,37.4924274,-122.2210933,,22.45618,0.1,305.43225,1592516303439
Fix,GT,37.4925282,-122.2213141,,22.455067,0.1,305.30145,1592516304439
Fix,GT,37.4926273,-122.2215341,,22.238903,0.1,304.9494,1592516305439
Fix,GT,37.4927246,-122.2217523,,21.960938,0.1,304.81006,1592516306439
Fix,GT,37.4928205,-122.2219677,,21.725018,0.1,304.88123,1592516307439
Fix,GT,37.4929159,-122.2221822,,21.784595,0.1,304.78464,1592516308439
Fix,GT,37.4930114,-122.222399,,22.028532,0.1,304.44138,1592516309439
Fix,GT,37.4931069,-122.2226186,,22.220879,0.1,304.10495,1592516310439
Fix,GT,37.493203,-122.2228414,,22.596771,0.1,304.10852,1592516311439
Fix,GT,37.4933013,-122.2230686,,23.132116,0.1,304.17596,1592516312439
Fix,GT,37.4934011,-122.2233014,,23.625546,0.1,303.68457,1592516313439
Fix,GT,37.4935007,-122.2235404,,24.085949,0.1,303.0191,1592516314439
Fix,GT,37.4936005,-122.223785,,24.495579,0.1,302.5657,1592516315439
Fix,GT,37.4936998,-122.2240334,,24.633373,0.1,302.09323,1592516316439
Fix,GT,37.4937971,-122.2242826,,24.414879,0.1,301.42996,1592516317439
Fix,GT,37.4938907,-122.2245301,,24.024479,0.1,300.69156,1592516318439
Fix,GT,37.4939805,-122.2247744,,23.511396,0.1,300.1926,1592516319439
Fix,GT,37.4940668,-122.2250128,,22.76438,0.1,299.97223,1592516320439
Fix,GT,37.4941494,-122.2252434,,22.04865,0.1,299.70743,1592516321439
Fix,GT,37.494229,-122.2254696,,21.786829,0.1,299.29755,1592516322439
Fix,GT,37.4943071,-122.2256961,,21.909786,0.1,298.8391,1592516323439
Fix,GT,37.494385,-122.2259262,,22.300022,0.1,298.54788,1592516324439
Fix,GT,37.4944635,-122.2261611,,22.744616,0.1,298.28073,1592516325439
Fix,GT,37.4945424,-122.2264015,,23.221502,0.1,297.73026,1592516326439
Fix,GT,37.4946204,-122.2266481,,23.719784,0.1,296.93213,1592516327439
Fix,GT,37.4946974,-122.2269009,,24.153664,0.1,296.3124,1592516328439
Fix,GT,37.494774,-122.227158,,24.346527,0.1,295.98926,1592516329439
Fix,GT,37.4948496,-122.2274159,,24.21244,0.1,295.62845,1592516330439
Fix,GT,37.494923,-122.2276721,,23.930946,0.1,295.24908,1592516331439
Fix,GT,37.4949945,-122.2279253,,23.560799,0.1,295.0541,1592516332439
Fix,GT,37.4950647,-122.2281746,,23.216887,0.1,295.17792,1592516333439
Fix,GT,37.4951351,-122.2284215,,23.24999,0.1,295.39276,1592516334439
Fix,GT,37.4952066,-122.2286702,,23.593655,0.1,295.53223,1592516335439
Fix,GT,37.4952795,-122.2289227,,23.85765,0.1,295.49457,1592516336439
Fix,GT,37.495352,-122.2291768,,23.842693,0.1,295.05453,1592516337439
Fix,GT,37.4954226,-122.22943,,23.628803,0.1,294.82687,1592516338439
Fix,GT,37.4954925,-122.2296808,,23.368265,0.1,294.89148,1592516339439
Fix,GT,37.4955613,-122.2299286,,23.077808,0.1,294.76477,1592516340439
Fix,GT,37.4956289,-122.2301743,,22.93512,0.1,294.55603,1592516341439
Fix,GT,37.4956957,-122.2304202,,23.047695,0.1,294.43695,1592516342439
Fix,GT,37.4957632,-122.2306673,,23.137035,0.1,294.69882,1592516343439
Fix,GT,37.4958323,-122.2309141,,23.12471,0.1,295.17834,1592516344439
Fix,GT,37.4959029,-122.2311602,,23.172348,0.1,295.4783,1592516345439
Fix,GT,37.4959741,-122.2314074,,23.321579,0.1,295.45288,1592516346439
Fix,GT,37.4960451,-122.2316567,,23.505096,0.1,295.16907,1592516347439
Fix,GT,37.4961156,-122.2319077,,23.522877,0.1,294.9089,1592516348439
Fix,GT,37.4961852,-122.2321578,,23.298504,0.1,294.89734,1592516349439
Fix,GT,37.4962546,-122.2324044,,22.948626,0.1,295.21027,1592516350439
Fix,GT,37.496324,-122.2326462,,22.503647,0.1,295.4572,1592516351439
Fix,GT,37.4963921,-122.2328828,,22.007002,0.1,295.38086,1592516352439
Fix,GT,37.4964583,-122.233115,,21.630404,0.1,295.24802,1592516353439
Fix,GT,37.4965235,-122.233344,,21.372898,0.1,295.3494,1592516354439
Fix,GT,37.4965891,-122.233571,,21.323584,0.1,295.65222,1592516355439
Fix,GT,37.4966554,-122.2337984,,21.53834,0.1,295.6448,1592516356439
Fix,GT,37.4967217,-122.2340284,,21.728596,0.1,295.31198,1592516357439
Fix,GT,37.4967878,-122.2342609,,21.944706,0.1,295.19748,1592516358439
Fix,GT,37.496855,-122.2344956,,22.153328,0.1,295.58118,1592516359439
Fix,GT,37.496925,-122.2347312,,22.302279,0.1,296.65262,1592516360439
Fix,GT,37.4970003,-122.2349661,,22.484566,0.1,298.1647,1592516361439
Fix,GT,37.4970809,-122.2352008,,22.664719,0.1,299.3948,1592516362439
Fix,GT,37.4971645,-122.2354347,,22.620827,0.1,300.11017,1592516363439
Fix,GT,37.4972498,-122.2356654,,22.326023,0.1,300.8536,1592516364439
Fix,GT,37.4973365,-122.2358909,,21.950592,0.1,301.79065,1592516365439
Fix,GT,37.497425,-122.236111,,21.649529,0.1,302.84625,1592516366439
Fix,GT,37.4975152,-122.2363264,,21.39971,0.1,303.60916,1592516367439
Fix,GT,37.4976064,-122.2365383,,21.218304,0.1,304.3249,1592516368439
Fix,GT,37.4976999,-122.2367478,,21.276861,0.1,305.3388,1592516369439
Fix,GT,37.4977974,-122.2369567,,21.524273,0.1,306.532,1592516370439
Fix,GT,37.4979,-122.2371651,,21.799452,0.1,308.0094,1592516371439
Fix,GT,37.4980087,-122.237373,,22.202337,0.1,309.55142,1592516372439
Fix,GT,37.498124,-122.2375818,,22.710796,0.1,310.9749,1592516373439
Fix,GT,37.4982454,-122.2377918,,23.180775,0.1,312.1134,1592516374439
Fix,GT,37.4983717,-122.2380031,,23.497715,0.1,312.87924,1592516375439
Fix,GT,37.4985017,-122.2382134,,23.498074,0.1,313.9987,1592516376439
Fix,GT,37.4986344,-122.2384181,,23.101347,0.1,315.42203,1592516377439
Fix,GT,37.498768,-122.2386141,,22.50478,0.1,316.84506,1592516378439
Fix,GT,37.498902,-122.2388012,,21.975805,0.1,318.22467,1592516379439
Fix,GT,37.4990366,-122.2389805,,21.584772,0.1,319.5942,1592516380439
Fix,GT,37.4991724,-122.2391525,,21.219563,0.1,320.935,1592516381439
Fix,GT,37.4993083,-122.239318,,20.851221,0.1,321.94727,1592516382439
Fix,GT,37.499444,-122.2394784,,20.54284,0.1,322.65912,1592516383439
Fix,GT,37.4995792,-122.2396349,,20.300241,0.1,323.1914,1592516384439
Fix,GT,37.4997136,-122.2397885,,20.053314,0.1,323.3529,1592516385439
Fix,GT,37.4998464,-122.2399404,,19.825548,0.1,323.28375,1592516386439
Fix,GT,37.4999778,-122.2400914,,19.82671,0.1,323.16885,1592516387439
Fix,GT,37.5001103,-122.2402443,,20.228758,0.1,323.01358,1592516388439
Fix,GT,37.5002461,-122.2404013,,20.779552,0.1,323.06912,1592516389439
Fix,GT,37.5003859,-122.2405619,,21.211384,0.1,323.26743,1592516390439
Fix,GT,37.500528,-122.2407239,,21.354343,0.1,323.48065,1592516391439
Fix,GT,37.5006704,-122.2408853,,21.245512,0.1,323.65143,1592516392439
Fix,GT,37.5008126,-122.2410456,,21.214897,0.1,323.79633,1592516393439
Fix,GT,37.5009553,-122.2412055,,21.239315,0.1,323.97327,1592516394439
Fix,GT,37.501098,-122.2413647,,21.107983,0.1,323.98773,1592516395439
Fix,GT,37.5012392,-122.2415234,,20.994823,0.1,323.65823,1592516396439
Fix,GT,37.5013795,-122.2416834,,21.08662,0.1,323.25604,1592516397439
Fix,GT,37.5015198,-122.2418451,,21.148754,0.1,322.97623,1592516398439
Fix,GT,37.5016592,-122.2420067,,20.965061,0.1,322.8785,1592516399439
Fix,GT,37.5017971,-122.2421665,,20.691307,0.1,323.04764,1592516400439
Fix,GT,37.5019338,-122.2423235,,20.421259,0.1,323.30194,1592516401439
Fix,GT,37.5020693,-122.2424777,,20.199549,0.1,323.55557,1592516402439
Fix,GT,37.5022041,-122.2426297,,20.000057,0.1,323.83127,1592516403439
Fix,GT,37.5023379,-122.2427793,,19.786797,0.1,323.99686,1592516404439
Fix,GT,37.5024703,-122.2429276,,19.644136,0.1,323.74478,1592516405439
Fix,GT,37.5026016,-122.2430765,,19.70946,0.1,323.41324,1592516406439
Fix,GT,37.502734,-122.2432274,,20.023151,0.1,323.46558,1592516407439
Fix,GT,37.5028693,-122.2433809,,20.45086,0.1,323.5967,1592516408439
Fix,GT,37.5030076,-122.2435375,,20.882832,0.1,323.65637,1592516409439
Fix,GT,37.5031485,-122.243697,,21.201973,0.1,323.52295,1592516410439
Fix,GT,37.5032909,-122.2438589,,21.384346,0.1,323.4584,1592516411439
Fix,GT,37.503434,-122.2440211,,21.394257,0.1,323.74115,1592516412439
Fix,GT,37.5035773,-122.2441819,,21.264317,0.1,323.87085,1592516413439
Fix,GT,37.5037197,-122.2443417,,21.193855,0.1,323.8032,1592516414439
Fix,GT,37.5038619,-122.2445019,,21.232224,0.1,323.60153,1592516415439
Fix,GT,37.504004,-122.2446639,,21.382992,0.1,323.34122,1592516416439
Fix,GT,37.504147,-122.2448274,,21.565063,0.1,323.4137,1592516417439
Fix,GT,37.5042917,-122.2449917,,21.765982,0.1,323.64847,1592516418439
Fix,GT,37.5044384,-122.2451572,,22.021824,0.1,323.77255,1592516419439
Fix,GT,37.5045873,-122.2453244,,22.315056,0.1,323.83566,1592516420439
Fix,GT,37.5047379,-122.245494,,22.610481,0.1,323.72028,1592516421439
Fix,GT,37.5048902,-122.2456663,,22.876385,0.1,323.5373,1592516422439
Fix,GT,37.5050434,-122.2458406,,22.982409,0.1,323.37616,1592516423439
Fix,GT,37.505196,-122.2460156,,22.865784,0.1,323.20645,1592516424439
Fix,GT,37.5053475,-122.2461891,,22.63284,0.1,323.32294,1592516425439
Fix,GT,37.5054979,-122.2463599,,22.379261,0.1,323.67908,1592516426439
Fix,GT,37.505647,-122.2465283,,22.128408,0.1,323.70416,1592516427439
Fix,GT,37.5057943,-122.2466949,,21.873486,0.1,323.61432,1592516428439
Fix,GT,37.5059398,-122.2468595,,21.631123,0.1,323.7192,1592516429439
Fix,GT,37.5060841,-122.2470219,,21.356487,0.1,323.77133,1592516430439
Fix,GT,37.5062259,-122.2471817,,20.919888,0.1,323.68237,1592516431439
Fix,GT,37.506364,-122.2473379,,20.30896,0.1,323.50793,1592516432439
Fix,GT,37.5064976,-122.2474901,,19.741455,0.1,323.30115,1592516433439
Fix,GT,37.5066276,-122.2476392,,19.39862,0.1,323.23798,1592516434439
Fix,GT,37.5067561,-122.2477859,,19.196098,0.1,323.53198,1592516435439
Fix,GT,37.5068844,-122.2479304,,19.067665,0.1,323.8789,1592516436439
Fix,GT,37.5070128,-122.248074,,19.170649,0.1,323.986,1592516437439
Fix,GT,37.5071428,-122.2482194,,19.492233,0.1,323.94775,1592516438439
Fix,GT,37.5072747,-122.2483672,,19.72018,0.1,323.92004,1592516439439
Fix,GT,37.5074076,-122.2485158,,19.762781,0.1,323.96524,1592516440439
Fix,GT,37.5075406,-122.2486649,,19.812881,0.1,323.85477,1592516441439
Fix,GT,37.5076736,-122.2488144,,19.796194,0.1,323.73578,1592516442439
Fix,GT,37.5078059,-122.2489639,,19.700966,0.1,323.58817,1592516443439
Fix,GT,37.5079374,-122.2491132,,19.68827,0.1,323.49686,1592516444439
Fix,GT,37.5080688,-122.2492628,,19.711643,0.1,323.49802,1592516445439
Fix,GT,37.5082005,-122.2494123,,19.694431,0.1,323.505,1592516446439
Fix,GT,37.508332,-122.2495617,,19.658798,0.1,323.51776,1592516447439
Fix,GT,37.5084631,-122.2497106,,19.57225,0.1,323.51648,1592516448439
Fix,GT,37.5085937,-122.249859,,19.542612,0.1,323.4935,1592516449439
Fix,GT,37.5087244,-122.2500077,,19.636824,0.1,323.455,1592516450439
Fix,GT,37.508856,-122.2501575,,19.82034,0.1,323.47488,1592516451439
Fix,GT,37.5089894,-122.2503091,,20.102081,0.1,323.553,1592516452439
Fix,GT,37.5091245,-122.2504622,,20.234253,0.1,323.58655,1592516453439
Fix,GT,37.5092595,-122.2506151,,20.11444,0.1,323.59442,1592516454439
Fix,GT,37.5093936,-122.2507666,,19.92693,0.1,323.78162,1592516455439
Fix,GT,37.5095272,-122.2509161,,19.800552,0.1,324.02817,1592516456439
Fix,GT,37.5096606,-122.251065,,19.854038,0.1,323.92572,1592516457439
Fix,GT,37.5097941,-122.2512158,,19.989948,0.1,323.4855,1592516458439
Fix,GT,37.5099276,-122.251368,,19.981583,0.1,323.42053,1592516459439
Fix,GT,37.5100607,-122.2515192,,19.858353,0.1,323.65155,1592516460439
Fix,GT,37.5101934,-122.2516689,,19.769556,0.1,323.71002,1592516461439
Fix,GT,37.5103256,-122.2518183,,19.740486,0.1,323.5184,1592516462439
Fix,GT,37.5104572,-122.2519691,,19.861607,0.1,323.08386,1592516463439
Fix,GT,37.5105896,-122.2521226,,20.143246,0.1,322.87604,1592516464439
Fix,GT,37.5107236,-122.2522781,,20.340565,0.1,322.95264,1592516465439
Fix,GT,37.5108583,-122.2524342,,20.297867,0.1,323.0163,1592516466439
Fix,GT,37.5109929,-122.2525889,,20.21045,0.1,323.34488,1592516467439
Fix,GT,37.5111283,-122.2527421,,20.264416,0.1,323.882,1592516468439
Fix,GT,37.5112658,-122.2528948,,20.528694,0.1,324.31854,1592516469439
Fix,GT,37.5114062,-122.2530489,,20.844368,0.1,324.47797,1592516470439
Fix,GT,37.5115479,-122.2532059,,21.119537,0.1,323.98132,1592516471439
Fix,GT,37.5116899,-122.2533665,,21.285103,0.1,323.3573,1592516472439
Fix,GT,37.5118314,-122.2535291,,21.274971,0.1,323.0976,1592516473439
Fix,GT,37.5119723,-122.2536915,,21.186275,0.1,323.1464,1592516474439
Fix,GT,37.5121132,-122.2538528,,21.14685,0.1,323.38287,1592516475439
Fix,GT,37.5122546,-122.2540135,,21.210285,0.1,323.57623,1592516476439
Fix,GT,37.5123967,-122.2541748,,21.332651,0.1,323.50323,1592516477439
Fix,GT,37.5125392,-122.2543379,,21.483265,0.1,323.20386,1592516478439
Fix,GT,37.5126824,-122.2545027,,21.623684,0.1,323.02094,1592516479439
Fix,GT,37.5128259,-122.254669,,21.694595,0.1,322.8639,1592516480439
Fix,GT,37.5129693,-122.2548355,,21.629421,0.1,322.9202,1592516481439
Fix,GT,37.5131123,-122.2550006,,21.47974,0.1,323.17624,1592516482439
Fix,GT,37.5132548,-122.2551638,,21.339262,0.1,323.34656,1592516483439
Fix,GT,37.5133968,-122.2553252,,21.163313,0.1,323.60333,1592516484439
Fix,GT,37.5135379,-122.2554846,,20.95185,0.1,323.76477,1592516485439
Fix,GT,37.5136778,-122.2556418,,20.732296,0.1,323.82947,1592516486439
Fix,GT,37.5138162,-122.2557974,,20.541336,0.1,323.8175,1592516487439
Fix,GT,37.5139537,-122.2559521,,20.445288,0.1,323.69055,1592516488439
Fix,GT,37.5140902,-122.2561068,,20.400944,0.1,323.52667,1592516489439
Fix,GT,37.5142263,-122.2562616,,20.348425,0.1,323.3876,1592516490439
Fix,GT,37.5143619,-122.2564166,,20.35527,0.1,323.34235,1592516491439
Fix,GT,37.514498,-122.2565718,,20.469963,0.1,323.5388,1592516492439
Fix,GT,37.5146358,-122.2567271,,20.625946,0.1,323.8996,1592516493439
Fix,GT,37.5147752,-122.2568828,,20.788988,0.1,324.08884,1592516494439
Fix,GT,37.5149157,-122.2570392,,20.887875,0.1,324.00638,1592516495439
Fix,GT,37.5150566,-122.2571969,,21.00764,0.1,323.85257,1592516496439
Fix,GT,37.5151981,-122.257356,,21.206385,0.1,323.76154,1592516497439
Fix,GT,37.5153409,-122.257517,,21.385601,0.1,323.66602,1592516498439
Fix,GT,37.515485,-122.2576799,,21.666103,0.1,323.5837,1592516499439
Fix,GT,37.5156312,-122.2578458,,22.097492,0.1,323.5435,1592516500439
Fix,GT,37.5157802,-122.2580149,,22.420908,0.1,323.50974,1592516501439
Fix,GT,37.5159304,-122.2581856,,22.476551,0.1,323.40863,1592516502439
Fix,GT,37.5160797,-122.2583564,,22.346554,0.1,323.24155,1592516503439
Fix,GT,37.5162277,-122.2585264,,22.183514,0.1,323.17902,1592516504439
Fix,GT,37.5163747,-122.2586948,,21.99101,0.1,323.36816,1592516505439
Fix,GT,37.5165212,-122.2588612,,21.908142,0.1,323.68262,1592516506439
Fix,GT,37.5166687,-122.2590269,,22.049911,0.1,323.98514,1592516507439
Fix,GT,37.5168181,-122.259193,,22.231766,0.1,324.14374,1592516508439
Fix,GT,37.5169679,-122.2593601,,22.229542,0.1,323.8616,1592516509439
Fix,GT,37.517116,-122.2595278,,22.044445,0.1,323.40393,1592516510439
Fix,GT,37.517262,-122.259695,,21.792843,0.1,323.26776,1592516511439
Fix,GT,37.5174063,-122.25986,,21.565266,0.1,323.43484,1592516512439
Fix,GT,37.5175498,-122.2600229,,21.364798,0.1,323.6162,1592516513439
Fix,GT,37.5176922,-122.2601835,,21.145966,0.1,323.6983,1592516514439
Fix,GT,37.5178334,-122.2603429,,21.02592,0.1,323.63242,1592516515439
Fix,GT,37.5179741,-122.2605024,,21.056034,0.1,323.53085,1592516516439
Fix,GT,37.5181149,-122.2606623,,21.090775,0.1,323.52332,1592516517439
Fix,GT,37.5182561,-122.2608226,,21.156288,0.1,323.52835,1592516518439
Fix,GT,37.518398,-122.2609835,,21.295794,0.1,323.57922,1592516519439
Fix,GT,37.5185413,-122.2611454,,21.493008,0.1,323.8003,1592516520439
Fix,GT,37.5186866,-122.2613081,,21.70957,0.1,323.94473,1592516521439
Fix,GT,37.5188331,-122.2614725,,21.926315,0.1,323.68463,1592516522439
Fix,GT,37.5189803,-122.2616397,,22.13357,0.1,323.35886,1592516523439
Fix,GT,37.5191286,-122.2618085,,22.249771,0.1,323.52292,1592516524439
Fix,GT,37.5192775,-122.2619769,,22.20726,0.1,323.7116,1592516525439
Fix,GT,37.519426,-122.2621445,,22.130558,0.1,323.62473,1592516526439
Fix,GT,37.519574,-122.2623123,,22.135412,0.1,323.52512,1592516527439
Fix,GT,37.5197219,-122.2624805,,22.126575,0.1,323.39114,1592516528439
Fix,GT,37.5198692,-122.2626485,,22.038145,0.1,323.40277,1592516529439
Fix,GT,37.5200165,-122.2628159,,22.04251,0.1,323.55157,1592516530439
Fix,GT,37.5201642,-122.262983,,22.080997,0.1,323.7397,1592516531439
Fix,GT,37.5203122,-122.263149,,21.938938,0.1,323.89133,1592516532439
Fix,GT,37.5204591,-122.2633137,,21.769106,0.1,323.83972,1592516533439
Fix,GT,37.520605,-122.2634778,,21.749266,0.1,323.8007,1592516534439
Fix,GT,37.5207518,-122.2636425,,21.92616,0.1,323.86386,1592516535439
Fix,GT,37.5208997,-122.2638085,,22.120373,0.1,323.80978,1592516536439
Fix,GT,37.5210487,-122.2639764,,22.295486,0.1,323.63272,1592516537439
Fix,GT,37.5211981,-122.2641464,,22.470383,0.1,323.32462,1592516538439
Fix,GT,37.5213482,-122.2643185,,22.666645,0.1,323.21838,1592516539439
Fix,GT,37.5215,-122.2644918,,22.879515,0.1,323.5129,1592516540439
Fix,GT,37.5216539,-122.2646658,,23.099854,0.1,323.7513,1592516541439
Fix,GT,37.5218097,-122.2648411,,23.334324,0.1,323.7569,1592516542439
Fix,GT,37.5219667,-122.2650185,,23.566277,0.1,323.53925,1592516543439
Fix,GT,37.5221249,-122.2651981,,23.789532,0.1,323.50143,1592516544439
Fix,GT,37.5222849,-122.2653792,,24.006853,0.1,323.70938,1592516545439
Fix,GT,37.5224465,-122.2655616,,24.230143,0.1,323.5864,1592516546439
Fix,GT,37.522609,-122.2657467,,24.467085,0.1,323.3306,1592516547439
Fix,GT,37.5227726,-122.2659341,,24.687847,0.1,323.23462,1592516548439
Fix,GT,37.5229372,-122.2661231,,24.790564,0.1,323.1667,1592516549439
Fix,GT,37.5231015,-122.2663125,,24.649082,0.1,323.0324,1592516550439
Fix,GT,37.5232641,-122.2665001,,24.342407,0.1,323.1124,1592516551439
Fix,GT,37.523425,-122.2666842,,23.965626,0.1,323.38898,1592516552439
Fix,GT,37.5235834,-122.2668651,,23.554937,0.1,323.31985,1592516553439
Fix,GT,37.523739,-122.2670431,,23.166208,0.1,323.2879,1592516554439
Fix,GT,37.5238924,-122.2672178,,22.833183,0.1,323.48938,1592516555439
Fix,GT,37.5240441,-122.2673898,,22.551151,0.1,323.59143,1592516556439
Fix,GT,37.5241944,-122.2675592,,22.276733,0.1,323.84824,1592516557439
Fix,GT,37.5243436,-122.2677256,,22.0396,0.1,324.16437,1592516558439
Fix,GT,37.5244918,-122.2678897,,21.794989,0.1,324.26276,1592516559439
Fix,GT,37.524638,-122.2680521,,21.5336,0.1,324.04083,1592516560439
Fix,GT,37.5247818,-122.2682134,,21.286526,0.1,323.7136,1592516561439
Fix,GT,37.5249236,-122.2683738,,21.077911,0.1,323.59735,1592516562439
Fix,GT,37.5250645,-122.268533,,21.030365,0.1,323.79883,1592516563439
Fix,GT,37.5252061,-122.2686917,,21.110603,0.1,323.93674,1592516564439
