MessageType,Provider,LatitudeDegrees,LongitudeDegrees,AltitudeMeters,SpeedMps,AccuracyMeters,BearingDegrees,UnixTimeMillis
Fix,GT,37.6295182,-122.4227749,,0.0014142136,0.1,245.489,1595628930436
Fix,GT,37.6295182,-122.4227749,,0.0017730867,0.1,245.48956,1595628931436
Fix,GT,37.6295182,-122.4227749,,0.0016963234,0.1,245.49004,1595628932436
Fix,GT,37.6295182,-122.4227749,,0.001,0.1,245.49039,1595628933436
Fix,GT,37.6295182,-122.4227749,,0.001,0.1,245.49069,1595628934436
Fix,GT,37.6295182,-122.4227749,,0.00056333747,0.1,245.49094,1595628935436
Fix,GT,37.6295182,-122.4227749,,0.00061753416,0.1,245.49123,1595628936436
Fix,GT,37.6295182,-122.4227749,,0.0012333421,0.1,245.49133,1595628937436
Fix,GT,37.6295182,-122.4227749,,0.0011808716,0.1,245.49112,1595628938436
Fix,GT,37.6295182,-122.4227749,,0.0014142136,0.1,245.491,1595628939436
Fix,GT,37.6295182,-122.4227749,,0.0014142136,0.1,245.49088,1595628940436
Fix,GT,37.6295182,-122.4227749,,0.0012333421,0.1,245.49078,1595628941436
Fix,GT,37.6295182,-122.4227749,,0.0011808716,0.1,245.49094,1595628942436
Fix,GT,37.6295182,-122.4227749,,0.0012333421,0.1,245.49086,1595628943436
Fix,GT,37.6295182,-122.4227749,,0.001,0.1,245.49063,1595628944436
Fix,GT,37.6295182,-122.4227749,,0.0015397447,0.1,245.4907,1595628945436
Fix,GT,37.6295182,-122.4227749,,0.0016963234,0.1,245.49155,1595628946436
Fix,GT,37.6295182,-122.4227749,,0.00056333747,0.1,245.4927,1595628947436
Fix,GT,37.6295182,-122.4227749,,0.00061753416,0.1,245.49368,1595628948436
Fix,GT,37.6295182,-122.4227749,,0.0012333421,0.1,245.49362,1595628949436
Fix,GT,37.6295182,-122.4227749,,0.00056333747,0.1,245.49324,1595628950436
Fix,GT,37.6295182,-122.4227749,,0.00061753416,0.1,245.49318,1595628951436
Fix,GT,37.6295182,-122.4227749,,0.0017730867,0.1,245.49387,1595628952436
Fix,GT,37.6295182,-122.4227749,,0.002132986,0.1,245.49426,1595628953436
Fix,GT,37.6295182,-122.4227749,,0.0015633375,0.1,245.49423,1595628954436
Fix,GT,37.6295182,-122.4227749,,0.0019441858,0.1,245.49461,1595628955436
Fix,GT,37.6295182,-122.4227749,,0.0026547546,0.1,245.4951,1595628956436
Fix,GT,37.6295182,-122.4227749,,0.0021030821,0.1,245.49542,1595628957436
Fix,GT,37.6295182,-122.4227749,,0.002132986,0.1,245.49548,1595628958436
Fix,GT,37.6295182,-122.4227749,,0.0015633375,0.1,245.49591,1595628959436
Fix,GT,37.6295182,-122.4227749,,0.00056333747,0.1,245.49628,1595628960436
Fix,GT,37.6295182,-122.4227749,,0.00061753416,0.1,245.49612,1595628961436
Fix,GT,37.6295182,-122.4227749,,0.0012333421,0.1,245.49634,1595628962436
Fix,GT,37.6295182,-122.4227749,,0.001,0.1,245.49625,1595628963436
Fix,GT,37.6295182,-122.4227749,,0.001,0.1,245.49672,1595628964436
Fix,GT,37.6295182,-122.4227749,,0.00056333747,0.1,245.49747,1595628965436
Fix,GT,37.6295182,-122.4227749,,0.00087332516,0.1,245.49794,1595628966436
Fix,GT,37.6295182,-122.4227749,,0.0011266749,0.1,245.4979,1595628967436
Fix,GT,37.6295182,-122.4227749,,0.0006175341,0.1,245.49765,1595628968436
Fix,GT,37.6295182,-122.4227749,,0.0014142136,0.1,245.49774,1595628969436
Fix,GT,37.6295182,-122.4227749,,0.0014142136,0.1,245.4982,1595628970436
Fix,GT,37.6295182,-122.4227749,,0.00079667947,0.1,245.4989,1595628971436
Fix,GT,37.6295182,-122.4227749,,0.0004366626,0.1,245.49973,1595628972436
Fix,GT,37.6295182,-122.4227749,,0.001,0.1,245.5001,1595628973436
Fix,GT,37.6295182,-122.4227749,,0.0011808716,0.1,245.5006,1595628974436
Fix,GT,37.6295182,-122.4227749,,0.0026547546,0.1,245.50504,1595629001436
Fix,GT,37.6295182,-122.4227749,,0.0021030821,0.1,245.50555,1595629002436
Fix,GT,37.6295182,-122.4227749,,0.0016963233,0.1,245.50616,1595629003436
Fix,GT,37.6295182,-122.4227749,,0.0005633374,0.1,245.5064,1595629004436
Fix,GT,37.6295182,-122.4227749,,0.00043666264,0.1,245.50626,1595629005436
Fix,GT,37.6295182,-122.4227749,,0.001,0.1,245.50627,1595629006436
Fix,GT,37.6295182,-122.4227749,,0.0011808716,0.1,245.50668,1595629007436
Fix,GT,37.6295182,-122.4227749,,0.0012333421,0.1,245.50735,1595629008436
Fix,GT,37.6295182,-122.4227749,,0.001,0.1,245.5076,1595629009436
Fix,GT,37.6295182,-122.4227749,,0.0014366626,0.1,245.50793,1595629010436
Fix,GT,37.6295182,-122.4227749,,0.0021030821,0.1,245.50885,1595629011436
Fix,GT,37.6295182,-122.4227749,,0.0012596608,0.1,245.5084,1595629012436
Fix,GT,37.6295182,-122.4227749,,0.00087332516,0.1,245.508,1595629013436
Fix,GT,37.6295182,-122.4227749,,0.002,0.1,245.50793,1595629014436
Fix,GT,37.6295182,-122.4227749,,0.0017442091,0.1,245.5073,1595629015436
Fix,GT,37.6295181,-122.4227749,,0.0023710886,0.1,245.50838,1595629016436
Fix,GT,37.6295181,-122.4227748,,0.0033411297,0.1,245.51077,1595629017436
Fix,GT,37.6295181,-122.4227748,,0.0025633376,0.1,245.51102,1595629018436
Fix,GT,37.6295181,-122.4227748,,0.0029270807,0.1,245.51163,1595629019436
Fix,GT,37.6295181,-122.4227748,,0.0027593623,0.1,245.51263,1595629020436
Fix,GT,37.6295181,-122.4227748,,0.0017984055,0.1,245.5126,1595629021436
Fix,GT,37.6295181,-122.4227748,,0.0033400091,0.1,245.51286,1595629022436
Fix,GT,37.6295181,-122.4227748,,0.003126675,0.1,245.5135,1595629023436
Fix,GT,37.6295181,-122.4227748,,0.002361743,0.1,245.51372,1595629024436
Fix,GT,37.6295181,-122.4227748,,0.002569766,0.1,245.51407,1595629025436
Fix,GT,37.6295181,-122.4227748,,0.002132986,0.1,245.51428,1595629026436
Fix,GT,37.6295181,-122.4227748,,0.0015633375,0.1,245.514,1595629027436
Fix,GT,37.6295181,-122.4227748,,0.001,0.1,245.514,1595629028436
Fix,GT,37.6295181,-122.4227748,,0.001,0.1,245.51416,1595629029436
Fix,GT,37.6295181,-122.4227748,,0.00056333747,0.1,245.51407,1595629030436
Fix,GT,37.6295181,-122.4227748,,0.0013808481,0.1,245.51477,1595629031436
Fix,GT,37.6295181,-122.4227748,,0.0035280795,0.1,245.51553,1595629032436
Fix,GT,37.6295181,-122.4227748,,0.004479901,0.1,245.5153,1595629033436
Fix,GT,37.6295181,-122.4227748,,0.0041075367,0.1,245.5155,1595629034436
Fix,GT,37.6295181,-122.4227748,,0.002569766,0.1,245.51555,1595629035436
Fix,GT,37.6295181,-122.4227748,,0.0018771949,0.1,245.51413,1595629036436
Fix,GT,37.6295181,-122.4227748,,0.0025970852,0.1,245.51297,1595629037436
Fix,GT,37.6295181,-122.4227747,,0.005843186,0.1,245.51172,1595629038436
Fix,GT,37.6295181,-122.4227748,,0.004978434,0.1,245.51099,1595629039436
Fix,GT,37.6295181,-122.4227748,,0.001,0.1,245.51117,1595629040436
Fix,GT,37.6295181,-122.4227748,,0.001,0.1,245.51175,1595629041436
Fix,GT,37.6295181,-122.4227748,,0.0011808715,0.1,245.512,1595629042436
Fix,GT,37.6295181,-122.4227748,,0.001233342,0.1,245.51178,1595629043436
Fix,GT,37.6295181,-122.4227748,,0.0014366626,0.1,245.51219,1595629044436
Fix,GT,37.6295181,-122.4227748,,0.0015633376,0.1,245.51256,1595629045436
Fix,GT,37.6295181,-122.4227748,,0.0005633375,0.1,245.51282,1595629046436
Fix,GT,37.629518,-122.4227748,,0.0018004056,0.1,245.51428,1595629047436
Fix,GT,37.6295178,-122.4227752,,0.12067114,0.1,245.48183,1595629048436
Fix,GT,37.6295163,-122.4227777,,0.4985994,0.1,244.53604,1595629049436
Fix,GT,37.6295115,-122.4227847,,1.1259294,0.1,241.12793,1595629050436
Fix,GT,37.6295019,-122.422797,,1.8147568,0.1,235.4438,1595629051436
Fix,GT,37.6294876,-122.4228138,,2.4346192,0.1,229.74232,1595629052436
Fix,GT,37.6294691,-122.4228351,,3.1177216,0.1,226.25307,1595629053436
Fix,GT,37.6294462,-122.4228625,,3.9063826,0.1,225.79688,1595629054436
Fix,GT,37.6294211,-122.4228993,,4.722949,0.1,230.25243,1595629055436
Fix,GT,37.6293965,-122.4229477,,5.4632044,0.1,238.09198,1595629056436
Fix,GT,37.6293724,-122.423006,,6.1504107,0.1,243.3612,1595629057436
Fix,GT,37.6293483,-122.4230707,,6.3851237,0.1,246.19489,1595629058436
Fix,GT,37.6293257,-122.4231354,,6.0383315,0.1,247.92229,1595629059436
Fix,GT,37.629305,-122.4231966,,5.7372055,0.1,248.44792,1595629060436
Fix,GT,37.6292847,-122.4232566,,5.784749,0.1,248.32321,1595629061436
Fix,GT,37.6292637,-122.4233177,,5.9308224,0.1,247.96426,1595629062436
Fix,GT,37.6292417,-122.4233792,,5.926628,0.1,247.40884,1595629063436
Fix,GT,37.6292195,-122.4234401,,5.906558,0.1,246.7915,1595629064436
Fix,GT,37.6291968,-122.4235014,,6.0410023,0.1,246.5104,1595629065436
Fix,GT,37.6291733,-122.4235642,,6.2192283,0.1,246.3375,1595629066436
Fix,GT,37.6291493,-122.4236283,,6.24706,0.1,246.1276,1595629067436
Fix,GT,37.6291256,-122.4236912,,5.981636,0.1,245.91138,1595629068436
Fix,GT,37.6291031,-122.4237492,,5.389489,0.1,245.18741,1595629069436
Fix,GT,37.6290813,-122.4237992,,4.709209,0.1,242.14035,1595629070436
Fix,GT,37.6290567,-122.4238392,,4.206513,0.1,233.6372,1595629071436
Fix,GT,37.6290262,-122.4238664,,4.0329914,0.1,218.58905,1595629072436
Fix,GT,37.6289898,-122.4238789,,4.174441,0.1,199.66487,1595629073436
Fix,GT,37.6289508,-122.4238755,,4.285446,0.1,180.00345,1595629074436
Fix,GT,37.6289142,-122.4238552,,4.408104,0.1,159.71167,1595629075436
Fix,GT,37.6288857,-122.4238171,,4.651478,0.1,136.65228,1595629076436
Fix,GT,37.6288722,-122.423764,,4.9661326,0.1,110.76904,1595629077436
Fix,GT,37.6288769,-122.4237053,,5.2985,0.1,86.634155,1595629078436
Fix,GT,37.6288951,-122.4236469,,5.660495,0.1,70.77353,1595629079436
Fix,GT,37.628919,-122.4235875,,6.031744,0.1,65.08594,1595629080436
Fix,GT,37.6289445,-122.423525,,6.384549,0.1,64.41351,1595629081436
Fix,GT,37.6289713,-122.4234585,,6.805904,0.1,64.4628,1595629082436
Fix,GT,37.6290001,-122.4233872,,7.3052015,0.1,64.58438,1595629083436
Fix,GT,37.6290307,-122.4233107,,7.824386,0.1,64.741394,1595629084436
Fix,GT,37.6290628,-122.4232287,,8.265593,0.1,65.21753,1595629085436
Fix,GT,37.6290957,-122.4231429,,8.54388,0.1,65.76254,1595629086436
Fix,GT,37.6291292,-122.4230548,,8.599421,0.1,65.845856,1595629087436
Fix,GT,37.6291624,-122.4229676,,8.410778,0.1,65.81241,1595629088436
Fix,GT,37.6291951,-122.4228822,,8.363907,0.1,65.62518,1595629089436
Fix,GT,37.6292284,-122.4227963,,8.498507,0.1,65.387085,1595629090436
Fix,GT,37.6292626,-122.4227093,,8.653089,0.1,64.9762,1595629091436
Fix,GT,37.6292984,-122.4226209,,8.853993,0.1,64.39337,1595629092436
Fix,GT,37.6293354,-122.422531,,8.997877,0.1,64.124054,1595629093436
Fix,GT,37.6293727,-122.4224397,,9.035552,0.1,64.30774,1595629094436
Fix,GT,37.6294093,-122.4223491,,8.888041,0.1,64.563354,1595629095436
Fix,GT,37.629445,-122.4222608,,8.609142,0.1,64.344604,1595629096436
Fix,GT,37.6294798,-122.4221759,,8.164035,0.1,63.858124,1595629097436
Fix,GT,37.6295116,-122.4220981,,7.187671,0.1,64.80435,1595629098436
Fix,GT,37.6295334,-122.4220286,,6.150941,0.1,71.956604,1595629099436
Fix,GT,37.6295374,-122.4219645,,5.5885863,0.1,89.12555,1595629100436
Fix,GT,37.6295201,-122.421908,,5.574499,0.1,113.003204,1595629101436
Fix,GT,37.6294829,-122.4218635,,6.262353,0.1,137.34607,1595629102436
Fix,GT,37.6294292,-122.4218277,,7.4188023,0.1,153.27869,1595629103436
Fix,GT,37.6293638,-122.4217928,,8.244541,0.1,158.40668,1595629104436
Fix,GT,37.6292959,-122.4217574,,7.967581,0.1,158.8883,1595629105436
Fix,GT,37.6292349,-122.4217234,,6.788228,0.1,156.83942,1595629106436
Fix,GT,37.6291859,-122.4216904,,5.4634075,0.1,152.64734,1595629107436
Fix,GT,37.6291489,-122.4216611,,4.079325,0.1,149.25034,1595629108436
Fix,GT,37.6291223,-122.4216389,,3.0329971,0.1,148.32446,1595629109436
Fix,GT,37.6291022,-122.4216201,,2.6215587,0.1,145.8016,1595629110436
Fix,GT,37.6290838,-122.4215968,,3.1488066,0.1,138.96802,1595629111436
Fix,GT,37.6290659,-122.4215609,,4.2270665,0.1,126.860016,1595629112436
Fix,GT,37.6290546,-122.4215075,,5.3601685,0.1,107.925934,1595629113436
Fix,GT,37.6290602,-122.4214404,,6.486802,0.1,85.53998,1595629114436
Fix,GT,37.6290844,-122.4213653,,7.7415276,0.1,68.8367,1595629115436
Fix,GT,37.62912,-122.4212813,,9.009836,0.1,63.35193,1595629116436
Fix,GT,37.629161,-122.4211856,,10.171043,0.1,63.330383,1595629117436
Fix,GT,37.6292054,-122.421079,,10.994242,0.1,63.846924,1595629118436
Fix,GT,37.6292532,-122.4209665,,11.442927,0.1,63.247314,1595629119436
Fix,GT,37.629302,-122.4208509,,11.67411,0.1,63.66458,1595629120436
Fix,GT,37.6293499,-122.4207324,,11.765217,0.1,64.89334,1595629121436
Fix,GT,37.6293967,-122.4206133,,11.620696,0.1,65.05612,1595629122436
Fix,GT,37.6294423,-122.4204991,,10.773941,0.1,64.47232,1595629123436
Fix,GT,37.6294834,-122.4203982,,9.128618,0.1,64.20618,1595629124436
Fix,GT,37.6295172,-122.4203158,,7.1622777,0.1,64.239075,1595629125436
Fix,GT,37.6295423,-122.4202543,,5.048164,0.1,64.312225,1595629126436
Fix,GT,37.6295587,-122.4202139,,3.1174624,0.1,64.37161,1595629127436
Fix,GT,37.6295696,-122.4201871,,2.4938488,0.1,64.40314,1595629128436
Fix,GT,37.6295821,-122.4201561,,3.8376908,0.1,64.4314,1595629129436
Fix,GT,37.629602,-122.420106,,6.121372,0.1,64.9953,1595629130436
Fix,GT,37.6296295,-122.4200326,,8.089969,0.1,66.30322,1595629131436
Fix,GT,37.6296626,-122.4199413,,9.553085,0.1,66.78107,1595629132436
Fix,GT,37.6297018,-122.4198368,,10.830561,0.1,66.0448,1595629133436
Fix,GT,37.6297475,-122.4197213,,11.905737,0.1,64.51831,1595629134436
Fix,GT,37.6298012,-122.4195983,,12.835375,0.1,61.762543,1595629135436
Fix,GT,37.6298642,-122.4194709,,13.607918,0.1,58.402466,1595629136436
Fix,GT,37.6299368,-122.4193424,,14.161801,0.1,54.650696,1595629137436
Fix,GT,37.6300181,-122.4192167,,14.351519,0.1,51.156403,1595629138436
Fix,GT,37.630104,-122.4190954,,14.2795315,0.1,49.189514,1595629139436
Fix,GT,37.6301904,-122.4189774,,14.032574,0.1,48.60678,1595629140436
Fix,GT,37.6302748,-122.4188639,,13.353643,0.1,48.15161,1595629141436
Fix,GT,37.6303543,-122.4187578,,12.372086,0.1,48.15222,1595629142436
Fix,GT,37.6304269,-122.4186582,,11.51362,0.1,49.819214,1595629143436
Fix,GT,37.6304893,-122.4185601,,10.693645,0.1,54.332275,1595629144436
Fix,GT,37.6305391,-122.4184647,,9.436575,0.1,59.40323,1595629145436
Fix,GT,37.6305772,-122.4183808,,7.584768,0.1,62.19113,1595629146436
Fix,GT,37.6306048,-122.4183159,,5.40739,0.1,63.477173,1595629147436
Fix,GT,37.6306228,-122.4182724,,3.2868855,0.1,63.924133,1595629148436
Fix,GT,37.6306328,-122.4182484,,1.5700935,0.1,64.03369,1595629149436
Fix,GT,37.6306367,-122.418239,,0.47253063,0.1,64.06781,1595629150436
Fix,GT,37.6306373,-122.4182375,,0.036204793,0.1,64.07059,1595629151436
Fix,GT,37.6306382,-122.4182354,,0.44860303,0.1,64.07788,1595629152436
Fix,GT,37.6306421,-122.4182255,,1.5408423,0.1,64.09613,1595629153436
Fix,GT,37.6306511,-122.4182035,,2.8652134,0.1,64.14282,1595629154436
Fix,GT,37.6306657,-122.4181678,,4.283533,0.1,64.27759,1595629155436
Fix,GT,37.6306863,-122.4181167,,5.8549676,0.1,64.50116,1595629156436
Fix,GT,37.6307138,-122.4180509,,7.1223927,0.1,63.54184,1595629157436
Fix,GT,37.6307512,-122.41798,,7.75095,0.1,56.046234,1595629158436
Fix,GT,37.6308032,-122.4179208,,7.768702,0.1,40.1138,1595629159436
Fix,GT,37.6308672,-122.4178865,,7.761224,0.1,21.165527,1595629160436
Fix,GT,37.6309388,-122.417879,,8.27102,0.1,3.814209,1595629161436
Fix,GT,37.6310158,-122.4178917,,8.883334,0.1,352.50412,1595629162436
Fix,GT,37.631095,-122.4179165,,9.122323,0.1,346.28107,1595629163436
Fix,GT,37.6311724,-122.4179495,,8.947409,0.1,341.81287,1595629164436
Fix,GT,37.6312461,-122.4179866,,8.665987,0.1,339.0952,1595629165436
Fix,GT,37.6313166,-122.4180252,,8.39628,0.1,337.68915,1595629166436
Fix,GT,37.6313833,-122.4180633,,7.8689775,0.1,337.04016,1595629167436
Fix,GT,37.6314446,-122.4180981,,7.0146217,0.1,337.32986,1595629168436
Fix,GT,37.6314981,-122.4181276,,5.8726077,0.1,337.7414,1595629169436
Fix,GT,37.63154,-122.4181505,,4.2629137,0.1,337.96744,1595629170436
Fix,GT,37.6315687,-122.4181661,,2.7654204,0.1,338.0022,1595629171436
Fix,GT,37.6315871,-122.4181761,,1.8180088,0.1,338.00513,1595629172436
Fix,GT,37.6315997,-122.4181829,,1.2684789,0.1,338.00204,1595629173436
Fix,GT,37.6316085,-122.4181877,,0.8361995,0.1,338.0011,1595629174436
Fix,GT,37.6316135,-122.4181904,,0.3764181,0.1,337.99942,1595629175436
Fix,GT,37.6316152,-122.4181913,,0.056780964,0.1,338.0025,1595629176436
Fix,GT,37.6316153,-122.4181913,,0.004105952,0.1,338.00583,1595629177436
Fix,GT,37.6316153,-122.4181913,,0.0028266998,0.1,338.00476,1595629178436
Fix,GT,37.6316153,-122.4181913,,0.001436663,0.1,338.005,1595629179436
Fix,GT,37.6316153,-122.4181913,,0.0017442089,0.1,338.00574,1595629180436
Fix,GT,37.6316153,-122.4181913,,0.0014142136,0.1,338.00632,1595629181436
Fix,GT,37.6316153,-122.4181913,,0.0014142136,0.1,338.00696,1595629182436
Fix,GT,37.6316153,-122.4181913,,0.00079667894,0.1,338.00696,1595629183436
Fix,GT,37.6316153,-122.4181913,,0.000976408,0.1,338.00717,1595629184436
Fix,GT,37.6316153,-122.4181913,,0.0026405095,0.1,338.00815,1595629185436
Fix,GT,37.6316153,-122.4181913,,0.0027578361,0.1,338.00888,1595629186436
Fix,GT,37.6316153,-122.4181913,,0.0016963229,0.1,338.00928,1595629187436
Fix,GT,37.6316153,-122.4181913,,0.0014366631,0.1,338.00952,1595629188436
Fix,GT,37.6316153,-122.4181913,,0.0023617437,0.1,338.00992,1595629189436
Fix,GT,37.6316153,-122.4181913,,0.0028284271,0.1,338.01062,1595629190436
Fix,GT,37.6316153,-122.4181913,,0.0029742073,0.1,338.01126,1595629191436
Fix,GT,37.6316152,-122.4181913,,0.003091417,0.1,338.01147,1595629192436
Fix,GT,37.6316154,-122.4181914,,0.11963185,0.1,338.01483,1595629193436
Fix,GT,37.6316183,-122.418193,,0.6870016,0.1,338.02383,1595629194436
Fix,GT,37.6316277,-122.4181981,,1.6289544,0.1,338.0278,1595629195436
Fix,GT,37.6316461,-122.4182081,,2.8350105,0.1,338.01633,1595629196436
Fix,GT,37.631676,-122.4182245,,4.4306717,0.1,337.89587,1595629197436
Fix,GT,37.6317199,-122.4182489,,6.2107377,0.1,337.6545,1595629198436
Fix,GT,37.6317783,-122.4182816,,7.839737,0.1,337.40817,1595629199436
Fix,GT,37.6318474,-122.4183204,,8.856426,0.1,337.2619,1595629200436
Fix,GT,37.6319235,-122.418363,,9.582892,0.1,337.47693,1595629201436
Fix,GT,37.632005,-122.4184079,,10.114582,0.1,337.91037,1595629202436
Fix,GT,37.6320895,-122.4184537,,10.309776,0.1,338.073,1595629203436
Fix,GT,37.632175,-122.4185001,,10.335696,0.1,338.2266,1595629204436
Fix,GT,37.632262,-122.4185425,,10.459169,0.1,341.1602,1595629205436
Fix,GT,37.632353,-122.4185752,,10.595612,0.1,347.21265,1595629206436
Fix,GT,37.632447,-122.4185956,,10.511117,0.1,353.56717,1595629207436
Fix,GT,37.6325391,-122.4185997,,10.05063,0.1,1.811676,1595629208436
Fix,GT,37.6326254,-122.4185826,,9.602087,0.1,14.04068,1595629209436
Fix,GT,37.6327016,-122.4185393,,9.415127,0.1,30.061096,1595629210436
Fix,GT,37.6327666,-122.4184701,,9.992842,0.1,44.241608,1595629211436
Fix,GT,37.6328283,-122.4183787,,11.426412,0.1,52.43933,1595629212436
Fix,GT,37.6328927,-122.418267,,12.938429,0.1,56.12848,1595629213436
Fix,GT,37.632962,-122.4181409,,14.030487,0.1,56.806488,1595629214436
Fix,GT,37.6330353,-122.4180053,,14.900547,0.1,57.301636,1595629215436
Fix,GT,37.6331119,-122.4178608,,15.82314,0.1,57.87613,1595629216436
Fix,GT,37.633192,-122.4177061,,16.773361,0.1,58.625732,1595629217436
Fix,GT,37.6332751,-122.4175414,,17.658115,0.1,59.277893,1595629218436
Fix,GT,37.6333616,-122.417367,,18.649952,0.1,59.426086,1595629219436
Fix,GT,37.6334526,-122.4171824,,19.681496,0.1,59.819733,1595629220436
Fix,GT,37.633545,-122.4169862,,20.600166,0.1,61.72519,1595629221436
Fix,GT,37.6336335,-122.4167756,,21.466953,0.1,64.90936,1595629222436
Fix,GT,37.6337159,-122.4165504,,22.354156,0.1,67.82904,1595629223436
Fix,GT,37.6337934,-122.4163128,,23.046593,0.1,70.11984,1595629224436
Fix,GT,37.6338654,-122.4160644,,23.629608,0.1,72.438354,1595629225436
Fix,GT,37.6339301,-122.4158061,,24.255894,0.1,75.051056,1595629226436
Fix,GT,37.6339873,-122.4155374,,24.876366,0.1,77.64337,1595629227436
Fix,GT,37.634035,-122.4152589,,25.446949,0.1,80.55148,1595629228436
Fix,GT,37.6340722,-122.4149712,,26.039368,0.1,83.500946,1595629229436
Fix,GT,37.6340981,-122.4146754,,26.565525,0.1,86.472015,1595629230436
Fix,GT,37.6341122,-122.414372,,27.12088,0.1,89.37213,1595629231436
Fix,GT,37.6341146,-122.414062,,27.620243,0.1,91.99954,1595629232436
Fix,GT,37.6341065,-122.4137477,,27.890558,0.1,94.30234,1595629233436
Fix,GT,37.6340887,-122.4134318,,28.058468,0.1,96.58493,1595629234436
Fix,GT,37.6340614,-122.4131147,,28.268692,0.1,98.52515,1595629235436
Fix,GT,37.634027,-122.4127969,,28.337133,0.1,99.54175,1595629236436
Fix,GT,37.6339897,-122.4124802,,28.174318,0.1,100.104675,1595629237436
Fix,GT,37.6339502,-122.412166,,27.99776,0.1,100.70981,1595629238436
Fix,GT,37.6339085,-122.411854,,27.843004,0.1,101.23636,1595629239436
Fix,GT,37.6338653,-122.4115442,,27.689096,0.1,101.44409,1595629240436
Fix,GT,37.633822,-122.4112361,,27.538776,0.1,101.46008,1595629241436
Fix,GT,37.6337791,-122.4109294,,27.438559,0.1,101.31271,1595629242436
Fix,GT,37.6337372,-122.4106228,,27.518272,0.1,101.082214,1595629243436
Fix,GT,37.6336961,-122.4103134,,27.904799,0.1,100.8309,1595629244436
Fix,GT,37.6336559,-122.4099982,,28.43708,0.1,100.21884,1595629245436
Fix,GT,37.6336197,-122.4096774,,28.68855,0.1,98.66672,1595629246436
Fix,GT,37.6335925,-122.4093542,,28.715176,0.1,96.20703,1595629247436
Fix,GT,37.6335778,-122.4090283,,28.929012,0.1,93.14484,1595629248436
Fix,GT,37.6335781,-122.4086988,,29.278906,0.1,89.63263,1595629249436
Fix,GT,37.6335943,-122.408366,,29.56326,0.1,86.39731,1595629250436
Fix,GT,37.6336235,-122.4080325,,29.643087,0.1,84.10843,1595629251436
Fix,GT,37.63366,-122.4076998,,29.615543,0.1,83.019775,1595629252436
Fix,GT,37.6337,-122.4073689,,29.440044,0.1,82.52045,1595629253436
Fix,GT,37.6337404,-122.4070418,,29.00299,0.1,82.612366,1595629254436
Fix,GT,37.6337781,-122.4067196,,28.508326,0.1,83.48486,1595629255436
Fix,GT,37.6338074,-122.4064009,,28.179764,0.1,86.21054,1595629256436
Fix,GT,37.6338193,-122.4060845,,27.868385,0.1,91.31366,1595629257436
Fix,GT,37.6338062,-122.4057712,,27.735088,0.1,97.302734,1595629258436
Fix,GT,37.6337663,-122.4054615,,27.820286,0.1,103.599,1595629259436
Fix,GT,37.6336997,-122.4051582,,27.852573,0.1,109.74811,1595629260436
Fix,GT,37.633608,-122.4048665,,27.65068,0.1,115.95853,1595629261436
Fix,GT,37.6334923,-122.4045922,,27.32193,0.1,122.437775,1595629262436
Fix,GT,37.6333542,-122.4043392,,27.050846,0.1,128.92331,1595629263436
Fix,GT,37.6331956,-122.4041082,,27.023525,0.1,134.99817,1595629264436
Fix,GT,37.6330184,-122.403898,,27.214493,0.1,140.81427,1595629265436
Fix,GT,37.6328234,-122.4037113,,27.340096,0.1,147.21991,1595629266436
Fix,GT,37.6326122,-122.4035532,,27.435238,0.1,153.73584,1595629267436
Fix,GT,37.632387,-122.4034242,,27.656153,0.1,159.7561,1595629268436
Fix,GT,37.6321501,-122.4033251,,27.930113,0.1,165.88477,1595629269436
Fix,GT,37.631904,-122.4032562,,28.169018,0.1,171.2945,1595629270436
Fix,GT,37.6316521,-122.403211,,28.38333,0.1,174.56793,1595629271436
Fix,GT,37.6313971,-122.4031761,,28.606207,0.1,175.31049,1595629272436
Fix,GT,37.6311398,-122.4031407,,28.830421,0.1,174.97949,1595629273436
Fix,GT,37.630881,-122.4031041,,28.967855,0.1,174.87012,1595629274436
Fix,GT,37.6306214,-122.4030665,,29.061283,0.1,174.79797,1595629275436
Fix,GT,37.6303607,-122.4030292,,29.158634,0.1,174.98572,1595629276436
Fix,GT,37.6300998,-122.4029932,,29.025658,0.1,175.19891,1595629277436
Fix,GT,37.6298414,-122.4029585,,28.657461,0.1,175.33679,1595629278436
Fix,GT,37.6295863,-122.4029243,,28.320087,0.1,175.28333,1595629279436
Fix,GT,37.6293335,-122.4028903,,28.161705,0.1,175.30334,1595629280436
Fix,GT,37.6290811,-122.4028563,,28.198172,0.1,175.20929,1595629281436
Fix,GT,37.6288279,-122.4028207,,28.38939,0.1,174.7522,1595629282436
Fix,GT,37.6285734,-122.4027811,,28.521341,0.1,173.95892,1595629283436
Fix,GT,37.628319,-122.4027372,,28.43729,0.1,173.20728,1595629284436
Fix,GT,37.6280666,-122.4026888,,28.265072,0.1,172.28088,1595629285436
Fix,GT,37.6278161,-122.4026353,,28.127499,0.1,171.20679,1595629286436
Fix,GT,37.6275675,-122.4025762,,28.046158,0.1,170.17548,1595629287436
Fix,GT,37.6273204,-122.4025119,,27.980608,0.1,169.14587,1595629288436
Fix,GT,37.6270744,-122.402442,,28.00932,0.1,168.10742,1595629289436
Fix,GT,37.626829,-122.4023658,,28.08984,0.1,166.93347,1595629290436
Fix,GT,37.6265848,-122.402283,,28.035156,0.1,165.58057,1595629291436
Fix,GT,37.6263434,-122.4021924,,27.826733,0.1,163.77423,1595629292436
Fix,GT,37.6261071,-122.4020913,,27.605724,0.1,161.33185,1595629293436
Fix,GT,37.6258751,-122.4019814,,27.417086,0.1,160.3927,1595629294436
Fix,GT,37.6256438,-122.4018739,,27.376724,0.1,161.92627,1595629295436
Fix,GT,37.6254094,-122.4017756,,27.498154,0.1,163.89343,1595629296436
Fix,GT,37.6251722,-122.4016863,,27.45124,0.1,165.29333,1595629297436
Fix,GT,37.6249354,-122.4016012,,27.221197,0.1,165.25671,1595629298436
Fix,GT,37.6247005,-122.4015147,,27.177368,0.1,164.75598,1595629299436
Fix,GT,37.6244653,-122.4014251,,27.388706,0.1,164.20984,1595629300436
Fix,GT,37.6242287,-122.4013315,,27.708588,0.1,163.51123,1595629301436
Fix,GT,37.62399,-122.4012335,,28.085827,0.1,163.05579,1595629302436
Fix,GT,37.6237482,-122.4011335,,28.42134,0.1,163.33154,1595629303436
Fix,GT,37.6235037,-122.4010357,,28.490788,0.1,164.10577,1595629304436
Fix,GT,37.6232584,-122.4009419,,28.476288,0.1,164.7998,1595629305436
Fix,GT,37.6230112,-122.4008515,,28.702105,0.1,165.44159,1595629306436
Fix,GT,37.6227607,-122.4007621,,29.102783,0.1,165.40161,1595629307436
Fix,GT,37.6225074,-122.4006699,,29.406395,0.1,164.9057,1595629308436
Fix,GT,37.6222525,-122.4005751,,29.570833,0.1,164.83392,1595629309436
Fix,GT,37.6219961,-122.4004802,,29.735611,0.1,165.1095,1595629310436
Fix,GT,37.6217376,-122.4003872,,29.95692,0.1,165.6836,1595629311436
Fix,GT,37.6214766,-122.4002965,,30.10559,0.1,166.13043,1595629312436
Fix,GT,37.6212148,-122.4002077,,30.074905,0.1,166.33167,1595629313436
Fix,GT,37.6209529,-122.4001194,,30.133057,0.1,166.3175,1595629314436
Fix,GT,37.6206902,-122.4000307,,30.27006,0.1,166.25482,1595629315436
Fix,GT,37.6204266,-122.399941,,30.364826,0.1,166.15222,1595629316436
Fix,GT,37.6201614,-122.3998508,,30.640625,0.1,166.27527,1595629317436
Fix,GT,37.6198928,-122.3997606,,31.04919,0.1,166.42102,1595629318436
Fix,GT,37.6196214,-122.3996691,,31.3121,0.1,166.22235,1595629319436
Fix,GT,37.6193487,-122.3995759,,31.400352,0.1,166.13916,1595629320436
Fix,GT,37.6190759,-122.3994827,,31.325954,0.1,166.20331,1595629321436
Fix,GT,37.6188043,-122.3993903,,31.109737,0.1,166.30328,1595629322436
Fix,GT,37.6185345,-122.3992996,,30.908918,0.1,166.47778,1595629323436
Fix,GT,37.6182654,-122.3992102,,30.890186,0.1,166.55054,1595629324436
Fix,GT,37.617996,-122.3991208,,30.925331,0.1,166.54333,1595629325436
Fix,GT,37.6177273,-122.3990313,,30.710026,0.1,166.44897,1595629326436
Fix,GT,37.6174618,-122.3989411,,30.381012,0.1,166.01697,1595629327436
Fix,GT,37.6171984,-122.3988475,,30.41772,0.1,165.12866,1595629328436
Fix,GT,37.6169349,-122.3987483,,30.62093,0.1,164.32068,1595629329436
Fix,GT,37.6166711,-122.3986451,,30.6833,0.1,163.8772,1595629330436
Fix,GT,37.6164071,-122.398539,,30.835682,0.1,163.1507,1595629331436
Fix,GT,37.6161431,-122.3984264,,31.040813,0.1,161.95428,1595629332436
Fix,GT,37.6158795,-122.3983056,,31.256142,0.1,160.67615,1595629333436
Fix,GT,37.6156161,-122.398176,,31.519073,0.1,159.1502,1595629334436
Fix,GT,37.6153539,-122.3980358,,31.740877,0.1,157.34753,1595629335436
Fix,GT,37.6150939,-122.3978838,,31.922955,0.1,155.41223,1595629336436
Fix,GT,37.6148364,-122.3977199,,32.154602,0.1,153.64673,1595629337436
Fix,GT,37.6145808,-122.3975458,,32.360676,0.1,152.11096,1595629338436
Fix,GT,37.6143273,-122.3973627,,32.51008,0.1,150.78952,1595629339436
Fix,GT,37.6140765,-122.397172,,32.475174,0.1,149.48395,1595629340436
Fix,GT,37.6138306,-122.396975,,32.252235,0.1,148.02771,1595629341436
Fix,GT,37.6135913,-122.3967708,,31.939556,0.1,146.31525,1595629342436
Fix,GT,37.6133596,-122.3965596,,31.609604,0.1,144.48328,1595629343436
Fix,GT,37.6131348,-122.3963412,,31.46558,0.1,142.78064,1595629344436
Fix,GT,37.6129149,-122.396115,,31.603529,0.1,141.23889,1595629345436
Fix,GT,37.6126988,-122.39588,,31.827713,0.1,139.74127,1595629346436
Fix,GT,37.6124858,-122.395637,,31.988832,0.1,138.44965,1595629347436
Fix,GT,37.6122765,-122.3953872,,32.091427,0.1,137.13498,1595629348436
Fix,GT,37.612071,-122.3951302,,32.23297,0.1,135.81055,1595629349436
Fix,GT,37.6118695,-122.3948665,,32.31983,0.1,134.547,1595629350436
Fix,GT,37.6116724,-122.3945972,,32.267303,0.1,133.25647,1595629351436
Fix,GT,37.6114817,-122.3943235,,31.923374,0.1,131.75244,1595629352436
Fix,GT,37.6112992,-122.3940475,,31.449112,0.1,130.45093,1595629353436
Fix,GT,37.6111222,-122.3937713,,31.191538,0.1,130.0239,1595629354436
Fix,GT,37.6109468,-122.3934964,,31.060522,0.1,130.09686,1595629355436
Fix,GT,37.6107719,-122.393223,,30.852623,0.1,130.12158,1595629356436
Fix,GT,37.6105991,-122.3929518,,30.430511,0.1,129.92322,1595629357436
Fix,GT,37.6104301,-122.3926843,,29.862717,0.1,129.60498,1595629358436
Fix,GT,37.610265,-122.3924205,,29.511335,0.1,129.33652,1595629359436
Fix,GT,37.6101014,-122.3921573,,29.53727,0.1,129.52051,1595629360436
Fix,GT,37.6099346,-122.3918931,,30.095512,0.1,130.13788,1595629361436
Fix,GT,37.6097616,-122.3916249,,30.877945,0.1,130.53665,1595629362436
Fix,GT,37.6095842,-122.3913522,,31.251049,0.1,130.65048,1595629363436
Fix,GT,37.6094053,-122.3910782,,31.33147,0.1,130.76385,1595629364436
Fix,GT,37.6092261,-122.3908044,,31.224644,0.1,130.7774,1595629365436
Fix,GT,37.6090484,-122.3905319,,30.98096,0.1,130.57895,1595629366436
Fix,GT,37.6088728,-122.390261,,30.740948,0.1,130.44992,1595629367436
Fix,GT,37.6086985,-122.3899916,,30.616947,0.1,130.44812,1595629368436
Fix,GT,37.6085243,-122.3897225,,30.685848,0.1,130.51758,1595629369436
Fix,GT,37.6083493,-122.3894531,,30.744808,0.1,130.64178,1595629370436
Fix,GT,37.6081739,-122.3891843,,30.599005,0.1,130.76062,1595629371436
Fix,GT,37.6079992,-122.3889174,,30.502682,0.1,130.81384,1595629372436
Fix,GT,37.607824,-122.3886498,,30.72255,0.1,130.77716,1595629373436
Fix,GT,37.6076474,-122.3883797,,30.990376,0.1,130.71817,1595629374436
Fix,GT,37.6074704,-122.3881079,,31.04303,0.1,130.6131,1595629375436
Fix,GT,37.6072934,-122.3878358,,31.004177,0.1,130.62897,1595629376436
Fix,GT,37.6071162,-122.3875648,,30.92247,0.1,130.91147,1595629377436
Fix,GT,37.606939,-122.3872957,,30.776285,0.1,130.97955,1595629378436
Fix,GT,37.6067624,-122.387027,,30.748978,0.1,130.81781,1595629379436
Fix,GT,37.6065861,-122.3867576,,30.878506,0.1,130.78296,1595629380436
Fix,GT,37.6064088,-122.3864872,,30.985744,0.1,130.86359,1595629381436
Fix,GT,37.6062311,-122.3862166,,30.980621,0.1,130.77917,1595629382436
Fix,GT,37.606054,-122.3859451,,31.05907,0.1,130.58575,1595629383436
Fix,GT,37.6058765,-122.3856721,,31.22303,0.1,130.6452,1595629384436
Fix,GT,37.6056975,-122.3853979,,31.406574,0.1,130.81384,1595629385436
Fix,GT,37.605517,-122.3851219,,31.673748,0.1,130.77618,1595629386436
Fix,GT,37.6053358,-122.3848445,,31.666243,0.1,130.7472,1595629387436
Fix,GT,37.6051555,-122.3845689,,31.365124,0.1,130.8281,1595629388436
Fix,GT,37.6049769,-122.3842961,,31.010246,0.1,130.80972,1595629389436
Fix,GT,37.6048004,-122.3840264,,30.705524,0.1,130.80487,1595629390436
Fix,GT,37.604625,-122.3837579,,30.722088,0.1,130.63242,1595629391436
Fix,GT,37.6044493,-122.3834872,,30.987349,0.1,130.39835,1595629392436
Fix,GT,37.6042731,-122.3832135,,31.181145,0.1,130.29712,1595629393436
Fix,GT,37.6040962,-122.382938,,31.34819,0.1,130.21674,1595629394436
Fix,GT,37.6039185,-122.3826607,,31.508966,0.1,130.2489,1595629395436
Fix,GT,37.6037396,-122.3823832,,31.505692,0.1,130.4881,1595629396436
Fix,GT,37.6035606,-122.3821083,,31.230213,0.1,130.85956,1595629397436
Fix,GT,37.6033818,-122.381837,,31.005154,0.1,131.0292,1595629398436
Fix,GT,37.6032036,-122.3815667,,31.016048,0.1,130.9253,1595629399436
Fix,GT,37.6030256,-122.3812955,,31.038717,0.1,130.75537,1595629400436
Fix,GT,37.6028491,-122.3810266,,30.260815,0.1,131.06729,1595629401436
Fix,GT,37.6026775,-122.3807693,,28.895123,0.1,131.82507,1595629402436
Fix,GT,37.6025097,-122.3805251,,28.426708,0.1,132.47925,1595629403436
Fix,GT,37.6023392,-122.3802791,,29.29596,0.1,132.19171,1595629404436
Fix,GT,37.6021639,-122.3800204,,30.714973,0.1,131.3429,1595629405436
Fix,GT,37.6019835,-122.3797482,,31.815416,0.1,130.95117,1595629406436
Fix,GT,37.6017994,-122.3794671,,32.392857,0.1,130.72882,1595629407436
Fix,GT,37.601614,-122.3791828,,32.483185,0.1,130.6525,1595629408436
Fix,GT,37.6014292,-122.3788993,,32.229797,0.1,130.68262,1595629409436
Fix,GT,37.601246,-122.3786186,,31.846561,0.1,130.77899,1595629410436
Fix,GT,37.6010648,-122.3783419,,31.399887,0.1,130.74243,1595629411436
Fix,GT,37.6008874,-122.3780678,,31.02029,0.1,130.16058,1595629412436
Fix,GT,37.6007144,-122.3777929,,30.960583,0.1,129.27313,1595629413436
Fix,GT,37.6005435,-122.3775146,,31.135118,0.1,128.88568,1595629414436
Fix,GT,37.6003722,-122.3772353,,31.114223,0.1,129.22421,1595629415436
Fix,GT,37.6001987,-122.376958,,31.242666,0.1,129.88013,1595629416436
Fix,GT,37.6000213,-122.3766806,,31.693163,0.1,130.40384,1595629417436
Fix,GT,37.5998398,-122.3764003,,32.041946,0.1,130.45172,1595629418436
Fix,GT,37.5996588,-122.3761174,,31.974422,0.1,129.6944,1595629419436
Fix,GT,37.5994827,-122.3758332,,31.646534,0.1,128.88086,1595629420436
Fix,GT,37.5993099,-122.3755509,,31.29356,0.1,129.08142,1595629421436
Fix,GT,37.5991369,-122.3752726,,31.130526,0.1,129.67358,1595629422436
Fix,GT,37.5989622,-122.3749953,,31.447386,0.1,129.67078,1595629423436
Fix,GT,37.5987852,-122.3747141,,31.93599,0.1,129.78247,1595629424436
Fix,GT,37.5986048,-122.3744301,,32.22171,0.1,130.19965,1595629425436
Fix,GT,37.5984215,-122.3741452,,32.47499,0.1,130.42532,1595629426436
Fix,GT,37.5982368,-122.3738596,,32.499924,0.1,130.47672,1595629427436
Fix,GT,37.5980528,-122.3735751,,32.233597,0.1,130.4002,1595629428436
Fix,GT,37.5978707,-122.3732925,,31.994267,0.1,130.41785,1595629429436
Fix,GT,37.5976895,-122.3730122,,31.795296,0.1,130.6189,1595629430436
Fix,GT,37.5975088,-122.3727345,,31.563332,0.1,130.60999,1595629431436
Fix,GT,37.5973293,-122.372458,,31.504173,0.1,130.54059,1595629432436
Fix,GT,37.5971494,-122.3721809,,31.679285,0.1,130.60443,1595629433436
Fix,GT,37.5969683,-122.3719019,,31.905178,0.1,130.5834,1595629434436
Fix,GT,37.5967857,-122.371621,,32.153225,0.1,130.60773,1595629435436
Fix,GT,37.5966016,-122.3713383,,32.227856,0.1,130.73871,1595629436436
Fix,GT,37.596418,-122.3710575,,31.887585,0.1,130.8479,1595629437436
Fix,GT,37.5962371,-122.3707813,,31.308636,0.1,130.80548,1595629438436
Fix,GT,37.5960595,-122.3705102,,30.708553,0.1,130.88245,1595629439436
Fix,GT,37.5958845,-122.370244,,30.269222,0.1,131.00934,1595629440436
Fix,GT,37.5957129,-122.3699832,,29.52784,0.1,130.94696,1595629441436
Fix,GT,37.5955475,-122.3697311,,28.161114,0.1,130.82983,1595629442436
Fix,GT,37.5953909,-122.3694921,,26.583347,0.1,130.8786,1595629443436
Fix,GT,37.595242,-122.3692654,,25.440006,0.1,130.9754,1595629444436
Fix,GT,37.5950976,-122.369046,,24.870935,0.1,130.91916,1595629445436
Fix,GT,37.5949563,-122.3688301,,24.48413,0.1,130.69629,1595629446436
Fix,GT,37.5948176,-122.3686173,,24.088661,0.1,130.7019,1595629447436
Fix,GT,37.594681,-122.3684085,,23.730309,0.1,130.86649,1595629448436
Fix,GT,37.5945457,-122.3682021,,23.533125,0.1,130.76404,1595629449436
Fix,GT,37.5944115,-122.3679952,,23.665531,0.1,130.39484,1595629450436
Fix,GT,37.5942764,-122.3677847,,24.154312,0.1,130.26129,1595629451436
Fix,GT,37.5941368,-122.3675686,,25.024128,0.1,130.58301,1595629452436
Fix,GT,37.5939907,-122.3673446,,26.137775,0.1,130.76248,1595629453436
Fix,GT,37.5938388,-122.3671115,,27.026073,0.1,130.69452,1595629454436
Fix,GT,37.5936829,-122.3668718,,27.639963,0.1,130.66388,1595629455436
Fix,GT,37.5935238,-122.3666279,,28.080097,0.1,130.86188,1595629456436
Fix,GT,37.5933618,-122.3663812,,28.418858,0.1,130.97461,1595629457436
Fix,GT,37.5931975,-122.3661314,,28.825073,0.1,130.88898,1595629458436
Fix,GT,37.5930315,-122.3658777,,29.17839,0.1,130.8034,1595629459436
Fix,GT,37.5928636,-122.3656209,,29.475739,0.1,130.7331,1595629460436
Fix,GT,37.5926951,-122.3653622,,29.564323,0.1,130.66232,1595629461436
Fix,GT,37.592526,-122.3651034,,29.635067,0.1,130.95905,1595629462436
Fix,GT,37.5923544,-122.3648443,,29.924229,0.1,131.18634,1595629463436
Fix,GT,37.592181,-122.3645815,,30.42012,0.1,130.92169,1595629464436
Fix,GT,37.5920052,-122.364313,,31.000166,0.1,130.78143,1595629465436
Fix,GT,37.5918261,-122.3640392,,31.602552,0.1,130.83533,1595629466436
Fix,GT,37.5916435,-122.3637607,,32.113113,0.1,130.85901,1595629467436
Fix,GT,37.5914586,-122.3634779,,32.527885,0.1,130.77411,1595629468436
Fix,GT,37.5912715,-122.3631911,,32.998745,0.1,130.82019,1595629469436
Fix,GT,37.5910808,-122.3629007,,33.512505,0.1,131.00214,1595629470436
Fix,GT,37.5908865,-122.3626064,,34.043346,0.1,131.15198,1595629471436
Fix,GT,37.5906887,-122.3623076,,34.567352,0.1,131.0951,1595629472436
Fix,GT,37.5904888,-122.3620041,,34.961266,0.1,130.90405,1595629473436
Fix,GT,37.590288,-122.3616974,,35.15678,0.1,130.81021,1595629474436
Fix,GT,37.5900868,-122.3613899,,35.13434,0.1,130.7644,1595629475436
Fix,GT,37.5898865,-122.3610827,,35.034214,0.1,130.57117,1595629476436
Fix,GT,37.5896881,-122.3607738,,35.088993,0.1,130.00812,1595629477436
Fix,GT,37.5894927,-122.3604616,,34.98628,0.1,129.16272,1595629478436
Fix,GT,37.5893027,-122.3601474,,34.766815,0.1,127.91937,1595629479436
Fix,GT,37.5891194,-122.359828,,34.83704,0.1,126.33441,1595629480436
Fix,GT,37.5889427,-122.3595003,,35.05689,0.1,124.61902,1595629481436
Fix,GT,37.5887738,-122.3591646,,35.084297,0.1,122.662415,1595629482436
Fix,GT,37.5886148,-122.3588227,,34.865486,0.1,120.78854,1595629483436
Fix,GT,37.5884646,-122.3584778,,34.579887,0.1,119.532135,1595629484436
Fix,GT,37.5883202,-122.3581324,,34.380985,0.1,118.52756,1595629485436
Fix,GT,37.5881823,-122.3577844,,34.31864,0.1,117.052155,1595629486436
Fix,GT,37.5880528,-122.3574309,,34.424088,0.1,114.93271,1595629487436
Fix,GT,37.5879337,-122.3570701,,34.575645,0.1,112.67206,1595629488436
Fix,GT,37.5878245,-122.3567037,,34.49651,0.1,111.20007,1595629489436
Fix,GT,37.5877227,-122.3563368,,34.125538,0.1,109.93149,1595629490436
Fix,GT,37.5876292,-122.355971,,33.721706,0.1,108.172485,1595629491436
Fix,GT,37.587546,-122.3556068,,33.246315,0.1,106.49448,1595629492436
Fix,GT,37.5874723,-122.3552451,,32.723248,0.1,104.933105,1595629493436
Fix,GT,37.5874072,-122.3548862,,32.32493,0.1,103.41608,1595629494436
Fix,GT,37.5873502,-122.3545292,,32.006405,0.1,101.8284,1595629495436
Fix,GT,37.5873018,-122.3541724,,31.988934,0.1,100.15204,1595629496436
Fix,GT,37.5872613,-122.3538112,,32.487305,0.1,98.612976,1595629497436
Fix,GT,37.5872276,-122.3534417,,33.183517,0.1,97.06549,1595629498436
Fix,GT,37.587202,-122.3530642,,33.7062,0.1,95.321686,1595629499436
Fix,GT,37.5871846,-122.3526813,,34.01035,0.1,93.94327,1595629500436
Fix,GT,37.5871727,-122.3522959,,34.055557,0.1,93.07312,1595629501436
Fix,GT,37.5871645,-122.3519109,,33.99633,0.1,92.74963,1595629502436
Fix,GT,37.5871564,-122.3515255,,34.11912,0.1,93.082275,1595629503436
Fix,GT,37.5871464,-122.3511379,,34.386795,0.1,93.2045,1595629504436
Fix,GT,37.5871365,-122.3507475,,34.595333,0.1,93.04645,1595629505436
Fix,GT,37.587127,-122.3503556,,34.65693,0.1,93.11801,1595629506436
Fix,GT,37.5871171,-122.3499635,,34.600067,0.1,93.18359,1595629507436
Fix,GT,37.587107,-122.3495723,,34.55649,0.1,93.17334,1595629508436
Fix,GT,37.5870972,-122.3491815,,34.49026,0.1,93.16321,1595629509436
Fix,GT,37.5870872,-122.3487921,,34.34042,0.1,93.25299,1595629510436
Fix,GT,37.5870765,-122.348405,,34.070267,0.1,93.37714,1595629511436
Fix,GT,37.5870657,-122.3480213,,33.753136,0.1,93.36633,1595629512436
Fix,GT,37.5870555,-122.3476405,,33.587357,0.1,93.2121,1595629513436
Fix,GT,37.5870459,-122.3472601,,33.64771,0.1,93.09708,1595629514436
Fix,GT,37.5870364,-122.3468785,,33.80457,0.1,93.161835,1595629515436
Fix,GT,37.5870265,-122.3464953,,33.964798,0.1,93.28757,1595629516436
Fix,GT,37.5870157,-122.34611,,34.13459,0.1,93.34613,1595629517436
Fix,GT,37.5870051,-122.3457226,,34.315315,0.1,93.26364,1595629518436
Fix,GT,37.5869947,-122.3453338,,34.436214,0.1,93.17136,1595629519436
Fix,GT,37.5869848,-122.3449434,,34.586445,0.1,93.11835,1595629520436
Fix,GT,37.586975,-122.3445518,,34.610535,0.1,93.17157,1595629521436
Fix,GT,37.5869647,-122.3441606,,34.535183,0.1,93.229645,1595629522436
Fix,GT,37.5869545,-122.3437695,,34.591232,0.1,93.09979,1595629523436
Fix,GT,37.5869451,-122.3433771,,34.793716,0.1,93.017395,1595629524436
Fix,GT,37.5869353,-122.3429824,,34.97289,0.1,93.186005,1595629525436
Fix,GT,37.5869247,-122.3425856,,35.09609,0.1,93.33148,1595629526436
Fix,GT,37.5869134,-122.342189,,34.950554,0.1,93.388,1595629527436
Fix,GT,37.5869024,-122.3417958,,34.542282,0.1,93.249115,1595629528436
Fix,GT,37.5868923,-122.3414074,,34.11907,0.1,93.065186,1595629529436
Fix,GT,37.5868832,-122.3410227,,33.92827,0.1,93.0267,1595629530436
Fix,GT,37.5868743,-122.3406381,,34.05464,0.1,92.95929,1595629531436
Fix,GT,37.586865,-122.3402523,,34.06648,0.1,93.14804,1595629532436
Fix,GT,37.5868543,-122.3398686,,33.752884,0.1,93.5137,1595629533436
Fix,GT,37.5868426,-122.3394895,,33.191563,0.1,93.546936,1595629534436
Fix,GT,37.5868316,-122.3391187,,32.339615,0.1,93.39444,1595629535436
Fix,GT,37.5868213,-122.338757,,31.689148,0.1,93.3309,1595629536436
Fix,GT,37.5868117,-122.3384008,,31.296865,0.1,93.2475,1595629537436
Fix,GT,37.5868027,-122.3380485,,30.954529,0.1,93.17276,1595629538436
Fix,GT,37.5867938,-122.3376997,,30.689621,0.1,93.168,1595629539436
Fix,GT,37.586785,-122.3373538,,30.451166,0.1,93.19037,1595629540436
Fix,GT,37.5867762,-122.3370099,,30.376575,0.1,93.13287,1595629541436
Fix,GT,37.5867679,-122.3366651,,30.609379,0.1,92.99597,1595629542436
Fix,GT,37.58676,-122.3363169,,30.936092,0.1,92.94101,1595629543436
Fix,GT,37.5867518,-122.3359648,,31.28462,0.1,93.077545,1595629544436
Fix,GT,37.5867429,-122.3356081,,31.768196,0.1,93.147644,1595629545436
Fix,GT,37.5867336,-122.3352461,,32.248497,0.1,93.24173,1595629546436
Fix,GT,37.5867235,-122.3348788,,32.646626,0.1,93.44946,1595629547436
Fix,GT,37.5867119,-122.3345073,,32.97395,0.1,93.716736,1595629548436
Fix,GT,37.5866968,-122.334134,,33.017426,0.1,94.898926,1595629549436
Fix,GT,37.586673,-122.3337628,,32.820534,0.1,97.15369,1595629550436
Fix,GT,37.5866372,-122.333394,,32.919865,0.1,99.588165,1595629551436
Fix,GT,37.5865877,-122.333026,,33.042862,0.1,102.40231,1595629552436
Fix,GT,37.5865226,-122.3326623,,32.871086,0.1,105.63483,1595629553436
Fix,GT,37.5864423,-122.332305,,32.802338,0.1,108.800446,1595629554436
Fix,GT,37.5863464,-122.331954,,32.797615,0.1,111.94437,1595629555436
Fix,GT,37.5862354,-122.3316117,,32.483963,0.1,115.231384,1595629556436
Fix,GT,37.5861109,-122.3312823,,31.919231,0.1,118.53357,1595629557436
Fix,GT,37.5859741,-122.3309684,,31.400875,0.1,121.76013,1595629558436
Fix,GT,37.5858261,-122.3306694,,30.854084,0.1,124.736786,1595629559436
Fix,GT,37.5856688,-122.3303858,,30.286718,0.1,127.61453,1595629560436
Fix,GT,37.5855032,-122.3301168,,29.852219,0.1,130.45828,1595629561436
Fix,GT,37.5853299,-122.3298616,,29.46732,0.1,133.30432,1595629562436
Fix,GT,37.585149,-122.3296208,,29.082111,0.1,136.13336,1595629563436
Fix,GT,37.5849613,-122.3293938,,28.828518,0.1,138.53638,1595629564436
Fix,GT,37.584768,-122.329176,,28.900957,0.1,140.01703,1595629565436
Fix,GT,37.5845707,-122.3289596,,29.277578,0.1,140.26587,1595629566436
Fix,GT,37.5843704,-122.3287391,,29.781483,0.1,140.0484,1595629567436
Fix,GT,37.5841678,-122.3285161,,29.964409,0.1,140.29071,1595629568436
Fix,GT,37.5839643,-122.3282945,,29.8368,0.1,140.5954,1595629569436
Fix,GT,37.5837605,-122.3280726,,30.124653,0.1,140.31866,1595629570436
Fix,GT,37.5835537,-122.327846,,30.794891,0.1,140.27612,1595629571436
Fix,GT,37.5833418,-122.3276146,,31.488882,0.1,140.4176,1595629572436
Fix,GT,37.5831252,-122.327379,,32.07954,0.1,140.51862,1595629573436
Fix,GT,37.5829052,-122.3271402,,32.43121,0.1,140.61053,1595629574436
Fix,GT,37.5826833,-122.3269002,,32.55893,0.1,140.68365,1595629575436
Fix,GT,37.5824608,-122.3266597,,32.57789,0.1,140.64636,1595629576436
Fix,GT,37.5822382,-122.3264184,,32.709175,0.1,140.48376,1595629577436
Fix,GT,37.5820149,-122.3261752,,32.889595,0.1,140.4154,1595629578436
Fix,GT,37.5817899,-122.3259303,,33.202034,0.1,140.47772,1595629579436
Fix,GT,37.5815624,-122.3256828,,33.56966,0.1,140.49078,1595629580436
Fix,GT,37.5813334,-122.3254339,,33.594013,0.1,140.57236,1595629581436
Fix,GT,37.5811052,-122.3251865,,33.291813,0.1,140.54391,1595629582436
Fix,GT,37.5808793,-122.3249401,,33.177242,0.1,140.24329,1595629583436
Fix,GT,37.580653,-122.3246918,,33.573574,0.1,140.23706,1595629584436
Fix,GT,37.5804225,-122.3244395,,34.285664,0.1,140.46594,1595629585436
Fix,GT,37.5801865,-122.3241831,,34.947834,0.1,140.556,1595629586436
Fix,GT,37.5799467,-122.3239229,,35.317505,0.1,140.58557,1595629587436
Fix,GT,37.5797052,-122.323662,,35.294914,0.1,140.81006,1595629588436
Fix,GT,37.5794642,-122.3234028,,35.098408,0.1,140.7779,1595629589436
Fix,GT,37.5792255,-122.3231451,,34.760456,0.1,140.61768,1595629590436
Fix,GT,37.5789899,-122.32289,,34.240417,0.1,140.63257,1595629591436
Fix,GT,37.5787583,-122.3226398,,33.54561,0.1,140.65436,1595629592436
Fix,GT,37.5785318,-122.3223947,,32.91566,0.1,140.61267,1595629593436
Fix,GT,37.578308,-122.322152,,32.753567,0.1,140.52643,1595629594436
Fix,GT,37.5780842,-122.321909,,32.938026,0.1,140.53543,1595629595436
Fix,GT,37.5778589,-122.3216643,,33.110123,0.1,140.60553,1595629596436
Fix,GT,37.5776331,-122.3214203,,32.95295,0.1,140.74188,1595629597436
Fix,GT,37.5774089,-122.3211786,,32.605392,0.1,140.6676,1595629598436
Fix,GT,37.5771872,-122.3209383,,32.41571,0.1,140.37567,1595629599436
Fix,GT,37.5769665,-122.3206969,,32.601265,0.1,140.25287,1595629600436
Fix,GT,37.5767449,-122.3204541,,32.53148,0.1,140.34113,1595629601436
Fix,GT,37.5765255,-122.3202153,,31.757896,0.1,140.58887,1595629602436
Fix,GT,37.5763116,-122.3199837,,30.986233,0.1,140.5011,1595629603436
Fix,GT,37.5761029,-122.3197557,,30.476736,0.1,140.24338,1595629604436
Fix,GT,37.5758973,-122.3195299,,30.166471,0.1,140.24124,1595629605436
Fix,GT,37.5756923,-122.3193057,,30.217457,0.1,140.42331,1595629606436
Fix,GT,37.5754855,-122.319081,,30.469677,0.1,140.53119,1595629607436
Fix,GT,37.575277,-122.3188545,,30.690807,0.1,140.49023,1595629608436
Fix,GT,37.5750666,-122.3186252,,31.153725,0.1,140.37573,1595629609436
Fix,GT,37.5748522,-122.3183912,,31.922543,0.1,140.37097,1595629610436
Fix,GT,37.5746323,-122.3181517,,32.706417,0.1,140.50385,1595629611436
Fix,GT,37.5744074,-122.317908,,33.188164,0.1,140.7399,1595629612436
Fix,GT,37.5741793,-122.3176625,,33.449173,0.1,140.77856,1595629613436
Fix,GT,37.5739507,-122.3174162,,33.388855,0.1,140.74954,1595629614436
Fix,GT,37.5737231,-122.3171706,,33.211212,0.1,140.63077,1595629615436
Fix,GT,37.5734968,-122.316925,,33.158222,0.1,140.38806,1595629616436
Fix,GT,37.5732717,-122.3166789,,33.01476,0.1,140.36194,1595629617436
Fix,GT,37.5730482,-122.3164354,,32.68473,0.1,140.50473,1595629618436
Fix,GT,37.5728256,-122.316194,,32.670517,0.1,140.55875,1595629619436
Fix,GT,37.5726021,-122.3159512,,32.935883,0.1,140.4643,1595629620436
Fix,GT,37.5723771,-122.3157066,,33.069305,0.1,140.5329,1595629621436
Fix,GT,37.5721517,-122.3154623,,32.981903,0.1,140.68793,1595629622436
Fix,GT,37.5719272,-122.315219,,32.88192,0.1,140.50385,1595629623436
Fix,GT,37.5717035,-122.3149745,,32.971054,0.1,140.31409,1595629624436
Fix,GT,37.5714792,-122.3147293,,32.995506,0.1,140.52094,1595629625436
Fix,GT,37.5712543,-122.314485,,33.00323,0.1,140.66089,1595629626436
Fix,GT,37.5710284,-122.3142408,,33.15454,0.1,140.65332,1595629627436
Fix,GT,37.5708014,-122.313995,,33.366817,0.1,140.53693,1595629628436
Fix,GT,37.5705738,-122.3137469,,33.519836,0.1,140.3349,1595629629436
Fix,GT,37.5703453,-122.3134968,,33.785454,0.1,140.24585,1595629630436
Fix,GT,37.5701146,-122.3132448,,34.059147,0.1,140.40942,1595629631436
Fix,GT,37.5698816,-122.3129914,,34.335854,0.1,140.5723,1595629632436
Fix,GT,37.5696465,-122.3127366,,34.578987,0.1,140.52069,1595629633436
Fix,GT,37.5694105,-122.31248,,34.711678,0.1,140.47937,1595629634436
Fix,GT,37.5691743,-122.3122229,,34.634666,0.1,140.54974,1595629635436
Fix,GT,37.5689389,-122.3119677,,34.349358,0.1,140.67517,1595629636436
Fix,GT,37.568705,-122.311716,,34.00751,0.1,140.828,1595629637436
Fix,GT,37.5684733,-122.3114668,,33.759773,0.1,140.759,1595629638436
Fix,GT,37.5682429,-122.3112179,,33.711937,0.1,140.56921,1595629639436
Fix,GT,37.568013,-122.3109683,,33.731583,0.1,140.56049,1595629640436
Fix,GT,37.5677833,-122.3107194,,33.586567,0.1,140.6482,1595629641436
Fix,GT,37.5675548,-122.3104722,,33.322224,0.1,140.65967,1595629642436
Fix,GT,37.5673279,-122.3102267,,33.181973,0.1,140.56055,1595629643436
Fix,GT,37.567101,-122.3099801,,33.48504,0.1,140.44067,1595629644436
Fix,GT,37.5668707,-122.3097292,,34.227028,0.1,140.42462,1595629645436
Fix,GT,37.5666353,-122.3094726,,34.966637,0.1,140.38284,1595629646436
Fix,GT,37.5663962,-122.3092112,,35.385918,0.1,140.38037,1595629647436
Fix,GT,37.5661541,-122.3089476,,35.731934,0.1,140.47748,1595629648436
Fix,GT,37.5659091,-122.3086823,,36.090446,0.1,140.66968,1595629649436
Fix,GT,37.5656608,-122.3084146,,36.592346,0.1,140.73596,1595629650436
Fix,GT,37.5654088,-122.3081423,,37.228947,0.1,140.61694,1595629651436
Fix,GT,37.5651525,-122.3078639,,37.965004,0.1,140.49237,1595629652436
Fix,GT,37.5648919,-122.3075801,,38.524193,0.1,140.42279,1595629653436
Fix,GT,37.5646289,-122.3072935,,38.70385,0.1,140.46405,1595629654436
Fix,GT,37.5643653,-122.307007,,38.606384,0.1,140.57861,1595629655436
Fix,GT,37.5641024,-122.306722,,38.493057,0.1,140.69397,1595629656436
Fix,GT,37.5638395,-122.3064383,,38.45533,0.1,140.75891,1595629657436
Fix,GT,37.5635769,-122.3061556,,38.296745,0.1,140.73804,1595629658436
Fix,GT,37.563316,-122.3058732,,38.16944,0.1,140.50427,1595629659436
Fix,GT,37.563056,-122.3055893,,38.339005,0.1,140.26733,1595629660436
Fix,GT,37.5627952,-122.3053033,,38.544037,0.1,140.242,1595629661436
Fix,GT,37.5625327,-122.3050159,,38.757584,0.1,140.36685,1595629662436
Fix,GT,37.5622684,-122.3047276,,38.960693,0.1,140.51093,1595629663436
Fix,GT,37.562002,-122.3044386,,39.17987,0.1,140.62997,1595629664436
Fix,GT,37.5617333,-122.3041487,,39.427467,0.1,140.77106,1595629665436
Fix,GT,37.5614631,-122.3038582,,39.481384,0.1,140.78778,1595629666436
Fix,GT,37.5611934,-122.3035675,,39.413925,0.1,140.72498,1595629667436
Fix,GT,37.5609243,-122.3032779,,39.220947,0.1,140.94202,1595629668436
Fix,GT,37.5606557,-122.3029926,,38.835567,0.1,141.50388,1595629669436
Fix,GT,37.5603868,-122.3027142,,38.56494,0.1,142.37234,1595629670436
Fix,GT,37.5601159,-122.302442,,38.46319,0.1,143.22028,1595629671436
Fix,GT,37.5598427,-122.3021751,,38.34784,0.1,143.91321,1595629672436
Fix,GT,37.5595681,-122.3019138,,38.108166,0.1,144.70297,1595629673436
Fix,GT,37.5592923,-122.3016587,,37.91526,0.1,145.31989,1595629674436
Fix,GT,37.559016,-122.3014081,,37.719704,0.1,145.73654,1595629675436
Fix,GT,37.5587405,-122.3011612,,37.35017,0.1,145.97992,1595629676436
Fix,GT,37.5584682,-122.3009182,,36.748127,0.1,146.0498,1595629677436
Fix,GT,37.5581997,-122.3006797,,36.219044,0.1,146.32306,1595629678436
Fix,GT,37.5579341,-122.3004465,,35.74839,0.1,146.65997,1595629679436
Fix,GT,37.5576713,-122.3002174,,35.284157,0.1,146.61597,1595629680436
Fix,GT,37.5574118,-122.2999901,,34.92144,0.1,146.4513,1595629681436
Fix,GT,37.5571546,-122.2997655,,34.59426,0.1,146.81824,1595629682436
Fix,GT,37.5568983,-122.2995456,,34.387264,0.1,147.10846,1595629683436
Fix,GT,37.5566426,-122.2993247,,34.56574,0.1,146.49438,1595629684436
Fix,GT,37.5563874,-122.2990987,,34.715805,0.1,145.96042,1595629685436
Fix,GT,37.5561344,-122.2988703,,34.42283,0.1,145.45044,1595629686436
Fix,GT,37.5558855,-122.2986419,,34.0434,0.1,145.00842,1595629687436
Fix,GT,37.5556402,-122.2984144,,33.661407,0.1,144.96466,1595629688436
Fix,GT,37.5553973,-122.2981892,,33.33642,0.1,144.96344,1595629689436
Fix,GT,37.555157,-122.2979661,,32.965004,0.1,144.83838,1595629690436
Fix,GT,37.5549203,-122.2977448,,32.556774,0.1,144.64731,1595629691436
Fix,GT,37.5546869,-122.2975249,,32.24244,0.1,144.33575,1595629692436
Fix,GT,37.554456,-122.2973042,,32.253727,0.1,143.85773,1595629693436
Fix,GT,37.5542257,-122.2970803,,32.367973,0.1,143.55157,1595629694436
Fix,GT,37.553996,-122.2968557,,32.1746,0.1,143.55487,1595629695436
Fix,GT,37.5537678,-122.2966335,,31.94057,0.1,143.58524,1595629696436
Fix,GT,37.5535407,-122.2964127,,31.852306,0.1,143.74161,1595629697436
Fix,GT,37.5533128,-122.2961938,,31.842888,0.1,144.21527,1595629698436
Fix,GT,37.5530838,-122.2959779,,31.692724,0.1,144.67874,1595629699436
Fix,GT,37.5528557,-122.2957658,,31.269194,0.1,145.11023,1595629700436
Fix,GT,37.5526302,-122.2955589,,30.70119,0.1,145.38898,1595629701436
Fix,GT,37.5524083,-122.2953563,,30.253513,0.1,145.37506,1595629702436
Fix,GT,37.5521892,-122.2951549,,30.061016,0.1,144.99951,1595629703436
Fix,GT,37.5519719,-122.2949525,,30.022888,0.1,144.61713,1595629704436
Fix,GT,37.5517559,-122.2947497,,29.817907,0.1,144.68347,1595629705436
Fix,GT,37.5515415,-122.2945494,,29.472374,0.1,144.79141,1595629706436
Fix,GT,37.5513296,-122.2943517,,29.118393,0.1,144.76129,1595629707436
Fix,GT,37.5511204,-122.2941564,,28.753157,0.1,144.77649,1595629708436
Fix,GT,37.5509138,-122.2939636,,28.408903,0.1,144.77338,1595629709436
Fix,GT,37.5507096,-122.2937729,,28.091873,0.1,144.7323,1595629710436
Fix,GT,37.5505077,-122.293584,,27.77426,0.1,144.69678,1595629711436
Fix,GT,37.5503079,-122.2933974,,27.463028,0.1,144.78592,1595629712436
Fix,GT,37.5501103,-122.2932135,,27.148249,0.1,144.84741,1595629713436
Fix,GT,37.5499152,-122.2930314,,26.820412,0.1,144.68332,1595629714436
Fix,GT,37.5497227,-122.2928501,,26.617754,0.1,144.35767,1595629715436
Fix,GT,37.549531,-122.2926674,,26.911705,0.1,144.02875,1595629716436
Fix,GT,37.5493361,-122.2924807,,27.51992,0.1,144.03925,1595629717436
Fix,GT,37.5491366,-122.2922908,,27.99651,0.1,144.34637,1595629718436
Fix,GT,37.5489333,-122.2920991,,28.384064,0.1,144.69354,1595629719436
Fix,GT,37.5487273,-122.2919077,,28.410019,0.1,145.03125,1595629720436
Fix,GT,37.5485215,-122.2917184,,28.233395,0.1,145.24915,1595629721436
Fix,GT,37.5483155,-122.2915295,,28.493603,0.1,145.25046,1595629722436
Fix,GT,37.5481058,-122.2913366,,29.311249,0.1,145.1047,1595629723436
Fix,GT,37.5478905,-122.2911381,,29.954483,0.1,145.1665,1595629724436
Fix,GT,37.5476727,-122.2909377,,29.824703,0.1,145.20505,1595629725436
Fix,GT,37.5474573,-122.2907395,,29.408508,0.1,145.10004,1595629726436
Fix,GT,37.5472445,-122.2905435,,29.206657,0.1,145.25494,1595629727436
Fix,GT,37.5470312,-122.2903493,,29.434662,0.1,145.71973,1595629728436
Fix,GT,37.5468119,-122.2901535,,30.387836,0.1,146.19641,1595629729436
Fix,GT,37.5465829,-122.2899516,,31.739346,0.1,146.26111,1595629730436
Fix,GT,37.5463442,-122.2897395,,33.16949,0.1,145.80688,1595629731436
Fix,GT,37.546098,-122.2895165,,34.10488,0.1,145.35248,1595629732436
Fix,GT,37.5458506,-122.2892891,,33.824463,0.1,145.0039,1595629733436
Fix,GT,37.5456079,-122.2890634,,33.22612,0.1,144.82138,1595629734436
Fix,GT,37.5453688,-122.2888401,,32.976704,0.1,144.77277,1595629735436
Fix,GT,37.5451306,-122.2886185,,32.85128,0.1,144.92706,1595629736436
Fix,GT,37.5448935,-122.2883987,,32.52236,0.1,145.04245,1595629737436
Fix,GT,37.5446588,-122.2881819,,32.179146,0.1,145.08514,1595629738436
Fix,GT,37.5444258,-122.2879675,,31.979027,0.1,145.13193,1595629739436
Fix,GT,37.5441925,-122.2877521,,32.397717,0.1,144.94058,1595629740436
Fix,GT,37.5439545,-122.2875304,,33.43654,0.1,144.66968,1595629741436
Fix,GT,37.5437097,-122.2872991,,34.518524,0.1,144.11884,1595629742436
Fix,GT,37.5434603,-122.287058,,35.289284,0.1,143.58395,1595629743436
Fix,GT,37.5432084,-122.2868117,,35.46328,0.1,143.62048,1595629744436
Fix,GT,37.5429559,-122.2865676,,35.17955,0.1,144.05121,1595629745436
Fix,GT,37.5427046,-122.286329,,34.76854,0.1,144.57632,1595629746436
Fix,GT,37.5424544,-122.2860954,,34.498386,0.1,144.97809,1595629747436
Fix,GT,37.5422037,-122.2858634,,34.75596,0.1,145.00916,1595629748436
Fix,GT,37.5419497,-122.2856285,,35.324596,0.1,145.07187,1595629749436
Fix,GT,37.5416922,-122.2853918,,35.418304,0.1,145.36926,1595629750436
Fix,GT,37.541435,-122.2851571,,35.143803,0.1,145.47382,1595629751436
Fix,GT,37.5411796,-122.2849241,,34.860657,0.1,145.28967,1595629752436
Fix,GT,37.5409273,-122.2846909,,34.7516,0.1,144.65726,1595629753436
Fix,GT,37.5406765,-122.2844521,,35.165173,0.1,143.8056,1595629754436
Fix,GT,37.5404247,-122.2842074,,35.486786,0.1,143.67249,1595629755436
Fix,GT,37.5401719,-122.2839634,,35.235634,0.1,144.16797,1595629756436
Fix,GT,37.5399197,-122.283725,,34.854145,0.1,144.7493,1595629757436
Fix,GT,37.5396685,-122.2834912,,34.563606,0.1,144.99359,1595629758436
Fix,GT,37.5394184,-122.2832604,,34.348213,0.1,145.15515,1595629759436
Fix,GT,37.5391696,-122.2830319,,34.039764,0.1,145.28278,1595629760436
Fix,GT,37.5389232,-122.2828061,,33.67245,0.1,145.26141,1595629761436
Fix,GT,37.5386797,-122.2825825,,33.29026,0.1,145.18433,1595629762436
Fix,GT,37.5384392,-122.2823608,,32.918842,0.1,145.05417,1595629763436
Fix,GT,37.5382018,-122.2821408,,32.579224,0.1,144.90973,1595629764436
Fix,GT,37.5379672,-122.2819222,,32.269344,0.1,144.76303,1595629765436
Fix,GT,37.5377349,-122.2817048,,32.06196,0.1,144.6658,1595629766436
Fix,GT,37.5375039,-122.2814884,,31.937824,0.1,144.6654,1595629767436
Fix,GT,37.5372732,-122.2812728,,31.909527,0.1,144.84787,1595629768436
Fix,GT,37.5370419,-122.2810575,,32.002056,0.1,145.04974,1595629769436
Fix,GT,37.5368096,-122.2808426,,32.059944,0.1,145.0755,1595629770436
Fix,GT,37.5365766,-122.2806276,,32.17111,0.1,145.07019,1595629771436
Fix,GT,37.5363423,-122.280411,,32.386986,0.1,145.04144,1595629772436
Fix,GT,37.5361066,-122.2801934,,32.51354,0.1,145.11465,1595629773436
Fix,GT,37.5358704,-122.2799754,,32.5524,0.1,145.11566,1595629774436
Fix,GT,37.5356337,-122.2797572,,32.628242,0.1,145.10516,1595629775436
Fix,GT,37.5353961,-122.2795384,,32.75177,0.1,145.22943,1595629776436
Fix,GT,37.5351571,-122.2793186,,33.037354,0.1,145.13489,1595629777436
Fix,GT,37.5349166,-122.279096,,33.260147,0.1,144.94989,1595629778436
Fix,GT,37.5346753,-122.2788721,,33.309135,0.1,144.99493,1595629779436
Fix,GT,37.5344337,-122.2786484,,33.32034,0.1,145.03558,1595629780436
Fix,GT,37.5341922,-122.2784248,,33.268833,0.1,145.00739,1595629781436
Fix,GT,37.5339519,-122.2782025,,32.940575,0.1,145.05054,1595629782436
Fix,GT,37.5337145,-122.2779832,,32.46788,0.1,145.0935,1595629783436
Fix,GT,37.5334805,-122.2777672,,31.949524,0.1,145.09125,1595629784436
Fix,GT,37.5332509,-122.2775551,,31.297808,0.1,145.02979,1595629785436
Fix,GT,37.5330277,-122.2773478,,30.323013,0.1,144.91183,1595629786436
Fix,GT,37.5328124,-122.2771467,,29.20736,0.1,144.7732,1595629787436
Fix,GT,37.5326034,-122.2769516,,28.707958,0.1,144.84912,1595629788436
Fix,GT,37.5323963,-122.2767599,,28.396326,0.1,145.22574,1595629789436
Fix,GT,37.5321908,-122.2765714,,28.095438,0.1,145.2594,1595629790436
Fix,GT,37.5319881,-122.2763838,,27.794521,0.1,144.8689,1595629791436
Fix,GT,37.531789,-122.2761971,,27.394323,0.1,144.54636,1595629792436
Fix,GT,37.5315934,-122.276012,,26.990498,0.1,144.30182,1595629793436
Fix,GT,37.5314003,-122.2758272,,26.952179,0.1,143.93024,1595629794436
Fix,GT,37.5312069,-122.2756394,,27.379845,0.1,143.43039,1595629795436
Fix,GT,37.5310108,-122.2754452,,28.101833,0.1,142.82019,1595629796436
Fix,GT,37.5308112,-122.2752431,,28.813316,0.1,142.1976,1595629797436
Fix,GT,37.5306087,-122.2750337,,29.400656,0.1,141.77051,1595629798436
Fix,GT,37.530403,-122.2748193,,29.930422,0.1,141.63055,1595629799436
Fix,GT,37.5301942,-122.2746005,,30.430872,0.1,141.33951,1595629800436
Fix,GT,37.5299838,-122.2743761,,30.824276,0.1,140.62909,1595629801436
Fix,GT,37.5297736,-122.2741448,,31.187088,0.1,139.6766,1595629802436
Fix,GT,37.5295642,-122.2739072,,31.443695,0.1,139.04144,1595629803436
Fix,GT,37.5293552,-122.2736678,,31.30271,0.1,139.08844,1595629804436
Fix,GT,37.5291466,-122.2734297,,31.335518,0.1,139.11786,1595629805436
Fix,GT,37.5289367,-122.2731898,,31.71015,0.1,139.01013,1595629806436
Fix,GT,37.5287246,-122.2729469,,31.992477,0.1,139.05133,1595629807436
Fix,GT,37.5285115,-122.2727031,,31.940113,0.1,139.13837,1595629808436
Fix,GT,37.5282992,-122.2724613,,31.644999,0.1,139.31348,1595629809436
Fix,GT,37.5280882,-122.2722233,,31.312658,0.1,139.60944,1595629810436
Fix,GT,37.527879,-122.2719883,,31.015568,0.1,139.5517,1595629811436
Fix,GT,37.5276722,-122.2717534,,30.937023,0.1,139.08276,1595629812436
Fix,GT,37.5274659,-122.2715167,,31.08694,0.1,138.95837,1595629813436
Fix,GT,37.5272584,-122.2712786,,31.230238,0.1,139.0011,1595629814436
Fix,GT,37.5270507,-122.2710403,,31.203087,0.1,138.99847,1595629815436
Fix,GT,37.5268427,-122.270803,,31.218414,0.1,139.22,1595629816436
