MessageType,Provider,LatitudeDegrees,LongitudeDegrees,AltitudeMeters,SpeedMps,AccuracyMeters,BearingDegrees,UnixTimeMillis
Fix,GT,37.6554527,-122.4084406,-27.07599919307232,0.0017785293,0.1,111.30975,1591819462443
Fix,GT,37.6554527,-122.4084406,-27.076,0.002236068,0.1,111.30893,1591819463443
Fix,GT,37.6554527,-122.4084406,-27.076,0.0025747076,0.1,111.30786,1591819464443
Fix,GT,37.6554527,-122.4084406,-27.076,0.0026613604,0.1,111.308044,1591819465443
Fix,GT,37.6554527,-122.4084406,-27.076,0.0021314227,0.1,111.308136,1591819466443
Fix,GT,37.6554527,-122.4084406,-27.076,0.0015567151,0.1,111.3078,1591819467443
Fix,GT,37.6554527,-122.4084406,-27.076,0.001,0.1,111.30734,1591819468443
Fix,GT,37.6554527,-122.4084406,-27.076,0.001,0.1,111.30679,1591819469443
Fix,GT,37.6554527,-122.4084406,-27.076,0.0015479304,0.1,111.306335,1591819470443
Fix,GT,37.6554527,-122.4084406,-27.076,0.0018717523,0.1,111.3056,1591819471443
Fix,GT,37.6554527,-122.4084406,-27.076,0.0017785293,0.1,111.30499,1591819472443
Fix,GT,37.6554527,-122.4084406,-27.076,0.0018717523,0.1,111.30542,1591819473443
Fix,GT,37.6554527,-122.4084406,-27.076,0.001673884,0.1,111.3053,1591819474443
Fix,GT,37.6554527,-122.4084406,-27.076,0.0011134301,0.1,111.30493,1591819475443
Fix,GT,37.6554527,-122.4084406,-27.076,0.000443285,0.1,111.30487,1591819476443
Fix,GT,37.6554527,-122.4084406,-27.076,0.00055671507,0.1,111.30499,1591819477443
Fix,GT,37.6554527,-122.4084406,-27.076,0.00062689965,0.1,111.305084,1591819478443
Fix,GT,37.6554527,-122.4084406,-27.076,0.0012305989,0.1,111.30554,1591819479443
Fix,GT,37.6554527,-122.4084406,-27.076,0.001443285,0.1,111.306274,1591819480443
Fix,GT,37.6554527,-122.4084406,-27.07600080692768,0.0017403299,0.1,111.3064,1591819481443
Fix,GT,37.6554527,-122.4084406,-27.076,0.0017785293,0.1,111.30548,1591819482443
Fix,GT,37.6554527,-122.4084406,-27.076,0.002236068,0.1,111.304474,1591819483443
Fix,GT,37.6554527,-122.4084406,-27.076,0.002236068,0.1,111.30542,1591819484443
Fix,GT,37.6554527,-122.4084406,-27.076,0.0016881377,0.1,111.30496,1591819485443
Fix,GT,37.6554527,-122.4084406,-27.076443284988407,0.001,0.1,111.3035,1591819486443
Fix,GT,37.6554527,-122.4084406,-27.07700080695749,0.0015479305,0.1,111.302185,1591819487443
Fix,GT,37.6554527,-122.4084406,-27.07700080695749,0.0016881377,0.1,111.30145,1591819488443
Fix,GT,37.6554527,-122.4084406,-27.07744409197569,0.0014432851,0.1,111.30267,1591819489443
Fix,GT,37.6554527,-122.4084406,-27.078000806987284,0.0021046456,0.1,111.30237,1591819490443
Fix,GT,37.6554527,-122.4084406,-27.078000806987284,0.0016881377,0.1,111.30228,1591819491443
Fix,GT,37.6554527,-122.4084406,-27.07844409200549,0.0015479305,0.1,111.30179,1591819492443
Fix,GT,37.6554527,-122.4084406,-27.07900080701709,0.0022360682,0.1,111.301605,1591819493443
Fix,GT,37.6554527,-122.4084406,-27.07944409203529,0.0022360682,0.1,111.30142,1591819494443
Fix,GT,37.6554527,-122.4084406,-27.080000807046886,0.0021314227,0.1,111.30109,1591819495443
Fix,GT,37.6554527,-122.4084406,-27.080000807046886,0.0024432852,0.1,111.30115,1591819496443
Fix,GT,37.6554527,-122.4084406,-27.080443285048005,0.0022970445,0.1,111.30081,1591819497443
Fix,GT,37.6554526,-122.4084405,-27.08144328504801,0.0014142136,0.1,111.30054,1591819498443
Fix,GT,37.6554525,-122.4084404,-27.08067014485598,0.0014142136,0.1,111.30081,1591819499443
Fix,GT,37.6554525,-122.4084404,-27.078113429903983,0.0014142136,0.1,111.300354,1591819500443
Fix,GT,37.6554525,-122.4084404,-27.077,0.0014142136,0.1,111.2995,1591819501443
Fix,GT,37.6554525,-122.4084405,-27.07744328504801,0.002385601,0.1,111.2991,1591819502443
Fix,GT,37.6554525,-122.4084405,-27.07844328504801,0.0042675836,0.1,111.29898,1591819503443
Fix,GT,37.6554524,-122.4084405,-27.07988576313853,0.006626129,0.1,111.2984,1591819504443
Fix,GT,37.6554524,-122.4084405,-27.082329048156737,0.014346296,0.1,111.29663,1591819505443
Fix,GT,37.6554521,-122.4084393,-27.087988758534195,0.19508544,0.1,110.86246,1591819506443
Fix,GT,37.6554513,-122.4084341,-27.10541117474437,0.795506,0.1,109.266846,1591819507443
Fix,GT,37.655449,-122.40842,-27.14183359038829,1.7763231,0.1,106.77759,1591819508443
Fix,GT,37.6554447,-122.4083959,-27.200802286088468,2.3663425,0.1,105.22275,1591819509443
Fix,GT,37.65544,-122.4083723,-27.253524600148204,1.8581862,0.1,105.80081,1591819510443
Fix,GT,37.6554361,-122.4083559,-27.29814257264137,1.1590317,0.1,107.09369,1591819511443
Fix,GT,37.6554334,-122.4083448,-27.3439783167243,0.8909248,0.1,107.63965,1591819512443
Fix,GT,37.6554318,-122.4083339,-27.38414257007837,1.4914296,0.1,105.27368,1591819513443
Fix,GT,37.6554354,-122.4083092,-27.44283440005779,3.243997,0.1,90.96411,1591819514443
Fix,GT,37.6554547,-122.408273,-27.43353719139099,4.719367,0.1,62.46405,1591819515443
Fix,GT,37.6554917,-122.4082403,-27.37304173612595,5.647607,0.1,37.536316,1591819516443
Fix,GT,37.6555405,-122.4082123,-27.32108347225189,6.3035464,0.1,26.332123,1591819517443
Fix,GT,37.6555933,-122.4081863,-27.244650621175765,6.1324325,0.1,23.482117,1591819518443
Fix,GT,37.655639,-122.408163,-27.17860888504982,4.6165075,0.1,25.098633,1591819519443
Fix,GT,37.6556675,-122.4081463,-27.12462894579768,2.3942528,0.1,27.331299,1591819520443
Fix,GT,37.6556815,-122.4081379,-27.074370785117143,1.2054107,0.1,28.564514,1591819521443
Fix,GT,37.6556933,-122.4081287,-27.03073194423317,1.9727998,0.1,31.859558,1591819522443
Fix,GT,37.6557113,-122.4081072,-26.9817110773325,3.3657594,0.1,42.21396,1591819523443
Fix,GT,37.6557292,-122.4080691,-26.94448421880603,4.0834246,0.1,60.811035,1591819524443
Fix,GT,37.6557357,-122.4080203,-26.906825313031675,4.548833,0.1,83.06506,1591819525443
Fix,GT,37.6557301,-122.4079622,-26.85164019149542,5.658016,0.1,99.14789,1591819526443
Fix,GT,37.6557181,-122.4078915,-26.764898355007173,7.0071125,0.1,104.190186,1591819527443
Fix,GT,37.6557026,-122.4078101,-26.645384178400043,7.5211277,0.1,105.94449,1591819528443
Fix,GT,37.6556861,-122.4077316,-26.52455886000395,6.480625,0.1,107.25043,1591819529443
Fix,GT,37.6556725,-122.4076713,-26.44916560554504,4.4996886,0.1,108.35611,1591819530443
Fix,GT,37.6556633,-122.4076329,-26.410588020324703,2.6720111,0.1,109.09543,1591819531443
Fix,GT,37.6556578,-122.4076108,-26.387907440185547,1.5149596,0.1,109.578186,1591819532443
Fix,GT,37.6556549,-122.4075993,-26.372793224424125,0.6569694,0.1,109.826965,1591819533443
Fix,GT,37.6556541,-122.4075963,-26.35834993988276,0.03129349,0.1,109.89978,1591819534443
Fix,GT,37.6556541,-122.4075962,-26.34468058013916,0.004596289,0.1,109.90396,1591819535443
Fix,GT,37.655654,-122.407596,-26.331794010162355,0.0038349754,0.1,109.90454,1591819536443
Fix,GT,37.655654,-122.4075958,-26.31646337118745,0.0036252497,0.1,109.904236,1591819537443
Fix,GT,37.6556539,-122.4075955,-26.297246946901083,0.0032684319,0.1,109.90488,1591819538443
Fix,GT,37.6556538,-122.4075954,-26.27480366259813,0.00299848,0.1,109.90512,1591819539443
Fix,GT,37.6556537,-122.4075953,-26.260226860284803,0.0030725636,0.1,109.9046,1591819540443
Fix,GT,37.6556538,-122.4075953,-26.258,0.0032866104,0.1,109.90433,1591819541443
Fix,GT,37.6556538,-122.4075953,-26.2584432849288,0.002236068,0.1,109.90454,1591819542443
Fix,GT,37.6556538,-122.4075953,-26.25944406747818,0.0024986519,0.1,109.9043,1591819543443
Fix,GT,37.6556538,-122.4075953,-26.260444067507983,0.002461198,0.1,109.903625,1591819544443
Fix,GT,37.6556538,-122.4075953,-26.261444067537788,0.0021046456,0.1,109.90375,1591819545443
Fix,GT,37.6556538,-122.4075953,-26.2620007826686,0.0028431392,0.1,109.90381,1591819546443
Fix,GT,37.6556538,-122.4075953,-26.262444067567586,0.0039896956,0.1,109.90347,1591819547443
Fix,GT,37.6556538,-122.4075953,-26.26344406759739,0.0043174163,0.1,109.90369,1591819548443
Fix,GT,37.6556538,-122.4075953,-26.264887352526188,0.0045557134,0.1,109.903046,1591819549443
Fix,GT,37.6556538,-122.4075953,-26.26688735258579,0.0050990195,0.1,109.90222,1591819550443
Fix,GT,37.6556536,-122.4075949,-26.2684432848692,0.06775383,0.1,109.91455,1591819551443
Fix,GT,37.6556533,-122.4075938,-26.2694432848692,0.16173974,0.1,109.943665,1591819552443
Fix,GT,37.6556529,-122.4075925,-26.27,0.10607714,0.1,109.970764,1591819553443
Fix,GT,37.6556527,-122.407592,-26.270443284869195,0.008920163,0.1,109.98117,1591819554443
Fix,GT,37.6556527,-122.407592,-26.271887352734804,0.004381862,0.1,109.97992,1591819555443
Fix,GT,37.6556527,-122.4075921,-26.27344406789541,0.0034090548,0.1,109.9805,1591819556443
Fix,GT,37.6556527,-122.4075921,-26.274000783026217,0.002751703,0.1,109.98059,1591819557443
Fix,GT,37.6556527,-122.4075921,-26.274000783026217,0.0024986519,0.1,109.97986,1591819558443
Fix,GT,37.6556527,-122.4075921,-26.274000783026217,0.0025658435,0.1,109.97977,1591819559443
Fix,GT,37.6556527,-122.4075921,-26.274000783026217,0.0025747076,0.1,109.9794,1591819560443
Fix,GT,37.6556527,-122.4075921,-26.274,0.003443285,0.1,109.97882,1591819561443
Fix,GT,37.6556527,-122.4075921,-26.273556715130805,0.004209291,0.1,109.97894,1591819562443
Fix,GT,37.6556527,-122.4075921,-26.273,0.0038914955,0.1,109.97937,1591819563443
Fix,GT,37.6556527,-122.4075921,-26.273,0.0026470576,0.1,109.97858,1591819564443
Fix,GT,37.6556527,-122.4075921,-26.273,0.0023672292,0.1,109.97797,1591819565443
Fix,GT,37.6556527,-122.4075921,-26.273886569738387,0.0022015276,0.1,109.97772,1591819566443
Fix,GT,37.6556527,-122.407592,-26.27411343026161,0.0014142136,0.1,109.977356,1591819567443
Fix,GT,37.6556527,-122.4075918,-26.27211343026161,0.002189104,0.1,109.97833,1591819568443
Fix,GT,37.6556526,-122.4075915,-26.271,0.0033587741,0.1,109.97836,1591819569443
Fix,GT,37.6556526,-122.4075914,-26.2714432848692,0.0034090546,0.1,109.97745,1591819570443
Fix,GT,37.6556526,-122.4075913,-26.27244328486919,0.0042680856,0.1,109.97742,1591819571443
Fix,GT,37.6556525,-122.4075913,-26.274329854607583,0.006962537,0.1,109.97769,1591819572443
Fix,GT,37.6556525,-122.4075912,-26.27732985460758,0.0102000255,0.1,109.97714,1591819573443
Fix,GT,37.6556526,-122.4075913,-26.280329854607583,0.0128249,0.1,109.9769,1591819574443
Fix,GT,37.6556526,-122.4075914,-26.2824432848692,0.01054579,0.1,109.97702,1591819575443
Fix,GT,37.6556525,-122.4075906,-26.28255671513081,0.31199354,0.1,110.00308,1591819576443
Fix,GT,37.6556498,-122.4075808,-26.27313430261612,1.6995524,0.1,110.372925,1591819577443
Fix,GT,37.6556412,-122.4075534,-26.25003130853176,3.3905175,0.1,112.621185,1591819578443
Fix,GT,37.6556238,-122.4075158,-26.24519555199146,4.141345,0.1,122.19534,1591819579443
Fix,GT,37.6555934,-122.4074838,-26.277061249375343,4.579446,0.1,142.91547,1591819580443
Fix,GT,37.6555517,-122.4074711,-26.30764927303791,4.826702,0.1,170.01697,1591819581443
Fix,GT,37.6555073,-122.4074814,-26.316443284869194,5.153615,0.1,193.1434,1591819582443
Fix,GT,37.6554598,-122.4075048,-26.32586569738388,6.245452,0.1,202.93437,1591819583443
Fix,GT,37.6554006,-122.4075343,-26.3671433711052,7.87628,0.1,203.34016,1591819584443
Fix,GT,37.6553279,-122.4075691,-26.462627032995226,9.25814,0.1,202.54178,1591819585443
Fix,GT,37.6552466,-122.4076066,-26.63562566530705,9.759428,0.1,201.88004,1591819586443
Fix,GT,37.6551651,-122.4076439,-26.87636749625206,9.414747,0.1,201.97987,1591819587443
Fix,GT,37.6550882,-122.4076799,-27.11663528972864,8.707778,0.1,202.52525,1591819588443
Fix,GT,37.6550195,-122.4077128,-27.33020325279236,7.5548964,0.1,202.79283,1591819589443
Fix,GT,37.6549614,-122.4077406,-27.52623373797536,6.263278,0.1,202.7911,1591819590443
Fix,GT,37.6549137,-122.4077634,-27.68374046325684,5.0888085,0.1,202.76466,1591819591443
Fix,GT,37.6548756,-122.4077816,-27.80110162639618,3.944932,0.1,202.97113,1591819592443
Fix,GT,37.6548475,-122.4077954,-27.88604037702084,2.7528062,0.1,203.39482,1591819593443
Fix,GT,37.6548294,-122.4078044,-27.93241197633744,1.5554907,0.1,203.72037,1591819594443
Fix,GT,37.6548209,-122.4078084,-27.947113430261613,0.52674145,0.1,203.86507,1591819595443
Fix,GT,37.654819,-122.4078092,-27.938464989572765,0.027444376,0.1,203.90266,1591819596443
Fix,GT,37.654819,-122.4078088,-27.923681413561106,0.00805562,0.1,203.9044,1591819597443
Fix,GT,37.654819,-122.4078084,-27.91256798300148,0.005503406,0.1,203.9048,1591819598443
Fix,GT,37.654819,-122.4078081,-27.90345455250144,0.0038195606,0.1,203.9052,1591819599443
Fix,GT,37.6548189,-122.4078079,-27.897226860523222,0.0026613604,0.1,203.905,1591819600443
Fix,GT,37.6548189,-122.4078079,-27.895,0.0018717523,0.1,203.90483,1591819601443
Fix,GT,37.654819,-122.4078079,-27.894556715130804,0.0017785293,0.1,203.90555,1591819602443
Fix,GT,37.6548189,-122.4078079,-27.894,0.0012448529,0.1,203.90604,1591819603443
Fix,GT,37.6548189,-122.4078079,-27.894,0.0,0.1,203.90604,1591819604443
Fix,GT,37.6548189,-122.4078079,-27.894,0.0004432849,0.1,203.90605,1591819605443
Fix,GT,37.6548189,-122.4078079,-27.893556715130806,0.001,0.1,203.9066,1591819606443
Fix,GT,37.6548189,-122.4078079,-27.893,0.001,0.1,203.90704,1591819607443
Fix,GT,37.6548189,-122.4078079,-27.893,0.0011836146,0.1,203.90709,1591819608443
Fix,GT,37.6548189,-122.4078079,-27.893,0.0016738839,0.1,203.90756,1591819609443
Fix,GT,37.6548189,-122.4078079,-27.892556715130805,0.00288657,0.1,203.90826,1591819610443
Fix,GT,37.6548189,-122.4078079,-27.892,0.0035567153,0.1,203.9085,1591819611443
Fix,GT,37.6548189,-122.4078078,-27.892,0.0030719354,0.1,203.90898,1591819612443
Fix,GT,37.6548189,-122.4078078,-27.892,0.002751703,0.1,203.9092,1591819613443
Fix,GT,37.6548189,-122.4078078,-27.892,0.0012448529,0.1,203.90927,1591819614443
Fix,GT,37.6548189,-122.4078078,-27.891556715130804,0.0006268995,0.1,203.90977,1591819615443
Fix,GT,37.6548189,-122.4078078,-27.891,0.0014142136,0.1,203.91013,1591819616443
Fix,GT,37.6548189,-122.4078078,-27.891,0.001230599,0.1,203.91078,1591819617443
Fix,GT,37.6548189,-122.4078077,-27.891,0.0011836146,0.1,203.91154,1591819618443
Fix,GT,37.6548189,-122.4078077,-27.891,0.0007873141,0.1,203.91199,1591819619443
Fix,GT,37.6548188,-122.4078077,-27.891,0.0008865698,0.1,203.91255,1591819620443
Fix,GT,37.6548188,-122.4078077,-27.89144328486919,0.002,0.1,203.91277,1591819621443
Fix,GT,37.6548188,-122.4078076,-27.891999168753625,0.0021046454,0.1,203.91286,1591819622443
Fix,GT,37.6548188,-122.4078076,-27.892442453593016,0.004218498,0.1,203.9123,1591819623443
Fix,GT,37.6548188,-122.4078076,-27.8934432848692,0.0041778437,0.1,203.91263,1591819624443
Fix,GT,37.6548188,-122.4078076,-27.893999168694016,0.0014432849,0.1,203.91406,1591819625443
Fix,GT,37.6548188,-122.4078075,-27.89444245353341,0.00251522,0.1,203.91412,1591819626443
Fix,GT,37.6548188,-122.4078075,-27.89544245350361,0.0036411858,0.1,203.9146,1591819627443
Fix,GT,37.6548188,-122.4078074,-27.895555883795023,0.003615741,0.1,203.91534,1591819628443
Fix,GT,37.6548188,-122.4078074,-27.895885738343,0.016442854,0.1,203.91705,1591819629443
Fix,GT,37.6548181,-122.4078078,-27.900545447319743,0.13590467,0.1,203.93266,1591819630443
Fix,GT,37.6548165,-122.4078086,-27.909875301599502,0.16825202,0.1,203.96176,1591819631443
Fix,GT,37.6548156,-122.407809,-27.91910216191411,0.027655248,0.1,203.9767,1591819632443
Fix,GT,37.6548155,-122.407809,-27.924329022347926,0.002017913,0.1,203.97702,1591819633443
Fix,GT,37.6548155,-122.407809,-27.922010436177253,0.001,0.1,203.97748,1591819634443
Fix,GT,37.6548155,-122.407809,-27.912123866438865,0.001,0.1,203.97803,1591819635443
Fix,GT,37.6548155,-122.407809,-27.902010436177253,0.001,0.1,203.97797,1591819636443
Fix,GT,37.6548155,-122.407809,-27.893010436177253,0.0005567152,0.1,203.97818,1591819637443
Fix,GT,37.6548155,-122.407809,-27.884453721046448,0.0004432849,0.1,203.97868,1591819638443
Fix,GT,37.6548155,-122.407809,-27.87689700591564,0.0015479303,0.1,203.97873,1591819639443
Fix,GT,37.6548155,-122.407809,-27.86989617544413,0.0024986519,0.1,203.97873,1591819640443
Fix,GT,37.6548155,-122.407809,-27.862896175652743,0.0024611978,0.1,203.97923,1591819641443
Fix,GT,37.6548155,-122.407809,-27.856782745540144,0.002,0.1,203.97931,1591819642443
Fix,GT,37.6548155,-122.407809,-27.85133946084976,0.0015567152,0.1,203.97964,1591819643443
Fix,GT,37.6548155,-122.407809,-27.845782745867965,0.0014432849,0.1,203.97984,1591819644443
Fix,GT,37.6548155,-122.407809,-27.84078274601698,0.0021046454,0.1,203.97952,1591819645443
Fix,GT,37.6548155,-122.407809,-27.83578274616599,0.0016881378,0.1,203.98021,1591819646443
Fix,GT,37.6548155,-122.407809,-27.8312260311544,0.0011836146,0.1,203.98074,1591819647443
Fix,GT,37.6548155,-122.407809,-27.827226031273604,0.0012305989,0.1,203.98128,1591819648443
Fix,GT,37.6548155,-122.407809,-27.82366931623221,0.0005567152,0.1,203.9821,1591819649443
Fix,GT,37.6548155,-122.407809,-27.82022603148222,0.00044328487,0.1,203.9828,1591819650443
Fix,GT,37.6548155,-122.407809,-27.816669316440823,0.0011836146,0.1,203.98325,1591819651443
Fix,GT,37.6548155,-122.407809,-27.81366931653023,0.0016738838,0.1,203.98326,1591819652443
Fix,GT,37.6548155,-122.407809,-27.810669316619634,0.0021046454,0.1,203.98358,1591819653443
Fix,GT,37.6548155,-122.407809,-27.80767014539242,0.0025747074,0.1,203.98439,1591819654443
Fix,GT,37.6548155,-122.407809,-27.80467014539241,0.0025567152,0.1,203.98462,1591819655443
Fix,GT,37.6548155,-122.407809,-27.80078357565403,0.0017403299,0.1,203.98499,1591819656443
Fix,GT,37.6548155,-122.4078089,-27.78824773287773,0.0014142136,0.1,203.98561,1591819657443
Fix,GT,37.6548154,-122.4078088,-27.76580444800853,0.0016738839,0.1,203.98576,1591819658443
Fix,GT,37.6548154,-122.4078088,-27.74457758748532,0.002443285,0.1,203.986,1591819659443
Fix,GT,37.6548154,-122.4078089,-27.727350726962094,0.0036525757,0.1,203.9869,1591819660443
Fix,GT,37.6548153,-122.4078089,-27.71368058156968,0.035031162,0.1,203.98936,1591819661443
Fix,GT,37.6548148,-122.4078092,-27.70345372104645,0.1338906,0.1,204.00137,1591819662443
Fix,GT,37.6548124,-122.4078105,-27.702546278953555,0.64325315,0.1,204.03041,1591819663443
Fix,GT,37.654801,-122.4078163,-27.732710522413253,2.2835007,0.1,204.105,1591819664443
Fix,GT,37.6547723,-122.4078312,-27.80755534744263,4.6317196,0.1,204.2744,1591819665443
Fix,GT,37.654725,-122.407856,-27.892029940843585,6.6926026,0.1,204.58989,1591819666443
Fix,GT,37.6546617,-122.4078896,-27.95360836225748,8.493797,0.1,204.85428,1591819667443
Fix,GT,37.6545844,-122.4079306,-28.006824788272382,10.102152,0.1,204.69539,1591819668443
Fix,GT,37.6544944,-122.4079773,-28.010073886960747,11.460745,0.1,204.11989,1591819669443
Fix,GT,37.6543937,-122.4080282,-27.946187315285208,12.565265,0.1,203.79794,1591819670443
Fix,GT,37.6542844,-122.408084,-27.87232161536813,13.578995,0.1,203.95168,1591819671443
Fix,GT,37.6541667,-122.4081443,-27.808599287986755,14.6084385,0.1,204.02031,1591819672443
Fix,GT,37.6540404,-122.4082092,-27.77558802199364,15.678682,0.1,204.01799,1591819673443
Fix,GT,37.6539051,-122.4082782,-27.73960889327526,16.681965,0.1,203.89175,1591819674443
Fix,GT,37.6537618,-122.4083506,-27.68119608712196,17.52435,0.1,203.73285,1591819675443
Fix,GT,37.6536127,-122.4084259,-27.621381208002568,18.064247,0.1,203.78918,1591819676443
Fix,GT,37.6534605,-122.4085036,-27.59667014503479,18.362427,0.1,204.08232,1591819677443
Fix,GT,37.6533063,-122.4085832,-27.65262704849244,18.663912,0.1,204.19905,1591819678443
Fix,GT,37.6531494,-122.4086635,-27.81321454489231,18.978436,0.1,203.82414,1591819679443
Fix,GT,37.6529888,-122.408743,-28.08136619204283,19.351246,0.1,202.97563,1591819680443
Fix,GT,37.6528237,-122.4088206,-28.49886938381195,19.822693,0.1,201.87463,1591819681443
Fix,GT,37.6526529,-122.4088959,-29.07421740740537,20.350685,0.1,200.62166,1591819682443
Fix,GT,37.652476,-122.4089668,-29.804183899492024,20.904245,0.1,198.63438,1591819683443
Fix,GT,37.6522923,-122.4090297,-30.633328188300133,21.402023,0.1,195.62498,1591819684443
Fix,GT,37.6521021,-122.4090788,-31.55042036199569,21.769466,0.1,191.34697,1591819685443
Fix,GT,37.6519068,-122.4091078,-32.40275427162647,22.000412,0.1,186.08167,1591819686443
Fix,GT,37.6517087,-122.4091141,-32.96309667566418,22.133934,0.1,181.0044,1591819687443
Fix,GT,37.6515092,-122.4090997,-33.25481220674514,22.316683,0.1,176.70215,1591819688443
Fix,GT,37.6513091,-122.4090674,-33.3206193125248,22.525547,0.1,172.72717,1591819689443
Fix,GT,37.6511121,-122.4090179,-33.16056169718504,21.973783,0.1,168.83679,1591819690443
Fix,GT,37.6509277,-122.4089568,-32.708534707963466,20.197092,0.1,165.55841,1591819691443
Fix,GT,37.650765,-122.4088904,-32.0550904392302,17.858702,0.1,162.35461,1591819692443
Fix,GT,37.6506241,-122.4088224,-31.438769710600376,15.725014,0.1,159.79352,1591819693443
Fix,GT,37.6504996,-122.4087562,-30.924294735670088,14.322602,0.1,158.45148,1591819694443
Fix,GT,37.6503851,-122.4086913,-30.533706308573485,13.608328,0.1,156.91931,1591819695443
Fix,GT,37.6502773,-122.4086236,-30.22334423452616,13.207268,0.1,154.31653,1591819696443
Fix,GT,37.6501749,-122.4085517,-29.959146452099084,12.879717,0.1,151.63748,1591819697443
Fix,GT,37.6500768,-122.4084762,-29.75565101790428,12.746167,0.1,149.92273,1591819698443
Fix,GT,37.6499792,-122.4083989,-29.59837288951873,12.891731,0.1,149.5487,1591819699443
Fix,GT,37.6498796,-122.4083203,-29.502062584877017,13.226101,0.1,149.88184,1591819700443
Fix,GT,37.6497768,-122.4082405,-29.483083015710115,13.613232,0.1,150.19687,1591819701443
Fix,GT,37.6496709,-122.4081585,-29.537339859128,13.964608,0.1,150.06345,1591819702443
Fix,GT,37.6495635,-122.4080737,-29.603959159612657,14.188644,0.1,149.38,1591819703443
Fix,GT,37.6494559,-122.4079862,-29.631536736279728,14.2676935,0.1,148.85187,1591819704443
Fix,GT,37.6493479,-122.4078982,-29.633464146077632,14.295063,0.1,149.03229,1591819705443
Fix,GT,37.6492394,-122.407811,-29.61114471977949,14.241093,0.1,149.3765,1591819706443
Fix,GT,37.6491327,-122.4077251,-29.54801173436642,13.830042,0.1,148.98724,1591819707443
Fix,GT,37.6490307,-122.4076403,-29.40566232132912,13.314568,0.1,147.8428,1591819708443
Fix,GT,37.6489327,-122.4075558,-29.24736157464981,13.082747,0.1,147.14557,1591819709443
Fix,GT,37.6488358,-122.4074717,-29.14320642933249,13.06419,0.1,147.34082,1591819710443
Fix,GT,37.6487381,-122.407389,-29.06729900068045,13.075231,0.1,148.21234,1591819711443
Fix,GT,37.6486398,-122.4073094,-28.90144632399082,12.955547,0.1,149.51794,1591819712443
Fix,GT,37.6485404,-122.4072335,-28.771029132306573,12.944393,0.1,151.02026,1591819713443
Fix,GT,37.6484381,-122.4071595,-29.07508565592766,13.234659,0.1,152.48047,1591819714443
Fix,GT,37.648332,-122.4070878,-29.51217299577593,13.52743,0.1,154.3764,1591819715443
Fix,GT,37.6482205,-122.4070215,-29.75249155408144,13.90206,0.1,158.05853,1591819716443
Fix,GT,37.6481005,-122.4069656,-30.0407171189785,14.472974,0.1,163.79065,1591819717443
Fix,GT,37.6479715,-122.4069247,-30.381160404622555,15.035301,0.1,170.16455,1591819718443
Fix,GT,37.6478348,-122.4068995,-30.68359455358982,15.644018,0.1,175.16382,1591819719443
Fix,GT,37.6476912,-122.4068831,-30.9105541293025,16.327019,0.1,177.09888,1591819720443
Fix,GT,37.6475415,-122.4068683,-31.04637028121948,16.992264,0.1,177.47192,1591819721443
Fix,GT,37.6473861,-122.4068541,-31.0744650708735,17.626425,0.1,177.80347,1591819722443
Fix,GT,37.647225,-122.4068404,-31.028208219826222,18.200548,0.1,178.10461,1591819723443
Fix,GT,37.6470589,-122.4068274,-31.01347420194745,18.713364,0.1,178.3529,1591819724443
Fix,GT,37.6468892,-122.4068141,-31.050784497380256,19.009666,0.1,178.13281,1591819725443
Fix,GT,37.6467183,-122.4067987,-31.07991563463211,18.940247,0.1,177.44458,1591819726443
Fix,GT,37.6465492,-122.406782,-31.15945148691535,18.659168,0.1,177.27393,1591819727443
Fix,GT,37.6463839,-122.4067658,-31.263079907566308,18.148642,0.1,177.34375,1591819728443
Fix,GT,37.6462235,-122.4067485,-31.29021679523587,17.649944,0.1,176.53723,1591819729443
Fix,GT,37.6460665,-122.4067278,-31.21506164905429,17.418884,0.1,175.34167,1591819730443
Fix,GT,37.6459103,-122.406704,-31.16017601060868,17.554018,0.1,174.56879,1591819731443
Fix,GT,37.6457513,-122.4066785,-31.0837848764658,18.06232,0.1,174.36566,1591819732443
Fix,GT,37.6455874,-122.4066512,-31.00040379497409,18.679367,0.1,174.02051,1591819733443
Fix,GT,37.6454178,-122.4066207,-30.96700092288852,19.353928,0.1,173.66724,1591819734443
Fix,GT,37.6452421,-122.4065899,-30.96123821145296,20.001087,0.1,174.31189,1591819735443
Fix,GT,37.6450605,-122.4065628,-30.96729948735237,20.514446,0.1,175.64862,1591819736443
Fix,GT,37.6448751,-122.4065398,-30.95784707918764,20.803577,0.1,176.35156,1591819737443
Fix,GT,37.6446874,-122.4065166,-30.870032602310182,21.085413,0.1,176.07318,1591819738443
Fix,GT,37.6444966,-122.4064923,-30.72785789823532,21.493294,0.1,176.12909,1591819739443
Fix,GT,37.6443024,-122.406469,-30.56285699012876,21.763494,0.1,176.68567,1591819740443
Fix,GT,37.6441063,-122.4064476,-30.44528853663802,21.875837,0.1,177.0409,1591819741443
Fix,GT,37.6439091,-122.4064257,-30.427628418385986,22.16985,0.1,176.5351,1591819742443
Fix,GT,37.6437083,-122.4063995,-30.459299468636512,22.6711,0.1,175.38586,1591819743443
Fix,GT,37.6435031,-122.4063694,-30.47112476912141,23.214153,0.1,175.12415,1591819744443
Fix,GT,37.6432927,-122.4063407,-30.45613429307938,23.742636,0.1,176.11438,1591819745443
Fix,GT,37.6430774,-122.4063168,-30.45120599484444,24.232395,0.1,177.28424,1591819746443
Fix,GT,37.6428576,-122.4062948,-30.42398045766354,24.709667,0.1,177.00879,1591819747443
Fix,GT,37.642634,-122.4062684,-30.337000418931247,25.182814,0.1,175.89136,1591819748443
Fix,GT,37.6424063,-122.4062369,-30.247979557514192,25.670382,0.1,175.60791,1591819749443
Fix,GT,37.6421743,-122.4062054,-30.18360887682438,26.116175,0.1,175.97638,1591819750443
Fix,GT,37.6419386,-122.4061753,-30.136722306251528,26.488132,0.1,176.09839,1591819751443
Fix,GT,37.6416996,-122.4061435,-30.09359844440221,26.851746,0.1,175.39502,1591819752443
Fix,GT,37.6414579,-122.4061063,-30.03709479045868,27.207472,0.1,174.3407,1591819753443
Fix,GT,37.6412136,-122.4060638,-29.99022775280476,27.568407,0.1,173.64691,1591819754443
Fix,GT,37.6409664,-122.4060165,-30.01725772064924,27.95535,0.1,172.60956,1591819755443
Fix,GT,37.6407165,-122.4059619,-30.138668379694224,28.370861,0.1,171.25787,1591819756443
Fix,GT,37.6404639,-122.4058987,-30.25741288855672,28.818996,0.1,169.83789,1591819757443
Fix,GT,37.6402089,-122.4058265,-30.26147548553348,29.210846,0.1,168.40845,1591819758443
Fix,GT,37.6399524,-122.4057458,-30.25143375399709,29.505852,0.1,167.3136,1591819759443
Fix,GT,37.6396949,-122.4056579,-30.23572230911255,29.693241,0.1,166.08795,1591819760443
Fix,GT,37.6394387,-122.4055626,-30.177526748895644,29.563374,0.1,164.6665,1591819761443
Fix,GT,37.6391864,-122.4054614,-30.12824772500992,29.262169,0.1,163.75311,1591819762443
Fix,GT,37.6389367,-122.4053568,-30.098268590927127,29.234238,0.1,163.09943,1591819763443
Fix,GT,37.6386873,-122.4052478,-30.06447458410264,29.390776,0.1,162.23743,1591819764443
Fix,GT,37.6384382,-122.4051324,-30.077040398836136,29.517303,0.1,160.95703,1591819765443
Fix,GT,37.6381906,-122.4050097,-30.152668811321256,29.603832,0.1,159.8595,1591819766443
Fix,GT,37.6379435,-122.4048821,-30.27326592493057,29.70462,0.1,159.27942,1591819767443
Fix,GT,37.6376963,-122.4047517,-30.421504125952723,29.81633,0.1,158.83795,1591819768443
Fix,GT,37.6374488,-122.4046192,-30.53856672629714,29.902857,0.1,158.77985,1591819769443
Fix,GT,37.6372012,-122.404487,-30.59320690515637,29.794445,0.1,158.86963,1591819770443
Fix,GT,37.6369557,-122.4043563,-30.612526328653097,29.331652,0.1,158.98413,1591819771443
Fix,GT,37.6367147,-122.4042299,-30.643844840884206,28.609383,0.1,159.63257,1591819772443
Fix,GT,37.6364784,-122.4041113,-30.684504552602768,27.953655,0.1,160.66577,1591819773443
Fix,GT,37.6362439,-122.4040002,-30.726731411457063,27.648022,0.1,161.75793,1591819774443
Fix,GT,37.6360096,-122.4038955,-30.76806126731634,27.59016,0.1,162.86328,1591819775443
Fix,GT,37.6357734,-122.4037967,-30.8075140683949,27.66757,0.1,164.0622,1591819776443
Fix,GT,37.6355347,-122.4037041,-30.83542242157459,27.79803,0.1,165.28394,1591819777443
Fix,GT,37.6352931,-122.4036171,-30.863731413841247,27.914165,0.1,166.33093,1591819778443
Fix,GT,37.6350502,-122.4035356,-30.890433774232868,27.82996,0.1,167.45178,1591819779443
Fix,GT,37.6348076,-122.4034607,-30.90176363065839,27.631374,0.1,168.72223,1591819780443
Fix,GT,37.6345641,-122.4033948,-30.92185619705916,27.689667,0.1,170.76788,1591819781443
Fix,GT,37.6343168,-122.4033407,-30.962824903070924,28.019968,0.1,173.00421,1591819782443
Fix,GT,37.6340655,-122.4032948,-31.00907170379162,28.340988,0.1,173.86761,1591819783443
Fix,GT,37.6338113,-122.4032494,-31.026670143783093,28.629684,0.1,173.62769,1591819784443
Fix,GT,37.6335549,-122.4032029,-31.028102997839447,28.877407,0.1,173.71399,1591819785443
Fix,GT,37.633296,-122.4031589,-31.008504947096107,29.105549,0.1,174.64539,1591819786443
Fix,GT,37.6330346,-122.4031199,-30.988308070898057,29.306286,0.1,175.51758,1591819787443
Fix,GT,37.6327713,-122.4030851,-30.98226765871048,29.475668,0.1,176.22235,1591819788443
Fix,GT,37.6325062,-122.4030542,-30.939164661854505,29.6136,0.1,176.84277,1591819789443
Fix,GT,37.6322397,-122.4030259,-30.916102998256683,29.759094,0.1,177.11487,1591819790443
Fix,GT,37.6319718,-122.4029981,-30.90803129243851,29.910988,0.1,177.09204,1591819791443
Fix,GT,37.6317027,-122.4029696,-30.8743820104599,30.052591,0.1,176.93176,1591819792443
Fix,GT,37.6314322,-122.4029401,-30.858535852909085,30.209455,0.1,176.77045,1591819793443
Fix,GT,37.6311602,-122.4029095,-30.886618910729883,30.415342,0.1,176.71228,1591819794443
Fix,GT,37.6308863,-122.4028779,-30.93881447836757,30.654396,0.1,176.55804,1591819795443
Fix,GT,37.6306102,-122.402845,-30.96347457635403,30.886677,0.1,176.34949,1591819796443
Fix,GT,37.6303322,-122.4028108,-30.93304172110557,31.106176,0.1,176.25665,1591819797443
Fix,GT,37.6300522,-122.4027766,-30.943586701214315,31.33916,0.1,176.39984,1591819798443
Fix,GT,37.62977,-122.4027435,-30.94831030011177,31.575163,0.1,176.64069,1591819799443
Fix,GT,37.6294859,-122.4027106,-30.85014602386952,31.745098,0.1,176.48389,1591819800443
Fix,GT,37.6292007,-122.4026756,-30.748526727736,31.851936,0.1,176.0362,1591819801443
Fix,GT,37.6289148,-122.402637,-30.673980443537232,31.95795,0.1,175.41809,1591819802443
Fix,GT,37.6286284,-122.4025938,-30.6073924382329,32.078533,0.1,174.56836,1591819803443
Fix,GT,37.6283417,-122.4025442,-30.52802124989033,32.192265,0.1,173.4231,1591819804443
Fix,GT,37.628055,-122.4024871,-30.38465097782016,32.27923,0.1,172.20319,1591819805443
Fix,GT,37.6277686,-122.4024218,-30.264164676368235,32.331917,0.1,170.81873,1591819806443
Fix,GT,37.6274836,-122.4023466,-30.20120639780164,32.336536,0.1,169.00958,1591819807443
Fix,GT,37.6272005,-122.4022604,-30.148793103545906,32.31741,0.1,167.47784,1591819808443
Fix,GT,37.6269192,-122.4021669,-30.19685488566756,32.308754,0.1,166.79248,1591819809443
Fix,GT,37.626638,-122.4020714,-30.356544596105813,32.354733,0.1,166.73846,1591819810443
Fix,GT,37.626356,-122.4019762,-30.52529818105697,32.46514,0.1,166.79053,1591819811443
Fix,GT,37.6260733,-122.4018804,-30.64564799213409,32.49841,0.1,166.62402,1591819812443
Fix,GT,37.6257912,-122.4017836,-30.67741329056025,32.387566,0.1,166.48035,1591819813443
Fix,GT,37.6255103,-122.4016869,-30.66958670943976,32.27491,0.1,166.55933,1591819814443
Fix,GT,37.6252298,-122.4015919,-30.73947236767411,32.205112,0.1,166.82324,1591819815443
Fix,GT,37.6249505,-122.4014974,-30.79584393832088,32.005352,0.1,166.58289,1591819816443
Fix,GT,37.6246745,-122.4014,-30.840937427997588,31.658321,0.1,165.72235,1591819817443
Fix,GT,37.6244014,-122.4013001,-30.897153856515885,31.526737,0.1,165.54956,1591819818443
Fix,GT,37.6241278,-122.4012008,-30.928226857185365,31.72637,0.1,165.87146,1591819819443
Fix,GT,37.6238518,-122.4011021,-30.92201135006547,31.975756,0.1,165.97626,1591819820443
Fix,GT,37.6235736,-122.4010032,-30.92808214259148,32.207962,0.1,166.08392,1591819821443
Fix,GT,37.6232929,-122.4009054,-30.959289065748457,32.449715,0.1,166.54474,1591819822443
Fix,GT,37.6230095,-122.4008089,-30.98233078050613,32.696396,0.1,166.71051,1591819823443
Fix,GT,37.6227242,-122.4007126,-31.00394878140092,32.79754,0.1,166.72906,1591819824443
Fix,GT,37.6224395,-122.4006163,-31.0582568564415,32.576733,0.1,166.7185,1591819825443
Fix,GT,37.6221579,-122.4005211,-31.118937427997587,32.113792,0.1,166.83081,1591819826443
Fix,GT,37.6218807,-122.4004283,-31.173823999404902,31.555965,0.1,167.0,1591819827443
Fix,GT,37.6216083,-122.4003375,-31.21563885688781,31.010954,0.1,166.99878,1591819828443
Fix,GT,37.6213405,-122.400248,-31.244514999628063,30.536102,0.1,166.80432,1591819829443
Fix,GT,37.6210759,-122.4001583,-31.275525428295136,30.342758,0.1,166.70331,1591819830443
Fix,GT,37.6208113,-122.4000689,-31.302411999702453,30.51878,0.1,166.89288,1591819831443
Fix,GT,37.6205444,-122.3999796,-31.32908214259148,30.769371,0.1,166.85596,1591819832443
Fix,GT,37.6202758,-122.3998886,-31.34255671429634,30.969484,0.1,166.67657,1591819833443
Fix,GT,37.6200062,-122.3997968,-31.321165571928024,31.027079,0.1,166.66779,1591819834443
Fix,GT,37.6197368,-122.3997052,-31.263083429336547,30.889568,0.1,166.70715,1591819835443
Fix,GT,37.6194692,-122.3996146,-31.176455928504467,30.623877,0.1,166.794,1591819836443
Fix,GT,37.6192038,-122.399525,-31.0900739261806,30.372524,0.1,166.8183,1591819837443
Fix,GT,37.6189402,-122.3994357,-31.02441420990229,30.234552,0.1,166.75214,1591819838443
Fix,GT,37.6186773,-122.3993473,-31.0959348692894,30.19673,0.1,166.91455,1591819839443
Fix,GT,37.6184142,-122.3992597,-31.373635015428068,30.2022,0.1,167.03711,1591819840443
Fix,GT,37.6181512,-122.3991722,-31.60618386346102,30.185226,0.1,166.92627,1591819841443
Fix,GT,37.6178887,-122.3990842,-31.642536192476747,30.12127,0.1,166.88226,1591819842443
Fix,GT,37.6176268,-122.3989966,-31.488950753211974,30.023079,0.1,166.95782,1591819843443
Fix,GT,37.6173659,-122.398909,-31.288610127329825,29.937145,0.1,166.78375,1591819844443
Fix,GT,37.6171057,-122.3988204,-31.20279399847984,29.925348,0.1,166.59637,1591819845443
Fix,GT,37.6168452,-122.3987306,-31.20209257316589,30.029144,0.1,166.34534,1591819846443
Fix,GT,37.616584,-122.3986378,-31.21809350380301,30.25357,0.1,165.63019,1591819847443
Fix,GT,37.6163222,-122.398538,-31.095345032393933,30.500183,0.1,164.21259,1591819848443
Fix,GT,37.6160608,-122.3984281,-30.86971404582262,30.708462,0.1,162.50745,1591819849443
Fix,GT,37.6158,-122.3983082,-30.759866987049577,30.930527,0.1,160.91284,1591819850443
Fix,GT,37.6155403,-122.3981783,-30.717,31.13841,0.1,159.30157,1591819851443
Fix,GT,37.6152823,-122.3980375,-30.71301042705774,31.331806,0.1,157.27405,1591819852443
Fix,GT,37.6150271,-122.3978841,-30.70445371294021,31.481127,0.1,155.16907,1591819853443
Fix,GT,37.614775,-122.3977194,-30.72438072353601,31.59806,0.1,153.64197,1591819854443
Fix,GT,37.6145251,-122.3975468,-30.890201286673545,31.7329,0.1,152.4751,1591819855443
Fix,GT,37.6142767,-122.3973672,-31.09945152053237,31.875412,0.1,151.33398,1591819856443
Fix,GT,37.6140306,-122.3971797,-31.2004202375114,31.98151,0.1,149.84308,1591819857443
Fix,GT,37.6137877,-122.3969837,-31.31597694814205,32.128593,0.1,148.33765,1591819858443
Fix,GT,37.6135478,-122.3967784,-31.38975135487318,32.3063,0.1,146.61682,1591819859443
Fix,GT,37.6133125,-122.3965627,-31.35988690248132,32.31485,0.1,144.64655,1591819860443
Fix,GT,37.6130837,-122.3963385,-31.301679636031388,32.012302,0.1,143.07996,1591819861443
Fix,GT,37.6128625,-122.3961104,-31.16733272460103,31.496883,0.1,141.74292,1591819862443
Fix,GT,37.6126492,-122.3958803,-30.95602119600773,30.917393,0.1,140.51685,1591819863443
Fix,GT,37.6124438,-122.3956489,-30.83082653999329,30.344711,0.1,139.25882,1591819864443
Fix,GT,37.6122463,-122.3954159,-30.77838072681427,29.8242,0.1,137.8003,1591819865443
Fix,GT,37.6120568,-122.3951793,-30.83160758304596,29.504177,0.1,136.13861,1591819866443
Fix,GT,37.6118738,-122.3949381,-30.885710584640503,29.395313,0.1,134.82413,1591819867443
Fix,GT,37.6116949,-122.394693,-30.96011216449737,29.377075,0.1,133.72284,1591819868443
Fix,GT,37.6115203,-122.3944433,-31.058659379363064,29.322811,0.1,132.46246,1591819869443
Fix,GT,37.6113511,-122.3941897,-31.12132035899162,29.132544,0.1,131.1477,1591819870443
Fix,GT,37.6111867,-122.3939343,-31.16922652307153,28.885221,0.1,130.54193,1591819871443
Fix,GT,37.6110245,-122.3936799,-31.28084361022711,28.69643,0.1,130.58228,1591819872443
Fix,GT,37.6108628,-122.3934272,-31.42027647024393,28.556683,0.1,130.56656,1591819873443
Fix,GT,37.6107018,-122.3931757,-31.520504584074025,28.423689,0.1,130.5126,1591819874443
Fix,GT,37.6105422,-122.3929249,-31.55962844002247,28.286963,0.1,130.28772,1591819875443
Fix,GT,37.6103842,-122.3926745,-31.58509351855516,28.176468,0.1,130.02777,1591819876443
Fix,GT,37.6102275,-122.3924241,-31.566960490018133,28.103617,0.1,129.9784,1591819877443
Fix,GT,37.6100703,-122.3921747,-31.51881484413147,28.106297,0.1,130.34045,1591819878443
Fix,GT,37.6099114,-122.3919261,-31.499670141637328,28.222488,0.1,130.63144,1591819879443
Fix,GT,37.609751,-122.3916768,-31.501545350492,28.410023,0.1,130.7453,1591819880443
Fix,GT,37.6095892,-122.391426,-31.51309163945913,28.617157,0.1,130.81287,1591819881443
Fix,GT,37.6094259,-122.3911735,-31.525989575624465,28.848747,0.1,130.96564,1591819882443
Fix,GT,37.6092608,-122.3909192,-31.52169192928076,29.120289,0.1,130.99872,1591819883443
Fix,GT,37.6090945,-122.3906621,-31.48562019750476,29.382187,0.1,130.85834,1591819884443
Fix,GT,37.6089269,-122.3904026,-31.443918782174585,29.632828,0.1,130.89154,1591819885443
Fix,GT,37.6087577,-122.3901415,-31.42290742015839,29.846634,0.1,131.01205,1591819886443
Fix,GT,37.6085869,-122.3898792,-31.458327690780163,29.973583,0.1,131.17859,1591819887443
Fix,GT,37.608415,-122.3896168,-31.65585161590576,30.04047,0.1,131.34137,1591819888443
Fix,GT,37.6082425,-122.3893546,-31.837989576697343,30.046955,0.1,131.34271,1591819889443
Fix,GT,37.6080704,-122.3890924,-31.80709475630522,29.988949,0.1,131.2168,1591819890443
Fix,GT,37.6078995,-122.3888298,-31.76067108759284,29.943369,0.1,130.83054,1591819891443
Fix,GT,37.6077298,-122.3885663,-31.72841418975592,29.910864,0.1,130.63696,1591819892443
Fix,GT,37.6075604,-122.3883033,-31.62971305513382,29.824394,0.1,130.93353,1591819893443
Fix,GT,37.6073906,-122.3880424,-31.479083659857512,29.705132,0.1,131.10992,1591819894443
Fix,GT,37.6072211,-122.3877833,-31.35973267412185,29.51063,0.1,131.15836,1591819895443
Fix,GT,37.607053,-122.3875267,-31.30760882472992,29.161993,0.1,131.26306,1591819896443
Fix,GT,37.6068868,-122.387274,-31.263825254380706,28.742403,0.1,131.30222,1591819897443
Fix,GT,37.6067231,-122.3870247,-31.224597468137745,28.359226,0.1,131.20612,1591819898443
Fix,GT,37.6065618,-122.3867781,-31.201339350998403,28.058636,0.1,131.12738,1591819899443
Fix,GT,37.6064021,-122.3865331,-31.191793988466262,27.885674,0.1,131.05814,1591819900443
Fix,GT,37.606243,-122.3862891,-31.180010421156886,27.832306,0.1,131.13498,1591819901443
Fix,GT,37.6060834,-122.3860456,-31.178546292305,27.887863,0.1,131.24106,1591819902443
Fix,GT,37.6059232,-122.3858014,-31.20915483683348,28.021973,0.1,131.22699,1591819903443
Fix,GT,37.6057622,-122.3855558,-31.26505183261633,28.197643,0.1,131.20065,1591819904443
Fix,GT,37.6056001,-122.3853084,-31.311731463909148,28.38998,0.1,131.20401,1591819905443
Fix,GT,37.6054372,-122.3850595,-31.257311418592927,28.55199,0.1,131.13385,1591819906443
Fix,GT,37.6052741,-122.3848094,-31.168092585563663,28.53217,0.1,130.95538,1591819907443
Fix,GT,37.6051123,-122.3845597,-31.190740956306456,28.293339,0.1,130.85071,1591819908443
Fix,GT,37.6049523,-122.3843127,-31.254544165819883,27.95455,0.1,130.91742,1591819909443
Fix,GT,37.6047939,-122.3840691,-31.336493258059026,27.60921,0.1,131.0597,1591819910443
Fix,GT,37.6046368,-122.3838284,-31.38550461292267,27.414726,0.1,131.09903,1591819911443
Fix,GT,37.6044804,-122.3835881,-31.358578747749327,27.43872,0.1,130.93903,1591819912443
Fix,GT,37.604324,-122.3833469,-31.23282644128799,27.497593,0.1,130.87274,1591819913443
Fix,GT,37.6041673,-122.3831056,-31.14403218796849,27.46158,0.1,131.02716,1591819914443
Fix,GT,37.6040116,-122.3828656,-31.111269460231068,27.163296,0.1,130.81702,1591819915443
Fix,GT,37.60386,-122.3826303,-31.09963888120651,26.268948,0.1,130.66022,1591819916443
Fix,GT,37.6037139,-122.3824032,-31.137824056148528,25.330395,0.1,130.76697,1591819917443
Fix,GT,37.6035708,-122.3821811,-31.1747627273202,25.222298,0.1,130.70233,1591819918443
Fix,GT,37.6034267,-122.3819587,-31.1811124972105,25.454693,0.1,131.07614,1591819919443
Fix,GT,37.6032796,-122.3817358,-31.172463196069003,25.712418,0.1,131.57587,1591819920443
Fix,GT,37.6031307,-122.3815105,-31.16964930164814,26.016573,0.1,131.34149,1591819921443
Fix,GT,37.6029805,-122.3812821,-31.14608335208893,26.317451,0.1,131.28165,1591819922443
Fix,GT,37.6028286,-122.3810513,-31.127721052050592,26.58083,0.1,131.41696,1591819923443
Fix,GT,37.6026751,-122.380818,-31.188690725773576,26.874546,0.1,131.30707,1591819924443
Fix,GT,37.6025205,-122.380582,-31.251835410654543,27.151937,0.1,131.11407,1591819925443
Fix,GT,37.6023654,-122.3803424,-31.329421272993084,27.40123,0.1,130.55508,1591819926443
Fix,GT,37.6022113,-122.3800981,-31.361640060961246,27.652813,0.1,129.72797,1591819927443
Fix,GT,37.6020585,-122.3798492,-31.33518424627185,27.89315,0.1,129.24133,1591819928443
Fix,GT,37.6019048,-122.3795974,-31.38447243309021,28.144558,0.1,129.42636,1591819929443
Fix,GT,37.6017487,-122.3793444,-31.38543497398496,28.36966,0.1,129.71857,1591819930443
Fix,GT,37.6015908,-122.3790903,-31.333897925436496,28.57537,0.1,129.94159,1591819931443
Fix,GT,37.6014299,-122.3788358,-31.3096088000536,28.790562,0.1,130.70593,1591819932443
Fix,GT,37.601265,-122.3785823,-31.233907638341183,29.020195,0.1,131.4216,1591819933443
Fix,GT,37.6010973,-122.3783282,-31.212668047636747,29.279793,0.1,131.42383,1591819934443
Fix,GT,37.6009284,-122.3780715,-31.22732060372829,29.556618,0.1,131.31546,1591819935443
Fix,GT,37.6007587,-122.377812,-31.202607637763023,29.763273,0.1,131.10828,1591819936443
Fix,GT,37.600589,-122.3775506,-31.22435162508488,29.805136,0.1,130.91425,1591819937443
Fix,GT,37.6004199,-122.377289,-31.18896042057872,29.70874,0.1,130.91473,1591819938443
Fix,GT,37.6002507,-122.3770286,-31.131949072122573,29.675919,0.1,131.20047,1591819939443
Fix,GT,37.60008,-122.3767693,-31.118514121711257,29.793879,0.1,131.57065,1591819940443
Fix,GT,37.5999078,-122.376509,-31.162823149859907,29.954762,0.1,131.36316,1591819941443
Fix,GT,37.5997368,-122.376247,-31.13548609828949,29.854322,0.1,130.89478,1591819942443
Fix,GT,37.5995688,-122.3759866,-30.96802312755585,29.338459,0.1,130.7247,1591819943443
Fix,GT,37.5994045,-122.3757299,-30.78084812182188,28.949305,0.1,130.4545,1591819944443
Fix,GT,37.5992413,-122.3754742,-30.66474396193028,29.020636,0.1,130.46674,1591819945443
Fix,GT,37.5990762,-122.3752172,-30.65060764688253,29.288204,0.1,130.76111,1591819946443
Fix,GT,37.5989089,-122.3749589,-30.69008217984437,29.511833,0.1,131.04706,1591819947443
Fix,GT,37.5987398,-122.3746999,-30.688040744900704,29.657085,0.1,131.05002,1591819948443
Fix,GT,37.5985709,-122.3744395,-30.677751404941084,29.661211,0.1,130.7793,1591819949443
Fix,GT,37.5984037,-122.3741788,-30.71836946767569,29.460014,0.1,130.5286,1591819950443
Fix,GT,37.5982381,-122.3739196,-30.866150751024485,29.283825,0.1,130.56976,1591819951443
Fix,GT,37.5980724,-122.3736614,-31.071719010561704,29.29723,0.1,130.7091,1591819952443
Fix,GT,37.5979062,-122.3734034,-31.19998844885826,29.296642,0.1,130.74261,1591819953443
Fix,GT,37.5977404,-122.3731462,-31.30377201259136,29.121899,0.1,130.7727,1591819954443
Fix,GT,37.5975756,-122.3728909,-31.387040522456168,28.977173,0.1,130.89478,1591819955443
Fix,GT,37.5974099,-122.3726365,-31.436071766614912,29.132854,0.1,131.23901,1591819956443
Fix,GT,37.5972418,-122.372381,-31.412001136422155,29.433773,0.1,131.33075,1591819957443
Fix,GT,37.5970727,-122.3721223,-31.34558795690537,29.726414,0.1,131.0014,1591819958443
Fix,GT,37.5969025,-122.3718602,-31.34374190485477,30.017458,0.1,130.94366,1591819959443
Fix,GT,37.5967305,-122.3715961,-31.33085646677017,30.255228,0.1,131.16791,1591819960443
Fix,GT,37.5965567,-122.3713308,-31.293,30.433495,0.1,131.24951,1591819961443
Fix,GT,37.5963822,-122.371064,-31.29521643626689,30.591913,0.1,131.10785,1591819962443
Fix,GT,37.5962074,-122.3707951,-31.292680552959443,30.746834,0.1,130.961,1591819963443
Fix,GT,37.5960318,-122.3705243,-31.26427892458439,30.93663,0.1,131.03546,1591819964443
Fix,GT,37.5958544,-122.3702525,-31.225917818665504,31.139404,0.1,131.26172,1591819965443
Fix,GT,37.5956751,-122.36998,-31.190278924584387,31.32212,0.1,131.48422,1591819966443
Fix,GT,37.5954937,-122.3697069,-31.141722211837767,31.508099,0.1,131.75519,1591819967443
Fix,GT,37.5953105,-122.3694328,-31.105690967679024,31.702068,0.1,131.88052,1591819968443
Fix,GT,37.5951261,-122.3691571,-31.07360971164704,31.904999,0.1,131.83527,1591819969443
Fix,GT,37.59494,-122.36888,-31.056423383682965,32.145187,0.1,132.16537,1591819970443
Fix,GT,37.5947508,-122.3686024,-31.07054722413421,32.37788,0.1,132.52722,1591819971443
Fix,GT,37.59456,-122.3683237,-31.06835161685944,32.58246,0.1,132.31091,1591819972443
Fix,GT,37.59437,-122.3680415,-31.045372445315124,32.762657,0.1,131.61633,1591819973443
Fix,GT,37.5941816,-122.3677547,-31.036308109521865,32.922794,0.1,131.09518,1591819974443
Fix,GT,37.5939932,-122.3674657,-31.061297694981096,33.05185,0.1,131.11618,1591819975443
Fix,GT,37.5938039,-122.3671765,-31.067360177576543,33.04001,0.1,131.22968,1591819976443
Fix,GT,37.5936155,-122.3668887,-31.042030316263435,32.749744,0.1,131.13092,1591819977443
Fix,GT,37.5934297,-122.3666039,-30.98355691573024,32.31654,0.1,131.0968,1591819978443
Fix,GT,37.5932459,-122.3663227,-30.9086087808609,31.95733,0.1,131.20178,1591819979443
Fix,GT,37.5930639,-122.3660449,-30.83911455011368,31.598454,0.1,131.14996,1591819980443
Fix,GT,37.5928848,-122.3657698,-30.70376498556137,31.219063,0.1,130.84045,1591819981443
Fix,GT,37.5927082,-122.3654962,-30.507693214893344,31.048996,0.1,130.77191,1591819982443
Fix,GT,37.5925312,-122.3652238,-30.406618069648744,31.080559,0.1,131.1755,1591819983443
Fix,GT,37.5923522,-122.3649527,-30.46856691089273,31.160763,0.1,131.638,1591819984443
Fix,GT,37.5921715,-122.364682,-30.550247464656827,31.248821,0.1,131.75775,1591819985443
Fix,GT,37.5919902,-122.3644106,-30.64519539999962,31.33905,0.1,131.73709,1591819986443
Fix,GT,37.5918084,-122.3641385,-30.76209147310257,31.424343,0.1,131.7179,1591819987443
Fix,GT,37.5916268,-122.3638654,-30.833866666704413,31.427176,0.1,131.48016,1591819988443
Fix,GT,37.5914469,-122.3635918,-30.83258887198568,31.2398,0.1,131.15753,1591819989443
Fix,GT,37.5912692,-122.3633197,-30.81301133179665,30.944384,0.1,131.06464,1591819990443
Fix,GT,37.591093,-122.3630501,-30.780959470272062,30.659157,0.1,131.23663,1591819991443
Fix,GT,37.5909175,-122.3627839,-30.72838193035125,30.43153,0.1,131.54611,1591819992443
Fix,GT,37.5907422,-122.3625198,-30.69569096517563,30.370008,0.1,131.53601,1591819993443
Fix,GT,37.5905671,-122.3622548,-30.67868055152893,30.465902,0.1,131.26776,1591819994443
Fix,GT,37.5903924,-122.3619878,-30.638753447055816,30.61285,0.1,130.96964,1591819995443
Fix,GT,37.5902178,-122.3617185,-30.56818723070621,30.760689,0.1,130.84589,1591819996443
Fix,GT,37.5900425,-122.3614475,-30.57987594938278,30.895761,0.1,130.77704,1591819997443
Fix,GT,37.5898678,-122.3611751,-30.636896988391875,30.870102,0.1,130.36127,1591819998443
Fix,GT,37.5896956,-122.3609022,-30.6573808054924,30.63855,0.1,130.01215,1591819999443
Fix,GT,37.5895254,-122.3606309,-30.68578356313705,30.367245,0.1,129.94635,1591820000443
Fix,GT,37.5893574,-122.3603615,-30.72112271404266,30.08678,0.1,129.52142,1591820001443
Fix,GT,37.5891943,-122.3600914,-30.7605766234994,29.842674,0.1,128.3833,1591820002443
Fix,GT,37.5890379,-122.3598183,-30.7495557962358,29.652111,0.1,126.601105,1591820003443
Fix,GT,37.5888889,-122.3595408,-30.75609168109297,29.519018,0.1,124.72357,1591820004443
Fix,GT,37.5887486,-122.359258,-30.729536095708607,29.389389,0.1,122.656006,1591820005443
Fix,GT,37.588616,-122.3589709,-30.67569005131721,29.222303,0.1,121.17618,1591820006443
Fix,GT,37.588489,-122.3586826,-30.63474212151766,29.012417,0.1,120.28369,1591820007443
Fix,GT,37.5883653,-122.3583941,-30.620606742590667,28.939491,0.1,119.878204,1591820008443
Fix,GT,37.588243,-122.3581038,-30.66052455750108,29.129463,0.1,119.36795,1591820009443
Fix,GT,37.588124,-122.3578086,-30.653722206115724,29.35684,0.1,117.57977,1591820010443
Fix,GT,37.5880128,-122.3575061,-30.61370046696067,29.518032,0.1,115.49811,1591820011443
Fix,GT,37.587909,-122.3571978,-30.59478265142441,29.612288,0.1,113.89041,1591820012443
Fix,GT,37.5878116,-122.356886,-30.56495856037736,29.527807,0.1,112.42923,1591820013443
Fix,GT,37.5877209,-122.3565736,-30.508835631370545,29.233484,0.1,111.00171,1591820014443
Fix,GT,37.5876375,-122.3562616,-30.463711792469027,28.949196,0.1,109.57703,1591820015443
Fix,GT,37.5875606,-122.3559497,-30.450865747451783,28.769115,0.1,108.24896,1591820016443
Fix,GT,37.5874897,-122.3556371,-30.461114333033564,28.686722,0.1,106.954834,1591820017443
Fix,GT,37.5874244,-122.3553227,-30.45335159674287,28.731007,0.1,105.64075,1591820018443
Fix,GT,37.5873653,-122.3550053,-30.43790830889344,28.876366,0.1,104.13159,1591820019443
Fix,GT,37.5873125,-122.3546841,-30.43077405646444,29.059006,0.1,102.69708,1591820020443
Fix,GT,37.5872653,-122.3543595,-30.42457844632864,29.206205,0.1,101.36926,1591820021443
Fix,GT,37.5872245,-122.3540329,-30.426412953674795,29.198366,0.1,99.82016,1591820022443
Fix,GT,37.5871906,-122.3537053,-30.43668055081368,29.208603,0.1,98.392395,1591820023443
Fix,GT,37.5871624,-122.3533758,-30.423793975949287,29.337059,0.1,97.17566,1591820024443
Fix,GT,37.5871406,-122.3530444,-30.42043287432194,29.451954,0.1,95.64145,1591820025443
Fix,GT,37.5871255,-122.3527109,-30.41358795189857,29.595211,0.1,94.32803,1591820026443
Fix,GT,37.587115,-122.3523752,-30.39578356283903,29.764877,0.1,93.6405,1591820027443
Fix,GT,37.5871069,-122.3520374,-30.384134251356123,29.934366,0.1,93.22266,1591820028443
Fix,GT,37.5870996,-122.3516979,-30.368567125678062,30.07983,0.1,93.25931,1591820029443
Fix,GT,37.587092,-122.3513566,-30.34659836500883,30.232494,0.1,93.36124,1591820030443
Fix,GT,37.5870836,-122.3510133,-30.32023816755414,30.448305,0.1,93.47171,1591820031443
Fix,GT,37.5870746,-122.3506673,-30.27798119860888,30.70063,0.1,93.556946,1591820032443
Fix,GT,37.5870653,-122.3503186,-30.196321471840143,30.923279,0.1,93.571045,1591820033443
Fix,GT,37.587056,-122.3499675,-30.111321469306944,31.104275,0.1,93.51886,1591820034443
Fix,GT,37.5870469,-122.3496148,-30.02986687231064,31.221344,0.1,93.45636,1591820035443
Fix,GT,37.5870378,-122.3492613,-29.94710413646698,31.238571,0.1,93.51373,1591820036443
Fix,GT,37.5870286,-122.348908,-29.854444412231445,31.188221,0.1,93.44281,1591820037443
Fix,GT,37.58702,-122.3485551,-29.75312496376037,31.16724,0.1,93.35886,1591820038443
Fix,GT,37.5870117,-122.3482024,-29.6508868175149,31.15547,0.1,93.37366,1591820039443
Fix,GT,37.5870033,-122.3478506,-29.553670383632184,31.00858,0.1,93.41974,1591820040443
Fix,GT,37.5869943,-122.3475013,-29.45278557622433,30.698647,0.1,93.58478,1591820041443
Fix,GT,37.5869845,-122.347156,-29.35167214775085,30.342997,0.1,93.810455,1591820042443
Fix,GT,37.5869738,-122.3468147,-29.250784700155258,30.011913,0.1,93.9975,1591820043443
Fix,GT,37.5869625,-122.346476,-29.14257867860794,29.899677,0.1,94.05618,1591820044443
Fix,GT,37.5869514,-122.3461371,-29.02303151768446,30.020378,0.1,93.989655,1591820045443
Fix,GT,37.5869407,-122.3457967,-28.90523840868473,30.137634,0.1,93.905396,1591820046443
Fix,GT,37.5869303,-122.345456,-28.80100114220381,30.052803,0.1,93.76514,1591820047443
Fix,GT,37.586921,-122.3451177,-28.723063349872827,29.7302,0.1,93.45239,1591820048443
Fix,GT,37.5869132,-122.3447832,-28.702309885561466,29.381535,0.1,93.17331,1591820049443
Fix,GT,37.5869062,-122.3444523,-28.749906257867814,29.117777,0.1,93.217285,1591820050443
Fix,GT,37.5868981,-122.3441236,-28.85927577197552,28.999271,0.1,93.62387,1591820051443
Fix,GT,37.5868884,-122.3437953,-29.01846095499396,29.048954,0.1,93.84311,1591820052443
Fix,GT,37.5868786,-122.3434661,-29.1923588026762,29.139233,0.1,93.82709,1591820053443
Fix,GT,37.5868687,-122.3431359,-29.36413281860948,29.224348,0.1,93.77173,1591820054443
Fix,GT,37.5868595,-122.3428045,-29.52483333015442,29.389862,0.1,93.51425,1591820055443
Fix,GT,37.5868514,-122.3424705,-29.6701631911993,29.634125,0.1,93.31329,1591820056443
Fix,GT,37.5868439,-122.3421336,-29.815832439184184,29.898003,0.1,93.26892,1591820057443
Fix,GT,37.5868361,-122.3417937,-29.93678239989281,30.179485,0.1,93.409454,1591820058443
Fix,GT,37.5868274,-122.3414507,-30.038978890150787,30.428936,0.1,93.55704,1591820059443
Fix,GT,37.5868176,-122.3411059,-30.1566368136406,30.502935,0.1,93.93817,1591820060443
Fix,GT,37.5868048,-122.3407613,-30.272761551976203,30.394407,0.1,94.8515,1591820061443
Fix,GT,37.5867884,-122.3404183,-30.37877287146449,30.32657,0.1,95.29843,1591820062443
Fix,GT,37.5867718,-122.3400755,-30.482874971866607,30.359985,0.1,94.910095,1591820063443
Fix,GT,37.5867573,-122.3397321,-30.565606713831425,30.40496,0.1,94.53052,1591820064443
Fix,GT,37.5867446,-122.339388,-30.60020601403713,30.449125,0.1,94.224365,1591820065443
Fix,GT,37.5867329,-122.3390431,-30.599134266853333,30.516811,0.1,94.018036,1591820066443
Fix,GT,37.5867219,-122.3386983,-30.579133355855944,30.41341,0.1,93.8472,1591820067443
Fix,GT,37.586712,-122.3383564,-30.563123847424983,29.990044,0.1,93.6785,1591820068443
Fix,GT,37.586703,-122.3380202,-30.605319146573542,29.447021,0.1,93.515656,1591820069443
Fix,GT,37.5866948,-122.3376898,-30.728503401875493,28.995298,0.1,93.37698,1591820070443
Fix,GT,37.5866871,-122.3373636,-30.897429529577494,28.703087,0.1,93.33621,1591820071443
Fix,GT,37.5866793,-122.3370388,-31.096554290354256,28.776745,0.1,93.55664,1591820072443
Fix,GT,37.5866702,-122.3367112,-31.279801042586566,29.133125,0.1,93.70984,1591820073443
Fix,GT,37.5866611,-122.3363797,-31.444595958411693,29.449196,0.1,93.66156,1591820074443
Fix,GT,37.5866521,-122.3360448,-31.60026703447104,29.743374,0.1,93.632935,1591820075443
Fix,GT,37.5866434,-122.3357066,-31.71968975877762,30.022072,0.1,93.48514,1591820076443
Fix,GT,37.5866355,-122.3353654,-31.76776177492738,30.287472,0.1,93.28912,1591820077443
Fix,GT,37.5866278,-122.3350211,-31.75992731985449,30.550049,0.1,93.35101,1591820078443
Fix,GT,37.586619,-122.3346741,-31.720165546715258,30.758217,0.1,93.832275,1591820079443
Fix,GT,37.5866072,-122.334326,-31.70109352391958,30.730942,0.1,94.57294,1591820080443
Fix,GT,37.5865904,-122.3339802,-31.729060359448194,30.436996,0.1,96.0661,1591820081443
Fix,GT,37.5865645,-122.3336389,-31.81240034019948,30.131565,0.1,98.48926,1591820082443
Fix,GT,37.5865268,-122.3333025,-31.933545042693616,29.84187,0.1,101.01471,1591820083443
Fix,GT,37.5864779,-122.332972,-32.024360838085414,29.501738,0.1,103.52423,1591820084443
Fix,GT,37.5864177,-122.3326488,-32.08805087518692,29.04598,0.1,106.251434,1591820085443
Fix,GT,37.5863468,-122.332336,-32.10769099396467,28.335905,0.1,109.03259,1591820086443
Fix,GT,37.586266,-122.3320366,-32.08092923349142,27.513954,0.1,111.90015,1591820087443
Fix,GT,37.5861759,-122.3317508,-32.05224770927429,26.77822,0.1,114.73297,1591820088443
Fix,GT,37.5860774,-122.3314792,-32.03024675506354,25.930086,0.1,117.62222,1591820089443
Fix,GT,37.5859727,-122.3312227,-32.01755575987697,25.008537,0.1,119.90912,1591820090443
Fix,GT,37.5858641,-122.3309789,-32.004587995290755,24.402958,0.1,121.9451,1591820091443
Fix,GT,37.5857501,-122.3307452,-31.967723232418297,24.000118,0.1,124.42447,1591820092443
Fix,GT,37.5856298,-122.3305221,-31.928145662188527,23.63417,0.1,127.1174,1591820093443
Fix,GT,37.5855031,-122.3303091,-31.903577569365503,23.338617,0.1,129.66281,1591820094443
Fix,GT,37.5853708,-122.3301056,-31.880587996959683,23.036713,0.1,132.05103,1591820095443
Fix,GT,37.5852343,-122.3299118,-31.851700476557017,22.659218,0.1,134.17905,1591820096443
Fix,GT,37.5850948,-122.3297265,-31.80884518945217,22.496513,0.1,135.87054,1591820097443
Fix,GT,37.584951,-122.3295458,-31.749845191210508,22.723942,0.1,137.52283,1591820098443
Fix,GT,37.5848009,-122.3293682,-31.68419685351849,23.021801,0.1,139.2886,1591820099443
Fix,GT,37.5846452,-122.3291936,-31.64432985728979,23.300838,0.1,140.57593,1591820100443
Fix,GT,37.5844856,-122.3290195,-31.65442337206006,23.621033,0.1,140.94434,1591820101443
Fix,GT,37.5843235,-122.3288436,-31.686277713775635,23.950426,0.1,140.9718,1591820102443
Fix,GT,37.5841591,-122.3286649,-31.75466885614395,24.285273,0.1,140.85516,1591820103443
Fix,GT,37.5839934,-122.3284825,-31.83980314207077,24.581356,0.1,140.38684,1591820104443
Fix,GT,37.5838276,-122.328297,-31.91380218973756,24.672264,0.1,139.94006,1591820105443
Fix,GT,37.5836622,-122.3281115,-31.971843903273346,24.505005,0.1,140.16223,1591820106443
Fix,GT,37.5834973,-122.3279287,-31.998762713372702,24.33226,0.1,140.50427,1591820107443
Fix,GT,37.5833319,-122.3277478,-32.06850327581167,24.40039,0.1,140.85095,1591820108443
Fix,GT,37.5831652,-122.3275669,-32.15453585594892,24.369293,0.1,141.01575,1591820109443
Fix,GT,37.5830012,-122.3273893,-32.17685528367758,23.543848,0.1,141.04819,1591820110443
Fix,GT,37.5828439,-122.3272195,-32.2213712387383,22.54626,0.1,141.15796,1591820111443
Fix,GT,37.5826912,-122.3270549,-32.295123524159195,22.17886,0.1,140.98279,1591820112443
Fix,GT,37.5825416,-122.3268917,-32.346103963196285,21.719803,0.1,140.63062,1591820113443
Fix,GT,37.5823965,-122.3267326,-32.366402531832456,20.981377,0.1,140.7077,1591820114443
Fix,GT,37.5822552,-122.3265795,-32.404287171423434,20.556923,0.1,141.1225,1591820115443
Fix,GT,37.5821148,-122.3264289,-32.41314375254512,20.43756,0.1,141.284,1591820116443
Fix,GT,37.5819751,-122.3262787,-32.41118417224288,20.363417,0.1,141.02466,1591820117443
Fix,GT,37.5818368,-122.326128,-32.463132985413075,20.269363,0.1,140.64618,1591820118443
Fix,GT,37.5816998,-122.3259775,-32.52993741834164,20.106882,0.1,140.50711,1591820119443
Fix,GT,37.5815639,-122.3258284,-32.593246414363385,19.946281,0.1,140.6875,1591820120443
Fix,GT,37.5814283,-122.3256808,-32.67223695418239,19.900223,0.1,140.84729,1591820121443
Fix,GT,37.5812924,-122.3255332,-32.71412385988236,19.987156,0.1,140.86432,1591820122443
Fix,GT,37.581156,-122.3253849,-32.687608868598936,20.027203,0.1,140.82031,1591820123443
Fix,GT,37.5810197,-122.3252368,-32.65579303050041,19.976826,0.1,140.93576,1591820124443
Fix,GT,37.580883,-122.3250892,-32.65065873962641,20.071575,0.1,141.18695,1591820125443
Fix,GT,37.5807442,-122.3249406,-32.64513429188728,20.45569,0.1,141.34451,1591820126443
Fix,GT,37.5806018,-122.3247883,-32.612279989153144,21.029747,0.1,141.2492,1591820127443
Fix,GT,37.5804564,-122.3246314,-32.556630707055334,21.499247,0.1,140.90369,1591820128443
Fix,GT,37.5803094,-122.3244707,-32.48066103351116,21.715405,0.1,140.62976,1591820129443
Fix,GT,37.5801618,-122.3243087,-32.396753599047656,21.773663,0.1,140.53033,1591820130443
Fix,GT,37.5800139,-122.3241462,-32.32441331112385,21.832901,0.1,140.64764,1591820131443
Fix,GT,37.5798648,-122.3239841,-32.29043189096451,21.92936,0.1,140.94775,1591820132443
Fix,GT,37.5797145,-122.3238218,-32.30264831724763,22.106356,0.1,141.12997,1591820133443
Fix,GT,37.5795624,-122.3236579,-32.31853584986925,22.38787,0.1,141.07602,1591820134443
Fix,GT,37.5794086,-122.3234911,-32.33376270872355,22.716686,0.1,140.7818,1591820135443
Fix,GT,37.5792532,-122.3233211,-32.34188657057285,23.039228,0.1,140.68521,1591820136443
Fix,GT,37.5790951,-122.3231492,-32.347876138150696,23.352482,0.1,141.01886,1591820137443
Fix,GT,37.578934,-122.3229763,-32.35799053153396,23.674572,0.1,141.37344,1591820138443
Fix,GT,37.5787704,-122.3228015,-32.362557679235934,24.015114,0.1,141.2901,1591820139443
Fix,GT,37.5786053,-122.3226234,-32.358454682409764,24.288483,0.1,140.91058,1591820140443
Fix,GT,37.5784393,-122.3224424,-32.35311439371109,24.480164,0.1,140.73956,1591820141443
Fix,GT,37.5782721,-122.3222599,-32.34490840005874,24.70121,0.1,140.85318,1591820142443
Fix,GT,37.5781028,-122.3220761,-32.31649545001984,24.97082,0.1,140.98108,1591820143443
Fix,GT,37.5779314,-122.3218905,-32.27737158751488,25.246593,0.1,140.99506,1591820144443
Fix,GT,37.5777582,-122.3217029,-32.23417602729798,25.503208,0.1,140.98462,1591820145443
