MessageType,Provider,LatitudeDegrees,LongitudeDegrees,AltitudeMeters,SpeedMps,AccuracyMeters,BearingDegrees,UnixTimeMillis
Fix,GT,37.427336,-122.0699147,,0.0016942844,0.1,0.33047485,1595625720438
Fix,GT,37.427336,-122.0699147,,0.001181555,0.1,0.33096313,1595625721438
Fix,GT,37.427336,-122.0699147,,0.0017744424,0.1,0.33135986,1595625722438
Fix,GT,37.427336,-122.0699147,,0.0018758392,0.1,0.33096313,1595625723438
Fix,GT,37.427336,-122.0699147,,0.0017744424,0.1,0.33068848,1595625724438
Fix,GT,37.427336,-122.0699147,,0.002236068,0.1,0.3312683,1595625725438
Fix,GT,37.427336,-122.0699147,,0.0025709087,0.1,0.3310547,1595625726438
Fix,GT,37.427336,-122.0699147,,0.002561688,0.1,0.3314209,1595625727438
Fix,GT,37.427336,-122.0699147,,0.002,0.1,0.331604,1595625728438
Fix,GT,37.427336,-122.0699147,,0.0017432428,0.1,0.3320923,1595625729438
Fix,GT,37.427336,-122.0699147,,0.00079434656,0.1,0.33215332,1595625730438
Fix,GT,37.427336,-122.0699147,,0.00061986706,0.1,0.33224487,1595625731438
Fix,GT,37.427336,-122.0699147,,0.0014142136,0.1,0.3328247,1595625732438
Fix,GT,37.427336,-122.0699147,,0.0012326587,0.1,0.33319092,1595625733438
Fix,GT,37.427336,-122.0699147,,0.001,0.1,0.33294678,1595625734438
Fix,GT,37.427336,-122.0699147,,0.001181555,0.1,0.33255005,1595625735438
Fix,GT,37.427336,-122.0699147,,0.00079434656,0.1,0.33221436,1595625736438
Fix,GT,37.427336,-122.0699147,,0.0004383122,0.1,0.33236694,1595625737438
Fix,GT,37.427336,-122.0699147,,0.0014383122,0.1,0.33242798,1595625738438
Fix,GT,37.427336,-122.0699147,,0.0021034717,0.1,0.33258057,1595625739438
Fix,GT,37.427336,-122.0699147,,0.0022360682,0.1,0.33258057,1595625740438
Fix,GT,37.427336,-122.0699147,,0.0028363294,0.1,0.3323059,1595625741438
Fix,GT,37.427336,-122.0699147,,0.0042167553,0.1,0.33224487,1595625742438
Fix,GT,37.427336,-122.0699147,,0.00466804,0.1,0.33255005,1595625743438
Fix,GT,37.427336,-122.0699147,,0.0049388167,0.1,0.33285522,1595625744438
Fix,GT,37.427336,-122.0699147,,0.0048555317,0.1,0.3329773,1595625745438
Fix,GT,37.427336,-122.0699147,,0.0026450614,0.1,0.33312988,1595625746438
Fix,GT,37.427336,-122.0699147,,0.001670971,0.1,0.33306885,1595625747438
Fix,GT,37.427336,-122.0699147,,0.0021034717,0.1,0.3330078,1595625748438
Fix,GT,37.427336,-122.0699147,,0.002642037,0.1,0.33328247,1595625749438
Fix,GT,37.427336,-122.0699147,,0.0026528372,0.1,0.33343506,1595625750438
Fix,GT,37.427336,-122.0699147,,0.0011233757,0.1,0.3338623,1595625751438
Fix,GT,37.427336,-122.0699147,,0.00043831218,0.1,0.3345642,1595625752438
Fix,GT,37.427336,-122.0699147,,0.001,0.1,0.33493042,1595625753438
Fix,GT,37.427336,-122.0699147,,0.0014383122,0.1,0.33493042,1595625754438
Fix,GT,37.427336,-122.0699147,,0.0017432428,0.1,0.33499146,1595625755438
Fix,GT,37.427336,-122.0699147,,0.0014142136,0.1,0.33462524,1595625756438
Fix,GT,37.427336,-122.0699147,,0.0014142136,0.1,0.33450317,1595625757438
Fix,GT,37.427336,-122.0699147,,0.0017744425,0.1,0.33468628,1595625758438
Fix,GT,37.4273359,-122.0699147,,0.0043241577,0.1,0.33450317,1595625759438
Fix,GT,37.4273359,-122.0699147,,0.0052467515,0.1,0.33450317,1595625760438
Fix,GT,37.4273359,-122.0699147,,0.002561688,0.1,0.3350525,1595625761438
Fix,GT,37.4273359,-122.0699147,,0.0021034717,0.1,0.3355713,1595625762438
Fix,GT,37.4273359,-122.0699147,,0.0028363294,0.1,0.33520508,1595625763438
Fix,GT,37.4273359,-122.0699147,,0.003985386,0.1,0.33520508,1595625764438
Fix,GT,37.4273359,-122.0699147,,0.0038980092,0.1,0.3356018,1595625765438
Fix,GT,37.427336,-122.0699147,,0.00335657,0.1,0.33563232,1595625766438
Fix,GT,37.4273361,-122.0699147,,0.0036055513,0.1,0.33618164,1595625767438
Fix,GT,37.4273361,-122.0699148,,0.0024635065,0.1,0.33642578,1595625768438
Fix,GT,37.4273359,-122.0699147,,0.0015417837,0.1,0.3361206,1595625769438
Fix,GT,37.4273359,-122.0699147,,0.0021325964,0.1,0.3363037,1595625770438
Fix,GT,37.4273359,-122.0699147,,0.002,0.1,0.33642578,1595625771438
Fix,GT,37.4273359,-122.0699147,,0.0017432427,0.1,0.33633423,1595625772438
Fix,GT,37.4273359,-122.0699147,,0.0012326587,0.1,0.33694458,1595625773438
Fix,GT,37.4273359,-122.0699147,,0.0014383122,0.1,0.3374939,1595625774438
Fix,GT,37.4273359,-122.0699147,,0.0021034717,0.1,0.33813477,1595625775438
Fix,GT,37.4273359,-122.0699147,,0.0018758392,0.1,0.3388672,1595625776438
Fix,GT,37.4273359,-122.0699147,,0.0012326587,0.1,0.33883667,1595625777438
Fix,GT,37.4273359,-122.0699147,,0.001,0.1,0.33859253,1595625778438
Fix,GT,37.4273359,-122.0699147,,0.001,0.1,0.3383484,1595625779438
Fix,GT,37.4273359,-122.0699147,,0.0011815549,0.1,0.33816528,1595625780438
Fix,GT,37.4273359,-122.0699147,,0.0012326587,0.1,0.338562,1595625781438
Fix,GT,37.4273359,-122.0699147,,0.0014383122,0.1,0.3383789,1595625782438
Fix,GT,37.4273359,-122.0699147,,0.002,0.1,0.33807373,1595625783438
Fix,GT,37.4273359,-122.0699147,,0.0024383122,0.1,0.33843994,1595625784438
Fix,GT,37.4273359,-122.0699147,,0.003438312,0.1,0.3383484,1595625785438
Fix,GT,37.4273359,-122.0699147,,0.0032268474,0.1,0.33822632,1595625786438
Fix,GT,37.4273358,-122.0699147,,0.0018758392,0.1,0.3383484,1595625787438
Fix,GT,37.4273357,-122.0699147,,0.0012326587,0.1,0.33847046,1595625788438
Fix,GT,37.4273357,-122.0699147,,0.0011815549,0.1,0.33862305,1595625789438
Fix,GT,37.4273357,-122.0699147,,0.0017744424,0.1,0.33874512,1595625790438
Fix,GT,37.4273357,-122.0699147,,0.002236068,0.1,0.33901978,1595625791438
Fix,GT,37.4273358,-122.0699147,,0.0016942844,0.1,0.33917236,1595625792438
Fix,GT,37.427336,-122.0699147,,0.001,0.1,0.33932495,1595625793438
Fix,GT,37.4273362,-122.0699147,,0.0005616879,0.1,0.33972168,1595625794438
Fix,GT,37.4273363,-122.0699148,,0.00061986694,0.1,0.33963013,1595625795438
Fix,GT,37.4273361,-122.0699148,,0.0012326589,0.1,0.36450195,1595625886438
Fix,GT,37.4273359,-122.0699147,,0.001,0.1,0.3642273,1595625887438
Fix,GT,37.4273359,-122.0699147,,0.0005616879,0.1,0.36413574,1595625888438
Fix,GT,37.4273359,-122.0699147,,0.00043831213,0.1,0.36398315,1595625889438
Fix,GT,37.4273359,-122.0699147,,0.0015417836,0.1,0.36367798,1595625890438
Fix,GT,37.4273359,-122.0699147,,0.002236068,0.1,0.3638916,1595625891438
Fix,GT,37.4273359,-122.0699147,,0.002236068,0.1,0.36419678,1595625892438
Fix,GT,37.4273359,-122.0699147,,0.0016942844,0.1,0.36447144,1595625893438
Fix,GT,37.4273359,-122.0699147,,0.0014383122,0.1,0.36505127,1595625894438
Fix,GT,37.4273358,-122.0699147,,0.0021034717,0.1,0.36538696,1595625895438
Fix,GT,37.4273357,-122.0699147,,0.0026420369,0.1,0.36550903,1595625896438
Fix,GT,37.4273358,-122.0699147,,0.0026528372,0.1,0.3652954,1595625897438
Fix,GT,37.4273359,-122.0699147,,0.0021804112,0.1,0.366333,1595625906438
Fix,GT,37.4273359,-122.0699147,,0.0022145254,0.1,0.3668213,1595625907438
Fix,GT,37.4273359,-122.0699147,,0.000561688,0.1,0.3677063,1595625908438
Fix,GT,37.4273359,-122.0699147,,0.0004383121,0.1,0.36816406,1595625909438
Fix,GT,37.4273359,-122.0699147,,0.0011815547,0.1,0.36816406,1595625910438
Fix,GT,37.4273359,-122.0699147,,0.0014142136,0.1,0.3684082,1595625911438
Fix,GT,37.4273359,-122.0699147,,0.0014142136,0.1,0.36849976,1595625912438
Fix,GT,37.4273359,-122.0699147,,0.0023747033,0.1,0.36828613,1595625913438
Fix,GT,37.4273359,-122.0699147,,0.0024635068,0.1,0.3680725,1595625914438
Fix,GT,37.4273359,-122.0699147,,0.0014383121,0.1,0.36798096,1595625915438
Fix,GT,37.4273359,-122.0699147,,0.0021034717,0.1,0.36795044,1595625916438
Fix,GT,37.4273359,-122.0699147,,0.0018758392,0.1,0.36834717,1595625917438
Fix,GT,37.4273359,-122.0699147,,0.0017744424,0.1,0.36889648,1595625918438
Fix,GT,37.4273359,-122.0699147,,0.0016942845,0.1,0.36901855,1595625919438
Fix,GT,37.4273359,-122.0699147,,0.0011815547,0.1,0.3692627,1595625920438
Fix,GT,37.4273359,-122.0699147,,0.0017744421,0.1,0.36923218,1595625921438
Fix,GT,37.4273359,-122.0699147,,0.0016942845,0.1,0.368927,1595625922438
Fix,GT,37.4273359,-122.0699147,,0.001,0.1,0.36947632,1595625923438
Fix,GT,37.4273359,-122.0699147,,0.001,0.1,0.3699646,1595625924438
Fix,GT,37.4273359,-122.0699147,,0.0011815547,0.1,0.3695984,1595625925438
Fix,GT,37.4273359,-122.0699147,,0.0012326587,0.1,0.36953735,1595625926438
Fix,GT,37.4273359,-122.0699147,,0.0019477523,0.1,0.3695984,1595625927438
Fix,GT,37.427336,-122.0699147,,0.0033565697,0.1,0.36984253,1595625928438
Fix,GT,37.4273361,-122.0699147,,0.0030052902,0.1,0.36965942,1595625929438
Fix,GT,37.4273361,-122.0699148,,0.002236068,0.1,0.36941528,1595625930438
Fix,GT,37.4273359,-122.0699147,,0.0018758393,0.1,0.36984253,1595625931438
Fix,GT,37.4273359,-122.0699147,,0.0017744421,0.1,0.37036133,1595625932438
Fix,GT,37.4273359,-122.0699147,,0.0025709085,0.1,0.3704834,1595625933438
Fix,GT,37.4273359,-122.0699147,,0.002561688,0.1,0.37051392,1595625934438
Fix,GT,37.4273359,-122.0699147,,0.0034837583,0.1,0.37142944,1595625935438
Fix,GT,37.4273359,-122.0699147,,0.0034630941,0.1,0.37167358,1595625936438
Fix,GT,37.4273359,-122.0699147,,0.001,0.1,0.37039185,1595625937438
Fix,GT,37.4273359,-122.0699147,,0.001438312,0.1,0.37051392,1595625938438
Fix,GT,37.4273359,-122.0699147,,0.0021034717,0.1,0.37112427,1595625939438
Fix,GT,37.427336,-122.0699147,,0.002236068,0.1,0.3715515,1595625940438
Fix,GT,37.427336,-122.0699147,,0.0018758393,0.1,0.3738098,1595625941438
Fix,GT,37.427336,-122.0699147,,0.0026015535,0.1,0.37646484,1595625942438
Fix,GT,37.4273362,-122.0699147,,0.14655319,0.1,0.37747192,1595625943438
Fix,GT,37.4273394,-122.0699147,,0.68150055,0.1,0.37472534,1595625944438
Fix,GT,37.4273488,-122.0699149,,1.3860579,0.1,0.36410522,1595625945438
Fix,GT,37.4273634,-122.0699152,,1.7829821,0.1,0.33450317,1595625946438
Fix,GT,37.42738,-122.0699157,,1.9083211,0.1,0.2258606,1595625947438
Fix,GT,37.4273976,-122.0699163,,1.9860547,0.1,359.9397,1595625948438
Fix,GT,37.4274173,-122.0699172,,2.551262,0.1,359.55734,1595625949438
Fix,GT,37.4274457,-122.0699188,,3.90625,0.1,359.04343,1595625950438
Fix,GT,37.4274881,-122.069922,,5.4599714,0.1,358.14377,1595625951438
Fix,GT,37.4275434,-122.0699269,,6.790453,0.1,357.37448,1595625952438
Fix,GT,37.4276091,-122.0699321,,7.78614,0.1,357.96558,1595625953438
Fix,GT,37.427683,-122.0699357,,8.57,0.1,359.21326,1595625954438
Fix,GT,37.4277628,-122.0699388,,9.032331,0.1,359.52386,1595625955438
Fix,GT,37.4278446,-122.069942,,9.085701,0.1,359.51868,1595625956438
Fix,GT,37.4279258,-122.0699448,,8.936571,0.1,359.8509,1595625957438
Fix,GT,37.4280052,-122.0699458,,8.647345,0.1,1.0446167,1595625958438
Fix,GT,37.4280805,-122.0699439,,8.041797,0.1,2.933319,1595625959438
Fix,GT,37.4281497,-122.0699396,,7.3437595,0.1,4.279114,1595625960438
Fix,GT,37.428213,-122.0699378,,6.7066364,0.1,1.6091919,1595625961438
Fix,GT,37.4282694,-122.0699496,,6.159626,0.1,349.2338,1595625962438
Fix,GT,37.4283126,-122.0699859,,5.7193384,0.1,324.65125,1595625963438
Fix,GT,37.4283323,-122.0700415,,5.4827204,0.1,294.66647,1595625964438
Fix,GT,37.4283328,-122.070105,,5.9975305,0.1,273.57907,1595625965438
Fix,GT,37.4283276,-122.0701779,,6.9517627,0.1,267.00467,1595625966438
Fix,GT,37.4283227,-122.0702601,,7.5781207,0.1,267.2091,1595625967438
Fix,GT,37.4283194,-122.0703464,,7.6651125,0.1,269.06042,1595625968438
Fix,GT,37.4283188,-122.0704308,,7.1914024,0.1,271.0531,1595625969438
Fix,GT,37.4283195,-122.0705076,,6.3600965,0.1,272.06943,1595625970438
Fix,GT,37.4283206,-122.0705724,,5.0397406,0.1,272.7244,1595625971438
Fix,GT,37.4283218,-122.0706195,,3.3232172,0.1,273.0136,1595625972438
Fix,GT,37.4283224,-122.0706506,,2.4059362,0.1,272.8299,1595625973438
Fix,GT,37.4283226,-122.0706774,,2.537335,0.1,272.33136,1595625974438
Fix,GT,37.4283227,-122.0707099,,3.351589,0.1,271.91156,1595625975438
Fix,GT,37.4283228,-122.0707559,,4.872079,0.1,271.60602,1595625976438
Fix,GT,37.4283229,-122.0708202,,6.513788,0.1,271.34714,1595625977438
Fix,GT,37.4283229,-122.0709018,,7.8637686,0.1,271.33176,1595625978438
Fix,GT,37.4283234,-122.0709961,,8.67239,0.1,271.832,1595625979438
Fix,GT,37.4283248,-122.071095,,8.632469,0.1,272.44128,1595625980438
Fix,GT,37.4283261,-122.0711866,,7.383642,0.1,272.22623,1595625981438
Fix,GT,37.4283263,-122.0712587,,5.3841267,0.1,271.5676,1595625982438
Fix,GT,37.4283263,-122.0713112,,4.081523,0.1,271.25616,1595625983438
Fix,GT,37.4283263,-122.0713554,,3.896177,0.1,271.41733,1595625984438
Fix,GT,37.4283265,-122.0714017,,4.478867,0.1,271.81396,1595625985438
Fix,GT,37.4283271,-122.0714592,,5.6953692,0.1,271.84753,1595625986438
Fix,GT,37.4283276,-122.0715304,,6.8948917,0.1,271.89587,1595625987438
Fix,GT,37.4283284,-122.0716139,,7.8658323,0.1,272.0564,1595625988438
Fix,GT,37.4283288,-122.0717063,,8.356212,0.1,271.5508,1595625989438
Fix,GT,37.4283289,-122.0718003,,8.142878,0.1,271.34973,1595625990438
Fix,GT,37.4283289,-122.071888,,7.3099413,0.1,271.5119,1595625991438
Fix,GT,37.4283289,-122.0719662,,6.5827513,0.1,271.29865,1595625992438
Fix,GT,37.4283287,-122.0720385,,6.261425,0.1,271.2514,1595625993438
Fix,GT,37.4283286,-122.0721085,,6.241063,0.1,271.317,1595625994438
Fix,GT,37.4283284,-122.0721806,,6.612975,0.1,270.98456,1595625995438
Fix,GT,37.428327,-122.0722582,,7.1228323,0.1,269.71588,1595625996438
Fix,GT,37.4283216,-122.0723396,,7.192567,0.1,265.81772,1595625997438
Fix,GT,37.4283106,-122.0724159,,6.393382,0.1,260.1727,1595625998438
Fix,GT,37.4282975,-122.0724776,,4.8837447,0.1,256.24945,1595625999438
Fix,GT,37.4282869,-122.0725221,,3.4666839,0.1,254.84456,1595626000438
Fix,GT,37.4282799,-122.0725562,,2.9698362,0.1,256.70868,1595626001438
Fix,GT,37.4282795,-122.0725917,,3.2896032,0.1,267.162,1595626002438
Fix,GT,37.4282914,-122.072631,,4.08143,0.1,286.2459,1595626003438
Fix,GT,37.4283142,-122.0726769,,5.4617515,0.1,299.923,1595626004438
Fix,GT,37.428342,-122.0727388,,7.086301,0.1,299.762,1595626005438
Fix,GT,37.4283677,-122.0728202,,8.460188,0.1,291.7088,1595626006438
Fix,GT,37.4283839,-122.0729191,,9.441584,0.1,280.82495,1595626007438
Fix,GT,37.4283876,-122.0730283,,9.953529,0.1,272.2815,1595626008438
Fix,GT,37.4283848,-122.073143,,10.432027,0.1,269.7405,1595626009438
Fix,GT,37.4283827,-122.0732658,,11.322443,0.1,270.28925,1595626010438
Fix,GT,37.4283816,-122.073399,,12.229421,0.1,270.79758,1595626011438
Fix,GT,37.4283803,-122.0735414,,12.935461,0.1,270.6938,1595626012438
Fix,GT,37.4283792,-122.0736889,,13.058007,0.1,271.04126,1595626013438
Fix,GT,37.428379,-122.0738335,,12.358347,0.1,271.36407,1595626014438
Fix,GT,37.428379,-122.0739666,,11.094959,0.1,271.3663,1595626015438
Fix,GT,37.4283789,-122.0740835,,9.620539,0.1,271.39874,1595626016438
Fix,GT,37.4283792,-122.0741829,,8.015181,0.1,271.6355,1595626017438
Fix,GT,37.4283795,-122.0742632,,6.128639,0.1,271.75208,1595626018438
Fix,GT,37.4283798,-122.0743202,,3.892293,0.1,271.76508,1595626019438
Fix,GT,37.4283799,-122.0743516,,1.7508276,0.1,271.79248,1595626020438
Fix,GT,37.42838,-122.0743627,,0.42485487,0.1,271.80597,1595626021438
Fix,GT,37.42838,-122.0743643,,0.010795326,0.1,271.81024,1595626022438
Fix,GT,37.42838,-122.0743643,,0.001,0.1,271.81003,1595626023438
Fix,GT,37.42838,-122.0743643,,0.0011815549,0.1,271.8095,1595626024438
Fix,GT,37.42838,-122.0743643,,0.0014142136,0.1,271.8099,1595626025438
Fix,GT,37.42838,-122.0743643,,0.0012326589,0.1,271.80975,1595626026438
Fix,GT,37.42838,-122.0743643,,0.0015417836,0.1,271.80957,1595626027438
Fix,GT,37.42838,-122.0743643,,0.0018758392,0.1,271.8097,1595626028438
Fix,GT,37.42838,-122.0743643,,0.0020340804,0.1,271.80896,1595626029438
Fix,GT,37.42838,-122.0743643,,0.002568789,0.1,271.80826,1595626030438
Fix,GT,37.42838,-122.0743643,,0.0018758392,0.1,271.80856,1595626031438
Fix,GT,37.42838,-122.0743643,,0.0012326587,0.1,271.80927,1595626032438
Fix,GT,37.42838,-122.0743643,,0.001,0.1,271.80972,1595626033438
Fix,GT,37.42838,-122.0743643,,0.0015417835,0.1,271.80975,1595626034438
Fix,GT,37.42838,-122.0743643,,0.0022360678,0.1,271.81012,1595626035438
Fix,GT,37.42838,-122.0743643,,0.0022360678,0.1,271.81088,1595626036438
Fix,GT,37.42838,-122.0743643,,0.0012559724,0.1,271.81183,1595626037438
Fix,GT,37.42838,-122.0743643,,0.0006198668,0.1,271.81226,1595626038438
Fix,GT,37.42838,-122.0743643,,0.0012326587,0.1,271.8127,1595626039438
Fix,GT,37.42838,-122.0743644,,0.0019477522,0.1,271.8131,1595626040438
Fix,GT,37.42838,-122.0743657,,0.3068464,0.1,271.8062,1595626041438
Fix,GT,37.42838,-122.0743732,,1.1141609,0.1,271.67496,1595626042438
Fix,GT,37.42838,-122.0743918,,2.2154312,0.1,271.51172,1595626043438
Fix,GT,37.4283802,-122.0744244,,3.6027408,0.1,271.62473,1595626044438
Fix,GT,37.4283805,-122.0744742,,5.2240834,0.1,271.86127,1595626045438
Fix,GT,37.4283813,-122.0745432,,6.97585,0.1,272.18747,1595626046438
Fix,GT,37.4283824,-122.0746308,,8.498753,0.1,272.1562,1595626047438
Fix,GT,37.4283827,-122.0747337,,9.698776,0.1,271.47025,1595626048438
Fix,GT,37.4283824,-122.0748496,,10.782303,0.1,271.2066,1595626049438
Fix,GT,37.4283825,-122.0749766,,11.670414,0.1,271.5702,1595626050438
Fix,GT,37.4283833,-122.0751124,,12.326038,0.1,271.86505,1595626051438
Fix,GT,37.4283841,-122.0752542,,12.751308,0.1,271.7063,1595626052438
Fix,GT,37.4283844,-122.0753995,,12.948631,0.1,271.5253,1595626053438
Fix,GT,37.4283849,-122.0755464,,13.036568,0.1,271.76953,1595626054438
Fix,GT,37.428386,-122.075694,,13.096443,0.1,271.99478,1595626055438
Fix,GT,37.428387,-122.0758424,,13.169182,0.1,271.80237,1595626056438
Fix,GT,37.4283877,-122.0759916,,13.24572,0.1,271.63885,1595626057438
Fix,GT,37.4283869,-122.0761415,,13.291395,0.1,270.44022,1595626058438
Fix,GT,37.4283811,-122.0762912,,13.248834,0.1,267.40054,1595626059438
Fix,GT,37.4283683,-122.0764396,,13.183191,0.1,264.10638,1595626060438
Fix,GT,37.4283488,-122.0765862,,13.159651,0.1,260.96127,1595626061438
Fix,GT,37.4283227,-122.0767306,,13.064465,0.1,257.46817,1595626062438
Fix,GT,37.4282906,-122.0768709,,12.761818,0.1,254.55864,1595626063438
Fix,GT,37.4282557,-122.0770052,,12.250604,0.1,252.92693,1595626064438
Fix,GT,37.4282209,-122.0771331,,11.668943,0.1,252.6554,1595626065438
Fix,GT,37.4281895,-122.077256,,11.21657,0.1,254.48128,1595626066438
Fix,GT,37.4281647,-122.0773768,,10.864971,0.1,258.19186,1595626067438
Fix,GT,37.4281471,-122.077495,,10.354759,0.1,261.7497,1595626068438
Fix,GT,37.428135,-122.077606,,9.391083,0.1,264.16663,1595626069438
Fix,GT,37.4281275,-122.0777047,,8.150318,0.1,266.69366,1595626070438
Fix,GT,37.4281245,-122.0777895,,6.880863,0.1,269.1939,1595626071438
Fix,GT,37.4281234,-122.0778589,,5.3304987,0.1,270.26248,1595626072438
Fix,GT,37.4281226,-122.07791,,3.844449,0.1,270.43643,1595626073438
Fix,GT,37.4281219,-122.0779494,,3.3938613,0.1,270.33743,1595626074438
Fix,GT,37.4281183,-122.077991,,4.1419687,0.1,265.94104,1595626075438
Fix,GT,37.4281042,-122.078041,,5.2841697,0.1,253.21591,1595626076438
Fix,GT,37.4280761,-122.0780944,,6.0395517,0.1,237.99701,1595626077438
Fix,GT,37.4280346,-122.0781423,,6.550532,0.1,222.8011,1595626078438
Fix,GT,37.4279798,-122.0781738,,7.093566,0.1,204.18562,1595626079438
Fix,GT,37.4279134,-122.0781854,,8.040161,0.1,188.08621,1595626080438
Fix,GT,37.4278348,-122.0781848,,9.478155,0.1,180.69989,1595626081438
Fix,GT,37.4277427,-122.0781801,,10.94696,0.1,178.95837,1595626082438
Fix,GT,37.427639,-122.0781722,,12.049983,0.1,177.50177,1595626083438
Fix,GT,37.4275269,-122.0781601,,12.936788,0.1,176.15826,1595626084438
Fix,GT,37.4274074,-122.0781447,,13.767413,0.1,175.20044,1595626085438
Fix,GT,37.4272811,-122.0781258,,14.444689,0.1,174.30066,1595626086438
Fix,GT,37.4271496,-122.0781056,,14.906448,0.1,174.58875,1595626087438
Fix,GT,37.4270144,-122.0780885,,15.256243,0.1,176.0763,1595626088438
Fix,GT,37.426876,-122.0780746,,15.576194,0.1,177.11047,1595626089438
Fix,GT,37.4267347,-122.078063,,15.835765,0.1,177.98657,1595626090438
Fix,GT,37.4265914,-122.0780549,,15.992798,0.1,179.22668,1595626091438
Fix,GT,37.4264469,-122.0780507,,16.087307,0.1,180.44183,1595626092438
Fix,GT,37.4263019,-122.0780504,,16.101475,0.1,181.84494,1595626093438
Fix,GT,37.4261573,-122.0780548,,15.990526,0.1,183.31123,1595626094438
Fix,GT,37.4260138,-122.0780631,,15.904306,0.1,184.38812,1595626095438
Fix,GT,37.425871,-122.0780737,,15.837607,0.1,185.11858,1595626096438
Fix,GT,37.425729,-122.0780863,,15.76638,0.1,185.63638,1595626097438
Fix,GT,37.4255876,-122.0780998,,15.715585,0.1,185.8692,1595626098438
Fix,GT,37.4254467,-122.078114,,15.642303,0.1,186.05968,1595626099438
Fix,GT,37.4253067,-122.0781281,,15.553864,0.1,185.80765,1595626100438
Fix,GT,37.4251673,-122.0781393,,15.440766,0.1,184.43352,1595626101438
Fix,GT,37.4250286,-122.0781454,,15.384489,0.1,182.8447,1595626102438
Fix,GT,37.4248897,-122.0781484,,15.424083,0.1,182.09222,1595626103438
Fix,GT,37.4247508,-122.0781492,,15.418852,0.1,181.32365,1595626104438
Fix,GT,37.4246125,-122.0781467,,15.353085,0.1,179.99895,1595626105438
Fix,GT,37.424475,-122.0781402,,15.193881,0.1,178.69049,1595626106438
Fix,GT,37.4243402,-122.0781309,,14.789343,0.1,177.95898,1595626107438
Fix,GT,37.4242098,-122.07812,,14.254415,0.1,177.26721,1595626108438
Fix,GT,37.4240842,-122.0781077,,13.644555,0.1,176.73053,1595626109438
Fix,GT,37.4239659,-122.0780955,,12.655598,0.1,176.6399,1595626110438
Fix,GT,37.4238574,-122.0780846,,11.470194,0.1,176.95172,1595626111438
Fix,GT,37.42376,-122.0780761,,10.195181,0.1,177.58221,1595626112438
Fix,GT,37.4236752,-122.07807,,8.737471,0.1,178.3064,1595626113438
Fix,GT,37.4236034,-122.0780669,,7.201488,0.1,179.93329,1595626114438
Fix,GT,37.4235441,-122.0780715,,6.007066,0.1,186.65028,1595626115438
Fix,GT,37.4234953,-122.0780915,,5.558177,0.1,200.86765,1595626116438
Fix,GT,37.4234557,-122.0781318,,5.8432484,0.1,221.03188,1595626117438
Fix,GT,37.4234297,-122.0781946,,6.7658896,0.1,244.85281,1595626118438
Fix,GT,37.4234199,-122.0782764,,7.953664,0.1,263.42856,1595626119438
Fix,GT,37.4234174,-122.0783743,,9.28689,0.1,269.38898,1595626120438
Fix,GT,37.4234137,-122.0784861,,10.494417,0.1,268.86,1595626121438
Fix,GT,37.4234081,-122.0786111,,11.729507,0.1,268.04874,1595626122438
Fix,GT,37.4234015,-122.0787508,,13.009341,0.1,267.92938,1595626123438
Fix,GT,37.4233947,-122.078904,,14.114321,0.1,268.37534,1595626124438
Fix,GT,37.4233885,-122.0790684,,15.009868,0.1,268.7093,1595626125438
Fix,GT,37.4233815,-122.0792418,,15.689463,0.1,268.24945,1595626126438
Fix,GT,37.4233723,-122.0794207,,16.027164,0.1,267.4699,1595626127438
Fix,GT,37.4233618,-122.0796016,,16.078808,0.1,267.0426,1595626128438
Fix,GT,37.4233499,-122.0797828,,16.137127,0.1,266.44846,1595626129438
Fix,GT,37.423336,-122.0799656,,16.428967,0.1,265.64795,1595626130438
Fix,GT,37.4233201,-122.0801523,,16.79351,0.1,265.07248,1595626131438
Fix,GT,37.4233025,-122.0803424,,17.092295,0.1,264.6604,1595626132438
Fix,GT,37.423284,-122.0805358,,17.386278,0.1,264.4815,1595626133438
Fix,GT,37.4232651,-122.0807327,,17.728842,0.1,264.51495,1595626134438
Fix,GT,37.4232463,-122.0809332,,18.001593,0.1,264.77322,1595626135438
Fix,GT,37.4232281,-122.0811362,,18.109562,0.1,265.20142,1595626136438
Fix,GT,37.4232113,-122.0813396,,18.057539,0.1,265.5337,1595626137438
Fix,GT,37.4231949,-122.0815418,,17.922867,0.1,265.55566,1595626138438
Fix,GT,37.4231781,-122.0817425,,17.81717,0.1,265.40173,1595626139438
Fix,GT,37.4231616,-122.0819425,,17.828934,0.1,265.50726,1595626140438
Fix,GT,37.4231454,-122.0821438,,18.023922,0.1,265.5642,1595626141438
Fix,GT,37.4231289,-122.0823478,,18.249573,0.1,265.7367,1595626142438
Fix,GT,37.4231142,-122.082554,,18.393246,0.1,266.75305,1595626143438
Fix,GT,37.4231031,-122.0827619,,18.48826,0.1,268.13763,1595626144438
Fix,GT,37.4230956,-122.082971,,18.53814,0.1,269.22156,1595626145438
Fix,GT,37.4230909,-122.0831805,,18.526375,0.1,270.18146,1595626146438
Fix,GT,37.4230894,-122.0833897,,18.513317,0.1,271.41638,1595626147438
Fix,GT,37.4230917,-122.0835992,,18.593985,0.1,272.60992,1595626148438
Fix,GT,37.4230972,-122.0838096,,18.66129,0.1,273.7695,1595626149438
Fix,GT,37.4231066,-122.0840201,,18.66009,0.1,275.2636,1595626150438
Fix,GT,37.4231204,-122.08423,,18.609009,0.1,276.70212,1595626151438
Fix,GT,37.423138,-122.0844386,,18.530521,0.1,277.97394,1595626152438
Fix,GT,37.4231593,-122.084646,,18.449196,0.1,279.31213,1595626153438
Fix,GT,37.4231841,-122.0848517,,18.39755,0.1,280.50345,1595626154438
Fix,GT,37.4232118,-122.0850568,,18.43857,0.1,281.38788,1595626155438
Fix,GT,37.423242,-122.0852624,,18.57313,0.1,282.2132,1595626156438
Fix,GT,37.4232749,-122.0854688,,18.693226,0.1,283.0432,1595626157438
Fix,GT,37.4233103,-122.085676,,18.820835,0.1,283.9019,1595626158438
Fix,GT,37.4233484,-122.085884,,18.935017,0.1,284.67038,1595626159438
Fix,GT,37.4233885,-122.0860925,,19.044239,0.1,285.15765,1595626160438
Fix,GT,37.4234299,-122.0863022,,19.202072,0.1,285.343,1595626161438
Fix,GT,37.4234713,-122.0865131,,19.264004,0.1,285.21524,1595626162438
Fix,GT,37.4235127,-122.0867241,,19.217087,0.1,285.37943,1595626163438
Fix,GT,37.4235556,-122.0869348,,19.272196,0.1,285.90875,1595626164438
Fix,GT,37.4235994,-122.0871461,,19.360806,0.1,285.84402,1595626165438
Fix,GT,37.4236422,-122.0873585,,19.447704,0.1,285.37775,1595626166438
Fix,GT,37.4236838,-122.0875725,,19.544718,0.1,284.86798,1595626167438
Fix,GT,37.4237241,-122.0877879,,19.619972,0.1,284.43033,1595626168438
Fix,GT,37.4237635,-122.0880041,,19.617191,0.1,284.14218,1595626169438
Fix,GT,37.4238022,-122.0882195,,19.45794,0.1,284.15915,1595626170438
Fix,GT,37.4238411,-122.0884323,,19.190594,0.1,284.37048,1595626171438
Fix,GT,37.4238795,-122.0886418,,18.856613,0.1,284.2087,1595626172438
Fix,GT,37.4239146,-122.088848,,18.449467,0.1,282.75003,1595626173438
Fix,GT,37.4239418,-122.0890509,,18.023556,0.1,279.26797,1595626174438
Fix,GT,37.4239557,-122.0892512,,17.649298,0.1,273.9681,1595626175438
Fix,GT,37.423953,-122.0894481,,17.284279,0.1,268.06866,1595626176438
Fix,GT,37.4239343,-122.0896396,,16.988352,0.1,262.18427,1595626177438
Fix,GT,37.4239012,-122.0898254,,16.781136,0.1,256.83878,1595626178438
Fix,GT,37.4238573,-122.0900049,,16.489727,0.1,253.16174,1595626179438
Fix,GT,37.4238075,-122.0901786,,16.255672,0.1,250.99026,1595626180438
Fix,GT,37.4237546,-122.0903493,,16.19141,0.1,249.83652,1595626181438
Fix,GT,37.4236993,-122.0905178,,16.044834,0.1,248.50555,1595626182438
Fix,GT,37.4236397,-122.0906813,,15.782216,0.1,245.55792,1595626183438
Fix,GT,37.4235724,-122.0908358,,15.430162,0.1,240.75516,1595626184438
Fix,GT,37.4234957,-122.0909782,,15.072517,0.1,235.4267,1595626185438
Fix,GT,37.4234118,-122.09111,,14.838507,0.1,231.44006,1595626186438
Fix,GT,37.4233223,-122.091233,,14.681321,0.1,227.53487,1595626187438
Fix,GT,37.4232267,-122.0913459,,14.50878,0.1,223.13124,1595626188438
Fix,GT,37.4231263,-122.091448,,14.234554,0.1,219.22849,1595626189438
Fix,GT,37.4230244,-122.0915425,,13.872903,0.1,217.92033,1595626190438
Fix,GT,37.4229283,-122.091639,,13.483826,0.1,222.0017,1595626191438
Fix,GT,37.4228457,-122.0917474,,13.143898,0.1,231.25793,1595626192438
Fix,GT,37.4227806,-122.0918694,,13.004747,0.1,240.64151,1595626193438
Fix,GT,37.4227271,-122.0920018,,13.34445,0.1,245.61595,1595626194438
Fix,GT,37.4226758,-122.0921419,,13.945209,0.1,247.03766,1595626195438
Fix,GT,37.4226238,-122.0922878,,14.295378,0.1,247.47318,1595626196438
Fix,GT,37.4225719,-122.0924347,,14.009678,0.1,247.58224,1595626197438
Fix,GT,37.4225229,-122.0925745,,12.846451,0.1,247.72272,1595626198438
Fix,GT,37.42248,-122.0926984,,10.901274,0.1,248.22029,1595626199438
Fix,GT,37.4224464,-122.0927995,,8.589591,0.1,249.08194,1595626200438
Fix,GT,37.4224203,-122.0928812,,7.207079,0.1,249.7789,1595626201438
Fix,GT,37.4223977,-122.0929559,,6.9646664,0.1,250.90338,1595626202438
Fix,GT,37.4223759,-122.0930323,,7.606177,0.1,251.95502,1595626203438
Fix,GT,37.422352,-122.0931222,,9.260042,0.1,253.40152,1595626204438
Fix,GT,37.4223271,-122.0932324,,10.853617,0.1,256.41855,1595626205438
Fix,GT,37.4223074,-122.093359,,11.903357,0.1,262.09207,1595626206438
Fix,GT,37.4223014,-122.0934982,,12.832857,0.1,271.10904,1595626207438
Fix,GT,37.4223166,-122.093647,,13.844425,0.1,282.106,1595626208438
Fix,GT,37.4223568,-122.0938009,,14.961006,0.1,292.979,1595626209438
Fix,GT,37.4224204,-122.093958,,16.318108,0.1,300.80267,1595626210438
Fix,GT,37.4225032,-122.0941204,,17.84153,0.1,305.56152,1595626211438
Fix,GT,37.4226033,-122.0942897,,19.487118,0.1,309.06348,1595626212438
Fix,GT,37.4227177,-122.0944674,,20.922348,0.1,310.98682,1595626213438
Fix,GT,37.4228426,-122.0946529,,21.982018,0.1,311.9276,1595626214438
Fix,GT,37.4229749,-122.0948453,,22.94915,0.1,312.3443,1595626215438
Fix,GT,37.4231137,-122.0950447,,23.885925,0.1,312.63217,1595626216438
Fix,GT,37.4232581,-122.0952514,,24.71757,0.1,312.6676,1595626217438
Fix,GT,37.4234075,-122.0954638,,25.404469,0.1,312.94955,1595626218438
Fix,GT,37.423562,-122.0956802,,26.003597,0.1,313.46106,1595626219438
Fix,GT,37.423721,-122.0959004,,26.56644,0.1,313.63983,1595626220438
Fix,GT,37.4238837,-122.0961248,,27.12749,0.1,313.7642,1595626221438
Fix,GT,37.4240503,-122.0963535,,27.691668,0.1,313.86234,1595626222438
Fix,GT,37.4242201,-122.096586,,28.10048,0.1,313.8991,1595626223438
Fix,GT,37.4243916,-122.0968216,,28.359406,0.1,313.71518,1595626224438
Fix,GT,37.4245644,-122.0970597,,28.608395,0.1,313.89783,1595626225438
Fix,GT,37.4247406,-122.0972969,,28.792742,0.1,315.02594,1595626226438
Fix,GT,37.4249226,-122.097531,,29.103104,0.1,316.27655,1595626227438
Fix,GT,37.4251107,-122.0977638,,29.552015,0.1,317.28433,1595626228438
Fix,GT,37.4253049,-122.0979955,,29.945778,0.1,318.39297,1595626229438
Fix,GT,37.4255049,-122.0982253,,30.23787,0.1,319.4173,1595626230438
Fix,GT,37.4257094,-122.0984527,,30.431229,0.1,320.27783,1595626231438
Fix,GT,37.4259175,-122.0986776,,30.556168,0.1,321.0526,1595626232438
Fix,GT,37.4261283,-122.0989006,,30.690125,0.1,321.5219,1595626233438
Fix,GT,37.4263412,-122.0991226,,30.72902,0.1,321.85138,1595626234438
Fix,GT,37.4265544,-122.0993429,,30.544525,0.1,322.09637,1595626235438
Fix,GT,37.426766,-122.0995606,,30.206387,0.1,322.00394,1595626236438
Fix,GT,37.4269749,-122.0997774,,29.996155,0.1,321.6617,1595626237438
Fix,GT,37.4271823,-122.0999947,,30.066956,0.1,321.5058,1595626238438
Fix,GT,37.4273903,-122.100214,,30.28487,0.1,321.21405,1595626239438
Fix,GT,37.4275989,-122.1004366,,30.467949,0.1,320.94617,1595626240438
Fix,GT,37.4278081,-122.1006607,,30.623196,0.1,321.07257,1595626241438
Fix,GT,37.4280194,-122.1008848,,30.800598,0.1,321.33365,1595626242438
Fix,GT,37.4282325,-122.1011093,,30.997013,0.1,321.5074,1595626243438
Fix,GT,37.4284475,-122.1013347,,31.185467,0.1,321.61182,1595626244438
Fix,GT,37.4286635,-122.1015612,,31.3358,0.1,321.46823,1595626245438
Fix,GT,37.4288797,-122.1017901,,31.451527,0.1,321.1537,1595626246438
Fix,GT,37.4290962,-122.1020206,,31.59356,0.1,321.1757,1595626247438
Fix,GT,37.4293144,-122.1022514,,31.77856,0.1,321.42368,1595626248438
Fix,GT,37.4295346,-122.102483,,32.022236,0.1,321.47522,1595626249438
Fix,GT,37.4297563,-122.1027165,,32.266537,0.1,321.4554,1595626250438
Fix,GT,37.4299799,-122.1029517,,32.52524,0.1,321.5552,1595626251438
Fix,GT,37.4302059,-122.1031878,,32.757847,0.1,321.72333,1595626252438
Fix,GT,37.4304336,-122.103425,,32.933697,0.1,321.77036,1595626253438
Fix,GT,37.4306624,-122.1036637,,33.10535,0.1,321.6498,1595626254438
Fix,GT,37.4308915,-122.1039041,,33.223038,0.1,321.47668,1595626255438
Fix,GT,37.4311209,-122.104146,,33.29492,0.1,321.3745,1595626256438
Fix,GT,37.4313506,-122.1043886,,33.386993,0.1,321.43356,1595626257438
Fix,GT,37.4315815,-122.1046315,,33.49173,0.1,321.5249,1595626258438
Fix,GT,37.4318131,-122.1048747,,33.560688,0.1,321.52493,1595626259438
Fix,GT,37.432045,-122.1051182,,33.58876,0.1,321.56998,1595626260438
Fix,GT,37.4322773,-122.1053619,,33.622787,0.1,321.53165,1595626261438
Fix,GT,37.4325098,-122.1056065,,33.7317,0.1,321.3498,1595626262438
Fix,GT,37.4327429,-122.1058527,,33.892544,0.1,321.35406,1595626263438
Fix,GT,37.4329771,-122.1060993,,34.00207,0.1,321.5509,1595626264438
Fix,GT,37.4332126,-122.1063459,,34.053085,0.1,321.61566,1595626265438
Fix,GT,37.433448,-122.1065923,,33.995266,0.1,321.63736,1595626266438
Fix,GT,37.4336826,-122.1068379,,33.821712,0.1,321.6207,1595626267438
Fix,GT,37.4339155,-122.1070818,,33.523037,0.1,321.63678,1595626268438
Fix,GT,37.4341464,-122.1073228,,33.14353,0.1,321.75812,1595626269438
Fix,GT,37.4343748,-122.1075605,,32.732105,0.1,321.73688,1595626270438
Fix,GT,37.4345997,-122.107796,,32.321854,0.1,321.5208,1595626271438
Fix,GT,37.4348214,-122.1080292,,31.906876,0.1,321.47217,1595626272438
Fix,GT,37.4350405,-122.1082591,,31.477322,0.1,321.59348,1595626273438
Fix,GT,37.4352563,-122.1084852,,30.926392,0.1,321.5757,1595626274438
Fix,GT,37.4354678,-122.1087069,,30.233452,0.1,321.61816,1595626275438
Fix,GT,37.4356748,-122.1089233,,29.623642,0.1,321.70276,1595626276438
Fix,GT,37.4358781,-122.1091354,,29.103382,0.1,321.7313,1595626277438
Fix,GT,37.436078,-122.109344,,28.59937,0.1,321.694,1595626278438
Fix,GT,37.4362741,-122.1095491,,28.107948,0.1,321.55127,1595626279438
Fix,GT,37.4364665,-122.1097516,,27.650944,0.1,321.45514,1595626280438
Fix,GT,37.4366561,-122.109951,,27.320515,0.1,321.5521,1595626281438
Fix,GT,37.4368447,-122.1101482,,27.219753,0.1,321.7151,1595626282438
Fix,GT,37.4370337,-122.1103456,,27.415934,0.1,321.58344,1595626283438
Fix,GT,37.4372236,-122.1105461,,27.718712,0.1,321.21207,1595626284438
Fix,GT,37.437415,-122.1107496,,27.951778,0.1,321.19974,1595626285438
Fix,GT,37.4376083,-122.1109538,,28.142643,0.1,321.47433,1595626286438
Fix,GT,37.4378034,-122.1111586,,28.32629,0.1,321.55548,1595626287438
Fix,GT,37.4379997,-122.1113649,,28.515789,0.1,321.47922,1595626288438
Fix,GT,37.4381974,-122.1115723,,28.687912,0.1,321.6466,1595626289438
Fix,GT,37.4383968,-122.11178,,28.84369,0.1,321.76132,1595626290438
Fix,GT,37.4385972,-122.1119891,,29.033627,0.1,321.61646,1595626291438
Fix,GT,37.4387985,-122.1122001,,29.203362,0.1,321.56577,1595626292438
Fix,GT,37.4390007,-122.1124118,,29.223442,0.1,321.6608,1595626293438
Fix,GT,37.4392028,-122.1126226,,29.12915,0.1,321.7459,1595626294438
Fix,GT,37.4394041,-122.1128326,,28.98732,0.1,321.71796,1595626295438
Fix,GT,37.4396041,-122.1130417,,28.841282,0.1,321.53302,1595626296438
Fix,GT,37.439803,-122.1132511,,28.814373,0.1,321.35895,1595626297438
Fix,GT,37.4400017,-122.1134612,,28.901054,0.1,321.27634,1595626298438
Fix,GT,37.4402008,-122.1136726,,29.001125,0.1,321.26776,1595626299438
Fix,GT,37.4404006,-122.1138843,,29.027248,0.1,321.4183,1595626300438
Fix,GT,37.4406012,-122.114095,,29.059929,0.1,321.5796,1595626301438
Fix,GT,37.4408023,-122.1143059,,29.137354,0.1,321.52274,1595626302438
Fix,GT,37.4410036,-122.1145176,,29.187073,0.1,321.47647,1595626303438
Fix,GT,37.4412053,-122.1147292,,29.145622,0.1,321.7015,1595626304438
Fix,GT,37.4414072,-122.1149389,,29.035713,0.1,321.97037,1595626305438
Fix,GT,37.4416085,-122.1151474,,28.937262,0.1,321.82413,1595626306438
Fix,GT,37.4418087,-122.1153566,,28.89663,0.1,321.57803,1595626307438
Fix,GT,37.4420082,-122.1155664,,28.892828,0.1,321.4588,1595626308438
Fix,GT,37.4422075,-122.1157763,,28.837864,0.1,321.40518,1595626309438
Fix,GT,37.4424059,-122.1159855,,28.687828,0.1,321.41995,1595626310438
Fix,GT,37.4426034,-122.1161937,,28.601671,0.1,321.45755,1595626311438
Fix,GT,37.4428009,-122.1164014,,28.636173,0.1,321.48047,1595626312438
Fix,GT,37.4429985,-122.1166095,,28.613426,0.1,321.46277,1595626313438
Fix,GT,37.4431954,-122.1168169,,28.426949,0.1,321.38956,1595626314438
Fix,GT,37.4433905,-122.1170228,,28.171057,0.1,321.41202,1595626315438
Fix,GT,37.4435843,-122.117227,,28.066143,0.1,321.52078,1595626316438
Fix,GT,37.4437788,-122.1174309,,28.236061,0.1,321.61194,1595626317438
Fix,GT,37.4439751,-122.1176362,,28.502342,0.1,321.69952,1595626318438
Fix,GT,37.4441732,-122.1178428,,28.688156,0.1,321.74622,1595626319438
Fix,GT,37.4443726,-122.1180506,,28.857376,0.1,321.74155,1595626320438
Fix,GT,37.4445728,-122.1182594,,28.950829,0.1,321.73193,1595626321438
Fix,GT,37.4447737,-122.1184686,,28.982132,0.1,321.83493,1595626322438
Fix,GT,37.4449749,-122.1186771,,28.909605,0.1,321.88538,1595626323438
Fix,GT,37.4451749,-122.1188846,,28.72388,0.1,321.7502,1595626324438
Fix,GT,37.4453734,-122.1190919,,28.64861,0.1,321.58145,1595626325438
Fix,GT,37.4455717,-122.1192998,,28.72645,0.1,321.46884,1595626326438
Fix,GT,37.4457702,-122.1195086,,28.77466,0.1,321.4268,1595626327438
Fix,GT,37.4459687,-122.119718,,28.801834,0.1,321.2767,1595626328438
Fix,GT,37.4461668,-122.1199288,,28.882675,0.1,321.05908,1595626329438
Fix,GT,37.4463655,-122.1201408,,29.018211,0.1,321.12613,1595626330438
Fix,GT,37.4465657,-122.120353,,29.129387,0.1,321.37918,1595626331438
Fix,GT,37.4467668,-122.1205646,,29.136377,0.1,321.5319,1595626332438
Fix,GT,37.4469681,-122.1207756,,29.091097,0.1,321.60568,1595626333438
Fix,GT,37.4471693,-122.1209857,,29.048855,0.1,321.78857,1595626334438
Fix,GT,37.4473704,-122.1211947,,28.933064,0.1,321.87274,1595626335438
Fix,GT,37.4475703,-122.1214025,,28.67263,0.1,321.7993,1595626336438
Fix,GT,37.4477675,-122.1216083,,28.239742,0.1,321.60538,1595626337438
Fix,GT,37.4479606,-122.1218112,,27.674377,0.1,321.43726,1595626338438
Fix,GT,37.44815,-122.1220103,,27.22853,0.1,321.50427,1595626339438
Fix,GT,37.4483372,-122.122206,,26.857899,0.1,321.7494,1595626340438
Fix,GT,37.4485224,-122.1223982,,26.49386,0.1,321.91635,1595626341438
Fix,GT,37.4487053,-122.1225875,,26.172504,0.1,321.83267,1595626342438
Fix,GT,37.4488862,-122.122776,,26.076551,0.1,321.5604,1595626343438
Fix,GT,37.4490665,-122.1229659,,26.19021,0.1,321.273,1595626344438
Fix,GT,37.4492471,-122.123157,,26.240019,0.1,321.34454,1595626345438
Fix,GT,37.4494282,-122.1233482,,26.331844,0.1,321.3302,1595626346438
Fix,GT,37.4496099,-122.1235418,,26.605545,0.1,320.9305,1595626347438
Fix,GT,37.4497934,-122.1237384,,26.9883,0.1,321.00955,1595626348438
Fix,GT,37.4499804,-122.1239374,,27.412006,0.1,321.3316,1595626349438
Fix,GT,37.4501705,-122.1241372,,27.562668,0.1,321.6038,1595626350438
Fix,GT,37.4503604,-122.1243363,,27.389778,0.1,321.56464,1595626351438
Fix,GT,37.4505484,-122.1245361,,27.3526,0.1,320.81586,1595626352438
Fix,GT,37.4507337,-122.1247399,,27.31401,0.1,319.72815,1595626353438
Fix,GT,37.450915,-122.1249453,,26.858568,0.1,319.07993,1595626354438
Fix,GT,37.4510905,-122.125148,,25.998493,0.1,318.54822,1595626355438
Fix,GT,37.4512566,-122.1253447,,24.731426,0.1,317.73557,1595626356438
Fix,GT,37.4514124,-122.1255353,,23.672611,0.1,316.71118,1595626357438
Fix,GT,37.4515607,-122.1257232,,23.166082,0.1,315.68945,1595626358438
Fix,GT,37.4517041,-122.1259109,,22.862068,0.1,314.8341,1595626359438
Fix,GT,37.4518438,-122.1260994,,22.74303,0.1,313.98846,1595626360438
Fix,GT,37.4519814,-122.1262911,,22.952108,0.1,312.93042,1595626361438
Fix,GT,37.4521178,-122.1264894,,23.400808,0.1,311.70602,1595626362438
Fix,GT,37.4522536,-122.1266942,,23.654179,0.1,310.80225,1595626363438
Fix,GT,37.4523876,-122.1269019,,23.623352,0.1,310.03702,1595626364438
Fix,GT,37.452519,-122.1271117,,23.651062,0.1,309.20642,1595626365438
Fix,GT,37.4526486,-122.1273249,,23.807972,0.1,308.44263,1595626366438
Fix,GT,37.4527772,-122.1275413,,23.979843,0.1,307.9758,1595626367438
Fix,GT,37.4529057,-122.1277603,,24.153114,0.1,307.61346,1595626368438
Fix,GT,37.4530344,-122.1279818,,24.328053,0.1,307.46292,1595626369438
Fix,GT,37.453164,-122.1282043,,24.420813,0.1,307.67465,1595626370438
Fix,GT,37.4532946,-122.1284266,,24.468029,0.1,307.86792,1595626371438
Fix,GT,37.4534261,-122.1286491,,24.55127,0.1,308.01657,1595626372438
Fix,GT,37.4535583,-122.1288723,,24.677723,0.1,308.03647,1595626373438
Fix,GT,37.4536916,-122.1290982,,25.087784,0.1,307.85007,1595626374438
Fix,GT,37.4538269,-122.1293292,,25.654886,0.1,307.69495,1595626375438
Fix,GT,37.453965,-122.1295653,,26.159912,0.1,307.72882,1595626376438
Fix,GT,37.4541056,-122.1298049,,26.436527,0.1,307.7817,1595626377438
Fix,GT,37.4542466,-122.1300461,,26.497395,0.1,307.63184,1595626378438
Fix,GT,37.4543876,-122.1302885,,26.622768,0.1,307.51074,1595626379438
Fix,GT,37.4545296,-122.1305324,,26.85527,0.1,307.5645,1595626380438
Fix,GT,37.4546729,-122.1307787,,27.119791,0.1,307.53125,1595626381438
Fix,GT,37.4548178,-122.1310277,,27.439247,0.1,307.57983,1595626382438
Fix,GT,37.4549644,-122.1312795,,27.683517,0.1,307.55023,1595626383438
Fix,GT,37.4551115,-122.1315322,,27.640747,0.1,307.59714,1595626384438
Fix,GT,37.4552582,-122.131783,,27.397655,0.1,307.76776,1595626385438
Fix,GT,37.455404,-122.1320307,,27.115614,0.1,307.97406,1595626386438
Fix,GT,37.4555491,-122.1322752,,26.813114,0.1,308.16684,1595626387438
Fix,GT,37.4556934,-122.1325173,,26.72165,0.1,308.16614,1595626388438
Fix,GT,37.4558377,-122.1327607,,27.010502,0.1,307.88226,1595626389438
Fix,GT,37.4559829,-122.1330076,,27.243212,0.1,307.84717,1595626390438
Fix,GT,37.4561288,-122.1332548,,27.195004,0.1,308.0324,1595626391438
Fix,GT,37.456275,-122.1335017,,27.27628,0.1,307.9682,1595626392438
Fix,GT,37.4564216,-122.1337512,,27.584019,0.1,307.74445,1595626393438
Fix,GT,37.4565696,-122.1340042,,27.920483,0.1,307.64975,1595626394438
Fix,GT,37.456719,-122.1342598,,28.155724,0.1,307.74432,1595626395438
Fix,GT,37.45687,-122.1345164,,28.264034,0.1,307.96454,1595626396438
Fix,GT,37.4570221,-122.1347733,,28.359774,0.1,308.06628,1595626397438
Fix,GT,37.4571749,-122.135031,,28.45954,0.1,308.04987,1595626398438
Fix,GT,37.4573281,-122.1352894,,28.540867,0.1,308.07373,1595626399438
Fix,GT,37.4574819,-122.1355485,,28.61888,0.1,308.09406,1595626400438
Fix,GT,37.4576361,-122.1358081,,28.647564,0.1,308.1751,1595626401438
Fix,GT,37.4577904,-122.1360668,,28.521347,0.1,308.30008,1595626402438
Fix,GT,37.4579438,-122.1363239,,28.277592,0.1,308.13983,1595626403438
Fix,GT,37.4580949,-122.1365797,,28.07479,0.1,307.79996,1595626404438
Fix,GT,37.4582442,-122.1368345,,27.87048,0.1,307.73563,1595626405438
Fix,GT,37.4583925,-122.1370877,,27.763813,0.1,307.6566,1595626406438
Fix,GT,37.4585406,-122.1373414,,27.908564,0.1,307.59064,1595626407438
Fix,GT,37.4586897,-122.1375968,,28.11053,0.1,307.71228,1595626408438
Fix,GT,37.4588404,-122.1378529,,28.217274,0.1,307.9108,1595626409438
Fix,GT,37.4589919,-122.1381097,,28.333431,0.1,307.90274,1595626410438
Fix,GT,37.459144,-122.1383682,,28.50063,0.1,307.80176,1595626411438
Fix,GT,37.4592964,-122.1386284,,28.630863,0.1,307.71033,1595626412438
Fix,GT,37.4594492,-122.1388896,,28.717878,0.1,307.6458,1595626413438
Fix,GT,37.4596022,-122.1391517,,28.761986,0.1,307.64984,1595626414438
Fix,GT,37.4597556,-122.1394141,,28.808077,0.1,307.70566,1595626415438
Fix,GT,37.4599098,-122.139677,,28.96543,0.1,307.7847,1595626416438
Fix,GT,37.4600651,-122.1399416,,29.16769,0.1,307.81503,1595626417438
Fix,GT,37.460221,-122.1402074,,29.198563,0.1,307.77612,1595626418438
Fix,GT,37.4603764,-122.1404726,,29.021053,0.1,307.82004,1595626419438
Fix,GT,37.4605311,-122.1407359,,28.90786,0.1,307.84955,1595626420438
Fix,GT,37.4606856,-122.1409996,,29.02578,0.1,307.6429,1595626421438
Fix,GT,37.4608406,-122.141265,,29.17702,0.1,307.68948,1595626422438
Fix,GT,37.460997,-122.1415305,,29.211945,0.1,308.0417,1595626423438
Fix,GT,37.461154,-122.1417955,,29.21191,0.1,307.9539,1595626424438
Fix,GT,37.4613103,-122.1420612,,29.197918,0.1,307.69772,1595626425438
Fix,GT,37.4614655,-122.1423273,,29.143353,0.1,307.61688,1595626426438
Fix,GT,37.4616208,-122.1425932,,29.165169,0.1,307.77533,1595626427438
Fix,GT,37.4617767,-122.1428584,,29.081295,0.1,307.86465,1595626428438
Fix,GT,37.4619304,-122.1431208,,28.512249,0.1,307.61356,1595626429438
Fix,GT,37.4620795,-122.143378,,27.78173,0.1,307.43494,1595626430438
Fix,GT,37.4622247,-122.1436299,,27.22319,0.1,307.1545,1595626431438
Fix,GT,37.4623661,-122.1438774,,26.703844,0.1,307.00375,1595626432438
Fix,GT,37.4625056,-122.1441202,,26.272446,0.1,307.41602,1595626433438
Fix,GT,37.4626443,-122.1443587,,25.959854,0.1,307.41202,1595626434438
Fix,GT,37.46278,-122.1445959,,25.728556,0.1,306.6639,1595626435438
Fix,GT,37.4629121,-122.1448347,,25.805523,0.1,306.01105,1595626436438
Fix,GT,37.4630449,-122.1450785,,26.52962,0.1,305.62457,1595626437438
Fix,GT,37.4631827,-122.1453311,,27.625778,0.1,306.05695,1595626438438
Fix,GT,37.4633291,-122.1455912,,28.707417,0.1,307.166,1595626439438
Fix,GT,37.4634843,-122.1458576,,29.634396,0.1,307.8377,1595626440438
Fix,GT,37.4636455,-122.1461297,,30.282318,0.1,308.15387,1595626441438
Fix,GT,37.4638101,-122.1464061,,30.702053,0.1,308.10242,1595626442438
Fix,GT,37.4639755,-122.1466858,,30.886341,0.1,308.01556,1595626443438
Fix,GT,37.4641418,-122.146966,,30.88728,0.1,308.0744,1595626444438
Fix,GT,37.4643074,-122.1472461,,30.843098,0.1,307.82443,1595626445438
Fix,GT,37.4644719,-122.1475273,,30.877068,0.1,307.5829,1595626446438
Fix,GT,37.4646362,-122.1478091,,30.876717,0.1,307.5677,1595626447438
Fix,GT,37.4648002,-122.1480907,,30.812687,0.1,307.5824,1595626448438
Fix,GT,37.4649639,-122.1483714,,30.743908,0.1,307.67654,1595626449438
Fix,GT,37.4651279,-122.1486518,,30.810862,0.1,307.70856,1595626450438
Fix,GT,37.4652926,-122.1489334,,30.97919,0.1,307.67184,1595626451438
Fix,GT,37.4654578,-122.1492164,,31.076466,0.1,307.6011,1595626452438
Fix,GT,37.4656232,-122.1495004,,31.162815,0.1,307.58142,1595626453438
Fix,GT,37.4657892,-122.1497857,,31.358274,0.1,307.5681,1595626454438
Fix,GT,37.4659566,-122.1500731,,31.63557,0.1,307.67432,1595626455438
Fix,GT,37.4661264,-122.1503625,,31.91419,0.1,307.84088,1595626456438
Fix,GT,37.4662979,-122.1506541,,32.205437,0.1,307.82248,1595626457438
Fix,GT,37.4664705,-122.1509484,,32.42278,0.1,307.76306,1595626458438
Fix,GT,37.4666438,-122.1512441,,32.500053,0.1,307.78912,1595626459438
Fix,GT,37.4668175,-122.1515398,,32.473873,0.1,307.87445,1595626460438
Fix,GT,37.4669912,-122.1518347,,32.41646,0.1,307.8869,1595626461438
Fix,GT,37.4671645,-122.1521295,,32.389465,0.1,307.7869,1595626462438
Fix,GT,37.4673373,-122.1524244,,32.37393,0.1,307.7514,1595626463438
Fix,GT,37.4675104,-122.1527189,,32.36681,0.1,307.9105,1595626464438
Fix,GT,37.4676842,-122.1530127,,32.34095,0.1,308.12054,1595626465438
Fix,GT,37.4678584,-122.1533052,,32.249557,0.1,308.22098,1595626466438
Fix,GT,37.4680318,-122.153596,,31.99479,0.1,308.1963,1595626467438
Fix,GT,37.4682029,-122.1538839,,31.52389,0.1,308.10294,1595626468438
Fix,GT,37.4683707,-122.1541669,,30.89756,0.1,308.0704,1595626469438
Fix,GT,37.4685351,-122.1544446,,30.326263,0.1,308.09152,1595626470438
Fix,GT,37.4686973,-122.1547178,,29.959448,0.1,308.10596,1595626471438
Fix,GT,37.4688576,-122.1549883,,29.716106,0.1,307.99152,1595626472438
Fix,GT,37.4690167,-122.1552576,,29.609856,0.1,307.9045,1595626473438
Fix,GT,37.4691753,-122.1555269,,29.643566,0.1,307.848,1595626474438
Fix,GT,37.469334,-122.1557975,,29.84349,0.1,307.6036,1595626475438
Fix,GT,37.469493,-122.1560713,,30.101402,0.1,307.3659,1595626476438
Fix,GT,37.4696527,-122.1563484,,30.360455,0.1,307.22333,1595626477438
Fix,GT,37.4698131,-122.1566275,,30.488073,0.1,307.21127,1595626478438
Fix,GT,37.4699737,-122.1569065,,30.366116,0.1,307.34747,1595626479438
Fix,GT,37.470134,-122.1571834,,30.18061,0.1,307.47018,1595626480438
Fix,GT,37.4702939,-122.1574585,,30.093586,0.1,307.57156,1595626481438
Fix,GT,37.4704541,-122.1577335,,30.19169,0.1,307.61777,1595626482438
Fix,GT,37.4706158,-122.1580097,,30.398573,0.1,307.85004,1595626483438
Fix,GT,37.4707794,-122.1582863,,30.540071,0.1,308.15976,1595626484438
Fix,GT,37.4709443,-122.1585629,,30.546137,0.1,308.1916,1595626485438
Fix,GT,37.4711084,-122.1588393,,30.41492,0.1,308.0253,1595626486438
Fix,GT,37.4712708,-122.1591146,,30.144066,0.1,307.8255,1595626487438
Fix,GT,37.4714308,-122.1593876,,29.818666,0.1,307.68323,1595626488438
Fix,GT,37.4715884,-122.1596584,,29.488338,0.1,307.42526,1595626489438
Fix,GT,37.4717435,-122.1599268,,29.149103,0.1,307.33447,1595626490438
Fix,GT,37.4718969,-122.1601919,,28.804298,0.1,307.4704,1595626491438
Fix,GT,37.4720492,-122.1604536,,28.555473,0.1,307.55682,1595626492438
Fix,GT,37.4722008,-122.1607142,,28.563198,0.1,307.54825,1595626493438
Fix,GT,37.4723533,-122.1609762,,28.87888,0.1,307.6101,1595626494438
Fix,GT,37.4725086,-122.1612421,,29.419563,0.1,307.70108,1595626495438
Fix,GT,37.4726671,-122.1615124,,29.896645,0.1,307.79016,1595626496438
Fix,GT,37.4728276,-122.1617857,,30.155273,0.1,307.80585,1595626497438
Fix,GT,37.4729892,-122.1620614,,30.399612,0.1,307.6739,1595626498438
Fix,GT,37.4731522,-122.1623397,,30.68549,0.1,307.85962,1595626499438
Fix,GT,37.473318,-122.1626196,,31.029617,0.1,308.07776,1595626500438
Fix,GT,37.4734856,-122.1629027,,31.337872,0.1,307.85617,1595626501438
Fix,GT,37.4736535,-122.1631891,,31.54055,0.1,307.6663,1595626502438
Fix,GT,37.473822,-122.1634774,,31.709204,0.1,307.62668,1595626503438
Fix,GT,37.4739911,-122.1637677,,31.911165,0.1,307.55643,1595626504438
Fix,GT,37.4741615,-122.1640595,,32.058506,0.1,307.78308,1595626505438
Fix,GT,37.4743338,-122.1643511,,32.14039,0.1,308.09262,1595626506438
Fix,GT,37.4745066,-122.164642,,32.012794,0.1,308.1132,1595626507438
Fix,GT,37.474678,-122.1649307,,31.656702,0.1,308.11148,1595626508438
Fix,GT,37.4748476,-122.1652158,,31.294754,0.1,308.0446,1595626509438
Fix,GT,37.4750146,-122.1654985,,30.934456,0.1,307.80765,1595626510438
Fix,GT,37.4751786,-122.1657785,,30.565952,0.1,307.70493,1595626511438
Fix,GT,37.4753407,-122.1660553,,30.203465,0.1,307.6996,1595626512438
Fix,GT,37.4755007,-122.1663292,,29.880505,0.1,307.5871,1595626513438
Fix,GT,37.4756586,-122.166601,,29.634981,0.1,307.40814,1595626514438
Fix,GT,37.475815,-122.1668719,,29.612677,0.1,307.2648,1595626515438
Fix,GT,37.4759721,-122.167144,,29.826061,0.1,307.43042,1595626516438
Fix,GT,37.4761312,-122.1674166,,29.890408,0.1,307.7556,1595626517438
Fix,GT,37.4762905,-122.1676877,,29.708344,0.1,307.95013,1595626518438
Fix,GT,37.4764502,-122.167957,,29.690382,0.1,308.3434,1595626519438
Fix,GT,37.4766129,-122.1682244,,29.811996,0.1,309.25406,1595626520438
Fix,GT,37.4767785,-122.16849,,29.833952,0.1,309.51852,1595626521438
Fix,GT,37.4769431,-122.1687564,,29.789816,0.1,308.67606,1595626522438
Fix,GT,37.4771037,-122.1690256,,29.707802,0.1,307.87262,1595626523438
Fix,GT,37.4772619,-122.1692962,,29.678118,0.1,307.5348,1595626524438
Fix,GT,37.477419,-122.1695674,,29.629593,0.1,307.38126,1595626525438
Fix,GT,37.4775757,-122.169838,,29.523073,0.1,307.48044,1595626526438
Fix,GT,37.4777322,-122.1701067,,29.369825,0.1,307.61847,1595626527438
Fix,GT,37.4778881,-122.1703739,,29.221298,0.1,307.71408,1595626528438
Fix,GT,37.4780439,-122.1706394,,29.110926,0.1,307.8103,1595626529438
Fix,GT,37.4781992,-122.1709044,,29.124002,0.1,307.69867,1595626530438
Fix,GT,37.4783544,-122.1711701,,29.134008,0.1,307.60394,1595626531438
Fix,GT,37.4785087,-122.1714355,,28.96722,0.1,307.40857,1595626532438
Fix,GT,37.4786611,-122.1716999,,28.76038,0.1,307.13483,1595626533438
Fix,GT,37.4788122,-122.1719626,,28.549446,0.1,307.32254,1595626534438
Fix,GT,37.4789631,-122.1722225,,28.33205,0.1,307.713,1595626535438
Fix,GT,37.4791141,-122.1724796,,28.191366,0.1,307.9138,1595626536438
Fix,GT,37.4792649,-122.1727352,,28.059933,0.1,307.93332,1595626537438
Fix,GT,37.4794145,-122.172989,,27.729818,0.1,307.79764,1595626538438
Fix,GT,37.4795617,-122.1732397,,27.381319,0.1,307.77795,1595626539438
Fix,GT,37.4797077,-122.1734886,,27.38287,0.1,307.74875,1595626540438
Fix,GT,37.4798539,-122.1737385,,27.484386,0.1,307.62378,1595626541438
Fix,GT,37.4799999,-122.1739892,,27.414429,0.1,307.51382,1595626542438
Fix,GT,37.480145,-122.1742396,,27.330032,0.1,307.25357,1595626543438
Fix,GT,37.4802886,-122.1744891,,27.080978,0.1,307.30063,1595626544438
Fix,GT,37.480431,-122.1747354,,26.78254,0.1,307.42773,1595626545438
Fix,GT,37.4805725,-122.1749797,,26.688875,0.1,307.37384,1595626546438
Fix,GT,37.4807141,-122.1752249,,26.917446,0.1,307.26346,1595626547438
Fix,GT,37.480857,-122.1754731,,27.232878,0.1,307.38324,1595626548438
Fix,GT,37.4810021,-122.1757226,,27.342701,0.1,307.76495,1595626549438
Fix,GT,37.4811481,-122.1759713,,27.317606,0.1,307.74335,1595626550438
Fix,GT,37.4812932,-122.1762206,,27.308933,0.1,307.3059,1595626551438
Fix,GT,37.4814374,-122.1764715,,27.429426,0.1,307.19388,1595626552438
Fix,GT,37.4815828,-122.1767232,,27.520916,0.1,307.49796,1595626553438
Fix,GT,37.4817286,-122.176974,,27.331213,0.1,307.51538,1595626554438
Fix,GT,37.4818722,-122.1772228,,27.028801,0.1,307.15585,1595626555438
Fix,GT,37.4820126,-122.1774702,,26.726768,0.1,306.43784,1595626556438
Fix,GT,37.482149,-122.1777187,,26.71288,0.1,305.37393,1595626557438
Fix,GT,37.4822825,-122.1779717,,26.99733,0.1,304.4056,1595626558438
Fix,GT,37.4824137,-122.1782295,,27.06736,0.1,303.55276,1595626559438
Fix,GT,37.4825416,-122.178489,,26.897781,0.1,302.65262,1595626560438
Fix,GT,37.482665,-122.1787504,,26.939734,0.1,301.41626,1595626561438
Fix,GT,37.482785,-122.1790174,,27.298763,0.1,300.29285,1595626562438
Fix,GT,37.4829028,-122.1792897,,27.433674,0.1,299.47726,1595626563438
Fix,GT,37.4830173,-122.1795631,,27.160519,0.1,298.81726,1595626564438
Fix,GT,37.4831283,-122.1798347,,26.795067,0.1,298.22754,1595626565438
Fix,GT,37.4832355,-122.1801041,,26.517586,0.1,297.64645,1595626566438
Fix,GT,37.4833404,-122.1803732,,26.563072,0.1,297.23346,1595626567438
Fix,GT,37.4834447,-122.1806464,,27.085423,0.1,296.65607,1595626568438
Fix,GT,37.4835489,-122.1809275,,27.70921,0.1,295.955,1595626569438
Fix,GT,37.4836522,-122.1812151,,28.058502,0.1,295.3378,1595626570438
Fix,GT,37.4837537,-122.1815064,,28.124552,0.1,294.64664,1595626571438
Fix,GT,37.483852,-122.1817987,,27.977917,0.1,293.9488,1595626572438
Fix,GT,37.4839472,-122.1820901,,27.747019,0.1,293.4167,1595626573438
Fix,GT,37.4840397,-122.1823806,,27.617687,0.1,292.95868,1595626574438
Fix,GT,37.48413,-122.1826711,,27.540047,0.1,292.41394,1595626575438
Fix,GT,37.4842177,-122.1829622,,27.515553,0.1,291.77222,1595626576438
Fix,GT,37.484303,-122.1832547,,27.612,0.1,291.19592,1595626577438
Fix,GT,37.4843865,-122.1835495,,27.735346,0.1,290.72913,1595626578438
Fix,GT,37.4844685,-122.1838465,,27.889027,0.1,290.20013,1595626579438
Fix,GT,37.4845487,-122.1841456,,27.899906,0.1,289.72736,1595626580438
Fix,GT,37.4846268,-122.1844448,,27.722776,0.1,289.2673,1595626581438
Fix,GT,37.4847021,-122.184742,,27.470411,0.1,288.75836,1595626582438
Fix,GT,37.4847742,-122.1850385,,27.395939,0.1,287.94797,1595626583438
Fix,GT,37.4848427,-122.1853391,,27.975836,0.1,286.5913,1595626584438
Fix,GT,37.4849068,-122.1856514,,29.096424,0.1,285.07385,1595626585438
Fix,GT,37.4849682,-122.1859765,,29.969719,0.1,284.5604,1595626586438
Fix,GT,37.4850314,-122.1863091,,30.470203,0.1,285.0073,1595626587438
Fix,GT,37.4850977,-122.1866455,,30.786993,0.1,285.3163,1595626588438
Fix,GT,37.4851638,-122.1869842,,30.854973,0.1,284.89786,1595626589438
Fix,GT,37.4852271,-122.1873236,,30.76447,0.1,284.20135,1595626590438
Fix,GT,37.4852871,-122.1876622,,30.611183,0.1,283.68668,1595626591438
Fix,GT,37.4853451,-122.1879999,,30.522236,0.1,283.32446,1595626592438
Fix,GT,37.4854009,-122.1883375,,30.445572,0.1,282.80338,1595626593438
Fix,GT,37.4854537,-122.1886738,,30.173546,0.1,282.13562,1595626594438
Fix,GT,37.4855022,-122.1890077,,29.86394,0.1,281.25793,1595626595438
Fix,GT,37.4855464,-122.1893391,,29.586584,0.1,280.49216,1595626596438
Fix,GT,37.4855879,-122.1896682,,29.325851,0.1,280.22803,1595626597438
Fix,GT,37.4856288,-122.1899943,,29.090416,0.1,280.39026,1595626598438
Fix,GT,37.48567,-122.1903182,,28.946041,0.1,280.3474,1595626599438
Fix,GT,37.4857102,-122.1906408,,28.802456,0.1,280.1734,1595626600438
Fix,GT,37.4857501,-122.1909617,,28.653973,0.1,280.28143,1595626601438
Fix,GT,37.4857906,-122.191281,,28.564701,0.1,280.47052,1595626602438
Fix,GT,37.4858311,-122.1916002,,28.620552,0.1,280.29315,1595626603438
Fix,GT,37.485871,-122.1919209,,28.814842,0.1,280.11105,1595626604438
Fix,GT,37.485911,-122.1922439,,28.965874,0.1,280.2245,1595626605438
Fix,GT,37.4859517,-122.1925672,,28.880337,0.1,280.39874,1595626606438
Fix,GT,37.4859928,-122.1928882,,28.636225,0.1,280.4233,1595626607438
Fix,GT,37.4860329,-122.1932076,,28.592327,0.1,280.0896,1595626608438
Fix,GT,37.4860723,-122.1935279,,28.751019,0.1,280.11145,1595626609438
Fix,GT,37.4861121,-122.1938501,,28.945202,0.1,280.16998,1595626610438
Fix,GT,37.4861521,-122.1941753,,29.312754,0.1,279.99683,1595626611438
Fix,GT,37.4861922,-122.1945058,,29.80539,0.1,279.9588,1595626612438
Fix,GT,37.4862329,-122.1948411,,30.168633,0.1,280.06226,1595626613438
Fix,GT,37.4862748,-122.1951796,,30.406315,0.1,280.18906,1595626614438
Fix,GT,37.4863171,-122.1955204,,30.568317,0.1,280.19858,1595626615438
Fix,GT,37.4863595,-122.1958621,,30.59105,0.1,280.1191,1595626616438
Fix,GT,37.4864016,-122.1962042,,30.668518,0.1,280.13513,1595626617438
Fix,GT,37.4864442,-122.1965479,,30.845142,0.1,280.17355,1595626618438
Fix,GT,37.4864869,-122.1968927,,30.842886,0.1,280.2083,1595626619438
Fix,GT,37.4865298,-122.1972362,,30.650185,0.1,280.30536,1595626620438
Fix,GT,37.4865726,-122.1975773,,30.429415,0.1,280.22253,1595626621438
Fix,GT,37.4866142,-122.1979162,,30.237545,0.1,280.00775,1595626622438
Fix,GT,37.4866552,-122.1982539,,30.234495,0.1,280.01773,1595626623438
Fix,GT,37.4866965,-122.1985928,,30.448698,0.1,280.0796,1595626624438
Fix,GT,37.4867386,-122.1989344,,30.656857,0.1,280.16757,1595626625438
Fix,GT,37.4867814,-122.1992766,,30.573124,0.1,280.34332,1595626626438
Fix,GT,37.4868245,-122.1996165,,30.319555,0.1,280.3771,1595626627438
Fix,GT,37.486867,-122.1999542,,30.133755,0.1,280.32425,1595626628438
Fix,GT,37.4869096,-122.2002896,,29.96563,0.1,280.45178,1595626629438
Fix,GT,37.4869525,-122.2006234,,29.87522,0.1,280.44092,1595626630438
Fix,GT,37.4869944,-122.2009581,,30.035307,0.1,280.17065,1595626631438
Fix,GT,37.4870361,-122.2012952,,30.27347,0.1,280.13943,1595626632438
Fix,GT,37.4870781,-122.2016343,,30.42374,0.1,280.1698,1595626633438
Fix,GT,37.4871199,-122.2019752,,30.59372,0.1,279.9815,1595626634438
Fix,GT,37.4871614,-122.2023181,,30.77215,0.1,279.9778,1595626635438
Fix,GT,37.4872036,-122.2026634,,30.999,0.1,280.09882,1595626636438
Fix,GT,37.4872463,-122.203011,,31.206244,0.1,280.1362,1595626637438
Fix,GT,37.4872896,-122.2033605,,31.368965,0.1,280.19916,1595626638438
Fix,GT,37.4873331,-122.2037125,,31.729511,0.1,280.08102,1595626639438
Fix,GT,37.4873768,-122.2040711,,32.505527,0.1,279.95276,1595626640438
Fix,GT,37.4874216,-122.2044403,,33.51666,0.1,280.001,1595626641438
Fix,GT,37.4874681,-122.2048195,,34.293457,0.1,280.13666,1595626642438
Fix,GT,37.4875158,-122.205205,,34.70461,0.1,280.1778,1595626643438
Fix,GT,37.4875643,-122.2055941,,34.93399,0.1,280.2017,1595626644438
Fix,GT,37.4876134,-122.2059848,,35.036392,0.1,280.39575,1595626645438
Fix,GT,37.4876634,-122.2063761,,35.03786,0.1,280.52396,1595626646438
Fix,GT,37.4877144,-122.2067674,,35.08383,0.1,280.7376,1595626647438
Fix,GT,37.4877679,-122.2071586,,35.108154,0.1,281.43713,1595626648438
Fix,GT,37.4878256,-122.2075487,,35.081306,0.1,282.2657,1595626649438
Fix,GT,37.4878875,-122.2079379,,35.09893,0.1,283.03058,1595626650438
Fix,GT,37.4879533,-122.2083262,,35.117065,0.1,283.5784,1595626651438
Fix,GT,37.4880219,-122.2087141,,35.157825,0.1,283.93475,1595626652438
Fix,GT,37.4880923,-122.2091019,,35.205135,0.1,284.42365,1595626653438
Fix,GT,37.4881655,-122.2094893,,35.18296,0.1,285.0367,1595626654438
Fix,GT,37.4882427,-122.2098741,,34.98582,0.1,285.96774,1595626655438
Fix,GT,37.4883245,-122.2102545,,34.677338,0.1,286.9739,1595626656438
Fix,GT,37.4884106,-122.2106295,,34.336952,0.1,287.84344,1595626657438
Fix,GT,37.4884996,-122.2109987,,33.89338,0.1,288.4475,1595626658438
Fix,GT,37.48859,-122.2113623,,33.516087,0.1,288.8829,1595626659438
Fix,GT,37.4886821,-122.2117214,,33.21077,0.1,289.60422,1595626660438
Fix,GT,37.4887775,-122.2120755,,32.8991,0.1,290.45657,1595626661438
Fix,GT,37.4888757,-122.2124242,,32.478485,0.1,291.08295,1595626662438
Fix,GT,37.4889751,-122.2127662,,31.917444,0.1,291.7447,1595626663438
Fix,GT,37.4890765,-122.2131017,,31.587368,0.1,292.45404,1595626664438
Fix,GT,37.4891808,-122.2134334,,31.531767,0.1,293.30637,1595626665438
Fix,GT,37.489289,-122.2137633,,31.540386,0.1,294.15836,1595626666438
Fix,GT,37.4894003,-122.2140916,,31.551968,0.1,294.66727,1595626667438
Fix,GT,37.4895137,-122.2144185,,31.497787,0.1,295.11115,1595626668438
Fix,GT,37.4896293,-122.2147432,,31.391167,0.1,295.7044,1595626669438
Fix,GT,37.489747,-122.2150653,,31.263231,0.1,296.32748,1595626670438
Fix,GT,37.489867,-122.2153844,,31.149849,0.1,296.93655,1595626671438
Fix,GT,37.4899898,-122.2157011,,31.201775,0.1,297.71555,1595626672438
Fix,GT,37.4901167,-122.2160172,,31.412453,0.1,298.47815,1595626673438
Fix,GT,37.4902477,-122.216333,,31.521454,0.1,299.19083,1595626674438
Fix,GT,37.4903814,-122.2166469,,31.42318,0.1,299.7483,1595626675438
Fix,GT,37.4905165,-122.2169581,,31.249313,0.1,300.0714,1595626676438
