MessageType,Provider,LatitudeDegrees,LongitudeDegrees,AltitudeMeters,SpeedMps,AccuracyMeters,BearingDegrees,UnixTimeMillis
Fix,GT,37.4273126,-122.0698653,,0.0022360682,0.1,86.37363,1596751189446
Fix,GT,37.4273126,-122.0698653,,0.0025774501,0.1,86.37378,1596751190446
Fix,GT,37.4273126,-122.0698653,,0.0039379997,0.1,86.37344,1596751191446
Fix,GT,37.4273126,-122.0698653,,0.0046629077,0.1,86.37317,1596751192446
Fix,GT,37.4273126,-122.0698653,,0.0041231057,0.1,86.372925,1596751193446
Fix,GT,37.4273126,-122.0698653,,0.004559217,0.1,86.37256,1596751194446
Fix,GT,37.4273126,-122.0698653,,0.00553863,0.1,86.371826,1596751195446
Fix,GT,37.4273126,-122.0698653,,0.0064926534,0.1,86.371216,1596751196446
Fix,GT,37.4273125,-122.0698653,,0.009399414,0.1,86.37109,1596751197446
Fix,GT,37.4273124,-122.0698653,,0.013677652,0.1,86.37082,1596751198446
Fix,GT,37.4273122,-122.0698653,,0.015666828,0.1,86.37048,1596751199446
Fix,GT,37.427312,-122.0698653,,0.01742125,0.1,86.37018,1596751200446
Fix,GT,37.4273118,-122.0698653,,0.01956141,0.1,86.3703,1596751201446
Fix,GT,37.4273117,-122.0698653,,0.031374928,0.1,86.37082,1596751202446
Fix,GT,37.4273131,-122.0698655,,0.34686607,0.1,85.8273,1596751203446
Fix,GT,37.4273199,-122.0698661,,1.0552864,0.1,84.023254,1596751204446
Fix,GT,37.4273339,-122.0698677,,1.9278047,0.1,82.572876,1596751205446
Fix,GT,37.427356,-122.0698701,,3.0765023,0.1,82.79831,1596751206446
Fix,GT,37.4273893,-122.0698733,,4.485592,0.1,83.715454,1596751207446
Fix,GT,37.4274359,-122.0698763,,6.0357304,0.1,85.13696,1596751208446
Fix,GT,37.4274961,-122.0698781,,7.4168205,0.1,85.69104,1596751209446
Fix,GT,37.4275688,-122.0698795,,8.391201,0.1,85.522644,1596751210446
Fix,GT,37.4276521,-122.06988,,9.093863,0.1,85.97455,1596751211446
Fix,GT,37.42774,-122.0698799,,9.384062,0.1,86.37506,1596751212446
Fix,GT,37.4278261,-122.0698818,,9.22721,0.1,86.72772,1596751213446
Fix,GT,37.4279085,-122.0698842,,8.99997,0.1,86.66818,1596751214446
Fix,GT,37.4279869,-122.0698889,,8.647684,0.1,86.29855,1596751215446
Fix,GT,37.42806,-122.0698938,,8.091223,0.1,87.10547,1596751216446
Fix,GT,37.4281263,-122.0698948,,7.3315306,0.1,88.74075,1596751217446
Fix,GT,37.4281877,-122.0698951,,6.533645,0.1,87.34558,1596751218446
Fix,GT,37.4282455,-122.0699031,,5.776128,0.1,77.10718,1596751219446
Fix,GT,37.4282968,-122.0699329,,5.273816,0.1,54.420532,1596751220446
Fix,GT,37.42833,-122.0699901,,5.064872,0.1,25.561218,1596751221446
Fix,GT,37.4283374,-122.0700596,,4.9360476,0.1,355.7644,1596751222446
Fix,GT,37.4283163,-122.0701233,,4.919608,0.1,323.2713,1596751223446
Fix,GT,37.4282708,-122.0701661,,5.115226,0.1,292.14075,1596751224446
Fix,GT,37.4282161,-122.0701808,,5.451996,0.1,272.5506,1596751225446
Fix,GT,37.4281634,-122.0701805,,5.950548,0.1,266.16327,1596751226446
Fix,GT,37.4281105,-122.0701778,,6.583308,0.1,266.05066,1596751227446
Fix,GT,37.4280513,-122.0701745,,7.106849,0.1,265.97855,1596751228446
Fix,GT,37.4279885,-122.0701707,,7.2617607,0.1,265.80798,1596751229446
Fix,GT,37.4279253,-122.0701679,,7.2351265,0.1,266.0637,1596751230446
Fix,GT,37.4278616,-122.0701655,,7.3202505,0.1,265.8511,1596751231446
Fix,GT,37.427797,-122.0701623,,7.3826876,0.1,265.3298,1596751232446
Fix,GT,37.4277329,-122.0701593,,7.2816396,0.1,265.854,1596751233446
Fix,GT,37.4276686,-122.0701578,,7.4564886,0.1,266.85355,1596751234446
Fix,GT,37.4276001,-122.0701561,,8.166987,0.1,267.00262,1596751235446
Fix,GT,37.4275253,-122.0701535,,8.648412,0.1,267.42398,1596751236446
Fix,GT,37.4274491,-122.0701521,,8.5657625,0.1,269.93353,1596751237446
Fix,GT,37.427374,-122.0701536,,8.289891,0.1,272.05103,1596751238446
Fix,GT,37.4272993,-122.070159,,8.375281,0.1,272.39838,1596751239446
Fix,GT,37.4272202,-122.0701663,,9.098333,0.1,271.9487,1596751240446
Fix,GT,37.4271341,-122.0701715,,9.541946,0.1,269.97122,1596751241446
Fix,GT,37.427048,-122.0701722,,9.149828,0.1,266.56058,1596751242446
Fix,GT,37.4269678,-122.0701692,,8.641018,0.1,264.372,1596751243446
Fix,GT,37.4268921,-122.0701667,,8.480466,0.1,265.10065,1596751244446
Fix,GT,37.4268168,-122.0701665,,8.5818405,0.1,267.1093,1596751245446
Fix,GT,37.4267394,-122.0701683,,8.878797,0.1,269.35767,1596751246446
Fix,GT,37.4266573,-122.0701726,,9.269878,0.1,269.58755,1596751247446
Fix,GT,37.4265722,-122.0701755,,9.340101,0.1,266.71143,1596751248446
Fix,GT,37.4264898,-122.0701735,,8.968705,0.1,265.0116,1596751249446
Fix,GT,37.4264118,-122.0701708,,8.620828,0.1,265.25916,1596751250446
Fix,GT,37.4263366,-122.0701723,,8.669975,0.1,268.79382,1596751251446
Fix,GT,37.4262586,-122.0701786,,8.99337,0.1,270.4526,1596751252446
Fix,GT,37.4261746,-122.0701827,,9.459259,0.1,267.82126,1596751253446
Fix,GT,37.4260884,-122.070183,,9.601385,0.1,266.92947,1596751254446
Fix,GT,37.4260025,-122.0701815,,9.46483,0.1,265.8087,1596751255446
Fix,GT,37.4259182,-122.0701775,,9.2456,0.1,264.4004,1596751256446
Fix,GT,37.4258374,-122.0701732,,8.992827,0.1,265.9348,1596751257446
Fix,GT,37.4257591,-122.0701733,,8.633079,0.1,268.44684,1596751258446
Fix,GT,37.4256829,-122.0701749,,8.066641,0.1,267.20306,1596751259446
Fix,GT,37.4256111,-122.0701732,,7.6441536,0.1,264.99005,1596751260446
Fix,GT,37.4255426,-122.0701707,,7.597093,0.1,265.88153,1596751261446
Fix,GT,37.4254739,-122.070172,,7.823676,0.1,269.55286,1596751262446
Fix,GT,37.4254026,-122.0701774,,7.8746486,0.1,271.1679,1596751263446
Fix,GT,37.4253297,-122.0701811,,7.6279306,0.1,267.55502,1596751264446
Fix,GT,37.4252609,-122.070179,,7.1558666,0.1,264.31284,1596751265446
Fix,GT,37.4251986,-122.0701752,,6.532914,0.1,264.80402,1596751266446
Fix,GT,37.4251414,-122.0701717,,5.5426035,0.1,261.16602,1596751267446
Fix,GT,37.4250904,-122.0701596,,4.7207327,0.1,246.50648,1596751268446
Fix,GT,37.4250489,-122.070127,,4.6433115,0.1,222.38092,1596751269446
Fix,GT,37.4250249,-122.0700763,,4.458094,0.1,199.43657,1596751270446
Fix,GT,37.4250162,-122.0700292,,3.6899803,0.1,192.67328,1596751271446
Fix,GT,37.4250101,-122.0700009,,3.1506298,0.1,208.85864,1596751272446
Fix,GT,37.4250012,-122.0699864,,3.0703506,0.1,238.42911,1596751273446
Fix,GT,37.4249877,-122.0699815,,3.7934995,0.1,274.2567,1596751274446
Fix,GT,37.4249657,-122.0699938,,5.3354793,0.1,309.06238,1596751275446
Fix,GT,37.424937,-122.0700381,,7.0886497,0.1,331.65204,1596751276446
Fix,GT,37.4249131,-122.0701123,,8.480942,0.1,345.38226,1596751277446
Fix,GT,37.4249011,-122.0702083,,9.7086115,0.1,354.63065,1596751278446
Fix,GT,37.4248962,-122.0703236,,10.897002,0.1,356.9229,1596751279446
Fix,GT,37.4248934,-122.0704524,,11.832167,0.1,357.27032,1596751280446
Fix,GT,37.4248918,-122.0705917,,12.642426,0.1,357.20663,1596751281446
Fix,GT,37.4248904,-122.0707411,,13.477782,0.1,356.7445,1596751282446
Fix,GT,37.4248898,-122.0709004,,14.316201,0.1,356.79807,1596751283446
Fix,GT,37.4248903,-122.0710682,,14.967852,0.1,356.93094,1596751284446
Fix,GT,37.4248916,-122.0712404,,15.202766,0.1,357.226,1596751285446
Fix,GT,37.4248939,-122.0714136,,15.237335,0.1,357.86575,1596751286446
Fix,GT,37.4248973,-122.0715866,,15.131851,0.1,358.05502,1596751287446
Fix,GT,37.4249003,-122.0717568,,14.780714,0.1,357.58508,1596751288446
Fix,GT,37.4249018,-122.0719231,,14.507261,0.1,357.14053,1596751289446
Fix,GT,37.4249026,-122.0720867,,14.359829,0.1,357.25018,1596751290446
Fix,GT,37.4249038,-122.0722487,,14.266724,0.1,357.60043,1596751291446
Fix,GT,37.4249059,-122.0724106,,14.40218,0.1,357.68436,1596751292446
Fix,GT,37.4249027,-122.072576,,14.827707,0.1,357.613,1596751293446
Fix,GT,37.424897,-122.0727473,,15.414965,0.1,357.63144,1596751294446
Fix,GT,37.4248977,-122.0729249,,16.020115,0.1,357.76654,1596751295446
Fix,GT,37.4248985,-122.0731093,,16.636742,0.1,357.6357,1596751296446
Fix,GT,37.4248933,-122.0733012,,17.19085,0.1,357.49655,1596751297446
Fix,GT,37.4248894,-122.0734969,,17.274624,0.1,357.60657,1596751298446
Fix,GT,37.4248942,-122.07369,,16.915884,0.1,357.54245,1596751299446
Fix,GT,37.4248949,-122.0738786,,16.48767,0.1,357.31137,1596751300446
Fix,GT,37.4248939,-122.0740627,,16.106125,0.1,357.24673,1596751301446
Fix,GT,37.4248932,-122.0742432,,15.7876625,0.1,356.90918,1596751302446
Fix,GT,37.4248921,-122.0744199,,15.485883,0.1,356.83408,1596751303446
Fix,GT,37.4248919,-122.0745937,,15.42005,0.1,357.48257,1596751304446
Fix,GT,37.4248935,-122.0747685,,15.685997,0.1,357.93015,1596751305446
Fix,GT,37.4248952,-122.0749469,,15.962598,0.1,357.8871,1596751306446
Fix,GT,37.4248966,-122.075128,,16.15152,0.1,357.89587,1596751307446
Fix,GT,37.424898,-122.0753108,,16.235228,0.1,358.04102,1596751308446
Fix,GT,37.4248993,-122.0754947,,16.253437,0.1,357.86224,1596751309446
Fix,GT,37.4248994,-122.0756789,,16.239552,0.1,357.24692,1596751310446
Fix,GT,37.4248982,-122.0758621,,16.122395,0.1,356.89377,1596751311446
Fix,GT,37.4248963,-122.0760427,,15.808613,0.1,356.67203,1596751312446
Fix,GT,37.4248938,-122.0762191,,15.4258995,0.1,356.49216,1596751313446
Fix,GT,37.4248921,-122.0763912,,15.207904,0.1,357.36963,1596751314446
Fix,GT,37.4248931,-122.0765635,,15.474939,0.1,358.2182,1596751315446
Fix,GT,37.424895,-122.07674,,15.682489,0.1,358.14542,1596751316446
Fix,GT,37.4248965,-122.0769146,,15.103462,0.1,358.03952,1596751317446
Fix,GT,37.4248976,-122.0770805,,14.130125,0.1,357.77582,1596751318446
Fix,GT,37.4248975,-122.0772351,,13.115406,0.1,356.86044,1596751319446
Fix,GT,37.4248949,-122.077377,,12.00621,0.1,355.42145,1596751320446
Fix,GT,37.4248896,-122.0775046,,10.680695,0.1,353.5895,1596751321446
Fix,GT,37.424882,-122.0776161,,8.999968,0.1,352.40475,1596751322446
Fix,GT,37.4248746,-122.077706,,6.8493967,0.1,352.78134,1596751323446
Fix,GT,37.424869,-122.0777692,,4.462266,0.1,354.31583,1596751324446
Fix,GT,37.4248655,-122.0778039,,2.192346,0.1,355.49072,1596751325446
Fix,GT,37.4248638,-122.0778129,,0.6117474,0.1,355.70032,1596751326446
Fix,GT,37.4248603,-122.077811,,0.04589614,0.1,355.7058,1596751327446
Fix,GT,37.4248647,-122.0778176,,0.057461645,0.1,355.70807,1596751328446
Fix,GT,37.4248747,-122.0778269,,0.088669576,0.1,355.7086,1596751329446
Fix,GT,37.4248753,-122.0778279,,0.22903228,0.1,355.70325,1596751330446
Fix,GT,37.4248758,-122.0778342,,1.1361895,0.1,355.69373,1596751331446
Fix,GT,37.4248756,-122.077857,,2.929563,0.1,354.80386,1596751332446
Fix,GT,37.4248718,-122.0779031,,4.5954485,0.1,347.9193,1596751333446
Fix,GT,37.4248554,-122.077966,,5.756588,0.1,331.8561,1596751334446
Fix,GT,37.424818,-122.0780301,,6.833874,0.1,313.0523,1596751335446
Fix,GT,37.4247582,-122.0780844,,8.276352,0.1,295.79614,1596751336446
Fix,GT,37.4246766,-122.0781219,,10.008786,0.1,281.26862,1596751337446
Fix,GT,37.424577,-122.0781407,,11.656769,0.1,272.47147,1596751338446
Fix,GT,37.4244632,-122.0781473,,13.144131,0.1,268.12244,1596751339446
Fix,GT,37.4243389,-122.0781461,,14.115364,0.1,265.7931,1596751340446
Fix,GT,37.4242101,-122.0781395,,14.147024,0.1,264.32358,1596751341446
Fix,GT,37.424086,-122.0781302,,13.239114,0.1,263.5681,1596751342446
Fix,GT,37.4239735,-122.0781204,,11.721983,0.1,263.4302,1596751343446
Fix,GT,37.4238762,-122.078112,,9.888388,0.1,263.59787,1596751344446
Fix,GT,37.4237963,-122.0781057,,7.9671063,0.1,264.02798,1596751345446
Fix,GT,37.4237338,-122.0781014,,5.9362445,0.1,264.41254,1596751346446
Fix,GT,37.4236892,-122.0780986,,4.002643,0.1,264.7134,1596751347446
Fix,GT,37.4236607,-122.0780971,,2.4554968,0.1,264.90244,1596751348446
Fix,GT,37.4236448,-122.0780964,,1.2103658,0.1,264.99268,1596751349446
Fix,GT,37.4236386,-122.0780962,,0.31962228,0.1,265.00787,1596751350446
Fix,GT,37.4236377,-122.0780963,,0.014415602,0.1,265.00998,1596751351446
Fix,GT,37.4236377,-122.0780964,,0.010304112,0.1,265.01025,1596751352446
Fix,GT,37.4236377,-122.0780964,,0.007925849,0.1,265.01093,1596751353446
Fix,GT,37.4236377,-122.0780964,,0.006751567,0.1,265.0116,1596751354446
Fix,GT,37.4236377,-122.0780964,,0.006632519,0.1,265.01147,1596751355446
Fix,GT,37.4236377,-122.0780964,,0.006086641,0.1,265.01212,1596751356446
Fix,GT,37.4236377,-122.0780964,,0.0067641884,0.1,265.01266,1596751357446
Fix,GT,37.4236377,-122.0780964,,0.0065943496,0.1,265.01257,1596751358446
Fix,GT,37.4236377,-122.0780964,,0.0062229726,0.1,265.0125,1596751359446
Fix,GT,37.4236377,-122.0780964,,0.0065367618,0.1,265.01276,1596751360446
Fix,GT,37.4236377,-122.0780964,,0.0061039766,0.1,265.0132,1596751361446
Fix,GT,37.4236377,-122.0780964,,0.0056317416,0.1,265.01358,1596751362446
Fix,GT,37.4236377,-122.0780964,,0.0053851646,0.1,265.01373,1596751363446
Fix,GT,37.4236372,-122.0780965,,0.20108935,0.1,265.01593,1596751364446
Fix,GT,37.4236347,-122.0780963,,0.3976785,0.1,265.02838,1596751365446
Fix,GT,37.4236316,-122.0780962,,0.20212789,0.1,265.0442,1596751366446
Fix,GT,37.4236307,-122.0780962,,0.01749676,0.1,265.04797,1596751367446
Fix,GT,37.4236306,-122.0780962,,0.0021054926,0.1,265.0465,1596751368446
Fix,GT,37.4236306,-122.0780962,,0.0025007776,0.1,265.04614,1596751369446
Fix,GT,37.4236306,-122.0780962,,0.0025637175,0.1,265.0468,1596751370446
Fix,GT,37.4236306,-122.0780962,,0.0016837021,0.1,265.04666,1596751371446
Fix,GT,37.4236306,-122.0780962,,0.001,0.1,265.0467,1596751372446
Fix,GT,37.4236306,-122.0780962,,0.0014468734,0.1,265.04666,1596751373446
Fix,GT,37.4236306,-122.0780962,,0.0029487596,0.1,265.04648,1596751374446
Fix,GT,37.4236306,-122.0780962,,0.006072446,0.1,265.0465,1596751375446
Fix,GT,37.4236307,-122.0780962,,0.010381204,0.1,265.0465,1596751376446
Fix,GT,37.4236307,-122.0780961,,0.013052219,0.1,265.04626,1596751377446
Fix,GT,37.4236306,-122.0780959,,0.14367932,0.1,265.04706,1596751378446
Fix,GT,37.4236276,-122.0780956,,0.5406544,0.1,265.0553,1596751379446
Fix,GT,37.4236219,-122.0780952,,0.59027445,0.1,265.07962,1596751380446
Fix,GT,37.4236187,-122.0780948,,0.17012545,0.1,265.09863,1596751381446
Fix,GT,37.4236184,-122.0780945,,0.023526799,0.1,265.09784,1596751382446
Fix,GT,37.4236185,-122.0780943,,0.02787737,0.1,265.09723,1596751383446
Fix,GT,37.4236186,-122.078094,,0.0425703,0.1,265.09946,1596751384446
Fix,GT,37.4236168,-122.0780935,,0.52714515,0.1,265.11475,1596751385446
Fix,GT,37.4236066,-122.0780925,,1.8468596,0.1,265.19623,1596751386446
Fix,GT,37.423584,-122.0780915,,3.3225899,0.1,267.31693,1596751387446
Fix,GT,37.4235523,-122.078095,,4.6351223,0.1,276.5337,1596751388446
Fix,GT,37.4235157,-122.0781111,,5.7561464,0.1,294.72815,1596751389446
Fix,GT,37.4234825,-122.0781467,,6.471196,0.1,319.0084,1596751390446
Fix,GT,37.423461,-122.0782052,,7.4396544,0.1,341.60873,1596751391446
Fix,GT,37.4234506,-122.0782915,,9.119545,0.1,352.03967,1596751392446
Fix,GT,37.4234435,-122.0784039,,10.907185,0.1,353.23114,1596751393446
Fix,GT,37.423436,-122.0785347,,12.266183,0.1,353.73856,1596751394446
Fix,GT,37.423429,-122.0786792,,13.405352,0.1,354.24185,1596751395446
Fix,GT,37.4234217,-122.0788366,,14.490203,0.1,354.27994,1596751396446
Fix,GT,37.4234139,-122.0790054,,15.375256,0.1,354.15942,1596751397446
Fix,GT,37.4234045,-122.0791834,,16.125872,0.1,354.0477,1596751398446
Fix,GT,37.4233943,-122.0793712,,17.119886,0.1,353.87613,1596751399446
Fix,GT,37.4233835,-122.0795703,,18.10217,0.1,353.44272,1596751400446
Fix,GT,37.4233696,-122.0797804,,18.921947,0.1,352.65164,1596751401446
Fix,GT,37.4233524,-122.0799995,,19.704922,0.1,351.71252,1596751402446
Fix,GT,37.4233316,-122.0802267,,20.416725,0.1,351.0086,1596751403446
Fix,GT,37.4233084,-122.0804612,,21.112114,0.1,350.61136,1596751404446
Fix,GT,37.4232844,-122.0807018,,21.718353,0.1,350.59546,1596751405446
Fix,GT,37.4232618,-122.0809458,,21.930746,0.1,351.15588,1596751406446
Fix,GT,37.4232426,-122.0811903,,21.949982,0.1,351.56363,1596751407446
Fix,GT,37.4232248,-122.0814354,,22.153957,0.1,351.39975,1596751408446
Fix,GT,37.4232058,-122.0816832,,22.458857,0.1,351.16724,1596751409446
Fix,GT,37.4231856,-122.0819339,,22.781372,0.1,351.13736,1596751410446
Fix,GT,37.4231662,-122.0821878,,23.313208,0.1,351.7433,1596751411446
Fix,GT,37.4231489,-122.0824499,,24.386679,0.1,353.10867,1596751412446
Fix,GT,37.4231371,-122.0827246,,25.719341,0.1,354.78165,1596751413446
Fix,GT,37.4231334,-122.0830134,,26.67413,0.1,356.43588,1596751414446
Fix,GT,37.423132,-122.0833158,,27.257671,0.1,358.09332,1596751415446
Fix,GT,37.4231328,-122.0836267,,27.627716,0.1,359.80658,1596751416446
Fix,GT,37.4231426,-122.0839411,,27.836725,0.1,1.5736389,1596751417446
Fix,GT,37.4231606,-122.084257,,27.934399,0.1,3.335968,1596751418446
Fix,GT,37.4231869,-122.0845719,,27.710037,0.1,5.132141,1596751419446
Fix,GT,37.4232216,-122.0848823,,27.183453,0.1,6.791168,1596751420446
Fix,GT,37.4232629,-122.0851847,,26.52861,0.1,8.143463,1596751421446
Fix,GT,37.4233084,-122.0854763,,25.806215,0.1,9.135468,1596751422446
Fix,GT,37.423356,-122.0857565,,25.092037,0.1,9.830048,1596751423446
Fix,GT,37.4234047,-122.0860277,,24.467426,0.1,10.54187,1596751424446
Fix,GT,37.4234552,-122.0862918,,24.001999,0.1,11.398376,1596751425446
Fix,GT,37.4235077,-122.0865492,,23.783512,0.1,11.661865,1596751426446
Fix,GT,37.4235596,-122.0868059,,23.878876,0.1,11.320251,1596751427446
Fix,GT,37.4236101,-122.0870689,,24.128838,0.1,11.150177,1596751428446
Fix,GT,37.4236614,-122.0873432,,24.31849,0.1,11.294434,1596751429446
Fix,GT,37.4237137,-122.0876202,,24.305435,0.1,11.229889,1596751430446
Fix,GT,37.4237647,-122.0878858,,23.935177,0.1,10.954468,1596751431446
Fix,GT,37.4238137,-122.0881455,,23.2999,0.1,10.775726,1596751432446
Fix,GT,37.4238538,-122.0883836,,22.566507,0.1,10.524994,1596751433446
Fix,GT,37.4238955,-122.0886219,,21.212704,0.1,10.152618,1596751434446
Fix,GT,37.4239424,-122.0888647,,19.383224,0.1,8.642609,1596751435446
Fix,GT,37.4239709,-122.0890725,,17.463469,0.1,4.1230774,1596751436446
Fix,GT,37.4239814,-122.0892601,,15.2777405,0.1,358.0899,1596751437446
Fix,GT,37.4239771,-122.0894208,,12.827034,0.1,353.7861,1596751438446
Fix,GT,37.4239655,-122.0895531,,10.462236,0.1,350.5325,1596751439446
Fix,GT,37.4239521,-122.08966,,8.339955,0.1,346.60022,1596751440446
Fix,GT,37.4239401,-122.0897426,,6.25764,0.1,342.78256,1596751441446
Fix,GT,37.4239285,-122.089801,,4.324747,0.1,340.62827,1596751442446
Fix,GT,37.4239197,-122.0898391,,2.7131202,0.1,339.87897,1596751443446
Fix,GT,37.4239145,-122.0898608,,1.3476173,0.1,339.69992,1596751444446
Fix,GT,37.423913,-122.0898691,,0.33388743,0.1,339.63974,1596751445446
Fix,GT,37.4239134,-122.0898715,,0.3453075,0.1,339.61313,1596751446446
Fix,GT,37.4239142,-122.089882,,1.8214517,0.1,339.41376,1596751447446
Fix,GT,37.4239055,-122.0899153,,4.3498354,0.1,338.78012,1596751448446
Fix,GT,37.4238846,-122.0899759,,6.8610682,0.1,337.95532,1596751449446
Fix,GT,37.42386,-122.0900611,,9.169723,0.1,337.2359,1596751450446
Fix,GT,37.4238276,-122.090169,,11.137597,0.1,336.47144,1596751451446
Fix,GT,37.4237894,-122.0902956,,12.831518,0.1,335.74664,1596751452446
Fix,GT,37.4237452,-122.090439,,14.41472,0.1,334.81503,1596751453446
Fix,GT,37.4236894,-122.0905954,,15.502411,0.1,332.3822,1596751454446
Fix,GT,37.4236215,-122.0907567,,16.120586,0.1,328.03625,1596751455446
Fix,GT,37.4235432,-122.0909173,,16.404774,0.1,322.85135,1596751456446
Fix,GT,37.4234529,-122.0910673,,16.37144,0.1,317.43048,1596751457446
Fix,GT,37.4233521,-122.0912014,,16.17651,0.1,311.73706,1596751458446
Fix,GT,37.4232431,-122.0913224,,15.619096,0.1,305.72525,1596751459446
Fix,GT,37.4231316,-122.091424,,14.556026,0.1,300.55118,1596751460446
Fix,GT,37.4230238,-122.0915062,,13.122959,0.1,296.97217,1596751461446
Fix,GT,37.422926,-122.0915718,,11.269814,0.1,294.0273,1596751462446
Fix,GT,37.4228404,-122.0916228,,9.695153,0.1,291.44922,1596751463446
Fix,GT,37.4227625,-122.0916648,,9.084444,0.1,290.0071,1596751464446
Fix,GT,37.4226887,-122.0917026,,8.652245,0.1,289.6807,1596751465446
Fix,GT,37.4226165,-122.0917399,,8.876219,0.1,290.1708,1596751466446
Fix,GT,37.4225371,-122.0917821,,10.508745,0.1,290.42636,1596751467446
Fix,GT,37.4224403,-122.0918333,,12.866058,0.1,290.30853,1596751468446
Fix,GT,37.4223257,-122.0918935,,14.6207075,0.1,290.2785,1596751469446
Fix,GT,37.4221998,-122.09196,,15.719755,0.1,290.43726,1596751470446
Fix,GT,37.4220664,-122.0920312,,16.429281,0.1,290.64804,1596751471446
Fix,GT,37.4219283,-122.0921056,,16.988453,0.1,290.81818,1596751472446
Fix,GT,37.4217852,-122.0921834,,17.639332,0.1,291.0075,1596751473446
Fix,GT,37.4216382,-122.0922638,,17.885258,0.1,291.20184,1596751474446
Fix,GT,37.4214915,-122.0923434,,17.629107,0.1,291.16492,1596751475446
Fix,GT,37.4213479,-122.0924204,,17.250425,0.1,291.15573,1596751476446
Fix,GT,37.4212076,-122.0924965,,16.8117,0.1,291.1625,1596751477446
Fix,GT,37.4210708,-122.0925714,,16.49888,0.1,290.96048,1596751478446
Fix,GT,37.4209333,-122.0926452,,16.744492,0.1,290.6245,1596751479446
Fix,GT,37.4207954,-122.0927175,,16.301489,0.1,290.26077,1596751480446
Fix,GT,37.4206664,-122.0927838,,14.497803,0.1,289.84027,1596751481446
Fix,GT,37.4205537,-122.0928403,,12.376303,0.1,289.41824,1596751482446
Fix,GT,37.4204598,-122.0928868,,10.008471,0.1,289.4096,1596751483446
Fix,GT,37.4203868,-122.0929235,,7.5284367,0.1,289.7738,1596751484446
Fix,GT,37.420335,-122.0929501,,4.975427,0.1,290.00525,1596751485446
Fix,GT,37.4203041,-122.092966,,2.6068392,0.1,290.01166,1596751486446
Fix,GT,37.4202897,-122.0929741,,1.1721547,0.1,289.84784,1596751487446
Fix,GT,37.4202834,-122.0929787,,0.5483015,0.1,289.61374,1596751488446
Fix,GT,37.420281,-122.0929809,,0.15294917,0.1,289.53955,1596751489446
Fix,GT,37.4202811,-122.0929814,,0.027159683,0.1,289.53256,1596751490446
Fix,GT,37.4202813,-122.0929815,,0.027601454,0.1,289.53082,1596751491446
Fix,GT,37.4202812,-122.0929813,,0.031173179,0.1,289.528,1596751492446
Fix,GT,37.420278,-122.0929822,,0.67491394,0.1,289.46548,1596751493446
Fix,GT,37.4202658,-122.0929875,,2.096331,0.1,289.28442,1596751494446
Fix,GT,37.4202428,-122.0929981,,3.1036894,0.1,289.0061,1596751495446
Fix,GT,37.4202127,-122.093012,,3.9393253,0.1,288.7394,1596751496446
Fix,GT,37.4201738,-122.09303,,5.2328544,0.1,288.6153,1596751497446
Fix,GT,37.4201234,-122.0930534,,6.629662,0.1,288.58017,1596751498446
Fix,GT,37.4200606,-122.0930832,,8.2136,0.1,289.1264,1596751499446
Fix,GT,37.4199866,-122.09312,,9.188781,0.1,290.1361,1596751500446
Fix,GT,37.4199109,-122.093159,,8.696326,0.1,290.57916,1596751501446
Fix,GT,37.4198437,-122.093194,,7.3995776,0.1,291.64856,1596751502446
Fix,GT,37.4197908,-122.093226,,6.2016287,0.1,298.27072,1596751503446
Fix,GT,37.4197551,-122.0932608,,5.5830717,0.1,315.48895,1596751504446
Fix,GT,37.4197358,-122.0933024,,5.4806137,0.1,340.10727,1596751505446
Fix,GT,37.4197323,-122.0933506,,5.8295164,0.1,5.7241516,1596751506446
Fix,GT,37.4197469,-122.0933992,,6.313923,0.1,30.909058,1596751507446
Fix,GT,37.4197804,-122.0934375,,6.764888,0.1,56.045563,1596751508446
Fix,GT,37.4198308,-122.0934587,,7.498401,0.1,76.77417,1596751509446
Fix,GT,37.4198987,-122.0934652,,8.444935,0.1,86.14496,1596751510446
Fix,GT,37.4199812,-122.0934659,,9.044697,0.1,87.67792,1596751511446
Fix,GT,37.4200679,-122.0934657,,9.256887,0.1,87.745544,1596751512446
Fix,GT,37.4201534,-122.093466,,9.732858,0.1,87.145325,1596751513446
Fix,GT,37.420244,-122.0934684,,10.239335,0.1,85.88373,1596751514446
Fix,GT,37.4203361,-122.0934734,,10.274199,0.1,84.66226,1596751515446
Fix,GT,37.420428,-122.0934799,,10.215288,0.1,84.28601,1596751516446
Fix,GT,37.4205206,-122.0934868,,10.109425,0.1,83.818634,1596751517446
Fix,GT,37.420612,-122.0934948,,10.237049,0.1,83.197174,1596751518446
Fix,GT,37.4207062,-122.0935051,,10.745638,0.1,82.0585,1596751519446
Fix,GT,37.4208051,-122.093519,,11.053503,0.1,80.46777,1596751520446
Fix,GT,37.4209031,-122.093536,,10.538553,0.1,79.29431,1596751521446
Fix,GT,37.420994,-122.0935534,,9.663084,0.1,78.81415,1596751522446
Fix,GT,37.4210756,-122.0935673,,8.870364,0.1,81.92273,1596751523446
Fix,GT,37.4211467,-122.0935706,,7.9467273,0.1,91.38809,1596751524446
Fix,GT,37.4212059,-122.0935576,,6.853546,0.1,106.49924,1596751525446
Fix,GT,37.421247,-122.0935323,,5.2034836,0.1,126.111664,1596751526446
Fix,GT,37.4212685,-122.0935035,,3.9879003,0.1,147.17538,1596751527446
Fix,GT,37.4212769,-122.0934698,,4.744732,0.1,168.49097,1596751528446
Fix,GT,37.4212738,-122.0934135,,7.2942686,0.1,186.17845,1596751529446
Fix,GT,37.4212536,-122.0933242,,10.246923,0.1,197.91368,1596751530446
Fix,GT,37.4212105,-122.0932135,,12.645252,0.1,208.3345,1596751531446
Fix,GT,37.4211418,-122.0930907,,14.793903,0.1,215.81194,1596751532446
Fix,GT,37.4210523,-122.0929552,,16.982174,0.1,218.22023,1596751533446
Fix,GT,37.4209488,-122.0928022,,18.942654,0.1,217.77989,1596751534446
Fix,GT,37.4208364,-122.0926333,,20.341831,0.1,216.8315,1596751535446
Fix,GT,37.4207192,-122.0924539,,21.274729,0.1,216.85416,1596751536446
Fix,GT,37.4205962,-122.0922714,,21.888529,0.1,218.26831,1596751537446
Fix,GT,37.4204644,-122.0920897,,22.23264,0.1,219.48424,1596751538446
Fix,GT,37.4203274,-122.0919107,,22.292435,0.1,219.68115,1596751539446
Fix,GT,37.4201933,-122.0918252,,22.301144,0.1,219.49706,1596751540446
Fix,GT,37.4200519,-122.0916463,,22.565102,0.1,219.49045,1596751541446
Fix,GT,37.4199045,-122.0913221,,22.746517,0.1,219.59827,1596751542446
Fix,GT,37.4197674,-122.0911314,,22.722713,0.1,219.46034,1596751543446
Fix,GT,37.4196306,-122.0909401,,22.773272,0.1,219.49666,1596751544446
Fix,GT,37.4194926,-122.0907482,,23.04114,0.1,219.67175,1596751545446
Fix,GT,37.419351,-122.090556,,23.407372,0.1,219.72646,1596751546446
Fix,GT,37.4192073,-122.0903624,,23.750675,0.1,219.74396,1596751547446
Fix,GT,37.4190633,-122.0901638,,24.104504,0.1,219.76393,1596751548446
Fix,GT,37.4189167,-122.0899609,,24.497858,0.1,219.72957,1596751549446
Fix,GT,37.4187675,-122.0897545,,24.82452,0.1,219.79814,1596751550446
Fix,GT,37.4186157,-122.0895469,,25.054508,0.1,219.99463,1596751551446
Fix,GT,37.4184615,-122.0893388,,25.318184,0.1,220.1501,1596751552446
Fix,GT,37.4183042,-122.0891295,,25.708946,0.1,220.30934,1596751553446
Fix,GT,37.4181438,-122.0889178,,26.130627,0.1,220.1753,1596751554446
Fix,GT,37.4179816,-122.0887017,,26.595299,0.1,219.6168,1596751555446
Fix,GT,37.4178178,-122.0884798,,27.194332,0.1,219.35817,1596751556446
Fix,GT,37.4176506,-122.0882511,,27.950352,0.1,219.38524,1596751557446
Fix,GT,37.4174781,-122.0880151,,28.821453,0.1,219.58804,1596751558446
Fix,GT,37.4173003,-122.0877728,,29.543283,0.1,219.70401,1596751559446
Fix,GT,37.4171179,-122.087524,,30.359514,0.1,219.72682,1596751560446
Fix,GT,37.4169306,-122.087267,,31.340961,0.1,219.75432,1596751561446
Fix,GT,37.4167385,-122.0870018,,32.002365,0.1,219.82103,1596751562446
Fix,GT,37.4165442,-122.0867338,,31.984331,0.1,219.96072,1596751563446
Fix,GT,37.4163501,-122.0864684,,31.659176,0.1,220.09186,1596751564446
Fix,GT,37.4161577,-122.0862056,,31.30519,0.1,219.93568,1596751565446
Fix,GT,37.4159682,-122.0859438,,31.063465,0.1,219.7531,1596751566446
Fix,GT,37.4157801,-122.0856821,,31.136723,0.1,219.60735,1596751567446
Fix,GT,37.4155924,-122.0854189,,31.22864,0.1,219.40189,1596751568446
Fix,GT,37.4154054,-122.0851563,,30.984669,0.1,219.44864,1596751569446
Fix,GT,37.4152193,-122.0848982,,30.604725,0.1,219.91965,1596751570446
Fix,GT,37.4150337,-122.0846459,,30.178001,0.1,220.26752,1596751571446
Fix,GT,37.41485,-122.084398,,29.757011,0.1,219.9837,1596751572446
Fix,GT,37.4146705,-122.0841521,,29.295307,0.1,219.20863,1596751573446
Fix,GT,37.4144967,-122.0839068,,28.824617,0.1,218.18082,1596751574446
Fix,GT,37.4143295,-122.0836619,,28.352703,0.1,217.00786,1596751575446
Fix,GT,37.4141695,-122.0834171,,27.846928,0.1,215.83022,1596751576446
Fix,GT,37.4140161,-122.0831721,,27.445332,0.1,214.65863,1596751577446
Fix,GT,37.4138684,-122.0829265,,27.172941,0.1,213.56947,1596751578446
Fix,GT,37.4137252,-122.0826791,,27.162651,0.1,212.60278,1596751579446
Fix,GT,37.4135845,-122.0824261,,27.567003,0.1,211.58092,1596751580446
Fix,GT,37.4134453,-122.0821663,,27.847382,0.1,210.80476,1596751581446
Fix,GT,37.4133084,-122.0819032,,27.662495,0.1,210.13129,1596751582446
Fix,GT,37.4131753,-122.0816401,,27.402988,0.1,209.4037,1596751583446
Fix,GT,37.4130461,-122.0813763,,27.210928,0.1,208.4336,1596751584446
Fix,GT,37.4129219,-122.0811099,,27.187004,0.1,206.90926,1596751585446
Fix,GT,37.4128035,-122.0808383,,27.363335,0.1,205.47614,1596751586446
Fix,GT,37.4126881,-122.0805636,,27.501957,0.1,204.91843,1596751587446
Fix,GT,37.4125741,-122.080289,,27.390879,0.1,204.74365,1596751588446
Fix,GT,37.4124616,-122.0800155,,27.028442,0.1,204.69197,1596751589446
Fix,GT,37.4123506,-122.0797455,,26.54587,0.1,204.9253,1596751590446
Fix,GT,37.4122403,-122.0794814,,26.165573,0.1,205.14716,1596751591446
Fix,GT,37.4121311,-122.0792215,,25.889488,0.1,205.00407,1596751592446
Fix,GT,37.4120236,-122.0789622,,25.846125,0.1,204.57994,1596751593446
Fix,GT,37.4119164,-122.0786998,,26.245108,0.1,204.62517,1596751594446
Fix,GT,37.4118068,-122.0784322,,26.73791,0.1,204.76082,1596751595446
Fix,GT,37.4116953,-122.0781604,,27.15591,0.1,204.55351,1596751596446
Fix,GT,37.411583,-122.0778837,,27.7032,0.1,204.3275,1596751597446
Fix,GT,37.4114694,-122.0776016,,28.068752,0.1,204.33344,1596751598446
Fix,GT,37.4113548,-122.0773178,,28.072882,0.1,204.5992,1596751599446
Fix,GT,37.4112401,-122.077037,,27.690292,0.1,205.07314,1596751600446
Fix,GT,37.4111254,-122.0767629,,27.139135,0.1,205.43068,1596751601446
Fix,GT,37.4110119,-122.0764935,,26.824718,0.1,205.25404,1596751602446
Fix,GT,37.4108994,-122.0762246,,27.068947,0.1,205.44705,1596751603446
Fix,GT,37.4107819,-122.0759524,,27.926903,0.1,206.85077,1596751604446
Fix,GT,37.4106547,-122.0756738,,29.007956,0.1,207.65402,1596751605446
Fix,GT,37.4105214,-122.0753848,,30.21542,0.1,207.49107,1596751606446
Fix,GT,37.4103833,-122.0750834,,31.345963,0.1,207.41919,1596751607446
Fix,GT,37.410241,-122.0747726,,32.03563,0.1,207.46307,1596751608446
Fix,GT,37.4100964,-122.0744577,,32.28195,0.1,207.63698,1596751609446
Fix,GT,37.4099505,-122.0741409,,32.438534,0.1,207.55757,1596751610446
Fix,GT,37.4098045,-122.0738218,,32.619053,0.1,207.33662,1596751611446
Fix,GT,37.4096587,-122.0735012,,32.641804,0.1,207.3944,1596751612446
Fix,GT,37.4095124,-122.0731824,,32.463005,0.1,207.65616,1596751613446
Fix,GT,37.4093661,-122.0728678,,32.04651,0.1,207.91663,1596751614446
Fix,GT,37.4092218,-122.0725578,,31.37814,0.1,207.74098,1596751615446
Fix,GT,37.4090816,-122.0722549,,30.617268,0.1,207.55476,1596751616446
Fix,GT,37.408945,-122.0719615,,29.840263,0.1,207.97023,1596751617446
Fix,GT,37.4088078,-122.0716777,,29.271152,0.1,209.55586,1596751618446
Fix,GT,37.4086629,-122.0714059,,29.069365,0.1,213.5723,1596751619446
Fix,GT,37.4085021,-122.0711516,,28.989607,0.1,219.29973,1596751620446
Fix,GT,37.4083213,-122.0709209,,28.918385,0.1,225.44449,1596751621446
Fix,GT,37.4081229,-122.0707151,,28.79418,0.1,231.08029,1596751622446
Fix,GT,37.4079111,-122.0705343,,28.546215,0.1,236.16388,1596751623446
Fix,GT,37.4076892,-122.0703797,,28.441322,0.1,241.51225,1596751624446
Fix,GT,37.4074558,-122.070253,,28.701265,0.1,247.3453,1596751625446
Fix,GT,37.4072105,-122.0701557,,29.025684,0.1,253.31143,1596751626446
Fix,GT,37.4069548,-122.0700884,,29.522657,0.1,258.64734,1596751627446
Fix,GT,37.4066897,-122.070049,,30.22799,0.1,263.18884,1596751628446
Fix,GT,37.4064154,-122.0700311,,31.139236,0.1,265.88803,1596751629446
Fix,GT,37.4061298,-122.070023,,32.32474,0.1,266.38217,1596751630446
Fix,GT,37.4058339,-122.0700146,,33.21727,0.1,266.31378,1596751631446
Fix,GT,37.4055332,-122.0700068,,33.519108,0.1,266.50327,1596751632446
Fix,GT,37.4052305,-122.0699997,,33.610744,0.1,266.7391,1596751633446
Fix,GT,37.4049293,-122.0699979,,33.596214,0.1,267.28848,1596751634446
Fix,GT,37.4046293,-122.0700019,,33.583996,0.1,267.8613,1596751635446
Fix,GT,37.4043264,-122.0700052,,33.688545,0.1,267.99847,1596751636446
Fix,GT,37.4040222,-122.0700084,,33.798412,0.1,267.81195,1596751637446
Fix,GT,37.4037177,-122.0700103,,33.801853,0.1,267.67084,1596751638446
Fix,GT,37.4034133,-122.0700116,,33.828896,0.1,267.56885,1596751639446
Fix,GT,37.4031085,-122.0700134,,33.9076,0.1,267.6579,1596751640446
Fix,GT,37.402803,-122.0700164,,33.97535,0.1,267.8058,1596751641446
Fix,GT,37.4024967,-122.0700199,,34.082157,0.1,267.81104,1596751642446
Fix,GT,37.4021889,-122.0700231,,34.30636,0.1,267.7362,1596751643446
Fix,GT,37.4018786,-122.0700259,,34.663513,0.1,267.69757,1596751644446
Fix,GT,37.4015644,-122.0700283,,35.08944,0.1,267.61417,1596751645446
Fix,GT,37.4012466,-122.0700292,,35.404583,0.1,267.21622,1596751646446
Fix,GT,37.4009261,-122.070025,,35.644714,0.1,266.04025,1596751647446
Fix,GT,37.4006033,-122.0700103,,35.8872,0.1,264.02527,1596751648446
Fix,GT,37.4002793,-122.0699791,,36.06759,0.1,261.35437,1596751649446
Fix,GT,37.3999557,-122.0699273,,36.140667,0.1,258.49277,1596751650446
Fix,GT,37.3996345,-122.0698574,,36.149796,0.1,256.5162,1596751651446
Fix,GT,37.3993148,-122.0697776,,36.206593,0.1,255.66403,1596751652446
Fix,GT,37.3989949,-122.0696939,,36.336266,0.1,255.38066,1596751653446
Fix,GT,37.3986742,-122.0696076,,36.467083,0.1,255.08559,1596751654446
Fix,GT,37.398353,-122.0695191,,36.540894,0.1,254.8919,1596751655446
Fix,GT,37.3980314,-122.0694299,,36.5696,0.1,255.0947,1596751656446
Fix,GT,37.3977091,-122.0693419,,36.484474,0.1,255.29742,1596751657446
Fix,GT,37.3973876,-122.0692552,,36.266586,0.1,255.37297,1596751658446
Fix,GT,37.3970676,-122.0691697,,36.04516,0.1,255.35428,1596751659446
Fix,GT,37.3967497,-122.0690848,,35.755825,0.1,255.34665,1596751660446
Fix,GT,37.3964349,-122.069001,,35.401722,0.1,255.51538,1596751661446
Fix,GT,37.3961232,-122.06892,,35.10966,0.1,255.91586,1596751662446
Fix,GT,37.3958132,-122.0688435,,35.031208,0.1,256.93793,1596751663446
Fix,GT,37.3955021,-122.068775,,35.08284,0.1,258.27954,1596751664446
Fix,GT,37.3951889,-122.068715,,35.037216,0.1,259.27332,1596751665446
Fix,GT,37.3948757,-122.0686616,,34.934315,0.1,260.28165,1596751666446
Fix,GT,37.3945635,-122.0686158,,34.72068,0.1,261.71497,1596751667446
Fix,GT,37.3942526,-122.0685813,,34.298058,0.1,263.59247,1596751668446
Fix,GT,37.3939458,-122.0685594,,33.885704,0.1,265.28467,1596751669446
Fix,GT,37.3936452,-122.0685481,,33.48787,0.1,266.85712,1596751670446
Fix,GT,37.3933468,-122.0685477,,32.911068,0.1,268.31482,1596751671446
Fix,GT,37.3930584,-122.0685605,,32.152866,0.1,269.63663,1596751672446
Fix,GT,37.3927802,-122.0685814,,31.344166,0.1,270.7898,1596751673446
Fix,GT,37.3925018,-122.0686035,,30.667921,0.1,271.4949,1596751674446
Fix,GT,37.3922291,-122.0686285,,30.07717,0.1,271.87787,1596751675446
Fix,GT,37.3919603,-122.0686555,,29.568914,0.1,272.06912,1596751676446
Fix,GT,37.3916952,-122.0686832,,29.108807,0.1,272.04858,1596751677446
Fix,GT,37.3914338,-122.0687132,,28.65527,0.1,271.97226,1596751678446
Fix,GT,37.391177,-122.0687426,,28.145004,0.1,271.8245,1596751679446
Fix,GT,37.3909271,-122.0687664,,27.756586,0.1,271.70874,1596751680446
Fix,GT,37.3906793,-122.0687893,,27.590914,0.1,271.71396,1596751681446
Fix,GT,37.390432,-122.0688124,,27.536232,0.1,271.78876,1596751682446
Fix,GT,37.3901848,-122.0688357,,27.522974,0.1,271.6726,1596751683446
Fix,GT,37.3899374,-122.068858,,27.448383,0.1,271.44977,1596751684446
Fix,GT,37.3896904,-122.0688799,,27.411213,0.1,271.45236,1596751685446
Fix,GT,37.3894433,-122.0689021,,27.362652,0.1,271.52634,1596751686446
Fix,GT,37.3891963,-122.0689249,,27.296925,0.1,271.50366,1596751687446
Fix,GT,37.3889491,-122.0689463,,27.282894,0.1,270.66425,1596751688446
Fix,GT,37.3887013,-122.0689607,,27.440098,0.1,268.9144,1596751689446
Fix,GT,37.3884519,-122.068964,,27.872799,0.1,266.949,1596751690446
Fix,GT,37.3881985,-122.0689548,,28.584517,0.1,265.05627,1596751691446
Fix,GT,37.3879396,-122.0689343,,29.208717,0.1,263.52365,1596751692446
Fix,GT,37.3876773,-122.0689057,,29.566492,0.1,262.5157,1596751693446
Fix,GT,37.3874136,-122.0688714,,29.863628,0.1,262.0119,1596751694446
Fix,GT,37.3871477,-122.0688351,,30.141003,0.1,262.08984,1596751695446
Fix,GT,37.386878,-122.0688007,,30.396349,0.1,262.4955,1596751696446
Fix,GT,37.3866056,-122.0687693,,30.473026,0.1,262.704,1596751697446
Fix,GT,37.3863327,-122.0687389,,30.394928,0.1,262.60574,1596751698446
Fix,GT,37.3860613,-122.0687081,,30.143562,0.1,262.48975,1596751699446
Fix,GT,37.3857919,-122.0686773,,30.026213,0.1,262.33826,1596751700446
Fix,GT,37.3855223,-122.0686459,,30.07806,0.1,262.23886,1596751701446
Fix,GT,37.385254,-122.0686151,,29.735338,0.1,262.55267,1596751702446
Fix,GT,37.38499,-122.0685869,,29.087381,0.1,262.62842,1596751703446
Fix,GT,37.3847311,-122.0685583,,28.697979,0.1,262.1839,1596751704446
Fix,GT,37.3844732,-122.0685266,,28.912031,0.1,261.83572,1596751705446
Fix,GT,37.3842131,-122.0684942,,29.176464,0.1,262.0376,1596751706446
Fix,GT,37.3839531,-122.0684636,,28.909153,0.1,262.5229,1596751707446
Fix,GT,37.3836958,-122.0684356,,28.610422,0.1,262.6354,1596751708446
Fix,GT,37.3834409,-122.0684082,,28.345926,0.1,262.56403,1596751709446
Fix,GT,37.3831883,-122.0683782,,28.073383,0.1,262.54556,1596751710446
Fix,GT,37.382938,-122.0683475,,27.806583,0.1,262.5499,1596751711446
Fix,GT,37.382689,-122.0683195,,27.667591,0.1,262.50662,1596751712446
Fix,GT,37.3824405,-122.0682913,,27.705158,0.1,262.4584,1596751713446
Fix,GT,37.3821917,-122.0682616,,27.85096,0.1,262.30566,1596751714446
Fix,GT,37.3819408,-122.068233,,27.90907,0.1,262.19064,1596751715446
Fix,GT,37.3816899,-122.068207,,27.738714,0.1,262.20978,1596751716446
Fix,GT,37.3814418,-122.0681805,,27.500908,0.1,262.3156,1596751717446
Fix,GT,37.3811956,-122.0681537,,27.349514,0.1,262.41315,1596751718446
Fix,GT,37.3809496,-122.0681263,,27.566301,0.1,262.4391,1596751719446
Fix,GT,37.3807008,-122.0680975,,28.096678,0.1,262.4482,1596751720446
Fix,GT,37.380449,-122.0680691,,28.31087,0.1,262.66257,1596751721446
Fix,GT,37.3801965,-122.0680425,,28.123173,0.1,262.74802,1596751722446
Fix,GT,37.3799448,-122.0680162,,27.835983,0.1,262.52536,1596751723446
Fix,GT,37.3796955,-122.0679896,,27.389936,0.1,262.448,1596751724446
Fix,GT,37.3794515,-122.0679633,,26.685152,0.1,262.38004,1596751725446
Fix,GT,37.3792154,-122.0679368,,25.876347,0.1,262.15384,1596751726446
Fix,GT,37.378985,-122.0679102,,25.362995,0.1,262.04877,1596751727446
Fix,GT,37.3787582,-122.0678848,,25.342276,0.1,262.27054,1596751728446
Fix,GT,37.3785305,-122.0678603,,25.972494,0.1,262.7552,1596751729446
Fix,GT,37.3782924,-122.0678383,,27.154112,0.1,263.6964,1596751730446
Fix,GT,37.3780442,-122.0678223,,28.25514,0.1,265.33737,1596751731446
Fix,GT,37.377788,-122.0678152,,28.901594,0.1,267.18985,1596751732446
Fix,GT,37.3775242,-122.0678189,,29.372307,0.1,268.92615,1596751733446
Fix,GT,37.3772571,-122.0678334,,29.690075,0.1,270.68112,1596751734446
Fix,GT,37.3769909,-122.0678571,,29.92106,0.1,272.17395,1596751735446
Fix,GT,37.3767225,-122.0678883,,30.127148,0.1,273.10657,1596751736446
Fix,GT,37.3764527,-122.067923,,30.117691,0.1,273.19882,1596751737446
Fix,GT,37.3761848,-122.0679571,,29.8339,0.1,273.08414,1596751738446
Fix,GT,37.3759206,-122.0679911,,29.524944,0.1,273.36172,1596751739446
Fix,GT,37.3756581,-122.0680258,,29.366661,0.1,273.26517,1596751740446
Fix,GT,37.3753961,-122.068057,,29.31695,0.1,272.05292,1596751741446
Fix,GT,37.375133,-122.0680778,,29.326391,0.1,269.64722,1596751742446
Fix,GT,37.3748695,-122.068083,,29.144451,0.1,266.6925,1596751743446
Fix,GT,37.3746085,-122.0680719,,28.750507,0.1,264.06906,1596751744446
Fix,GT,37.3743518,-122.0680467,,28.253586,0.1,261.53513,1596751745446
Fix,GT,37.3741006,-122.0680079,,27.719997,0.1,258.96576,1596751746446
Fix,GT,37.3738558,-122.0679558,,27.133257,0.1,256.3275,1596751747446
Fix,GT,37.3736182,-122.0678918,,26.578905,0.1,253.82695,1596751748446
Fix,GT,37.3733878,-122.067817,,26.109573,0.1,251.56265,1596751749446
Fix,GT,37.3731632,-122.0677316,,25.77066,0.1,249.07161,1596751750446
Fix,GT,37.3729448,-122.0676344,,25.42595,0.1,246.2927,1596751751446
Fix,GT,37.3727334,-122.0675262,,25.083141,0.1,244.10495,1596751752446
Fix,GT,37.3725272,-122.0674117,,24.879059,0.1,242.94122,1596751753446
Fix,GT,37.3723225,-122.0672936,,24.998814,0.1,242.22525,1596751754446
Fix,GT,37.3721161,-122.0671708,,25.571991,0.1,241.62222,1596751755446
Fix,GT,37.3719058,-122.0670436,,26.133713,0.1,241.47748,1596751756446
Fix,GT,37.371692,-122.0669144,,26.412045,0.1,241.71732,1596751757446
Fix,GT,37.3714771,-122.0667853,,26.334259,0.1,241.76657,1596751758446
Fix,GT,37.3712646,-122.0666575,,25.882145,0.1,241.59088,1596751759446
Fix,GT,37.3710564,-122.0665313,,25.44566,0.1,241.48569,1596751760446
Fix,GT,37.3708515,-122.0664066,,25.09426,0.1,241.49373,1596751761446
Fix,GT,37.370651,-122.0662835,,24.731419,0.1,241.5634,1596751762446
Fix,GT,37.3704461,-122.0661634,,24.273659,0.1,241.67856,1596751763446
Fix,GT,37.3702417,-122.0660466,,23.667923,0.1,241.7063,1596751764446
Fix,GT,37.3700522,-122.0659314,,23.156414,0.1,241.75757,1596751765446
Fix,GT,37.3698655,-122.0658183,,22.978598,0.1,241.77704,1596751766446
Fix,GT,37.3696784,-122.0657049,,23.242361,0.1,241.62123,1596751767446
Fix,GT,37.3694881,-122.0655887,,23.742163,0.1,241.46259,1596751768446
Fix,GT,37.3692944,-122.0654699,,24.113827,0.1,241.46732,1596751769446
Fix,GT,37.3690981,-122.0653494,,24.39518,0.1,241.43396,1596751770446
Fix,GT,37.3689003,-122.0652278,,24.483006,0.1,241.52753,1596751771446
Fix,GT,37.3687022,-122.0651073,,24.406149,0.1,241.7908,1596751772446
Fix,GT,37.3685045,-122.064988,,24.332787,0.1,241.86533,1596751773446
Fix,GT,37.3683069,-122.0648687,,24.388308,0.1,241.77864,1596751774446
Fix,GT,37.3681088,-122.0647482,,24.49889,0.1,241.62741,1596751775446
Fix,GT,37.3679104,-122.0646273,,24.453495,0.1,241.66833,1596751776446
Fix,GT,37.3677125,-122.064508,,24.23581,0.1,241.86606,1596751777446
Fix,GT,37.3675165,-122.0643901,,24.049095,0.1,241.9867,1596751778446
Fix,GT,37.3673219,-122.0642734,,23.825813,0.1,241.93692,1596751779446
Fix,GT,37.3671298,-122.0641574,,23.465096,0.1,241.68182,1596751780446
Fix,GT,37.3669412,-122.0640423,,23.102705,0.1,241.49838,1596751781446
Fix,GT,37.3667556,-122.0639284,,22.788036,0.1,241.59052,1596751782446
Fix,GT,37.3665714,-122.0638178,,22.726578,0.1,242.64658,1596751783446
Fix,GT,37.3663839,-122.0637128,,23.096153,0.1,244.75516,1596751784446
Fix,GT,37.3661895,-122.0636134,,23.69772,0.1,246.57297,1596751785446
Fix,GT,37.3659876,-122.0635171,,24.342655,0.1,248.06097,1596751786446
Fix,GT,37.3657786,-122.0634242,,24.93835,0.1,249.99802,1596751787446
Fix,GT,37.3655628,-122.0633361,,25.438282,0.1,252.09555,1596751788446
Fix,GT,37.3653408,-122.0632555,,25.873535,0.1,254.24371,1596751789446
Fix,GT,37.3651136,-122.063189,,26.009003,0.1,256.23654,1596751790446
Fix,GT,37.3648851,-122.0631404,,25.738094,0.1,258.12402,1596751791446
Fix,GT,37.3646579,-122.0631042,,25.351955,0.1,259.7922,1596751792446
Fix,GT,37.3644328,-122.0630745,,25.059448,0.1,261.55417,1596751793446
Fix,GT,37.3642087,-122.0630505,,25.008747,0.1,263.52286,1596751794446
Fix,GT,37.3639832,-122.0630417,,25.000507,0.1,265.60416,1596751795446
Fix,GT,37.3637583,-122.0630461,,24.821735,0.1,267.4588,1596751796446
Fix,GT,37.363536,-122.0630487,,24.627869,0.1,268.46878,1596751797446
Fix,GT,37.3633149,-122.0630543,,24.482944,0.1,268.78085,1596751798446
Fix,GT,37.3630965,-122.0630592,,24.250875,0.1,268.68747,1596751799446
Fix,GT,37.3628795,-122.0630631,,24.20408,0.1,268.23813,1596751800446
Fix,GT,37.362662,-122.0630667,,24.561829,0.1,267.8796,1596751801446
Fix,GT,37.3624413,-122.0630702,,24.979511,0.1,268.06586,1596751802446
Fix,GT,37.362214,-122.0630764,,25.217266,0.1,268.3171,1596751803446
Fix,GT,37.3619849,-122.0630832,,25.394596,0.1,268.41385,1596751804446
Fix,GT,37.3617538,-122.0630894,,25.69018,0.1,268.33795,1596751805446
Fix,GT,37.3615198,-122.0630946,,26.050783,0.1,268.2603,1596751806446
Fix,GT,37.3612831,-122.0630989,,26.291937,0.1,268.25732,1596751807446
Fix,GT,37.3610459,-122.0631031,,26.16497,0.1,268.1923,1596751808446
Fix,GT,37.3608113,-122.0631076,,25.762833,0.1,268.25235,1596751809446
Fix,GT,37.3605808,-122.0631138,,25.38012,0.1,268.42715,1596751810446
Fix,GT,37.3603534,-122.0631207,,25.072647,0.1,268.3569,1596751811446
Fix,GT,37.3601285,-122.0631268,,24.9011,0.1,268.18707,1596751812446
Fix,GT,37.3599043,-122.0631315,,24.980232,0.1,268.00754,1596751813446
Fix,GT,37.3596786,-122.0631344,,25.216118,0.1,267.71924,1596751814446
Fix,GT,37.3594504,-122.063134,,25.432472,0.1,266.84576,1596751815446
Fix,GT,37.3592205,-122.063127,,25.588596,0.1,265.52057,1596751816446
Fix,GT,37.3589899,-122.063113,,25.615395,0.1,264.60303,1596751817446
Fix,GT,37.3587599,-122.0630952,,25.44746,0.1,263.84753,1596751818446
Fix,GT,37.3585324,-122.0630735,,25.125896,0.1,262.73236,1596751819446
Fix,GT,37.358308,-122.0630467,,24.876572,0.1,261.62805,1596751820446
Fix,GT,37.3580855,-122.0630159,,24.792015,0.1,260.7025,1596751821446
Fix,GT,37.3578636,-122.0629808,,24.812233,0.1,259.75806,1596751822446
Fix,GT,37.3576418,-122.0629415,,24.837185,0.1,258.93365,1596751823446
Fix,GT,37.357421,-122.0628987,,24.68192,0.1,258.0961,1596751824446
Fix,GT,37.3572022,-122.0628524,,24.513128,0.1,257.21732,1596751825446
Fix,GT,37.3569848,-122.0628027,,24.519707,0.1,256.3913,1596751826446
Fix,GT,37.3567677,-122.0627484,,24.556534,0.1,255.28984,1596751827446
Fix,GT,37.356551,-122.0626884,,24.66195,0.1,254.12675,1596751828446
Fix,GT,37.3563339,-122.0626231,,24.87402,0.1,253.2467,1596751829446
Fix,GT,37.3561159,-122.0625529,,25.053429,0.1,252.45438,1596751830446
Fix,GT,37.3558969,-122.0624779,,25.273396,0.1,251.49377,1596751831446
Fix,GT,37.3556769,-122.0623972,,25.530514,0.1,250.45364,1596751832446
Fix,GT,37.3554563,-122.0623113,,25.643177,0.1,249.50212,1596751833446
Fix,GT,37.3552373,-122.0622215,,25.37455,0.1,248.6521,1596751834446
Fix,GT,37.355023,-122.0621292,,24.84694,0.1,247.97643,1596751835446
Fix,GT,37.3548142,-122.0620361,,24.282738,0.1,247.43082,1596751836446
Fix,GT,37.3546103,-122.0619425,,23.900002,0.1,246.87204,1596751837446
Fix,GT,37.3544093,-122.0618471,,23.773323,0.1,246.1247,1596751838446
Fix,GT,37.3542102,-122.0617484,,23.688625,0.1,245.45605,1596751839446
Fix,GT,37.3540126,-122.0616481,,23.666985,0.1,245.25055,1596751840446
Fix,GT,37.3538149,-122.0615481,,23.6669,0.1,245.43237,1596751841446
Fix,GT,37.3536169,-122.0614487,,23.676811,0.1,245.42679,1596751842446
Fix,GT,37.3534186,-122.0613486,,23.796246,0.1,245.3754,1596751843446
Fix,GT,37.3532187,-122.0612483,,24.068459,0.1,245.93738,1596751844446
Fix,GT,37.3530154,-122.0611493,,24.429527,0.1,246.55037,1596751845446
Fix,GT,37.3528086,-122.0610518,,24.710155,0.1,247.33401,1596751846446
Fix,GT,37.3525989,-122.0609579,,24.758574,0.1,248.54953,1596751847446
Fix,GT,37.3523886,-122.0608703,,24.515312,0.1,249.83476,1596751848446
Fix,GT,37.3521795,-122.0607887,,24.220253,0.1,250.84897,1596751849446
Fix,GT,37.3519706,-122.0607121,,24.227715,0.1,251.6945,1596751850446
Fix,GT,37.3517586,-122.0606388,,24.679153,0.1,252.59572,1596751851446
Fix,GT,37.3515415,-122.0605686,,25.155766,0.1,253.73285,1596751852446
Fix,GT,37.3513204,-122.0605021,,25.302446,0.1,254.50476,1596751853446
Fix,GT,37.3510984,-122.060439,,25.18382,0.1,255.14926,1596751854446
Fix,GT,37.3508772,-122.0603799,,25.037556,0.1,255.94212,1596751855446
Fix,GT,37.3506562,-122.0603255,,25.046797,0.1,257.0756,1596751856446
Fix,GT,37.3504326,-122.0602768,,25.40828,0.1,258.3184,1596751857446
Fix,GT,37.3502041,-122.0602325,,25.900814,0.1,259.23734,1596751858446
Fix,GT,37.3499723,-122.0601927,,26.035324,0.1,260.3102,1596751859446
Fix,GT,37.3497407,-122.0601585,,25.69235,0.1,261.3543,1596751860446
Fix,GT,37.3495133,-122.0601295,,24.998043,0.1,262.1521,1596751861446
Fix,GT,37.3492936,-122.0601055,,23.994556,0.1,263.02213,1596751862446
Fix,GT,37.3490825,-122.0600866,,23.07385,0.1,264.00186,1596751863446
Fix,GT,37.3488775,-122.0600722,,22.578499,0.1,265.05298,1596751864446
Fix,GT,37.348676,-122.0600628,,22.255882,0.1,266.05902,1596751865446
Fix,GT,37.3484762,-122.0600583,,22.164318,0.1,266.8743,1596751866446
Fix,GT,37.3482768,-122.0600565,,22.127346,0.1,267.4265,1596751867446
Fix,GT,37.3480775,-122.0600566,,22.26356,0.1,267.55804,1596751868446
Fix,GT,37.3478742,-122.0600563,,22.973577,0.1,267.20346,1596751869446
Fix,GT,37.3476629,-122.0600547,,23.909431,0.1,267.03223,1596751870446
Fix,GT,37.3474447,-122.0600533,,24.538742,0.1,267.26508,1596751871446
Fix,GT,37.3472225,-122.0600531,,24.776005,0.1,267.4817,1596751872446
Fix,GT,37.3469995,-122.0600538,,24.708317,0.1,267.58783,1596751873446
Fix,GT,37.346778,-122.060055,,24.51104,0.1,267.6059,1596751874446
Fix,GT,37.3465573,-122.060056,,24.553856,0.1,267.50522,1596751875446
Fix,GT,37.3463352,-122.0600564,,24.78125,0.1,267.3646,1596751876446
Fix,GT,37.3461108,-122.060056,,25.046724,0.1,267.2225,1596751877446
Fix,GT,37.3458842,-122.0600549,,25.176014,0.1,267.1575,1596751878446
Fix,GT,37.3456579,-122.0600536,,25.026642,0.1,267.2812,1596751879446
Fix,GT,37.3454332,-122.0600532,,24.91029,0.1,267.57968,1596751880446
Fix,GT,37.3452084,-122.0600542,,25.037563,0.1,267.8066,1596751881446
Fix,GT,37.3449827,-122.060056,,25.04924,0.1,267.8871,1596751882446
Fix,GT,37.3447579,-122.0600573,,24.801071,0.1,267.69666,1596751883446
Fix,GT,37.3445355,-122.0600565,,24.54105,0.1,267.14032,1596751884446
Fix,GT,37.344315,-122.0600531,,24.418892,0.1,266.7188,1596751885446
Fix,GT,37.344095,-122.060049,,24.450588,0.1,266.74786,1596751886446
Fix,GT,37.3438737,-122.060045,,24.732544,0.1,266.92273,1596751887446
Fix,GT,37.3436491,-122.0600413,,25.152443,0.1,266.96863,1596751888446
Fix,GT,37.3434208,-122.0600387,,25.510807,0.1,266.7689,1596751889446
Fix,GT,37.3431894,-122.0600372,,25.886154,0.1,266.51215,1596751890446
Fix,GT,37.3429538,-122.0600338,,26.465145,0.1,266.50555,1596751891446
Fix,GT,37.3427124,-122.0600288,,27.175758,0.1,266.79376,1596751892446
Fix,GT,37.3424647,-122.0600271,,27.90685,0.1,267.7402,1596751893446
Fix,GT,37.3422141,-122.0600318,,28.646805,0.1,269.02844,1596751894446
Fix,GT,37.3419549,-122.0600418,,29.382881,0.1,269.18213,1596751895446
Fix,GT,37.3416836,-122.0600511,,29.988636,0.1,268.51816,1596751896446
Fix,GT,37.3414109,-122.0600564,,30.357662,0.1,268.02402,1596751897446
Fix,GT,37.3411368,-122.0600598,,30.408995,0.1,268.00604,1596751898446
Fix,GT,37.3408639,-122.0600631,,30.163092,0.1,267.98773,1596751899446
Fix,GT,37.3405933,-122.0600666,,29.895075,0.1,268.05753,1596751900446
Fix,GT,37.3403243,-122.0600705,,29.771988,0.1,267.94635,1596751901446
Fix,GT,37.3400551,-122.0600726,,29.837498,0.1,267.35052,1596751902446
Fix,GT,37.3397848,-122.0600709,,30.06353,0.1,266.7615,1596751903446
Fix,GT,37.3395122,-122.0600665,,30.40306,0.1,266.73788,1596751904446
Fix,GT,37.3392363,-122.0600608,,30.886814,0.1,266.74982,1596751905446
Fix,GT,37.3389555,-122.060053,,31.473244,0.1,266.2403,1596751906446
Fix,GT,37.3386692,-122.0600399,,31.998755,0.1,265.1468,1596751907446
Fix,GT,37.338379,-122.0600179,,32.372044,0.1,263.25464,1596751908446
Fix,GT,37.3380867,-122.0599822,,32.611042,0.1,260.64423,1596751909446
Fix,GT,37.337794,-122.0599314,,32.771748,0.1,258.0304,1596751910446
Fix,GT,37.3375023,-122.0598662,,32.899124,0.1,256.04797,1596751911446
Fix,GT,37.3372122,-122.0597886,,32.858887,0.1,254.62991,1596751912446
Fix,GT,37.336925,-122.0597045,,32.637184,0.1,253.80728,1596751913446
Fix,GT,37.3366411,-122.0596177,,32.25434,0.1,253.46979,1596751914446
Fix,GT,37.3363608,-122.059533,,31.757725,0.1,253.8578,1596751915446
Fix,GT,37.3360848,-122.0594539,,31.258965,0.1,254.9297,1596751916446
Fix,GT,37.3358121,-122.0593816,,30.722958,0.1,255.92639,1596751917446
Fix,GT,37.3355436,-122.0593146,,29.988602,0.1,256.4936,1596751918446
Fix,GT,37.3352821,-122.0592526,,29.114235,0.1,257.3529,1596751919446
Fix,GT,37.3350287,-122.0591979,,28.183218,0.1,258.07794,1596751920446
Fix,GT,37.334786,-122.059149,,26.749603,0.1,258.13715,1596751921446
Fix,GT,37.3345601,-122.0591044,,24.674826,0.1,258.0464,1596751922446
Fix,GT,37.3343544,-122.059064,,22.324842,0.1,257.95215,1596751923446
Fix,GT,37.3341668,-122.059028,,20.263878,0.1,258.1814,1596751924446
Fix,GT,37.3339921,-122.0589982,,19.130413,0.1,260.64874,1596751925446
Fix,GT,37.333822,-122.0589826,,18.750826,0.1,266.81848,1596751926446
Fix,GT,37.3336607,-122.0589833,,18.560019,0.1,276.39764,1596751927446
Fix,GT,37.333511,-122.0590186,,18.366087,0.1,288.09543,1596751928446
Fix,GT,37.3333681,-122.059105,,18.210817,0.1,300.351,1596751929446
Fix,GT,37.3332447,-122.0592266,,18.067533,0.1,312.70212,1596751930446
Fix,GT,37.3331449,-122.0593771,,17.92228,0.1,324.31323,1596751931446
Fix,GT,37.3330705,-122.0595484,,17.768942,0.1,334.31375,1596751932446
Fix,GT,37.3330178,-122.0597336,,17.84749,0.1,341.30365,1596751933446
Fix,GT,37.3329789,-122.059929,,18.312866,0.1,345.90433,1596751934446
Fix,GT,37.3329527,-122.0601324,,18.625174,0.1,350.81247,1596751935446
Fix,GT,37.3329409,-122.0603387,,18.463602,0.1,356.00653,1596751936446
Fix,GT,37.3329427,-122.0605429,,18.122246,0.1,0.1503601,1596751937446
Fix,GT,37.3329557,-122.0607426,,17.83343,0.1,4.0305176,1596751938446
Fix,GT,37.3329796,-122.0609391,,17.937618,0.1,8.320862,1596751939446
Fix,GT,37.3330177,-122.0611385,,19.002102,0.1,12.893097,1596751940446
Fix,GT,37.3330714,-122.061351,,20.94249,0.1,16.152313,1596751941446
Fix,GT,37.3331378,-122.0615823,,22.679342,0.1,17.889221,1596751942446
Fix,GT,37.3332121,-122.0618288,,23.463253,0.1,19.1474,1596751943446
Fix,GT,37.3332903,-122.0620786,,23.446692,0.1,19.698181,1596751944446
Fix,GT,37.3333688,-122.0623264,,23.172964,0.1,18.924744,1596751945446
Fix,GT,37.3334431,-122.0625726,,22.96898,0.1,17.515045,1596751946446
Fix,GT,37.3335139,-122.062817,,23.578249,0.1,17.16977,1596751947446
Fix,GT,37.3335898,-122.0630719,,25.256632,0.1,18.465424,1596751948446
Fix,GT,37.3336774,-122.0633437,,27.378323,0.1,20.044281,1596751949446
Fix,GT,37.3337761,-122.0636346,,29.228025,0.1,20.597198,1596751950446
Fix,GT,37.3338826,-122.0639432,,30.640682,0.1,20.369415,1596751951446
Fix,GT,37.3339906,-122.0642685,,31.885017,0.1,19.295868,1596751952446
Fix,GT,37.3340956,-122.0646103,,32.921337,0.1,17.309357,1596751953446
Fix,GT,37.3341926,-122.0649666,,33.705864,0.1,14.997009,1596751954446
Fix,GT,37.3342792,-122.0653344,,34.18089,0.1,12.666046,1596751955446
Fix,GT,37.3343544,-122.0657096,,34.31406,0.1,10.385254,1596751956446
Fix,GT,37.3344179,-122.0660891,,34.375275,0.1,8.166809,1596751957446
Fix,GT,37.3344697,-122.0664735,,34.60703,0.1,5.838501,1596751958446
Fix,GT,37.3345086,-122.0668628,,34.81353,0.1,3.574463,1596751959446
Fix,GT,37.3345353,-122.0672545,,34.668858,0.1,1.3866882,1596751960446
Fix,GT,37.334551,-122.0676438,,34.127415,0.1,359.0927,1596751961446
Fix,GT,37.3345553,-122.0680262,,33.457523,0.1,356.8619,1596751962446
Fix,GT,37.3345486,-122.068401,,32.789227,0.1,354.5634,1596751963446
Fix,GT,37.33453,-122.0687686,,32.392456,0.1,352.24088,1596751964446
Fix,GT,37.3345001,-122.0691321,,32.307285,0.1,350.21338,1596751965446
Fix,GT,37.3344597,-122.0694926,,32.073364,0.1,348.06906,1596751966446
Fix,GT,37.3344098,-122.0698469,,31.640537,0.1,346.40137,1596751967446
Fix,GT,37.3343541,-122.0701948,,31.255665,0.1,345.45544,1596751968446
Fix,GT,37.3342948,-122.0705384,,31.059227,0.1,344.62677,1596751969446
Fix,GT,37.3342315,-122.0708813,,31.35691,0.1,344.15103,1596751970446
Fix,GT,37.3341642,-122.0712307,,32.25193,0.1,343.94135,1596751971446
Fix,GT,37.3340923,-122.0715906,,33.19902,0.1,343.85968,1596751972446
Fix,GT,37.3340191,-122.0719592,,33.752808,0.1,343.95288,1596751973446
Fix,GT,37.3339493,-122.0723325,,34.147934,0.1,344.13043,1596751974446
Fix,GT,37.3338804,-122.0727094,,34.52159,0.1,344.51694,1596751975446
Fix,GT,37.3338126,-122.0730898,,34.584755,0.1,345.70322,1596751976446
Fix,GT,37.333754,-122.0734707,,34.337677,0.1,348.0141,1596751977446
Fix,GT,37.3337093,-122.073851,,34.079266,0.1,350.48715,1596751978446
Fix,GT,37.3336773,-122.074231,,33.890705,0.1,352.73087,1596751979446
Fix,GT,37.3336579,-122.0746105,,33.77988,0.1,355.42908,1596751980446
Fix,GT,37.3336537,-122.0749898,,33.76651,0.1,358.43774,1596751981446
Fix,GT,37.3336649,-122.0753691,,33.78613,0.1,1.0984802,1596751982446
Fix,GT,37.3336898,-122.0757479,,33.83484,0.1,3.6437378,1596751983446
Fix,GT,37.3337282,-122.0761257,,33.93008,0.1,6.2878723,1596751984446
Fix,GT,37.3337808,-122.0765014,,33.915344,0.1,9.0416565,1596751985446
Fix,GT,37.3338475,-122.0768721,,33.7043,0.1,11.831604,1596751986446
Fix,GT,37.3339281,-122.0772364,,33.652256,0.1,14.509552,1596751987446
Fix,GT,37.3340231,-122.0775968,,33.94636,0.1,17.341492,1596751988446
Fix,GT,37.3341328,-122.0779551,,34.408154,0.1,20.095734,1596751989446
Fix,GT,37.3342575,-122.0783114,,34.893684,0.1,22.878937,1596751990446
Fix,GT,37.3343977,-122.0786646,,35.30339,0.1,25.593384,1596751991446
Fix,GT,37.3345524,-122.0790131,,35.636383,0.1,28.151123,1596751992446
Fix,GT,37.3347217,-122.0793548,,35.948547,0.1,31.106659,1596751993446
Fix,GT,37.3349071,-122.0796874,,36.2712,0.1,34.350464,1596751994446
Fix,GT,37.3351088,-122.0800105,,36.618202,0.1,37.19577,1596751995446
Fix,GT,37.3353246,-122.0803251,,36.933426,0.1,39.591766,1596751996446
Fix,GT,37.3355515,-122.0806329,,37.19242,0.1,41.066254,1596751997446
Fix,GT,37.3357847,-122.0809381,,37.499565,0.1,41.432434,1596751998446
Fix,GT,37.3360206,-122.0812437,,37.758408,0.1,41.508545,1596751999446
Fix,GT,37.3362582,-122.0815501,,37.953003,0.1,41.54013,1596752000446
Fix,GT,37.3364965,-122.0818576,,38.092705,0.1,41.186646,1596752001446
Fix,GT,37.3367331,-122.0821681,,38.150955,0.1,40.477448,1596752002446
Fix,GT,37.3369665,-122.0824821,,38.090645,0.1,39.56842,1596752003446
Fix,GT,37.337195,-122.0827995,,37.952995,0.1,38.376587,1596752004446
Fix,GT,37.3374163,-122.0831211,,37.76306,0.1,36.829834,1596752005446
Fix,GT,37.3376266,-122.0834566,,37.47017,0.1,34.938995,1596752006446
Fix,GT,37.3378267,-122.083802,,37.180466,0.1,33.4552,1596752007446
Fix,GT,37.3380206,-122.0841436,,37.01578,0.1,32.14273,1596752008446
Fix,GT,37.3382087,-122.0844884,,36.924286,0.1,31.211609,1596752009446
Fix,GT,37.3383912,-122.0848353,,36.793736,0.1,30.902435,1596752010446
Fix,GT,37.3385722,-122.0851813,,36.705414,0.1,31.032654,1596752011446
Fix,GT,37.3387565,-122.0855237,,36.811153,0.1,31.752167,1596752012446
Fix,GT,37.3389457,-122.0858654,,37.146576,0.1,32.50952,1596752013446
Fix,GT,37.3391411,-122.0862083,,37.459732,0.1,33.40439,1596752014446
Fix,GT,37.3393423,-122.0865508,,37.71778,0.1,34.24008,1596752015446
Fix,GT,37.3395463,-122.0868957,,38.052658,0.1,33.87976,1596752016446
Fix,GT,37.3397487,-122.0872464,,38.388023,0.1,32.82852,1596752017446
Fix,GT,37.3399475,-122.087604,,38.671707,0.1,31.89035,1596752018446
Fix,GT,37.3401432,-122.0879672,,38.860107,0.1,30.933136,1596752019446
Fix,GT,37.340334,-122.088335,,38.790558,0.1,29.693848,1596752020446
Fix,GT,37.3405184,-122.0887057,,38.62889,0.1,28.608337,1596752021446
Fix,GT,37.3406979,-122.0890788,,38.632294,0.1,27.96698,1596752022446
Fix,GT,37.3408748,-122.0894548,,38.77821,0.1,27.705566,1596752023446
Fix,GT,37.3410518,-122.0898339,,38.989185,0.1,28.019287,1596752024446
Fix,GT,37.3412322,-122.0902166,,39.442436,0.1,28.842896,1596752025446
Fix,GT,37.341419,-122.0906023,,39.962425,0.1,30.343323,1596752026446
Fix,GT,37.3416162,-122.0909834,,40.155754,0.1,32.669525,1596752027446
Fix,GT,37.3418257,-122.0913527,,40.254833,0.1,35.34326,1596752028446
Fix,GT,37.3420552,-122.0916998,,40.386627,0.1,38.017395,1596752029446
Fix,GT,37.3423025,-122.0920288,,40.40416,0.1,41.001892,1596752030446
Fix,GT,37.3425569,-122.0923513,,40.146183,0.1,43.611115,1596752031446
Fix,GT,37.342818,-122.0926599,,39.579018,0.1,44.654816,1596752032446
Fix,GT,37.3430776,-122.0929602,,38.90045,0.1,44.32849,1596752033446
Fix,GT,37.3433312,-122.0932586,,38.35023,0.1,43.599396,1596752034446
Fix,GT,37.3435795,-122.0935585,,38.16602,0.1,43.12036,1596752035446
Fix,GT,37.3438262,-122.0938591,,38.287598,0.1,43.43634,1596752036446
Fix,GT,37.3440753,-122.0941603,,38.519775,0.1,43.230347,1596752037446
Fix,GT,37.344323,-122.0944681,,38.7266,0.1,41.586395,1596752038446
Fix,GT,37.344563,-122.0947882,,38.780533,0.1,39.040833,1596752039446
Fix,GT,37.3447898,-122.095123,,38.827606,0.1,36.028503,1596752040446
Fix,GT,37.345002,-122.0954733,,38.97977,0.1,33.14804,1596752041446
Fix,GT,37.3452013,-122.0958381,,39.18395,0.1,30.318512,1596752042446
Fix,GT,37.3453881,-122.0962164,,39.461666,0.1,27.809814,1596752043446
Fix,GT,37.3455654,-122.0966062,,39.9962,0.1,26.590973,1596752044446
Fix,GT,37.3457424,-122.0970038,,40.7185,0.1,26.896667,1596752045446
Fix,GT,37.3459245,-122.097406,,41.18369,0.1,27.191803,1596752046446
Fix,GT,37.3461074,-122.0978113,,41.30692,0.1,26.728699,1596752047446
Fix,GT,37.3462875,-122.0982209,,41.5988,0.1,26.05841,1596752048446
Fix,GT,37.3464663,-122.0986356,,41.848602,0.1,25.745483,1596752049446
Fix,GT,37.3466442,-122.0990507,,41.59228,0.1,25.774963,1596752050446
Fix,GT,37.3468205,-122.0994617,,41.088505,0.1,25.697815,1596752051446
