MessageType,Provider,LatitudeDegrees,LongitudeDegrees,AltitudeMeters,SpeedMps,AccuracyMeters,BearingDegrees,UnixTimeMillis
Fix,GT,37.6265363,-122.4256701,,0.0006103505,0.1,83.618286,1599242401431
Fix,GT,37.6265363,-122.4256701,,0.021129545,0.1,83.618256,1599242402431
Fix,GT,37.6265363,-122.4256699,,0.04798788,0.1,83.61987,1599242403431
Fix,GT,37.6265363,-122.4256697,,0.029309869,0.1,83.621826,1599242404431
Fix,GT,37.6265363,-122.4256698,,0.0030922415,0.1,83.622375,1599242405431
Fix,GT,37.6265363,-122.4256698,,0.04913424,0.1,83.62479,1599242406431
Fix,GT,37.6265366,-122.4256665,,0.6620348,0.1,83.586945,1599242407431
Fix,GT,37.6265384,-122.4256495,,2.445819,0.1,83.27466,1599242408431
Fix,GT,37.6265427,-122.4256084,,4.681086,0.1,82.41028,1599242409431
Fix,GT,37.6265504,-122.4255452,,6.413271,0.1,81.34244,1599242410431
Fix,GT,37.62656,-122.4254675,,7.437523,0.1,81.4552,1599242411431
Fix,GT,37.6265692,-122.4253814,,7.8123345,0.1,82.405426,1599242412431
Fix,GT,37.6265802,-122.4252932,,7.9265976,0.1,80.25348,1599242413431
Fix,GT,37.626596,-122.4252071,,7.566331,0.1,75.73355,1599242414431
Fix,GT,37.6266142,-122.4251291,,6.689705,0.1,72.8891,1599242415431
Fix,GT,37.6266321,-122.4250628,,5.6609225,0.1,70.84772,1599242416431
Fix,GT,37.6266473,-122.4250093,,4.231889,0.1,70.738495,1599242417431
Fix,GT,37.6266563,-122.4249743,,2.2276893,0.1,72.85086,1599242418431
Fix,GT,37.6266592,-122.4249609,,0.59571385,0.1,74.12558,1599242419431
Fix,GT,37.6266594,-122.4249597,,0.010748894,0.1,74.267944,1599242420431
Fix,GT,37.6266594,-122.4249598,,0.007708368,0.1,74.26459,1599242421431
Fix,GT,37.6266594,-122.4249598,,0.006604136,0.1,74.26535,1599242422431
Fix,GT,37.6266594,-122.4249598,,0.006744384,0.1,74.265045,1599242423431
Fix,GT,37.6266596,-122.424959,,0.20002648,0.1,74.42383,1599242424431
Fix,GT,37.6266599,-122.4249559,,0.49553382,0.1,75.23489,1599242425431
Fix,GT,37.6266602,-122.4249502,,0.6368451,0.1,77.56122,1599242426431
Fix,GT,37.6266595,-122.4249415,,0.9299685,0.1,83.03351,1599242427431
Fix,GT,37.6266566,-122.4249288,,1.3490081,0.1,92.36633,1599242428431
Fix,GT,37.6266488,-122.4249105,,2.2013845,0.1,106.59094,1599242429431
Fix,GT,37.6266306,-122.4248865,,3.5949533,0.1,126.02283,1599242430431
Fix,GT,37.6265992,-122.4248589,,4.9380627,0.1,142.33246,1599242431431
Fix,GT,37.6265561,-122.4248257,,6.356289,0.1,147.94,1599242432431
Fix,GT,37.6265024,-122.4247815,,7.835628,0.1,146.39502,1599242433431
Fix,GT,37.6264404,-122.4247275,,8.683072,0.1,145.31476,1599242434431
Fix,GT,37.6263757,-122.4246739,,8.274581,0.1,147.23102,1599242435431
Fix,GT,37.6263171,-122.4246295,,6.7229238,0.1,149.66656,1599242436431
Fix,GT,37.6262729,-122.4245987,,4.4734306,0.1,151.23944,1599242437431
Fix,GT,37.6262452,-122.4245804,,2.5582087,0.1,152.10944,1599242438431
Fix,GT,37.6262302,-122.4245706,,1.2716438,0.1,152.40631,1599242439431
Fix,GT,37.6262242,-122.4245667,,0.30570543,0.1,152.49902,1599242440431
Fix,GT,37.6262234,-122.4245662,,0.014084208,0.1,152.51514,1599242441431
Fix,GT,37.6262234,-122.4245662,,0.0024315831,0.1,152.51434,1599242442431
Fix,GT,37.6262234,-122.4245661,,0.0026703,0.1,152.5141,1599242443431
Fix,GT,37.6262235,-122.4245661,,0.00249172,0.1,152.51453,1599242444431
Fix,GT,37.6262234,-122.424566,,0.0031638206,0.1,152.51453,1599242445431
Fix,GT,37.6262234,-122.4245661,,0.0039795544,0.1,152.51428,1599242446431
Fix,GT,37.6262234,-122.4245661,,0.0039068237,0.1,152.51367,1599242447431
Fix,GT,37.6262234,-122.4245661,,0.004692639,0.1,152.51355,1599242448431
Fix,GT,37.6262234,-122.4245661,,0.006708204,0.1,152.5138,1599242449431
Fix,GT,37.6262234,-122.4245661,,0.006708204,0.1,152.5138,1599242450431
Fix,GT,37.6262235,-122.4245661,,0.00729259,0.1,152.51367,1599242451431
Fix,GT,37.6262232,-122.4245658,,0.22038198,0.1,152.54675,1599242452431
Fix,GT,37.6262153,-122.4245611,,1.8734612,0.1,153.19061,1599242453431
Fix,GT,37.6261888,-122.4245458,,4.4072905,0.1,154.85559,1599242454431
Fix,GT,37.6261474,-122.4245226,,5.386469,0.1,155.91272,1599242455431
Fix,GT,37.6261035,-122.424497,,5.2677402,0.1,155.00116,1599242456431
Fix,GT,37.6260625,-122.4244705,,5.0661087,0.1,152.40186,1599242457431
Fix,GT,37.6260217,-122.4244371,,5.833475,0.1,146.20514,1599242458431
Fix,GT,37.6259802,-122.4243856,,7.080861,0.1,132.87463,1599242459431
Fix,GT,37.6259498,-122.4243131,,7.682916,0.1,113.23566,1599242460431
Fix,GT,37.6259399,-122.4242229,,8.771906,0.1,93.53009,1599242461431
Fix,GT,37.6259522,-122.4241166,,10.417557,0.1,78.136566,1599242462431
Fix,GT,37.6259852,-122.4239972,,11.910215,0.1,68.35062,1599242463431
Fix,GT,37.6260302,-122.4238705,,12.330841,0.1,65.234344,1599242464431
Fix,GT,37.6260744,-122.4237476,,11.310587,0.1,65.99133,1599242465431
Fix,GT,37.6261118,-122.4236384,,9.61677,0.1,66.51514,1599242466431
Fix,GT,37.6261426,-122.4235486,,7.551441,0.1,66.035736,1599242467431
Fix,GT,37.6261656,-122.4234831,,5.0375338,0.1,65.55304,1599242468431
Fix,GT,37.6261789,-122.4234458,,2.222137,0.1,65.593994,1599242469431
Fix,GT,37.6261831,-122.4234339,,0.39771664,0.1,65.63544,1599242470431
Fix,GT,37.6261833,-122.4234333,,0.005923557,0.1,65.64905,1599242471431
Fix,GT,37.6261833,-122.4234334,,0.0072402633,0.1,65.64795,1599242472431
Fix,GT,37.6261833,-122.4234334,,0.003414242,0.1,65.64795,1599242473431
Fix,GT,37.6261833,-122.4234334,,0.0031622776,0.1,65.64752,1599242474431
Fix,GT,37.6261833,-122.4234334,,0.0027625412,0.1,65.64728,1599242475431
Fix,GT,37.6261833,-122.4234334,,0.002134185,0.1,65.647675,1599242476431
Fix,GT,37.6261833,-122.4234334,,0.002101883,0.1,65.6478,1599242477431
Fix,GT,37.6261833,-122.4234334,,0.0018813696,0.1,65.64758,1599242478431
Fix,GT,37.6261833,-122.4234334,,0.0014142136,0.1,65.64734,1599242479431
Fix,GT,37.6261833,-122.4234334,,0.0014142136,0.1,65.64737,1599242480431
Fix,GT,37.6261833,-122.4234334,,0.0017689122,0.1,65.64755,1599242481431
Fix,GT,37.6261833,-122.4234334,,0.0018813694,0.1,65.64761,1599242482431
Fix,GT,37.6261833,-122.4234334,,0.0017689122,0.1,65.64746,1599242483431
Fix,GT,37.6261833,-122.4234334,,0.0018813694,0.1,65.64734,1599242484431
Fix,GT,37.6261833,-122.4234334,,0.0017689122,0.1,65.64722,1599242485431
Fix,GT,37.6261833,-122.4234334,,0.0022360678,0.1,65.64725,1599242486431
Fix,GT,37.6261833,-122.4234334,,0.0022360678,0.1,65.64728,1599242487431
Fix,GT,37.6261833,-122.4234334,,0.0017026017,0.1,65.64752,1599242488431
Fix,GT,37.6261833,-122.4234334,,0.0015334662,0.1,65.647644,1599242489431
Fix,GT,37.6261833,-122.4234334,,0.0022360678,0.1,65.647644,1599242490431
Fix,GT,37.6261833,-122.4234334,,0.0021341848,0.1,65.648834,1599242491431
Fix,GT,37.6261833,-122.4234334,,0.0017471844,0.1,65.6496,1599242492431
Fix,GT,37.6261833,-122.4234334,,0.001235446,0.1,65.648834,1599242493431
Fix,GT,37.6261833,-122.4234334,,0.001,0.1,65.64877,1599242494431
Fix,GT,37.6261833,-122.4234334,,0.0011787676,0.1,65.64871,1599242495431
Fix,GT,37.6261833,-122.4234334,,0.0014142136,0.1,65.64871,1599242496431
Fix,GT,37.6261833,-122.4234334,,0.0023599584,0.1,65.64847,1599242497431
Fix,GT,37.6261833,-122.4234334,,0.004207372,0.1,65.648254,1599242498431
Fix,GT,37.6261833,-122.4234334,,0.0058938386,0.1,65.64819,1599242499431
Fix,GT,37.6261833,-122.4234334,,0.007998314,0.1,65.6481,1599242500431
Fix,GT,37.6261833,-122.4234335,,0.010437494,0.1,65.64813,1599242501431
Fix,GT,37.6261834,-122.4234335,,0.012886811,0.1,65.65906,1599242502431
Fix,GT,37.6261835,-122.4234335,,0.0165895,0.1,65.67398,1599242503431
Fix,GT,37.6261836,-122.4234336,,0.07325353,0.1,65.71301,1599242504431
Fix,GT,37.6261848,-122.4234289,,0.75919336,0.1,67.40198,1599242505431
Fix,GT,37.6261864,-122.4234141,,1.5974395,0.1,74.851746,1599242506431
Fix,GT,37.6261856,-122.4233959,,1.5515839,0.1,86.60217,1599242507431
Fix,GT,37.6261822,-122.4233797,,1.4672666,0.1,97.41635,1599242508431
Fix,GT,37.6261762,-122.4233647,,1.5587759,0.1,108.56305,1599242509431
Fix,GT,37.6261653,-122.4233492,,2.0791721,0.1,121.707,1599242510431
Fix,GT,37.6261465,-122.4233307,,2.9880435,0.1,135.62555,1599242511431
Fix,GT,37.6261212,-122.4233109,,3.467185,0.1,145.4422,1599242512431
Fix,GT,37.6260934,-122.4232911,,3.581072,0.1,149.39325,1599242513431
Fix,GT,37.6260647,-122.4232713,,3.6980486,0.1,150.86615,1599242514431
Fix,GT,37.6260353,-122.4232517,,3.6390152,0.1,151.9625,1599242515431
Fix,GT,37.6260073,-122.4232331,,3.3053212,0.1,152.0232,1599242516431
Fix,GT,37.6259818,-122.4232148,,3.374646,0.1,150.45117,1599242517431
Fix,GT,37.6259524,-122.4231929,,4.333268,0.1,149.73047,1599242518431
Fix,GT,37.6259138,-122.4231662,,5.3966966,0.1,151.63599,1599242519431
Fix,GT,37.6258666,-122.4231388,,6.0965295,0.1,155.9657,1599242520431
Fix,GT,37.6258128,-122.4231147,,6.5728498,0.1,161.3852,1599242521431
Fix,GT,37.6257542,-122.4230956,,6.9258685,0.1,166.3454,1599242522431
Fix,GT,37.6256908,-122.4230823,,7.3719025,0.1,171.99731,1599242523431
Fix,GT,37.6256225,-122.4230787,,7.8193173,0.1,179.6399,1599242524431
Fix,GT,37.6255507,-122.4230869,,8.218583,0.1,186.821,1599242525431
Fix,GT,37.6254764,-122.4231025,,8.481568,0.1,189.66933,1599242526431
Fix,GT,37.6253999,-122.4231165,,8.674767,0.1,187.05634,1599242527431
Fix,GT,37.6253214,-122.4231218,,8.803829,0.1,181.06836,1599242528431
Fix,GT,37.6252417,-122.4231136,,9.067339,0.1,172.5476,1599242529431
Fix,GT,37.6251609,-122.4230883,,9.490032,0.1,163.3429,1599242530431
Fix,GT,37.6250791,-122.4230481,,10.038771,0.1,157.06348,1599242531431
Fix,GT,37.6249944,-122.4229987,,10.746811,0.1,154.58264,1599242532431
Fix,GT,37.6249043,-122.4229437,,11.512614,0.1,154.00208,1599242533431
Fix,GT,37.6248079,-122.4228845,,12.281384,0.1,154.04071,1599242534431
Fix,GT,37.6247065,-122.4228232,,12.572054,0.1,154.42444,1599242535431
Fix,GT,37.6246046,-122.4227621,,12.448158,0.1,154.41473,1599242536431
Fix,GT,37.6245047,-122.4227019,,12.009127,0.1,154.47717,1599242537431
Fix,GT,37.6244101,-122.4226462,,11.115842,0.1,154.9967,1599242538431
Fix,GT,37.6243227,-122.4225944,,10.380317,0.1,154.52185,1599242539431
Fix,GT,37.6242417,-122.4225448,,9.478806,0.1,153.86047,1599242540431
Fix,GT,37.6241704,-122.4225006,,8.087747,0.1,153.65002,1599242541431
Fix,GT,37.6241121,-122.4224646,,6.3804455,0.1,154.11377,1599242542431
Fix,GT,37.6240645,-122.4224368,,5.3622026,0.1,155.18921,1599242543431
Fix,GT,37.6240189,-122.4224112,,5.799183,0.1,155.98181,1599242544431
Fix,GT,37.6239693,-122.4223849,,6.000229,0.1,157.02295,1599242545431
Fix,GT,37.6239209,-122.4223606,,5.461076,0.1,158.55371,1599242546431
Fix,GT,37.6238769,-122.4223417,,4.9289484,0.1,161.8053,1599242547431
Fix,GT,37.6238338,-122.4223325,,4.9917393,0.1,172.21991,1599242548431
Fix,GT,37.6237905,-122.4223428,,5.025065,0.1,193.34229,1599242549431
Fix,GT,37.6237529,-122.422377,,5.582847,0.1,216.94641,1599242550431
Fix,GT,37.6237195,-122.4224324,,6.9580994,0.1,233.38278,1599242551431
Fix,GT,37.6236842,-122.4225068,,8.310639,0.1,239.28673,1599242552431
Fix,GT,37.6236432,-122.4225923,,9.13619,0.1,238.31479,1599242553431
Fix,GT,37.6235981,-122.422679,,8.889671,0.1,236.00081,1599242554431
Fix,GT,37.6235574,-122.422755,,7.1208906,0.1,236.21127,1599242555431
Fix,GT,37.6235286,-122.4228146,,5.3024673,0.1,239.40353,1599242556431
Fix,GT,37.6235099,-122.4228636,,4.341185,0.1,244.72585,1599242557431
Fix,GT,37.6234994,-122.4229058,,3.5884113,0.1,253.2515,1599242558431
Fix,GT,37.6234982,-122.4229462,,3.7349293,0.1,267.28522,1599242559431
Fix,GT,37.6235095,-122.4229902,,4.643328,0.1,287.73322,1599242560431
Fix,GT,37.6235382,-122.423034,,5.5823154,0.1,310.54892,1599242561431
Fix,GT,37.6235846,-122.4230744,,7.1464396,0.1,326.5314,1599242562431
Fix,GT,37.6236483,-122.4231178,,9.085268,0.1,331.86258,1599242563431
Fix,GT,37.6237285,-122.4231705,,10.898197,0.1,332.29666,1599242564431
Fix,GT,37.6238217,-122.4232318,,12.341553,0.1,332.29056,1599242565431
Fix,GT,37.6239255,-122.4232985,,13.477599,0.1,333.10587,1599242566431
Fix,GT,37.6240375,-122.4233676,,14.147272,0.1,333.97647,1599242567431
Fix,GT,37.6241535,-122.4234383,,14.455149,0.1,333.78378,1599242568431
Fix,GT,37.624271,-122.4235118,,14.696668,0.1,333.18726,1599242569431
Fix,GT,37.62439,-122.423588,,14.901699,0.1,332.92642,1599242570431
Fix,GT,37.6245097,-122.4236641,,14.702966,0.1,333.37238,1599242571431
Fix,GT,37.6246247,-122.4237351,,13.527134,0.1,334.25015,1599242572431
Fix,GT,37.6247286,-122.4237956,,11.949314,0.1,336.13297,1599242573431
Fix,GT,37.6248249,-122.4238424,,11.100201,0.1,340.6192,1599242574431
Fix,GT,37.6249186,-122.4238763,,10.599289,0.1,345.07425,1599242575431
Fix,GT,37.6250103,-122.423903,,10.450575,0.1,347.47577,1599242576431
Fix,GT,37.625105,-122.4239278,,11.062607,0.1,348.07455,1599242577431
Fix,GT,37.6252057,-122.4239559,,11.733248,0.1,347.04684,1599242578431
Fix,GT,37.6253084,-122.4239883,,11.705965,0.1,345.25513,1599242579431
Fix,GT,37.6254078,-122.4240244,,11.211521,0.1,342.8209,1599242580431
Fix,GT,37.6254976,-122.4240624,,9.653372,0.1,340.14343,1599242581431
Fix,GT,37.6255693,-122.4240971,,7.4323845,0.1,337.7186,1599242582431
Fix,GT,37.6256238,-122.4241269,,6.025058,0.1,336.04187,1599242583431
Fix,GT,37.6256689,-122.4241534,,4.890886,0.1,334.56287,1599242584431
Fix,GT,37.6257032,-122.4241747,,3.6306238,0.1,333.4437,1599242585431
Fix,GT,37.6257282,-122.4241907,,2.738732,0.1,332.87668,1599242586431
Fix,GT,37.6257478,-122.4242033,,2.0999956,0.1,332.6,1599242587431
Fix,GT,37.6257613,-122.4242121,,1.2441835,0.1,332.53738,1599242588431
Fix,GT,37.6257683,-122.4242166,,0.5323748,0.1,332.4958,1599242589431
Fix,GT,37.6257705,-122.424218,,0.064930215,0.1,332.48584,1599242590431
Fix,GT,37.6257706,-122.424218,,0.008289205,0.1,332.48892,1599242591431
Fix,GT,37.6257706,-122.424218,,0.0071592187,0.1,332.4871,1599242592431
Fix,GT,37.6257706,-122.424218,,0.006604135,0.1,332.48596,1599242593431
Fix,GT,37.6257706,-122.424218,,0.0051838756,0.1,332.4858,1599242594431
Fix,GT,37.6257706,-122.424218,,0.0040531307,0.1,332.48587,1599242595431
Fix,GT,37.6257706,-122.424218,,0.0041231057,0.1,332.48596,1599242596431
Fix,GT,37.6257706,-122.424218,,0.0037084278,0.1,332.486,1599242597431
Fix,GT,37.6257706,-122.424218,,0.0031622774,0.1,332.4859,1599242598431
Fix,GT,37.6257706,-122.424218,,0.0031622774,0.1,332.48578,1599242599431
Fix,GT,37.6257706,-122.424218,,0.0027625405,0.1,332.48553,1599242600431
Fix,GT,37.6257706,-122.424218,,0.0024917205,0.1,332.48523,1599242601431
Fix,GT,37.6257706,-122.424218,,0.0025727744,0.1,332.48544,1599242602431
Fix,GT,37.6257706,-122.424218,,0.002236068,0.1,332.4855,1599242603431
Fix,GT,37.6257706,-122.424218,,0.002236068,0.1,332.48547,1599242604431
Fix,GT,37.6257706,-122.424218,,0.002236068,0.1,332.48535,1599242605431
Fix,GT,37.6257706,-122.424218,,0.002236068,0.1,332.4851,1599242606431
Fix,GT,37.6257706,-122.424218,,0.0018813689,0.1,332.48514,1599242607431
Fix,GT,37.6257706,-122.424218,,0.0017689127,0.1,332.4851,1599242608431
Fix,GT,37.6257706,-122.424218,,0.002236068,0.1,332.48517,1599242609431
Fix,GT,37.6257706,-122.424218,,0.002236068,0.1,332.4851,1599242610431
Fix,GT,37.6257706,-122.424218,,0.0021341848,0.1,332.48502,1599242611431
Fix,GT,37.6257706,-122.424218,,0.002,0.1,-27.515003,1599242612431
Fix,GT,37.6257706,-122.424218,,0.002,0.1,332.48492,1599242613431
Fix,GT,37.6257706,-122.424218,,0.0015684162,0.1,332.4848,1599242614431
Fix,GT,37.6257706,-122.424218,,0.001,0.1,332.48474,1599242615431
Fix,GT,37.6257706,-122.424218,,0.001,0.1,332.48526,1599242616431
Fix,GT,37.6257706,-122.424218,,0.001,0.1,332.48578,1599242617431
Fix,GT,37.6257706,-122.424218,,0.001,0.1,332.48547,1599242618431
Fix,GT,37.6257706,-122.424218,,0.001,0.1,332.48532,1599242619431
Fix,GT,37.6257706,-122.424218,,0.00056841626,0.1,332.4851,1599242620431
Fix,GT,37.6257707,-122.424218,,0.0004315838,0.1,332.4849,1599242621431
Fix,GT,37.6257707,-122.424218,,0.0014315839,0.1,332.48495,1599242622431
Fix,GT,37.6257715,-122.4242185,,0.30980736,0.1,332.4868,1599242623431
Fix,GT,37.6257753,-122.4242211,,0.7950842,0.1,332.39166,1599242624431
Fix,GT,37.6257815,-122.4242253,,0.69513965,0.1,332.20905,1599242625431
Fix,GT,37.625785,-122.4242277,,0.24733712,0.1,332.12793,1599242626431
Fix,GT,37.6257868,-122.4242289,,0.43738383,0.1,332.17322,1599242627431
Fix,GT,37.6257938,-122.4242333,,1.324262,0.1,332.63348,1599242628431
Fix,GT,37.625806,-122.4242406,,1.5348872,0.1,333.52438,1599242629431
Fix,GT,37.6258173,-122.4242471,,1.2258645,0.1,334.25565,1599242630431
Fix,GT,37.6258266,-122.4242526,,1.2095248,0.1,334.62518,1599242631431
Fix,GT,37.625837,-122.4242592,,1.5494223,0.1,333.96793,1599242632431
Fix,GT,37.6258509,-122.4242704,,2.1424365,0.1,329.4971,1599242633431
Fix,GT,37.6258658,-122.4242895,,2.61694,0.1,318.77322,1599242634431
Fix,GT,37.6258803,-122.4243192,,3.5415268,0.1,304.82507,1599242635431
Fix,GT,37.6258941,-122.4243654,,5.2799263,0.1,291.39853,1599242636431
Fix,GT,37.6259018,-122.4244358,,7.3977695,0.1,276.0528,1599242637431
Fix,GT,37.6258926,-122.4245283,,9.204788,0.1,259.552,1599242638431
Fix,GT,37.6258632,-122.4246358,,10.923754,0.1,249.02563,1599242639431
Fix,GT,37.6258206,-122.4247571,,12.355944,0.1,245.29457,1599242640431
Fix,GT,37.6257708,-122.42489,,13.4388275,0.1,244.3443,1599242641431
Fix,GT,37.6257167,-122.4250333,,14.565243,0.1,244.53816,1599242642431
Fix,GT,37.6256595,-122.4251872,,15.457626,0.1,245.22534,1599242643431
Fix,GT,37.6256014,-122.4253501,,15.958703,0.1,246.43477,1599242644431
Fix,GT,37.625547,-122.4255186,,16.020874,0.1,249.09952,1599242645431
Fix,GT,37.6255012,-122.4256884,,15.662658,0.1,252.63364,1599242646431
Fix,GT,37.6254633,-122.4258574,,15.34422,0.1,254.96466,1599242647431
Fix,GT,37.625429,-122.4260235,,14.862789,0.1,255.93698,1599242648431
Fix,GT,37.6253999,-122.4261819,,13.798935,0.1,258.09033,1599242649431
Fix,GT,37.6253776,-122.426329,,12.656452,0.1,260.1623,1599242650431
Fix,GT,37.6253593,-122.4264643,,11.5729885,0.1,260.3672,1599242651431
Fix,GT,37.6253408,-122.4265874,,10.571373,0.1,258.57242,1599242652431
Fix,GT,37.6253194,-122.4266991,,9.752614,0.1,255.36554,1599242653431
Fix,GT,37.6252951,-122.4268007,,8.988136,0.1,252.37053,1599242654431
Fix,GT,37.6252698,-122.4268931,,8.247156,0.1,250.439,1599242655431
Fix,GT,37.625245,-122.4269769,,7.5568666,0.1,249.22914,1599242656431
Fix,GT,37.6252215,-122.4270531,,6.87989,0.1,248.3911,1599242657431
Fix,GT,37.6251997,-122.4271218,,6.1632037,0.1,248.0952,1599242658431
Fix,GT,37.6251806,-122.427182,,5.2929735,0.1,248.15929,1599242659431
Fix,GT,37.6251645,-122.4272329,,4.376851,0.1,248.2804,1599242660431
Fix,GT,37.6251512,-122.4272752,,3.7749453,0.1,248.31833,1599242661431
Fix,GT,37.6251383,-122.4273158,,4.1313305,0.1,248.31439,1599242662431
Fix,GT,37.6251224,-122.4273663,,5.5829253,0.1,248.28648,1599242663431
Fix,GT,37.6251015,-122.4274327,,6.967143,0.1,248.37654,1599242664431
Fix,GT,37.6250775,-122.4275094,,7.405816,0.1,248.73871,1599242665431
Fix,GT,37.6250542,-122.4275855,,6.8789682,0.1,248.94763,1599242666431
Fix,GT,37.6250338,-122.4276517,,5.5287323,0.1,248.85614,1599242667431
Fix,GT,37.6250188,-122.4276999,,3.5674086,0.1,248.55559,1599242668431
Fix,GT,37.6250102,-122.4277267,,1.5551891,0.1,248.19162,1599242669431
Fix,GT,37.6250073,-122.4277356,,0.25922298,0.1,248.03877,1599242670431
Fix,GT,37.6250072,-122.4277358,,0.004752293,0.1,248.02933,1599242671431
Fix,GT,37.6250072,-122.4277358,,0.0026702997,0.1,248.02911,1599242672431
Fix,GT,37.6250072,-122.4277358,,0.002134185,0.1,248.02881,1599242673431
Fix,GT,37.6250072,-122.4277358,,0.0015684166,0.1,248.02884,1599242674431
Fix,GT,37.6250072,-122.4277358,,0.0015334664,0.1,248.02881,1599242675431
Fix,GT,37.6250072,-122.4277358,,0.0017026016,0.1,248.0289,1599242676431
Fix,GT,37.6250072,-122.4277358,,0.001,0.1,248.02875,1599242677431
Fix,GT,37.6250072,-122.4277358,,0.0011787676,0.1,248.02856,1599242678431
Fix,GT,37.6250072,-122.4277358,,0.0014142136,0.1,248.02858,1599242679431
Fix,GT,37.6250072,-122.4277358,,0.001235446,0.1,248.0285,1599242680431
Fix,GT,37.6250072,-122.4277358,,0.0011787676,0.1,248.0284,1599242681431
Fix,GT,37.6250072,-122.4277358,,0.001235446,0.1,248.02826,1599242682431
Fix,GT,37.6250072,-122.4277358,,0.001,0.1,248.02832,1599242683431
Fix,GT,37.6250072,-122.4277358,,0.0011787676,0.1,248.02858,1599242684431
Fix,GT,37.6250072,-122.4277358,,0.0014142136,0.1,248.02847,1599242685431
Fix,GT,37.6250072,-122.4277358,,0.0014142136,0.1,248.02805,1599242686431
Fix,GT,37.6250072,-122.4277358,,0.0017689122,0.1,248.0279,1599242687431
Fix,GT,37.6250072,-122.4277358,,0.002134185,0.1,248.02774,1599242688431
Fix,GT,37.6250072,-122.4277358,,0.002101883,0.1,248.02756,1599242689431
Fix,GT,37.6250072,-122.4277358,,0.0026358045,0.1,248.02737,1599242690431
Fix,GT,37.6250072,-122.4277358,,0.0035769548,0.1,248.02728,1599242691431
Fix,GT,37.6250072,-122.4277357,,0.032157265,0.1,248.03036,1599242692431
Fix,GT,37.625007,-122.4277366,,0.40511876,0.1,247.98376,1599242693431
Fix,GT,37.6250036,-122.4277461,,1.7371566,0.1,247.59167,1599242694431
Fix,GT,37.6249929,-122.427776,,4.120853,0.1,246.10367,1599242695431
Fix,GT,37.6249709,-122.4278308,,6.734022,0.1,243.26462,1599242696431
Fix,GT,37.6249362,-122.4279085,,9.085478,0.1,240.2161,1599242697431
Fix,GT,37.6248873,-122.428007,,11.378261,0.1,237.16664,1599242698431
Fix,GT,37.624823,-122.4281215,,13.306196,0.1,233.5889,1599242699431
Fix,GT,37.6247444,-122.4282451,,14.415175,0.1,230.19838,1599242700431
Fix,GT,37.6246577,-122.4283689,,14.485953,0.1,227.59709,1599242701431
Fix,GT,37.624569,-122.4284842,,13.810844,0.1,224.66086,1599242702431
Fix,GT,37.6244807,-122.4285846,,12.524955,0.1,220.17015,1599242703431
Fix,GT,37.6243992,-122.4286641,,10.101877,0.1,216.14609,1599242704431
Fix,GT,37.6243362,-122.4287186,,6.8735085,0.1,213.58644,1599242705431
Fix,GT,37.624296,-122.4287509,,3.7982473,0.1,212.18376,1599242706431
Fix,GT,37.6242762,-122.4287662,,1.3702866,0.1,211.69803,1599242707431
Fix,GT,37.6242708,-122.4287702,,0.12950677,0.1,211.59547,1599242708431
Fix,GT,37.6242709,-122.4287702,,0.0077517033,0.1,211.59059,1599242709431
Fix,GT,37.6242708,-122.4287702,,0.005177842,0.1,211.58954,1599242710431
Fix,GT,37.6242708,-122.4287702,,0.0031622776,0.1,211.59023,1599242711431
Fix,GT,37.6242708,-122.4287703,,0.0027625412,0.1,211.59032,1599242712431
Fix,GT,37.6242708,-122.4287703,,0.002236068,0.1,211.59027,1599242713431
Fix,GT,37.6242707,-122.4287703,,0.002236068,0.1,211.59007,1599242714431
Fix,GT,37.6242707,-122.4287703,,0.0018813696,0.1,211.58995,1599242715431
Fix,GT,37.6242707,-122.4287703,,0.0014142136,0.1,211.59009,1599242716431
Fix,GT,37.6242707,-122.4287703,,0.0014142136,0.1,211.5902,1599242717431
Fix,GT,37.6242707,-122.4287703,,0.0014142136,0.1,211.59016,1599242718431
Fix,GT,37.6242707,-122.4287704,,0.0014142136,0.1,211.59006,1599242719431
Fix,GT,37.6242707,-122.4287704,,0.0014142136,0.1,211.59,1599242720431
Fix,GT,37.6242707,-122.4287704,,0.0014142136,0.1,211.59007,1599242721431
Fix,GT,37.6242707,-122.4287704,,0.0014142136,0.1,211.59013,1599242722431
Fix,GT,37.6242707,-122.4287704,,0.0017689118,0.1,211.59016,1599242723431
Fix,GT,37.6242707,-122.4287704,,0.0018813696,0.1,211.59023,1599242724431
Fix,GT,37.6242707,-122.4287704,,0.0014142136,0.1,211.59026,1599242725431
Fix,GT,37.6242707,-122.4287704,,0.001768912,0.1,211.59007,1599242726431
Fix,GT,37.6242707,-122.4287704,,0.002236068,0.1,211.58994,1599242727431
Fix,GT,37.6242707,-122.4287704,,0.002236068,0.1,211.59001,1599242728431
Fix,GT,37.6242707,-122.4287704,,0.002236068,0.1,211.59006,1599242729431
Fix,GT,37.6242707,-122.4287704,,0.002236068,0.1,211.59006,1599242730431
Fix,GT,37.6242707,-122.4287704,,0.0018813697,0.1,211.58998,1599242731431
Fix,GT,37.6242707,-122.4287704,,0.0017689118,0.1,211.58995,1599242732431
Fix,GT,37.6242707,-122.4287704,,0.0018813697,0.1,211.59009,1599242733431
Fix,GT,37.6242707,-122.4287704,,0.0017689117,0.1,211.59013,1599242734431
Fix,GT,37.6242707,-122.4287704,,0.002236068,0.1,211.59006,1599242735431
Fix,GT,37.6242707,-122.4287704,,0.002236068,0.1,211.58994,1599242736431
Fix,GT,37.6242707,-122.4287704,,0.0018813697,0.1,211.58987,1599242737431
Fix,GT,37.6242707,-122.4287704,,0.002024564,0.1,211.58995,1599242738431
Fix,GT,37.6242706,-122.4287704,,0.0028284271,0.1,211.59003,1599242739431
Fix,GT,37.6242706,-122.4287704,,0.0028284271,0.1,211.59001,1599242740431
Fix,GT,37.6242706,-122.4287704,,0.0028284271,0.1,211.59001,1599242741431
Fix,GT,37.6242706,-122.4287704,,0.0031638206,0.1,211.58997,1599242742431
Fix,GT,37.6242706,-122.4287704,,0.003605551,0.1,211.5899,1599242743431
Fix,GT,37.6242707,-122.4287704,,0.0032701578,0.1,211.58981,1599242744431
Fix,GT,37.6242706,-122.4287705,,0.12780493,0.1,211.60246,1599242745431
Fix,GT,37.6242652,-122.428775,,1.4656843,0.1,211.90094,1599242746431
Fix,GT,37.6242449,-122.4287906,,3.8151608,0.1,211.22498,1599242747431
Fix,GT,37.6242053,-122.4288139,,5.808468,0.1,204.6079,1599242748431
Fix,GT,37.624146,-122.4288303,,7.8046656,0.1,190.13522,1599242749431
Fix,GT,37.624069,-122.4288243,,9.45642,0.1,172.67842,1599242750431
Fix,GT,37.6239821,-122.4287884,,10.968315,0.1,157.89929,1599242751431
Fix,GT,37.6238898,-122.4287249,,12.563916,0.1,149.49365,1599242752431
Fix,GT,37.6237881,-122.4286423,,14.262409,0.1,146.67432,1599242753431
Fix,GT,37.623675,-122.428549,,15.69596,0.1,146.3182,1599242754431
Fix,GT,37.6235527,-122.428448,,16.746258,0.1,146.36157,1599242755431
Fix,GT,37.6234229,-122.4283408,,17.670126,0.1,146.72003,1599242756431
Fix,GT,37.6232865,-122.4282304,,18.336725,0.1,147.43262,1599242757431
Fix,GT,37.6231445,-122.4281183,,18.848015,0.1,148.0044,1599242758431
Fix,GT,37.6229979,-122.4280047,,19.37238,0.1,148.34952,1599242759431
Fix,GT,37.6228467,-122.4278886,,19.912376,0.1,148.62405,1599242760431
Fix,GT,37.6226915,-122.4277703,,20.42271,0.1,148.66644,1599242761431
Fix,GT,37.6225317,-122.4276477,,21.150269,0.1,148.44226,1599242762431
Fix,GT,37.6223665,-122.4275214,,21.66438,0.1,148.86243,1599242763431
Fix,GT,37.6221978,-122.4273959,,21.788343,0.1,149.54657,1599242764431
Fix,GT,37.6220277,-122.4272721,,21.906511,0.1,149.93427,1599242765431
Fix,GT,37.6218551,-122.4271468,,22.422588,0.1,149.64185,1599242766431
Fix,GT,37.6216775,-122.4270158,,23.301579,0.1,149.28088,1599242767431
Fix,GT,37.6214941,-122.4268785,,23.993841,0.1,149.13791,1599242768431
Fix,GT,37.6213066,-122.4267387,,24.412882,0.1,149.23273,1599242769431
Fix,GT,37.6211158,-122.4265953,,25.018764,0.1,148.9253,1599242770431
Fix,GT,37.6209191,-122.426446,,25.965786,0.1,149.07697,1599242771431
Fix,GT,37.6207127,-122.4262948,,27.02723,0.1,150.2641,1599242772431
Fix,GT,37.6204957,-122.4261444,,27.940823,0.1,151.6637,1599242773431
Fix,GT,37.6202701,-122.4259966,,28.54147,0.1,152.87543,1599242774431
Fix,GT,37.6200392,-122.42585,,28.832085,0.1,153.01105,1599242775431
Fix,GT,37.6198074,-122.4257015,,28.873373,0.1,152.84137,1599242776431
Fix,GT,37.6195769,-122.4255526,,28.615274,0.1,152.7016,1599242777431
Fix,GT,37.6193494,-122.4254056,,28.157108,0.1,152.81189,1599242778431
Fix,GT,37.6191253,-122.425263,,27.612246,0.1,153.37683,1599242779431
Fix,GT,37.618904,-122.4251269,,27.076164,0.1,154.43567,1599242780431
Fix,GT,37.6186839,-122.4250013,,26.596474,0.1,156.70074,1599242781431
Fix,GT,37.6184634,-122.4248906,,26.126053,0.1,159.4375,1599242782431
Fix,GT,37.618243,-122.4247933,,25.762672,0.1,161.48004,1599242783431
Fix,GT,37.6180225,-122.4247062,,25.535809,0.1,163.46155,1599242784431
Fix,GT,37.6178017,-122.4246304,,25.291548,0.1,165.88617,1599242785431
Fix,GT,37.6175808,-122.4245663,,25.04052,0.1,167.74219,1599242786431
Fix,GT,37.6173608,-122.4245088,,24.860163,0.1,168.54443,1599242787431
Fix,GT,37.6171411,-122.4244565,,24.801294,0.1,170.08301,1599242788431
Fix,GT,37.6169201,-122.4244146,,24.817156,0.1,172.56763,1599242789431
Fix,GT,37.6166977,-122.4243847,,24.869762,0.1,175.07861,1599242790431
Fix,GT,37.6164736,-122.424368,,25.019245,0.1,177.68707,1599242791431
Fix,GT,37.6162471,-122.424364,,25.25933,0.1,180.30615,1599242792431
Fix,GT,37.6160189,-122.4243713,,25.380407,0.1,182.48477,1599242793431
Fix,GT,37.6157906,-122.424389,,25.419704,0.1,184.30528,1599242794431
Fix,GT,37.6155629,-122.4244162,,25.341824,0.1,186.22536,1599242795431
Fix,GT,37.6153371,-122.4244528,,25.203266,0.1,188.21898,1599242796431
Fix,GT,37.6151137,-122.4244996,,25.129036,0.1,190.34668,1599242797431
Fix,GT,37.6148906,-122.4245568,,25.462273,0.1,192.52205,1599242798431
Fix,GT,37.6146651,-122.424626,,26.081501,0.1,194.76944,1599242799431
Fix,GT,37.614437,-122.4247085,,26.618614,0.1,196.98067,1599242800431
Fix,GT,37.614207,-122.4248032,,27.086174,0.1,199.01762,1599242801431
Fix,GT,37.6139764,-122.4249098,,27.421635,0.1,201.20706,1599242802431
Fix,GT,37.6137478,-122.4250286,,27.50198,0.1,203.61087,1599242803431
Fix,GT,37.6135236,-122.4251595,,27.368263,0.1,206.10349,1599242804431
Fix,GT,37.6133053,-122.4253011,,27.149712,0.1,208.23213,1599242805431
Fix,GT,37.6130926,-122.4254488,,26.775589,0.1,209.28732,1599242806431
Fix,GT,37.6128838,-122.4255971,,26.461493,0.1,209.50453,1599242807431
Fix,GT,37.6126776,-122.4257447,,26.183327,0.1,209.69711,1599242808431
Fix,GT,37.612474,-122.4258914,,25.951185,0.1,209.77225,1599242809431
Fix,GT,37.612271,-122.4260375,,25.990484,0.1,209.56429,1599242810431
Fix,GT,37.6120663,-122.4261828,,26.27628,0.1,209.35477,1599242811431
Fix,GT,37.6118576,-122.4263303,,26.968323,0.1,209.27332,1599242812431
Fix,GT,37.6116414,-122.426481,,27.793514,0.1,208.59839,1599242813431
Fix,GT,37.6114186,-122.4266302,,28.154547,0.1,207.46324,1599242814431
Fix,GT,37.611193,-122.4267739,,28.035942,0.1,206.2165,1599242815431
Fix,GT,37.6109665,-122.4269106,,27.759552,0.1,204.99031,1599242816431
Fix,GT,37.6107387,-122.4270402,,27.81129,0.1,203.65604,1599242817431
Fix,GT,37.6105078,-122.4271642,,27.965782,0.1,202.58148,1599242818431
Fix,GT,37.6102748,-122.4272832,,27.869814,0.1,201.56207,1599242819431
Fix,GT,37.6100417,-122.4273962,,27.627117,0.1,200.52025,1599242820431
Fix,GT,37.6098087,-122.4275024,,27.389713,0.1,199.22934,1599242821431
Fix,GT,37.6095757,-122.4276008,,27.189949,0.1,197.8933,1599242822431
Fix,GT,37.6093431,-122.4276929,,26.918392,0.1,197.00644,1599242823431
Fix,GT,37.6091124,-122.4277789,,26.544601,0.1,195.91145,1599242824431
Fix,GT,37.6088836,-122.4278561,,26.179188,0.1,194.3435,1599242825431
Fix,GT,37.6086555,-122.4279252,,26.021,0.1,193.0491,1599242826431
Fix,GT,37.608427,-122.4279889,,25.95245,0.1,191.97705,1599242827431
Fix,GT,37.6081977,-122.4280477,,25.997078,0.1,191.03333,1599242828431
Fix,GT,37.6079661,-122.4281021,,26.367622,0.1,190.07646,1599242829431
Fix,GT,37.6077293,-122.4281525,,26.99828,0.1,189.0508,1599242830431
Fix,GT,37.6074861,-122.4281981,,27.582453,0.1,187.89444,1599242831431
Fix,GT,37.6072374,-122.4282382,,28.102829,0.1,186.7396,1599242832431
Fix,GT,37.6069826,-122.4282724,,28.777693,0.1,185.26811,1599242833431
Fix,GT,37.6067219,-122.4282975,,29.241043,0.1,183.32925,1599242834431
Fix,GT,37.6064581,-122.4283096,,29.271248,0.1,180.84798,1599242835431
Fix,GT,37.6061948,-122.4283069,,29.215015,0.1,178.09473,1599242836431
Fix,GT,37.6059318,-122.4282903,,29.278158,0.1,176.09912,1599242837431
Fix,GT,37.6056682,-122.4282629,,29.440971,0.1,174.3446,1599242838431
Fix,GT,37.6054041,-122.4282252,,29.569933,0.1,172.51605,1599242839431
Fix,GT,37.6051402,-122.4281765,,29.667553,0.1,170.54346,1599242840431
Fix,GT,37.6048763,-122.4281162,,29.845444,0.1,168.66089,1599242841431
Fix,GT,37.6046135,-122.4280442,,29.822464,0.1,166.55084,1599242842431
Fix,GT,37.6043535,-122.4279595,,29.826586,0.1,164.26355,1599242843431
Fix,GT,37.6040951,-122.4278617,,30.139114,0.1,162.22064,1599242844431
Fix,GT,37.6038362,-122.4277522,,30.50898,0.1,160.59802,1599242845431
Fix,GT,37.6035776,-122.4276322,,30.673882,0.1,158.65723,1599242846431
Fix,GT,37.6033222,-122.4274989,,30.731274,0.1,156.09631,1599242847431
Fix,GT,37.6030708,-122.427351,,30.892653,0.1,153.67218,1599242848431
Fix,GT,37.6028233,-122.4271896,,30.998356,0.1,151.4849,1599242849431
Fix,GT,37.6025794,-122.4270169,,31.182663,0.1,149.62726,1599242850431
Fix,GT,37.6023383,-122.4268339,,31.354053,0.1,147.90204,1599242851431
Fix,GT,37.6021015,-122.4266399,,31.367424,0.1,145.78174,1599242852431
Fix,GT,37.6018715,-122.426435,,31.18253,0.1,143.4401,1599242853431
Fix,GT,37.6016497,-122.4262206,,30.94536,0.1,141.15039,1599242854431
Fix,GT,37.6014363,-122.4259971,,30.76179,0.1,139.10193,1599242855431
Fix,GT,37.60123,-122.4257648,,30.754637,0.1,137.18713,1599242856431
Fix,GT,37.6010289,-122.4255248,,30.833912,0.1,135.74933,1599242857431
Fix,GT,37.6008309,-122.4252788,,30.988642,0.1,134.93387,1599242858431
Fix,GT,37.6006328,-122.4250289,,31.300114,0.1,134.85748,1599242859431
Fix,GT,37.6004317,-122.4247781,,31.606575,0.1,135.53223,1599242860431
Fix,GT,37.6002258,-122.4245286,,31.888062,0.1,136.24774,1599242861431
Fix,GT,37.600018,-122.4242775,,32.085403,0.1,135.73285,1599242862431
Fix,GT,37.5998121,-122.4240211,,32.26195,0.1,134.67902,1599242863431
Fix,GT,37.5996069,-122.4237614,,32.36429,0.1,134.76508,1599242864431
Fix,GT,37.5994001,-122.4235029,,32.385567,0.1,135.2779,1599242865431
Fix,GT,37.5991923,-122.4232452,,32.436554,0.1,135.20062,1599242866431
Fix,GT,37.5989843,-122.4229863,,32.51359,0.1,135.11389,1599242867431
Fix,GT,37.5987759,-122.4227268,,32.621002,0.1,135.19049,1599242868431
Fix,GT,37.5985661,-122.4224669,,32.768356,0.1,135.47775,1599242869431
Fix,GT,37.5983541,-122.4222076,,32.90052,0.1,135.87244,1599242870431
Fix,GT,37.5981408,-122.4219478,,33.018715,0.1,135.64764,1599242871431
Fix,GT,37.597928,-122.4216857,,33.13732,0.1,135.41315,1599242872431
Fix,GT,37.5977142,-122.4214221,,33.39431,0.1,135.5058,1599242873431
Fix,GT,37.597498,-122.4211569,,33.62379,0.1,135.68756,1599242874431
Fix,GT,37.5972808,-122.4208912,,33.65046,0.1,135.71765,1599242875431
Fix,GT,37.5970636,-122.4206256,,33.61098,0.1,135.83948,1599242876431
Fix,GT,37.5968456,-122.4203615,,33.604355,0.1,136.27951,1599242877431
Fix,GT,37.596625,-122.4201007,,33.646088,0.1,137.28638,1599242878431
Fix,GT,37.5963993,-122.4198456,,33.738743,0.1,138.96088,1599242879431
Fix,GT,37.5961671,-122.4195978,,33.92353,0.1,140.33209,1599242880431
Fix,GT,37.5959294,-122.4193538,,34.240116,0.1,140.9672,1599242881431
Fix,GT,37.5956881,-122.419109,,34.593285,0.1,141.19507,1599242882431
Fix,GT,37.5954444,-122.4188621,,34.89164,0.1,141.2265,1599242883431
Fix,GT,37.5951975,-122.4186152,,35.157852,0.1,141.54114,1599242884431
Fix,GT,37.5949484,-122.4183686,,35.206627,0.1,141.84644,1599242885431
Fix,GT,37.5946995,-122.4181239,,34.895115,0.1,141.9639,1599242886431
Fix,GT,37.5944529,-122.4178821,,34.524456,0.1,141.9578,1599242887431
Fix,GT,37.594209,-122.4176425,,34.210804,0.1,141.83759,1599242888431
Fix,GT,37.5939679,-122.4174042,,33.859573,0.1,141.6612,1599242889431
Fix,GT,37.5937299,-122.4171676,,33.489048,0.1,141.53351,1599242890431
Fix,GT,37.5934945,-122.4169334,,33.20504,0.1,141.58029,1599242891431
Fix,GT,37.5932602,-122.4167013,,33.035145,0.1,141.78229,1599242892431
Fix,GT,37.5930263,-122.4164712,,32.897823,0.1,141.90717,1599242893431
Fix,GT,37.5927935,-122.4162424,,32.6897,0.1,141.89716,1599242894431
Fix,GT,37.5925625,-122.416015,,32.46542,0.1,141.83533,1599242895431
Fix,GT,37.5923331,-122.4157887,,32.25477,0.1,141.80222,1599242896431
Fix,GT,37.592105,-122.415564,,32.101967,0.1,141.89276,1599242897431
Fix,GT,37.5918773,-122.4153409,,31.981129,0.1,142.1159,1599242898431
Fix,GT,37.5916502,-122.4151201,,31.757599,0.1,142.23874,1599242899431
Fix,GT,37.591425,-122.4149008,,31.493206,0.1,142.03033,1599242900431
Fix,GT,37.5912026,-122.4146818,,31.207333,0.1,141.64908,1599242901431
Fix,GT,37.5909833,-122.4144635,,30.892265,0.1,141.46146,1599242902431
Fix,GT,37.5907666,-122.4142468,,30.604528,0.1,141.37726,1599242903431
Fix,GT,37.5905516,-122.4140317,,30.386549,0.1,141.55872,1599242904431
Fix,GT,37.5903371,-122.4138202,,30.127275,0.1,142.19016,1599242905431
Fix,GT,37.5901227,-122.4136141,,29.786026,0.1,142.64151,1599242906431
Fix,GT,37.5899107,-122.4134105,,29.45025,0.1,142.37659,1599242907431
Fix,GT,37.5897022,-122.4132069,,29.183657,0.1,141.71173,1599242908431
Fix,GT,37.5894964,-122.4130022,,29.10746,0.1,141.422,1599242909431
Fix,GT,37.5892902,-122.4127972,,29.235962,0.1,141.80298,1599242910431
Fix,GT,37.5890817,-122.4125934,,29.43877,0.1,142.14163,1599242911431
Fix,GT,37.5888714,-122.4123872,,29.791859,0.1,141.75781,1599242912431
Fix,GT,37.5886595,-122.412175,,30.360626,0.1,141.12546,1599242913431
Fix,GT,37.5884445,-122.411957,,30.995552,0.1,141.30411,1599242914431
Fix,GT,37.5882246,-122.4117361,,31.50254,0.1,141.71912,1599242915431
Fix,GT,37.5880009,-122.4115137,,31.858082,0.1,141.57098,1599242916431
Fix,GT,37.5877757,-122.4112878,,32.134674,0.1,141.16422,1599242917431
Fix,GT,37.5875496,-122.4110564,,32.615646,0.1,140.29016,1599242918431
Fix,GT,37.5873244,-122.4108149,,33.106533,0.1,138.50018,1599242919431
Fix,GT,37.5871027,-122.4105607,,33.489643,0.1,136.52322,1599242920431
Fix,GT,37.5868855,-122.4102949,,33.77353,0.1,134.75708,1599242921431
Fix,GT,37.5866728,-122.4100193,,34.092606,0.1,133.33502,1599242922431
Fix,GT,37.5864612,-122.4097365,,34.435158,0.1,132.94916,1599242923431
Fix,GT,37.586248,-122.4094516,,34.58602,0.1,133.19168,1599242924431
Fix,GT,37.5860335,-122.4091662,,34.796272,0.1,133.07272,1599242925431
Fix,GT,37.5858183,-122.408877,,35.129936,0.1,132.85132,1599242926431
Fix,GT,37.5856017,-122.4085859,,35.1817,0.1,133.12042,1599242927431
Fix,GT,37.5853844,-122.4082978,,34.9289,0.1,133.67126,1599242928431
Fix,GT,37.5851671,-122.4080139,,34.648144,0.1,134.00708,1599242929431
Fix,GT,37.5849491,-122.4077361,,34.294743,0.1,135.24994,1599242930431
Fix,GT,37.584728,-122.4074686,,33.866634,0.1,137.00848,1599242931431
Fix,GT,37.5845037,-122.407212,,33.455193,0.1,138.2402,1599242932431
Fix,GT,37.5842772,-122.4069655,,33.070145,0.1,139.70071,1599242933431
Fix,GT,37.5840494,-122.4067273,,32.721542,0.1,140.67047,1599242934431
Fix,GT,37.5838208,-122.406496,,32.446587,0.1,141.66422,1599242935431
Fix,GT,37.5835897,-122.406272,,32.393085,0.1,143.03448,1599242936431
Fix,GT,37.5833538,-122.4060546,,32.532967,0.1,144.35138,1599242937431
Fix,GT,37.5831128,-122.4058431,,32.758213,0.1,145.77179,1599242938431
Fix,GT,37.5828649,-122.4056376,,33.21151,0.1,147.36444,1599242939431
Fix,GT,37.582609,-122.4054368,,33.77779,0.1,148.48993,1599242940431
Fix,GT,37.5823465,-122.4052382,,34.23728,0.1,149.23264,1599242941431
Fix,GT,37.5820782,-122.4050421,,34.67438,0.1,150.45654,1599242942431
Fix,GT,37.5818027,-122.4048516,,35.156353,0.1,151.88953,1599242943431
Fix,GT,37.5815197,-122.4046672,,35.596687,0.1,153.16455,1599242944431
Fix,GT,37.58123,-122.4044883,,36.050014,0.1,154.49207,1599242945431
Fix,GT,37.580934,-122.4043157,,36.417885,0.1,155.75641,1599242946431
Fix,GT,37.580633,-122.4041474,,36.68875,0.1,155.97241,1599242947431
Fix,GT,37.5803305,-122.4039757,,37.005554,0.1,155.17456,1599242948431
Fix,GT,37.5800267,-122.4037972,,37.46821,0.1,154.67908,1599242949431
Fix,GT,37.5797192,-122.4036151,,38.021164,0.1,154.88293,1599242950431
Fix,GT,37.5794065,-122.4034322,,38.511124,0.1,155.06512,1599242951431
Fix,GT,37.5790903,-122.4032485,,38.713955,0.1,155.1958,1599242952431
Fix,GT,37.5787734,-122.4030658,,38.599205,0.1,155.4284,1599242953431
Fix,GT,37.5784582,-122.4028855,,38.308628,0.1,155.41052,1599242954431
Fix,GT,37.5781453,-122.4027053,,38.106964,0.1,155.20325,1599242955431
Fix,GT,37.5778341,-122.4025242,,38.057533,0.1,155.09125,1599242956431
Fix,GT,37.5775222,-122.4023433,,38.192192,0.1,155.23694,1599242957431
Fix,GT,37.5772081,-122.4021628,,38.46488,0.1,155.4721,1599242958431
Fix,GT,37.5768912,-122.4019822,,38.826508,0.1,155.5221,1599242959431
Fix,GT,37.5765711,-122.4017992,,39.220337,0.1,155.3985,1599242960431
Fix,GT,37.5762485,-122.4016137,,39.52583,0.1,155.31067,1599242961431
Fix,GT,37.5759238,-122.4014268,,39.74398,0.1,155.29333,1599242962431
Fix,GT,37.5755978,-122.4012389,,39.80667,0.1,155.2699,1599242963431
Fix,GT,37.5752722,-122.4010514,,39.68297,0.1,155.28845,1599242964431
Fix,GT,37.574948,-122.4008641,,39.505344,0.1,155.20776,1599242965431
Fix,GT,37.5746258,-122.4006772,,39.266388,0.1,155.12823,1599242966431
Fix,GT,37.5743064,-122.40049,,38.936974,0.1,154.65198,1599242967431
Fix,GT,37.5739928,-122.4002978,,38.550705,0.1,152.97278,1599242968431
Fix,GT,37.5736884,-122.400093,,38.11332,0.1,150.34369,1599242969431
Fix,GT,37.5733957,-122.3998729,,37.628197,0.1,147.54135,1599242970431
Fix,GT,37.5731158,-122.3996383,,37.051666,0.1,144.71124,1599242971431
Fix,GT,37.5728497,-122.3993928,,36.178833,0.1,142.6535,1599242972431
Fix,GT,37.5725961,-122.3991463,,34.95432,0.1,142.0022,1599242973431
Fix,GT,37.5723529,-122.3989072,,33.60366,0.1,141.7891,1599242974431
Fix,GT,37.5721195,-122.3986767,,32.338078,0.1,141.76202,1599242975431
Fix,GT,37.5718939,-122.3984538,,31.470411,0.1,141.63934,1599242976431
Fix,GT,37.5716735,-122.3982341,,31.044971,0.1,141.26624,1599242977431
Fix,GT,37.5714559,-122.3980157,,30.791447,0.1,141.38397,1599242978431
Fix,GT,37.5712392,-122.3978003,,30.535606,0.1,141.78497,1599242979431
Fix,GT,37.5710235,-122.3975882,,30.286602,0.1,141.95685,1599242980431
Fix,GT,37.5708089,-122.3973775,,30.127558,0.1,141.95862,1599242981431
Fix,GT,37.5705954,-122.3971678,,30.031807,0.1,141.83557,1599242982431
Fix,GT,37.5703831,-122.3969576,,29.979021,0.1,141.61765,1599242983431
Fix,GT,37.5701709,-122.3967469,,30.063534,0.1,141.66556,1599242984431
Fix,GT,37.5699579,-122.3965365,,30.102139,0.1,141.83044,1599242985431
Fix,GT,37.569745,-122.3963267,,29.984276,0.1,141.81851,1599242986431
Fix,GT,37.5695333,-122.3961174,,29.791634,0.1,141.64691,1599242987431
Fix,GT,37.5693239,-122.3959087,,29.541773,0.1,141.4024,1599242988431
Fix,GT,37.5691167,-122.3957007,,29.371304,0.1,141.20221,1599242989431
Fix,GT,37.568911,-122.3954937,,29.174253,0.1,141.37585,1599242990431
Fix,GT,37.5687061,-122.3952891,,28.91626,0.1,141.67389,1599242991431
Fix,GT,37.5685032,-122.395085,,28.784021,0.1,140.84082,1599242992431
Fix,GT,37.5683046,-122.3948754,,28.829002,0.1,139.02072,1599242993431
Fix,GT,37.5681114,-122.3946555,,29.052784,0.1,136.57361,1599242994431
Fix,GT,37.5679256,-122.3944233,,29.160198,0.1,133.80377,1599242995431
Fix,GT,37.5677476,-122.3941802,,29.198559,0.1,131.6301,1599242996431
Fix,GT,37.5675754,-122.393929,,29.330423,0.1,129.8703,1599242997431
Fix,GT,37.5674093,-122.3936706,,29.326302,0.1,127.83804,1599242998431
Fix,GT,37.5672518,-122.3934049,,29.212675,0.1,125.2655,1599242999431
Fix,GT,37.5671054,-122.3931313,,29.1137,0.1,122.71097,1599243000431
Fix,GT,37.5669676,-122.3928507,,29.139915,0.1,120.832275,1599243001431
Fix,GT,37.566836,-122.3925645,,29.251572,0.1,119.13269,1599243002431
Fix,GT,37.5667106,-122.3922721,,29.458364,0.1,117.38312,1599243003431
Fix,GT,37.5665921,-122.3919726,,29.654379,0.1,115.321625,1599243004431
Fix,GT,37.5664825,-122.3916657,,29.799892,0.1,112.91568,1599243005431
Fix,GT,37.5663813,-122.3913523,,29.95898,0.1,111.509766,1599243006431
Fix,GT,37.5662804,-122.3910369,,30.104511,0.1,112.20215,1599243007431
Fix,GT,37.566174,-122.3907234,,30.108627,0.1,113.56528,1599243008431
Fix,GT,37.5660642,-122.3904125,,29.976238,0.1,113.84418,1599243009431
Fix,GT,37.5659548,-122.3901032,,29.85638,0.1,113.771545,1599243010431
Fix,GT,37.5658436,-122.3897959,,29.803364,0.1,114.89368,1599243011431
Fix,GT,37.5657237,-122.3894941,,29.823227,0.1,117.982056,1599243012431
Fix,GT,37.5655906,-122.3892004,,29.957146,0.1,121.133545,1599243013431
Fix,GT,37.5654448,-122.3889144,,30.11769,0.1,123.99411,1599243014431
Fix,GT,37.5652869,-122.3886366,,30.288548,0.1,126.95322,1599243015431
Fix,GT,37.565116,-122.3883677,,30.48656,0.1,129.97858,1599243016431
Fix,GT,37.5649341,-122.3881081,,30.628954,0.1,132.57959,1599243017431
Fix,GT,37.5647423,-122.3878575,,30.858746,0.1,135.1438,1599243018431
Fix,GT,37.5645389,-122.3876173,,31.148972,0.1,138.30304,1599243019431
Fix,GT,37.5643236,-122.3873895,,31.368393,0.1,141.11981,1599243020431
Fix,GT,37.5641012,-122.3871694,,31.4855,0.1,142.17047,1599243021431
Fix,GT,37.5638766,-122.3869505,,31.645649,0.1,141.90765,1599243022431
Fix,GT,37.5636518,-122.3867277,,31.965117,0.1,141.41232,1599243023431
Fix,GT,37.563425,-122.3865009,,32.34571,0.1,141.38733,1599243024431
Fix,GT,37.5631961,-122.3862719,,32.601814,0.1,141.34482,1599243025431
Fix,GT,37.5629657,-122.3860409,,32.84597,0.1,141.28223,1599243026431
Fix,GT,37.5627338,-122.3858079,,33.081318,0.1,141.16571,1599243027431
Fix,GT,37.5625009,-122.3855722,,33.346638,0.1,141.00964,1599243028431
Fix,GT,37.562266,-122.385334,,33.645966,0.1,141.0141,1599243029431
Fix,GT,37.562029,-122.3850944,,33.88997,0.1,141.21353,1599243030431
Fix,GT,37.5617896,-122.3848538,,34.17726,0.1,141.30307,1599243031431
Fix,GT,37.5615483,-122.3846115,,34.354443,0.1,141.29407,1599243032431
Fix,GT,37.5613059,-122.3843681,,34.52516,0.1,141.2172,1599243033431
Fix,GT,37.5610625,-122.3841234,,34.669456,0.1,141.32199,1599243034431
Fix,GT,37.5608176,-122.3838791,,34.71191,0.1,141.669,1599243035431
Fix,GT,37.5605718,-122.3836367,,34.61712,0.1,141.89166,1599243036431
Fix,GT,37.5603275,-122.3833961,,34.26062,0.1,141.72226,1599243037431
Fix,GT,37.5600877,-122.3831576,,33.622795,0.1,141.32428,1599243038431
Fix,GT,37.5598532,-122.3829218,,33.052002,0.1,141.18378,1599243039431
Fix,GT,37.5596225,-122.3826903,,32.49432,0.1,141.54199,1599243040431
Fix,GT,37.5593947,-122.3824651,,31.849453,0.1,141.93268,1599243041431
Fix,GT,37.5591706,-122.3822458,,31.203194,0.1,142.03003,1599243042431
Fix,GT,37.5589504,-122.3820322,,30.57365,0.1,142.6087,1599243043431
Fix,GT,37.5587316,-122.3818275,,30.001951,0.1,144.06366,1599243044431
Fix,GT,37.5585119,-122.381635,,29.509462,0.1,145.93622,1599243045431
Fix,GT,37.5582904,-122.3814538,,29.234787,0.1,147.71085,1599243046431
Fix,GT,37.5580662,-122.3812806,,29.257698,0.1,148.96225,1599243047431
Fix,GT,37.5578387,-122.3811125,,29.363476,0.1,149.9187,1599243048431
Fix,GT,37.5576078,-122.3809484,,29.522469,0.1,150.88965,1599243049431
Fix,GT,37.5573728,-122.3807879,,29.825008,0.1,151.90692,1599243050431
Fix,GT,37.5571331,-122.3806298,,30.234447,0.1,152.57751,1599243051431
Fix,GT,37.5568896,-122.380472,,30.59259,0.1,152.6211,1599243052431
Fix,GT,37.5566436,-122.3803116,,30.910553,0.1,152.23114,1599243053431
Fix,GT,37.5563962,-122.3801477,,31.16552,0.1,151.97131,1599243054431
Fix,GT,37.5561474,-122.3799814,,31.507397,0.1,151.92798,1599243055431
Fix,GT,37.5558948,-122.379813,,31.961004,0.1,151.99661,1599243056431
Fix,GT,37.5556387,-122.3796427,,32.3694,0.1,152.08472,1599243057431
Fix,GT,37.5553788,-122.3794705,,32.884377,0.1,152.15967,1599243058431
Fix,GT,37.5551149,-122.3792962,,33.29334,0.1,152.25305,1599243059431
Fix,GT,37.554848,-122.3791209,,33.56057,0.1,152.33118,1599243060431
Fix,GT,37.5545799,-122.3789445,,33.61412,0.1,152.22467,1599243061431
Fix,GT,37.5543122,-122.3787675,,33.566097,0.1,152.11462,1599243062431
Fix,GT,37.5540449,-122.3785901,,33.564682,0.1,152.02222,1599243063431
Fix,GT,37.5537783,-122.3784125,,33.347015,0.1,151.99005,1599243064431
Fix,GT,37.5535151,-122.3782346,,33.001312,0.1,151.30481,1599243065431
Fix,GT,37.5532566,-122.3780521,,32.904152,0.1,149.89423,1599243066431
Fix,GT,37.5529999,-122.3778618,,33.30363,0.1,149.02643,1599243067431
Fix,GT,37.5527408,-122.3776641,,33.909992,0.1,148.29666,1599243068431
Fix,GT,37.5524803,-122.3774591,,34.282627,0.1,147.30658,1599243069431
Fix,GT,37.5522206,-122.3772452,,34.73171,0.1,146.03821,1599243070431
Fix,GT,37.5519611,-122.3770207,,35.224457,0.1,144.72522,1599243071431
Fix,GT,37.5517018,-122.3767863,,35.667473,0.1,143.66736,1599243072431
Fix,GT,37.5514419,-122.376544,,36.195534,0.1,143.04239,1599243073431
Fix,GT,37.5511791,-122.3762964,,36.758156,0.1,143.13983,1599243074431
Fix,GT,37.5509108,-122.3760471,,37.309364,0.1,143.60101,1599243075431
Fix,GT,37.5506386,-122.3757967,,37.525295,0.1,143.83926,1599243076431
Fix,GT,37.5503648,-122.3755475,,37.50917,0.1,144.34613,1599243077431
Fix,GT,37.5500888,-122.3753008,,37.77256,0.1,144.77039,1599243078431
Fix,GT,37.5498085,-122.3750526,,38.37709,0.1,144.70221,1599243079431
Fix,GT,37.5495242,-122.3748,,38.916077,0.1,144.59875,1599243080431
Fix,GT,37.5492366,-122.3745436,,39.375473,0.1,144.5315,1599243081431
Fix,GT,37.5489453,-122.3742836,,39.952457,0.1,144.49213,1599243082431
Fix,GT,37.5486503,-122.3740196,,40.42337,0.1,144.367,1599243083431
Fix,GT,37.5483535,-122.3737519,,40.66497,0.1,144.02878,1599243084431
Fix,GT,37.5480566,-122.373481,,40.798084,0.1,143.7463,1599243085431
Fix,GT,37.5477595,-122.3732079,,40.918774,0.1,143.71051,1599243086431
Fix,GT,37.5474616,-122.3729339,,41.04289,0.1,143.66684,1599243087431
Fix,GT,37.547163,-122.372659,,41.144283,0.1,143.59845,1599243088431
Fix,GT,37.546864,-122.3723833,,41.209286,0.1,143.5409,1599243089431
Fix,GT,37.5465652,-122.3721062,,41.23094,0.1,143.39642,1599243090431
Fix,GT,37.5462669,-122.3718284,,41.195923,0.1,143.37158,1599243091431
Fix,GT,37.545969,-122.371551,,41.124947,0.1,143.3294,1599243092431
Fix,GT,37.5456722,-122.371274,,40.962437,0.1,143.28705,1599243093431
Fix,GT,37.5453769,-122.3709983,,40.718086,0.1,143.35101,1599243094431
Fix,GT,37.5450828,-122.370725,,40.508457,0.1,143.55026,1599243095431
Fix,GT,37.5447895,-122.3704544,,40.302505,0.1,143.73047,1599243096431
Fix,GT,37.5444973,-122.3701857,,40.09381,0.1,143.67722,1599243097431
Fix,GT,37.5442068,-122.3699176,,39.925636,0.1,143.50311,1599243098431
Fix,GT,37.5439183,-122.369649,,39.792023,0.1,143.29803,1599243099431
Fix,GT,37.5436317,-122.3693806,,39.540733,0.1,143.09113,1599243100431
Fix,GT,37.5433479,-122.3691136,,39.15744,0.1,143.08832,1599243101431
Fix,GT,37.5430667,-122.3688499,,38.771072,0.1,143.36041,1599243102431
Fix,GT,37.5427866,-122.368591,,38.414154,0.1,143.89932,1599243103431
Fix,GT,37.5425072,-122.3683378,,38.076744,0.1,144.34958,1599243104431
Fix,GT,37.5422288,-122.3680895,,37.733047,0.1,144.89032,1599243105431
Fix,GT,37.5419502,-122.3678481,,37.397686,0.1,146.00568,1599243106431
Fix,GT,37.5416701,-122.3676164,,37.0919,0.1,147.26529,1599243107431
Fix,GT,37.5413883,-122.3673935,,36.85115,0.1,148.30713,1599243108431
Fix,GT,37.5411049,-122.3671779,,36.713608,0.1,149.18045,1599243109431
Fix,GT,37.5408201,-122.3669677,,36.652153,0.1,149.86829,1599243110431
Fix,GT,37.5405334,-122.3667624,,36.60051,0.1,150.63745,1599243111431
Fix,GT,37.5402454,-122.3665614,,36.544605,0.1,151.17737,1599243112431
Fix,GT,37.5399562,-122.366364,,36.520206,0.1,151.72699,1599243113431
Fix,GT,37.5396655,-122.36617,,36.55128,0.1,152.06793,1599243114431
Fix,GT,37.5393742,-122.3659765,,36.6192,0.1,151.87384,1599243115431
Fix,GT,37.5390832,-122.3657803,,36.704037,0.1,151.4372,1599243116431
Fix,GT,37.5387924,-122.3655812,,36.81761,0.1,151.1023,1599243117431
Fix,GT,37.5385016,-122.3653796,,36.949394,0.1,150.94238,1599243118431
Fix,GT,37.5382098,-122.3651767,,37.087845,0.1,150.99481,1599243119431
Fix,GT,37.5379165,-122.3649741,,37.213844,0.1,151.31424,1599243120431
Fix,GT,37.5376211,-122.3647735,,37.32789,0.1,151.695,1599243121431
Fix,GT,37.5373243,-122.3645739,,37.40538,0.1,151.83112,1599243122431
Fix,GT,37.5370269,-122.3643746,,37.424515,0.1,151.79358,1599243123431
Fix,GT,37.5367296,-122.364175,,37.40899,0.1,151.78268,1599243124431
Fix,GT,37.5364325,-122.3639754,,37.385384,0.1,151.72568,1599243125431
Fix,GT,37.5361361,-122.3637749,,37.33436,0.1,151.45819,1599243126431
Fix,GT,37.5358411,-122.3635733,,37.24708,0.1,151.35126,1599243127431
Fix,GT,37.5355466,-122.3633726,,37.129765,0.1,151.518,1599243128431
Fix,GT,37.5352526,-122.3631736,,37.01431,0.1,151.74893,1599243129431
Fix,GT,37.5349586,-122.362977,,36.90532,0.1,152.04108,1599243130431
Fix,GT,37.5346642,-122.3627847,,36.78237,0.1,152.98132,1599243131431
Fix,GT,37.5343672,-122.3626017,,36.666832,0.1,154.7284,1599243132431
Fix,GT,37.5340672,-122.3624297,,36.555294,0.1,155.98566,1599243133431
Fix,GT,37.5337654,-122.3622659,,36.414333,0.1,157.27246,1599243134431
Fix,GT,37.5334616,-122.3621131,,36.260498,0.1,159.16113,1599243135431
Fix,GT,37.5331554,-122.3619725,,36.147453,0.1,160.47339,1599243136431
Fix,GT,37.5328479,-122.3618392,,36.04912,0.1,161.1853,1599243137431
Fix,GT,37.5325406,-122.3617096,,35.881313,0.1,161.4693,1599243138431
Fix,GT,37.5322349,-122.3615816,,35.643745,0.1,161.41162,1599243139431
Fix,GT,37.5319316,-122.3614535,,35.39794,0.1,161.23328,1599243140431
Fix,GT,37.5316304,-122.3613254,,35.19036,0.1,161.20514,1599243141431
Fix,GT,37.531331,-122.3611982,,34.978443,0.1,161.22351,1599243142431
Fix,GT,37.5310334,-122.3610717,,34.74235,0.1,161.2041,1599243143431
Fix,GT,37.5307381,-122.3609458,,34.476997,0.1,161.10168,1599243144431
Fix,GT,37.5304456,-122.3608197,,34.193386,0.1,160.82727,1599243145431
Fix,GT,37.5301557,-122.3606929,,33.938866,0.1,160.58008,1599243146431
Fix,GT,37.5298681,-122.3605663,,33.724213,0.1,160.78735,1599243147431
Fix,GT,37.5295815,-122.3604427,,33.519295,0.1,161.25165,1599243148431
Fix,GT,37.5292959,-122.3603226,,33.341103,0.1,161.50702,1599243149431
Fix,GT,37.5290114,-122.3602043,,33.16271,0.1,161.73291,1599243150431
Fix,GT,37.5287284,-122.360087,,32.980274,0.1,161.52917,1599243151431
Fix,GT,37.5284476,-122.3599685,,32.76725,0.1,161.13214,1599243152431
Fix,GT,37.5281694,-122.3598494,,32.48108,0.1,161.18103,1599243153431
Fix,GT,37.5278937,-122.3597318,,32.139816,0.1,161.17432,1599243154431
Fix,GT,37.5276212,-122.3596135,,31.932194,0.1,160.5116,1599243155431
Fix,GT,37.5273508,-122.3594893,,32.001904,0.1,159.33032,1599243156431
Fix,GT,37.527082,-122.3593569,,32.059162,0.1,157.73389,1599243157431
Fix,GT,37.5268174,-122.3592132,,31.925533,0.1,155.33533,1599243158431
Fix,GT,37.5265594,-122.3590562,,31.760921,0.1,152.92096,1599243159431
Fix,GT,37.5263077,-122.3588877,,31.550455,0.1,150.74744,1599243160431
Fix,GT,37.5260641,-122.3587075,,31.207375,0.1,147.92676,1599243161431
Fix,GT,37.525831,-122.3585149,,30.75552,0.1,145.4602,1599243162431
Fix,GT,37.5256062,-122.3583164,,30.224728,0.1,144.42764,1599243163431
Fix,GT,37.5253868,-122.3581189,,29.719303,0.1,144.27911,1599243164431
Fix,GT,37.5251702,-122.3579244,,29.433117,0.1,144.38962,1599243165431
Fix,GT,37.5249544,-122.3577314,,29.402428,0.1,144.4867,1599243166431
Fix,GT,37.5247382,-122.3575392,,29.35663,0.1,144.72906,1599243167431
Fix,GT,37.5245225,-122.357349,,29.195572,0.1,144.91147,1599243168431
Fix,GT,37.524307,-122.3571608,,29.113708,0.1,145.21848,1599243169431
Fix,GT,37.5240896,-122.3569761,,29.182154,0.1,146.52975,1599243170431
Fix,GT,37.523867,-122.3567987,,29.381107,0.1,148.53711,1599243171431
Fix,GT,37.5236377,-122.3566299,,29.654846,0.1,150.46011,1599243172431
Fix,GT,37.5234021,-122.3564687,,29.899796,0.1,152.1958,1599243173431
Fix,GT,37.5231614,-122.3563159,,29.969889,0.1,154.05835,1599243174431
Fix,GT,37.522916,-122.3561728,,30.084635,0.1,155.90283,1599243175431
Fix,GT,37.5226663,-122.3560376,,30.28865,0.1,157.2107,1599243176431
Fix,GT,37.5224133,-122.3559066,,30.44564,0.1,157.6977,1599243177431
Fix,GT,37.5221589,-122.3557761,,30.563728,0.1,157.69604,1599243178431
Fix,GT,37.5219034,-122.3556449,,30.726212,0.1,157.71796,1599243179431
Fix,GT,37.5216461,-122.3555132,,30.9559,0.1,157.73468,1599243180431
Fix,GT,37.521387,-122.3553802,,31.162453,0.1,157.6305,1599243181431
Fix,GT,37.5211267,-122.3552453,,31.362621,0.1,157.46204,1599243182431
Fix,GT,37.520865,-122.355108,,31.584145,0.1,157.09631,1599243183431
Fix,GT,37.5206022,-122.3549667,,31.85451,0.1,156.42792,1599243184431
Fix,GT,37.5203393,-122.3548198,,32.00615,0.1,155.48187,1599243185431
Fix,GT,37.5200778,-122.3546662,,32.091022,0.1,154.28522,1599243186431
Fix,GT,37.5198184,-122.3545049,,32.19411,0.1,152.97302,1599243187431
Fix,GT,37.5195608,-122.3543364,,32.271538,0.1,151.92291,1599243188431
Fix,GT,37.519305,-122.3541623,,32.29675,0.1,150.97882,1599243189431
Fix,GT,37.519052,-122.353982,,32.290188,0.1,149.6997,1599243190431
Fix,GT,37.5188024,-122.3537945,,32.269497,0.1,148.32117,1599243191431
Fix,GT,37.518557,-122.3535995,,32.194977,0.1,146.9303,1599243192431
Fix,GT,37.518316,-122.3533984,,32.003315,0.1,145.72229,1599243193431
Fix,GT,37.5180803,-122.3531937,,31.61265,0.1,144.82373,1599243194431
Fix,GT,37.51785,-122.3529873,,31.217106,0.1,143.99054,1599243195431
Fix,GT,37.5176254,-122.3527782,,30.833672,0.1,142.66193,1599243196431
Fix,GT,37.5174081,-122.3525642,,30.501097,0.1,140.96143,1599243197431
Fix,GT,37.5171973,-122.3523453,,30.209785,0.1,139.76965,1599243198431
Fix,GT,37.516992,-122.3521249,,29.707914,0.1,139.08408,1599243199431
Fix,GT,37.5167916,-122.3519071,,29.143063,0.1,139.08014,1599243200431
Fix,GT,37.5165933,-122.3516935,,28.913456,0.1,139.56903,1599243201431
Fix,GT,37.5163947,-122.3514831,,28.795355,0.1,139.80347,1599243202431
Fix,GT,37.5161966,-122.3512729,,28.804874,0.1,139.38568,1599243203431
Fix,GT,37.5159994,-122.3510594,,29.023422,0.1,138.99982,1599243204431
Fix,GT,37.5158006,-122.3508434,,29.406635,0.1,139.19196,1599243205431
Fix,GT,37.5155977,-122.3506259,,29.762844,0.1,139.65747,1599243206431
Fix,GT,37.515392,-122.3504083,,29.930767,0.1,139.94403,1599243207431
Fix,GT,37.5151852,-122.3501897,,30.115944,0.1,139.69312,1599243208431
Fix,GT,37.5149782,-122.3499671,,30.392595,0.1,139.03513,1599243209431
Fix,GT,37.5147706,-122.3497407,,30.616531,0.1,138.88275,1599243210431
Fix,GT,37.5145619,-122.3495131,,30.760416,0.1,139.0169,1599243211431
Fix,GT,37.5143516,-122.3492848,,30.977726,0.1,139.0376,1599243212431
Fix,GT,37.5141397,-122.3490543,,31.242695,0.1,139.03918,1599243213431
Fix,GT,37.5139257,-122.3488227,,31.4547,0.1,139.31381,1599243214431
Fix,GT,37.5137097,-122.3485911,,31.618832,0.1,139.53247,1599243215431
Fix,GT,37.5134924,-122.3483581,,31.801912,0.1,139.40155,1599243216431
Fix,GT,37.5132746,-122.3481227,,31.991936,0.1,139.06802,1599243217431
Fix,GT,37.5130572,-122.3478836,,32.12617,0.1,138.43054,1599243218431
Fix,GT,37.5128412,-122.3476407,,32.252296,0.1,137.82349,1599243219431
Fix,GT,37.5126263,-122.3473942,,32.39153,0.1,137.28882,1599243220431
Fix,GT,37.5124126,-122.3471436,,32.52518,0.1,136.50049,1599243221431
Fix,GT,37.5122006,-122.3468885,,32.655502,0.1,135.91873,1599243222431
Fix,GT,37.5119895,-122.3466302,,32.76315,0.1,135.54514,1599243223431
Fix,GT,37.5117795,-122.3463693,,32.829643,0.1,134.9696,1599243224431
Fix,GT,37.5115712,-122.3461052,,32.87254,0.1,134.32123,1599243225431
Fix,GT,37.5113653,-122.345838,,32.8719,0.1,133.67847,1599243226431
Fix,GT,37.5111623,-122.3455684,,32.738533,0.1,133.05115,1599243227431
Fix,GT,37.5109623,-122.3452972,,32.60897,0.1,132.41577,1599243228431
Fix,GT,37.5107655,-122.3450241,,32.525085,0.1,131.77075,1599243229431
Fix,GT,37.5105714,-122.3447488,,32.48097,0.1,131.08325,1599243230431
Fix,GT,37.5103802,-122.344471,,32.453518,0.1,130.39172,1599243231431
Fix,GT,37.5101908,-122.3441912,,32.478317,0.1,130.13474,1599243232431
Fix,GT,37.5100019,-122.3439098,,32.58575,0.1,129.86996,1599243233431
Fix,GT,37.5098143,-122.3436257,,32.707146,0.1,129.1189,1599243234431
Fix,GT,37.509629,-122.3433373,,32.78964,0.1,128.4256,1599243235431
Fix,GT,37.5094463,-122.343046,,32.760338,0.1,127.73047,1599243236431
Fix,GT,37.5092665,-122.3427526,,32.685204,0.1,127.2222,1599243237431
Fix,GT,37.5090881,-122.3424586,,32.689194,0.1,127.21744,1599243238431
Fix,GT,37.5089089,-122.3421645,,32.807,0.1,127.35184,1599243239431
Fix,GT,37.5087292,-122.341869,,32.921783,0.1,127.07321,1599243240431
Fix,GT,37.5085503,-122.3415717,,32.980682,0.1,126.90311,1599243241431
Fix,GT,37.508371,-122.3412734,,33.127846,0.1,127.047485,1599243242431
Fix,GT,37.5081899,-122.3409742,,33.315117,0.1,127.30725,1599243243431
Fix,GT,37.5080069,-122.3406745,,33.419483,0.1,127.492615,1599243244431
Fix,GT,37.5078232,-122.3403744,,33.523476,0.1,127.42334,1599243245431
Fix,GT,37.5076392,-122.3400727,,33.684853,0.1,127.28674,1599243246431
Fix,GT,37.5074544,-122.3397696,,33.76853,0.1,127.36713,1599243247431
Fix,GT,37.5072693,-122.3394668,,33.727882,0.1,127.55011,1599243248431
Fix,GT,37.5070839,-122.3391648,,33.68799,0.1,127.508484,1599243249431
Fix,GT,37.5068991,-122.3388629,,33.627884,0.1,127.35693,1599243250431
Fix,GT,37.5067156,-122.3385611,,33.520866,0.1,127.217316,1599243251431
Fix,GT,37.5065331,-122.3382601,,33.35693,0.1,127.196045,1599243252431
Fix,GT,37.5063514,-122.3379609,,33.156357,0.1,127.27072,1599243253431
Fix,GT,37.5061706,-122.3376639,,32.9315,0.1,127.34299,1599243254431
Fix,GT,37.5059907,-122.3373697,,32.6685,0.1,127.581116,1599243255431
Fix,GT,37.5058108,-122.3370792,,32.37344,0.1,128.0055,1599243256431
Fix,GT,37.5056314,-122.3367926,,32.106636,0.1,128.04279,1599243257431
Fix,GT,37.5054534,-122.3365067,,32.12422,0.1,127.765015,1599243258431
Fix,GT,37.5052747,-122.3362197,,32.29502,0.1,128.21875,1599243259431
