MessageType,Provider,LatitudeDegrees,LongitudeDegrees,AltitudeMeters,SpeedMps,AccuracyMeters,BearingDegrees,UnixTimeMillis
Fix,GT,37.4274158,-122.0699267,,0.0006080759,0.1,358.47217,1596490331429
Fix,GT,37.4274158,-122.0699267,,0.0008061377,0.1,358.47232,1596490332429
Fix,GT,37.4274158,-122.0699267,,0.0,0.1,358.4724,1596490333429
Fix,GT,37.4274158,-122.0699267,,0.0,0.1,358.47226,1596490334429
Fix,GT,37.4274158,-122.0699267,,0.0,0.1,358.47195,1596490335429
Fix,GT,37.4274158,-122.0699267,,0.0004299746,0.1,358.4715,1596490336429
Fix,GT,37.4274158,-122.0699267,,0.0036706163,0.1,358.4725,1596490337429
Fix,GT,37.4274158,-122.0699267,,0.0045404863,0.1,358.47318,1596490338429
Fix,GT,37.4274158,-122.0699267,,0.001,0.1,358.4714,1596490339429
Fix,GT,37.4274158,-122.0699267,,0.001,0.1,358.4708,1596490340429
Fix,GT,37.4274158,-122.0699267,,0.0011781014,0.1,358.47052,1596490341429
Fix,GT,37.4274158,-122.0699267,,0.0014142136,0.1,358.47034,1596490342429
Fix,GT,37.4274158,-122.0699267,,0.0012361123,0.1,358.4703,1596490343429
Fix,GT,37.4274158,-122.0699267,,0.001,0.1,358.47073,1596490344429
Fix,GT,37.4274158,-122.0699267,,0.0005700254,0.1,358.47107,1596490345429
Fix,GT,37.4274158,-122.0699267,,0.00042997464,0.1,358.47083,1596490346429
Fix,GT,37.4274158,-122.0699267,,0.0015314779,0.1,358.4706,1596490347429
Fix,GT,37.4274158,-122.0699267,,0.002236068,0.1,358.47043,1596490348429
Fix,GT,37.4274158,-122.0699267,,0.0017045902,0.1,358.47043,1596490349429
Fix,GT,37.4274158,-122.0699267,,0.001,0.1,358.47055,1596490350429
Fix,GT,37.4274158,-122.0699267,,0.0005700254,0.1,358.47055,1596490351429
Fix,GT,37.4274158,-122.0699267,,0.00042997464,0.1,358.47064,1596490352429
Fix,GT,37.4274158,-122.0699267,,0.0014299747,0.1,358.47055,1596490353429
Fix,GT,37.4274158,-122.0699267,,0.0015700255,0.1,358.47034,1596490354429
Fix,GT,37.4274158,-122.0699267,,0.001,0.1,358.4703,1596490355429
Fix,GT,37.4274158,-122.0699267,,0.0011781014,0.1,358.4705,1596490356429
Fix,GT,37.4274158,-122.0699267,,0.0012361123,0.1,358.47064,1596490357429
Fix,GT,37.4274158,-122.0699267,,0.0005700254,0.1,358.4706,1596490358429
Fix,GT,37.4274158,-122.0699267,,0.00042997464,0.1,358.4707,1596490359429
Fix,GT,37.4274158,-122.0699267,,0.0011781014,0.1,358.4709,1596490360429
Fix,GT,37.4274158,-122.0699267,,0.001666087,0.1,358.47095,1596490361429
Fix,GT,37.4274158,-122.0699267,,0.0015700255,0.1,358.47067,1596490362429
Fix,GT,37.4274158,-122.0699267,,0.00057002535,0.1,358.47046,1596490363429
Fix,GT,37.4274158,-122.0699267,,0.00042997464,0.1,358.47043,1596490364429
Fix,GT,37.4274158,-122.0699267,,0.001,0.1,358.47046,1596490365429
Fix,GT,37.4274158,-122.0699267,,0.0011781014,0.1,358.4705,1596490366429
Fix,GT,37.4274158,-122.0699267,,0.0012361122,0.1,358.47046,1596490367429
Fix,GT,37.4274158,-122.0699267,,0.0015314779,0.1,358.47107,1596490368429
Fix,GT,37.4274158,-122.0699267,,0.0012746155,0.1,358.47147,1596490369429
Fix,GT,37.4274158,-122.0699267,,0.00042997464,0.1,358.47083,1596490370429
Fix,GT,37.4274158,-122.0699267,,0.0014299747,0.1,358.47076,1596490371429
Fix,GT,37.4274158,-122.0699267,,0.0017481267,0.1,358.47098,1596490372429
Fix,GT,37.4274158,-122.0699267,,0.001666087,0.1,358.47092,1596490373429
Fix,GT,37.4274158,-122.0699267,,0.0021015033,0.1,358.47073,1596490374429
Fix,GT,37.4274158,-122.0699267,,0.002236068,0.1,358.4707,1596490375429
Fix,GT,37.4274158,-122.0699267,,0.0018826914,0.1,358.47064,1596490376429
Fix,GT,37.4274158,-122.0699267,,0.0012361123,0.1,358.47046,1596490377429
Fix,GT,37.4274158,-122.0699267,,0.0005700254,0.1,358.47028,1596490378429
Fix,GT,37.4274158,-122.0699267,,0.00042997464,0.1,358.47018,1596490379429
Fix,GT,37.4274158,-122.0699267,,0.0011781014,0.1,358.47025,1596490380429
Fix,GT,37.4274158,-122.0699267,,0.0012361123,0.1,358.47037,1596490381429
Fix,GT,37.4274158,-122.0699267,,0.001,0.1,358.47028,1596490382429
Fix,GT,37.4274158,-122.0699267,,0.0005700254,0.1,358.4703,1596490383429
Fix,GT,37.4274158,-122.0699267,,0.0,0.1,358.4702,1596490384429
Fix,GT,37.4274158,-122.0699267,,0.00060807593,0.1,358.47034,1596490385429
Fix,GT,37.4274158,-122.0699267,,0.0012361123,0.1,358.47058,1596490386429
Fix,GT,37.4274158,-122.0699267,,0.0005700254,0.1,358.47058,1596490387429
Fix,GT,37.4274158,-122.0699267,,0.0006080759,0.1,358.47052,1596490388429
Fix,GT,37.4274158,-122.0699267,,0.0017675902,0.1,358.4704,1596490389429
Fix,GT,37.4274158,-122.0699267,,0.0030474463,0.1,358.4704,1596490390429
Fix,GT,37.4274158,-122.0699267,,0.0039005706,0.1,358.46985,1596490391429
Fix,GT,37.4274158,-122.0699267,,0.0046351035,0.1,358.46838,1596490392429
Fix,GT,37.4274174,-122.0699269,,0.36000624,0.1,357.8433,1596490393429
Fix,GT,37.4274242,-122.069928,,1.2984589,0.1,356.6243,1596490394429
Fix,GT,37.427441,-122.0699293,,2.5451298,0.1,356.56842,1596490395429
Fix,GT,37.4274707,-122.0699309,,4.0592456,0.1,357.40295,1596490396429
Fix,GT,37.4275147,-122.069933,,5.6302543,0.1,357.73856,1596490397429
Fix,GT,37.4275719,-122.069936,,6.961564,0.1,357.61182,1596490398429
Fix,GT,37.4276388,-122.0699399,,7.892193,0.1,357.43417,1596490399429
Fix,GT,37.4277124,-122.0699425,,8.390765,0.1,358.85092,1596490400429
Fix,GT,37.4277885,-122.0699421,,8.3820095,0.1,0.76846313,1596490401429
Fix,GT,37.4278637,-122.0699411,,8.304241,0.1,0.68807983,1596490402429
Fix,GT,37.4279386,-122.0699411,,8.338684,0.1,359.96512,1596490403429
Fix,GT,37.4280134,-122.0699421,,8.223397,0.1,359.5689,1596490404429
Fix,GT,37.4280861,-122.0699426,,7.852417,0.1,0.28042603,1596490405429
Fix,GT,37.4281539,-122.0699414,,7.161003,0.1,1.3128052,1596490406429
Fix,GT,37.4282145,-122.0699423,,6.2841673,0.1,358.3795,1596490407429
Fix,GT,37.4282655,-122.069956,,5.5002704,0.1,344.70718,1596490408429
Fix,GT,37.428302,-122.0699907,,5.111064,0.1,320.22208,1596490409429
Fix,GT,37.4283205,-122.070041,,5.151581,0.1,294.5029,1596490410429
Fix,GT,37.4283261,-122.0701011,,5.830395,0.1,278.0151,1596490411429
Fix,GT,37.4283275,-122.0701727,,6.851111,0.1,272.23383,1596490412429
Fix,GT,37.4283268,-122.0702538,,7.4899397,0.1,269.86993,1596490413429
Fix,GT,37.4283249,-122.0703395,,7.6997805,0.1,268.9106,1596490414429
Fix,GT,37.4283232,-122.0704267,,7.7200155,0.1,269.37173,1596490415429
Fix,GT,37.428323,-122.0705119,,7.217973,0.1,270.5708,1596490416429
Fix,GT,37.4283242,-122.0705866,,5.9242067,0.1,271.80884,1596490417429
Fix,GT,37.4283257,-122.0706469,,4.8168817,0.1,272.23178,1596490418429
Fix,GT,37.4283267,-122.0707001,,4.75654,0.1,271.74753,1596490419429
Fix,GT,37.4283274,-122.0707572,,5.51878,0.1,270.96512,1596490420429
Fix,GT,37.4283272,-122.0708267,,6.8186483,0.1,269.82208,1596490421429
Fix,GT,37.4283258,-122.0709099,,7.88601,0.1,268.88394,1596490422429
Fix,GT,37.4283241,-122.0710024,,8.406188,0.1,268.72934,1596490423429
Fix,GT,37.4283223,-122.0710975,,8.299349,0.1,268.83032,1596490424429
Fix,GT,37.4283212,-122.0711875,,7.5003815,0.1,269.41962,1596490425429
Fix,GT,37.4283215,-122.0712648,,6.212375,0.1,270.6211,1596490426429
Fix,GT,37.4283225,-122.0713284,,5.307787,0.1,271.52014,1596490427429
Fix,GT,37.4283238,-122.0713882,,5.403627,0.1,271.77527,1596490428429
Fix,GT,37.4283256,-122.0714544,,6.446149,0.1,272.0208,1596490429429
Fix,GT,37.4283276,-122.0715345,,7.720746,0.1,271.73538,1596490430429
Fix,GT,37.4283289,-122.0716284,,8.842124,0.1,270.82635,1596490431429
Fix,GT,37.4283289,-122.0717332,,9.638266,0.1,269.80133,1596490432429
Fix,GT,37.4283276,-122.0718442,,9.928155,0.1,268.96677,1596490433429
Fix,GT,37.4283252,-122.0719561,,9.837225,0.1,268.55682,1596490434429
Fix,GT,37.4283232,-122.0720658,,9.542037,0.1,268.97958,1596490435429
Fix,GT,37.4283221,-122.0721712,,9.086697,0.1,269.35947,1596490436429
Fix,GT,37.4283199,-122.0722709,,8.556177,0.1,267.8059,1596490437429
Fix,GT,37.4283135,-122.0723638,,7.917541,0.1,263.7114,1596490438429
Fix,GT,37.4283016,-122.0724451,,6.662672,0.1,257.7662,1596490439429
Fix,GT,37.4282875,-122.0725069,,4.6857367,0.1,252.96162,1596490440429
Fix,GT,37.4282774,-122.0725495,,3.2795556,0.1,254.2005,1596490441429
Fix,GT,37.4282755,-122.0725864,,3.4158583,0.1,265.32794,1596490442429
Fix,GT,37.4282864,-122.0726292,,4.5774775,0.1,284.91098,1596490443429
Fix,GT,37.4283101,-122.0726836,,6.3530245,0.1,297.59766,1596490444429
Fix,GT,37.4283398,-122.0727567,,8.1152,0.1,296.02838,1596490445429
Fix,GT,37.428366,-122.0728504,,9.346653,0.1,286.64682,1596490446429
Fix,GT,37.4283764,-122.0729559,,9.598205,0.1,273.4852,1596490447429
Fix,GT,37.4283732,-122.0730619,,9.39823,0.1,266.96902,1596490448429
Fix,GT,37.428369,-122.0731704,,9.961767,0.1,267.7677,1596490449429
Fix,GT,37.4283665,-122.0732896,,11.171148,0.1,269.20813,1596490450429
Fix,GT,37.4283667,-122.0734222,,12.233339,0.1,270.98743,1596490451429
Fix,GT,37.4283693,-122.0735656,,13.124485,0.1,271.3791,1596490452429
Fix,GT,37.4283712,-122.0737186,,13.982576,0.1,270.93872,1596490453429
Fix,GT,37.4283728,-122.0738809,,14.716038,0.1,270.91675,1596490454429
Fix,GT,37.4283743,-122.0740505,,15.276716,0.1,270.79807,1596490455429
Fix,GT,37.428375,-122.0742255,,15.660099,0.1,270.29263,1596490456429
Fix,GT,37.4283751,-122.0744038,,15.856733,0.1,270.25494,1596490457429
Fix,GT,37.4283756,-122.0745835,,15.965089,0.1,270.48703,1596490458429
Fix,GT,37.4283764,-122.0747646,,16.111464,0.1,270.50543,1596490459429
Fix,GT,37.4283768,-122.0749476,,16.302057,0.1,270.2599,1596490460429
Fix,GT,37.4283766,-122.0751329,,16.52557,0.1,269.99185,1596490461429
Fix,GT,37.4283759,-122.0753205,,16.67788,0.1,269.97235,1596490462429
Fix,GT,37.4283756,-122.075509,,16.648329,0.1,270.17798,1596490463429
Fix,GT,37.4283759,-122.0756964,,16.490204,0.1,270.47028,1596490464429
Fix,GT,37.4283766,-122.0758803,,16.041798,0.1,270.42322,1596490465429
Fix,GT,37.4283765,-122.076058,,15.459337,0.1,269.99893,1596490466429
Fix,GT,37.4283742,-122.0762307,,15.119722,0.1,268.53882,1596490467429
Fix,GT,37.4283659,-122.0763989,,14.790886,0.1,265.0801,1596490468429
Fix,GT,37.428348,-122.0765627,,14.579245,0.1,260.78052,1596490469429
Fix,GT,37.4283208,-122.0767235,,14.571664,0.1,256.54688,1596490470429
Fix,GT,37.4282848,-122.0768815,,14.559881,0.1,252.88745,1596490471429
Fix,GT,37.4282432,-122.0770367,,14.404598,0.1,251.15244,1596490472429
Fix,GT,37.4282029,-122.0771898,,14.116983,0.1,252.74509,1596490473429
Fix,GT,37.4281692,-122.0773411,,13.598336,0.1,255.81343,1596490474429
Fix,GT,37.428144,-122.0774854,,12.389945,0.1,259.39874,1596490475429
Fix,GT,37.4281289,-122.0776147,,10.697536,0.1,263.42242,1596490476429
Fix,GT,37.4281221,-122.0777249,,8.806354,0.1,266.8672,1596490477429
Fix,GT,37.4281201,-122.0778125,,6.71902,0.1,269.2184,1596490478429
Fix,GT,37.42812,-122.0778778,,4.8810844,0.1,270.2956,1596490479429
Fix,GT,37.4281203,-122.0779229,,3.1138089,0.1,270.50018,1596490480429
Fix,GT,37.4281204,-122.0779486,,1.5397816,0.1,270.39587,1596490481429
Fix,GT,37.4281204,-122.0779603,,0.62283885,0.1,270.31726,1596490482429
Fix,GT,37.4281204,-122.0779641,,0.17274319,0.1,270.25854,1596490483429
Fix,GT,37.4281205,-122.0779647,,0.0068111913,0.1,270.24512,1596490484429
Fix,GT,37.4281205,-122.0779648,,0.0015700257,0.1,270.2442,1596490485429
Fix,GT,37.4281205,-122.0779648,,0.0027198973,0.1,270.24323,1596490486429
Fix,GT,37.4281205,-122.0779647,,0.0064985817,0.1,270.24353,1596490487429
Fix,GT,37.4281204,-122.0779647,,0.011286443,0.1,270.2438,1596490488429
Fix,GT,37.4281204,-122.0779647,,0.018212857,0.1,270.24387,1596490489429
Fix,GT,37.4281203,-122.0779646,,0.025716128,0.1,270.24365,1596490490429
Fix,GT,37.4281203,-122.0779644,,0.03423383,0.1,270.24353,1596490491429
Fix,GT,37.4281201,-122.0779642,,0.044629745,0.1,270.2437,1596490492429
Fix,GT,37.4281199,-122.0779648,,0.29795685,0.1,270.2042,1596490493429
Fix,GT,37.4281195,-122.0779726,,1.3112619,0.1,269.7283,1596490494429
Fix,GT,37.4281174,-122.0779962,,2.8933132,0.1,266.69376,1596490495429
Fix,GT,37.4281094,-122.078036,,4.381304,0.1,257.88123,1596490496429
Fix,GT,37.4280883,-122.0780853,,5.6268682,0.1,242.10242,1596490497429
Fix,GT,37.4280491,-122.0781327,,6.6822214,0.1,222.83496,1596490498429
Fix,GT,37.4279925,-122.0781683,,7.6922274,0.1,204.50317,1596490499429
Fix,GT,37.4279211,-122.0781881,,8.804266,0.1,190.65997,1596490500429
Fix,GT,37.4278366,-122.0781957,,10.115918,0.1,183.49121,1596490501429
Fix,GT,37.4277396,-122.0781956,,11.43112,0.1,179.86707,1596490502429
Fix,GT,37.4276309,-122.078191,,12.68281,0.1,178.08063,1596490503429
Fix,GT,37.427512,-122.0781813,,13.726325,0.1,176.08124,1596490504429
Fix,GT,37.4273852,-122.0781663,,14.540537,0.1,174.56091,1596490505429
Fix,GT,37.427252,-122.0781477,,15.218965,0.1,173.76526,1596490506429
Fix,GT,37.427113,-122.0781273,,15.8574505,0.1,173.73322,1596490507429
Fix,GT,37.4269683,-122.0781087,,16.404182,0.1,174.92926,1596490508429
Fix,GT,37.4268189,-122.0780952,,16.820168,0.1,176.6701,1596490509429
Fix,GT,37.426666,-122.0780859,,17.128445,0.1,177.9065,1596490510429
Fix,GT,37.4265105,-122.0780799,,17.390356,0.1,178.8205,1596490511429
Fix,GT,37.4263529,-122.0780772,,17.570042,0.1,179.95105,1596490512429
Fix,GT,37.4261947,-122.0780791,,17.531796,0.1,181.39989,1596490513429
Fix,GT,37.4260376,-122.0780859,,17.346222,0.1,182.6951,1596490514429
Fix,GT,37.4258822,-122.0780962,,17.19376,0.1,183.68344,1596490515429
Fix,GT,37.4257283,-122.0781091,,17.049797,0.1,184.2345,1596490516429
Fix,GT,37.4255765,-122.0781222,,16.609566,0.1,183.92941,1596490517429
Fix,GT,37.4254317,-122.0781329,,15.415061,0.1,183.15959,1596490518429
Fix,GT,37.4253016,-122.0781403,,13.451832,0.1,182.5432,1596490519429
Fix,GT,37.4251908,-122.0781452,,11.119303,0.1,182.05043,1596490520429
Fix,GT,37.4251013,-122.0781485,,8.7629795,0.1,181.70447,1596490521429
Fix,GT,37.4250329,-122.0781504,,6.4260983,0.1,181.31448,1596490522429
Fix,GT,37.4249849,-122.0781509,,4.2912035,0.1,180.68161,1596490523429
Fix,GT,37.4249546,-122.0781509,,2.5611467,0.1,180.19371,1596490524429
Fix,GT,37.4249377,-122.0781508,,1.2780074,0.1,180.06062,1596490525429
Fix,GT,37.4249301,-122.0781507,,0.58470464,0.1,179.80792,1596490526429
Fix,GT,37.424925,-122.0781505,,0.7965626,0.1,179.53162,1596490527429
Fix,GT,37.4249122,-122.0781501,,2.1586452,0.1,179.17175,1596490528429
Fix,GT,37.4248836,-122.078149,,4.208639,0.1,178.73035,1596490529429
Fix,GT,37.424836,-122.078147,,6.3520594,0.1,178.30908,1596490530429
Fix,GT,37.4247688,-122.0781438,,8.57485,0.1,178.07214,1596490531429
Fix,GT,37.4246833,-122.0781396,,10.357231,0.1,177.97797,1596490532429
Fix,GT,37.4245838,-122.0781344,,11.7228565,0.1,177.73328,1596490533429
Fix,GT,37.4244726,-122.0781276,,12.899199,0.1,177.14294,1596490534429
Fix,GT,37.4243525,-122.0781187,,13.626633,0.1,176.58624,1596490535429
Fix,GT,37.4242294,-122.0781087,,13.650906,0.1,176.34595,1596490536429
Fix,GT,37.4241084,-122.0780983,,13.255375,0.1,176.12762,1596490537429
Fix,GT,37.423992,-122.0780885,,12.618087,0.1,176.44159,1596490538429
Fix,GT,37.4238823,-122.0780811,,11.709194,0.1,177.22711,1596490539429
Fix,GT,37.4237825,-122.0780756,,10.377697,0.1,177.53088,1596490540429
Fix,GT,37.4236959,-122.0780712,,8.874723,0.1,177.5028,1596490541429
Fix,GT,37.4236228,-122.0780681,,7.396044,0.1,178.20166,1596490542429
Fix,GT,37.4235636,-122.0780691,,5.802819,0.1,181.81085,1596490543429
Fix,GT,37.4235166,-122.0780793,,4.9558754,0.1,191.29977,1596490544429
Fix,GT,37.4234748,-122.0781072,,5.595015,0.1,209.08266,1596490545429
Fix,GT,37.4234395,-122.0781628,,6.986145,0.1,233.55757,1596490546429
Fix,GT,37.4234179,-122.0782446,,8.400908,0.1,254.50082,1596490547429
Fix,GT,37.4234083,-122.0783469,,9.861738,0.1,264.52942,1596490548429
Fix,GT,37.423403,-122.0784668,,11.376051,0.1,267.2462,1596490549429
Fix,GT,37.4233974,-122.0786034,,12.815111,0.1,267.09253,1596490550429
Fix,GT,37.4233907,-122.0787546,,13.943043,0.1,266.91006,1596490551429
Fix,GT,37.4233833,-122.0789167,,14.828635,0.1,266.8726,1596490552429
Fix,GT,37.4233759,-122.0790887,,15.700348,0.1,267.04315,1596490553429
Fix,GT,37.4233685,-122.0792705,,16.523727,0.1,267.26355,1596490554429
Fix,GT,37.4233603,-122.0794607,,17.213314,0.1,266.9124,1596490555429
Fix,GT,37.42335,-122.0796582,,17.830189,0.1,266.18005,1596490556429
Fix,GT,37.4233374,-122.0798615,,18.260063,0.1,265.4198,1596490557429
Fix,GT,37.4233225,-122.0800683,,18.508425,0.1,264.7537,1596490558429
Fix,GT,37.4233054,-122.0802781,,18.836243,0.1,264.10977,1596490559429
Fix,GT,37.4232863,-122.0804919,,19.26939,0.1,263.67722,1596490560429
Fix,GT,37.4232666,-122.080711,,19.750366,0.1,263.78915,1596490561429
Fix,GT,37.4232472,-122.0809349,,20.111362,0.1,264.04755,1596490562429
Fix,GT,37.4232276,-122.081162,,20.3428,0.1,264.0302,1596490563429
Fix,GT,37.4232071,-122.0813915,,20.564444,0.1,263.68176,1596490564429
Fix,GT,37.4231853,-122.0816233,,20.720924,0.1,263.3791,1596490565429
Fix,GT,37.4231635,-122.0818554,,20.621977,0.1,263.61328,1596490566429
Fix,GT,37.423143,-122.0820865,,20.52417,0.1,264.0368,1596490567429
Fix,GT,37.4231244,-122.082317,,20.525574,0.1,264.81052,1596490568429
Fix,GT,37.423109,-122.0825485,,20.613932,0.1,265.9889,1596490569429
Fix,GT,37.4230976,-122.0827825,,20.89244,0.1,267.30136,1596490570429
Fix,GT,37.4230907,-122.0830196,,21.087944,0.1,268.6724,1596490571429
Fix,GT,37.4230877,-122.0832587,,21.219645,0.1,269.83167,1596490572429
Fix,GT,37.4230888,-122.0834991,,21.321087,0.1,271.0517,1596490573429
Fix,GT,37.4230944,-122.0837402,,21.37416,0.1,272.47028,1596490574429
Fix,GT,37.423105,-122.0839816,,21.400043,0.1,274.0307,1596490575429
Fix,GT,37.4231208,-122.0842226,,21.404085,0.1,275.4745,1596490576429
Fix,GT,37.4231409,-122.0844632,,21.368908,0.1,276.81323,1596490577429
Fix,GT,37.4231658,-122.0847019,,21.246094,0.1,278.23618,1596490578429
Fix,GT,37.4231949,-122.0849382,,21.065622,0.1,279.57477,1596490579429
Fix,GT,37.4232279,-122.0851714,,20.858295,0.1,280.79764,1596490580429
Fix,GT,37.4232643,-122.0854011,,20.583977,0.1,281.89423,1596490581429
Fix,GT,37.4233031,-122.085626,,20.135004,0.1,282.78958,1596490582429
Fix,GT,37.423343,-122.0858448,,19.648226,0.1,283.27188,1596490583429
Fix,GT,37.4233833,-122.0860596,,19.498661,0.1,283.4472,1596490584429
Fix,GT,37.4234241,-122.0862749,,19.7076,0.1,283.63287,1596490585429
Fix,GT,37.4234661,-122.0864925,,19.93624,0.1,283.88962,1596490586429
Fix,GT,37.423509,-122.0867126,,20.16819,0.1,283.95044,1596490587429
Fix,GT,37.4235522,-122.0869354,,20.430943,0.1,283.80286,1596490588429
Fix,GT,37.423596,-122.087161,,20.676971,0.1,284.01215,1596490589429
Fix,GT,37.4236415,-122.0873889,,20.913277,0.1,284.32733,1596490590429
Fix,GT,37.4236874,-122.0876196,,21.141932,0.1,283.96652,1596490591429
Fix,GT,37.4237323,-122.0878527,,21.320412,0.1,283.36658,1596490592429
Fix,GT,37.4237756,-122.0880877,,21.357283,0.1,283.16748,1596490593429
Fix,GT,37.4238184,-122.0883222,,21.18153,0.1,283.05936,1596490594429
Fix,GT,37.4238603,-122.088554,,20.866821,0.1,282.9617,1596490595429
Fix,GT,37.4238995,-122.0887815,,20.282139,0.1,281.69373,1596490596429
Fix,GT,37.4239307,-122.0890007,,19.059772,0.1,278.7158,1596490597429
Fix,GT,37.4239489,-122.0892046,,17.25427,0.1,274.5656,1596490598429
Fix,GT,37.4239535,-122.0893869,,15.043937,0.1,269.99222,1596490599429
Fix,GT,37.4239477,-122.0895421,,12.490494,0.1,265.60815,1596490600429
Fix,GT,37.4239343,-122.0896672,,9.918565,0.1,260.35577,1596490601429
Fix,GT,37.4239165,-122.0897619,,7.368517,0.1,255.45425,1596490602429
Fix,GT,37.4239006,-122.0898275,,4.8434067,0.1,252.9639,1596490603429
Fix,GT,37.4238897,-122.0898675,,2.7702308,0.1,251.74966,1596490604429
Fix,GT,37.4238835,-122.0898894,,1.4386543,0.1,251.23491,1596490605429
Fix,GT,37.4238805,-122.0898994,,0.5315656,0.1,251.00357,1596490606429
Fix,GT,37.4238796,-122.0899022,,0.057963487,0.1,250.93613,1596490607429
Fix,GT,37.4238794,-122.0899025,,0.04084911,0.1,250.92664,1596490608429
Fix,GT,37.4238792,-122.0899029,,0.042125665,0.1,250.91321,1596490609429
Fix,GT,37.423879,-122.0899032,,0.03711385,0.1,250.90042,1596490610429
Fix,GT,37.4238787,-122.089904,,0.19167367,0.1,250.87561,1596490611429
Fix,GT,37.4238771,-122.08991,,1.1476749,0.1,250.84311,1596490612429
Fix,GT,37.4238709,-122.0899321,,3.1448812,0.1,250.83264,1596490613429
Fix,GT,37.423858,-122.0899771,,5.3389397,0.1,250.56557,1596490614429
Fix,GT,37.4238382,-122.0900443,,7.376399,0.1,249.97827,1596490615429
Fix,GT,37.4238115,-122.0901331,,9.321064,0.1,249.47714,1596490616429
Fix,GT,37.4237785,-122.0902404,,10.979107,0.1,248.97873,1596490617429
Fix,GT,37.4237397,-122.0903636,,12.442936,0.1,248.44482,1596490618429
Fix,GT,37.4236951,-122.0905,,13.61916,0.1,247.5047,1596490619429
Fix,GT,37.4236435,-122.0906452,,14.495763,0.1,245.12032,1596490620429
Fix,GT,37.4235817,-122.0907932,,15.099998,0.1,240.61066,1596490621429
Fix,GT,37.4235074,-122.0909387,,15.538265,0.1,235.60883,1596490622429
Fix,GT,37.4234221,-122.0910795,,15.790928,0.1,231.27045,1596490623429
Fix,GT,37.4233276,-122.0912128,,15.820014,0.1,226.4353,1596490624429
Fix,GT,37.4232248,-122.0913353,,15.667456,0.1,221.74588,1596490625429
Fix,GT,37.4231175,-122.0914462,,15.209877,0.1,218.28937,1596490626429
Fix,GT,37.4230114,-122.0915495,,14.6130295,0.1,218.76886,1596490627429
Fix,GT,37.4229141,-122.0916566,,14.189518,0.1,224.06502,1596490628429
Fix,GT,37.4228302,-122.0917762,,14.134138,0.1,232.1008,1596490629429
Fix,GT,37.4227601,-122.0919123,,14.674459,0.1,240.2297,1596490630429
Fix,GT,37.4226991,-122.0920655,,15.63743,0.1,245.12967,1596490631429
Fix,GT,37.4226393,-122.0922317,,16.5769,0.1,245.95883,1596490632429
Fix,GT,37.4225767,-122.0924064,,17.235142,0.1,245.9546,1596490633429
Fix,GT,37.4225126,-122.0925861,,17.522318,0.1,246.1681,1596490634429
Fix,GT,37.42245,-122.0927676,,17.420227,0.1,247.26743,1596490635429
Fix,GT,37.4223921,-122.0929499,,17.28165,0.1,249.32281,1596490636429
Fix,GT,37.4223417,-122.0931342,,17.117666,0.1,253.11646,1596490637429
Fix,GT,37.4223072,-122.0933209,,16.838081,0.1,260.55542,1596490638429
Fix,GT,37.4222975,-122.0935098,,16.782251,0.1,270.9276,1596490639429
Fix,GT,37.4223179,-122.0936982,,17.098938,0.1,283.13004,1596490640429
Fix,GT,37.4223715,-122.0938814,,17.676334,0.1,295.28247,1596490641429
Fix,GT,37.4224543,-122.0940577,,18.729225,0.1,304.04382,1596490642429
Fix,GT,37.4225588,-122.094234,,20.243187,0.1,308.41577,1596490643429
Fix,GT,37.422679,-122.0944183,,21.901653,0.1,309.8681,1596490644429
Fix,GT,37.4228109,-122.0946149,,23.560062,0.1,310.55417,1596490645429
Fix,GT,37.4229531,-122.0948232,,24.925713,0.1,311.02087,1596490646429
Fix,GT,37.4231034,-122.0950387,,25.628536,0.1,311.6419,1596490647429
Fix,GT,37.4232576,-122.0952556,,25.734798,0.1,311.9739,1596490648429
Fix,GT,37.4234124,-122.0954727,,25.920055,0.1,311.8657,1596490649429
Fix,GT,37.423569,-122.0956935,,26.375305,0.1,311.73688,1596490650429
Fix,GT,37.4237276,-122.0959175,,26.63092,0.1,311.82312,1596490651429
Fix,GT,37.4238882,-122.0961413,,26.625473,0.1,312.44275,1596490652429
Fix,GT,37.4240504,-122.0963616,,26.43312,0.1,313.23657,1596490653429
Fix,GT,37.4242133,-122.0965793,,26.512558,0.1,313.4132,1596490654429
Fix,GT,37.4243784,-122.0967992,,27.010353,0.1,313.47125,1596490655429
Fix,GT,37.4245478,-122.0970221,,27.480053,0.1,314.08966,1596490656429
Fix,GT,37.4247219,-122.0972451,,27.763624,0.1,314.83716,1596490657429
Fix,GT,37.424899,-122.0974682,,27.986866,0.1,315.10895,1596490658429
Fix,GT,37.4250781,-122.0976919,,28.10173,0.1,315.518,1596490659429
Fix,GT,37.4252593,-122.0979145,,28.234604,0.1,316.04056,1596490660429
Fix,GT,37.4254431,-122.0981354,,28.31974,0.1,316.62054,1596490661429
Fix,GT,37.4256299,-122.0983543,,28.414162,0.1,317.46082,1596490662429
Fix,GT,37.4258198,-122.0985694,,28.367935,0.1,318.72562,1596490663429
Fix,GT,37.4260125,-122.098779,,28.26064,0.1,319.67346,1596490664429
Fix,GT,37.4262066,-122.0989843,,28.076088,0.1,320.3031,1596490665429
Fix,GT,37.4264004,-122.0991857,,27.797493,0.1,320.67847,1596490666429
Fix,GT,37.4265932,-122.099384,,27.53245,0.1,320.89514,1596490667429
Fix,GT,37.4267845,-122.0995796,,27.265526,0.1,321.05136,1596490668429
Fix,GT,37.4269733,-122.0997741,,26.963547,0.1,320.50552,1596490669429
Fix,GT,37.4271585,-122.0999691,,26.705082,0.1,319.83435,1596490670429
Fix,GT,37.4273409,-122.1001636,,26.449545,0.1,319.82462,1596490671429
Fix,GT,37.4275219,-122.1003557,,26.236958,0.1,319.88354,1596490672429
Fix,GT,37.4277024,-122.1005479,,26.432625,0.1,319.70563,1596490673429
Fix,GT,37.4278847,-122.1007438,,26.888361,0.1,319.4944,1596490674429
Fix,GT,37.4280697,-122.1009429,,27.210724,0.1,319.61304,1596490675429
Fix,GT,37.4282571,-122.1011427,,27.346691,0.1,320.06134,1596490676429
Fix,GT,37.4284459,-122.1013411,,27.281132,0.1,320.32648,1596490677429
Fix,GT,37.4286342,-122.1015381,,27.19429,0.1,320.34387,1596490678429
Fix,GT,37.4288222,-122.1017351,,27.208515,0.1,320.311,1596490679429
Fix,GT,37.4290107,-122.1019325,,27.315107,0.1,320.29324,1596490680429
Fix,GT,37.4292001,-122.102131,,27.507042,0.1,320.26852,1596490681429
Fix,GT,37.4293904,-122.1023306,,27.53677,0.1,320.30768,1596490682429
Fix,GT,37.4295803,-122.1025291,,27.30037,0.1,320.39087,1596490683429
Fix,GT,37.4297684,-122.1027256,,27.058447,0.1,320.35922,1596490684429
Fix,GT,37.4299551,-122.1029207,,26.918844,0.1,320.3603,1596490685429
Fix,GT,37.4301411,-122.1031151,,26.823412,0.1,320.34064,1596490686429
Fix,GT,37.4303262,-122.1033091,,26.714382,0.1,320.17667,1596490687429
Fix,GT,37.4305099,-122.103503,,26.573095,0.1,320.05832,1596490688429
Fix,GT,37.4306926,-122.1036961,,26.468487,0.1,320.0673,1596490689429
Fix,GT,37.4308752,-122.1038886,,26.488209,0.1,320.13495,1596490690429
Fix,GT,37.4310583,-122.1040811,,26.557009,0.1,320.23584,1596490691429
Fix,GT,37.4312415,-122.1042738,,26.513065,0.1,320.1483,1596490692429
Fix,GT,37.4314235,-122.104466,,26.283613,0.1,320.00812,1596490693429
Fix,GT,37.4316039,-122.1046567,,26.103298,0.1,320.04803,1596490694429
Fix,GT,37.4317838,-122.1048466,,26.0988,0.1,320.0861,1596490695429
Fix,GT,37.4319641,-122.1050369,,26.215311,0.1,320.11862,1596490696429
Fix,GT,37.4321457,-122.105228,,26.416496,0.1,320.16193,1596490697429
Fix,GT,37.4323289,-122.1054204,,26.655365,0.1,320.30237,1596490698429
Fix,GT,37.4325143,-122.1056143,,26.935524,0.1,320.3238,1596490699429
Fix,GT,37.4327017,-122.1058105,,27.247131,0.1,320.29172,1596490700429
Fix,GT,37.432891,-122.1060088,,27.471823,0.1,320.26984,1596490701429
Fix,GT,37.433081,-122.1062081,,27.459404,0.1,320.25192,1596490702429
Fix,GT,37.4332701,-122.1064064,,27.277819,0.1,320.20782,1596490703429
Fix,GT,37.4334578,-122.1066044,,27.218613,0.1,320.0248,1596490704429
Fix,GT,37.4336452,-122.1068035,,27.30275,0.1,319.81525,1596490705429
Fix,GT,37.4338329,-122.1070033,,27.357357,0.1,319.87973,1596490706429
Fix,GT,37.4340214,-122.1072027,,27.348473,0.1,320.18405,1596490707429
Fix,GT,37.4342104,-122.1074008,,27.33184,0.1,320.2909,1596490708429
Fix,GT,37.4343995,-122.1075986,,27.307962,0.1,320.3706,1596490709429
Fix,GT,37.4345888,-122.1077957,,27.311491,0.1,320.52686,1596490710429
Fix,GT,37.4347784,-122.1079921,,27.280653,0.1,320.64157,1596490711429
Fix,GT,37.4349678,-122.108188,,27.215294,0.1,320.5858,1596490712429
Fix,GT,37.4351563,-122.1083841,,27.172604,0.1,320.42688,1596490713429
Fix,GT,37.4353443,-122.1085806,,27.180016,0.1,320.2963,1596490714429
Fix,GT,37.4355326,-122.1087776,,27.236961,0.1,320.3431,1596490715429
Fix,GT,37.4357213,-122.1089749,,27.297913,0.1,320.39072,1596490716429
Fix,GT,37.4359105,-122.1091726,,27.357735,0.1,320.2485,1596490717429
Fix,GT,37.4360995,-122.1093713,,27.400368,0.1,320.1488,1596490718429
Fix,GT,37.4362886,-122.1095705,,27.3902,0.1,320.13397,1596490719429
Fix,GT,37.4364772,-122.1097691,,27.263857,0.1,320.15637,1596490720429
Fix,GT,37.4366649,-122.1099665,,27.123363,0.1,320.24158,1596490721429
Fix,GT,37.4368524,-122.1101628,,27.097754,0.1,320.36484,1596490722429
Fix,GT,37.43704,-122.1103587,,27.092014,0.1,320.32443,1596490723429
Fix,GT,37.4372271,-122.1105554,,27.113533,0.1,320.04388,1596490724429
Fix,GT,37.4374138,-122.1107534,,27.144558,0.1,319.86896,1596490725429
Fix,GT,37.4376005,-122.1109515,,27.158476,0.1,319.99088,1596490726429
Fix,GT,37.437788,-122.111149,,27.204355,0.1,320.25922,1596490727429
Fix,GT,37.4379768,-122.1113461,,27.320875,0.1,320.51633,1596490728429
Fix,GT,37.438167,-122.1115434,,27.46764,0.1,320.6293,1596490729429
Fix,GT,37.4383581,-122.1117415,,27.586868,0.1,320.48578,1596490730429
Fix,GT,37.4385494,-122.1119413,,27.662592,0.1,320.16638,1596490731429
Fix,GT,37.4387401,-122.1121432,,27.716045,0.1,319.8573,1596490732429
Fix,GT,37.438931,-122.112346,,27.856152,0.1,319.91354,1596490733429
Fix,GT,37.4391237,-122.1125496,,28.111172,0.1,320.14636,1596490734429
Fix,GT,37.4393188,-122.1127547,,28.373646,0.1,320.2119,1596490735429
Fix,GT,37.4395156,-122.1129615,,28.602535,0.1,320.17117,1596490736429
Fix,GT,37.4397137,-122.1131698,,28.755127,0.1,320.24597,1596490737429
Fix,GT,37.439913,-122.1133785,,28.890308,0.1,320.34708,1596490738429
Fix,GT,37.4401138,-122.1135886,,29.220306,0.1,320.27597,1596490739429
Fix,GT,37.4403172,-122.1138019,,29.628624,0.1,320.23132,1596490740429
Fix,GT,37.4405232,-122.1140179,,29.953226,0.1,320.28003,1596490741429
Fix,GT,37.4407314,-122.1142357,,30.207699,0.1,320.36627,1596490742429
Fix,GT,37.4409412,-122.114455,,30.39569,0.1,320.36145,1596490743429
Fix,GT,37.4411517,-122.1146761,,30.58579,0.1,320.0481,1596490744429
Fix,GT,37.4413624,-122.1149007,,30.795456,0.1,319.48096,1596490745429
Fix,GT,37.4415724,-122.1151293,,30.902966,0.1,318.8755,1596490746429
Fix,GT,37.4417808,-122.1153607,,30.888115,0.1,318.5055,1596490747429
Fix,GT,37.4419885,-122.1155923,,30.795021,0.1,318.68167,1596490748429
Fix,GT,37.4421972,-122.1158213,,30.772858,0.1,319.25153,1596490749429
Fix,GT,37.4424082,-122.1160482,,30.953701,0.1,319.76917,1596490750429
Fix,GT,37.4426216,-122.1162752,,31.167686,0.1,319.95435,1596490751429
Fix,GT,37.4428367,-122.1165027,,31.27658,0.1,320.11676,1596490752429
Fix,GT,37.4430527,-122.1167304,,31.34001,0.1,320.0987,1596490753429
Fix,GT,37.4432691,-122.1169583,,31.384945,0.1,320.1916,1596490754429
Fix,GT,37.4434864,-122.117186,,31.474806,0.1,320.34775,1596490755429
Fix,GT,37.4437045,-122.117414,,31.533936,0.1,320.30273,1596490756429
Fix,GT,37.4439227,-122.1176425,,31.56448,0.1,320.30493,1596490757429
Fix,GT,37.4441413,-122.1178709,,31.625647,0.1,320.49466,1596490758429
Fix,GT,37.4443613,-122.118099,,31.717697,0.1,320.5924,1596490759429
Fix,GT,37.4445817,-122.1183276,,31.781849,0.1,320.42343,1596490760429
Fix,GT,37.4448019,-122.1185576,,31.823544,0.1,320.22513,1596490761429
Fix,GT,37.4450216,-122.1187889,,31.868969,0.1,320.0707,1596490762429
Fix,GT,37.4452415,-122.1190206,,31.867867,0.1,320.13104,1596490763429
Fix,GT,37.4454615,-122.1192517,,31.8149,0.1,320.1993,1596490764429
Fix,GT,37.4456808,-122.1194823,,31.728699,0.1,320.116,1596490765429
Fix,GT,37.4458995,-122.1197131,,31.710613,0.1,320.0053,1596490766429
Fix,GT,37.4461183,-122.1199441,,31.77454,0.1,320.1662,1596490767429
Fix,GT,37.4463381,-122.1201748,,31.84517,0.1,320.31854,1596490768429
Fix,GT,37.446559,-122.1204053,,31.952171,0.1,320.43134,1596490769429
Fix,GT,37.4467808,-122.1206364,,32.0486,0.1,320.40103,1596490770429
Fix,GT,37.4470031,-122.1208683,,32.154354,0.1,320.30893,1596490771429
Fix,GT,37.4472259,-122.1211017,,32.284706,0.1,320.15936,1596490772429
Fix,GT,37.4474491,-122.1213371,,32.52572,0.1,320.10953,1596490773429
Fix,GT,37.447675,-122.1215745,,32.90124,0.1,320.26096,1596490774429
Fix,GT,37.4479041,-122.1218145,,33.32324,0.1,320.3192,1596490775429
Fix,GT,37.448136,-122.1220572,,33.728783,0.1,320.28473,1596490776429
Fix,GT,37.4483704,-122.1223033,,34.12187,0.1,320.21146,1596490777429
Fix,GT,37.4486072,-122.1225525,,34.485184,0.1,320.2387,1596490778429
Fix,GT,37.4488468,-122.1228038,,34.85157,0.1,320.34854,1596490779429
Fix,GT,37.4490894,-122.1230574,,35.233765,0.1,320.2846,1596490780429
Fix,GT,37.4493337,-122.1233147,,35.560673,0.1,320.02026,1596490781429
Fix,GT,37.4495789,-122.1235756,,35.8242,0.1,319.6358,1596490782429
Fix,GT,37.4498242,-122.1238408,,36.047493,0.1,319.09702,1596490783429
Fix,GT,37.4500683,-122.1241107,,36.150986,0.1,318.45294,1596490784429
Fix,GT,37.4503109,-122.124383,,36.154705,0.1,318.3239,1596490785429
Fix,GT,37.4505538,-122.1246556,,36.220222,0.1,318.3579,1596490786429
Fix,GT,37.450797,-122.1249297,,36.36789,0.1,317.91974,1596490787429
Fix,GT,37.4510386,-122.1252084,,36.518196,0.1,316.93646,1596490788429
Fix,GT,37.4512764,-122.125495,,36.706905,0.1,315.354,1596490789429
Fix,GT,37.4515082,-122.1257923,,36.88683,0.1,313.3827,1596490790429
Fix,GT,37.4517323,-122.1261006,,36.969254,0.1,311.4978,1596490791429
Fix,GT,37.4519492,-122.1264179,,37.01615,0.1,310.019,1596490792429
Fix,GT,37.4521605,-122.1267417,,37.03749,0.1,308.77502,1596490793429
Fix,GT,37.4523669,-122.1270705,,37.03201,0.1,307.7552,1596490794429
Fix,GT,37.4525692,-122.1274031,,37.017216,0.1,307.06082,1596490795429
Fix,GT,37.4527683,-122.1277385,,36.990772,0.1,306.4777,1596490796429
Fix,GT,37.4529654,-122.1280754,,36.923767,0.1,306.38852,1596490797429
Fix,GT,37.4531623,-122.1284113,,36.859493,0.1,306.53143,1596490798429
Fix,GT,37.4533595,-122.1287466,,36.881588,0.1,306.51434,1596490799429
Fix,GT,37.4535564,-122.1290824,,36.87941,0.1,306.45404,1596490800429
Fix,GT,37.453753,-122.1294178,,36.79509,0.1,306.4717,1596490801429
Fix,GT,37.4539492,-122.1297526,,36.72399,0.1,306.41125,1596490802429
Fix,GT,37.4541449,-122.130087,,36.712334,0.1,306.36685,1596490803429
Fix,GT,37.4543405,-122.1304216,,36.703793,0.1,306.40155,1596490804429
Fix,GT,37.454536,-122.1307555,,36.607845,0.1,306.5144,1596490805429
Fix,GT,37.4547309,-122.1310883,,36.468487,0.1,306.3982,1596490806429
Fix,GT,37.4549243,-122.1314207,,36.3667,0.1,306.11905,1596490807429
Fix,GT,37.4551167,-122.1317526,,36.24783,0.1,306.21768,1596490808429
Fix,GT,37.4553091,-122.1320826,,36.084015,0.1,306.41833,1596490809429
Fix,GT,37.4555011,-122.1324105,,35.937614,0.1,306.47308,1596490810429
Fix,GT,37.4556928,-122.1327372,,35.855232,0.1,306.52432,1596490811429
Fix,GT,37.4558846,-122.1330632,,35.833523,0.1,306.6565,1596490812429
Fix,GT,37.4560767,-122.1333884,,35.790215,0.1,306.73715,1596490813429
Fix,GT,37.4562687,-122.1337131,,35.741394,0.1,306.6563,1596490814429
Fix,GT,37.4564604,-122.1340378,,35.747673,0.1,306.69214,1596490815429
Fix,GT,37.4566522,-122.1343623,,35.731167,0.1,306.71347,1596490816429
Fix,GT,37.4568435,-122.1346866,,35.677307,0.1,306.54248,1596490817429
Fix,GT,37.4570341,-122.1350112,,35.674828,0.1,306.5568,1596490818429
Fix,GT,37.4572252,-122.1353359,,35.726795,0.1,306.674,1596490819429
Fix,GT,37.457417,-122.1356609,,35.825386,0.1,306.6956,1596490820429
Fix,GT,37.4576095,-122.1359867,,35.958908,0.1,306.70724,1596490821429
Fix,GT,37.4578028,-122.1363141,,36.11441,0.1,306.657,1596490822429
Fix,GT,37.4579966,-122.1366428,,36.232677,0.1,306.6153,1596490823429
Fix,GT,37.4581907,-122.1369725,,36.282368,0.1,306.56238,1596490824429
Fix,GT,37.4583846,-122.1373026,,36.268246,0.1,306.51678,1596490825429
Fix,GT,37.4585783,-122.1376325,,36.240723,0.1,306.57904,1596490826429
Fix,GT,37.4587723,-122.1379621,,36.245796,0.1,306.67395,1596490827429
Fix,GT,37.4589668,-122.1382914,,36.278564,0.1,306.75647,1596490828429
Fix,GT,37.4591617,-122.1386208,,36.29594,0.1,306.76132,1596490829429
Fix,GT,37.4593563,-122.1389503,,36.243603,0.1,306.65344,1596490830429
Fix,GT,37.4595501,-122.1392794,,36.160698,0.1,306.62927,1596490831429
Fix,GT,37.4597438,-122.1396076,,36.09733,0.1,306.733,1596490832429
Fix,GT,37.4599375,-122.1399351,,36.065918,0.1,306.7071,1596490833429
Fix,GT,37.4601306,-122.1402629,,36.10087,0.1,306.55142,1596490834429
Fix,GT,37.4603236,-122.140592,,36.177128,0.1,306.40915,1596490835429
Fix,GT,37.4605165,-122.1409221,,36.24441,0.1,306.37286,1596490836429
Fix,GT,37.4607094,-122.1412525,,36.170982,0.1,306.4363,1596490837429
Fix,GT,37.4609016,-122.1415807,,35.848946,0.1,306.49118,1596490838429
Fix,GT,37.461092,-122.1419054,,35.513565,0.1,306.53098,1596490839429
Fix,GT,37.4612816,-122.1422281,,35.470055,0.1,306.56238,1596490840429
Fix,GT,37.4614714,-122.1425519,,35.639877,0.1,306.4166,1596490841429
Fix,GT,37.4616618,-122.1428776,,35.83472,0.1,306.33694,1596490842429
Fix,GT,37.4618529,-122.1432052,,35.99453,0.1,306.4029,1596490843429
Fix,GT,37.4620449,-122.1435334,,36.035385,0.1,306.53564,1596490844429
Fix,GT,37.4622369,-122.1438617,,35.995186,0.1,306.30643,1596490845429
Fix,GT,37.462428,-122.14419,,35.972122,0.1,306.13312,1596490846429
Fix,GT,37.4626194,-122.1445184,,35.991005,0.1,306.414,1596490847429
Fix,GT,37.4628111,-122.1448461,,35.89185,0.1,306.4069,1596490848429
Fix,GT,37.4630018,-122.1451722,,35.65626,0.1,306.33835,1596490849429
Fix,GT,37.4631908,-122.1454973,,35.595436,0.1,306.28818,1596490850429
Fix,GT,37.4633803,-122.1458226,,35.6967,0.1,306.38263,1596490851429
Fix,GT,37.463571,-122.1461484,,35.82641,0.1,306.45163,1596490852429
Fix,GT,37.4637624,-122.1464756,,35.975147,0.1,306.41776,1596490853429
Fix,GT,37.4639545,-122.146804,,36.0703,0.1,306.4575,1596490854429
Fix,GT,37.464147,-122.1471328,,36.095863,0.1,306.4152,1596490855429
Fix,GT,37.4643396,-122.1474617,,36.117744,0.1,306.4675,1596490856429
Fix,GT,37.4645326,-122.1477903,,36.10105,0.1,306.6172,1596490857429
Fix,GT,37.4647259,-122.1481184,,36.06978,0.1,306.6646,1596490858429
Fix,GT,37.4649192,-122.1484458,,36.00454,0.1,306.63928,1596490859429
Fix,GT,37.4651115,-122.1487728,,35.921112,0.1,306.5911,1596490860429
Fix,GT,37.4653036,-122.1490993,,35.88913,0.1,306.59708,1596490861429
Fix,GT,37.4654953,-122.1494257,,35.83654,0.1,306.47644,1596490862429
Fix,GT,37.4656858,-122.149752,,35.72523,0.1,306.31274,1596490863429
Fix,GT,37.4658754,-122.1500775,,35.608246,0.1,306.30536,1596490864429
Fix,GT,37.4660647,-122.1504018,,35.524612,0.1,306.41794,1596490865429
Fix,GT,37.4662542,-122.1507253,,35.501827,0.1,306.46338,1596490866429
Fix,GT,37.4664437,-122.1510486,,35.521572,0.1,306.47705,1596490867429
Fix,GT,37.4666335,-122.1513721,,35.556118,0.1,306.49844,1596490868429
Fix,GT,37.4668237,-122.151696,,35.609894,0.1,306.45966,1596490869429
Fix,GT,37.4670139,-122.1520204,,35.665985,0.1,306.50922,1596490870429
Fix,GT,37.4672051,-122.152345,,35.70958,0.1,306.7815,1596490871429
Fix,GT,37.4673975,-122.1526689,,35.774376,0.1,306.92,1596490872429
Fix,GT,37.4675906,-122.1529934,,35.88057,0.1,306.84613,1596490873429
Fix,GT,37.4677837,-122.1533193,,35.93149,0.1,306.74448,1596490874429
Fix,GT,37.4679767,-122.1536454,,35.93427,0.1,306.74194,1596490875429
Fix,GT,37.4681698,-122.1539715,,35.93128,0.1,306.74887,1596490876429
Fix,GT,37.4683627,-122.1542974,,35.88111,0.1,306.82535,1596490877429
Fix,GT,37.4685557,-122.1546223,,35.801376,0.1,306.8252,1596490878429
Fix,GT,37.4687478,-122.1549469,,35.747963,0.1,306.68393,1596490879429
Fix,GT,37.4689395,-122.1552714,,35.715874,0.1,306.69803,1596490880429
Fix,GT,37.469131,-122.1555959,,35.73909,0.1,306.57114,1596490881429
Fix,GT,37.4693216,-122.155922,,35.840736,0.1,306.23618,1596490882429
Fix,GT,37.4695117,-122.1562506,,36.014194,0.1,306.04752,1596490883429
Fix,GT,37.4697023,-122.1565819,,36.285652,0.1,305.96225,1596490884429
Fix,GT,37.4698942,-122.1569158,,36.525257,0.1,305.99524,1596490885429
Fix,GT,37.4700876,-122.1572508,,36.645763,0.1,306.21555,1596490886429
Fix,GT,37.4702827,-122.1575858,,36.755695,0.1,306.42377,1596490887429
Fix,GT,37.470479,-122.1579216,,36.94192,0.1,306.41864,1596490888429
Fix,GT,37.4706763,-122.158259,,37.08372,0.1,306.47488,1596490889429
Fix,GT,37.4708748,-122.158597,,37.16839,0.1,306.61975,1596490890429
Fix,GT,37.4710741,-122.1589354,,37.277824,0.1,306.60992,1596490891429
Fix,GT,37.4712738,-122.1592747,,37.336067,0.1,306.63342,1596490892429
Fix,GT,37.4714736,-122.1596144,,37.33859,0.1,306.5612,1596490893429
Fix,GT,37.4716728,-122.1599533,,37.1259,0.1,306.58627,1596490894429
Fix,GT,37.4718705,-122.1602897,,36.821125,0.1,306.51364,1596490895429
Fix,GT,37.4720665,-122.160625,,36.7563,0.1,306.30594,1596490896429
Fix,GT,37.4722621,-122.160961,,36.827404,0.1,306.36606,1596490897429
Fix,GT,37.4724587,-122.1612965,,36.821884,0.1,306.60645,1596490898429
Fix,GT,37.4726554,-122.161631,,36.71534,0.1,306.56238,1596490899429
Fix,GT,37.4728512,-122.161965,,36.60002,0.1,306.41498,1596490900429
Fix,GT,37.4730462,-122.162298,,36.527416,0.1,306.592,1596490901429
Fix,GT,37.4732415,-122.1626298,,36.42148,0.1,306.58862,1596490902429
Fix,GT,37.4734361,-122.1629602,,36.214157,0.1,306.60034,1596490903429
Fix,GT,37.4736293,-122.1632881,,35.916176,0.1,306.6797,1596490904429
Fix,GT,37.4738207,-122.1636131,,35.604156,0.1,306.53024,1596490905429
Fix,GT,37.4740101,-122.1639364,,35.37903,0.1,306.4357,1596490906429
Fix,GT,37.4741983,-122.1642583,,35.249634,0.1,306.4748,1596490907429
Fix,GT,37.4743862,-122.1645786,,35.14514,0.1,306.5271,1596490908429
Fix,GT,37.4745739,-122.164898,,35.048954,0.1,306.58234,1596490909429
Fix,GT,37.4747614,-122.1652162,,34.95515,0.1,306.6353,1596490910429
Fix,GT,37.4749483,-122.1655338,,34.922592,0.1,306.53137,1596490911429
Fix,GT,37.4751348,-122.1658522,,35.013134,0.1,306.40396,1596490912429
Fix,GT,37.4753217,-122.1661722,,35.16568,0.1,306.3302,1596490913429
Fix,GT,37.4755091,-122.1664935,,35.25119,0.1,306.4133,1596490914429
Fix,GT,37.4756972,-122.1668146,,35.270855,0.1,306.54364,1596490915429
Fix,GT,37.4758862,-122.1671356,,35.3004,0.1,306.6562,1596490916429
Fix,GT,37.4760753,-122.1674561,,35.232635,0.1,306.71765,1596490917429
Fix,GT,37.476264,-122.1677754,,35.075798,0.1,306.70963,1596490918429
Fix,GT,37.4764523,-122.1680926,,34.91155,0.1,307.0004,1596490919429
Fix,GT,37.4766416,-122.1684068,,34.779392,0.1,307.39935,1596490920429
Fix,GT,37.4768309,-122.1687203,,34.814034,0.1,307.07574,1596490921429
Fix,GT,37.4770189,-122.1690366,,34.98134,0.1,306.60834,1596490922429
Fix,GT,37.4772062,-122.1693558,,35.15722,0.1,306.31927,1596490923429
Fix,GT,37.4773934,-122.1696781,,35.408524,0.1,306.08826,1596490924429
Fix,GT,37.4775814,-122.1700034,,35.683956,0.1,306.0849,1596490925429
Fix,GT,37.4777711,-122.1703307,,35.95008,0.1,306.2525,1596490926429
Fix,GT,37.4779632,-122.1706597,,36.200924,0.1,306.4927,1596490927429
Fix,GT,37.4781574,-122.1709898,,36.367664,0.1,306.61368,1596490928429
Fix,GT,37.4783527,-122.1713209,,36.51672,0.1,306.67084,1596490929429
Fix,GT,37.4785492,-122.1716533,,36.676125,0.1,306.6383,1596490930429
Fix,GT,37.4787459,-122.1719875,,36.813766,0.1,306.52505,1596490931429
Fix,GT,37.4789429,-122.1723228,,36.831894,0.1,306.43027,1596490932429
Fix,GT,37.4791393,-122.172658,,36.747604,0.1,306.33337,1596490933429
Fix,GT,37.4793348,-122.172993,,36.71128,0.1,306.36865,1596490934429
Fix,GT,37.4795301,-122.1733282,,36.75702,0.1,306.24628,1596490935429
Fix,GT,37.4797251,-122.1736648,,36.864983,0.1,306.21506,1596490936429
Fix,GT,37.4799213,-122.1740019,,36.970516,0.1,306.3181,1596490937429
Fix,GT,37.4801182,-122.1743397,,37.078983,0.1,306.22,1596490938429
Fix,GT,37.4803153,-122.1746792,,37.195633,0.1,306.23572,1596490939429
Fix,GT,37.480513,-122.1750192,,37.239037,0.1,306.2122,1596490940429
Fix,GT,37.4807109,-122.1753592,,37.228153,0.1,306.32812,1596490941429
Fix,GT,37.4809094,-122.1756981,,37.18618,0.1,306.503,1596490942429
Fix,GT,37.4811079,-122.1760368,,37.19241,0.1,306.2972,1596490943429
Fix,GT,37.481305,-122.1763772,,37.232697,0.1,305.93686,1596490944429
Fix,GT,37.4815007,-122.1767198,,37.324875,0.1,305.68573,1596490945429
Fix,GT,37.4816957,-122.1770645,,37.45735,0.1,305.3038,1596490946429
Fix,GT,37.4818893,-122.1774118,,37.52488,0.1,304.81943,1596490947429
Fix,GT,37.48208,-122.1777621,,37.52194,0.1,303.9276,1596490948429
Fix,GT,37.4822655,-122.1781162,,37.471054,0.1,302.813,1596490949429
Fix,GT,37.482445,-122.1784745,,37.398846,0.1,301.64978,1596490950429
Fix,GT,37.4826182,-122.1788368,,37.3351,0.1,300.36108,1596490951429
Fix,GT,37.4827848,-122.1792033,,37.288754,0.1,299.18903,1596490952429
Fix,GT,37.482945,-122.1795726,,37.080547,0.1,297.95856,1596490953429
Fix,GT,37.483097,-122.1799429,,36.631805,0.1,296.66953,1596490954429
Fix,GT,37.4832417,-122.1803127,,36.252777,0.1,295.7813,1596490955429
Fix,GT,37.4833811,-122.1806819,,36.080303,0.1,294.95496,1596490956429
Fix,GT,37.4835157,-122.1810531,,36.075817,0.1,294.17432,1596490957429
Fix,GT,37.4836462,-122.1814269,,36.113327,0.1,293.33264,1596490958429
Fix,GT,37.4837722,-122.1818023,,35.912178,0.1,292.51404,1596490959429
Fix,GT,37.4838933,-122.1821763,,35.51921,0.1,291.9339,1596490960429
Fix,GT,37.4840107,-122.1825481,,35.25986,0.1,291.50394,1596490961429
Fix,GT,37.4841249,-122.1829193,,35.14463,0.1,290.83408,1596490962429
Fix,GT,37.4842353,-122.1832913,,35.087765,0.1,290.27695,1596490963429
Fix,GT,37.4843425,-122.1836642,,35.037148,0.1,289.56226,1596490964429
Fix,GT,37.4844456,-122.1840382,,34.973854,0.1,288.80054,1596490965429
Fix,GT,37.4845449,-122.184413,,34.89454,0.1,288.2379,1596490966429
Fix,GT,37.4846408,-122.1847883,,34.827347,0.1,287.49893,1596490967429
Fix,GT,37.4847327,-122.1851647,,34.811752,0.1,286.78284,1596490968429
Fix,GT,37.4848217,-122.1855421,,34.799374,0.1,286.3553,1596490969429
Fix,GT,37.4849075,-122.18592,,34.728947,0.1,285.66544,1596490970429
Fix,GT,37.4849893,-122.1862985,,34.636734,0.1,284.90985,1596490971429
Fix,GT,37.485067,-122.1866773,,34.544106,0.1,284.20612,1596490972429
Fix,GT,37.4851407,-122.1870563,,34.4821,0.1,283.5027,1596490973429
Fix,GT,37.485211,-122.1874359,,34.47293,0.1,282.93137,1596490974429
Fix,GT,37.4852782,-122.1878166,,34.54171,0.1,282.21127,1596490975429
Fix,GT,37.4853418,-122.1882002,,34.75555,0.1,281.43726,1596490976429
Fix,GT,37.4854015,-122.1885873,,34.987965,0.1,280.66956,1596490977429
Fix,GT,37.4854575,-122.1889776,,35.17385,0.1,280.07657,1596490978429
Fix,GT,37.4855114,-122.1893704,,35.318478,0.1,279.69595,1596490979429
Fix,GT,37.4855634,-122.1897648,,35.372414,0.1,279.29443,1596490980429
Fix,GT,37.4856133,-122.1901601,,35.416267,0.1,278.94244,1596490981429
Fix,GT,37.4856621,-122.1905564,,35.491665,0.1,278.92615,1596490982429
Fix,GT,37.4857116,-122.1909533,,35.546886,0.1,279.13464,1596490983429
Fix,GT,37.4857618,-122.1913508,,35.62778,0.1,279.1599,1596490984429
Fix,GT,37.4858119,-122.1917494,,35.749138,0.1,279.0965,1596490985429
Fix,GT,37.4858622,-122.1921495,,35.886166,0.1,279.12973,1596490986429
Fix,GT,37.4859124,-122.192551,,36.007046,0.1,279.0581,1596490987429
Fix,GT,37.4859626,-122.1929536,,36.064186,0.1,279.0601,1596490988429
Fix,GT,37.4860129,-122.1933565,,36.044235,0.1,279.04486,1596490989429
Fix,GT,37.4860627,-122.1937586,,35.940952,0.1,278.93564,1596490990429
Fix,GT,37.4861119,-122.1941595,,35.799313,0.1,278.9279,1596490991429
Fix,GT,37.4861609,-122.1945591,,35.709354,0.1,278.95972,1596490992429
Fix,GT,37.4862098,-122.1949578,,35.634407,0.1,278.96136,1596490993429
Fix,GT,37.486259,-122.1953554,,35.530968,0.1,279.07272,1596490994429
Fix,GT,37.4863089,-122.1957518,,35.446926,0.1,279.16965,1596490995429
Fix,GT,37.4863586,-122.1961476,,35.45234,0.1,279.11642,1596490996429
Fix,GT,37.4864079,-122.196544,,35.51065,0.1,279.0193,1596490997429
Fix,GT,37.486457,-122.1969409,,35.506577,0.1,278.97763,1596490998429
Fix,GT,37.4865059,-122.1973369,,35.339577,0.1,279.03836,1596490999429
Fix,GT,37.4865549,-122.1977299,,34.997616,0.1,279.12854,1596491000429
Fix,GT,37.4866038,-122.1981192,,34.72395,0.1,279.11816,1596491001429
Fix,GT,37.4866523,-122.1985064,,34.64669,0.1,279.06384,1596491002429
Fix,GT,37.4867001,-122.1988936,,34.700638,0.1,278.85736,1596491003429
Fix,GT,37.4867472,-122.1992824,,34.867966,0.1,278.7799,1596491004429
Fix,GT,37.4867946,-122.1996729,,34.996544,0.1,278.8989,1596491005429
Fix,GT,37.4868427,-122.2000644,,35.057068,0.1,278.93213,1596491006429
Fix,GT,37.4868908,-122.2004562,,35.068375,0.1,278.94833,1596491007429
Fix,GT,37.4869395,-122.2008479,,35.05069,0.1,279.13724,1596491008429
Fix,GT,37.4869891,-122.2012391,,35.016624,0.1,279.30112,1596491009429
Fix,GT,37.4870392,-122.2016298,,34.98706,0.1,279.30328,1596491010429
Fix,GT,37.4870891,-122.2020208,,35.05503,0.1,279.1763,1596491011429
Fix,GT,37.4871381,-122.2024132,,35.198982,0.1,279.0097,1596491012429
Fix,GT,37.4871865,-122.2028071,,35.28756,0.1,278.9303,1596491013429
Fix,GT,37.4872349,-122.2032017,,35.31345,0.1,278.87372,1596491014429
Fix,GT,37.4872829,-122.2035965,,35.326385,0.1,278.83258,1596491015429
Fix,GT,37.4873308,-122.2039913,,35.308926,0.1,278.81323,1596491016429
Fix,GT,37.4873788,-122.2043858,,35.26542,0.1,278.9094,1596491017429
Fix,GT,37.4874273,-122.2047797,,35.24798,0.1,279.01752,1596491018429
Fix,GT,37.4874762,-122.2051734,,35.213894,0.1,279.01306,1596491019429
Fix,GT,37.4875251,-122.2055658,,35.03324,0.1,279.10648,1596491020429
Fix,GT,37.4875743,-122.2059555,,34.760544,0.1,279.2564,1596491021429
Fix,GT,37.487624,-122.2063427,,34.647095,0.1,279.32428,1596491022429
Fix,GT,37.4876742,-122.2067294,,34.668888,0.1,279.49677,1596491023429
Fix,GT,37.4877262,-122.2071165,,34.77065,0.1,280.06525,1596491024429
Fix,GT,37.4877824,-122.2075041,,34.916954,0.1,280.97723,1596491025429
Fix,GT,37.4878429,-122.2078924,,35.075233,0.1,281.5434,1596491026429
Fix,GT,37.4879064,-122.2082817,,35.217545,0.1,281.92902,1596491027429
Fix,GT,37.4879728,-122.2086717,,35.291336,0.1,282.61115,1596491028429
Fix,GT,37.4880436,-122.2090609,,35.312637,0.1,283.62018,1596491029429
Fix,GT,37.4881201,-122.2094489,,35.393013,0.1,284.4396,1596491030429
Fix,GT,37.4882005,-122.2098372,,35.5611,0.1,284.8565,1596491031429
Fix,GT,37.4882837,-122.2102267,,35.778442,0.1,285.41687,1596491032429
Fix,GT,37.4883707,-122.2106176,,35.973656,0.1,286.20804,1596491033429
Fix,GT,37.4884633,-122.2110082,,36.092667,0.1,287.24176,1596491034429
Fix,GT,37.4885608,-122.2113976,,36.093925,0.1,287.96277,1596491035429
Fix,GT,37.4886617,-122.2117851,,35.95363,0.1,288.57574,1596491036429
Fix,GT,37.4887654,-122.2121687,,35.65468,0.1,289.25943,1596491037429
Fix,GT,37.488872,-122.2125465,,35.203808,0.1,290.04184,1596491038429
Fix,GT,37.4889816,-122.2129175,,34.807896,0.1,291.02405,1596491039429
Fix,GT,37.4890943,-122.2132832,,34.5804,0.1,291.7639,1596491040429
Fix,GT,37.4892103,-122.2136459,,34.533733,0.1,292.30948,1596491041429
Fix,GT,37.48933,-122.2140069,,34.641148,0.1,293.2564,1596491042429
Fix,GT,37.4894547,-122.2143667,,34.746117,0.1,294.05994,1596491043429
Fix,GT,37.4895829,-122.2147247,,34.652176,0.1,294.6473,1596491044429
Fix,GT,37.4897135,-122.2150795,,34.484177,0.1,295.3416,1596491045429
Fix,GT,37.4898467,-122.2154317,,34.459457,0.1,295.7539,1596491046429
Fix,GT,37.4899821,-122.2157826,,34.49134,0.1,296.3932,1596491047429
Fix,GT,37.4901218,-122.2161311,,34.50955,0.1,297.41772,1596491048429
Fix,GT,37.4902657,-122.2164766,,34.458576,0.1,298.0411,1596491049429
Fix,GT,37.4904116,-122.2168201,,34.369587,0.1,298.42587,1596491050429
Fix,GT,37.4905589,-122.2171612,,34.233673,0.1,298.79602,1596491051429
Fix,GT,37.4907067,-122.2174991,,33.9396,0.1,299.0476,1596491052429
Fix,GT,37.490854,-122.2178328,,33.525112,0.1,299.2907,1596491053429
Fix,GT,37.4910008,-122.2181619,,33.221046,0.1,299.4771,1596491054429
Fix,GT,37.4911474,-122.2184891,,33.243008,0.1,299.43787,1596491055429
Fix,GT,37.4912941,-122.2188185,,33.511127,0.1,299.33786,1596491056429
Fix,GT,37.4914421,-122.2191506,,33.775703,0.1,299.40436,1596491057429
Fix,GT,37.4915913,-122.2194847,,33.927677,0.1,299.47858,1596491058429
Fix,GT,37.4917411,-122.2198194,,33.95846,0.1,299.4291,1596491059429
Fix,GT,37.4918899,-122.2201544,,33.876633,0.1,299.12018,1596491060429
Fix,GT,37.4920368,-122.2204892,,33.709885,0.1,298.98557,1596491061429
Fix,GT,37.4921835,-122.2208224,,33.611355,0.1,299.2439,1596491062429
Fix,GT,37.4923309,-122.2211545,,33.65525,0.1,299.2525,1596491063429
Fix,GT,37.4924789,-122.2214873,,33.771767,0.1,299.36765,1596491064429
Fix,GT,37.492628,-122.221821,,33.881073,0.1,299.60223,1596491065429
Fix,GT,37.4927781,-122.2221549,,33.91915,0.1,299.52838,1596491066429
Fix,GT,37.4929279,-122.2224893,,33.967438,0.1,299.43024,1596491067429
Fix,GT,37.4930773,-122.2228254,,34.152267,0.1,299.13193,1596491068429
Fix,GT,37.4932258,-122.2231654,,34.41844,0.1,298.53583,1596491069429
Fix,GT,37.4933721,-122.22351,,34.642834,0.1,297.73413,1596491070429
Fix,GT,37.4935156,-122.2238595,,34.847084,0.1,296.98895,1596491071429
Fix,GT,37.4936565,-122.2242119,,34.883064,0.1,296.52905,1596491072429
Fix,GT,37.4937944,-122.2245656,,34.743507,0.1,295.79724,1596491073429
Fix,GT,37.4939273,-122.2249198,,34.504124,0.1,294.81387,1596491074429
Fix,GT,37.4940552,-122.2252733,,34.15263,0.1,294.2016,1596491075429
Fix,GT,37.4941786,-122.2256243,,33.694664,0.1,293.61295,1596491076429
Fix,GT,37.4942966,-122.2259724,,33.216774,0.1,292.6894,1596491077429
Fix,GT,37.4944087,-122.2263177,,32.737946,0.1,291.81598,1596491078429
Fix,GT,37.4945158,-122.2266598,,32.28821,0.1,291.23907,1596491079429
Fix,GT,37.4946194,-122.2269981,,31.825134,0.1,291.0379,1596491080429
Fix,GT,37.4947207,-122.2273325,,31.51487,0.1,290.81622,1596491081429
Fix,GT,37.4948197,-122.2276668,,31.665634,0.1,290.08908,1596491082429
Fix,GT,37.4949167,-122.2280067,,32.2359,0.1,289.61417,1596491083429
Fix,GT,37.4950146,-122.2283549,,33.0977,0.1,289.5615,1596491084429
Fix,GT,37.4951149,-122.2287126,,33.92934,0.1,289.51114,1596491085429
Fix,GT,37.4952163,-122.2290776,,34.386734,0.1,289.348,1596491086429
Fix,GT,37.4953185,-122.2294462,,34.608444,0.1,289.35114,1596491087429
Fix,GT,37.4954215,-122.2298163,,34.69789,0.1,289.4184,1596491088429
Fix,GT,37.495525,-122.2301861,,34.586063,0.1,289.60602,1596491089429
Fix,GT,37.4956287,-122.2305541,,34.450268,0.1,289.72357,1596491090429
Fix,GT,37.4957326,-122.2309208,,34.38661,0.1,289.69238,1596491091429
Fix,GT,37.4958368,-122.2312865,,34.27601,0.1,289.8838,1596491092429
Fix,GT,37.4959409,-122.2316508,,34.21222,0.1,289.79324,1596491093429
Fix,GT,37.4960438,-122.2320159,,34.31446,0.1,289.4521,1596491094429
Fix,GT,37.4961469,-122.2323829,,34.497704,0.1,289.69577,1596491095429
Fix,GT,37.4962519,-122.2327513,,34.68578,0.1,289.96878,1596491096429
Fix,GT,37.4963581,-122.2331215,,34.925884,0.1,289.92233,1596491097429
Fix,GT,37.4964648,-122.2334947,,35.20218,0.1,289.90796,1596491098429
Fix,GT,37.4965725,-122.2338705,,35.43462,0.1,289.9967,1596491099429
Fix,GT,37.4966811,-122.2342482,,35.575546,0.1,290.18994,1596491100429
Fix,GT,37.4967925,-122.234626,,35.66405,0.1,290.96408,1596491101429
Fix,GT,37.4969104,-122.2350018,,35.791893,0.1,292.23993,1596491102429
Fix,GT,37.4970357,-122.235376,,35.95617,0.1,293.798,1596491103429
Fix,GT,37.4971695,-122.2357473,,36.1275,0.1,295.49847,1596491104429
Fix,GT,37.497313,-122.236115,,36.305042,0.1,297.09235,1596491105429
Fix,GT,37.4974651,-122.2364799,,36.50924,0.1,298.75348,1596491106429
Fix,GT,37.4976267,-122.2368404,,36.64714,0.1,300.4978,1596491107429
Fix,GT,37.4977976,-122.2371957,,36.775017,0.1,302.29517,1596491108429
Fix,GT,37.4979783,-122.2375457,,37.028362,0.1,304.18924,1596491109429
Fix,GT,37.4981707,-122.23789,,37.357697,0.1,306.4728,1596491110429
Fix,GT,37.4983755,-122.2382274,,37.65222,0.1,308.55313,1596491111429
Fix,GT,37.4985913,-122.2385572,,37.81243,0.1,310.62787,1596491112429
Fix,GT,37.4988168,-122.2388785,,37.895645,0.1,312.7354,1596491113429
Fix,GT,37.4990519,-122.2391901,,38.01439,0.1,314.74536,1596491114429
Fix,GT,37.4992963,-122.2394915,,38.01345,0.1,316.68994,1596491115429
Fix,GT,37.4995466,-122.2397828,,37.71269,0.1,317.81262,1596491116429
Fix,GT,37.4997965,-122.2400678,,37.216003,0.1,317.9828,1596491117429
Fix,GT,37.5000435,-122.2403482,,36.72387,0.1,318.0175,1596491118429
Fix,GT,37.5002873,-122.2406247,,36.218464,0.1,318.02405,1596491119429
Fix,GT,37.5005279,-122.240898,,35.792896,0.1,317.9738,1596491120429
Fix,GT,37.5007657,-122.2411686,,35.44593,0.1,317.84683,1596491121429
Fix,GT,37.5010007,-122.2414372,,35.13131,0.1,317.72202,1596491122429
Fix,GT,37.5012336,-122.2417042,,34.887695,0.1,317.72583,1596491123429
Fix,GT,37.5014653,-122.2419692,,34.68888,0.1,317.93527,1596491124429
Fix,GT,37.5016964,-122.2422317,,34.498196,0.1,318.07248,1596491125429
Fix,GT,37.5019267,-122.242493,,34.435497,0.1,317.955,1596491126429
Fix,GT,37.5021569,-122.2427553,,34.606033,0.1,317.87033,1596491127429
Fix,GT,37.5023885,-122.2430191,,34.82932,0.1,318.0376,1596491128429
Fix,GT,37.5026218,-122.243284,,34.956375,0.1,318.13544,1596491129429
Fix,GT,37.502856,-122.2435489,,35.023678,0.1,318.19583,1596491130429
Fix,GT,37.5030909,-122.2438136,,35.08422,0.1,318.33954,1596491131429
Fix,GT,37.503327,-122.2440778,,35.09945,0.1,318.49655,1596491132429
Fix,GT,37.5035633,-122.2443412,,35.042084,0.1,318.58908,1596491133429
Fix,GT,37.5037985,-122.2446038,,34.80171,0.1,318.39682,1596491134429
Fix,GT,37.5040312,-122.244865,,34.481255,0.1,318.18536,1596491135429
Fix,GT,37.5042615,-122.2451254,,34.368195,0.1,318.10107,1596491136429
Fix,GT,37.5044912,-122.2453853,,34.28226,0.1,318.05573,1596491137429
Fix,GT,37.5047201,-122.2456453,,34.2782,0.1,317.90405,1596491138429
Fix,GT,37.5049492,-122.2459066,,34.45068,0.1,317.78918,1596491139429
Fix,GT,37.5051794,-122.2461698,,34.68316,0.1,317.80835,1596491140429
Fix,GT,37.5054115,-122.2464345,,34.895203,0.1,317.97473,1596491141429
Fix,GT,37.5056456,-122.2466992,,35.02464,0.1,318.22086,1596491142429
Fix,GT,37.505881,-122.2469643,,35.21971,0.1,318.22192,1596491143429
Fix,GT,37.5061176,-122.2472318,,35.491592,0.1,318.0366,1596491144429
Fix,GT,37.5063553,-122.2475021,,35.699684,0.1,317.95618,1596491145429
Fix,GT,37.5065943,-122.2477737,,35.84372,0.1,317.97144,1596491146429
Fix,GT,37.5068341,-122.2480462,,35.942368,0.1,317.97775,1596491147429
Fix,GT,37.5070744,-122.2483189,,35.963028,0.1,318.0805,1596491148429
Fix,GT,37.5073149,-122.2485914,,35.917244,0.1,318.14954,1596491149429
Fix,GT,37.5075552,-122.2488628,,35.813053,0.1,318.1908,1596491150429
Fix,GT,37.5077947,-122.2491334,,35.711792,0.1,318.15295,1596491151429
Fix,GT,37.508033,-122.2494026,,35.451786,0.1,318.17215,1596491152429
Fix,GT,37.508269,-122.2496691,,34.995544,0.1,318.20276,1596491153429
Fix,GT,37.5085018,-122.2499319,,34.500782,0.1,318.20636,1596491154429
Fix,GT,37.5087318,-122.2501909,,34.122128,0.1,318.31155,1596491155429
Fix,GT,37.5089603,-122.250448,,34.02388,0.1,318.2704,1596491156429
Fix,GT,37.5091885,-122.2507056,,34.13694,0.1,318.07138,1596491157429
Fix,GT,37.5094173,-122.2509652,,34.30045,0.1,317.9996,1596491158429
Fix,GT,37.509647,-122.2512262,,34.47751,0.1,317.94446,1596491159429
Fix,GT,37.5098778,-122.251489,,34.69007,0.1,317.88147,1596491160429
Fix,GT,37.5101099,-122.2517538,,34.94915,0.1,317.92975,1596491161429
Fix,GT,37.5103443,-122.25202,,35.192635,0.1,318.10117,1596491162429
Fix,GT,37.5105806,-122.2522865,,35.26833,0.1,318.31555,1596491163429
Fix,GT,37.5108169,-122.2525516,,35.00444,0.1,318.3729,1596491164429
Fix,GT,37.5110502,-122.2528138,,34.520287,0.1,318.15637,1596491165429
Fix,GT,37.5112798,-122.2530743,,34.221123,0.1,317.90353,1596491166429
Fix,GT,37.5115078,-122.2533345,,34.213177,0.1,317.7598,1596491167429
Fix,GT,37.5117357,-122.253596,,34.331276,0.1,317.63742,1596491168429
Fix,GT,37.5119643,-122.253859,,34.493492,0.1,317.6593,1596491169429
Fix,GT,37.5121944,-122.2541224,,34.613407,0.1,317.93817,1596491170429
Fix,GT,37.5124259,-122.2543851,,34.660725,0.1,318.07755,1596491171429
Fix,GT,37.5126578,-122.254648,,34.706097,0.1,318.0068,1596491172429
Fix,GT,37.5128897,-122.2549114,,34.711956,0.1,317.98236,1596491173429
Fix,GT,37.5131213,-122.2551753,,34.723972,0.1,317.78882,1596491174429
Fix,GT,37.5133526,-122.2554401,,34.759407,0.1,317.7745,1596491175429
Fix,GT,37.5135843,-122.2557049,,34.776947,0.1,317.89307,1596491176429
Fix,GT,37.5138163,-122.2559691,,34.7601,0.1,318.00925,1596491177429
Fix,GT,37.5140489,-122.2562325,,34.74726,0.1,318.13226,1596491178429
Fix,GT,37.5142814,-122.2564959,,34.78895,0.1,318.08374,1596491179429
Fix,GT,37.514514,-122.2567597,,34.77978,0.1,318.06424,1596491180429
Fix,GT,37.5147466,-122.2570225,,34.67724,0.1,318.21072,1596491181429
Fix,GT,37.5149788,-122.2572841,,34.565266,0.1,318.2897,1596491182429
Fix,GT,37.5152106,-122.2575444,,34.466736,0.1,318.40088,1596491183429
Fix,GT,37.5154422,-122.2578037,,34.40047,0.1,318.31213,1596491184429
Fix,GT,37.5156726,-122.2580636,,34.36853,0.1,318.01483,1596491185429
Fix,GT,37.515902,-122.2583245,,34.330963,0.1,317.94843,1596491186429
Fix,GT,37.5161312,-122.2585851,,34.305183,0.1,317.9858,1596491187429
Fix,GT,37.5163601,-122.2588457,,34.296715,0.1,317.89642,1596491188429
Fix,GT,37.5165888,-122.2591064,,34.263588,0.1,317.94073,1596491189429
Fix,GT,37.5168178,-122.2593661,,34.2133,0.1,318.11215,1596491190429
Fix,GT,37.5170469,-122.2596247,,34.17506,0.1,318.28265,1596491191429
Fix,GT,37.5172765,-122.2598826,,34.233944,0.1,318.35675,1596491192429
Fix,GT,37.5175069,-122.2601411,,34.310905,0.1,318.28952,1596491193429
