MessageType,Provider,LatitudeDegrees,LongitudeDegrees,AltitudeMeters,SpeedMps,AccuracyMeters,BearingDegrees,UnixTimeMillis
Fix,GT,37.3178874,-121.9483662,,0.04962997,0.1,89.77515,1607638645432
Fix,GT,37.3178874,-121.9483662,,0.04866018,0.1,89.77466,1607638646432
Fix,GT,37.3178874,-121.9483662,,0.047662124,0.1,89.77426,1607638647432
Fix,GT,37.3178874,-121.9483662,,0.047936723,0.1,89.77405,1607638648432
Fix,GT,37.3178874,-121.9483662,,0.049062833,0.1,89.774536,1607638649432
Fix,GT,37.3178874,-121.9483662,,0.048228644,0.1,89.77341,1607638650432
Fix,GT,37.3178873,-121.9483662,,0.04666415,0.1,89.771454,1607638651432
Fix,GT,37.3178873,-121.9483662,,0.044838548,0.1,89.772156,1607638652432
Fix,GT,37.3178873,-121.9483662,,0.043150574,0.1,89.77185,1607638653432
Fix,GT,37.3178873,-121.9483662,,0.046586227,0.1,89.77124,1607638654432
Fix,GT,37.3178873,-121.9483662,,0.05417525,0.1,89.77063,1607638655432
Fix,GT,37.3178873,-121.9483662,,0.061619148,0.1,89.770386,1607638656432
Fix,GT,37.3178871,-121.9483662,,0.07007091,0.1,89.77008,1607638657432
Fix,GT,37.3178845,-121.948366,,0.079050355,0.1,89.76965,1607638658432
Fix,GT,37.3178812,-121.9483658,,0.08935414,0.1,89.769226,1607638659432
Fix,GT,37.3178807,-121.9483657,,0.10266234,0.1,89.76892,1607638660432
Fix,GT,37.3178802,-121.9483657,,0.12282306,0.1,89.76874,1607638661432
Fix,GT,37.3178794,-121.9483656,,0.14810503,0.1,89.76898,1607638662432
Fix,GT,37.3178778,-121.9483654,,0.16810924,0.1,89.76895,1607638663432
Fix,GT,37.3178759,-121.9483653,,0.17928356,0.1,89.76813,1607638664432
Fix,GT,37.3178739,-121.9483652,,0.18332331,0.1,89.76724,1607638665432
Fix,GT,37.3178716,-121.948365,,0.19235657,0.1,89.76709,1607638666432
Fix,GT,37.31787,-121.9483648,,0.2133626,0.1,89.767,1607638667432
Fix,GT,37.3178695,-121.9483647,,0.23969969,0.1,89.765594,1607638668432
Fix,GT,37.3178691,-121.9483647,,0.2649583,0.1,89.765045,1607638669432
Fix,GT,37.3178686,-121.9483647,,0.2868097,0.1,89.76489,1607638670432
Fix,GT,37.3178663,-121.9483649,,0.2844107,0.1,89.76367,1607638671432
Fix,GT,37.3178626,-121.9483636,,0.44504404,0.1,89.76407,1607638672432
Fix,GT,37.3178601,-121.9483544,,0.92252773,0.1,90.84674,1607638673432
Fix,GT,37.317857,-121.948335,,1.5567646,0.1,95.62433,1607638674432
Fix,GT,37.3178515,-121.9483073,,2.3979256,0.1,105.12091,1607638675432
Fix,GT,37.3178477,-121.9482702,,3.3174713,0.1,113.084656,1607638676432
Fix,GT,37.3178533,-121.9482284,,3.7134037,0.1,112.01715,1607638677432
Fix,GT,37.3178666,-121.9481932,,3.055375,0.1,106.13483,1607638678432
Fix,GT,37.3178787,-121.9481724,,2.1871843,0.1,101.476074,1607638679432
Fix,GT,37.3178887,-121.9481593,,2.1803489,0.1,98.539246,1607638680432
Fix,GT,37.3178897,-121.9481408,,2.3494089,0.1,104.50607,1607638681432
Fix,GT,37.3178664,-121.948119,,2.3199174,0.1,126.882324,1607638682432
Fix,GT,37.3178256,-121.948113,,2.455567,0.1,154.60846,1607638683432
Fix,GT,37.3177894,-121.948121,,2.6195436,0.1,172.69427,1607638684432
Fix,GT,37.3177656,-121.9481263,,2.8863053,0.1,179.53198,1607638685432
Fix,GT,37.3177461,-121.9481253,,3.4243546,0.1,180.49765,1607638686432
Fix,GT,37.3177212,-121.948121,,3.912636,0.1,180.73613,1607638687432
Fix,GT,37.3176739,-121.9481169,,4.1024446,0.1,181.36377,1607638688432
Fix,GT,37.3176144,-121.9481158,,4.090879,0.1,181.08965,1607638689432
Fix,GT,37.3175722,-121.948115,,4.0316143,0.1,179.77322,1607638690432
Fix,GT,37.3175333,-121.948114,,3.9968534,0.1,178.82422,1607638691432
Fix,GT,37.3174941,-121.9481134,,4.320237,0.1,178.6969,1607638692432
Fix,GT,37.3174517,-121.9481133,,4.7712336,0.1,179.26935,1607638693432
Fix,GT,37.3174076,-121.9481145,,4.7872124,0.1,180.56787,1607638694432
Fix,GT,37.3173652,-121.9481168,,4.4273777,0.1,181.39816,1607638695432
Fix,GT,37.3173281,-121.9481191,,3.5358114,0.1,181.23677,1607638696432
Fix,GT,37.317301,-121.948121,,2.2589936,0.1,180.94896,1607638697432
Fix,GT,37.3172841,-121.9481225,,1.5103669,0.1,180.74052,1607638698432
Fix,GT,37.3172692,-121.9481252,,1.8941295,0.1,183.46513,1607638699432
Fix,GT,37.31725,-121.9481374,,2.7292528,0.1,199.56789,1607638700432
Fix,GT,37.3172347,-121.9481676,,3.558309,0.1,229.60641,1607638701432
Fix,GT,37.3172276,-121.9482154,,5.067507,0.1,256.0976,1607638702432
Fix,GT,37.3172275,-121.9482833,,7.021904,0.1,269.95233,1607638703432
Fix,GT,37.3172315,-121.9483727,,8.810628,0.1,273.88467,1607638704432
Fix,GT,37.3172377,-121.948481,,10.387187,0.1,274.23804,1607638705432
Fix,GT,37.3172443,-121.9486057,,11.707049,0.1,273.60342,1607638706432
Fix,GT,37.3172508,-121.9487415,,12.297147,0.1,273.38336,1607638707432
Fix,GT,37.3172582,-121.9488807,,12.406473,0.1,274.0328,1607638708432
Fix,GT,37.3172669,-121.949021,,12.505152,0.1,274.4071,1607638709432
Fix,GT,37.3172755,-121.9491607,,12.2978945,0.1,274.16946,1607638710432
Fix,GT,37.3172832,-121.9492976,,12.049063,0.1,273.9093,1607638711432
Fix,GT,37.3172903,-121.9494309,,11.515257,0.1,273.7466,1607638712432
Fix,GT,37.3172965,-121.9495542,,10.228886,0.1,273.51395,1607638713432
Fix,GT,37.3173017,-121.9496593,,8.431074,0.1,273.70502,1607638714432
Fix,GT,37.3173064,-121.9497442,,6.66495,0.1,273.95917,1607638715432
Fix,GT,37.31731,-121.9498095,,5.0047398,0.1,273.86923,1607638716432
Fix,GT,37.3173126,-121.9498569,,3.4344263,0.1,273.7406,1607638717432
Fix,GT,37.3173139,-121.9498875,,1.9776465,0.1,273.39706,1607638718432
Fix,GT,37.3173144,-121.9499016,,0.6770553,0.1,273.13684,1607638719432
Fix,GT,37.3173145,-121.9499042,,0.066471145,0.1,273.0903,1607638720432
Fix,GT,37.3173144,-121.9499042,,0.05647585,0.1,273.0876,1607638721432
Fix,GT,37.3173145,-121.9499042,,0.05012647,0.1,273.08362,1607638722432
Fix,GT,37.3173146,-121.9499042,,0.04452537,0.1,273.08136,1607638723432
Fix,GT,37.3173146,-121.9499043,,0.03826979,0.1,273.07962,1607638724432
Fix,GT,37.3173147,-121.9499043,,0.032128453,0.1,273.07816,1607638725432
Fix,GT,37.3173147,-121.9499043,,0.026863303,0.1,273.0769,1607638726432
Fix,GT,37.3173147,-121.9499043,,0.021556845,0.1,273.07574,1607638727655
Fix,GT,37.3173147,-121.9499043,,0.02133164,0.1,273.075,1607638728648
Fix,GT,37.3173147,-121.9499043,,0.019440679,0.1,273.07446,1607638729658
Fix,GT,37.3173146,-121.9499043,,0.015510685,0.1,273.07382,1607638730655
Fix,GT,37.3173146,-121.9499043,,0.010883179,0.1,273.07303,1607638731662
Fix,GT,37.3173146,-121.9499043,,0.008582276,0.1,273.0724,1607638732654
Fix,GT,37.3173146,-121.9499043,,0.0076194834,0.1,273.07184,1607638733648
Fix,GT,37.3173146,-121.9499044,,0.007919362,0.1,273.07126,1607638734661
Fix,GT,37.3173146,-121.9499044,,0.008246211,0.1,273.07083,1607638735653
Fix,GT,37.3173146,-121.9499044,,0.008892192,0.1,273.07056,1607638736663
Fix,GT,37.3173146,-121.9499044,,0.009111683,0.1,273.07016,1607638737657
Fix,GT,37.3173146,-121.9499044,,0.009797229,0.1,273.06964,1607638738649
Fix,GT,37.3173146,-121.9499044,,0.010847414,0.1,273.06915,1607638739661
Fix,GT,37.3173146,-121.9499044,,0.010327053,0.1,273.06873,1607638740754
Fix,GT,37.3173146,-121.9499044,,0.010049876,0.1,273.0686,1607638741466
Fix,GT,37.3173146,-121.9499044,,0.010802836,0.1,273.06836,1607638742756
Fix,GT,37.3173146,-121.9499044,,0.010599403,0.1,273.06824,1607638743447
Fix,GT,37.3173146,-121.9499045,,0.009356917,0.1,273.06805,1607638744660
Fix,GT,37.3173146,-121.9499046,,0.009036187,0.1,273.06784,1607638745653
Fix,GT,37.3173146,-121.9499047,,0.009019667,0.1,273.06754,1607638746644
Fix,GT,37.3173146,-121.9499048,,0.00833959,0.1,273.0666,1607638747660
Fix,GT,37.3173146,-121.9499048,,0.0073974677,0.1,273.06604,1607638748648
Fix,GT,37.3173146,-121.949905,,0.0038700865,0.1,273.05432,1607638749662
Fix,GT,37.3173146,-121.9499046,,0.00077323284,0.1,273.1313,1607638750654
Fix,GT,37.3173146,-121.9499043,,0.0006447048,0.1,273.17474,1607638751644
Fix,GT,37.3173146,-121.9499043,,0.00034289295,0.1,273.1741,1607638752657
Fix,GT,37.3173146,-121.9499043,,0.0,0.1,273.17334,1607638753646
Fix,GT,37.3173146,-121.9499043,,0.001465522,0.1,273.16132,1607638754655
Fix,GT,37.3173146,-121.9499043,,0.002836759,0.1,273.16254,1607638755648
Fix,GT,37.3173146,-121.9499043,,0.007077901,0.1,273.16626,1607638756664
Fix,GT,37.3173146,-121.9499043,,0.01430875,0.1,273.1656,1607638757658
Fix,GT,37.3173146,-121.9499043,,0.017010383,0.1,273.16486,1607638758646
Fix,GT,37.3173146,-121.9499043,,0.016259756,0.1,273.164,1607638759764
Fix,GT,37.3173146,-121.9499043,,0.01512696,0.1,273.16354,1607638760453
Fix,GT,37.3173146,-121.9499043,,0.013370374,0.1,273.16284,1607638761667
Fix,GT,37.3173146,-121.9499043,,0.013013128,0.1,273.16223,1607638762658
Fix,GT,37.3173146,-121.9499043,,0.014293261,0.1,273.16162,1607638763646
Fix,GT,37.3173146,-121.9499043,,0.01566169,0.1,273.161,1607638764661
Fix,GT,37.3173146,-121.9499043,,0.017286941,0.1,273.16043,1607638765643
Fix,GT,37.3173146,-121.9499043,,0.019285588,0.1,273.1599,1607638766642
Fix,GT,37.3173146,-121.9499043,,0.021988146,0.1,273.15933,1607638767657
Fix,GT,37.3173146,-121.9499043,,0.02366973,0.1,273.15872,1607638768648
Fix,GT,37.3173146,-121.9499043,,0.029355492,0.1,273.15805,1607638769663
Fix,GT,37.3173146,-121.9499043,,0.039176077,0.1,273.15814,1607638770647
Fix,GT,37.3173146,-121.9499043,,0.04314929,0.1,273.15768,1607638771738
Fix,GT,37.3173146,-121.9499043,,0.042340584,0.1,273.15704,1607638772449
Fix,GT,37.3173146,-121.9499043,,0.03875666,0.1,273.15613,1607638773641
Fix,GT,37.3173146,-121.9499043,,0.03733631,0.1,273.1555,1607638774662
Fix,GT,37.3173146,-121.9499043,,0.036615748,0.1,273.15494,1607638775646
Fix,GT,37.3173146,-121.9499043,,0.036159586,0.1,273.1543,1607638776640
Fix,GT,37.3173146,-121.9499043,,0.035469513,0.1,273.15363,1607638777657
Fix,GT,37.3173146,-121.9499043,,0.03314875,0.1,273.153,1607638778645
Fix,GT,37.3173146,-121.9499043,,0.038001277,0.1,273.1524,1607638779660
Fix,GT,37.3173146,-121.9499043,,0.045550883,0.1,273.15182,1607638780647
Fix,GT,37.3173146,-121.9499043,,0.047363058,0.1,273.15125,1607638781643
Fix,GT,37.3173146,-121.9499043,,0.046372935,0.1,273.15048,1607638782659
Fix,GT,37.3173146,-121.9499043,,0.04542917,0.1,273.14984,1607638783651
Fix,GT,37.3173146,-121.9499043,,0.045099888,0.1,273.1492,1607638784661
Fix,GT,37.3173146,-121.9499043,,0.045099888,0.1,273.14868,1607638785655
Fix,GT,37.3173146,-121.9499043,,0.045099888,0.1,273.1481,1607638786641
Fix,GT,37.3173146,-121.9499043,,0.045753013,0.1,273.14746,1607638787654
Fix,GT,37.3173146,-121.9499043,,0.046097722,0.1,273.14676,1607638788650
Fix,GT,37.3173146,-121.9499043,,0.045437552,0.1,273.14606,1607638789661
Fix,GT,37.3173146,-121.9499043,,0.045099888,0.1,273.14548,1607638790652
Fix,GT,37.3173146,-121.9499043,,0.04506295,0.1,273.14487,1607638791665
Fix,GT,37.3173146,-121.9499043,,0.044387825,0.1,273.14423,1607638792657
Fix,GT,37.3173146,-121.9499043,,0.04278487,0.1,273.14355,1607638793650
Fix,GT,37.3173146,-121.9499043,,0.040087048,0.1,273.14282,1607638794661
Fix,GT,37.3173146,-121.9499043,,0.037091095,0.1,273.14218,1607638795654
Fix,GT,37.3173146,-121.9499043,,0.032731373,0.1,273.14157,1607638796666
Fix,GT,37.3173146,-121.9499043,,0.029751267,0.1,273.141,1607638797658
Fix,GT,37.3173146,-121.9499043,,0.02971502,0.1,273.14035,1607638798647
Fix,GT,37.3173146,-121.9499043,,0.030033596,0.1,273.1396,1607638799660
Fix,GT,37.3173146,-121.9499043,,0.03198239,0.1,273.139,1607638800655
Fix,GT,37.3173146,-121.9499043,,0.034299895,0.1,273.1385,1607638801642
Fix,GT,37.3173146,-121.9499043,,0.04092002,0.1,273.13788,1607638802657
Fix,GT,37.3173146,-121.9499043,,0.042699605,0.1,273.1372,1607638803650
Fix,GT,37.3173146,-121.9499043,,0.03936156,0.1,273.1366,1607638804659
Fix,GT,37.3173146,-121.9499043,,0.038,0.1,273.13596,1607638805642
Fix,GT,37.3173146,-121.9499043,,0.036734693,0.1,273.13525,1607638806637
Fix,GT,37.3173146,-121.9499043,,0.032075964,0.1,273.13464,1607638807656
Fix,GT,37.3173146,-121.9499043,,0.024182461,0.1,273.13412,1607638808648
Fix,GT,37.3173146,-121.9499043,,0.016470715,0.1,273.1336,1607638809661
Fix,GT,37.3173146,-121.9499043,,0.011091887,0.1,273.13303,1607638810655
Fix,GT,37.3173146,-121.9499043,,0.007056913,0.1,273.13223,1607638811664
Fix,GT,37.3173146,-121.9499043,,0.005537247,0.1,273.1314,1607638812658
Fix,GT,37.3173146,-121.9499042,,0.0057824454,0.1,273.1307,1607638813646
Fix,GT,37.3173145,-121.9499042,,0.012296512,0.1,273.1305,1607638814661
Fix,GT,37.3173144,-121.9499073,,0.74175537,0.1,273.1005,1607638815653
Fix,GT,37.3173058,-121.9499245,,2.5806735,0.1,273.0582,1607638816665
Fix,GT,37.3172789,-121.9499593,,4.583127,0.1,271.96542,1607638817656
Fix,GT,37.3172333,-121.9500106,,6.8286257,0.1,269.54575,1607638818646
Fix,GT,37.3172785,-121.950113,,9.250302,0.1,267.6234,1607638819656
Fix,GT,37.3173071,-121.9502383,,11.490569,0.1,266.15216,1607638820656
Fix,GT,37.3172979,-121.9503773,,13.538027,0.1,265.03763,1607638821643
Fix,GT,37.3172853,-121.9505423,,15.474841,0.1,264.4073,1607638822657
Fix,GT,37.3172709,-121.9507257,,17.235554,0.1,264.46298,1607638823650
Fix,GT,37.3172562,-121.95093,,18.771006,0.1,264.66296,1607638824663
Fix,GT,37.3172396,-121.951147,,20.206297,0.1,264.71127,1607638825655
Fix,GT,37.317221,-121.9513841,,21.692533,0.1,264.40485,1607638826663
Fix,GT,37.3172002,-121.9516334,,22.98008,0.1,263.8115,1607638827656
Fix,GT,37.3171755,-121.9518956,,24.177856,0.1,262.9746,1607638828648
Fix,GT,37.3171465,-121.9521743,,24.902563,0.1,262.34857,1607638829662
Fix,GT,37.3171159,-121.9524517,,25.174454,0.1,261.9545,1607638830653
Fix,GT,37.3170793,-121.9527604,,25.378063,0.1,261.04993,1607638831747
Fix,GT,37.3170492,-121.9529904,,25.566372,0.1,260.40897,1607638832558
Fix,GT,37.3170141,-121.9532447,,25.863724,0.1,260.0647,1607638833448
Fix,GT,37.3169648,-121.9535971,,26.36015,0.1,260.1927,1607638834662
Fix,GT,37.316926,-121.9538892,,26.613659,0.1,260.90363,1607638835653
Fix,GT,37.3168887,-121.9541896,,26.6843,0.1,261.43073,1607638836664
Fix,GT,37.3168539,-121.9544855,,26.702454,0.1,261.70416,1607638837657
Fix,GT,37.3168202,-121.9547811,,26.737188,0.1,261.87784,1607638838648
Fix,GT,37.3167865,-121.9550836,,26.715439,0.1,262.31674,1607638839660
Fix,GT,37.3167561,-121.9553804,,26.683382,0.1,263.12988,1607638840654
Fix,GT,37.3167295,-121.9556776,,26.770832,0.1,264.07214,1607638841646
Fix,GT,37.3167057,-121.9559832,,26.999754,0.1,264.58536,1607638842658
Fix,GT,37.3166836,-121.9562855,,27.262426,0.1,264.89468,1607638843649
Fix,GT,37.3166624,-121.9565956,,27.240597,0.1,265.25986,1607638844661
Fix,GT,37.3166436,-121.9568986,,27.149326,0.1,265.78418,1607638845652
Fix,GT,37.3166271,-121.9572078,,27.14899,0.1,266.49994,1607638846664
Fix,GT,37.3166141,-121.9575121,,27.178715,0.1,267.37613,1607638847658
Fix,GT,37.3166043,-121.9578473,,27.236351,0.1,268.35806,1607638848751
Fix,GT,37.3166002,-121.9580654,,27.281433,0.1,268.8238,1607638849460
Fix,GT,37.316596,-121.958432,,27.344006,0.1,269.39404,1607638850650
Fix,GT,37.3165951,-121.9587441,,27.400799,0.1,269.96777,1607638851662
Fix,GT,37.3165974,-121.9590511,,27.475576,0.1,270.7574,1607638852657
Fix,GT,37.3166032,-121.9593907,,27.564135,0.1,271.26202,1607638853754
Fix,GT,37.3166075,-121.9596103,,27.6095,0.1,271.27292,1607638854460
Fix,GT,37.3166136,-121.9599838,,27.698982,0.1,271.17847,1607638855655
Fix,GT,37.3166182,-121.9603329,,27.790714,0.1,271.046,1607638856767
Fix,GT,37.3166213,-121.9605484,,27.841908,0.1,271.0381,1607638857454
Fix,GT,37.3166271,-121.9609237,,27.923258,0.1,271.11084,1607638858648
Fix,GT,37.3166319,-121.9612433,,27.946672,0.1,271.056,1607638859662
Fix,GT,37.3166374,-121.9615879,,27.924685,0.1,271.12143,1607638860756
Fix,GT,37.3166408,-121.9618052,,27.961752,0.1,271.13666,1607638861445
Fix,GT,37.3166468,-121.9621887,,28.04705,0.1,271.1082,1607638862659
Fix,GT,37.3166517,-121.962501,,27.990719,0.1,271.11508,1607638863647
Fix,GT,37.3166566,-121.9628189,,27.65419,0.1,271.1154,1607638864660
Fix,GT,37.3166608,-121.9631262,,27.190481,0.1,270.8655,1607638865654
Fix,GT,37.3166637,-121.9634338,,26.69402,0.1,270.50436,1607638866666
Fix,GT,37.3166649,-121.9637297,,26.25539,0.1,270.04022,1607638867656
Fix,GT,37.3166637,-121.9640196,,25.877735,0.1,269.3769,1607638868642
Fix,GT,37.3166594,-121.9643153,,25.590126,0.1,268.62708,1607638869662
Fix,GT,37.3166526,-121.9646011,,25.466703,0.1,268.0326,1607638870655
Fix,GT,37.3166438,-121.9648908,,25.518105,0.1,267.66144,1607638871664
Fix,GT,37.3166343,-121.9651773,,25.78749,0.1,267.656,1607638872655
Fix,GT,37.3166252,-121.9654662,,26.18246,0.1,267.78174,1607638873642
Fix,GT,37.3166158,-121.9657668,,26.54615,0.1,267.64838,1607638874652
Fix,GT,37.316606,-121.9660663,,26.625385,0.1,267.58524,1607638875651
Fix,GT,37.316596,-121.9663696,,26.538359,0.1,267.6188,1607638876663
Fix,GT,37.3165862,-121.9666671,,26.578247,0.1,267.59845,1607638877658
Fix,GT,37.316576,-121.9669645,,26.824503,0.1,267.43396,1607638878647
Fix,GT,37.316565,-121.967272,,27.066002,0.1,267.26642,1607638879658
Fix,GT,37.316554,-121.9675757,,27.027523,0.1,267.39227,1607638880654
Fix,GT,37.3165441,-121.9678768,,26.801754,0.1,267.52655,1607638881646
Fix,GT,37.3165351,-121.9681801,,26.490868,0.1,267.9308,1607638882656
Fix,GT,37.3165301,-121.9684737,,26.140625,0.1,269.44144,1607638883645
Fix,GT,37.3165333,-121.968801,,25.729824,0.1,271.83307,1607638884763
Fix,GT,37.31654,-121.9689982,,25.51856,0.1,272.8307,1607638885446
Fix,GT,37.3165559,-121.9693377,,25.194847,0.1,273.3961,1607638886636
Fix,GT,37.3165694,-121.969627,,24.972042,0.1,272.82593,1607638887660
Fix,GT,37.3165797,-121.9699038,,24.719107,0.1,272.2416,1607638888648
Fix,GT,37.3165882,-121.9701842,,24.398827,0.1,271.73416,1607638889660
Fix,GT,37.3165955,-121.9704535,,24.085217,0.1,271.70248,1607638890646
Fix,GT,37.3166041,-121.9707204,,23.775951,0.1,272.4069,1607638891635
Fix,GT,37.3166177,-121.9709921,,23.450281,0.1,274.23642,1607638892657
Fix,GT,37.3166382,-121.9712512,,23.187164,0.1,276.30008,1607638893648
Fix,GT,37.316666,-121.9715126,,22.935392,0.1,277.98383,1607638894662
Fix,GT,37.3166982,-121.9717622,,22.71489,0.1,279.64584,1607638895643
Fix,GT,37.3167376,-121.9720101,,22.51886,0.1,282.19962,1607638896634
Fix,GT,37.3167888,-121.9722608,,22.369682,0.1,285.69073,1607638897657
Fix,GT,37.3168509,-121.9724979,,22.2618,0.1,289.53262,1607638898649
Fix,GT,37.3169253,-121.9727328,,22.078327,0.1,292.834,1607638899659
Fix,GT,37.3170068,-121.972955,,21.806454,0.1,295.52954,1607638900647
Fix,GT,37.3170965,-121.9731711,,21.378496,0.1,296.72916,1607638901638
Fix,GT,37.3172131,-121.9733746,,20.794119,0.1,296.73404,1607638902658
Fix,GT,37.3173518,-121.9735488,,19.47511,0.1,296.39023,1607638903649
Fix,GT,37.3175574,-121.9736822,,16.892467,0.1,295.87082,1607638904661
Fix,GT,37.3174954,-121.9738865,,13.48353,0.1,296.46738,1607638905653
Fix,GT,37.3174521,-121.9740452,,10.35427,0.1,298.64966,1607638906667
Fix,GT,37.3174971,-121.9741323,,8.420784,0.1,304.80728,1607638907658
Fix,GT,37.3175461,-121.9741972,,7.7147493,0.1,316.2623,1607638908650
Fix,GT,37.317604,-121.9742439,,7.5207195,0.1,330.20694,1607638909662
Fix,GT,37.3176677,-121.9742686,,7.525507,0.1,345.78192,1607638910654
Fix,GT,37.3177345,-121.9742733,,7.5527964,0.1,358.37518,1607638911645
Fix,GT,37.3178028,-121.9742687,,7.4523087,0.1,2.9440918,1607638912657
Fix,GT,37.3178706,-121.9742626,,7.722663,0.1,3.895111,1607638913649
Fix,GT,37.3179412,-121.9742547,,7.9224887,0.1,5.6460876,1607638914657
Fix,GT,37.31801,-121.9742384,,7.7598543,0.1,12.152344,1607638915648
Fix,GT,37.3180721,-121.9742111,,6.6510067,0.1,21.346436,1607638916646
Fix,GT,37.3181177,-121.9741794,,4.6375265,0.1,29.279297,1607638917657
Fix,GT,37.318145,-121.9741556,,2.9174976,0.1,32.803955,1607638918649
Fix,GT,37.3181609,-121.9741411,,1.525813,0.1,33.456573,1607638919661
Fix,GT,37.3181669,-121.9741356,,0.38902843,0.1,33.4787,1607638920653
Fix,GT,37.3181679,-121.9741349,,0.023032356,0.1,33.486084,1607638921645
Fix,GT,37.3181681,-121.9741352,,0.019939734,0.1,33.491394,1607638922657
Fix,GT,37.3181685,-121.9741354,,0.017523723,0.1,33.49295,1607638923649
Fix,GT,37.318169,-121.9741356,,0.01568104,0.1,33.49228,1607638924664
Fix,GT,37.3181693,-121.9741356,,0.013517518,0.1,33.49115,1607638925652
Fix,GT,37.3181696,-121.9741356,,0.010844341,0.1,33.4899,1607638926665
Fix,GT,37.3181698,-121.9741356,,0.008691281,0.1,33.48886,1607638927657
Fix,GT,37.31817,-121.9741356,,0.0063225795,0.1,33.487793,1607638928649
Fix,GT,37.3181702,-121.9741356,,0.0051960675,0.1,33.48645,1607638929660
Fix,GT,37.3181702,-121.9741356,,0.005954866,0.1,33.485107,1607638930656
Fix,GT,37.3181702,-121.9741356,,0.0069219815,0.1,33.483826,1607638931642
Fix,GT,37.3181702,-121.9741356,,0.0077624954,0.1,33.482605,1607638932647
Fix,GT,37.3181702,-121.9741355,,0.009223938,0.1,33.481415,1607638933650
Fix,GT,37.3181702,-121.9741355,,0.010239348,0.1,33.480347,1607638934660
Fix,GT,37.3181701,-121.9741355,,0.0112669,0.1,33.479218,1607638935653
Fix,GT,37.3181701,-121.9741355,,0.0117047,0.1,33.477966,1607638936664
Fix,GT,37.31817,-121.9741355,,0.012324434,0.1,33.476776,1607638937656
Fix,GT,37.3181699,-121.9741355,,0.012036043,0.1,33.47525,1607638938649
Fix,GT,37.3181698,-121.9741354,,0.010710841,0.1,33.474457,1607638939659
Fix,GT,37.3181698,-121.9741354,,0.010356475,0.1,33.473297,1607638940653
Fix,GT,37.3181697,-121.9741353,,0.009805953,0.1,33.47174,1607638941665
Fix,GT,37.3181697,-121.9741353,,0.008863119,0.1,33.470306,1607638942661
Fix,GT,37.3181696,-121.9741353,,0.007941029,0.1,33.468933,1607638943649
Fix,GT,37.3181696,-121.9741352,,0.006136459,0.1,33.46768,1607638944663
Fix,GT,37.3181696,-121.9741352,,0.0053851646,0.1,33.46649,1607638945652
Fix,GT,37.3181696,-121.9741351,,0.0042438316,0.1,33.465332,1607638946641
Fix,GT,37.3181696,-121.9741351,,0.0030963577,0.1,33.46399,1607638947655
Fix,GT,37.3181696,-121.9741351,,0.0028284271,0.1,33.462524,1607638948650
Fix,GT,37.3181696,-121.974135,,0.002437035,0.1,33.461,1607638949660
Fix,GT,37.3181696,-121.974135,,0.0020817467,0.1,33.459686,1607638950653
Fix,GT,37.3181696,-121.974135,,0.008251189,0.1,33.459076,1607638951664
Fix,GT,37.3181697,-121.9741349,,0.006606856,0.1,33.461426,1607638952658
Fix,GT,37.3181697,-121.9741349,,0.0033937935,0.1,33.46158,1607638953649
Fix,GT,37.3181697,-121.9741349,,0.003975573,0.1,33.459778,1607638954662
Fix,GT,37.3181697,-121.9741349,,0.004881163,0.1,33.458466,1607638955652
Fix,GT,37.3181697,-121.9741349,,0.006410804,0.1,33.457306,1607638956665
Fix,GT,37.3181696,-121.9741349,,0.006832554,0.1,33.45578,1607638957657
Fix,GT,37.3181695,-121.9741349,,0.00848252,0.1,33.454224,1607638958650
Fix,GT,37.31817,-121.9741345,,0.31427523,0.1,33.453735,1607638959662
Fix,GT,37.3181752,-121.9741299,,1.2078271,0.1,33.791046,1607638960655
Fix,GT,37.3181891,-121.9741177,,2.5462327,0.1,34.50177,1607638961665
Fix,GT,37.3182127,-121.9740967,,3.7828689,0.1,35.067535,1607638962659
Fix,GT,37.3182448,-121.9740786,,4.1342125,0.1,23.725891,1607638963650
Fix,GT,37.3182767,-121.9740915,,3.8768854,0.1,347.00687,1607638964662
Fix,GT,37.3182874,-121.9741321,,3.9682512,0.1,300.02734,1607638965653
Fix,GT,37.3182684,-121.9741752,,5.044608,0.1,250.79741,1607638966666
Fix,GT,37.3182261,-121.97421,,6.9109273,0.1,218.42485,1607638967658
Fix,GT,37.3181648,-121.9742488,,8.804185,0.1,207.18294,1607638968649
Fix,GT,37.3180862,-121.9742957,,10.417792,0.1,205.55435,1607638969661
Fix,GT,37.3179975,-121.9743507,,11.487842,0.1,207.0134,1607638970655
Fix,GT,37.3179046,-121.974414,,11.665923,0.1,209.16461,1607638971664
Fix,GT,37.3178155,-121.97448,,11.417266,0.1,211.13576,1607638972659
Fix,GT,37.3177311,-121.9745467,,11.130552,0.1,212.42336,1607638973641
Fix,GT,37.3176487,-121.9746138,,10.857166,0.1,212.91724,1607638974634
Fix,GT,37.3175668,-121.974681,,10.631393,0.1,213.16725,1607638975645
Fix,GT,37.3174861,-121.9747481,,10.446392,0.1,213.4722,1607638976667
Fix,GT,37.3174076,-121.9748136,,10.6733,0.1,213.51358,1607638977660
Fix,GT,37.3173265,-121.9748815,,11.294424,0.1,213.76888,1607638978648
Fix,GT,37.3172386,-121.9749556,,11.956761,0.1,213.96979,1607638979659
Fix,GT,37.3171482,-121.9750317,,12.177152,0.1,214.08653,1607638980656
Fix,GT,37.3170575,-121.975109,,11.930973,0.1,214.35185,1607638981664
Fix,GT,37.3169714,-121.9751807,,11.004923,0.1,213.04877,1607638982658
Fix,GT,37.3168911,-121.9752351,,9.650785,0.1,204.9734,1607638983650
Fix,GT,37.3168109,-121.9752544,,8.818147,0.1,184.28842,1607638984664
Fix,GT,37.3167401,-121.9752285,,8.486417,0.1,157.3363,1607638985654
Fix,GT,37.3166877,-121.975163,,8.557776,0.1,129.67523,1607638986667
Fix,GT,37.3166557,-121.9750753,,9.103056,0.1,112.503876,1607638987658
Fix,GT,37.3166313,-121.9749747,,9.803691,0.1,106.734344,1607638988650
Fix,GT,37.3166068,-121.9748617,,10.866146,0.1,105.19055,1607638989662
Fix,GT,37.3165816,-121.9747366,,12.257114,0.1,104.16727,1607638990654
Fix,GT,37.3165543,-121.974597,,13.387873,0.1,103.9259,1607638991645
Fix,GT,37.3165239,-121.9744435,,14.314564,0.1,104.03375,1607638992658
Fix,GT,37.3164915,-121.9742824,,15.410476,0.1,104.30658,1607638993650
Fix,GT,37.3164552,-121.9741051,,16.634472,0.1,104.5289,1607638994662
Fix,GT,37.3164169,-121.9739185,,17.770405,0.1,104.30789,1607638995654
Fix,GT,37.3163772,-121.9737167,,18.579878,0.1,103.70233,1607638996665
Fix,GT,37.3163388,-121.9735131,,18.99204,0.1,103.02164,1607638997651
Fix,GT,37.3163023,-121.9733023,,19.314936,0.1,101.73071,1607638998650
Fix,GT,37.3162704,-121.9730852,,19.39072,0.1,99.45761,1607638999660
Fix,GT,37.3162467,-121.9728708,,19.222458,0.1,96.875,1607639000654
Fix,GT,37.3162299,-121.9726536,,19.062729,0.1,94.77222,1607639001667
Fix,GT,37.3162182,-121.9724409,,19.142601,0.1,93.632965,1607639002657
Fix,GT,37.3162084,-121.972226,,19.293348,0.1,93.16431,1607639003650
Fix,GT,37.3161984,-121.9720053,,19.370853,0.1,93.380005,1607639004663
Fix,GT,37.3161875,-121.9717903,,19.419266,0.1,93.8739,1607639005647
Fix,GT,37.3161751,-121.9715732,,19.516712,0.1,94.365845,1607639006639
Fix,GT,37.3161611,-121.9713479,,19.852491,0.1,94.5459,1607639007658
Fix,GT,37.3161475,-121.9711218,,20.576056,0.1,94.100586,1607639008653
Fix,GT,37.3161362,-121.9708969,,21.49437,0.1,93.23547,1607639009603
Fix,GT,37.3161263,-121.970624,,22.362984,0.1,92.114624,1607639010705
Fix,GT,37.316121,-121.9703718,,22.854939,0.1,91.07483,1607639011694
Fix,GT,37.3161205,-121.9700903,,23.254587,0.1,89.37143,1607639012777
Fix,GT,37.3161248,-121.9698595,,23.591953,0.1,88.263306,1607639013651
Fix,GT,37.3161324,-121.9695879,,24.047905,0.1,87.85245,1607639014663
Fix,GT,37.3161404,-121.9693178,,24.480991,0.1,87.88678,1607639015649
Fix,GT,37.3161484,-121.9690433,,24.795115,0.1,87.80249,1607639016638
Fix,GT,37.3161572,-121.9687563,,25.083775,0.1,87.69272,1607639017658
Fix,GT,37.3161659,-121.9684739,,25.386436,0.1,87.750854,1607639018651
Fix,GT,37.3161748,-121.968183,,25.675547,0.1,87.80182,1607639019662
Fix,GT,37.3161829,-121.967895,,26.181976,0.1,88.01373,1607639020648
Fix,GT,37.316191,-121.967598,,27.080055,0.1,87.90631,1607639021638
Fix,GT,37.3162007,-121.9672826,,27.491135,0.1,87.58801,1607639022660
Fix,GT,37.3162104,-121.9669774,,27.145327,0.1,87.75003,1607639023649
Fix,GT,37.3162199,-121.9666712,,26.519342,0.1,87.746704,1607639024661
Fix,GT,37.3162292,-121.9663779,,25.883976,0.1,87.653534,1607639025654
Fix,GT,37.3162385,-121.9660854,,25.365849,0.1,87.6543,1607639026667
Fix,GT,37.3162475,-121.9658045,,24.888027,0.1,87.64572,1607639027658
Fix,GT,37.3162563,-121.9655292,,24.398048,0.1,87.63495,1607639028650
Fix,GT,37.3162651,-121.9652537,,23.945816,0.1,87.57794,1607639029661
Fix,GT,37.3162743,-121.964988,,23.517838,0.1,87.321625,1607639030654
Fix,GT,37.3162833,-121.9647221,,23.094881,0.1,87.6727,1607639031666
Fix,GT,37.3162901,-121.9644659,,22.683437,0.1,88.41901,1607639032659
Fix,GT,37.3162946,-121.9642141,,22.409166,0.1,88.839355,1607639033650
Fix,GT,37.3162981,-121.9639596,,22.195019,0.1,89.10376,1607639034661
Fix,GT,37.3162999,-121.9637126,,21.95342,0.1,89.7489,1607639035653
Fix,GT,37.3162986,-121.9634636,,21.572079,0.1,90.75485,1607639036667
Fix,GT,37.3162953,-121.963225,,21.027332,0.1,91.03897,1607639037660
Fix,GT,37.3162921,-121.9629939,,20.370392,0.1,90.80307,1607639038649
Fix,GT,37.3162892,-121.9627649,,19.82326,0.1,90.800934,1607639039661
Fix,GT,37.3162862,-121.9625438,,19.583237,0.1,90.881836,1607639040657
Fix,GT,37.3162833,-121.9623204,,19.63146,0.1,90.804016,1607639041668
Fix,GT,37.3162809,-121.9621004,,20.016808,0.1,90.74841,1607639042653
Fix,GT,37.3162778,-121.961872,,20.711935,0.1,90.98288,1607639043649
Fix,GT,37.316274,-121.9616305,,21.566551,0.1,90.86838,1607639044662
Fix,GT,37.3162707,-121.9613844,,22.4122,0.1,90.73395,1607639045654
Fix,GT,37.3162682,-121.9611242,,23.224611,0.1,90.53262,1607639046665
Fix,GT,37.316266,-121.9608621,,23.872238,0.1,90.55994,1607639047649
Fix,GT,37.3162633,-121.9605926,,23.998386,0.1,90.7702,1607639048647
Fix,GT,37.3162597,-121.9603193,,23.821787,0.1,90.93094,1607639049660
Fix,GT,37.3162559,-121.9600522,,23.738972,0.1,90.96777,1607639050656
Fix,GT,37.3162525,-121.959783,,23.746159,0.1,90.7392,1607639051662
Fix,GT,37.3162498,-121.9595165,,23.842148,0.1,90.81262,1607639052655
Fix,GT,37.3162464,-121.9592477,,23.982227,0.1,90.90683,1607639053651
Fix,GT,37.3162433,-121.9589907,,23.922707,0.1,90.70206,1607639054602
Fix,GT,37.3162412,-121.9586762,,23.618607,0.1,90.13376,1607639055774
Fix,GT,37.3162417,-121.9584382,,23.562302,0.1,89.59192,1607639056669
Fix,GT,37.3162443,-121.9581748,,23.65588,0.1,88.98761,1607639057658
Fix,GT,37.3162489,-121.9579102,,23.604036,0.1,88.54663,1607639058650
Fix,GT,37.3162556,-121.9576422,,23.355974,0.1,87.831726,1607639059661
Fix,GT,37.3162648,-121.9573818,,23.26565,0.1,87.150665,1607639060655
Fix,GT,37.3162767,-121.9571146,,23.6958,0.1,86.51987,1607639061668
Fix,GT,37.3162909,-121.9568468,,24.345774,0.1,85.93335,1607639062658
Fix,GT,37.3163075,-121.9565726,,24.770855,0.1,85.431854,1607639063650
Fix,GT,37.3163263,-121.956288,,25.304379,0.1,85.03882,1607639064661
Fix,GT,37.3163464,-121.9560026,,25.807003,0.1,84.94519,1607639065655
Fix,GT,37.3163673,-121.9557081,,26.02069,0.1,84.893555,1607639066665
Fix,GT,37.3163882,-121.9554184,,25.875399,0.1,84.82062,1607639067658
Fix,GT,37.3164069,-121.9551315,,25.614414,0.1,85.68579,1607639068649
Fix,GT,37.3164215,-121.9548395,,25.695765,0.1,86.83002,1607639069661
Fix,GT,37.3164315,-121.9545506,,25.867208,0.1,87.92236,1607639070654
Fix,GT,37.3164379,-121.9542557,,25.73835,0.1,88.60895,1607639071666
Fix,GT,37.3164416,-121.9539695,,25.44795,0.1,88.68634,1607639072656
Fix,GT,37.3164458,-121.9536862,,25.0813,0.1,88.58426,1607639073650
Fix,GT,37.3164506,-121.9534036,,24.66011,0.1,88.48581,1607639074657
Fix,GT,37.316456,-121.9531303,,24.223377,0.1,88.26599,1607639075649
Fix,GT,37.3164617,-121.9528605,,23.785923,0.1,88.2081,1607639076645
Fix,GT,37.3164671,-121.9525918,,23.141565,0.1,88.41528,1607639077659
Fix,GT,37.3164716,-121.9523414,,21.344528,0.1,88.56323,1607639078651
Fix,GT,37.316475,-121.9521128,,18.631046,0.1,88.690155,1607639079663
Fix,GT,37.3164774,-121.9519201,,15.857103,0.1,88.67767,1607639080656
Fix,GT,37.3164783,-121.9517552,,13.017635,0.1,90.27609,1607639081667
Fix,GT,37.3164663,-121.9516268,,10.269166,0.1,101.40411,1607639082660
Fix,GT,37.3164349,-121.9515331,,8.3159485,0.1,118.97177,1607639083650
Fix,GT,37.3163877,-121.9514728,,6.7927785,0.1,139.91998,1607639084658
Fix,GT,37.3163392,-121.9514447,,5.253159,0.1,157.88434,1607639085651
Fix,GT,37.3163008,-121.9514333,,3.5849595,0.1,166.6416,1607639086643
Fix,GT,37.3162767,-121.9514279,,1.7364206,0.1,168.68707,1607639087656
Fix,GT,37.3162687,-121.9514264,,0.42990404,0.1,168.86536,1607639088647
Fix,GT,37.3162674,-121.9514264,,0.060571752,0.1,168.8717,1607639089661
Fix,GT,37.316267,-121.9514266,,0.05082426,0.1,168.87018,1607639090653
Fix,GT,37.3162668,-121.9514268,,0.042855896,0.1,168.86945,1607639091645
Fix,GT,37.3162667,-121.9514268,,0.035194337,0.1,168.86865,1607639092654
Fix,GT,37.3162667,-121.9514268,,0.02785294,0.1,168.86786,1607639093648
Fix,GT,37.3162667,-121.9514268,,0.022379521,0.1,168.86731,1607639094660
Fix,GT,37.3162667,-121.9514268,,0.01757147,0.1,168.86688,1607639095652
Fix,GT,37.3162667,-121.9514268,,0.01296814,0.1,168.86633,1607639096644
Fix,GT,37.3162667,-121.9514268,,0.008687823,0.1,168.8656,1607639097658
Fix,GT,37.3162667,-121.9514268,,0.005228456,0.1,168.86493,1607639098649
Fix,GT,37.3162667,-121.9514268,,0.0020568767,0.1,168.86407,1607639099661
Fix,GT,37.3162667,-121.9514268,,0.0032668887,0.1,168.86346,1607639100652
Fix,GT,37.3162667,-121.9514268,,0.0065651024,0.1,168.86292,1607639101665
Fix,GT,37.3162667,-121.9514268,,0.009694022,0.1,168.86218,1607639102658
Fix,GT,37.3162668,-121.9514268,,0.012612092,0.1,168.86127,1607639103650
Fix,GT,37.3162669,-121.9514267,,0.016803894,0.1,168.86047,1607639104661
Fix,GT,37.316267,-121.9514266,,0.022735987,0.1,168.85986,1607639105654
Fix,GT,37.3162673,-121.9514265,,0.029061537,0.1,168.85931,1607639106642
Fix,GT,37.3162677,-121.9514264,,0.036283262,0.1,168.85876,1607639107654
Fix,GT,37.3162681,-121.9514262,,0.04487305,0.1,168.85803,1607639108650
Fix,GT,37.3162678,-121.9514257,,0.30291045,0.1,168.86584,1607639109662
Fix,GT,37.3162601,-121.9514232,,1.6993301,0.1,168.63098,1607639110655
Fix,GT,37.3162376,-121.9514132,,3.5645804,0.1,163.1903,1607639111668
Fix,GT,37.3162046,-121.9513875,,5.2185626,0.1,150.02347,1607639112658
Fix,GT,37.316169,-121.9513391,,6.4838367,0.1,131.76361,1607639113651
Fix,GT,37.3161426,-121.9512711,,6.7937946,0.1,113.39743,1607639114663
Fix,GT,37.3161338,-121.9511964,,7.030922,0.1,96.62842,1607639115654
Fix,GT,37.3161336,-121.951114,,7.9326344,0.1,90.52893,1607639116645
Fix,GT,37.3161333,-121.9510188,,9.798916,0.1,90.87277,1607639117598
Fix,GT,37.3161309,-121.9508834,,11.562933,0.1,91.98526,1607639118707
Fix,GT,37.316127,-121.9507409,,11.799009,0.1,92.096954,1607639119781
Fix,GT,37.3161241,-121.9506335,,11.634882,0.1,92.247375,1607639120594
Fix,GT,37.3161198,-121.9504906,,10.8990345,0.1,92.494354,1607639121707
Fix,GT,37.3161181,-121.9503683,,9.289237,0.1,89.2164,1607639122777
Fix,GT,37.3161264,-121.9502824,,8.43657,0.1,81.100464,1607639123650
Fix,GT,37.3161526,-121.9501984,,7.658206,0.1,64.03522,1607639124662
Fix,GT,37.3161976,-121.9501408,,7.263756,0.1,40.59601,1607639125647
Fix,GT,37.3162568,-121.9501145,,7.389824,0.1,15.474426,1607639126635
Fix,GT,37.3163263,-121.9501105,,7.976615,0.1,1.7500916,1607639127659
Fix,GT,37.316401,-121.950113,,8.735043,0.1,359.077,1607639128652
Fix,GT,37.3164821,-121.9501154,,9.034397,0.1,359.1635,1607639129662
Fix,GT,37.3165622,-121.9501174,,8.97896,0.1,359.2963,1607639130648
Fix,GT,37.3166249,-121.9501187,,8.71205,0.1,359.43414,1607639131435
Fix,GT,37.3167004,-121.9501199,,7.9281874,0.1,359.75095,1607639132435
Fix,GT,37.3167659,-121.9501204,,6.4930964,0.1,0.0048828125,1607639133435
Fix,GT,37.3168156,-121.9501207,,4.5475082,0.1,0.097473145,1607639134435
Fix,GT,37.3168478,-121.9501208,,2.69374,0.1,0.16888428,1607639135435
Fix,GT,37.3168649,-121.9501209,,1.1747758,0.1,0.2909546,1607639136435
Fix,GT,37.3168706,-121.9501209,,0.20425738,0.1,0.32855225,1607639137435
Fix,GT,37.3168708,-121.950121,,0.007836637,0.1,0.32974243,1607639138435
Fix,GT,37.3168708,-121.950121,,0.0049905046,0.1,0.32766724,1607639139435
Fix,GT,37.3168708,-121.950121,,0.003091544,0.1,0.32632446,1607639140435
Fix,GT,37.3168708,-121.950121,,0.0030707335,0.1,0.3251953,1607639141435
Fix,GT,37.3168708,-121.950121,,0.0037332186,0.1,0.32406616,1607639142435
Fix,GT,37.3168708,-121.950121,,0.004372103,0.1,0.32302856,1607639143435
Fix,GT,37.3168708,-121.950121,,0.0045727585,0.1,0.32202148,1607639144435
Fix,GT,37.3168708,-121.950121,,0.005611594,0.1,0.32092285,1607639145435
Fix,GT,37.3168708,-121.950121,,0.006403124,0.1,0.31985474,1607639146435
Fix,GT,37.3168708,-121.950121,,0.006403124,0.1,0.31884766,1607639147435
Fix,GT,37.3168711,-121.950121,,0.12700388,0.1,0.3208313,1607639148435
Fix,GT,37.3168735,-121.9501209,,0.43650633,0.1,0.32284546,1607639149435
Fix,GT,37.3168784,-121.9501208,,0.6032307,0.1,0.31970215,1607639150435
Fix,GT,37.3168835,-121.9501207,,0.48184443,0.1,0.3163147,1607639151435
Fix,GT,37.316887,-121.9501208,,0.27740163,0.1,0.3126526,1607639152435
Fix,GT,37.3168886,-121.9501207,,0.08575144,0.1,0.3097229,1607639153435
Fix,GT,37.3168888,-121.9501207,,0.006358802,0.1,0.3086853,1607639154435
Fix,GT,37.3168888,-121.9501207,,0.006403124,0.1,0.30734253,1607639155435
Fix,GT,37.3168888,-121.9501207,,0.006403124,0.1,0.30618286,1607639156435
Fix,GT,37.3168888,-121.9501207,,0.0057915305,0.1,0.30514526,1607639157435
Fix,GT,37.3168888,-121.9501207,,0.00528631,0.1,0.30438232,1607639158435
Fix,GT,37.3168888,-121.9501207,,0.0053705443,0.1,0.30355835,1607639159435
Fix,GT,37.3168888,-121.9501207,,0.005,0.1,0.30264282,1607639160435
Fix,GT,37.3168888,-121.9501207,,0.004769915,0.1,0.3017273,1607639161435
Fix,GT,37.3168888,-121.9501207,,0.0048701065,0.1,0.30081177,1607639162435
Fix,GT,37.3168888,-121.9501207,,0.0053851646,0.1,0.2996521,1607639163435
Fix,GT,37.3168888,-121.9501207,,0.0049871937,0.1,0.29837036,1607639164435
Fix,GT,37.3168888,-121.9501207,,0.0044721356,0.1,0.29730225,1607639165435
Fix,GT,37.3168888,-121.9501207,,0.0044721356,0.1,0.2963562,1607639166435
Fix,GT,37.3168888,-121.9501207,,0.0044721356,0.1,0.2954712,1607639167435
Fix,GT,37.3168888,-121.9501207,,0.0044721356,0.1,0.29455566,1607639168435
Fix,GT,37.3168888,-121.9501207,,0.0044721356,0.1,0.2935791,1607639169435
Fix,GT,37.3168888,-121.9501207,,0.0048701065,0.1,0.29244995,1607639170435
Fix,GT,37.3168888,-121.9501207,,0.0053851646,0.1,0.29125977,1607639171435
Fix,GT,37.3168888,-121.9501207,,0.0053851646,0.1,0.2902527,1607639172435
Fix,GT,37.3168888,-121.9501207,,0.0055794744,0.1,0.28930664,1607639173435
Fix,GT,37.3168888,-121.9501207,,0.00608035,0.1,0.28845215,1607639174435
Fix,GT,37.3168888,-121.9501207,,0.0066942675,0.1,0.2875061,1607639175435
Fix,GT,37.3168888,-121.9501207,,0.008476589,0.1,0.28601074,1607639176435
Fix,GT,37.3168888,-121.9501207,,0.0102956295,0.1,0.28445435,1607639177435
Fix,GT,37.3168888,-121.9501207,,0.011269531,0.1,0.2835083,1607639178435
Fix,GT,37.3168887,-121.9501207,,0.013438599,0.1,0.28240967,1607639179649
Fix,GT,37.3168887,-121.9501207,,0.013928388,0.1,0.28207397,1607639180764
Fix,GT,37.3168899,-121.9501207,,0.32261437,0.1,0.28137207,1607639181454
Fix,GT,37.3168976,-121.9501206,,1.1145085,0.1,0.27200317,1607639182667
Fix,GT,37.3169095,-121.9501206,,1.5307426,0.1,0.25967407,1607639183658
Fix,GT,37.3169244,-121.9501206,,1.8511592,0.1,0.21517944,1607639184651
Fix,GT,37.3169445,-121.9501207,,2.5857444,0.1,0.15911865,1607639185663
Fix,GT,37.3169731,-121.9501208,,3.8585532,0.1,0.092041016,1607639186655
Fix,GT,37.3170155,-121.9501209,,5.2937565,0.1,0.052703857,1607639187668
Fix,GT,37.3170656,-121.9501212,,5.7656193,0.1,0.08529663,1607639188660
Fix,GT,37.3171172,-121.9501229,,5.8578453,0.1,358.01004,1607639189650
Fix,GT,37.317159,-121.9501311,,5.9976797,0.1,351.1471,1607639190445
Fix,GT,37.3172089,-121.9501565,,6.1276693,0.1,335.58688,1607639191445
Fix,GT,37.31725,-121.9502027,,6.4422145,0.1,315.93848,1607639192445
Fix,GT,37.3172771,-121.9502699,,7.2410765,0.1,294.15298,1607639193445
Fix,GT,37.3172847,-121.9503552,,8.273758,0.1,273.92218,1607639194445
Fix,GT,37.3172777,-121.950455,,9.653979,0.1,264.3927,1607639195445
Fix,GT,37.3172669,-121.9505728,,11.424778,0.1,263.93628,1607639196445
Fix,GT,37.3172547,-121.9507107,,13.079772,0.1,263.93155,1607639197445
Fix,GT,37.3172408,-121.9508647,,14.376419,0.1,263.75357,1607639198445
Fix,GT,37.3172255,-121.9510321,,15.477064,0.1,263.7437,1607639199445
Fix,GT,37.3172097,-121.9512106,,16.285328,0.1,263.99802,1607639200445
Fix,GT,37.3171938,-121.951396,,16.721043,0.1,264.00174,1607639201445
Fix,GT,37.3171772,-121.9515857,,17.133062,0.1,263.7716,1607639202445
Fix,GT,37.317159,-121.951781,,17.716621,0.1,263.32913,1607639203445
Fix,GT,37.3171385,-121.9519814,,18.053669,0.1,262.557,1607639204445
Fix,GT,37.3171163,-121.9521826,,17.932962,0.1,262.05,1607639205445
Fix,GT,37.3170934,-121.9523818,,17.739075,0.1,261.80862,1607639206445
Fix,GT,37.3170706,-121.9525794,,17.668097,0.1,261.87784,1607639207445
Fix,GT,37.317048,-121.9527777,,17.884415,0.1,262.0454,1607639208445
Fix,GT,37.3170252,-121.95298,,18.387306,0.1,262.02792,1607639209445
Fix,GT,37.3170015,-121.9531895,,19.15284,0.1,261.91003,1607639210445
Fix,GT,37.3169762,-121.9534084,,20.06276,0.1,261.79535,1607639211445
Fix,GT,37.3169497,-121.9536376,,21.009735,0.1,261.80096,1607639212445
Fix,GT,37.3169222,-121.9538772,,21.875404,0.1,261.83624,1607639213445
Fix,GT,37.3168937,-121.9541253,,22.517387,0.1,261.84094,1607639214445
Fix,GT,37.3168652,-121.9543786,,22.747967,0.1,262.12274,1607639215445
Fix,GT,37.3168375,-121.9546323,,22.595158,0.1,262.232,1607639216445
Fix,GT,37.3168102,-121.9548835,,22.347015,0.1,262.16327,1607639217445
Fix,GT,37.3167831,-121.9551318,,22.080753,0.1,262.37195,1607639218445
Fix,GT,37.3167575,-121.9553772,,21.803474,0.1,262.78854,1607639219445
Fix,GT,37.3167343,-121.9556205,,21.647348,0.1,263.4631,1607639220445
Fix,GT,37.3167122,-121.9558634,,21.743504,0.1,263.33713,1607639221445
Fix,GT,37.3166876,-121.9561088,,22.216185,0.1,262.38696,1607639222445
Fix,GT,37.3166604,-121.9563615,,23.060345,0.1,262.43567,1607639223445
Fix,GT,37.3166347,-121.9566251,,24.010448,0.1,263.56308,1607639224445
Fix,GT,37.3166135,-121.9569001,,24.961994,0.1,265.1342,1607639225445
Fix,GT,37.3165974,-121.9571863,,25.892887,0.1,266.506,1607639226445
Fix,GT,37.3165829,-121.9575434,,26.995434,0.1,267.4679,1607639227644
Fix,GT,37.3165733,-121.9578571,,27.891945,0.1,268.09848,1607639228657
Fix,GT,37.3165667,-121.9581731,,28.589832,0.1,268.7786,1607639229650
Fix,GT,37.316563,-121.9585034,,29.147884,0.1,269.58203,1607639230663
Fix,GT,37.316563,-121.9588322,,29.645002,0.1,270.39563,1607639231655
Fix,GT,37.3165665,-121.9591738,,30.14896,0.1,271.01437,1607639232667
Fix,GT,37.3165719,-121.9595136,,30.629908,0.1,271.12878,1607639233659
Fix,GT,37.3165776,-121.9598576,,31.039356,0.1,271.24677,1607639234647
Fix,GT,37.3165842,-121.9602132,,31.319206,0.1,271.2873,1607639235658
Fix,GT,37.3165904,-121.9605666,,31.51123,0.1,271.14954,1607639236656
Fix,GT,37.3165965,-121.9609629,,31.625174,0.1,270.9355,1607639237769
Fix,GT,37.3166003,-121.9612448,,31.637753,0.1,270.8939,1607639238559
Fix,GT,37.316605,-121.9615986,,31.617844,0.1,270.99426,1607639239550
Fix,GT,37.3166105,-121.9619591,,31.546238,0.1,271.11063,1607639240562
Fix,GT,37.3166161,-121.9623109,,31.420364,0.1,271.08527,1607639241553
Fix,GT,37.3166205,-121.9626264,,31.287823,0.1,270.96274,1607639242445
Fix,GT,37.3166269,-121.9630862,,30.88044,0.1,271.12518,1607639243755
Fix,GT,37.3166303,-121.9633607,,30.546238,0.1,270.81107,1607639244548
Fix,GT,37.3166323,-121.9636742,,30.250977,0.1,270.0776,1607639245462
Fix,GT,37.3166301,-121.964076,,29.921108,0.1,269.19427,1607639246646
Fix,GT,37.316624,-121.9644189,,29.64896,0.1,268.37527,1607639247667
Fix,GT,37.316615,-121.96475,,29.502697,0.1,267.88293,1607639248660
Fix,GT,37.316605,-121.9650786,,29.481552,0.1,267.8291,1607639249649
Fix,GT,37.3165949,-121.9654153,,29.5489,0.1,267.75952,1607639250661
Fix,GT,37.3165845,-121.9657439,,29.644379,0.1,267.65308,1607639251646
Fix,GT,37.3165734,-121.9660847,,29.671864,0.1,267.62933,1607639252665
Fix,GT,37.3165627,-121.9664162,,29.61839,0.1,267.5891,1607639253657
Fix,GT,37.3165514,-121.9667472,,29.586945,0.1,267.39944,1607639254648
Fix,GT,37.3165391,-121.9670849,,29.51078,0.1,267.23032,1607639255662
Fix,GT,37.316527,-121.9674112,,29.36847,0.1,267.42258,1607639256646
Fix,GT,37.3165175,-121.9677409,,29.163437,0.1,268.44516,1607639257645
Fix,GT,37.3165144,-121.9680721,,28.884918,0.1,270.21786,1607639258656
Fix,GT,37.3165187,-121.9683936,,28.544437,0.1,271.5771,1607639259648
Fix,GT,37.316528,-121.9687183,,28.166965,0.1,272.43384,1607639260664
Fix,GT,37.3165416,-121.9690595,,27.752113,0.1,273.20386,1607639261746
Fix,GT,37.3165518,-121.9692749,,27.486893,0.1,273.42487,1607639262440
Fix,GT,37.3165691,-121.9696489,,27.024094,0.1,272.93576,1607639263658
Fix,GT,37.3165815,-121.969979,,26.62824,0.1,272.31723,1607639264750
Fix,GT,37.3165877,-121.9701909,,26.378643,0.1,271.89944,1607639265460
Fix,GT,37.3165974,-121.9705419,,25.965242,0.1,272.27698,1607639266649
Fix,GT,37.3166116,-121.9708608,,25.59219,0.1,273.99738,1607639267747
Fix,GT,37.3166256,-121.9710641,,25.37165,0.1,275.18213,1607639268457
Fix,GT,37.3166554,-121.971401,,25.00338,0.1,277.01135,1607639269649
Fix,GT,37.3166864,-121.9716792,,24.04496,0.1,278.5655,1607639270661
Fix,GT,37.3167224,-121.9719375,,22.882998,0.1,280.81403,1607639271654
Fix,GT,37.3167673,-121.9721832,,22.360659,0.1,284.56845,1607639272645
Fix,GT,37.3168277,-121.972427,,22.440031,0.1,289.02258,1607639273657
Fix,GT,37.3169007,-121.9726612,,22.51007,0.1,292.74393,1607639274648
Fix,GT,37.3169854,-121.9728934,,22.367374,0.1,295.635,1607639275656
Fix,GT,37.3170743,-121.9731165,,22.015118,0.1,296.8899,1607639276652
Fix,GT,37.3171623,-121.9733338,,21.475723,0.1,296.68622,1607639277644
Fix,GT,37.3172486,-121.973549,,20.607836,0.1,296.47845,1607639278656
Fix,GT,37.3173282,-121.9737482,,19.141588,0.1,296.3905,1607639279648
Fix,GT,37.3174018,-121.9739321,,16.60666,0.1,296.8063,1607639280663
Fix,GT,37.3174692,-121.9740789,,13.569067,0.1,302.26416,1607639281657
Fix,GT,37.3175388,-121.9741835,,11.003061,0.1,314.78522,1607639282646
Fix,GT,37.317614,-121.9742476,,9.066658,0.1,331.2386,1607639283658
Fix,GT,37.3176846,-121.9742744,,7.773658,0.1,346.41617,1607639284649
Fix,GT,37.3177527,-121.9742826,,7.3455877,0.1,355.37207,1607639285663
Fix,GT,37.3178192,-121.9742832,,7.5681973,0.1,359.53156,1607639286653
Fix,GT,37.3178882,-121.9742801,,7.7936664,0.1,2.068756,1607639287644
Fix,GT,37.3179589,-121.9742684,,7.738155,0.1,9.201569,1607639288658
Fix,GT,37.318024,-121.9742418,,7.6269264,0.1,19.814575,1607639289649
Fix,GT,37.318086,-121.9742027,,7.494869,0.1,27.904022,1607639290663
Fix,GT,37.31814,-121.9741611,,6.580184,0.1,31.89325,1607639291652
Fix,GT,37.3181825,-121.9741252,,4.6524916,0.1,33.83966,1607639292646
Fix,GT,37.3182092,-121.9741018,,2.4574752,0.1,34.446503,1607639293656
Fix,GT,37.3182199,-121.9740923,,0.6525506,0.1,34.513794,1607639294649
Fix,GT,37.3182219,-121.9740903,,0.04167638,0.1,34.524963,1607639295660
Fix,GT,37.3182218,-121.9740901,,0.020447075,0.1,34.52301,1607639296651
Fix,GT,37.3182218,-121.9740899,,0.013752219,0.1,34.520844,1607639297644
Fix,GT,37.3182217,-121.9740899,,0.009602964,0.1,34.519653,1607639298652
Fix,GT,37.3182216,-121.9740899,,0.007923622,0.1,34.518707,1607639299645
Fix,GT,37.3182216,-121.9740899,,0.0072083985,0.1,34.51758,1607639300661
Fix,GT,37.3182215,-121.97409,,0.007692366,0.1,34.51648,1607639301651
Fix,GT,37.3182215,-121.97409,,0.0075409096,0.1,34.51529,1607639302666
Fix,GT,37.3182214,-121.9740901,,0.006648264,0.1,34.51407,1607639303661
Fix,GT,37.3182214,-121.9740901,,0.0057129106,0.1,34.513,1607639304651
Fix,GT,37.3182213,-121.9740902,,0.0045480663,0.1,34.512115,1607639305663
Fix,GT,37.3182213,-121.9740902,,0.0033866037,0.1,34.51117,1607639306655
Fix,GT,37.3182213,-121.9740902,,0.003,0.1,34.50998,1607639307665
Fix,GT,37.3182213,-121.9740902,,0.0023418507,0.1,34.509094,1607639308658
Fix,GT,37.3182213,-121.9740902,,0.002,0.1,34.508575,1607639309651
Fix,GT,37.3182213,-121.9740902,,0.002,0.1,34.50757,1607639310662
Fix,GT,37.3182213,-121.9740902,,0.002,0.1,34.50659,1607639311655
Fix,GT,37.3182213,-121.9740902,,0.0026675714,0.1,34.505707,1607639312667
Fix,GT,37.3182213,-121.9740902,,0.0023415487,0.1,34.50479,1607639313658
Fix,GT,37.3182213,-121.9740902,,0.0026528498,0.1,34.503906,1607639314652
Fix,GT,37.3182213,-121.9740902,,0.003,0.1,34.50305,1607639315662
Fix,GT,37.3182213,-121.9740902,,0.0031061994,0.1,34.502167,1607639316654
Fix,GT,37.3182213,-121.9740902,,0.0030538905,0.1,34.50113,1607639317667
Fix,GT,37.3182213,-121.9740902,,0.0031070188,0.1,34.500153,1607639318659
Fix,GT,37.3182213,-121.9740902,,0.0031622776,0.1,34.499237,1607639319651
Fix,GT,37.3182213,-121.9740902,,0.003054577,0.1,34.498444,1607639320663
Fix,GT,37.3182213,-121.9740902,,0.003,0.1,34.49756,1607639321653
Fix,GT,37.3182213,-121.9740902,,0.003108303,0.1,34.497406,1607639322667
Fix,GT,37.3182213,-121.9740902,,0.0031622779,0.1,34.49707,1607639323658
Fix,GT,37.3182213,-121.9740902,,0.0031622776,0.1,34.496002,1607639324650
Fix,GT,37.3182213,-121.9740902,,0.003059423,0.1,34.494965,1607639325633
Fix,GT,37.3182213,-121.9740902,,0.003,0.1,34.49405,1607639326646
Fix,GT,37.3182213,-121.9740902,,0.002363797,0.1,34.493256,1607639327636
Fix,GT,37.3182213,-121.9740902,,0.0026585665,0.1,34.492493,1607639328658
Fix,GT,37.3182213,-121.9740902,,0.003,0.1,34.491394,1607639329651
Fix,GT,37.3182213,-121.9740902,,0.003,0.1,34.490387,1607639330661
Fix,GT,37.3182213,-121.9740902,,0.003,0.1,34.48935,1607639331654
Fix,GT,37.3182213,-121.9740902,,0.003,0.1,34.488434,1607639332667
Fix,GT,37.3182213,-121.9740902,,0.003,0.1,34.48755,1607639333657
Fix,GT,37.3182213,-121.9740902,,0.003,0.1,34.486725,1607639334648
Fix,GT,37.3182213,-121.9740902,,0.003,0.1,34.48575,1607639335661
Fix,GT,37.3182213,-121.9740902,,0.0031064467,0.1,34.48459,1607639336655
Fix,GT,37.3182213,-121.9740902,,0.0031622774,0.1,34.48349,1607639337668
Fix,GT,37.3182213,-121.9740902,,0.003055457,0.1,34.482513,1607639338658
Fix,GT,37.3182213,-121.9740902,,0.003,0.1,34.481537,1607639339652
Fix,GT,37.3182213,-121.9740902,,0.003,0.1,34.480408,1607639340662
Fix,GT,37.3182213,-121.9740902,,0.0031062234,0.1,34.47867,1607639341654
Fix,GT,37.3182213,-121.9740902,,0.0024133394,0.1,34.47766,1607639342644
Fix,GT,37.3182213,-121.9740902,,0.0027643335,0.1,34.4769,1607639343657
Fix,GT,37.3182213,-121.9740902,,0.0030566202,0.1,34.476135,1607639344651
Fix,GT,37.3182213,-121.9740902,,0.0024928125,0.1,34.475067,1607639345663
Fix,GT,37.3182213,-121.9740902,,0.002736989,0.1,34.473663,1607639346655
Fix,GT,37.3182213,-121.9740902,,0.003,0.1,34.473053,1607639347666
Fix,GT,37.3182213,-121.9740902,,0.003,0.1,34.47238,1607639348660
Fix,GT,37.3182213,-121.9740902,,0.0023497737,0.1,34.470764,1607639349650
Fix,GT,37.3182213,-121.9740902,,0.0021567119,0.1,34.469116,1607639350663
Fix,GT,37.3182213,-121.9740902,,0.0027363724,0.1,34.467743,1607639351654
Fix,GT,37.3182213,-121.9740902,,0.003,0.1,34.466614,1607639352665
Fix,GT,37.3182213,-121.9740902,,0.003,0.1,34.465607,1607639353659
Fix,GT,37.3182213,-121.9740902,,0.003,0.1,34.464355,1607639354651
Fix,GT,37.3182213,-121.9740902,,0.0037436334,0.1,34.462982,1607639355662
Fix,GT,37.3182213,-121.9740902,,0.0034957721,0.1,34.461792,1607639356652
Fix,GT,37.3182213,-121.9740902,,0.0031622776,0.1,34.460632,1607639357644
Fix,GT,37.3182213,-121.9740902,,0.0031622779,0.1,34.45929,1607639358656
Fix,GT,37.3182213,-121.9740902,,0.0037877988,0.1,34.45804,1607639359651
Fix,GT,37.3182213,-121.9740902,,0.003485612,0.1,34.456726,1607639360663
Fix,GT,37.3182213,-121.9740902,,0.0031622779,0.1,34.45526,1607639361654
Fix,GT,37.3182213,-121.9740902,,0.0031622774,0.1,34.454132,1607639362642
Fix,GT,37.3182213,-121.9740902,,0.0031622776,0.1,34.452972,1607639363656
Fix,GT,37.3182213,-121.9740902,,0.0031622776,0.1,34.45169,1607639364651
Fix,GT,37.3182213,-121.9740902,,0.0038000771,0.1,34.450134,1607639365663
Fix,GT,37.3182213,-121.9740902,,0.003501244,0.1,34.448547,1607639366647
Fix,GT,37.3182213,-121.9740902,,0.0034580957,0.1,34.446716,1607639367667
Fix,GT,37.3182213,-121.9740902,,0.0036055513,0.1,34.444824,1607639368660
Fix,GT,37.3182213,-121.9740902,,0.0036055513,0.1,34.44287,1607639369650
Fix,GT,37.3182213,-121.9740902,,0.0030900748,0.1,34.440643,1607639370663
Fix,GT,37.3182213,-121.9740902,,0.0033301392,0.1,34.438538,1607639371645
Fix,GT,37.3182213,-121.9740902,,0.0031052013,0.1,34.43628,1607639372643
Fix,GT,37.3182213,-121.9740902,,0.0024394412,0.1,34.43396,1607639373656
Fix,GT,37.3182213,-121.9740902,,0.002236068,0.1,34.431763,1607639374646
Fix,GT,37.3182212,-121.9740902,,0.0020795593,0.1,34.429626,1607639375662
Fix,GT,37.3182212,-121.9740903,,0.002152551,0.1,34.42737,1607639376646
Fix,GT,37.3182212,-121.9740904,,0.002236068,0.1,34.42502,1607639377645
Fix,GT,37.3182212,-121.9740904,,0.0016952602,0.1,34.422607,1607639378658
Fix,GT,37.3182212,-121.9740904,,0.001949081,0.1,34.420135,1607639379650
Fix,GT,37.3182212,-121.9740904,,0.002079673,0.1,34.417725,1607639380662
Fix,GT,37.3182212,-121.9740904,,0.002,0.1,34.415466,1607639381646
Fix,GT,37.3182212,-121.9740904,,0.0027491273,0.1,34.412933,1607639382644
Fix,GT,37.3182213,-121.9740904,,0.003453746,0.1,34.41031,1607639383657
Fix,GT,37.3182213,-121.9740904,,0.002717642,0.1,34.407715,1607639384648
Fix,GT,37.3182213,-121.9740904,,0.002079437,0.1,34.40509,1607639385663
Fix,GT,37.3182213,-121.9740904,,0.0021537682,0.1,34.40277,1607639386651
Fix,GT,37.3182213,-121.9740903,,0.002236068,0.1,34.400055,1607639387668
Fix,GT,37.3182213,-121.9740903,,0.00430788,0.1,34.39734,1607639388657
Fix,GT,37.3182213,-121.9740903,,0.007082085,0.1,34.39453,1607639389648
Fix,GT,37.3182212,-121.9740904,,0.010766066,0.1,34.391754,1607639390664
Fix,GT,37.3182212,-121.9740904,,0.015636886,0.1,34.389008,1607639391655
Fix,GT,37.3182211,-121.9740905,,0.021670595,0.1,34.38629,1607639392667
Fix,GT,37.318221,-121.9740905,,0.028735563,0.1,34.383575,1607639393657
Fix,GT,37.3182208,-121.9740906,,0.036851097,0.1,34.380737,1607639394648
Fix,GT,37.3182206,-121.9740907,,0.04693049,0.1,34.377716,1607639395658
Fix,GT,37.3182203,-121.9740908,,0.057249434,0.1,34.374756,1607639396655
Fix,GT,37.3182207,-121.9740903,,0.3874278,0.1,34.367004,1607639397666
Fix,GT,37.3182282,-121.9740842,,1.7470276,0.1,33.688843,1607639398658
Fix,GT,37.318249,-121.9740754,,3.005185,0.1,23.335815,1607639399652
Fix,GT,37.3182766,-121.974085,,3.3118396,0.1,352.5215,1607639400662
Fix,GT,37.3182922,-121.9741224,,3.53845,0.1,306.50555,1607639401754
Fix,GT,37.3182864,-121.9741516,,3.9008696,0.1,275.21957,1607639402445
Fix,GT,37.3182508,-121.9741942,,5.4608655,0.1,227.44702,1607639403658
Fix,GT,37.3182014,-121.9742275,,7.349797,0.1,210.59178,1607639404646
Fix,GT,37.3181342,-121.9742704,,9.082484,0.1,207.5482,1607639405660
Fix,GT,37.3180558,-121.9743207,,10.622985,0.1,207.20271,1607639406653
Fix,GT,37.3179656,-121.9743789,,11.464738,0.1,207.67508,1607639407666
Fix,GT,37.3178752,-121.9744403,,11.3835335,0.1,209.14766,1607639408657
Fix,GT,37.3177912,-121.9745016,,10.191431,0.1,211.00244,1607639409650
Fix,GT,37.3177197,-121.9745576,,8.187514,0.1,212.51898,1607639410663
Fix,GT,37.3176662,-121.9746009,,6.0920844,0.1,212.85359,1607639411654
Fix,GT,37.3176269,-121.9746329,,4.5672417,0.1,212.88028,1607639412646
Fix,GT,37.317596,-121.9746581,,3.6687665,0.1,212.98322,1607639413658
Fix,GT,37.3175705,-121.9746792,,3.2167773,0.1,213.16765,1607639414650
Fix,GT,37.3175467,-121.9746992,,3.0961962,0.1,213.33176,1607639415664
Fix,GT,37.3175234,-121.9747187,,3.265078,0.1,213.33301,1607639416656
Fix,GT,37.3174965,-121.9747409,,3.9001105,0.1,213.23994,1607639417667
Fix,GT,37.3174643,-121.9747676,,4.821979,0.1,213.04715,1607639418659
Fix,GT,37.3174228,-121.9748015,,6.3612223,0.1,213.00188,1607639419651
Fix,GT,37.3173674,-121.9748476,,8.206793,0.1,213.38385,1607639420663
Fix,GT,37.3173032,-121.9749014,,8.992565,0.1,213.74875,1607639421654
Fix,GT,37.3172342,-121.9749596,,9.238874,0.1,213.7648,1607639422666
Fix,GT,37.3171656,-121.9750171,,9.190421,0.1,213.80492,1607639423660
Fix,GT,37.317099,-121.9750729,,8.653263,0.1,213.73509,1607639424651
Fix,GT,37.3170381,-121.975124,,7.2972813,0.1,213.74783,1607639425661
Fix,GT,37.3169911,-121.9751632,,5.2842903,0.1,213.5351,1607639426652
Fix,GT,37.3169595,-121.975189,,3.0855994,0.1,212.89719,1607639427647
Fix,GT,37.3169432,-121.9752021,,1.1766832,0.1,212.47176,1607639428658
Fix,GT,37.3169389,-121.9752055,,0.20875028,0.1,212.385,1607639429652
Fix,GT,37.3169388,-121.9752057,,0.008477069,0.1,212.38017,1607639430662
Fix,GT,37.3169389,-121.9752057,,0.0076165805,0.1,212.37788,1607639431653
Fix,GT,37.3169389,-121.9752058,,0.0049020317,0.1,212.37589,1607639432646
Fix,GT,37.3169389,-121.9752057,,0.0028810396,0.1,212.37451,1607639433658
Fix,GT,37.3169389,-121.9752057,,0.002236068,0.1,212.3733,1607639434649
Fix,GT,37.3169389,-121.9752057,,0.0016914271,0.1,212.37202,1607639435662
Fix,GT,37.3169389,-121.9752057,,0.00048566674,0.1,212.3706,1607639436656
Fix,GT,37.3169389,-121.9752057,,0.00066772255,0.1,212.36902,1607639437667
Fix,GT,37.3169389,-121.9752057,,0.00034131212,0.1,212.36774,1607639438658
Fix,GT,37.3169389,-121.9752057,,0.0006505741,0.1,212.36642,1607639439650
Fix,GT,37.3169389,-121.9752057,,0.00033575305,0.1,212.36497,1607639440664
Fix,GT,37.3169389,-121.9752057,,0.0,0.1,212.36343,1607639441655
Fix,GT,37.3169389,-121.9752057,,0.00066588353,0.1,212.36194,1607639442665
Fix,GT,37.3169389,-121.9752057,,0.001,0.1,212.3605,1607639443659
Fix,GT,37.3169389,-121.9752057,,0.001,0.1,212.35898,1607639444650
Fix,GT,37.3169389,-121.9752056,,0.0012745888,0.1,212.35759,1607639445662
Fix,GT,37.3169389,-121.9752056,,0.0014142136,0.1,212.35626,1607639446656
Fix,GT,37.3169389,-121.9752057,,0.0014142136,0.1,212.35466,1607639447667
Fix,GT,37.3169389,-121.9752057,,0.0023462097,0.1,212.35316,1607639448659
Fix,GT,37.3169389,-121.9752057,,0.0028284271,0.1,212.35175,1607639449651
Fix,GT,37.3169389,-121.9752057,,0.0028284271,0.1,212.3504,1607639450663
Fix,GT,37.3169389,-121.9752057,,0.0024400242,0.1,212.34906,1607639451655
Fix,GT,37.3169389,-121.9752058,,0.0026312843,0.1,212.34758,1607639452667
Fix,GT,37.3169389,-121.9752058,,0.0024385382,0.1,212.34605,1607639453658
Fix,GT,37.3169389,-121.9752058,,0.0014301216,0.1,212.34451,1607639454652
Fix,GT,37.3169389,-121.9752058,,0.0012748153,0.1,212.34306,1607639455663
Fix,GT,37.3169389,-121.9752058,,0.0019531244,0.1,212.34152,1607639456655
Fix,GT,37.3169389,-121.9752058,,0.0037280358,0.1,212.33998,1607639457667
Fix,GT,37.3169389,-121.9752058,,0.006672512,0.1,212.33847,1607639458659
Fix,GT,37.3169389,-121.9752058,,0.010566561,0.1,212.33704,1607639459651
Fix,GT,37.3169389,-121.9752058,,0.015793724,0.1,212.33566,1607639460664
Fix,GT,37.316939,-121.9752057,,0.022322053,0.1,212.33415,1607639461655
Fix,GT,37.316939,-121.9752056,,0.030413188,0.1,212.33267,1607639462666
Fix,GT,37.3169391,-121.9752055,,0.051041722,0.1,212.33195,1607639463660
Fix,GT,37.316938,-121.9752061,,0.49539024,0.1,212.30124,1607639464651
Fix,GT,37.3169291,-121.9752127,,1.8173476,0.1,211.96365,1607639465664
Fix,GT,37.3169076,-121.9752273,,3.7411234,0.1,209.80638,1607639466656
Fix,GT,37.3168683,-121.9752462,,5.8317537,0.1,201.89215,1607639467647
Fix,GT,37.3168113,-121.9752548,,6.8096075,0.1,185.06688,1607639468658
Fix,GT,37.3167526,-121.9752353,,7.166773,0.1,161.8313,1607639469651
Fix,GT,37.3167016,-121.9751813,,8.074207,0.1,136.33487,1607639470663
Fix,GT,37.3166644,-121.9750964,,9.748611,0.1,116.57031,1607639471652
Fix,GT,37.3166345,-121.9749836,,11.656421,0.1,107.59241,1607639472644
Fix,GT,37.3166042,-121.9748443,,13.626845,0.1,105.172455,1607639473657
Fix,GT,37.3165717,-121.9746861,,15.603689,0.1,104.35062,1607639474649
Fix,GT,37.3165354,-121.9745023,,17.623243,0.1,103.98404,1607639475660
Fix,GT,37.3164957,-121.9743005,,19.380379,0.1,104.009155,1607639476651
Fix,GT,37.3164527,-121.9740856,,19.99205,0.1,104.23346,1607639477646
Fix,GT,37.3164081,-121.9738648,,19.898132,0.1,104.3486,1607639478657
Fix,GT,37.3163651,-121.9736503,,19.64045,0.1,104.077484,1607639479649
Fix,GT,37.3163242,-121.973434,,19.26347,0.1,102.90903,1607639480662
Fix,GT,37.3162896,-121.9732249,,18.892574,0.1,100.95477,1607639481655
Fix,GT,37.316262,-121.973019,,18.530657,0.1,98.56799,1607639482645
Fix,GT,37.3162424,-121.9728109,,18.17345,0.1,95.64798,1607639483658
Fix,GT,37.31623,-121.97261,,17.914495,0.1,93.80298,1607639484649
Fix,GT,37.3162212,-121.9724118,,18.00229,0.1,93.20737,1607639485631
Fix,GT,37.3162122,-121.9722042,,18.39273,0.1,93.25214,1607639486644
Fix,GT,37.3162021,-121.9719968,,18.80479,0.1,93.89758,1607639487635
Fix,GT,37.3161896,-121.9717776,,19.284931,0.1,94.23575,1607639488658
Fix,GT,37.3161763,-121.9715599,,19.613064,0.1,94.46661,1607639489650
Fix,GT,37.3161634,-121.9713353,,19.855103,0.1,93.67883,1607639490663
Fix,GT,37.3161552,-121.9711122,,20.54134,0.1,92.07709,1607639491646
Fix,GT,37.316151,-121.9708733,,21.796913,0.1,90.862915,1607639492648
Fix,GT,37.3161497,-121.9706165,,23.258537,0.1,90.099945,1607639493659
Fix,GT,37.3161503,-121.9703489,,24.63407,0.1,89.74606,1607639494649
Fix,GT,37.316153,-121.9700601,,25.958002,0.1,89.020874,1607639495662
Fix,GT,37.3161589,-121.9697645,,27.348274,0.1,88.21924,1607639496646
Fix,GT,37.3161684,-121.9694494,,28.78114,0.1,87.54776,1607639497640
Fix,GT,37.3161796,-121.9691136,,29.790504,0.1,87.52869,1607639498656
