MessageType,Provider,LatitudeDegrees,LongitudeDegrees,AltitudeMeters,SpeedMps,AccuracyMeters,BearingDegrees,UnixTimeMillis
Fix,GT,37.4165176,-122.080072,,0.0011816295,0.1,97.5065,1590792293438
Fix,GT,37.4165176,-122.080072,,0.0020343354,0.1,97.506134,1590792294438
Fix,GT,37.4165176,-122.080072,,0.0028284271,0.1,97.506195,1590792295438
Fix,GT,37.4165176,-122.080072,,0.0031691901,0.1,97.50653,1590792296438
Fix,GT,37.4165176,-122.080072,,0.003778514,0.1,97.50635,1590792297438
Fix,GT,37.4165176,-122.080072,,0.0044819117,0.1,97.50656,1590792298438
Fix,GT,37.4165177,-122.0800719,,0.0046710884,0.1,97.506744,1590792299438
Fix,GT,37.4165177,-122.0800719,,0.0036306325,0.1,97.506714,1590792300438
Fix,GT,37.4165177,-122.0800719,,0.0032655294,0.1,97.50644,1590792301438
Fix,GT,37.4165177,-122.0800719,,0.0030050434,0.1,97.50629,1590792302438
Fix,GT,37.4165177,-122.0800719,,0.002132554,0.1,97.50601,1590792303438
Fix,GT,37.4165177,-122.0800719,,0.002103514,0.1,97.506165,1590792304438
Fix,GT,37.4165177,-122.0800719,,0.0018756911,0.1,97.506775,1590792305438
Fix,GT,37.4165177,-122.0800719,,0.0020343352,0.1,97.50687,1590792306438
Fix,GT,37.4165178,-122.0800714,,0.0029036605,0.1,97.507324,1590792307438
Fix,GT,37.416518,-122.080071,,0.0034924732,0.1,97.50726,1590792308438
Fix,GT,37.416518,-122.0800709,,0.0042761527,0.1,97.5061,1590792309438
Fix,GT,37.4165181,-122.0800708,,0.0034916373,0.1,97.50516,1590792310438
Fix,GT,37.4165181,-122.0800707,,0.0025710464,0.1,97.50531,1590792311438
Fix,GT,37.4165181,-122.0800706,,0.017476333,0.1,97.50656,1590792312438
Fix,GT,37.416518,-122.0800695,,0.35201907,0.1,97.425385,1590792313438
Fix,GT,37.4165174,-122.0800587,,1.7747426,0.1,97.06528,1590792314438
Fix,GT,37.4165163,-122.0800266,,3.945443,0.1,96.82004,1590792315438
Fix,GT,37.4165141,-122.0799715,,5.744648,0.1,96.685486,1590792316438
Fix,GT,37.4165117,-122.0798979,,7.242506,0.1,96.403015,1590792317438
Fix,GT,37.4165084,-122.0798084,,8.559466,0.1,96.59781,1590792318438
Fix,GT,37.4165041,-122.0797059,,9.512516,0.1,96.984375,1590792319438
Fix,GT,37.416499,-122.0795947,,10.11795,0.1,97.24408,1590792320438
Fix,GT,37.4164934,-122.0794775,,10.657559,0.1,97.29529,1590792321438
Fix,GT,37.4164872,-122.0793546,,11.112449,0.1,97.449646,1590792322438
Fix,GT,37.4164802,-122.0792274,,11.398733,0.1,97.85803,1590792323438
Fix,GT,37.4164721,-122.0790986,,11.423588,0.1,98.34235,1590792324438
Fix,GT,37.4164637,-122.0789713,,11.103312,0.1,98.56329,1590792325438
Fix,GT,37.4164557,-122.0788497,,10.424476,0.1,98.30884,1590792326438
Fix,GT,37.4164488,-122.078737,,9.613848,0.1,97.98877,1590792327438
Fix,GT,37.4164425,-122.0786341,,8.573696,0.1,98.32431,1590792328438
Fix,GT,37.4164361,-122.0785458,,6.9931755,0.1,99.21753,1590792329438
Fix,GT,37.4164304,-122.0784775,,5.1719522,0.1,99.92468,1590792330438
Fix,GT,37.4164259,-122.0784288,,3.5965753,0.1,100.38678,1590792331438
Fix,GT,37.4164226,-122.078395,,2.5734153,0.1,100.6882,1590792332438
Fix,GT,37.4164199,-122.078369,,2.246943,0.1,100.94156,1590792333438
Fix,GT,37.4164172,-122.0783441,,2.2282898,0.1,101.19623,1590792334438
Fix,GT,37.4164143,-122.078319,,2.2729974,0.1,101.60318,1590792335438
Fix,GT,37.416411,-122.0782932,,2.333065,0.1,102.66968,1590792336438
Fix,GT,37.4164069,-122.0782692,,1.9131383,0.1,104.70535,1590792337438
Fix,GT,37.4164038,-122.0782537,,0.8180377,0.1,106.595764,1590792338438
Fix,GT,37.4164026,-122.0782492,,0.08309752,0.1,107.20822,1590792339438
Fix,GT,37.4164026,-122.0782491,,0.008424127,0.1,107.22458,1590792340438
Fix,GT,37.4164027,-122.0782488,,0.06954686,0.1,107.24603,1590792341438
Fix,GT,37.4164022,-122.0782471,,0.40392113,0.1,107.79129,1590792342438
Fix,GT,37.4163981,-122.0782372,,1.6376768,0.1,112.634186,1590792343438
Fix,GT,37.416382,-122.0782141,,3.5766134,0.1,128.40915,1590792344438
Fix,GT,37.4163465,-122.078189,,5.243223,0.1,152.64362,1590792345438
Fix,GT,37.4162937,-122.0781719,,6.680814,0.1,170.40436,1590792346438
Fix,GT,37.4162288,-122.0781616,,7.6709423,0.1,177.80151,1590792347438
Fix,GT,37.4161573,-122.0781581,,8.089277,0.1,182.35956,1590792348438
Fix,GT,37.4160832,-122.0781589,,8.311193,0.1,184.70023,1590792349438
Fix,GT,37.4160096,-122.0781619,,7.9056435,0.1,185.90103,1590792350438
Fix,GT,37.4159437,-122.0781657,,6.666466,0.1,186.65877,1590792351438
Fix,GT,37.4158897,-122.0781694,,5.3398046,0.1,186.85849,1590792352438
Fix,GT,37.4158478,-122.078172,,3.9355888,0.1,186.47952,1590792353438
Fix,GT,37.4158186,-122.0781734,,2.5922945,0.1,186.02522,1590792354438
Fix,GT,37.4158001,-122.0781743,,1.5633469,0.1,185.73476,1590792355438
Fix,GT,37.4157893,-122.0781746,,0.8493105,0.1,185.55814,1590792356438
Fix,GT,37.4157843,-122.0781748,,0.28177282,0.1,185.50069,1590792357438
Fix,GT,37.4157831,-122.0781749,,0.010809605,0.1,185.49153,1590792358438
Fix,GT,37.4157831,-122.0781749,,0.0038961624,0.1,185.49283,1590792359438
Fix,GT,37.4157831,-122.0781749,,0.0026446672,0.1,185.49348,1590792360438
Fix,GT,37.4157831,-122.0781749,,0.0012325842,0.1,185.49403,1590792361438
Fix,GT,37.4157831,-122.0781749,,0.0015420059,0.1,185.49455,1590792362438
Fix,GT,37.4157831,-122.0781749,,0.0024958127,0.1,185.49463,1590792363438
Fix,GT,37.4157831,-122.0781749,,0.0024651685,0.1,185.49428,1590792364438
Fix,GT,37.4157831,-122.0781749,,0.0027040215,0.1,185.49426,1590792365438
Fix,GT,37.4157831,-122.0781749,,0.0026446672,0.1,185.49428,1590792366438
Fix,GT,37.4157831,-122.0781749,,0.00079409225,0.1,185.49431,1590792367438
Fix,GT,37.4157831,-122.0781749,,0.00043849202,0.1,185.49442,1590792368438
Fix,GT,37.4157831,-122.0781749,,0.000561508,0.1,185.49406,1590792369438
Fix,GT,37.4157831,-122.0781749,,0.0013866335,0.1,185.49445,1590792370438
Fix,GT,37.4157831,-122.0781749,,0.0033566495,0.1,185.49391,1590792371438
Fix,GT,37.4157831,-122.0781749,,0.0030050436,0.1,185.49364,1590792372438
Fix,GT,37.4157831,-122.0781749,,0.0024958127,0.1,185.49391,1590792373438
Fix,GT,37.4157831,-122.0781749,,0.0025686824,0.1,185.49443,1590792374438
Fix,GT,37.4157831,-122.0781749,,0.002236068,0.1,185.49422,1590792375438
Fix,GT,37.4157831,-122.0781749,,0.0028365755,0.1,185.4941,1590792376438
Fix,GT,37.4157831,-122.0781749,,0.00290153,0.1,185.49377,1590792377438
Fix,GT,37.4157831,-122.0781749,,0.0017431374,0.1,185.49373,1590792378438
Fix,GT,37.4157831,-122.0781749,,0.0021807258,0.1,185.49353,1590792379438
Fix,GT,37.4157831,-122.0781749,,0.0033566495,0.1,185.49242,1590792380438
Fix,GT,37.4157831,-122.0781749,,0.0032647885,0.1,185.49329,1590792381438
Fix,GT,37.4157831,-122.0781749,,0.0020266767,0.1,185.49315,1590792382438
Fix,GT,37.4157831,-122.0781749,,0.0011816294,0.1,185.49301,1590792383438
Fix,GT,37.4157831,-122.0781749,,0.0021807258,0.1,185.49306,1590792384438
Fix,GT,37.4157831,-122.0781749,,0.0033566495,0.1,185.49258,1590792385438
Fix,GT,37.4157831,-122.0781749,,0.0034111794,0.1,185.49202,1590792386438
Fix,GT,37.4157831,-122.0781749,,0.0027561423,0.1,185.49162,1590792387438
Fix,GT,37.4157831,-122.0781749,,0.0022360682,0.1,185.49117,1590792388438
Fix,GT,37.4157831,-122.0781749,,0.002236068,0.1,185.49081,1590792389438
Fix,GT,37.4157831,-122.0781749,,0.0012555702,0.1,185.49048,1590792390438
Fix,GT,37.4157831,-122.0781749,,0.0008769839,0.1,185.49033,1590792391438
Fix,GT,37.4157831,-122.0781749,,0.012532235,0.1,185.49068,1590792392438
Fix,GT,37.415782,-122.0781749,,0.41997606,0.1,185.46669,1590792393438
Fix,GT,37.4157715,-122.0781753,,2.1442356,0.1,185.29543,1590792394438
Fix,GT,37.4157407,-122.0781759,,4.6607466,0.1,184.74332,1590792395438
Fix,GT,37.4156895,-122.0781763,,6.5966,0.1,184.22206,1590792396438
Fix,GT,37.4156232,-122.078177,,7.9896126,0.1,184.19179,1590792397438
Fix,GT,37.4155467,-122.0781776,,8.894817,0.1,184.0801,1590792398438
Fix,GT,37.4154634,-122.0781782,,9.55896,0.1,184.07726,1590792399438
Fix,GT,37.4153744,-122.0781792,,10.189846,0.1,184.3462,1590792400438
Fix,GT,37.4152804,-122.0781805,,10.676315,0.1,184.40184,1590792401438
Fix,GT,37.4151827,-122.0781819,,11.030754,0.1,184.32872,1590792402438
Fix,GT,37.4150822,-122.0781827,,11.258148,0.1,183.99915,1590792403438
Fix,GT,37.4149802,-122.0781826,,11.362648,0.1,183.56508,1590792404438
Fix,GT,37.414877,-122.0781818,,11.594381,0.1,183.3779,1590792405438
Fix,GT,37.4147717,-122.078181,,11.753901,0.1,183.3863,1590792406438
Fix,GT,37.4146669,-122.0781802,,11.439119,0.1,183.37312,1590792407438
Fix,GT,37.4145672,-122.0781794,,10.614914,0.1,183.30396,1590792408438
Fix,GT,37.4144767,-122.0781783,,9.479639,0.1,183.06534,1590792409438
Fix,GT,37.414397,-122.0781767,,8.178227,0.1,182.75331,1590792410438
Fix,GT,37.4143297,-122.0781768,,6.7457027,0.1,184.7091,1590792411438
Fix,GT,37.414274,-122.0781829,,5.7305202,0.1,189.91177,1590792412438
Fix,GT,37.4142247,-122.0781932,,5.4181604,0.1,193.3463,1590792413438
Fix,GT,37.4141772,-122.0782026,,5.2082424,0.1,192.46992,1590792414438
Fix,GT,37.4141329,-122.0782084,,4.6402884,0.1,189.37424,1590792415438
Fix,GT,37.414096,-122.0782107,,3.4418216,0.1,186.43823,1590792416438
Fix,GT,37.414073,-122.0782114,,1.5851499,0.1,185.23996,1590792417438
Fix,GT,37.4140659,-122.0782115,,0.14880845,0.1,185.07864,1590792418438
Fix,GT,37.4140659,-122.0782116,,0.0063318126,0.1,185.08049,1590792419438
Fix,GT,37.4140658,-122.0782115,,0.0052596917,0.1,185.08022,1590792420438
Fix,GT,37.4140658,-122.0782115,,0.004178616,0.1,185.07988,1590792421438
Fix,GT,37.4140658,-122.0782115,,0.0021230162,0.1,185.08,1590792422438
Fix,GT,37.4140658,-122.0782115,,0.0011816293,0.1,185.08022,1590792423438
Fix,GT,37.4140658,-122.0782116,,0.0020343347,0.1,185.08006,1590792424438
Fix,GT,37.4140658,-122.0782117,,0.0037806442,0.1,185.07994,1590792425438
Fix,GT,37.4140658,-122.0782116,,0.005580806,0.1,185.0797,1590792426438
Fix,GT,37.4140659,-122.0782116,,0.0070865233,0.1,185.07794,1590792427438
Fix,GT,37.4140656,-122.0782116,,0.05193487,0.1,185.07994,1590792428438
Fix,GT,37.4140644,-122.0782115,,0.3391723,0.1,185.05817,1590792429438
Fix,GT,37.4140575,-122.0782116,,1.3455184,0.1,184.93321,1590792430438
Fix,GT,37.4140379,-122.0782119,,3.025766,0.1,184.7097,1590792431438
Fix,GT,37.4140034,-122.0782126,,4.5689716,0.1,184.62624,1590792432438
Fix,GT,37.4139566,-122.0782135,,5.8159237,0.1,184.70409,1590792433438
Fix,GT,37.4138984,-122.0782149,,7.0932574,0.1,184.75453,1590792434438
Fix,GT,37.4138283,-122.0782163,,8.435124,0.1,184.60077,1590792435438
Fix,GT,37.4137468,-122.0782173,,9.608762,0.1,184.15845,1590792436438
Fix,GT,37.4136558,-122.078218,,10.544414,0.1,184.05809,1590792437438
Fix,GT,37.4135568,-122.0782187,,11.417594,0.1,184.21307,1590792438438
Fix,GT,37.4134503,-122.0782198,,12.188527,0.1,184.21939,1590792439438
Fix,GT,37.4133377,-122.078221,,12.786711,0.1,184.20096,1590792440438
Fix,GT,37.4132201,-122.078222,,13.332434,0.1,184.10287,1590792441438
Fix,GT,37.4130975,-122.0782227,,13.876564,0.1,183.94508,1590792442438
Fix,GT,37.4129703,-122.0782227,,14.349556,0.1,183.65408,1590792443438
Fix,GT,37.412839,-122.0782218,,14.778778,0.1,183.34549,1590792444438
Fix,GT,37.4127038,-122.0782203,,15.186924,0.1,183.23137,1590792445438
Fix,GT,37.4125654,-122.0782189,,15.488916,0.1,183.4235,1590792446438
Fix,GT,37.4124254,-122.0782184,,15.514698,0.1,183.68309,1590792447438
Fix,GT,37.4122864,-122.0782184,,15.350142,0.1,183.8021,1590792448438
Fix,GT,37.412149,-122.0782188,,15.146278,0.1,183.8859,1590792449438
Fix,GT,37.412014,-122.0782194,,14.836763,0.1,183.96768,1590792450438
Fix,GT,37.4118817,-122.0782204,,14.546902,0.1,184.15602,1590792451438
Fix,GT,37.4117521,-122.0782222,,14.191868,0.1,184.43843,1590792452438
Fix,GT,37.4116265,-122.0782244,,13.6479645,0.1,184.68558,1590792453438
Fix,GT,37.4115065,-122.0782275,,12.97827,0.1,185.09453,1590792454438
Fix,GT,37.4113936,-122.0782331,,12.062501,0.1,186.99901,1590792455438
Fix,GT,37.4112896,-122.0782465,,11.177835,0.1,191.8214,1590792456438
Fix,GT,37.411194,-122.078274,,10.571417,0.1,199.87282,1590792457438
Fix,GT,37.4111088,-122.07832,,10.131689,0.1,211.306,1590792458438
Fix,GT,37.4110361,-122.0783878,,10.127226,0.1,224.9892,1590792459438
Fix,GT,37.4109791,-122.0784784,,10.334773,0.1,240.71487,1590792460438
Fix,GT,37.4109454,-122.078588,,10.622449,0.1,258.53845,1590792461438
Fix,GT,37.4109408,-122.0787095,,11.078342,0.1,277.1697,1590792462438
Fix,GT,37.4109682,-122.078831,,11.416405,0.1,295.99142,1590792463438
Fix,GT,37.4110249,-122.0789388,,11.54117,0.1,312.88452,1590792464438
Fix,GT,37.4111026,-122.0790255,,11.580709,0.1,326.82083,1590792465438
Fix,GT,37.4111943,-122.0790874,,11.550526,0.1,340.2245,1590792466438
Fix,GT,37.4112946,-122.0791208,,11.452086,0.1,353.62238,1590792467438
Fix,GT,37.4113965,-122.0791239,,11.241118,0.1,7.7151794,1590792468438
Fix,GT,37.4114933,-122.0790928,,11.075846,0.1,24.001068,1590792469438
Fix,GT,37.4115792,-122.0790274,,11.365391,0.1,40.704712,1590792470438
Fix,GT,37.4116498,-122.0789301,,12.088001,0.1,56.980072,1590792471438
Fix,GT,37.4116991,-122.0788052,,12.650276,0.1,73.3501,1590792472438
Fix,GT,37.4117196,-122.078664,,12.85465,0.1,89.602905,1590792473438
Fix,GT,37.4117086,-122.0785203,,12.841883,0.1,105.20639,1590792474438
Fix,GT,37.4116711,-122.0783826,,13.035364,0.1,116.58292,1590792475438
Fix,GT,37.4116192,-122.0782474,,13.52664,0.1,120.72894,1590792476438
Fix,GT,37.4115627,-122.0781093,,13.9790125,0.1,121.01608,1590792477438
Fix,GT,37.4115041,-122.0779666,,14.430111,0.1,121.16547,1590792478438
Fix,GT,37.4114432,-122.0778196,,14.886201,0.1,121.528595,1590792479438
Fix,GT,37.4113794,-122.0776688,,15.327005,0.1,121.864136,1590792480438
Fix,GT,37.4113135,-122.0775137,,15.771664,0.1,121.87277,1590792481438
Fix,GT,37.4112462,-122.0773537,,16.26099,0.1,121.502014,1590792482438
Fix,GT,37.4111778,-122.0771884,,16.724684,0.1,121.18576,1590792483438
Fix,GT,37.4111076,-122.077018,,17.239384,0.1,121.12857,1590792484438
Fix,GT,37.4110352,-122.0768421,,17.80415,0.1,121.17227,1590792485438
Fix,GT,37.4109608,-122.0766614,,18.152325,0.1,121.14044,1590792486438
Fix,GT,37.4108861,-122.0764789,,18.069271,0.1,120.89502,1590792487438
Fix,GT,37.4108136,-122.0763002,,17.328579,0.1,120.662994,1590792488438
Fix,GT,37.410745,-122.07613,,16.459824,0.1,120.50427,1590792489438
Fix,GT,37.4106791,-122.0759641,,16.507942,0.1,119.85541,1590792490438
Fix,GT,37.4106137,-122.075794,,16.991228,0.1,119.39789,1590792491438
Fix,GT,37.4105461,-122.0756184,,17.491869,0.1,119.65576,1590792492438
Fix,GT,37.410476,-122.0754385,,17.981117,0.1,119.98776,1590792493438
Fix,GT,37.410403,-122.0752539,,18.490429,0.1,120.33832,1590792494438
Fix,GT,37.4103269,-122.0750647,,19.004015,0.1,120.74106,1590792495438
Fix,GT,37.4102476,-122.0748714,,19.488628,0.1,121.23193,1590792496438
Fix,GT,37.4101649,-122.074674,,19.9668,0.1,121.757385,1590792497438
Fix,GT,37.4100788,-122.0744726,,20.49347,0.1,122.19501,1590792498438
Fix,GT,37.4099891,-122.0742669,,21.000639,0.1,122.66159,1590792499438
Fix,GT,37.4098959,-122.0740576,,21.445965,0.1,123.138916,1590792500438
Fix,GT,37.4097996,-122.0738447,,21.902145,0.1,123.539,1590792501438
Fix,GT,37.4097002,-122.0736277,,22.419724,0.1,123.724304,1590792502438
Fix,GT,37.4095984,-122.0734055,,22.947876,0.1,123.679565,1590792503438
Fix,GT,37.4094946,-122.0731781,,23.41845,0.1,123.572266,1590792504438
Fix,GT,37.4093892,-122.072946,,23.848335,0.1,123.30243,1590792505438
Fix,GT,37.4092832,-122.0727092,,24.205278,0.1,122.86423,1590792506438
Fix,GT,37.409177,-122.0724687,,24.445948,0.1,122.80789,1590792507438
Fix,GT,37.4090692,-122.0722271,,24.56361,0.1,123.30612,1590792508438
Fix,GT,37.4089585,-122.0719861,,24.655735,0.1,124.201355,1590792509438
Fix,GT,37.4088427,-122.0717476,,24.774776,0.1,126.06366,1590792510438
Fix,GT,37.4087178,-122.0715147,,24.903217,0.1,129.28583,1590792511438
Fix,GT,37.4085805,-122.0712915,,25.005138,0.1,133.53955,1590792512438
Fix,GT,37.4084287,-122.0710818,,25.141922,0.1,138.3165,1590792513438
Fix,GT,37.4082626,-122.0708875,,25.307642,0.1,143.07358,1590792514438
Fix,GT,37.408083,-122.0707099,,25.46487,0.1,147.83276,1590792515438
Fix,GT,37.407891,-122.070551,,25.591648,0.1,152.62854,1590792516438
Fix,GT,37.407688,-122.070412,,25.784622,0.1,157.45984,1590792517438
Fix,GT,37.4074741,-122.0702939,,26.129078,0.1,162.33417,1590792518438
Fix,GT,37.4072495,-122.0701979,,26.54639,0.1,167.35864,1590792519438
Fix,GT,37.4070153,-122.0701259,,27.013288,0.1,172.47021,1590792520438
Fix,GT,37.4067727,-122.0700795,,27.488941,0.1,177.53284,1590792521438
Fix,GT,37.4065236,-122.070056,,27.947582,0.1,181.10255,1590792522438
Fix,GT,37.4062698,-122.0700458,,28.409622,0.1,182.47314,1590792523438
Fix,GT,37.4060116,-122.0700404,,28.925552,0.1,182.97424,1590792524438
Fix,GT,37.4057485,-122.0700359,,29.500305,0.1,182.88705,1590792525438
Fix,GT,37.4054802,-122.0700303,,30.059277,0.1,182.69478,1590792526438
Fix,GT,37.4052072,-122.070024,,30.552486,0.1,182.7737,1590792527438
Fix,GT,37.4049303,-122.0700191,,30.890556,0.1,183.20612,1590792528438
Fix,GT,37.4046511,-122.0700173,,31.040535,0.1,183.75293,1590792529438
Fix,GT,37.404371,-122.0700187,,31.125687,0.1,184.20955,1590792530438
Fix,GT,37.4040901,-122.0700226,,31.213587,0.1,184.47264,1590792531438
Fix,GT,37.4038085,-122.0700266,,31.31388,0.1,184.30672,1590792532438
Fix,GT,37.4035258,-122.0700288,,31.426485,0.1,183.96545,1590792533438
Fix,GT,37.4032422,-122.0700304,,31.53909,0.1,184.10016,1590792534438
Fix,GT,37.4029577,-122.070033,,31.625805,0.1,184.34042,1590792535438
Fix,GT,37.4026725,-122.070036,,31.711535,0.1,184.20074,1590792536438
Fix,GT,37.4023862,-122.0700385,,31.824905,0.1,184.14276,1590792537438
Fix,GT,37.4020989,-122.0700412,,31.95987,0.1,184.30145,1590792538438
Fix,GT,37.4018102,-122.070045,,32.148235,0.1,184.34348,1590792539438
Fix,GT,37.4015197,-122.0700469,,32.342415,0.1,183.73825,1590792540438
Fix,GT,37.4012276,-122.0700453,,32.51068,0.1,183.3665,1590792541438
Fix,GT,37.4009339,-122.0700418,,32.712273,0.1,182.83899,1590792542438
Fix,GT,37.4006385,-122.0700298,,32.93707,0.1,180.64613,1590792543438
Fix,GT,37.4003419,-122.0700019,,33.165367,0.1,178.13794,1590792544438
Fix,GT,37.4000443,-122.0699577,,33.409378,0.1,175.72797,1590792545438
Fix,GT,37.3997465,-122.0698965,,33.643467,0.1,173.14978,1590792546438
Fix,GT,37.3994483,-122.0698214,,33.875496,0.1,171.86804,1590792547438
Fix,GT,37.3991488,-122.0697414,,34.093853,0.1,171.64923,1590792548438
Fix,GT,37.398848,-122.0696599,,34.222713,0.1,171.41357,1590792549438
Fix,GT,37.3985468,-122.0695769,,34.229805,0.1,171.34253,1590792550438
Fix,GT,37.3982457,-122.0694946,,34.167324,0.1,171.57758,1590792551438
Fix,GT,37.3979451,-122.0694138,,34.05242,0.1,171.72797,1590792552438
Fix,GT,37.3976457,-122.0693339,,33.88752,0.1,171.7168,1590792553438
Fix,GT,37.3973479,-122.069254,,33.729725,0.1,171.66461,1590792554438
Fix,GT,37.3970513,-122.069174,,33.64158,0.1,171.6922,1590792555438
Fix,GT,37.3967551,-122.0690949,,33.600906,0.1,171.84717,1590792556438
Fix,GT,37.3964589,-122.0690169,,33.581024,0.1,171.90363,1590792557438
Fix,GT,37.3961631,-122.0689388,,33.533943,0.1,171.81946,1590792558438
Fix,GT,37.395868,-122.0688611,,33.408897,0.1,172.09027,1590792559438
Fix,GT,37.3955734,-122.0687873,,33.260223,0.1,173.01721,1590792560438
Fix,GT,37.395279,-122.068721,,33.12339,0.1,174.20642,1590792561438
Fix,GT,37.3949851,-122.0686634,,32.935795,0.1,175.69,1590792562438
Fix,GT,37.3946918,-122.0686167,,32.68012,0.1,177.41779,1590792563438
Fix,GT,37.3944,-122.0685807,,32.388977,0.1,178.98608,1590792564438
Fix,GT,37.39411,-122.0685546,,32.11553,0.1,180.49335,1590792565438
Fix,GT,37.393822,-122.0685383,,31.850128,0.1,181.87767,1590792566438
Fix,GT,37.3935363,-122.0685309,,31.592918,0.1,183.42307,1590792567438
Fix,GT,37.3932528,-122.0685336,,31.366404,0.1,185.06422,1590792568438
Fix,GT,37.3929713,-122.0685454,,31.127998,0.1,186.24185,1590792569438
Fix,GT,37.3926924,-122.0685631,,30.87526,0.1,187.14807,1590792570438
Fix,GT,37.3924158,-122.0685852,,30.675434,0.1,187.71242,1590792571438
Fix,GT,37.3921407,-122.0686096,,30.526943,0.1,187.94409,1590792572438
Fix,GT,37.3918669,-122.0686344,,30.429474,0.1,188.00438,1590792573438
Fix,GT,37.3915935,-122.0686601,,30.409042,0.1,188.24184,1590792574438
Fix,GT,37.3913205,-122.0686872,,30.392464,0.1,188.31175,1590792575438
Fix,GT,37.3910479,-122.0687135,,30.288769,0.1,188.0718,1590792576438
Fix,GT,37.3907762,-122.068739,,30.14547,0.1,188.1636,1590792577438
Fix,GT,37.3905057,-122.068766,,30.072323,0.1,188.4263,1590792578438
Fix,GT,37.3902356,-122.0687933,,30.062683,0.1,188.2873,1590792579438
Fix,GT,37.3899653,-122.0688189,,30.093523,0.1,188.03737,1590792580438
Fix,GT,37.3896945,-122.0688435,,30.16259,0.1,187.9343,1590792581438
Fix,GT,37.3894231,-122.068868,,30.236813,0.1,187.89688,1590792582438
Fix,GT,37.3891509,-122.0688911,,30.346767,0.1,187.40286,1590792583438
Fix,GT,37.3888773,-122.0689086,,30.457012,0.1,185.94681,1590792584438
Fix,GT,37.388603,-122.0689157,,30.46611,0.1,183.98755,1590792585438
Fix,GT,37.3883286,-122.0689111,,30.495747,0.1,182.12845,1590792586438
Fix,GT,37.3880537,-122.0688965,,30.644032,0.1,180.7274,1590792587438
Fix,GT,37.3877772,-122.068875,,30.82677,0.1,179.80385,1590792588438
Fix,GT,37.3874998,-122.0688485,,30.94112,0.1,179.1261,1590792589438
Fix,GT,37.3872219,-122.0688189,,30.973225,0.1,178.81897,1590792590438
Fix,GT,37.386944,-122.0687884,,30.932034,0.1,178.72559,1590792591438
Fix,GT,37.3866669,-122.0687573,,30.843529,0.1,178.68304,1590792592438
Fix,GT,37.3863906,-122.0687263,,30.738625,0.1,178.72418,1590792593438
Fix,GT,37.3861152,-122.0686956,,30.63696,0.1,178.70825,1590792594438
Fix,GT,37.3858407,-122.0686648,,30.525097,0.1,178.67682,1590792595438
Fix,GT,37.3855674,-122.068634,,30.403572,0.1,178.60907,1590792596438
Fix,GT,37.3852952,-122.0686031,,30.265673,0.1,178.63171,1590792597438
Fix,GT,37.3850242,-122.068573,,30.136883,0.1,178.77899,1590792598438
Fix,GT,37.3847543,-122.0685433,,30.007692,0.1,178.69073,1590792599438
Fix,GT,37.3844857,-122.0685125,,29.822365,0.1,178.48016,1590792600438
Fix,GT,37.3842195,-122.0684816,,29.478626,0.1,178.51196,1590792601438
Fix,GT,37.3839571,-122.0684518,,29.001743,0.1,178.83215,1590792602438
Fix,GT,37.3836985,-122.0684242,,28.6473,0.1,179.03516,1590792603438
Fix,GT,37.3834417,-122.068397,,28.581821,0.1,178.90314,1590792604438
Fix,GT,37.3831848,-122.0683693,,28.653152,0.1,178.85333,1590792605438
Fix,GT,37.3829274,-122.0683413,,28.713484,0.1,178.82935,1590792606438
Fix,GT,37.3826694,-122.0683134,,28.756828,0.1,178.89844,1590792607438
Fix,GT,37.382411,-122.0682861,,28.794622,0.1,178.98969,1590792608438
Fix,GT,37.3821523,-122.0682587,,28.843452,0.1,178.89648,1590792609438
Fix,GT,37.3818931,-122.0682303,,28.91293,0.1,178.67548,1590792610438
Fix,GT,37.3816333,-122.0682004,,29.000309,0.1,178.4281,1590792611438
Fix,GT,37.3813727,-122.0681693,,29.100006,0.1,178.34247,1590792612438
Fix,GT,37.3811113,-122.0681383,,29.172947,0.1,178.46179,1590792613438
Fix,GT,37.3808495,-122.0681081,,29.210217,0.1,178.57532,1590792614438
Fix,GT,37.3805872,-122.0680783,,29.256628,0.1,178.67761,1590792615438
Fix,GT,37.3803242,-122.0680491,,29.365889,0.1,178.78003,1590792616438
Fix,GT,37.3800599,-122.0680201,,29.514778,0.1,178.7406,1590792617438
Fix,GT,37.3797943,-122.0679906,,29.656582,0.1,178.80212,1590792618438
Fix,GT,37.3795274,-122.067962,,29.799065,0.1,179.0047,1590792619438
Fix,GT,37.3792593,-122.0679339,,29.914503,0.1,179.03778,1590792620438
Fix,GT,37.3789904,-122.0679053,,29.978867,0.1,178.89197,1590792621438
Fix,GT,37.3787209,-122.0678763,,30.070204,0.1,178.95532,1590792622438
Fix,GT,37.3784501,-122.0678488,,30.243256,0.1,179.47455,1590792623438
Fix,GT,37.3781775,-122.0678257,,30.385826,0.1,180.4895,1590792624438
Fix,GT,37.3779036,-122.0678106,,30.439373,0.1,182.16565,1590792625438
Fix,GT,37.3776292,-122.0678072,,30.443975,0.1,184.37567,1590792626438
Fix,GT,37.377355,-122.0678167,,30.430796,0.1,186.39397,1590792627438
Fix,GT,37.3770813,-122.0678372,,30.398361,0.1,188.05792,1590792628438
Fix,GT,37.3768086,-122.0678666,,30.361229,0.1,189.35156,1590792629438
Fix,GT,37.3765365,-122.0679017,,30.359707,0.1,189.92274,1590792630438
Fix,GT,37.3762645,-122.0679382,,30.36782,0.1,189.9046,1590792631438
Fix,GT,37.3759924,-122.0679727,,30.36756,0.1,189.19891,1590792632438
Fix,GT,37.3757198,-122.0680005,,30.377867,0.1,187.7408,1590792633438
Fix,GT,37.3754464,-122.0680192,,30.436426,0.1,186.37482,1590792634438
Fix,GT,37.375172,-122.0680307,,30.544142,0.1,185.07806,1590792635438
Fix,GT,37.3748966,-122.0680329,,30.62043,0.1,183.21338,1590792636438
Fix,GT,37.3746211,-122.0680222,,30.591604,0.1,180.80035,1590792637438
Fix,GT,37.374347,-122.0679965,,30.460888,0.1,178.20917,1590792638438
Fix,GT,37.3740755,-122.0679552,,30.304703,0.1,175.53558,1590792639438
Fix,GT,37.3738073,-122.0678977,,30.191847,0.1,172.5893,1590792640438
Fix,GT,37.3735427,-122.0678224,,30.113756,0.1,169.36438,1590792641438
Fix,GT,37.373282,-122.0677295,,30.100698,0.1,166.63123,1590792642438
Fix,GT,37.3730246,-122.0676224,,30.184223,0.1,164.21796,1590792643438
Fix,GT,37.3727702,-122.0675007,,30.30552,0.1,161.49268,1590792644438
Fix,GT,37.3725195,-122.0673639,,30.44484,0.1,159.17737,1590792645438
Fix,GT,37.3722708,-122.0672167,,30.640415,0.1,158.10596,1590792646438
Fix,GT,37.3720214,-122.0670654,,30.859337,0.1,157.9566,1590792647438
Fix,GT,37.3717703,-122.0669134,,31.053598,0.1,158.02045,1590792648438
Fix,GT,37.3715176,-122.0667604,,31.241947,0.1,157.98004,1590792649438
Fix,GT,37.3712636,-122.0666062,,31.403427,0.1,157.97815,1590792650438
Fix,GT,37.3710085,-122.0664513,,31.506145,0.1,157.93762,1590792651438
Fix,GT,37.3707528,-122.0662958,,31.58214,0.1,157.82336,1590792652438
Fix,GT,37.3704967,-122.0661393,,31.683002,0.1,157.75336,1590792653438
Fix,GT,37.3702397,-122.065982,,31.815495,0.1,157.79407,1590792654438
Fix,GT,37.3699814,-122.0658244,,31.940798,0.1,157.8888,1590792655438
Fix,GT,37.3697219,-122.0656668,,32.072647,0.1,157.96234,1590792656438
Fix,GT,37.3694611,-122.0655088,,32.22575,0.1,158.06073,1590792657438
Fix,GT,37.3691987,-122.0653506,,32.4049,0.1,158.16333,1590792658438
Fix,GT,37.3689348,-122.0651919,,32.59699,0.1,158.09827,1590792659438
Fix,GT,37.3686696,-122.0650316,,32.768948,0.1,157.90344,1590792660438
Fix,GT,37.3684037,-122.0648694,,32.87708,0.1,157.77344,1590792661438
Fix,GT,37.3681374,-122.0647066,,32.877747,0.1,157.82477,1590792662438
Fix,GT,37.3678714,-122.0645446,,32.74545,0.1,157.89331,1590792663438
Fix,GT,37.3676069,-122.0643837,,32.50108,0.1,157.8808,1590792664438
Fix,GT,37.3673448,-122.0642242,,32.15948,0.1,157.89209,1590792665438
Fix,GT,37.3670859,-122.0640669,,31.687298,0.1,158.07239,1590792666438
Fix,GT,37.3668302,-122.0639144,,31.154907,0.1,158.73627,1590792667438
Fix,GT,37.3665761,-122.0637697,,30.817417,0.1,160.01514,1590792668438
Fix,GT,37.3663207,-122.0636342,,30.793213,0.1,161.74982,1590792669438
Fix,GT,37.3660614,-122.0635094,,30.850523,0.1,163.92444,1590792670438
Fix,GT,37.3657979,-122.0633976,,30.922094,0.1,166.23444,1590792671438
Fix,GT,37.3655303,-122.0632982,,30.999447,0.1,168.3825,1590792672438
Fix,GT,37.3652593,-122.0632115,,31.06889,0.1,170.7149,1590792673438
Fix,GT,37.364985,-122.0631394,,31.13843,0.1,173.34003,1590792674438
Fix,GT,37.3647076,-122.0630833,,31.205566,0.1,175.92542,1590792675438
Fix,GT,37.364428,-122.0630421,,31.253231,0.1,178.30988,1590792676438
Fix,GT,37.3641472,-122.0630151,,31.257381,0.1,180.58868,1590792677438
Fix,GT,37.3638659,-122.0630019,,31.21239,0.1,182.74612,1590792678438
Fix,GT,37.3635848,-122.0630002,,31.154514,0.1,184.2199,1590792679438
Fix,GT,37.3633041,-122.0630042,,31.165234,0.1,184.7103,1590792680438
Fix,GT,37.3630231,-122.0630104,,31.2206,0.1,184.9152,1590792681438
Fix,GT,37.3627418,-122.0630173,,31.209944,0.1,184.91795,1590792682438
Fix,GT,37.3624611,-122.0630237,,31.06903,0.1,184.79443,1590792683438
Fix,GT,37.362182,-122.0630296,,30.900707,0.1,184.77509,1590792684438
Fix,GT,37.361904,-122.0630357,,30.85751,0.1,184.88135,1590792685438
Fix,GT,37.3616258,-122.0630423,,30.885082,0.1,184.89949,1590792686438
Fix,GT,37.3613479,-122.0630481,,30.775488,0.1,184.66685,1590792687438
Fix,GT,37.3610715,-122.0630527,,30.60152,0.1,184.58801,1590792688438
Fix,GT,37.3607961,-122.0630578,,30.569237,0.1,184.79959,1590792689438
Fix,GT,37.3605205,-122.0630645,,30.626175,0.1,185.10695,1590792690438
Fix,GT,37.3602444,-122.0630723,,30.663456,0.1,185.08115,1590792691438
Fix,GT,37.3599684,-122.0630781,,30.589798,0.1,184.4218,1590792692438
Fix,GT,37.3596935,-122.0630791,,30.42336,0.1,183.55618,1590792693438
Fix,GT,37.3594199,-122.0630752,,30.320793,0.1,182.7589,1590792694438
Fix,GT,37.3591468,-122.063066,,30.349134,0.1,181.75778,1590792695438
Fix,GT,37.3588733,-122.0630501,,30.433245,0.1,180.58235,1590792696438
Fix,GT,37.3585994,-122.0630275,,30.520311,0.1,179.52179,1590792697438
Fix,GT,37.3583252,-122.0629981,,30.570269,0.1,178.30847,1590792698438
Fix,GT,37.3580514,-122.0629609,,30.574791,0.1,176.91382,1590792699438
Fix,GT,37.3577785,-122.0629157,,30.522503,0.1,175.67938,1590792700438
Fix,GT,37.3575072,-122.0628639,,30.392834,0.1,174.58801,1590792701438
Fix,GT,37.357238,-122.0628056,,30.265099,0.1,173.34546,1590792702438
Fix,GT,37.3569707,-122.0627403,,30.229801,0.1,172.19568,1590792703438
Fix,GT,37.3567042,-122.0626691,,30.257141,0.1,171.34442,1590792704438
Fix,GT,37.3564387,-122.0625928,,30.194075,0.1,170.3601,1590792705438
Fix,GT,37.3561756,-122.0625106,,30.005249,0.1,169.19946,1590792706438
Fix,GT,37.3559159,-122.0624221,,29.748089,0.1,168.0105,1590792707438
Fix,GT,37.3556599,-122.062328,,29.500162,0.1,166.89795,1590792708438
Fix,GT,37.3554071,-122.0622286,,29.32808,0.1,165.89838,1590792709438
Fix,GT,37.3551568,-122.0621246,,29.210629,0.1,165.00098,1590792710438
Fix,GT,37.3549087,-122.0620158,,29.138983,0.1,163.9715,1590792711438
Fix,GT,37.3546627,-122.0619016,,29.118717,0.1,163.12671,1590792712438
Fix,GT,37.3544174,-122.061785,,29.090181,0.1,163.12799,1590792713438
Fix,GT,37.3541722,-122.06167,,29.032753,0.1,163.34656,1590792714438
Fix,GT,37.3539272,-122.0615557,,28.999897,0.1,163.39453,1590792715438
Fix,GT,37.3536824,-122.0614414,,29.00135,0.1,163.28412,1590792716438
Fix,GT,37.3534379,-122.0613259,,29.005669,0.1,162.94836,1590792717438
Fix,GT,37.3531936,-122.0612094,,29.031227,0.1,162.98987,1590792718438
Fix,GT,37.3529483,-122.0610942,,29.093636,0.1,163.50659,1590792719438
Fix,GT,37.3527013,-122.0609827,,29.196709,0.1,164.40393,1590792720438
Fix,GT,37.3524518,-122.0608767,,29.316738,0.1,165.67432,1590792721438
Fix,GT,37.3521995,-122.0607771,,29.402763,0.1,166.94543,1590792722438
Fix,GT,37.3519448,-122.0606844,,29.46091,0.1,168.25287,1590792723438
Fix,GT,37.3516878,-122.0605985,,29.593554,0.1,169.4151,1590792724438
Fix,GT,37.3514279,-122.0605179,,29.833607,0.1,170.3169,1590792725438
Fix,GT,37.3511649,-122.060442,,30.059874,0.1,171.31433,1590792726438
Fix,GT,37.3508991,-122.0603717,,30.202362,0.1,172.40948,1590792727438
Fix,GT,37.3506318,-122.0603075,,30.166061,0.1,173.47046,1590792728438
Fix,GT,37.3503643,-122.06025,,30.062283,0.1,174.78406,1590792729438
Fix,GT,37.3500967,-122.060201,,29.969093,0.1,176.21869,1590792730438
Fix,GT,37.3498295,-122.0601602,,29.722652,0.1,177.48077,1590792731438
Fix,GT,37.3495647,-122.0601265,,29.328697,0.1,178.50305,1590792732438
Fix,GT,37.3493033,-122.0600988,,28.948769,0.1,179.45709,1590792733438
Fix,GT,37.3490437,-122.0600765,,28.861824,0.1,180.36655,1590792734438
Fix,GT,37.3487835,-122.0600587,,28.993324,0.1,181.08514,1590792735438
Fix,GT,37.3485218,-122.0600451,,29.114899,0.1,181.87807,1590792736438
Fix,GT,37.3482591,-122.0600369,,29.221046,0.1,182.92354,1590792737438
Fix,GT,37.3479953,-122.0600342,,29.321445,0.1,183.72083,1590792738438
Fix,GT,37.3477309,-122.0600345,,29.355381,0.1,183.98894,1590792739438
Fix,GT,37.3474667,-122.0600358,,29.267784,0.1,184.11737,1590792740438
Fix,GT,37.3472037,-122.0600381,,29.121283,0.1,184.28497,1590792741438
Fix,GT,37.346942,-122.0600403,,28.971098,0.1,184.12979,1590792742438
Fix,GT,37.3466815,-122.0600416,,28.875385,0.1,183.972,1590792743438
Fix,GT,37.3464214,-122.0600424,,28.885368,0.1,183.93121,1590792744438
Fix,GT,37.3461608,-122.0600428,,28.947552,0.1,183.81989,1590792745438
Fix,GT,37.3458998,-122.0600424,,29.018745,0.1,183.66042,1590792746438
Fix,GT,37.3456386,-122.0600416,,29.032494,0.1,183.61845,1590792747438
Fix,GT,37.345378,-122.060041,,28.888813,0.1,183.63322,1590792748438
Fix,GT,37.3451193,-122.0600401,,28.582125,0.1,183.55865,1590792749438
Fix,GT,37.3448632,-122.0600384,,28.272621,0.1,183.4189,1590792750438
Fix,GT,37.3446094,-122.0600358,,28.120304,0.1,183.29576,1590792751438
Fix,GT,37.3443565,-122.0600327,,28.03973,0.1,183.21736,1590792752438
Fix,GT,37.3441042,-122.0600293,,27.964863,0.1,183.17892,1590792753438
Fix,GT,37.3438527,-122.0600257,,27.890377,0.1,183.22133,1590792754438
Fix,GT,37.3436014,-122.0600232,,27.881927,0.1,183.53946,1590792755438
Fix,GT,37.3433498,-122.060023,,27.971882,0.1,183.98769,1590792756438
Fix,GT,37.3430971,-122.0600248,,28.099222,0.1,184.28725,1590792757438
Fix,GT,37.3428433,-122.0600279,,28.246092,0.1,184.45795,1590792758438
Fix,GT,37.342588,-122.0600314,,28.427547,0.1,184.40689,1590792759438
Fix,GT,37.342331,-122.0600345,,28.623657,0.1,184.28737,1590792760438
Fix,GT,37.3420722,-122.0600365,,28.826569,0.1,184.03984,1590792761438
Fix,GT,37.3418116,-122.0600367,,29.00843,0.1,183.74187,1590792762438
Fix,GT,37.3415496,-122.060036,,29.1614,0.1,183.72464,1590792763438
Fix,GT,37.3412861,-122.0600357,,29.318409,0.1,183.8081,1590792764438
Fix,GT,37.3410212,-122.0600354,,29.457806,0.1,183.72266,1590792765438
Fix,GT,37.3407553,-122.0600345,,29.553984,0.1,183.6293,1590792766438
Fix,GT,37.3404888,-122.0600334,,29.57156,0.1,183.62932,1590792767438
Fix,GT,37.3402228,-122.0600324,,29.46658,0.1,183.70805,1590792768438
Fix,GT,37.3399583,-122.0600323,,29.220932,0.1,183.87253,1590792769438
Fix,GT,37.3396968,-122.060033,,28.818542,0.1,184.03256,1590792770438
Fix,GT,37.3394393,-122.0600335,,28.324726,0.1,183.79659,1590792771438
Fix,GT,37.3391862,-122.0600314,,27.947716,0.1,183.14967,1590792772438
Fix,GT,37.3389352,-122.0600259,,27.848541,0.1,182.58458,1590792773438
Fix,GT,37.3386839,-122.0600171,,27.952295,0.1,181.80878,1590792774438
Fix,GT,37.3384318,-122.0600013,,28.095282,0.1,179.93513,1590792775438
Fix,GT,37.3381794,-122.0599725,,28.22208,0.1,177.40942,1590792776438
Fix,GT,37.337927,-122.0599307,,28.34023,0.1,175.25061,1590792777438
Fix,GT,37.3376748,-122.0598776,,28.43572,0.1,173.33362,1590792778438
Fix,GT,37.3374237,-122.0598137,,28.487759,0.1,171.3883,1590792779438
Fix,GT,37.3371737,-122.0597408,,28.496588,0.1,170.20154,1590792780438
Fix,GT,37.3369245,-122.0596643,,28.43803,0.1,170.03192,1590792781438
Fix,GT,37.336676,-122.0595885,,28.315647,0.1,170.22778,1590792782438
Fix,GT,37.3364287,-122.0595141,,28.078749,0.1,170.41553,1590792783438
Fix,GT,37.3361844,-122.059442,,27.554886,0.1,170.71301,1590792784438
Fix,GT,37.3359454,-122.059374,,26.819275,0.1,171.39636,1590792785438
Fix,GT,37.3357123,-122.059312,,26.052975,0.1,172.29376,1590792786438
Fix,GT,37.3354857,-122.0592566,,25.150879,0.1,173.27435,1590792787438
Fix,GT,37.3352678,-122.0592081,,23.946001,0.1,174.08582,1590792788438
Fix,GT,37.3350606,-122.0591641,,22.73066,0.1,174.20721,1590792789438
Fix,GT,37.3348629,-122.0591218,,21.842756,0.1,174.04358,1590792790438
Fix,GT,37.3346726,-122.0590808,,20.978228,0.1,174.1576,1590792791438
Fix,GT,37.334491,-122.0590427,,19.777761,0.1,174.42816,1590792792438
Fix,GT,37.3343211,-122.059008,,18.445778,0.1,174.69495,1590792793438
Fix,GT,37.3341613,-122.0589767,,17.534449,0.1,175.24597,1590792794438
Fix,GT,37.3340067,-122.0589508,,17.081875,0.1,177.3371,1590792795438
Fix,GT,37.3338543,-122.0589382,,16.795862,0.1,182.48608,1590792796438
Fix,GT,37.3337038,-122.0589482,,16.695297,0.1,189.98073,1590792797438
Fix,GT,37.3335569,-122.0589857,,16.601498,0.1,199.28796,1590792798438
Fix,GT,37.3334191,-122.0590553,,16.512909,0.1,210.61598,1590792799438
Fix,GT,37.3332961,-122.0591581,,16.421974,0.1,222.50302,1590792800438
Fix,GT,37.3331928,-122.0592893,,16.311346,0.1,233.99,1590792801438
Fix,GT,37.3331106,-122.0594412,,16.216333,0.1,243.53532,1590792802438
Fix,GT,37.3330471,-122.0596074,,16.473534,0.1,251.14774,1590792803438
Fix,GT,37.3329988,-122.0597868,,17.12362,0.1,257.64148,1590792804438
Fix,GT,37.3329629,-122.0599781,,17.648048,0.1,262.5724,1590792805438
Fix,GT,37.3329385,-122.0601773,,18.065083,0.1,266.91595,1590792806438
Fix,GT,37.3329261,-122.0603832,,18.504229,0.1,271.37433,1590792807438
Fix,GT,37.3329273,-122.0605944,,18.941893,0.1,276.33417,1590792808438
Fix,GT,37.3329437,-122.0608093,,19.322954,0.1,281.3716,1590792809438
Fix,GT,37.332975,-122.0610256,,19.6179,0.1,286.1991,1590792810438
Fix,GT,37.333021,-122.0612409,,19.8909,0.1,290.6782,1590792811438
Fix,GT,37.3330789,-122.0614556,,20.275848,0.1,293.476,1590792812438
Fix,GT,37.3331438,-122.0616724,,20.772572,0.1,294.79202,1590792813438
Fix,GT,37.3332132,-122.0618931,,21.301895,0.1,295.67422,1590792814438
Fix,GT,37.3332859,-122.0621175,,21.564869,0.1,295.86542,1590792815438
Fix,GT,37.3333581,-122.0623425,,21.362495,0.1,295.46484,1590792816438
Fix,GT,37.3334288,-122.0625649,,21.052586,0.1,295.57062,1590792817438
Fix,GT,37.3334994,-122.0627838,,20.811981,0.1,295.8511,1590792818438
Fix,GT,37.3335701,-122.0630015,,20.893335,0.1,295.75586,1590792819438
Fix,GT,37.3336406,-122.0632225,,21.310745,0.1,295.58746,1590792820438
Fix,GT,37.3337125,-122.063448,,21.720997,0.1,295.69775,1590792821438
Fix,GT,37.3337866,-122.0636772,,22.064936,0.1,295.81018,1590792822438
Fix,GT,37.3338611,-122.0639098,,22.37376,0.1,295.68442,1590792823438
Fix,GT,37.3339367,-122.0641459,,22.696419,0.1,295.62518,1590792824438
Fix,GT,37.3340123,-122.0643855,,23.010908,0.1,295.02264,1590792825438
Fix,GT,37.3340853,-122.0646306,,23.436852,0.1,293.56924,1590792826438
Fix,GT,37.3341542,-122.0648835,,23.98613,0.1,291.88193,1590792827438
Fix,GT,37.3342193,-122.0651446,,24.51818,0.1,290.57745,1590792828438
Fix,GT,37.3342809,-122.0654133,,25.041197,0.1,289.02994,1590792829438
Fix,GT,37.3343366,-122.0656898,,25.54478,0.1,286.8872,1590792830438
Fix,GT,37.3343851,-122.0659743,,26.020649,0.1,285.00983,1590792831438
Fix,GT,37.3344281,-122.0662654,,26.45352,0.1,283.59863,1590792832438
Fix,GT,37.3344659,-122.0665622,,26.840313,0.1,282.09918,1590792833438
Fix,GT,37.3344974,-122.0668641,,27.090609,0.1,280.23715,1590792834438
Fix,GT,37.3345204,-122.0671683,,27.02287,0.1,278.13647,1590792835438
Fix,GT,37.3345342,-122.0674708,,26.687124,0.1,276.0355,1590792836438
Fix,GT,37.3345395,-122.0677698,,26.33453,0.1,274.16425,1590792837438
Fix,GT,37.3345369,-122.0680646,,25.948399,0.1,271.87286,1590792838438
Fix,GT,37.3345229,-122.0683546,,25.697296,0.1,268.71695,1590792839438
Fix,GT,37.3344973,-122.0686429,,25.779423,0.1,266.53595,1590792840438
Fix,GT,37.3344667,-122.068932,,25.88777,0.1,266.03632,1590792841438
Fix,GT,37.3344346,-122.0692221,,26.028435,0.1,265.74417,1590792842438
Fix,GT,37.3343996,-122.0695129,,26.118057,0.1,264.4978,1590792843438
Fix,GT,37.3343578,-122.0698034,,26.225147,0.1,262.641,1590792844438
Fix,GT,37.3343092,-122.0700939,,26.388597,0.1,261.42346,1590792845438
Fix,GT,37.3342575,-122.0703853,,26.548912,0.1,261.07446,1590792846438
Fix,GT,37.3342048,-122.0706784,,26.692936,0.1,260.9397,1590792847438
Fix,GT,37.3341507,-122.0709726,,26.823915,0.1,260.5059,1590792848438
Fix,GT,37.3340945,-122.0712679,,26.99714,0.1,260.24548,1590792849438
Fix,GT,37.3340378,-122.0715654,,27.214409,0.1,260.40973,1590792850438
Fix,GT,37.3339817,-122.0718656,,27.429962,0.1,260.7475,1590792851438
Fix,GT,37.3339263,-122.0721682,,27.619333,0.1,260.9382,1590792852438
Fix,GT,37.3338707,-122.0724735,,27.926926,0.1,260.9145,1590792853438
Fix,GT,37.3338151,-122.0727838,,28.431229,0.1,261.3286,1590792854438
Fix,GT,37.3337614,-122.0731005,,28.93998,0.1,262.26947,1590792855438
Fix,GT,37.3337121,-122.0734235,,29.32679,0.1,263.61823,1590792856438
Fix,GT,37.3336695,-122.0737518,,29.586643,0.1,265.517,1590792857438
Fix,GT,37.3336363,-122.0740845,,29.839663,0.1,267.8545,1590792858438
Fix,GT,37.3336144,-122.0744216,,30.09605,0.1,270.40887,1590792859438
Fix,GT,37.3336044,-122.074762,,30.27332,0.1,272.92303,1590792860438
Fix,GT,37.3336063,-122.0751044,,30.385792,0.1,275.5018,1590792861438
Fix,GT,37.3336201,-122.0754475,,30.495365,0.1,277.81,1590792862438
Fix,GT,37.3336446,-122.0757907,,30.546364,0.1,279.9415,1590792863438
Fix,GT,37.3336791,-122.0761327,,30.565609,0.1,282.15436,1590792864438
Fix,GT,37.3337252,-122.0764731,,30.630953,0.1,284.82315,1590792865438
Fix,GT,37.3337846,-122.0768111,,30.77068,0.1,287.62823,1590792866438
Fix,GT,37.3338563,-122.0771475,,30.956436,0.1,289.7321,1590792867438
Fix,GT,37.3339383,-122.0774823,,31.105293,0.1,291.9764,1590792868438
Fix,GT,37.3340322,-122.0778143,,31.291004,0.1,294.68445,1590792869438
Fix,GT,37.3341385,-122.0781429,,31.544113,0.1,297.04742,1590792870438
Fix,GT,37.3342567,-122.0784682,,31.790707,0.1,299.56488,1590792871438
Fix,GT,37.3343877,-122.0787889,,32.035057,0.1,302.32858,1590792872438
Fix,GT,37.3345319,-122.0791036,,32.26671,0.1,305.0184,1590792873438
Fix,GT,37.3346883,-122.0794116,,32.447857,0.1,307.55963,1590792874438
Fix,GT,37.3348562,-122.0797123,,32.573097,0.1,310.07593,1590792875438
Fix,GT,37.3350348,-122.0800044,,32.61435,0.1,312.58694,1590792876438
Fix,GT,37.3352239,-122.0802858,,32.585144,0.1,315.2113,1590792877438
Fix,GT,37.3354215,-122.080557,,32.508274,0.1,317.0165,1590792878438
Fix,GT,37.3356237,-122.0808226,,32.52813,0.1,317.74985,1590792879438
Fix,GT,37.3358279,-122.0810871,,32.713745,0.1,317.89328,1590792880438
Fix,GT,37.3360333,-122.0813533,,32.8972,0.1,317.70346,1590792881438
Fix,GT,37.3362389,-122.0816213,,32.96205,0.1,317.61633,1590792882438
Fix,GT,37.3364441,-122.0818894,,32.83521,0.1,317.5734,1590792883438
Fix,GT,37.3366477,-122.0821568,,32.647644,0.1,317.30316,1590792884438
Fix,GT,37.3368487,-122.082425,,32.58008,0.1,316.6967,1590792885438
Fix,GT,37.3370466,-122.0826962,,32.572098,0.1,315.7022,1590792886438
Fix,GT,37.3372398,-122.0829724,,32.506245,0.1,314.23242,1590792887438
Fix,GT,37.3374263,-122.0832543,,32.38327,0.1,312.60516,1590792888438
Fix,GT,37.3376057,-122.0835415,,32.267193,0.1,310.99,1590792889438
Fix,GT,37.3377783,-122.0838339,,32.190655,0.1,309.61932,1590792890438
Fix,GT,37.3379466,-122.0841297,,32.21111,0.1,309.04855,1590792891438
Fix,GT,37.3381139,-122.0844274,,32.337963,0.1,308.86374,1590792892438
Fix,GT,37.3382809,-122.0847274,,32.468704,0.1,308.4941,1590792893438
Fix,GT,37.3384474,-122.0850292,,32.559666,0.1,308.39783,1590792894438
Fix,GT,37.3386145,-122.0853318,,32.645077,0.1,308.58936,1590792895438
Fix,GT,37.3387832,-122.0856344,,32.75443,0.1,308.8791,1590792896438
Fix,GT,37.3389537,-122.0859367,,32.845016,0.1,309.16125,1590792897438
Fix,GT,37.3391249,-122.0862394,,32.901512,0.1,308.91345,1590792898438
Fix,GT,37.3392944,-122.0865443,,32.938858,0.1,308.38287,1590792899438
Fix,GT,37.3394628,-122.0868505,,32.962982,0.1,308.37234,1590792900438
Fix,GT,37.3396309,-122.0871568,,32.898506,0.1,308.2289,1590792901438
Fix,GT,37.3397972,-122.0874628,,32.676407,0.1,307.8872,1590792902438
Fix,GT,37.339961,-122.0877673,,32.370495,0.1,307.79285,1590792903438
Fix,GT,37.3401223,-122.0880696,,32.09921,0.1,307.32846,1590792904438
Fix,GT,37.3402796,-122.0883726,,32.01039,0.1,306.30347,1590792905438
Fix,GT,37.3404323,-122.0886789,,32.013412,0.1,305.23538,1590792906438
Fix,GT,37.3405816,-122.0889882,,32.048515,0.1,304.67496,1590792907438
Fix,GT,37.3407298,-122.0892989,,32.10308,0.1,304.58124,1590792908438
Fix,GT,37.3408775,-122.0896105,,32.144806,0.1,304.48102,1590792909438
Fix,GT,37.3410258,-122.0899225,,32.18325,0.1,304.8582,1590792910438
Fix,GT,37.3411768,-122.0902332,,32.281998,0.1,305.38187,1590792911438
Fix,GT,37.3413304,-122.0905436,,32.42522,0.1,305.80157,1590792912438
Fix,GT,37.3414875,-122.0908522,,32.36441,0.1,307.03757,1590792913438
Fix,GT,37.3416513,-122.0911536,,32.2602,0.1,309.05798,1590792914438
Fix,GT,37.3418242,-122.0914469,,32.372475,0.1,311.43182,1590792915438
Fix,GT,37.3420078,-122.0917315,,32.485374,0.1,314.19476,1590792916438
Fix,GT,37.3422025,-122.0920056,,32.53251,0.1,316.88464,1590792917438
Fix,GT,37.3424067,-122.0922685,,32.457516,0.1,319.0858,1590792918438
Fix,GT,37.3426167,-122.0925223,,32.302776,0.1,320.67203,1590792919438
Fix,GT,37.3428304,-122.0927692,,32.223038,0.1,321.47522,1590792920438
Fix,GT,37.3430451,-122.0930136,,32.149612,0.1,321.49875,1590792921438
Fix,GT,37.3432588,-122.0932578,,32.05265,0.1,321.3657,1590792922438
Fix,GT,37.3434717,-122.0935016,,31.980925,0.1,321.32053,1590792923438
Fix,GT,37.3436839,-122.0937452,,31.920742,0.1,321.12476,1590792924438
Fix,GT,37.3438939,-122.0939908,,31.841034,0.1,320.31467,1590792925438
Fix,GT,37.3440998,-122.0942401,,31.762173,0.1,319.2448,1590792926438
Fix,GT,37.3443017,-122.0944939,,31.755926,0.1,317.97943,1590792927438
Fix,GT,37.3444976,-122.094755,,31.778833,0.1,315.9806,1590792928438
Fix,GT,37.3446857,-122.0950249,,31.759357,0.1,313.81345,1590792929438
Fix,GT,37.3448652,-122.0953034,,31.695183,0.1,311.32648,1590792930438
Fix,GT,37.3450332,-122.0955911,,31.509472,0.1,308.6172,1590792931438
Fix,GT,37.3451908,-122.0958852,,31.319067,0.1,306.665,1590792932438
Fix,GT,37.3453409,-122.0961844,,31.40984,0.1,305.098,1590792933438
Fix,GT,37.3454848,-122.0964915,,31.749386,0.1,303.188,1590792934438
Fix,GT,37.3456236,-122.0968071,,32.120907,0.1,302.18488,1590792935438
Fix,GT,37.3457619,-122.0971279,,32.470943,0.1,302.14706,1590792936438
Fix,GT,37.3459016,-122.0974515,,32.711426,0.1,302.09842,1590792937438
Fix,GT,37.3460413,-122.0977773,,32.796642,0.1,301.80502,1590792938438
Fix,GT,37.3461795,-122.0981036,,32.66548,0.1,301.59485,1590792939438
Fix,GT,37.3463163,-122.0984284,,32.36921,0.1,301.53882,1590792940438
Fix,GT,37.3464513,-122.0987498,,31.984077,0.1,301.4385,1590792941438
Fix,GT,37.3465843,-122.0990678,,31.647993,0.1,301.37665,1590792942438
Fix,GT,37.3467163,-122.0993834,,31.53515,0.1,301.47336,1590792943438
Fix,GT,37.346849,-122.0996982,,31.565323,0.1,301.79044,1590792944438
Fix,GT,37.3469832,-122.1000124,,31.586742,0.1,302.06665,1590792945438
Fix,GT,37.3471182,-122.1003261,,31.565252,0.1,302.0926,1590792946438
Fix,GT,37.3472529,-122.1006396,,31.541,0.1,301.99225,1590792947438
Fix,GT,37.3473871,-122.1009532,,31.517881,0.1,301.8452,1590792948438
Fix,GT,37.3475212,-122.1012668,,31.52642,0.1,302.22644,1590792949438
Fix,GT,37.3476598,-122.1015769,,31.42682,0.1,304.24606,1590792950438
Fix,GT,37.3478078,-122.1018775,,31.115112,0.1,306.66556,1590792951438
Fix,GT,37.3479629,-122.1021683,,30.871834,0.1,308.3241,1590792952438
Fix,GT,37.3481249,-122.1024513,,30.883932,0.1,310.74432,1590792953438
Fix,GT,37.3482982,-122.1027251,,31.053328,0.1,313.75635,1590792954438
Fix,GT,37.348484,-122.1029886,,31.23762,0.1,316.77063,1590792955438
Fix,GT,37.3486816,-122.1032409,,31.418709,0.1,319.75528,1590792956438
Fix,GT,37.3488904,-122.1034824,,31.64713,0.1,322.41232,1590792957438
Fix,GT,37.3491089,-122.1037141,,31.869156,0.1,324.68637,1590792958438
Fix,GT,37.3493362,-122.1039352,,31.978828,0.1,327.42105,1590792959438
Fix,GT,37.3495723,-122.1041427,,32.015854,0.1,330.00018,1590792960438
Fix,GT,37.3498143,-122.1043393,,32.001442,0.1,331.6644,1590792961438
Fix,GT,37.3500598,-122.1045283,,31.969717,0.1,332.76907,1590792962438
Fix,GT,37.350307,-122.1047137,,31.96233,0.1,332.87793,1590792963438
Fix,GT,37.3505533,-122.1049,,31.89164,0.1,332.4282,1590792964438
Fix,GT,37.3507978,-122.1050871,,31.683187,0.1,332.38092,1590792965438
Fix,GT,37.3510403,-122.1052719,,31.319355,0.1,332.52512,1590792966438
Fix,GT,37.3512791,-122.1054553,,30.86254,0.1,332.00568,1590792967438
Fix,GT,37.3515128,-122.1056405,,30.559483,0.1,331.06638,1590792968438
Fix,GT,37.3517424,-122.1058301,,30.51482,0.1,329.53735,1590792969438
Fix,GT,37.3519664,-122.1060292,,30.486004,0.1,327.08466,1590792970438
Fix,GT,37.3521826,-122.1062403,,30.403273,0.1,324.69717,1590792971438
Fix,GT,37.3523918,-122.1064607,,30.279465,0.1,322.80496,1590792972438
Fix,GT,37.352594,-122.1066884,,30.132269,0.1,320.95026,1590792973438
Fix,GT,37.3527891,-122.1069233,,30.000568,0.1,318.92548,1590792974438
Fix,GT,37.3529764,-122.107166,,29.88832,0.1,316.71228,1590792975438
Fix,GT,37.3531555,-122.1074165,,29.787968,0.1,314.64856,1590792976438
Fix,GT,37.3533275,-122.1076737,,29.71492,0.1,312.8654,1590792977438
Fix,GT,37.3534927,-122.1079372,,29.674057,0.1,310.9746,1590792978438
Fix,GT,37.3536504,-122.1082073,,29.679348,0.1,308.94244,1590792979438
Fix,GT,37.3538004,-122.1084847,,29.728388,0.1,306.8968,1590792980438
Fix,GT,37.3539427,-122.1087691,,29.783615,0.1,304.8021,1590792981438
Fix,GT,37.3540766,-122.1090605,,29.842358,0.1,302.61163,1590792982438
Fix,GT,37.354202,-122.1093589,,29.936737,0.1,300.52618,1590792983438
Fix,GT,37.3543195,-122.1096634,,30.041933,0.1,298.77863,1590792984438
Fix,GT,37.3544307,-122.1099731,,30.153624,0.1,297.0954,1590792985438
Fix,GT,37.354534,-122.1102886,,30.309143,0.1,295.0233,1590792986438
Fix,GT,37.354629,-122.1106104,,30.507202,0.1,293.2975,1590792987438
Fix,GT,37.3547189,-122.1109373,,30.777813,0.1,292.28738,1590792988438
Fix,GT,37.3548057,-122.1112689,,31.047531,0.1,291.5007,1590792989438
Fix,GT,37.3548899,-122.1116039,,31.169582,0.1,290.9911,1590792990438
Fix,GT,37.3549724,-122.1119401,,31.127985,0.1,290.76526,1590792991438
Fix,GT,37.3550546,-122.1122751,,30.949831,0.1,290.94577,1590792992438
Fix,GT,37.3551379,-122.112607,,30.677265,0.1,291.57025,1590792993438
Fix,GT,37.3552239,-122.1129343,,30.37783,0.1,292.43872,1590792994438
Fix,GT,37.3553138,-122.1132569,,30.15229,0.1,293.60004,1590792995438
Fix,GT,37.3554093,-122.1135749,,30.031355,0.1,295.18512,1590792996438
Fix,GT,37.3555116,-122.113888,,29.917694,0.1,296.9186,1590792997438
Fix,GT,37.3556209,-122.1141957,,29.770458,0.1,298.75284,1590792998438
Fix,GT,37.3557383,-122.1144967,,29.605091,0.1,301.10004,1590792999438
Fix,GT,37.3558649,-122.1147901,,29.471233,0.1,303.20227,1590793000438
Fix,GT,37.355999,-122.1150768,,29.360077,0.1,305.05487,1590793001438
Fix,GT,37.3561401,-122.1153564,,29.24174,0.1,307.21042,1590793002438
Fix,GT,37.356289,-122.1156279,,29.132969,0.1,309.33725,1590793003438
Fix,GT,37.3564449,-122.1158919,,29.048353,0.1,311.1281,1590793004438
Fix,GT,37.3566067,-122.1161493,,28.973076,0.1,312.89612,1590793005438
Fix,GT,37.3567746,-122.1163993,,28.907524,0.1,314.86813,1590793006438
Fix,GT,37.3569491,-122.1166414,,28.87955,0.1,316.87015,1590793007438
Fix,GT,37.3571304,-122.1168755,,28.87729,0.1,319.1056,1590793008438
Fix,GT,37.357319,-122.1171005,,28.906864,0.1,321.1857,1590793009438
Fix,GT,37.3575139,-122.1173172,,28.92229,0.1,322.81848,1590793010438
Fix,GT,37.3577134,-122.1175272,,28.913933,0.1,324.7555,1590793011438
Fix,GT,37.3579182,-122.117729,,28.93005,0.1,326.49234,1590793012438
Fix,GT,37.358128,-122.1179229,,28.930264,0.1,328.41467,1590793013438
Fix,GT,37.3583435,-122.1181065,,28.874722,0.1,330.7712,1590793014438
Fix,GT,37.3585636,-122.1182791,,28.750591,0.1,332.76642,1590793015438
Fix,GT,37.3587872,-122.1184418,,28.617996,0.1,334.5423,1590793016438
Fix,GT,37.3590134,-122.1185951,,28.45707,0.1,336.1521,1590793017438
Fix,GT,37.3592408,-122.1187411,,28.280195,0.1,337.1268,1590793018438
Fix,GT,37.3594684,-122.1188835,,28.204258,0.1,337.52036,1590793019438
Fix,GT,37.3596971,-122.1190234,,28.311996,0.1,338.07242,1590793020438
Fix,GT,37.3599282,-122.1191617,,28.561464,0.1,338.4646,1590793021438
Fix,GT,37.360162,-122.1193007,,28.90388,0.1,338.388,1590793022438
Fix,GT,37.3603983,-122.1194429,,29.285507,0.1,337.97272,1590793023438
Fix,GT,37.360637,-122.1195887,,29.643864,0.1,337.6828,1590793024438
Fix,GT,37.3608776,-122.1197372,,29.84425,0.1,337.60052,1590793025438
Fix,GT,37.3611187,-122.1198865,,29.858158,0.1,337.38278,1590793026438
Fix,GT,37.3613589,-122.1200385,,29.932995,0.1,336.62036,1590793027438
Fix,GT,37.3615981,-122.120197,,30.15953,0.1,335.18567,1590793028438
Fix,GT,37.3618352,-122.1203658,,30.437069,0.1,333.02414,1590793029438
Fix,GT,37.3620683,-122.1205494,,30.739462,0.1,330.31262,1590793030438
Fix,GT,37.3622966,-122.120748,,31.022116,0.1,327.86923,1590793031438
Fix,GT,37.3625201,-122.1209603,,31.231747,0.1,325.37903,1590793032438
Fix,GT,37.3627358,-122.1211862,,31.21862,0.1,322.61414,1590793033438
Fix,GT,37.3629432,-122.1214228,,31.095406,0.1,320.4461,1590793034438
Fix,GT,37.3631427,-122.1216684,,31.080471,0.1,318.0074,1590793035438
Fix,GT,37.3633324,-122.1219258,,31.013145,0.1,315.1266,1590793036438
Fix,GT,37.3635116,-122.1221928,,30.805504,0.1,312.68134,1590793037438
Fix,GT,37.3636806,-122.1224664,,30.541672,0.1,310.284,1590793038438
Fix,GT,37.363839,-122.1227467,,30.355125,0.1,307.97128,1590793039438
Fix,GT,37.3639878,-122.1230333,,30.275738,0.1,305.6626,1590793040438
Fix,GT,37.3641267,-122.1233268,,30.233513,0.1,303.1984,1590793041438
Fix,GT,37.3642552,-122.1236273,,30.188873,0.1,300.6861,1590793042438
Fix,GT,37.3643725,-122.1239342,,30.148453,0.1,297.96246,1590793043438
Fix,GT,37.3644778,-122.1242472,,30.075348,0.1,295.33856,1590793044438
Fix,GT,37.3645722,-122.1245646,,29.98965,0.1,293.1051,1590793045438
Fix,GT,37.3646562,-122.1248854,,29.883339,0.1,290.813,1590793046438
Fix,GT,37.3647295,-122.1252088,,29.742682,0.1,288.47903,1590793047438
Fix,GT,37.3647924,-122.1255344,,29.660679,0.1,286.29166,1590793048438
Fix,GT,37.3648453,-122.1258624,,29.6611,0.1,283.9958,1590793049438
Fix,GT,37.3648866,-122.1261927,,29.637386,0.1,281.2315,1590793050438
Fix,GT,37.3649147,-122.1265249,,29.582546,0.1,278.5092,1590793051438
Fix,GT,37.3649318,-122.1268576,,29.513264,0.1,276.47955,1590793052438
Fix,GT,37.3649402,-122.12719,,29.44439,0.1,274.76434,1590793053438
Fix,GT,37.3649433,-122.127522,,29.388058,0.1,274.13788,1590793054438
Fix,GT,37.364946,-122.1278533,,29.31934,0.1,274.52136,1590793055438
Fix,GT,37.3649496,-122.1281836,,29.189476,0.1,274.58044,1590793056438
Fix,GT,37.3649531,-122.1285119,,28.965267,0.1,274.56683,1590793057438
Fix,GT,37.3649567,-122.1288372,,28.657307,0.1,274.67004,1590793058438
Fix,GT,37.3649617,-122.1291591,,28.396185,0.1,275.28122,1590793059438
Fix,GT,37.3649719,-122.1294784,,28.239094,0.1,276.88177,1590793060438
Fix,GT,37.3649908,-122.1297955,,28.088554,0.1,279.20517,1590793061438
Fix,GT,37.3650201,-122.1301097,,27.93613,0.1,281.72473,1590793062438
Fix,GT,37.3650606,-122.1304203,,27.808437,0.1,284.43216,1590793063438
Fix,GT,37.3651132,-122.1307267,,27.709053,0.1,287.31818,1590793064438
Fix,GT,37.3651776,-122.1310286,,27.626228,0.1,290.14502,1590793065438
Fix,GT,37.3652527,-122.1313253,,27.512344,0.1,292.42242,1590793066438
Fix,GT,37.3653347,-122.1316177,,27.3746,0.1,293.56418,1590793067438
Fix,GT,37.3654191,-122.1319075,,27.286652,0.1,294.03064,1590793068438
Fix,GT,37.3655047,-122.1321959,,27.211384,0.1,294.26788,1590793069438
Fix,GT,37.3655904,-122.1324839,,27.281937,0.1,294.20554,1590793070438
Fix,GT,37.3656763,-122.1327742,,27.64803,0.1,294.12836,1590793071438
Fix,GT,37.3657639,-122.133069,,28.076752,0.1,294.35483,1590793072438
Fix,GT,37.3658538,-122.1333675,,28.435242,0.1,294.60696,1590793073438
Fix,GT,37.3659454,-122.1336692,,28.776585,0.1,294.59482,1590793074438
Fix,GT,37.3660375,-122.1339749,,29.119196,0.1,294.28284,1590793075438
Fix,GT,37.3661293,-122.1342845,,29.426735,0.1,294.0844,1590793076438
Fix,GT,37.366222,-122.1345974,,29.664396,0.1,294.20517,1590793077438
Fix,GT,37.3663157,-122.1349122,,29.855642,0.1,294.31317,1590793078438
Fix,GT,37.3664105,-122.1352287,,30.044525,0.1,294.40323,1590793079438
Fix,GT,37.366506,-122.1355471,,30.202023,0.1,294.36353,1590793080438
Fix,GT,37.3666014,-122.1358667,,30.241829,0.1,294.167,1590793081438
Fix,GT,37.3666959,-122.1361861,,30.109993,0.1,294.19394,1590793082438
Fix,GT,37.3667911,-122.1365036,,29.969307,0.1,294.78848,1590793083438
Fix,GT,37.3668899,-122.1368182,,29.940617,0.1,295.77478,1590793084438
Fix,GT,37.366994,-122.1371302,,29.942291,0.1,297.2535,1590793085438
Fix,GT,37.3671056,-122.1374379,,29.941475,0.1,299.29727,1590793086438
Fix,GT,37.3672258,-122.1377407,,29.978416,0.1,301.19464,1590793087438
Fix,GT,37.3673533,-122.1380395,,30.030437,0.1,302.6646,1590793088438
Fix,GT,37.3674877,-122.138334,,30.063229,0.1,304.55887,1590793089438
Fix,GT,37.367631,-122.1386224,,30.095997,0.1,306.98166,1590793090438
Fix,GT,37.3677848,-122.1389027,,30.13141,0.1,309.6782,1590793091438
Fix,GT,37.3679496,-122.1391734,,30.178703,0.1,312.65228,1590793092438
Fix,GT,37.3681245,-122.1394344,,30.1502,0.1,314.75552,1590793093438
Fix,GT,37.3683032,-122.1396892,,29.89336,0.1,315.4322,1590793094438
Fix,GT,37.3684822,-122.1399384,,29.496117,0.1,316.29498,1590793095438
Fix,GT,37.3686634,-122.1401789,,29.076721,0.1,318.14175,1590793096438
Fix,GT,37.3688486,-122.140408,,28.675571,0.1,320.22165,1590793097438
Fix,GT,37.3690374,-122.140626,,28.34208,0.1,322.0768,1590793098438
Fix,GT,37.3692298,-122.140834,,28.034721,0.1,324.03616,1590793099438
Fix,GT,37.3694255,-122.1410313,,27.731213,0.1,325.85532,1590793100438
Fix,GT,37.369623,-122.1412204,,27.434765,0.1,326.84415,1590793101438
Fix,GT,37.3698207,-122.1414046,,27.249268,0.1,327.42273,1590793102438
Fix,GT,37.3700189,-122.1415867,,27.366255,0.1,327.78116,1590793103438
Fix,GT,37.3702197,-122.1417687,,27.64309,0.1,328.0563,1590793104438
Fix,GT,37.370423,-122.1419521,,27.96196,0.1,328.08957,1590793105438
Fix,GT,37.3706286,-122.1421377,,28.293293,0.1,328.04724,1590793106438
Fix,GT,37.3708366,-122.1423253,,28.597313,0.1,328.09018,1590793107438
Fix,GT,37.3710466,-122.1425145,,28.792082,0.1,328.08334,1590793108438
Fix,GT,37.3712573,-122.1427048,,28.813244,0.1,327.95667,1590793109438
Fix,GT,37.3714676,-122.1428955,,28.8056,0.1,327.92517,1590793110438
Fix,GT,37.3716785,-122.1430859,,28.894363,0.1,328.11224,1590793111438
Fix,GT,37.3718904,-122.1432764,,29.004108,0.1,328.13654,1590793112438
Fix,GT,37.3721028,-122.1434678,,29.074085,0.1,328.01694,1590793113438
Fix,GT,37.3723155,-122.1436603,,29.158855,0.1,327.961,1590793114438
Fix,GT,37.3725287,-122.1438531,,29.224297,0.1,328.07068,1590793115438
Fix,GT,37.3727431,-122.1440454,,29.312805,0.1,328.37134,1590793116438
Fix,GT,37.3729588,-122.1442373,,29.432423,0.1,328.43277,1590793117438
Fix,GT,37.3731754,-122.1444301,,29.538387,0.1,328.37207,1590793118438
Fix,GT,37.3733925,-122.1446236,,29.571808,0.1,328.3122,1590793119438
Fix,GT,37.3736088,-122.1448179,,29.484875,0.1,327.971,1590793120438
Fix,GT,37.3738232,-122.1450135,,29.410194,0.1,327.53793,1590793121438
Fix,GT,37.3740364,-122.1452115,,29.538042,0.1,327.0507,1590793122438
Fix,GT,37.3742498,-122.1454134,,29.868809,0.1,326.46786,1590793123438
Fix,GT,37.3744639,-122.145621,,30.217094,0.1,325.72766,1590793124438
Fix,GT,37.3746781,-122.1458348,,30.572523,0.1,324.75485,1590793125438
Fix,GT,37.3748912,-122.1460562,,30.903988,0.1,323.49234,1590793126438
Fix,GT,37.3751026,-122.1462851,,31.11764,0.1,322.43677,1590793127438
Fix,GT,37.3753127,-122.1465191,,31.25663,0.1,322.00064,1590793128438
Fix,GT,37.3755227,-122.1467554,,31.406029,0.1,321.8653,1590793129438
Fix,GT,37.3757336,-122.1469929,,31.517212,0.1,321.71494,1590793130438
Fix,GT,37.3759443,-122.1472317,,31.540804,0.1,321.59415,1590793131438
Fix,GT,37.376155,-122.1474706,,31.516973,0.1,321.67645,1590793132438
Fix,GT,37.3763656,-122.1477088,,31.448566,0.1,321.73758,1590793133438
Fix,GT,37.3765758,-122.1479461,,31.33324,0.1,321.74075,1590793134438
Fix,GT,37.3767852,-122.1481828,,31.295921,0.1,321.7024,1590793135438
Fix,GT,37.3769947,-122.14842,,31.39645,0.1,321.66568,1590793136438
Fix,GT,37.3772049,-122.1486579,,31.478735,0.1,321.73303,1590793137438
Fix,GT,37.3774163,-122.1488951,,31.4976,0.1,322.16904,1590793138438
Fix,GT,37.3776303,-122.1491287,,31.45379,0.1,323.47852,1590793139438
Fix,GT,37.377849,-122.1493536,,31.344646,0.1,325.43546,1590793140438
Fix,GT,37.378073,-122.1495682,,31.257946,0.1,327.4807,1590793141438
Fix,GT,37.3783025,-122.149772,,31.166882,0.1,329.61444,1590793142438
Fix,GT,37.3785372,-122.1499642,,31.04569,0.1,331.65878,1590793143438
Fix,GT,37.3787759,-122.1501457,,30.94352,0.1,333.4937,1590793144438
Fix,GT,37.3790186,-122.1503171,,30.896275,0.1,335.40012,1590793145438
Fix,GT,37.3792658,-122.1504777,,30.89288,0.1,337.49973,1590793146438
Fix,GT,37.3795174,-122.1506271,,30.908195,0.1,339.3832,1590793147438
Fix,GT,37.3797728,-122.1507665,,30.8967,0.1,341.2176,1590793148438
Fix,GT,37.3800312,-122.1508957,,30.826836,0.1,343.02597,1590793149438
Fix,GT,37.3802915,-122.1510138,,30.583466,0.1,344.91125,1590793150438
Fix,GT,37.3805524,-122.1511189,,30.279192,0.1,347.16962,1590793151438
Fix,GT,37.380815,-122.1512107,,30.271832,0.1,349.24548,1590793152438
