MessageType,Provider,LatitudeDegrees,LongitudeDegrees,AltitudeMeters,SpeedMps,AccuracyMeters,BearingDegrees,UnixTimeMillis
Fix,GT,37.6267554,-122.4274168,,0.008773433,0.1,67.78253,1591388263499
Fix,GT,37.6267554,-122.4274168,,0.009150311,0.1,67.782776,1591388264439
Fix,GT,37.6267554,-122.4274168,,0.009451194,0.1,67.78287,1591388265439
Fix,GT,37.6267554,-122.4274168,,0.008360252,0.1,67.78314,1591388266439
Fix,GT,37.6267554,-122.4274168,,0.008597456,0.1,67.78351,1591388267439
Fix,GT,37.6267554,-122.4274168,,0.010253945,0.1,67.7836,1591388268439
Fix,GT,37.6267554,-122.4274168,,0.010561648,0.1,67.78375,1591388269439
Fix,GT,37.6267554,-122.4274168,,0.009313821,0.1,67.78406,1591388270439
Fix,GT,37.6267554,-122.4274168,,0.009252749,0.1,67.78415,1591388271439
Fix,GT,37.6267554,-122.4274168,,0.011181086,0.1,67.78427,1591388272439
Fix,GT,37.6267554,-122.4274168,,0.011085261,0.1,67.78424,1591388273439
Fix,GT,37.6267554,-122.4274168,,0.0098225735,0.1,67.785,1591388274439
Fix,GT,37.6267554,-122.4274168,,0.008275055,0.1,67.78543,1591388275439
Fix,GT,37.6267554,-122.4274168,,0.0070710676,0.1,67.785645,1591388276439
Fix,GT,37.6267554,-122.4274168,,0.0058276667,0.1,67.785736,1591388277439
Fix,GT,37.6267554,-122.4274168,,0.004575582,0.1,67.78589,1591388278439
Fix,GT,37.6267554,-122.4274168,,0.005616826,0.1,67.78604,1591388279439
Fix,GT,37.6267554,-122.4274168,,0.0060750577,0.1,67.785675,1591388280439
Fix,GT,37.6267554,-122.4274168,,0.005984921,0.1,67.78558,1591388281439
Fix,GT,37.6267554,-122.4274168,,0.005554245,0.1,67.78577,1591388282439
Fix,GT,37.6267554,-122.4274168,,0.0047041895,0.1,67.78613,1591388283439
Fix,GT,37.6267554,-122.4274168,,0.0059104594,0.1,67.78647,1591388284439
Fix,GT,37.6267554,-122.4274168,,0.007132628,0.1,67.786804,1591388285439
Fix,GT,37.6267554,-122.4274168,,0.006855908,0.1,67.78711,1591388286439
Fix,GT,37.6267554,-122.4274168,,0.006403124,0.1,67.78723,1591388287439
Fix,GT,37.6267554,-122.4274168,,0.005786299,0.1,67.7876,1591388288439
Fix,GT,37.6267554,-122.4274168,,0.005169322,0.1,67.78781,1591388289439
Fix,GT,37.6267554,-122.4274168,,0.0056918347,0.1,67.78833,1591388290439
Fix,GT,37.6267554,-122.4274168,,0.0056503005,0.1,67.78851,1591388291439
Fix,GT,37.6267554,-122.4274168,,0.004669999,0.1,67.78851,1591388292439
Fix,GT,37.6267554,-122.4274168,,0.0037007174,0.1,67.78876,1591388293439
Fix,GT,37.6267554,-122.4274168,,0.003090939,0.1,67.78851,1591388294439
Fix,GT,37.6267554,-122.4274168,,0.0026641688,0.1,67.78821,1591388295439
Fix,GT,37.6267554,-122.4274168,,0.002236068,0.1,67.787964,1591388296439
Fix,GT,37.6267554,-122.4274168,,0.002236068,0.1,67.78812,1591388297439
Fix,GT,37.6267554,-122.4274168,,0.002838105,0.1,67.78848,1591388298439
Fix,GT,37.6267554,-122.4274168,,0.0034106844,0.1,67.78897,1591388299439
Fix,GT,37.6267554,-122.4274168,,0.0031622776,0.1,67.78912,1591388300439
Fix,GT,37.6267554,-122.4274168,,0.0033571445,0.1,67.78851,1591388301439
Fix,GT,37.6267554,-122.4274168,,0.004507322,0.1,67.78818,1591388302439
Fix,GT,37.6267554,-122.4274168,,0.0057333894,0.1,67.78781,1591388303439
Fix,GT,37.6267554,-122.4274168,,0.0052336045,0.1,67.787476,1591388304439
Fix,GT,37.6267554,-122.4274168,,0.0043712477,0.1,67.7876,1591388305439
Fix,GT,37.6267554,-122.4274168,,0.0039625703,0.1,67.78824,1591388306439
Fix,GT,37.6267554,-122.4274168,,0.0036055516,0.1,67.78845,1591388307439
Fix,GT,37.6267554,-122.4274168,,0.0036055516,0.1,67.78891,1591388308439
Fix,GT,37.6267554,-122.4274168,,0.0039865095,0.1,67.78894,1591388309439
Fix,GT,37.6267554,-122.4274168,,0.004472136,0.1,67.78845,1591388310439
Fix,GT,37.6267554,-122.4274168,,0.0043712477,0.1,67.788574,1591388311439
Fix,GT,37.6267554,-122.4274168,,0.0039625703,0.1,67.78873,1591388312439
Fix,GT,37.6267554,-122.4274168,,0.0036055513,0.1,67.788055,1591388313439
Fix,GT,37.6267554,-122.4274168,,0.0036055513,0.1,67.78812,1591388314439
Fix,GT,37.6267554,-122.4274168,,0.0032639205,0.1,67.78842,1591388315439
Fix,GT,37.6267554,-122.4274168,,0.0028284271,0.1,67.789154,1591388316439
Fix,GT,37.6267554,-122.4274168,,0.0037830696,0.1,67.78906,1591388317439
Fix,GT,37.6267554,-122.4274168,,0.005365294,0.1,67.78897,1591388318439
Fix,GT,37.6267554,-122.4274168,,0.005465658,0.1,67.789276,1591388319439
Fix,GT,37.6267554,-122.4274168,,0.0047679464,0.1,67.78964,1591388320439
Fix,GT,37.6267554,-122.4274168,,0.0038963105,0.1,67.79025,1591388321439
Fix,GT,37.6267554,-122.4274168,,0.0033571445,0.1,67.79004,1591388322439
Fix,GT,37.6267554,-122.4274168,,0.0039865095,0.1,67.79013,1591388323439
Fix,GT,37.6267554,-122.4274168,,0.0044721356,0.1,67.79022,1591388324439
Fix,GT,37.6267554,-122.4274168,,0.0047041895,0.1,67.78992,1591388325439
Fix,GT,37.6267554,-122.4274168,,0.005169322,0.1,67.79053,1591388326439
Fix,GT,37.6267554,-122.4274168,,0.005385164,0.1,67.79108,1591388327439
Fix,GT,37.6267554,-122.4274168,,0.0046028304,0.1,67.79108,1591388328439
Fix,GT,37.6267554,-122.4274168,,0.004583857,0.1,67.79117,1591388329439
Fix,GT,37.6267554,-122.4274168,,0.0062165996,0.1,67.79068,1591388330439
Fix,GT,37.6267554,-122.4274168,,0.0065740882,0.1,67.789856,1591388331439
Fix,GT,37.6267554,-122.4274168,,0.00595562,0.1,67.78967,1591388332439
Fix,GT,37.6267554,-122.4274168,,0.004776234,0.1,67.79065,1591388333439
Fix,GT,37.6267554,-122.4274168,,0.004608931,0.1,67.79129,1591388334439
Fix,GT,37.6267554,-122.4274168,,0.0061263028,0.1,67.79117,1591388335439
Fix,GT,37.6267554,-122.4274168,,0.006742894,0.1,67.7908,1591388336439
Fix,GT,37.6267554,-122.4274168,,0.006107563,0.1,67.79083,1591388337439
Fix,GT,37.6267554,-122.4274168,,0.006437679,0.1,67.79077,1591388338439
Fix,GT,37.6267554,-122.4274168,,0.0071495418,0.1,67.789856,1591388339439
Fix,GT,37.6267554,-122.4274168,,0.0069115497,0.1,67.78961,1591388340439
Fix,GT,37.6267554,-122.4274168,,0.006433254,0.1,67.79071,1591388341439
Fix,GT,37.6267554,-122.4274168,,0.0056503005,0.1,67.79074,1591388342439
Fix,GT,37.6267554,-122.4274168,,0.005637776,0.1,67.791504,1591388343439
Fix,GT,37.6267554,-122.4274168,,0.006493211,0.1,67.79297,1591388344439
Fix,GT,37.6267554,-122.4274168,,0.0065740882,0.1,67.79202,1591388345439
Fix,GT,37.6267554,-122.4274168,,0.006075057,0.1,67.792145,1591388346439
Fix,GT,37.6267554,-122.4274168,,0.0049826046,0.1,67.79266,1591388347439
Fix,GT,37.6267554,-122.4274168,,0.0041756546,0.1,67.79227,1591388348439
Fix,GT,37.6267554,-122.4274168,,0.0039625703,0.1,67.79245,1591388349439
Fix,GT,37.6267554,-122.4274168,,0.0032639205,0.1,67.79242,1591388350439
Fix,GT,37.6267554,-122.4274168,,0.003450128,0.1,67.79138,1591388351439
Fix,GT,37.6267554,-122.4274168,,0.0042426405,0.1,67.79019,1591388352439
Fix,GT,37.6267554,-122.4274168,,0.0037677032,0.1,67.79028,1591388353439
Fix,GT,37.6267554,-122.4274168,,0.003738103,0.1,67.790985,1591388354439
Fix,GT,37.6267554,-122.4274168,,0.004992949,0.1,67.79147,1591388355439
Fix,GT,37.6267554,-122.4274168,,0.0056568542,0.1,67.79132,1591388356439
Fix,GT,37.6267554,-122.4274168,,0.005950382,0.1,67.78998,1591388357439
Fix,GT,37.6267554,-122.4274168,,0.0063245553,0.1,67.78848,1591388358439
Fix,GT,37.6267554,-122.4274168,,0.0057857987,0.1,67.789825,1591388359439
Fix,GT,37.6267554,-122.4274168,,0.0046699992,0.1,67.790375,1591388360439
Fix,GT,37.6267554,-122.4274168,,0.0040689874,0.1,67.78967,1591388361439
Fix,GT,37.6267554,-122.4274168,,0.0031207823,0.1,67.789795,1591388362439
Fix,GT,37.6267554,-122.4274168,,0.0025109476,0.1,67.78961,1591388363439
Fix,GT,37.6267554,-122.4274168,,0.0027551076,0.1,67.789734,1591388364439
Fix,GT,37.6267554,-122.4274168,,0.002643238,0.1,67.78946,1591388365439
Fix,GT,37.6267554,-122.4274168,,0.0035846662,0.1,67.78961,1591388366439
Fix,GT,37.6267554,-122.4274168,,0.0038955843,0.1,67.78897,1591388367439
Fix,GT,37.6267554,-122.4274168,,0.0039865095,0.1,67.78949,1591388368439
Fix,GT,37.6267554,-122.4274168,,0.0047477195,0.1,67.791046,1591388369439
Fix,GT,37.6267554,-122.4274168,,0.004823436,0.1,67.79068,1591388370439
Fix,GT,37.6267554,-122.4274168,,0.0043186992,0.1,67.79074,1591388371439
Fix,GT,37.6267554,-122.4274168,,0.0038955845,0.1,67.79111,1591388372439
Fix,GT,37.6267554,-122.4274168,,0.0030035144,0.1,67.791016,1591388373439
Fix,GT,37.6267554,-122.4274168,,0.0030115084,0.1,67.791016,1591388374439
Fix,GT,37.6267554,-122.4274168,,0.004207555,0.1,67.790985,1591388375439
Fix,GT,37.6267554,-122.4274168,,0.003749547,0.1,67.79114,1591388376439
Fix,GT,37.6267554,-122.4274168,,0.0031700581,0.1,67.79077,1591388377439
Fix,GT,37.6267554,-122.4274168,,0.0032639205,0.1,67.79065,1591388378439
Fix,GT,37.6267554,-122.4274168,,0.002568021,0.1,67.79089,1591388379439
Fix,GT,37.6267554,-122.4274168,,0.0025718994,0.1,67.790375,1591388380439
Fix,GT,37.6267554,-122.4274168,,0.0030713389,0.1,67.79016,1591388381439
Fix,GT,37.6267554,-122.4274168,,0.0035846662,0.1,67.79016,1591388382439
Fix,GT,37.6267554,-122.4274168,,0.0041231057,0.1,67.78992,1591388383439
Fix,GT,37.6267554,-122.4274168,,0.0040689874,0.1,67.79031,1591388384439
Fix,GT,37.6267554,-122.4274168,,0.00363173,0.1,67.79077,1591388385439
Fix,GT,37.6267554,-122.4274168,,0.003090939,0.1,67.79031,1591388386439
Fix,GT,37.6267554,-122.4274168,,0.0030713389,0.1,67.7905,1591388387439
Fix,GT,37.6267554,-122.4274168,,0.0027551076,0.1,67.79059,1591388388439
Fix,GT,37.6267554,-122.4274168,,0.002236068,0.1,67.790344,1591388389439
Fix,GT,37.6267554,-122.4274168,,0.0016926816,0.1,67.790405,1591388390439
Fix,GT,37.6267554,-122.4274168,,0.0014396091,0.1,67.79068,1591388391439
Fix,GT,37.6267554,-122.4274168,,0.0021037776,0.1,67.79089,1591388392439
Fix,GT,37.6267554,-122.4274168,,0.0016926816,0.1,67.7912,1591388393439
Fix,GT,37.6267554,-122.4274168,,0.0005603911,0.1,67.790955,1591388394439
Fix,GT,37.6267554,-122.4274168,,0.00062170095,0.1,67.79047,1591388395439
Fix,GT,37.6267554,-122.4274168,,0.0012321216,0.1,67.79013,1591388396439
Fix,GT,37.6267554,-122.4274168,,0.0014396091,0.1,67.79004,1591388397439
Fix,GT,37.6267554,-122.4274168,,0.0015603912,0.1,67.79025,1591388398439
Fix,GT,37.6267554,-122.4274168,,0.0015433866,0.1,67.790436,1591388399439
Fix,GT,37.6267554,-122.4274168,,0.0024964744,0.1,67.7901,1591388400439
Fix,GT,37.6267554,-122.4274168,,0.0029038521,0.1,67.78989,1591388401439
Fix,GT,37.6267554,-122.4274168,,0.0026641688,0.1,67.78967,1591388402439
Fix,GT,37.6267554,-122.4274168,,0.0028381052,0.1,67.789795,1591388403439
Fix,GT,37.6267554,-122.4274168,,0.0026422197,0.1,67.79001,1591388404439
Fix,GT,37.6267554,-122.4274168,,0.0021826783,0.1,67.7894,1591388405439
Fix,GT,37.6267554,-122.4274168,,0.0035846662,0.1,67.78876,1591388406439
Fix,GT,37.6267554,-122.4274168,,0.0041231057,0.1,67.78894,1591388407439
Fix,GT,37.6267554,-122.4274168,,0.0041231057,0.1,67.7897,1591388408439
Fix,GT,37.6267554,-122.4274168,,0.0049845884,0.1,67.78992,1591388409439
Fix,GT,37.6267554,-122.4274168,,0.0046521276,0.1,67.7901,1591388410439
Fix,GT,37.6267554,-122.4274168,,0.002568021,0.1,67.7905,1591388411439
Fix,GT,37.6267554,-122.4274168,,0.002838105,0.1,67.79089,1591388412439
Fix,GT,37.6267554,-122.4274168,,0.0033393456,0.1,67.79071,1591388413439
Fix,GT,37.6267554,-122.4274168,,0.002302874,0.1,67.79059,1591388414439
Fix,GT,37.6267554,-122.4274168,,0.0026050669,0.1,67.79083,1591388415439
Fix,GT,37.6267554,-122.4274168,,0.0049845884,0.1,67.790344,1591388416439
Fix,GT,37.6267554,-122.4274168,,0.006756688,0.1,67.79022,1591388417439
Fix,GT,37.6267554,-122.4274168,,0.007216798,0.1,67.79022,1591388418439
Fix,GT,37.6267554,-122.4274168,,0.006433254,0.1,67.79016,1591388419439
Fix,GT,37.6267554,-122.4274168,,0.0057760924,0.1,67.789856,1591388420439
Fix,GT,37.6267554,-122.4274168,,0.0044079637,0.1,67.78967,1591388421439
Fix,GT,37.6267554,-122.4274168,,0.003530548,0.1,67.79004,1591388422439
Fix,GT,37.6267554,-122.4274168,,0.004054119,0.1,67.78989,1591388423439
Fix,GT,37.6267554,-122.4274168,,0.0041231057,0.1,67.7894,1591388424439
Fix,GT,37.6267554,-122.4274168,,0.0037007174,0.1,67.78943,1591388425439
Fix,GT,37.6267554,-122.4274168,,0.0035846662,0.1,67.7894,1591388426439
Fix,GT,37.6267554,-122.4274168,,0.0045085964,0.1,67.789215,1591388427439
Fix,GT,37.6267554,-122.4274168,,0.0061499174,0.1,67.78903,1591388428439
Fix,GT,37.6267554,-122.4274168,,0.006509386,0.1,67.788574,1591388429439
Fix,GT,37.6267554,-122.4274168,,0.0060578464,0.1,67.78818,1591388430439
Fix,GT,37.6267554,-122.4274168,,0.006860039,0.1,67.78793,1591388431439
Fix,GT,37.6267554,-122.4274168,,0.0066527287,0.1,67.78732,1591388432439
Fix,GT,37.6267554,-122.4274168,,0.0070398254,0.1,67.78702,1591388433439
Fix,GT,37.6267554,-122.4274168,,0.0072707,0.1,67.78812,1591388434439
Fix,GT,37.6267554,-122.4274168,,0.007216797,0.1,67.787964,1591388435439
Fix,GT,37.6267554,-122.4274168,,0.007740046,0.1,67.78784,1591388436439
Fix,GT,37.6267554,-122.4274168,,0.008591428,0.1,67.78836,1591388437439
Fix,GT,37.6267554,-122.4274168,,0.00843961,0.1,67.78848,1591388438439
Fix,GT,37.6267554,-122.4274168,,0.008120782,0.1,67.78815,1591388439439
Fix,GT,37.6267554,-122.4274168,,0.0070312424,0.1,67.78656,1591388440439
Fix,GT,37.6267554,-122.4274168,,0.007162965,0.1,67.785034,1591388441439
Fix,GT,37.6267554,-122.4274168,,0.0066430476,0.1,67.78485,1591388442439
Fix,GT,37.6267554,-122.4274168,,0.005465658,0.1,67.7847,1591388443439
Fix,GT,37.6267554,-122.4274168,,0.00504353,0.1,67.78433,1591388444439
Fix,GT,37.6267554,-122.4274168,,0.0054207835,0.1,67.78265,1591388445439
Fix,GT,37.6267554,-122.4274168,,0.005509188,0.1,67.78113,1591388446439
Fix,GT,37.6267553,-122.4274168,,0.0050990195,0.1,67.78192,1591388447439
Fix,GT,37.6267553,-122.4274168,,0.0055314815,0.1,67.78299,1591388448439
Fix,GT,37.6267552,-122.4274169,,0.0061890567,0.1,67.783264,1591388449439
Fix,GT,37.6267552,-122.4274169,,0.0057857987,0.1,67.78174,1591388450439
Fix,GT,37.6267552,-122.4274169,,0.005806431,0.1,67.78174,1591388451439
Fix,GT,37.6267551,-122.4274168,,0.048739187,0.1,67.782776,1591388452439
Fix,GT,37.6267558,-122.4274149,,0.36936828,0.1,67.69937,1591388453439
Fix,GT,37.626759,-122.4274078,,1.0857632,0.1,66.47366,1591388454439
Fix,GT,37.6267663,-122.4273927,,2.1088607,0.1,64.11801,1591388455439
Fix,GT,37.6267791,-122.427366,,3.4428787,0.1,62.230347,1591388456439
Fix,GT,37.6267994,-122.4273271,,4.7594757,0.1,59.81659,1591388457439
Fix,GT,37.6268267,-122.4272777,,5.821067,0.1,58.44879,1591388458439
Fix,GT,37.6268567,-122.4272168,,6.79311,0.1,61.659058,1591388459439
Fix,GT,37.6268873,-122.4271434,,7.7871943,0.1,65.68817,1591388460439
Fix,GT,37.6269195,-122.4270586,,8.685644,0.1,66.97705,1591388461439
Fix,GT,37.626954,-122.4269658,,9.250454,0.1,67.41983,1591388462439
Fix,GT,37.6269898,-122.4268691,,9.548882,0.1,67.85474,1591388463439
Fix,GT,37.627026,-122.4267694,,9.7990055,0.1,68.270935,1591388464439
Fix,GT,37.627063,-122.4266672,,10.02629,0.1,68.14093,1591388465439
Fix,GT,37.6271022,-122.4265635,,10.246744,0.1,66.88272,1591388466439
Fix,GT,37.6271436,-122.4264585,,10.467169,0.1,66.41339,1591388467439
Fix,GT,37.627185,-122.4263507,,10.658407,0.1,67.372375,1591388468439
Fix,GT,37.6272255,-122.4262407,,10.691395,0.1,68.2796,1591388469439
Fix,GT,37.6272637,-122.4261304,,10.566711,0.1,69.93451,1591388470439
Fix,GT,37.6272988,-122.4260206,,10.309086,0.1,71.29666,1591388471439
Fix,GT,37.627332,-122.4259144,,9.779564,0.1,71.0668,1591388472439
Fix,GT,37.6273649,-122.4258164,,8.943346,0.1,69.23758,1591388473439
Fix,GT,37.6273966,-122.4257309,,7.6544266,0.1,67.31653,1591388474439
Fix,GT,37.6274235,-122.4256613,,6.0147066,0.1,66.67175,1591388475439
Fix,GT,37.6274447,-122.4256077,,4.585717,0.1,66.35492,1591388476439
Fix,GT,37.627461,-122.4255666,,3.6206114,0.1,66.281494,1591388477439
Fix,GT,37.6274736,-122.4255341,,2.7982943,0.1,66.990814,1591388478439
Fix,GT,37.6274825,-122.4255101,,1.8295398,0.1,67.950775,1591388479439
Fix,GT,37.6274873,-122.4254965,,0.83763,0.1,68.3786,1591388480439
Fix,GT,37.627489,-122.4254919,,0.18243024,0.1,68.56848,1591388481439
Fix,GT,37.6274891,-122.4254918,,0.021344293,0.1,68.5697,1591388482439
Fix,GT,37.6274892,-122.4254918,,0.08126554,0.1,68.57251,1591388483439
Fix,GT,37.62749,-122.4254892,,0.6236158,0.1,69.09946,1591388484439
Fix,GT,37.6274925,-122.4254751,,2.019635,0.1,73.88443,1591388485439
Fix,GT,37.6274924,-122.4254419,,3.5723863,0.1,88.11264,1591388486439
Fix,GT,37.6274797,-122.425397,,4.5911665,0.1,111.70477,1591388487439
Fix,GT,37.6274476,-122.4253561,,5.4584246,0.1,138.51367,1591388488439
Fix,GT,37.6273999,-122.4253226,,6.5458584,0.1,154.28479,1591388489439
Fix,GT,37.627342,-122.4252865,,7.734854,0.1,155.84076,1591388490439
Fix,GT,37.6272754,-122.4252435,,8.844631,0.1,155.49304,1591388491439
Fix,GT,37.6272011,-122.4251951,,9.686765,0.1,155.1759,1591388492439
Fix,GT,37.6271217,-122.4251435,,10.045786,0.1,155.4696,1591388493439
Fix,GT,37.6270415,-122.4250933,,9.8075485,0.1,156.65027,1591388494439
Fix,GT,37.6269633,-122.4250469,,9.437742,0.1,157.66986,1591388495439
Fix,GT,37.6268857,-122.4250022,,9.605217,0.1,158.27966,1591388496439
Fix,GT,37.6268049,-122.4249559,,10.137342,0.1,158.16101,1591388497439
Fix,GT,37.62672,-122.424906,,10.656491,0.1,157.46094,1591388498439
Fix,GT,37.6266314,-122.4248529,,11.138504,0.1,157.17737,1591388499439
Fix,GT,37.6265394,-122.4247974,,11.499252,0.1,157.11816,1591388500439
Fix,GT,37.6264455,-122.4247407,,11.500251,0.1,157.05646,1591388501439
Fix,GT,37.6263542,-122.4246852,,10.911737,0.1,156.87128,1591388502439
Fix,GT,37.6262703,-122.4246336,,9.786902,0.1,156.58484,1591388503439
Fix,GT,37.6261965,-122.4245877,,8.491211,0.1,156.24701,1591388504439
Fix,GT,37.6261327,-122.4245486,,7.2823606,0.1,157.26666,1591388505439
Fix,GT,37.6260774,-122.424519,,5.954977,0.1,161.23608,1591388506439
Fix,GT,37.6260336,-122.4245026,,4.0757847,0.1,167.80383,1591388507439
Fix,GT,37.6260062,-122.4244974,,2.0790148,0.1,174.34198,1591388508439
Fix,GT,37.6259947,-122.424497,,0.66018355,0.1,177.85254,1591388509439
Fix,GT,37.625992,-122.4244971,,0.07062088,0.1,178.73877,1591388510439
Fix,GT,37.6259926,-122.424497,,0.050055742,0.1,178.60852,1591388511439
Fix,GT,37.625992,-122.4244969,,0.3067744,0.1,178.84369,1591388512439
Fix,GT,37.6259847,-122.4244976,,1.3964713,0.1,181.49011,1591388513439
Fix,GT,37.6259655,-122.4245029,,2.8241992,0.1,190.10796,1591388514439
Fix,GT,37.6259374,-122.42452,,3.8574834,0.1,206.30022,1591388515439
Fix,GT,37.6259087,-122.4245552,,4.9110193,0.1,226.32753,1591388516439
Fix,GT,37.6258818,-122.4246098,,6.320248,0.1,241.03574,1591388517439
Fix,GT,37.625853,-122.424681,,7.664815,0.1,245.8486,1591388518439
Fix,GT,37.6258202,-122.4247648,,8.803947,0.1,246.42221,1591388519439
Fix,GT,37.6257828,-122.4248602,,9.976084,0.1,246.47586,1591388520439
Fix,GT,37.6257407,-122.424967,,11.04995,0.1,246.16959,1591388521439
Fix,GT,37.6256941,-122.4250829,,11.871431,0.1,245.69316,1591388522439
Fix,GT,37.6256433,-122.4252059,,12.630488,0.1,245.00113,1591388523439
Fix,GT,37.6255883,-122.4253357,,13.350985,0.1,244.65356,1591388524439
Fix,GT,37.6255323,-122.4254733,,13.898834,0.1,246.65994,1591388525439
Fix,GT,37.6254823,-122.4256203,,14.302954,0.1,251.57571,1591388526439
Fix,GT,37.6254442,-122.425777,,14.617532,0.1,258.14035,1591388527439
Fix,GT,37.6254178,-122.4259411,,14.91322,0.1,262.69867,1591388528439
Fix,GT,37.6253973,-122.4261097,,15.15672,0.1,264.4491,1591388529439
Fix,GT,37.6253787,-122.4262807,,15.340183,0.1,264.9276,1591388530439
Fix,GT,37.6253585,-122.4264533,,15.46896,0.1,263.72125,1591388531439
Fix,GT,37.6253325,-122.4266256,,15.592974,0.1,260.57837,1591388532439
Fix,GT,37.6252969,-122.4267968,,15.747971,0.1,256.28558,1591388533439
Fix,GT,37.6252513,-122.4269665,,15.953448,0.1,252.63861,1591388534439
Fix,GT,37.6251987,-122.427135,,16.008018,0.1,250.4691,1591388535439
Fix,GT,37.6251438,-122.4273007,,15.646186,0.1,249.91357,1591388536439
Fix,GT,37.6250906,-122.4274618,,15.156969,0.1,250.48283,1591388537439
Fix,GT,37.6250405,-122.4276187,,14.649443,0.1,250.903,1591388538439
Fix,GT,37.6249911,-122.4277695,,14.217464,0.1,249.60272,1591388539439
Fix,GT,37.6249367,-122.4279137,,14.1178665,0.1,245.51967,1591388540439
Fix,GT,37.6248717,-122.4280499,,14.023576,0.1,239.10474,1591388541439
Fix,GT,37.624796,-122.4281744,,13.724744,0.1,233.02481,1591388542439
Fix,GT,37.6247146,-122.4282885,,13.38201,0.1,229.83376,1591388543439
Fix,GT,37.6246328,-122.4283956,,12.755602,0.1,228.45798,1591388544439
Fix,GT,37.6245543,-122.4284923,,11.599682,0.1,226.2457,1591388545439
Fix,GT,37.6244811,-122.4285738,,10.12178,0.1,223.08446,1591388546439
Fix,GT,37.6244159,-122.4286397,,8.492752,0.1,220.60733,1591388547439
Fix,GT,37.6243602,-122.4286915,,7.0672197,0.1,218.41895,1591388548439
Fix,GT,37.6243108,-122.4287332,,6.463049,0.1,215.9599,1591388549439
Fix,GT,37.6242601,-122.4287721,,6.961726,0.1,213.50703,1591388550439
Fix,GT,37.6242007,-122.4288083,,7.778227,0.1,206.8525,1591388551439
Fix,GT,37.6241322,-122.4288291,,8.162481,0.1,192.10498,1591388552439
Fix,GT,37.6240596,-122.4288218,,8.601563,0.1,173.58371,1591388553439
Fix,GT,37.6239848,-122.4287856,,9.603259,0.1,158.86572,1591388554439
Fix,GT,37.6239043,-122.4287287,,10.964892,0.1,152.20984,1591388555439
Fix,GT,37.6238155,-122.4286586,,12.315631,0.1,150.41595,1591388556439
Fix,GT,37.6237172,-122.4285795,,13.588869,0.1,150.24762,1591388557439
Fix,GT,37.6236091,-122.4284935,,14.773055,0.1,150.6062,1591388558439
Fix,GT,37.6234919,-122.4284013,,15.875841,0.1,150.65106,1591388559439
Fix,GT,37.6233672,-122.4283016,,16.90885,0.1,149.99243,1591388560439
Fix,GT,37.6232356,-122.4281936,,18.003038,0.1,149.50473,1591388561439
Fix,GT,37.6230955,-122.4280784,,19.168682,0.1,149.82288,1591388562439
Fix,GT,37.6229459,-122.4279576,,20.204613,0.1,150.1435,1591388563439
Fix,GT,37.6227893,-122.427832,,20.946444,0.1,150.37112,1591388564439
Fix,GT,37.6226269,-122.4277041,,21.619316,0.1,150.90637,1591388565439
Fix,GT,37.6224578,-122.4275742,,22.37031,0.1,151.57385,1591388566439
Fix,GT,37.6222819,-122.4274418,,23.147552,0.1,152.01422,1591388567439
Fix,GT,37.6220989,-122.4273067,,23.918144,0.1,152.53003,1591388568439
Fix,GT,37.6219092,-122.4271698,,24.620588,0.1,153.11176,1591388569439
Fix,GT,37.6217133,-122.4270313,,25.28347,0.1,153.55469,1591388570439
Fix,GT,37.6215119,-122.4268897,,25.932304,0.1,153.37708,1591388571439
Fix,GT,37.6213062,-122.4267432,,26.51175,0.1,153.04095,1591388572439
Fix,GT,37.6210966,-122.4265935,,27.014206,0.1,153.40851,1591388573439
Fix,GT,37.6208818,-122.426444,,27.4753,0.1,154.21149,1591388574439
Fix,GT,37.620662,-122.4262965,,27.836254,0.1,155.02222,1591388575439
Fix,GT,37.6204386,-122.4261505,,28.031055,0.1,155.42798,1591388576439
Fix,GT,37.6202137,-122.426005,,28.111229,0.1,155.51709,1591388577439
Fix,GT,37.6199882,-122.4258593,,28.145416,0.1,155.46558,1591388578439
Fix,GT,37.6197638,-122.4257117,,28.086666,0.1,154.65216,1591388579439
Fix,GT,37.6195428,-122.4255591,,27.901268,0.1,153.35107,1591388580439
Fix,GT,37.6193248,-122.4254041,,27.70948,0.1,153.43933,1591388581439
Fix,GT,37.6191062,-122.4252538,,27.59033,0.1,154.91064,1591388582439
Fix,GT,37.6188849,-122.4251129,,27.4636,0.1,156.86975,1591388583439
Fix,GT,37.6186607,-122.4249838,,27.260136,0.1,159.46527,1591388584439
Fix,GT,37.6184336,-122.4248697,,27.046696,0.1,162.43213,1591388585439
Fix,GT,37.618204,-122.4247702,,26.846333,0.1,164.91602,1591388586439
Fix,GT,37.6179734,-122.4246828,,26.637657,0.1,167.08734,1591388587439
Fix,GT,37.6177418,-122.4246078,,26.445364,0.1,169.37793,1591388588439
Fix,GT,37.6175097,-122.4245444,,26.235628,0.1,171.57031,1591388589439
Fix,GT,37.6172775,-122.4244931,,26.050842,0.1,173.93323,1591388590439
Fix,GT,37.6170455,-122.4244534,,25.877476,0.1,175.90509,1591388591439
Fix,GT,37.6168142,-122.424423,,25.758585,0.1,177.64551,1591388592439
Fix,GT,37.6165824,-122.4244024,,25.809303,0.1,179.77869,1591388593439
Fix,GT,37.6163493,-122.4243931,,25.937298,0.1,181.97598,1591388594439
Fix,GT,37.616115,-122.4243952,,26.067707,0.1,184.18379,1591388595439
Fix,GT,37.6158799,-122.4244092,,26.181694,0.1,186.52371,1591388596439
Fix,GT,37.6156443,-122.4244343,,26.288616,0.1,188.52489,1591388597439
Fix,GT,37.6154084,-122.424469,,26.423557,0.1,190.32231,1591388598439
Fix,GT,37.6151725,-122.4245145,,26.515574,0.1,192.67242,1591388599439
Fix,GT,37.614938,-122.4245729,,26.542973,0.1,195.25905,1591388600439
Fix,GT,37.6147056,-122.4246441,,26.523254,0.1,197.60692,1591388601439
Fix,GT,37.6144762,-122.4247265,,26.44925,0.1,199.77853,1591388602439
Fix,GT,37.61425,-122.4248198,,26.402851,0.1,202.02574,1591388603439
Fix,GT,37.6140268,-122.4249239,,26.412346,0.1,204.11134,1591388604439
Fix,GT,37.6138065,-122.4250376,,26.45155,0.1,206.0152,1591388605439
Fix,GT,37.6135892,-122.4251619,,26.538935,0.1,208.36836,1591388606439
Fix,GT,37.6133754,-122.4252977,,26.625294,0.1,210.68338,1591388607439
Fix,GT,37.6131645,-122.4254425,,26.693024,0.1,211.9725,1591388608439
Fix,GT,37.612955,-122.4255919,,26.76942,0.1,212.514,1591388609439
Fix,GT,37.6127456,-122.4257429,,26.826637,0.1,212.62823,1591388610439
Fix,GT,37.6125356,-122.4258942,,26.884125,0.1,212.50894,1591388611439
Fix,GT,37.6123247,-122.4260447,,26.939203,0.1,212.1857,1591388612439
Fix,GT,37.612113,-122.4261939,,26.933807,0.1,211.91351,1591388613439
Fix,GT,37.6119012,-122.4263421,,26.873497,0.1,211.9285,1591388614439
Fix,GT,37.6116898,-122.4264899,,26.820786,0.1,211.74576,1591388615439
Fix,GT,37.6114778,-122.4266349,,26.788414,0.1,210.85596,1591388616439
Fix,GT,37.6112634,-122.4267741,,26.809847,0.1,209.42142,1591388617439
Fix,GT,37.6110456,-122.426907,,27.029507,0.1,208.00554,1591388618439
Fix,GT,37.6108227,-122.427035,,27.398102,0.1,206.69507,1591388619439
Fix,GT,37.6105945,-122.4271581,,27.741137,0.1,205.37778,1591388620439
Fix,GT,37.6103614,-122.4272763,,28.069702,0.1,204.21089,1591388621439
Fix,GT,37.6101239,-122.4273904,,28.381466,0.1,203.26656,1591388622439
Fix,GT,37.6098827,-122.427501,,28.616081,0.1,202.3526,1591388623439
Fix,GT,37.6096383,-122.427607,,28.786455,0.1,201.19418,1591388624439
Fix,GT,37.6093906,-122.4277063,,28.94715,0.1,199.68703,1591388625439
Fix,GT,37.6091398,-122.4277986,,29.094833,0.1,198.4954,1591388626439
Fix,GT,37.6088863,-122.4278855,,29.265184,0.1,197.39983,1591388627439
Fix,GT,37.6086297,-122.4279654,,29.45731,0.1,195.91545,1591388628439
Fix,GT,37.6083701,-122.4280379,,29.606949,0.1,194.8237,1591388629439
Fix,GT,37.6081082,-122.4281054,,29.736088,0.1,193.87628,1591388630439
Fix,GT,37.6078444,-122.4281669,,29.848804,0.1,192.66258,1591388631439
Fix,GT,37.6075785,-122.4282207,,29.951637,0.1,191.18217,1591388632439
Fix,GT,37.6073106,-122.428266,,30.094696,0.1,189.61925,1591388633439
Fix,GT,37.6070403,-122.4283022,,30.276375,0.1,188.09406,1591388634439
Fix,GT,37.6067676,-122.4283292,,30.461533,0.1,186.39143,1591388635439
Fix,GT,37.6064928,-122.4283445,,30.634434,0.1,184.10094,1591388636439
Fix,GT,37.6062163,-122.4283448,,30.780272,0.1,181.44203,1591388637439
Fix,GT,37.6059388,-122.4283295,,30.915764,0.1,179.1358,1591388638439
Fix,GT,37.6056607,-122.4283012,,31.061314,0.1,177.193,1591388639439
Fix,GT,37.6053823,-122.4282607,,31.214584,0.1,175.02979,1591388640439
Fix,GT,37.605104,-122.4282065,,31.360275,0.1,172.82166,1591388641439
Fix,GT,37.6048263,-122.428139,,31.472534,0.1,170.81915,1591388642439
Fix,GT,37.6045497,-122.4280592,,31.561722,0.1,168.8725,1591388643439
Fix,GT,37.6042747,-122.4279668,,31.636927,0.1,166.75531,1591388644439
Fix,GT,37.6040023,-122.427861,,31.67727,0.1,164.48181,1591388645439
Fix,GT,37.6037333,-122.4277415,,31.661255,0.1,162.26337,1591388646439
Fix,GT,37.603468,-122.4276101,,31.640205,0.1,160.24976,1591388647439
Fix,GT,37.6032068,-122.4274676,,31.642635,0.1,158.19604,1591388648439
Fix,GT,37.6029496,-122.4273135,,31.64656,0.1,156.10315,1591388649439
Fix,GT,37.6026971,-122.4271472,,31.675587,0.1,153.84271,1591388650439
Fix,GT,37.6024504,-122.426967,,31.70512,0.1,151.27863,1591388651439
Fix,GT,37.6022098,-122.4267736,,31.710253,0.1,149.00278,1591388652439
Fix,GT,37.6019752,-122.4265689,,31.69659,0.1,146.975,1591388653439
Fix,GT,37.6017467,-122.426354,,31.671413,0.1,144.9473,1591388654439
Fix,GT,37.6015238,-122.4261301,,31.681862,0.1,143.31006,1591388655439
Fix,GT,37.6013067,-122.4258971,,31.703918,0.1,141.19696,1591388656439
Fix,GT,37.6010962,-122.4256538,,31.781519,0.1,139.0104,1591388657439
Fix,GT,37.6008912,-122.4254013,,31.940277,0.1,137.76495,1591388658439
Fix,GT,37.6006873,-122.4251442,,32.130993,0.1,137.68088,1591388659439
Fix,GT,37.6004811,-122.4248869,,32.318356,0.1,138.19891,1591388660439
Fix,GT,37.6002721,-122.4246301,,32.52547,0.1,138.4878,1591388661439
Fix,GT,37.6000613,-122.4243721,,32.761646,0.1,138.33505,1591388662439
Fix,GT,37.5998505,-122.4241104,,32.978737,0.1,137.79413,1591388663439
Fix,GT,37.59964,-122.4238451,,33.17929,0.1,137.6239,1591388664439
Fix,GT,37.5994277,-122.4235788,,33.392628,0.1,138.03345,1591388665439
Fix,GT,37.5992125,-122.4233129,,33.583046,0.1,138.38516,1591388666439
Fix,GT,37.5989954,-122.4230466,,33.755203,0.1,138.48987,1591388667439
Fix,GT,37.598777,-122.4227788,,33.9529,0.1,138.39569,1591388668439
Fix,GT,37.5985576,-122.4225088,,34.19823,0.1,138.3299,1591388669439
Fix,GT,37.5983365,-122.4222367,,34.49022,0.1,138.35657,1591388670439
Fix,GT,37.5981132,-122.4219624,,34.813957,0.1,138.43582,1591388671439
Fix,GT,37.5978875,-122.421686,,35.142822,0.1,138.48355,1591388672439
Fix,GT,37.5976605,-122.4214077,,35.212044,0.1,138.29413,1591388673439
Fix,GT,37.5974358,-122.421128,,34.958073,0.1,137.68478,1591388674439
Fix,GT,37.5972146,-122.4208478,,34.79267,0.1,137.64459,1591388675439
Fix,GT,37.5969921,-122.4205706,,34.76731,0.1,138.79144,1591388676439
Fix,GT,37.5967638,-122.4203003,,34.843384,0.1,140.1222,1591388677439
Fix,GT,37.5965301,-122.4200357,,34.99556,0.1,141.27194,1591388678439
Fix,GT,37.5962913,-122.4197753,,35.155655,0.1,142.2757,1591388679439
Fix,GT,37.5960483,-122.4195189,,35.294575,0.1,143.12207,1591388680439
Fix,GT,37.5958015,-122.4192656,,35.426254,0.1,143.78122,1591388681439
Fix,GT,37.5955517,-122.4190145,,35.550556,0.1,144.23132,1591388682439
Fix,GT,37.5953,-122.4187646,,35.636745,0.1,144.48322,1591388683439
Fix,GT,37.5950477,-122.4185149,,35.616615,0.1,144.3852,1591388684439
Fix,GT,37.5947966,-122.418265,,35.47818,0.1,144.23166,1591388685439
Fix,GT,37.5945469,-122.418016,,35.25261,0.1,144.37463,1591388686439
Fix,GT,37.594298,-122.4177702,,35.01417,0.1,144.68756,1591388687439
Fix,GT,37.59405,-122.4175276,,34.764637,0.1,144.85345,1591388688439
Fix,GT,37.5938035,-122.4172868,,34.54312,0.1,144.79889,1591388689439
Fix,GT,37.5935588,-122.4170468,,34.351673,0.1,144.5918,1591388690439
Fix,GT,37.5933163,-122.4168066,,34.165707,0.1,144.35864,1591388691439
Fix,GT,37.5930755,-122.4165671,,34.001488,0.1,144.34058,1591388692439
Fix,GT,37.5928359,-122.416329,,33.80549,0.1,144.5169,1591388693439
Fix,GT,37.5925971,-122.4160933,,33.594414,0.1,144.7258,1591388694439
Fix,GT,37.5923593,-122.4158597,,33.39881,0.1,144.66168,1591388695439
Fix,GT,37.5921232,-122.415627,,33.199944,0.1,144.64264,1591388696439
Fix,GT,37.5918882,-122.4153961,,33.00023,0.1,144.8883,1591388697439
Fix,GT,37.5916539,-122.4151677,,32.815212,0.1,144.86981,1591388698439
Fix,GT,37.5914214,-122.4149396,,32.62268,0.1,144.62787,1591388699439
Fix,GT,37.5911907,-122.4147122,,32.417767,0.1,144.66257,1591388700439
Fix,GT,37.5909613,-122.4144869,,32.21633,0.1,144.71503,1591388701439
Fix,GT,37.5907336,-122.4142625,,32.02561,0.1,144.54779,1591388702439
Fix,GT,37.5905076,-122.4140387,,31.858707,0.1,144.4701,1591388703439
Fix,GT,37.5902825,-122.4138163,,31.704086,0.1,144.60632,1591388704439
Fix,GT,37.5900581,-122.4135955,,31.575302,0.1,144.77197,1591388705439
Fix,GT,37.5898342,-122.4133761,,31.435335,0.1,144.74976,1591388706439
Fix,GT,37.5896118,-122.4131573,,31.273579,0.1,144.58344,1591388707439
Fix,GT,37.589391,-122.4129388,,31.144028,0.1,144.55774,1591388708439
Fix,GT,37.5891706,-122.4127213,,31.028255,0.1,144.69977,1591388709439
Fix,GT,37.5889507,-122.4125052,,30.92659,0.1,144.73712,1591388710439
Fix,GT,37.5887315,-122.4122898,,30.841534,0.1,144.7724,1591388711439
Fix,GT,37.5885126,-122.4120752,,30.812588,0.1,144.85767,1591388712439
Fix,GT,37.5882934,-122.4118607,,30.878597,0.1,144.78601,1591388713439
Fix,GT,37.5880739,-122.411645,,30.948307,0.1,144.6015,1591388714439
Fix,GT,37.5878553,-122.4114278,,30.924196,0.1,144.22995,1591388715439
Fix,GT,37.5876386,-122.411208,,30.904716,0.1,143.34076,1591388716439
Fix,GT,37.5874257,-122.4109824,,30.95306,0.1,141.84729,1591388717439
Fix,GT,37.5872174,-122.4107488,,31.02873,0.1,140.21417,1591388718439
Fix,GT,37.5870141,-122.410507,,31.13667,0.1,138.59589,1591388719439
Fix,GT,37.5868154,-122.4102573,,31.287422,0.1,136.97614,1591388720439
Fix,GT,37.58662,-122.4100006,,31.466497,0.1,136.02362,1591388721439
Fix,GT,37.5864257,-122.4097397,,31.639526,0.1,135.7803,1591388722439
Fix,GT,37.5862305,-122.4094775,,31.766104,0.1,135.88605,1591388723439
Fix,GT,37.5860341,-122.4092151,,31.871021,0.1,136.01978,1591388724439
Fix,GT,37.5858369,-122.4089519,,31.994097,0.1,136.01123,1591388725439
Fix,GT,37.5856389,-122.4086876,,32.132164,0.1,136.00635,1591388726439
Fix,GT,37.58544,-122.4084223,,32.26364,0.1,136.04907,1591388727439
Fix,GT,37.5852398,-122.4081566,,32.36296,0.1,136.35205,1591388728439
Fix,GT,37.5850369,-122.4078926,,32.448784,0.1,137.20993,1591388729439
Fix,GT,37.5848293,-122.4076332,,32.542545,0.1,138.65836,1591388730439
Fix,GT,37.5846154,-122.4073802,,32.655315,0.1,140.29724,1591388731439
Fix,GT,37.5843954,-122.4071335,,32.79541,0.1,141.7344,1591388732439
Fix,GT,37.5841696,-122.4068923,,32.976025,0.1,142.97748,1591388733439
Fix,GT,37.5839384,-122.4066557,,33.198486,0.1,144.22,1591388734439
Fix,GT,37.5837015,-122.4064239,,33.458164,0.1,145.44302,1591388735439
Fix,GT,37.5834588,-122.4061964,,33.742706,0.1,146.6037,1591388736439
Fix,GT,37.583211,-122.4059737,,33.85332,0.1,147.84811,1591388737439
Fix,GT,37.5829588,-122.4057578,,33.82528,0.1,149.15628,1591388738439
Fix,GT,37.5827027,-122.4055489,,33.96894,0.1,150.35083,1591388739439
Fix,GT,37.5824416,-122.4053456,,34.202988,0.1,151.60162,1591388740439
Fix,GT,37.5821752,-122.4051481,,34.45272,0.1,152.81091,1591388741439
Fix,GT,37.5819039,-122.4049561,,34.65184,0.1,153.95709,1591388742439
Fix,GT,37.5816277,-122.404771,,34.82097,0.1,155.46039,1591388743439
Fix,GT,37.5813461,-122.4045947,,35.006767,0.1,157.05322,1591388744439
Fix,GT,37.58106,-122.4044253,,35.16342,0.1,157.91669,1591388745439
Fix,GT,37.5807717,-122.4042581,,35.304207,0.1,158.06879,1591388746439
Fix,GT,37.5804818,-122.4040909,,35.491898,0.1,158.17096,1591388747439
Fix,GT,37.5801899,-122.4039236,,35.70982,0.1,158.25446,1591388748439
Fix,GT,37.5798964,-122.4037551,,35.929466,0.1,158.15009,1591388749439
Fix,GT,37.5796012,-122.4035853,,36.139977,0.1,158.14581,1591388750439
Fix,GT,37.5793042,-122.4034145,,36.364357,0.1,158.11841,1591388751439
Fix,GT,37.5790054,-122.4032423,,36.614414,0.1,158.11945,1591388752439
Fix,GT,37.5787045,-122.4030689,,36.874405,0.1,158.17383,1591388753439
Fix,GT,37.5784013,-122.4028946,,37.145237,0.1,158.25458,1591388754439
Fix,GT,37.5780953,-122.4027198,,37.462303,0.1,158.33801,1591388755439
Fix,GT,37.5777866,-122.4025434,,37.827522,0.1,158.21527,1591388756439
Fix,GT,37.5774755,-122.4023641,,38.123756,0.1,157.97809,1591388757439
Fix,GT,37.5771633,-122.4021827,,38.19622,0.1,157.90253,1591388758439
Fix,GT,37.5768506,-122.4020017,,38.258904,0.1,158.13593,1591388759439
Fix,GT,37.5765367,-122.4018218,,38.3162,0.1,158.28455,1591388760439
Fix,GT,37.5762235,-122.4016425,,38.07067,0.1,158.18921,1591388761439
Fix,GT,37.5759131,-122.401464,,37.71166,0.1,158.11346,1591388762439
Fix,GT,37.575606,-122.4012868,,37.327965,0.1,158.05981,1591388763439
Fix,GT,37.5753021,-122.401111,,36.937443,0.1,158.05249,1591388764439
Fix,GT,37.5750014,-122.4009374,,36.550514,0.1,158.11688,1591388765439
Fix,GT,37.5747036,-122.4007661,,36.157562,0.1,158.13751,1591388766439
Fix,GT,37.5744093,-122.4005962,,35.799683,0.1,157.93689,1591388767439
Fix,GT,37.5741181,-122.4004246,,35.689957,0.1,157.18488,1591388768439
Fix,GT,37.57383,-122.4002447,,35.78446,0.1,155.11969,1591388769439
Fix,GT,37.5735484,-122.4000489,,35.690445,0.1,152.14093,1591388770439
Fix,GT,37.5732779,-122.3998364,,35.17806,0.1,149.17816,1591388771439
Fix,GT,37.5730202,-122.399611,,34.55873,0.1,146.63107,1591388772439
Fix,GT,37.5727736,-122.3993768,,34.08982,0.1,144.72107,1591388773439
Fix,GT,37.5725355,-122.3991389,,33.377808,0.1,144.00995,1591388774439
Fix,GT,37.5723036,-122.398906,,32.53785,0.1,144.29468,1591388775439
Fix,GT,37.5720759,-122.3986803,,31.920887,0.1,144.5578,1591388776439
Fix,GT,37.5718522,-122.398459,,31.229225,0.1,144.46362,1591388777439
Fix,GT,37.5716349,-122.3982425,,30.35084,0.1,144.17429,1591388778439
Fix,GT,37.5714239,-122.3980307,,29.682098,0.1,144.03766,1591388779439
Fix,GT,37.5712168,-122.3978225,,29.221767,0.1,144.1925,1591388780439
Fix,GT,37.5710115,-122.3976185,,28.90856,0.1,144.62158,1591388781439
Fix,GT,37.5708064,-122.3974175,,28.850224,0.1,144.86478,1591388782439
Fix,GT,37.5706013,-122.3972168,,28.87956,0.1,144.74222,1591388783439
Fix,GT,37.5703961,-122.3970148,,28.999634,0.1,144.5791,1591388784439
Fix,GT,37.5701902,-122.3968109,,29.204506,0.1,144.47125,1591388785439
Fix,GT,37.5699828,-122.3966059,,29.379963,0.1,144.59128,1591388786439
Fix,GT,37.5697737,-122.3964004,,29.554394,0.1,144.8161,1591388787439
Fix,GT,37.5695632,-122.396194,,29.720173,0.1,144.70654,1591388788439
Fix,GT,37.5693526,-122.3959855,,29.817179,0.1,144.37146,1591388789439
Fix,GT,37.5691421,-122.3957754,,29.847183,0.1,144.29065,1591388790439
Fix,GT,37.5689313,-122.3955659,,29.818615,0.1,144.64365,1591388791439
Fix,GT,37.5687202,-122.3953577,,29.73312,0.1,144.61218,1591388792439
Fix,GT,37.5685115,-122.3951478,,29.647839,0.1,143.5401,1591388793439
Fix,GT,37.5683077,-122.3949317,,29.605602,0.1,141.5882,1591388794439
Fix,GT,37.5681109,-122.3947059,,29.607876,0.1,139.12827,1591388795439
Fix,GT,37.567922,-122.3944697,,29.583237,0.1,136.77222,1591388796439
Fix,GT,37.5677411,-122.3942247,,29.495827,0.1,134.4874,1591388797439
Fix,GT,37.5675685,-122.3939719,,29.421715,0.1,132.34784,1591388798439
Fix,GT,37.5674027,-122.3937124,,29.396309,0.1,130.67352,1591388799439
Fix,GT,37.5672437,-122.3934474,,29.244402,0.1,128.74286,1591388800439
Fix,GT,37.5670944,-122.3931776,,28.827904,0.1,126.346985,1591388801439
Fix,GT,37.5669568,-122.392905,,28.238945,0.1,123.89847,1591388802439
Fix,GT,37.5668308,-122.3926318,,27.620726,0.1,121.8569,1591388803439
Fix,GT,37.5667143,-122.3923589,,27.16144,0.1,120.13971,1591388804439
Fix,GT,37.5666057,-122.3920856,,26.84206,0.1,118.42624,1591388805439
Fix,GT,37.5665052,-122.391812,,26.404625,0.1,116.63229,1591388806439
Fix,GT,37.5664123,-122.39154,,25.965557,0.1,115.37698,1591388807439
Fix,GT,37.5663231,-122.3912696,,25.819775,0.1,115.331055,1591388808439
Fix,GT,37.5662325,-122.3909998,,25.938602,0.1,115.852356,1591388809439
Fix,GT,37.5661397,-122.3907295,,26.08208,0.1,116.133026,1591388810439
Fix,GT,37.566046,-122.3904584,,26.131638,0.1,116.17847,1591388811439
Fix,GT,37.5659518,-122.3901875,,26.089909,0.1,116.43555,1591388812439
Fix,GT,37.5658552,-122.3899189,,25.989666,0.1,117.63507,1591388813439
Fix,GT,37.5657529,-122.3896553,,25.829905,0.1,119.728485,1591388814439
Fix,GT,37.565643,-122.389398,,25.786125,0.1,122.00577,1591388815439
Fix,GT,37.565525,-122.3891461,,25.83157,0.1,124.203674,1591388816439
Fix,GT,37.5653988,-122.3889003,,25.869282,0.1,126.807465,1591388817439
Fix,GT,37.565263,-122.3886619,,25.924603,0.1,129.72687,1591388818439
Fix,GT,37.5651173,-122.388432,,26.022507,0.1,132.54187,1591388819439
Fix,GT,37.5649624,-122.3882097,,26.178303,0.1,135.1178,1591388820439
Fix,GT,37.5647988,-122.3879948,,26.370956,0.1,137.59473,1591388821439
Fix,GT,37.5646265,-122.3877875,,26.569868,0.1,140.04895,1591388822439
Fix,GT,37.5644469,-122.3875873,,26.702995,0.1,142.01404,1591388823439
Fix,GT,37.5642623,-122.3873927,,26.773735,0.1,143.32608,1591388824439
Fix,GT,37.5640744,-122.3872017,,26.902718,0.1,144.04309,1591388825439
Fix,GT,37.5638842,-122.3870113,,27.102812,0.1,144.33203,1591388826439
Fix,GT,37.5636918,-122.3868202,,27.346115,0.1,144.44626,1591388827439
Fix,GT,37.5634978,-122.3866273,,27.602955,0.1,144.24475,1591388828439
Fix,GT,37.5633028,-122.3864312,,27.830496,0.1,143.92142,1591388829439
Fix,GT,37.5631071,-122.3862327,,28.013168,0.1,143.844,1591388830439
Fix,GT,37.5629099,-122.3860333,,28.173653,0.1,143.9997,1591388831439
Fix,GT,37.5627114,-122.3858333,,28.313421,0.1,144.02484,1591388832439
Fix,GT,37.562512,-122.3856324,,28.439611,0.1,144.08142,1591388833439
Fix,GT,37.5623113,-122.3854309,,28.581873,0.1,144.18353,1591388834439
Fix,GT,37.5621093,-122.3852286,,28.7585,0.1,144.19763,1591388835439
Fix,GT,37.5619059,-122.3850252,,28.959373,0.1,144.30603,1591388836439
Fix,GT,37.5617008,-122.3848208,,29.172638,0.1,144.37799,1591388837439
Fix,GT,37.5614939,-122.3846153,,29.384598,0.1,144.48578,1591388838439
Fix,GT,37.5612849,-122.3844093,,29.565926,0.1,144.6435,1591388839439
Fix,GT,37.561075,-122.3842018,,29.735554,0.1,144.40717,1591388840439
Fix,GT,37.5608651,-122.3839912,,29.8957,0.1,143.86865,1591388841439
Fix,GT,37.5606554,-122.3837777,,30.008873,0.1,143.62396,1591388842439
Fix,GT,37.5604454,-122.383563,,30.065739,0.1,143.68384,1591388843439
Fix,GT,37.5602347,-122.3833492,,30.05163,0.1,143.95135,1591388844439
Fix,GT,37.5600239,-122.3831369,,29.92054,0.1,144.16422,1591388845439
Fix,GT,37.5598142,-122.3829275,,29.515408,0.1,144.37158,1591388846439
Fix,GT,37.5596079,-122.3827223,,28.916142,0.1,144.31845,1591388847439
Fix,GT,37.5594054,-122.3825204,,28.549908,0.1,144.28934,1591388848439
Fix,GT,37.559204,-122.3823206,,28.437794,0.1,144.58887,1591388849439
Fix,GT,37.5590019,-122.3821236,,28.367054,0.1,145.42038,1591388850439
Fix,GT,37.5587972,-122.3819323,,28.244808,0.1,146.82333,1591388851439
Fix,GT,37.5585892,-122.3817488,,28.171436,0.1,148.42444,1591388852439
Fix,GT,37.5583776,-122.3815719,,28.249203,0.1,149.72559,1591388853439
Fix,GT,37.5581622,-122.3813994,,28.438114,0.1,150.74347,1591388854439
Fix,GT,37.5579429,-122.3812306,,28.655344,0.1,151.79364,1591388855439
Fix,GT,37.557719,-122.3810668,,28.867311,0.1,153.35266,1591388856439
Fix,GT,37.5574899,-122.3809092,,29.095976,0.1,154.69733,1591388857439
Fix,GT,37.5572572,-122.3807554,,29.20826,0.1,155.14508,1591388858439
Fix,GT,37.5570245,-122.380603,,28.956982,0.1,155.19177,1591388859439
Fix,GT,37.5567954,-122.380452,,28.519276,0.1,154.8822,1591388860439
Fix,GT,37.5565691,-122.380302,,28.382683,0.1,154.91064,1591388861439
Fix,GT,37.556342,-122.3801521,,28.580557,0.1,155.02563,1591388862439
Fix,GT,37.5561134,-122.3800008,,28.779236,0.1,154.87946,1591388863439
Fix,GT,37.5558832,-122.3798482,,29.02898,0.1,154.98962,1591388864439
Fix,GT,37.5556507,-122.3796947,,29.23846,0.1,155.07458,1591388865439
Fix,GT,37.5554174,-122.3795412,,29.161901,0.1,155.0896,1591388866439
Fix,GT,37.5551859,-122.3793887,,28.855309,0.1,155.03906,1591388867439
Fix,GT,37.5549572,-122.3792379,,28.49644,0.1,155.03766,1591388868439
Fix,GT,37.5547307,-122.3790886,,28.355642,0.1,155.12537,1591388869439
Fix,GT,37.5545038,-122.3789395,,28.508505,0.1,155.19159,1591388870439
Fix,GT,37.5542755,-122.3787899,,28.654018,0.1,155.17096,1591388871439
Fix,GT,37.5540465,-122.3786394,,28.70951,0.1,155.16211,1591388872439
Fix,GT,37.5538174,-122.3784891,,28.653019,0.1,155.26697,1591388873439
Fix,GT,37.5535891,-122.3783395,,28.512836,0.1,155.09344,1591388874439
Fix,GT,37.5533628,-122.3781886,,28.374117,0.1,154.50635,1591388875439
Fix,GT,37.5531392,-122.378035,,28.216248,0.1,153.7107,1591388876439
Fix,GT,37.5529191,-122.3778783,,27.902885,0.1,152.78241,1591388877439
Fix,GT,37.5527046,-122.3777195,,27.372128,0.1,151.75961,1591388878439
Fix,GT,37.5524962,-122.3775597,,26.884285,0.1,151.01144,1591388879439
Fix,GT,37.5522916,-122.3773992,,26.737438,0.1,150.52905,1591388880439
Fix,GT,37.5520892,-122.3772354,,26.694271,0.1,149.24615,1591388881439
Fix,GT,37.5518919,-122.3770656,,26.391153,0.1,147.40051,1591388882439
Fix,GT,37.5517011,-122.3768913,,26.010044,0.1,146.19818,1591388883439
Fix,GT,37.551515,-122.3767164,,25.549265,0.1,145.7659,1591388884439
Fix,GT,37.551333,-122.3765446,,24.957966,0.1,145.8082,1591388885439
Fix,GT,37.5511548,-122.3763772,,24.458855,0.1,146.01971,1591388886439
Fix,GT,37.5509791,-122.3762133,,24.143375,0.1,146.21246,1591388887439
Fix,GT,37.5508049,-122.3760517,,23.942139,0.1,146.22537,1591388888439
Fix,GT,37.5506317,-122.3758907,,23.972595,0.1,146.21967,1591388889439
Fix,GT,37.550457,-122.3757287,,24.303745,0.1,146.36887,1591388890439
Fix,GT,37.5502789,-122.3755644,,24.740322,0.1,146.47705,1591388891439
Fix,GT,37.5500977,-122.3753971,,25.170734,0.1,146.32465,1591388892439
Fix,GT,37.549914,-122.3752256,,25.602234,0.1,145.9469,1591388893439
Fix,GT,37.5497284,-122.3750508,,25.84676,0.1,145.97089,1591388894439
Fix,GT,37.5495416,-122.3748763,,25.808311,0.1,146.15015,1591388895439
Fix,GT,37.5493555,-122.3747027,,25.6254,0.1,146.0987,1591388896439
Fix,GT,37.549171,-122.3745304,,25.41371,0.1,146.27405,1591388897439
Fix,GT,37.5489869,-122.3743607,,25.280743,0.1,146.48712,1591388898439
Fix,GT,37.5488035,-122.3741917,,25.208702,0.1,146.46594,1591388899439
Fix,GT,37.5486203,-122.3740228,,25.219563,0.1,146.33734,1591388900439
Fix,GT,37.5484374,-122.373853,,25.262218,0.1,146.14471,1591388901439
Fix,GT,37.5482546,-122.3736821,,25.321922,0.1,146.01093,1591388902439
Fix,GT,37.5480716,-122.3735105,,25.36563,0.1,145.96082,1591388903439
Fix,GT,37.5478884,-122.3733385,,25.407656,0.1,146.01715,1591388904439
Fix,GT,37.5477046,-122.3731669,,25.417637,0.1,146.19757,1591388905439
Fix,GT,37.5475206,-122.3729959,,25.389904,0.1,146.28601,1591388906439
Fix,GT,37.5473367,-122.3728252,,25.371813,0.1,146.25598,1591388907439
Fix,GT,37.5471529,-122.3726543,,25.380903,0.1,146.16156,1591388908439
Fix,GT,37.5469696,-122.3724831,,25.296349,0.1,146.01974,1591388909439
Fix,GT,37.5467882,-122.3723127,,24.960796,0.1,145.89334,1591388910439
Fix,GT,37.5466097,-122.3721454,,24.524544,0.1,146.09814,1591388911439
Fix,GT,37.5464331,-122.3719818,,24.235138,0.1,146.50684,1591388912439
Fix,GT,37.5462578,-122.3718205,,23.98903,0.1,146.41809,1591388913439
Fix,GT,37.5460847,-122.37166,,23.754772,0.1,146.2012,1591388914439
Fix,GT,37.5459134,-122.3715004,,23.568775,0.1,146.16379,1591388915439
Fix,GT,37.5457437,-122.3713422,,23.337551,0.1,146.13669,1591388916439
Fix,GT,37.5455758,-122.3711856,,23.07334,0.1,146.11774,1591388917439
Fix,GT,37.54541,-122.3710307,,22.79173,0.1,146.1037,1591388918439
Fix,GT,37.5452461,-122.3708779,,22.514713,0.1,146.1861,1591388919439
Fix,GT,37.5450836,-122.370727,,22.35104,0.1,146.36176,1591388920439
Fix,GT,37.5449214,-122.3705772,,22.339851,0.1,146.37592,1591388921439
Fix,GT,37.5447596,-122.370427,,22.317364,0.1,146.10211,1591388922439
Fix,GT,37.5445981,-122.3702756,,22.494877,0.1,145.94885,1591388923439
Fix,GT,37.5444339,-122.3701221,,23.003384,0.1,146.21259,1591388924439
Fix,GT,37.5442652,-122.3699658,,23.507519,0.1,146.40216,1591388925439
Fix,GT,37.5440929,-122.3698065,,23.980532,0.1,146.37363,1591388926439
Fix,GT,37.5439173,-122.3696439,,24.442493,0.1,146.29987,1591388927439
Fix,GT,37.5437391,-122.3694786,,24.684824,0.1,146.23578,1591388928439
Fix,GT,37.5435604,-122.3693124,,24.646395,0.1,146.14023,1591388929439
Fix,GT,37.5433822,-122.3691462,,24.621254,0.1,146.06161,1591388930439
Fix,GT,37.5432039,-122.3689794,,24.766317,0.1,146.0022,1591388931439
Fix,GT,37.5430242,-122.3688112,,24.997227,0.1,146.03394,1591388932439
Fix,GT,37.5428425,-122.3686413,,25.322548,0.1,146.11176,1591388933439
Fix,GT,37.5426577,-122.3684693,,25.75763,0.1,146.35532,1591388934439
Fix,GT,37.5424685,-122.3682961,,26.215137,0.1,146.95184,1591388935439
Fix,GT,37.5422743,-122.3681232,,26.581783,0.1,147.83344,1591388936439
Fix,GT,37.5420759,-122.3679527,,26.745064,0.1,148.75467,1591388937439
Fix,GT,37.5418749,-122.3677849,,26.854286,0.1,149.40533,1591388938439
Fix,GT,37.5416714,-122.3676183,,27.11706,0.1,149.87506,1591388939439
Fix,GT,37.541464,-122.3674524,,27.469578,0.1,150.62482,1591388940439
Fix,GT,37.5412521,-122.3672884,,27.715778,0.1,151.60806,1591388941439
Fix,GT,37.5410371,-122.3671283,,27.705498,0.1,152.46484,1591388942439
Fix,GT,37.5408218,-122.366972,,27.484451,0.1,152.90662,1591388943439
Fix,GT,37.5406079,-122.3668184,,27.218826,0.1,153.1012,1591388944439
Fix,GT,37.5403955,-122.3666676,,26.953064,0.1,153.45581,1591388945439
Fix,GT,37.5401842,-122.36652,,26.704811,0.1,153.88867,1591388946439
Fix,GT,37.5399741,-122.3663755,,26.486761,0.1,154.1612,1591388947439
Fix,GT,37.5397653,-122.3662327,,26.293827,0.1,154.16473,1591388948439
Fix,GT,37.5395582,-122.3660906,,26.125816,0.1,154.06586,1591388949439
Fix,GT,37.5393522,-122.365949,,25.989197,0.1,154.09363,1591388950439
Fix,GT,37.5391472,-122.3658086,,25.864439,0.1,154.28375,1591388951439
Fix,GT,37.5389426,-122.3656702,,25.715683,0.1,154.50232,1591388952439
Fix,GT,37.5387389,-122.365533,,25.586048,0.1,154.5863,1591388953439
Fix,GT,37.5385361,-122.3653964,,25.501217,0.1,154.54956,1591388954439
Fix,GT,37.5383339,-122.3652603,,25.429354,0.1,154.5263,1591388955439
Fix,GT,37.5381326,-122.3651238,,25.380907,0.1,154.17749,1591388956439
Fix,GT,37.5379323,-122.3649858,,25.348703,0.1,153.87463,1591388957439
Fix,GT,37.5377321,-122.3648477,,25.37516,0.1,154.14801,1591388958439
Fix,GT,37.5375306,-122.3647112,,25.453033,0.1,154.55273,1591388959439
Fix,GT,37.537328,-122.3645752,,25.528488,0.1,154.64355,1591388960439
Fix,GT,37.5371249,-122.3644388,,25.585594,0.1,154.55615,1591388961439
Fix,GT,37.5369217,-122.3643017,,25.62126,0.1,154.4212,1591388962439
Fix,GT,37.5367186,-122.3641638,,25.642048,0.1,154.2951,1591388963439
Fix,GT,37.5365153,-122.3640257,,25.6795,0.1,154.3465,1591388964439
Fix,GT,37.5363114,-122.3638878,,25.698227,0.1,154.44922,1591388965439
Fix,GT,37.5361079,-122.3637498,,25.640911,0.1,154.28455,1591388966439
Fix,GT,37.5359053,-122.3636116,,25.529732,0.1,154.18823,1591388967439
Fix,GT,37.5357038,-122.3634742,,25.372047,0.1,154.26025,1591388968439
Fix,GT,37.5355033,-122.363338,,25.264782,0.1,154.31409,1591388969439
Fix,GT,37.5353031,-122.3632021,,25.281532,0.1,154.39526,1591388970439
Fix,GT,37.5351021,-122.3630664,,25.3667,0.1,154.60107,1591388971439
Fix,GT,37.5348998,-122.3629317,,25.461277,0.1,155.05194,1591388972439
Fix,GT,37.5346953,-122.3627993,,25.561325,0.1,155.93243,1591388973439
Fix,GT,37.5344883,-122.3626713,,25.661545,0.1,157.09094,1591388974439
Fix,GT,37.5342785,-122.362548,,25.755836,0.1,158.12964,1591388975439
Fix,GT,37.5340664,-122.3624285,,25.842491,0.1,158.9502,1591388976439
Fix,GT,37.5338523,-122.3623122,,25.920935,0.1,159.74872,1591388977439
Fix,GT,37.5336364,-122.3621999,,25.930647,0.1,160.73975,1591388978439
Fix,GT,37.5334192,-122.362093,,25.824156,0.1,161.94751,1591388979439
Fix,GT,37.5332016,-122.3619922,,25.615517,0.1,162.93835,1591388980439
Fix,GT,37.5329851,-122.361896,,25.361965,0.1,163.56042,1591388981439
Fix,GT,37.5327698,-122.361803,,25.219967,0.1,164.00781,1591388982439
Fix,GT,37.532555,-122.3617121,,25.064447,0.1,164.18494,1591388983439
Fix,GT,37.5323426,-122.3616222,,24.65386,0.1,164.05762,1591388984439
Fix,GT,37.5321339,-122.361533,,24.290268,0.1,163.88885,1591388985439
Fix,GT,37.5319275,-122.3614443,,24.174469,0.1,163.85962,1591388986439
Fix,GT,37.5317218,-122.3613562,,24.064981,0.1,163.96234,1591388987439
Fix,GT,37.5315171,-122.361269,,23.929981,0.1,163.99042,1591388988439
Fix,GT,37.5313136,-122.3611821,,23.815384,0.1,164.1189,1591388989439
Fix,GT,37.5311103,-122.3610966,,23.768925,0.1,164.43964,1591388990439
Fix,GT,37.5309069,-122.3610124,,23.751732,0.1,164.50006,1591388991439
Fix,GT,37.5307039,-122.3609279,,23.71805,0.1,164.2727,1591388992439
Fix,GT,37.5305017,-122.3608418,,23.662363,0.1,163.80078,1591388993439
Fix,GT,37.5303005,-122.3607542,,23.600885,0.1,163.58716,1591388994439
Fix,GT,37.5300996,-122.3606671,,23.55711,0.1,163.81873,1591388995439
Fix,GT,37.5298989,-122.3605813,,23.505724,0.1,164.00366,1591388996439
Fix,GT,37.5296987,-122.3604959,,23.431644,0.1,163.95367,1591388997439
Fix,GT,37.5294992,-122.3604104,,23.361252,0.1,163.98218,1591388998439
Fix,GT,37.5293002,-122.3603255,,23.297268,0.1,164.09204,1591388999439
Fix,GT,37.5291014,-122.3602411,,23.292025,0.1,164.13245,1591389000439
Fix,GT,37.5289023,-122.3601574,,23.344452,0.1,164.35406,1591389001439
Fix,GT,37.5287019,-122.3600742,,23.502872,0.1,164.42865,1591389002439
Fix,GT,37.5285001,-122.3599895,,23.76989,0.1,164.25916,1591389003439
Fix,GT,37.5282958,-122.3599036,,24.070107,0.1,164.28003,1591389004439
Fix,GT,37.5280886,-122.359817,,24.389688,0.1,164.4076,1591389005439
Fix,GT,37.5278789,-122.3597296,,24.654087,0.1,164.41656,1591389006439
Fix,GT,37.5276674,-122.3596404,,24.87194,0.1,164.04388,1591389007439
Fix,GT,37.5274549,-122.3595476,,25.060923,0.1,163.15613,1591389008439
Fix,GT,37.5272424,-122.3594486,,25.279942,0.1,161.70068,1591389009439
Fix,GT,37.5270305,-122.3593411,,25.493105,0.1,159.9292,1591389010439
Fix,GT,37.5268198,-122.3592243,,25.630817,0.1,158.0102,1591389011439
Fix,GT,37.5266116,-122.3590977,,25.715687,0.1,155.91852,1591389012439
Fix,GT,37.5264069,-122.3589614,,25.777725,0.1,153.74414,1591389013439
Fix,GT,37.526206,-122.358815,,25.824688,0.1,151.58514,1591389014439
Fix,GT,37.5260096,-122.3586595,,25.71003,0.1,149.54108,1591389015439
Fix,GT,37.5258191,-122.3584979,,25.303257,0.1,148.00516,1591389016439
Fix,GT,37.5256348,-122.3583345,,24.779068,0.1,147.23404,1591389017439
Fix,GT,37.5254557,-122.3581725,,24.24511,0.1,146.70703,1591389018439
Fix,GT,37.5252808,-122.3580129,,23.752747,0.1,146.76904,1591389019439
Fix,GT,37.5251085,-122.3578572,,23.384127,0.1,147.242,1591389020439
Fix,GT,37.5249378,-122.357705,,23.100666,0.1,147.35883,1591389021439
Fix,GT,37.5247692,-122.3575548,,22.75169,0.1,147.35547,1591389022439
Fix,GT,37.5246036,-122.3574073,,22.327055,0.1,147.38708,1591389023439
Fix,GT,37.5244409,-122.3572631,,21.883371,0.1,147.71945,1591389024439
Fix,GT,37.5242801,-122.3571235,,21.521725,0.1,148.37286,1591389025439
Fix,GT,37.52412,-122.3569886,,21.287033,0.1,149.30481,1591389026439
Fix,GT,37.5239594,-122.3568586,,21.13549,0.1,150.43286,1591389027439
Fix,GT,37.5237974,-122.3567339,,21.057259,0.1,151.83582,1591389028439
Fix,GT,37.5236334,-122.3566146,,21.049923,0.1,153.22589,1591389029439
Fix,GT,37.5234669,-122.3564994,,21.13368,0.1,154.4148,1591389030439
Fix,GT,37.5232976,-122.3563887,,21.2302,0.1,155.93903,1591389031439
Fix,GT,37.5231255,-122.3562838,,21.210691,0.1,157.59546,1591389032439
Fix,GT,37.5229525,-122.3561851,,20.955051,0.1,158.84753,1591389033439
Fix,GT,37.5227806,-122.3560915,,20.609632,0.1,159.59827,1591389034439
Fix,GT,37.522611,-122.3560018,,20.252949,0.1,160.11475,1591389035439
Fix,GT,37.5224433,-122.3559154,,20.050026,0.1,160.73639,1591389036439
Fix,GT,37.5222751,-122.3558307,,20.219076,0.1,160.93182,1591389037439
Fix,GT,37.5221043,-122.3557445,,20.688961,0.1,160.80408,1591389038439
Fix,GT,37.52193,-122.3556564,,20.960886,0.1,160.87494,1591389039439
Fix,GT,37.521755,-122.3555682,,20.889416,0.1,160.82556,1591389040439
Fix,GT,37.5215814,-122.3554799,,20.687014,0.1,160.52185,1591389041439
Fix,GT,37.5214102,-122.3553917,,20.355988,0.1,160.36926,1591389042439
Fix,GT,37.5212422,-122.3553053,,19.9715,0.1,160.5492,1591389043439
Fix,GT,37.5210767,-122.3552205,,19.721405,0.1,160.56244,1591389044439
Fix,GT,37.5209126,-122.3551356,,19.696232,0.1,160.22638,1591389045439
Fix,GT,37.5207484,-122.355049,,19.92199,0.1,159.77344,1591389046439
Fix,GT,37.5205822,-122.354959,,20.226646,0.1,159.19641,1591389047439
Fix,GT,37.5204154,-122.3548662,,20.242191,0.1,158.69147,1591389048439
Fix,GT,37.5202508,-122.3547731,,19.797523,0.1,158.37189,1591389049439
Fix,GT,37.5200911,-122.3546805,,19.264744,0.1,157.62671,1591389050439
Fix,GT,37.5199351,-122.3545858,,19.303528,0.1,156.56262,1591389051439
Fix,GT,37.5197778,-122.3544869,,19.793812,0.1,155.90265,1591389052439
Fix,GT,37.5196175,-122.3543829,,20.252014,0.1,154.982,1591389053439
Fix,GT,37.519456,-122.3542729,,20.471981,0.1,153.70569,1591389054439
Fix,GT,37.5192959,-122.3541585,,20.376617,0.1,152.82825,1591389055439
Fix,GT,37.5191383,-122.3540431,,20.10646,0.1,152.41223,1591389056439
Fix,GT,37.5189836,-122.3539282,,19.830072,0.1,151.8656,1591389057439
Fix,GT,37.5188316,-122.3538125,,19.675364,0.1,151.30554,1591389058439
Fix,GT,37.5186805,-122.353695,,19.848412,0.1,150.73239,1591389059439
Fix,GT,37.5185281,-122.353573,,20.286827,0.1,149.87045,1591389060439
Fix,GT,37.5183745,-122.3534451,,20.608334,0.1,148.66019,1591389061439
Fix,GT,37.5182213,-122.3533122,,20.771852,0.1,147.82327,1591389062439
Fix,GT,37.5180673,-122.3531761,,21.04987,0.1,147.57666,1591389063439
Fix,GT,37.5179115,-122.3530373,,21.347792,0.1,147.19574,1591389064439
Fix,GT,37.5177552,-122.3528948,,21.497368,0.1,146.40692,1591389065439
Fix,GT,37.5176001,-122.3527492,,21.469091,0.1,145.53937,1591389066439
Fix,GT,37.5174475,-122.3526012,,21.360378,0.1,144.5456,1591389067439
Fix,GT,37.5172981,-122.3524501,,21.24968,0.1,143.25897,1591389068439
Fix,GT,37.5171516,-122.3522951,,21.326952,0.1,142.13525,1591389069439
Fix,GT,37.5170053,-122.352136,,21.702509,0.1,141.7002,1591389070439
Fix,GT,37.5168563,-122.3519735,,22.074259,0.1,141.80518,1591389071439
Fix,GT,37.5167046,-122.3518097,,22.299782,0.1,142.19678,1591389072439
Fix,GT,37.5165511,-122.351646,,22.395262,0.1,142.42487,1591389073439
Fix,GT,37.5163971,-122.3514823,,22.384604,0.1,142.39203,1591389074439
Fix,GT,37.5162436,-122.3513186,,22.33987,0.1,142.34918,1591389075439
Fix,GT,37.5160903,-122.351155,,22.328867,0.1,142.28082,1591389076439
Fix,GT,37.5159367,-122.3509907,,22.486607,0.1,142.23392,1591389077439
Fix,GT,37.5157815,-122.3508246,,22.817135,0.1,142.26389,1591389078439
Fix,GT,37.515624,-122.3506562,,23.076721,0.1,142.26004,1591389079439
Fix,GT,37.5154667,-122.3504869,,22.861263,0.1,141.93127,1591389080439
Fix,GT,37.5153126,-122.3503192,,22.414135,0.1,141.59894,1591389081439
Fix,GT,37.5151601,-122.3501524,,22.609375,0.1,141.87088,1591389082439
Fix,GT,37.5150032,-122.3499841,,23.253395,0.1,142.50482,1591389083439
Fix,GT,37.5148403,-122.3498127,,23.882551,0.1,142.85724,1591389084439
Fix,GT,37.5146731,-122.3496373,,24.4729,0.1,142.80118,1591389085439
Fix,GT,37.5145025,-122.3494571,,25.033886,0.1,142.51059,1591389086439
Fix,GT,37.5143288,-122.3492717,,25.56438,0.1,142.20361,1591389087439
Fix,GT,37.5141523,-122.3490813,,26.121567,0.1,141.93073,1591389088439
Fix,GT,37.5139726,-122.348886,,26.648933,0.1,141.74475,1591389089439
Fix,GT,37.5137897,-122.3486863,,27.119656,0.1,141.65137,1591389090439
Fix,GT,37.5136039,-122.3484828,,27.605145,0.1,141.66083,1591389091439
Fix,GT,37.5134146,-122.348276,,28.115776,0.1,141.75269,1591389092439
Fix,GT,37.5132216,-122.3480654,,28.622894,0.1,141.73499,1591389093439
Fix,GT,37.5130255,-122.3478504,,29.162926,0.1,141.44067,1591389094439
Fix,GT,37.5128273,-122.3476295,,29.627827,0.1,140.8421,1591389095439
Fix,GT,37.5126291,-122.3474034,,29.78631,0.1,140.09412,1591389096439
Fix,GT,37.5124323,-122.3471736,,29.859348,0.1,139.4978,1591389097439
Fix,GT,37.5122362,-122.3469406,,30.100925,0.1,139.11041,1591389098439
Fix,GT,37.5120401,-122.3467038,,30.304272,0.1,138.5441,1591389099439
Fix,GT,37.5118448,-122.3464626,,30.525925,0.1,137.84457,1591389100439
Fix,GT,37.5116506,-122.3462164,,30.731236,0.1,137.03122,1591389101439
Fix,GT,37.5114581,-122.3459654,,30.870428,0.1,136.26575,1591389102439
Fix,GT,37.511267,-122.345711,,30.958372,0.1,135.87894,1591389103439
Fix,GT,37.5110765,-122.3454547,,31.02586,0.1,135.6275,1591389104439
Fix,GT,37.5108872,-122.3451961,,31.099907,0.1,135.03949,1591389105439
Fix,GT,37.5106997,-122.3449341,,31.19283,0.1,134.3414,1591389106439
Fix,GT,37.5105139,-122.3446685,,31.323051,0.1,133.6802,1591389107439
Fix,GT,37.5103295,-122.3443992,,31.47647,0.1,133.17963,1591389108439
Fix,GT,37.5101459,-122.3441269,,31.607311,0.1,132.69312,1591389109439
Fix,GT,37.5099633,-122.3438515,,31.735447,0.1,132.1673,1591389110439
Fix,GT,37.5097822,-122.3435728,,31.863857,0.1,131.58746,1591389111439
Fix,GT,37.5096028,-122.3432906,,31.98627,0.1,130.92343,1591389112439
Fix,GT,37.5094253,-122.3430048,,32.101326,0.1,130.34045,1591389113439
Fix,GT,37.509249,-122.342716,,32.216038,0.1,130.02155,1591389114439
Fix,GT,37.5090729,-122.3424257,,32.31711,0.1,129.93433,1591389115439
Fix,GT,37.5088966,-122.3421341,,32.392097,0.1,129.85358,1591389116439
Fix,GT,37.50872,-122.3418416,,32.49308,0.1,129.89404,1591389117439
Fix,GT,37.5085426,-122.3415482,,32.628445,0.1,129.8825,1591389118439
Fix,GT,37.5083645,-122.3412535,,32.766586,0.1,129.90875,1591389119439
