MessageType,Provider,LatitudeDegrees,LongitudeDegrees,AltitudeMeters,SpeedMps,AccuracyMeters,BearingDegrees,UnixTimeMillis
Fix,GT,37.5252197,-122.3533942,,0.0036055516,0.1,228.16714,1596754351433
Fix,GT,37.5252197,-122.3533942,,0.0030119647,0.1,228.16678,1596754352433
Fix,GT,37.5252197,-122.3533942,,0.002236068,0.1,228.16664,1596754353433
Fix,GT,37.5252197,-122.3533942,,0.0018798447,0.1,228.16663,1596754354433
Fix,GT,37.5252197,-122.3533942,,0.0021718917,0.1,228.1664,1596754355433
Fix,GT,37.5252197,-122.3533942,,0.0031622779,0.1,228.16653,1596754356433
Fix,GT,37.5252197,-122.3533942,,0.0031622779,0.1,228.16675,1596754357433
Fix,GT,37.5252197,-122.3533942,,0.0033544097,0.1,228.16695,1596754358433
Fix,GT,37.5252197,-122.3533942,,0.0047840723,0.1,228.16731,1596754359433
Fix,GT,37.5252197,-122.3533942,,0.00673873,0.1,228.16776,1596754360433
Fix,GT,37.5252197,-122.3533942,,0.0060630264,0.1,228.16792,1596754361433
Fix,GT,37.5252197,-122.3533942,,0.004096525,0.1,228.16772,1596754362433
Fix,GT,37.5252197,-122.3533942,,0.0036055516,0.1,228.16771,1596754363433
Fix,GT,37.5252197,-122.3533942,,0.0036055516,0.1,228.17097,1596754364433
Fix,GT,37.5252197,-122.3533942,,0.0030119645,0.1,228.17113,1596754365433
Fix,GT,37.5252197,-122.3533942,,0.0030539827,0.1,228.16774,1596754366433
Fix,GT,37.5252197,-122.3533942,,0.0041231057,0.1,228.16902,1596754367433
Fix,GT,37.5252197,-122.3533942,,0.0046701306,0.1,228.16817,1596754368433
Fix,GT,37.5252197,-122.3533942,,0.005218219,0.1,228.16946,1596754369433
Fix,GT,37.5252197,-122.3533943,,0.0041331225,0.1,228.16666,1596754370433
Fix,GT,37.5252196,-122.3533943,,0.0059685586,0.1,228.1629,1596754371433
Fix,GT,37.5252196,-122.3533943,,0.010367468,0.1,228.16386,1596754372433
Fix,GT,37.5252196,-122.3533943,,0.010613879,0.1,228.16422,1596754373433
Fix,GT,37.5252196,-122.3533943,,0.010913163,0.1,228.16444,1596754374433
Fix,GT,37.5252196,-122.3533943,,0.012041595,0.1,228.16476,1596754375433
Fix,GT,37.5252196,-122.3533943,,0.012905903,0.1,228.16507,1596754376433
Fix,GT,37.5252196,-122.3533943,,0.014511185,0.1,228.16545,1596754377433
Fix,GT,37.5252196,-122.3533943,,0.014779527,0.1,228.16579,1596754378433
Fix,GT,37.5252196,-122.3533943,,0.014613504,0.1,228.16573,1596754379433
Fix,GT,37.5252196,-122.3533943,,0.015057538,0.1,228.16565,1596754380433
Fix,GT,37.5252196,-122.3533943,,0.015203966,0.1,228.16595,1596754381433
Fix,GT,37.5252196,-122.3533943,,0.015110251,0.1,228.16609,1596754382433
Fix,GT,37.5252196,-122.3533943,,0.014459642,0.1,228.16614,1596754383433
Fix,GT,37.5252195,-122.3533943,,0.0133222565,0.1,228.16664,1596754384433
Fix,GT,37.5252194,-122.3533943,,0.012040954,0.1,228.16629,1596754385433
Fix,GT,37.5252193,-122.3533942,,0.012274982,0.1,228.16682,1596754386433
Fix,GT,37.5252192,-122.3533941,,0.012874227,0.1,228.16922,1596754387433
Fix,GT,37.5252191,-122.3533939,,0.0127879195,0.1,228.1709,1596754388433
Fix,GT,37.5252191,-122.3533937,,0.015275748,0.1,228.17033,1596754389433
Fix,GT,37.5252191,-122.3533935,,0.02316232,0.1,228.16818,1596754390433
Fix,GT,37.5252191,-122.3533933,,0.03502891,0.1,228.16898,1596754391433
Fix,GT,37.5252186,-122.3533921,,0.2643286,0.1,228.06451,1596754392433
Fix,GT,37.5252142,-122.3533868,,1.0859435,0.1,226.89029,1596754393433
Fix,GT,37.5252025,-122.3533721,,2.434132,0.1,224.42847,1596754394433
Fix,GT,37.525182,-122.3533458,,3.8603067,0.1,222.38016,1596754395433
Fix,GT,37.5251538,-122.3533081,,5.1446276,0.1,221.44818,1596754396433
Fix,GT,37.5251184,-122.3532608,,6.3178844,0.1,221.51178,1596754397433
Fix,GT,37.5250764,-122.3532053,,7.1757035,0.1,222.00284,1596754398433
Fix,GT,37.5250296,-122.3531454,,7.631431,0.1,222.99855,1596754399433
Fix,GT,37.5249808,-122.3530861,,7.6103935,0.1,225.20935,1596754400433
Fix,GT,37.524932,-122.3530321,,7.0596247,0.1,228.11807,1596754401433
Fix,GT,37.5248856,-122.3529857,,6.2657886,0.1,230.51892,1596754402433
Fix,GT,37.5248434,-122.3529463,,5.4894323,0.1,231.81198,1596754403433
Fix,GT,37.5248046,-122.3529123,,4.6497474,0.1,233.57869,1596754404433
Fix,GT,37.5247732,-122.3528872,,3.4442434,0.1,236.62335,1596754405433
Fix,GT,37.5247535,-122.3528739,,2.6765504,0.1,242.44081,1596754406433
Fix,GT,37.5247386,-122.3528677,,2.7930608,0.1,253.41849,1596754407433
Fix,GT,37.5247232,-122.3528663,,3.264225,0.1,269.95102,1596754408433
Fix,GT,37.5247032,-122.3528718,,3.8905525,0.1,288.81842,1596754409433
Fix,GT,37.5246745,-122.3528905,,4.8128605,0.1,302.14948,1596754410433
Fix,GT,37.5246367,-122.3529247,,5.839796,0.1,308.60257,1596754411433
Fix,GT,37.524593,-122.3529705,,6.613825,0.1,312.9966,1596754412433
Fix,GT,37.5245468,-122.353026,,7.166691,0.1,315.34558,1596754413433
Fix,GT,37.5244983,-122.3530889,,7.9738035,0.1,314.73065,1596754414433
Fix,GT,37.5244435,-122.3531576,,8.800385,0.1,313.37357,1596754415433
Fix,GT,37.5243838,-122.3532298,,9.178415,0.1,312.23297,1596754416433
Fix,GT,37.5243218,-122.3533031,,9.309708,0.1,311.2491,1596754417433
Fix,GT,37.5242596,-122.3533759,,9.267366,0.1,310.22717,1596754418433
Fix,GT,37.5241996,-122.3534472,,9.1155,0.1,309.5341,1596754419433
Fix,GT,37.5241414,-122.353517,,9.072191,0.1,308.40515,1596754420433
Fix,GT,37.524081,-122.3535859,,9.375727,0.1,305.966,1596754421433
Fix,GT,37.5240115,-122.3536523,,9.893618,0.1,301.71216,1596754422433
Fix,GT,37.5239303,-122.3537119,,10.317311,0.1,295.77222,1596754423433
Fix,GT,37.523843,-122.3537631,,10.704393,0.1,290.55783,1596754424433
Fix,GT,37.5237543,-122.353808,,10.907499,0.1,288.25177,1596754425433
Fix,GT,37.5236674,-122.3538502,,10.657303,0.1,288.11987,1596754426433
Fix,GT,37.5235821,-122.3538924,,10.505184,0.1,289.65277,1596754427433
Fix,GT,37.523498,-122.3539391,,10.592617,0.1,294.31802,1596754428433
Fix,GT,37.5234179,-122.3539968,,10.673662,0.1,302.58307,1596754429433
Fix,GT,37.5233435,-122.3540706,,10.665512,0.1,312.61703,1596754430433
Fix,GT,37.5232786,-122.3541598,,10.533653,0.1,322.60437,1596754431433
Fix,GT,37.5232303,-122.3542583,,10.287785,0.1,333.88824,1596754432433
Fix,GT,37.5232053,-122.3543595,,10.323042,0.1,345.77304,1596754433433
Fix,GT,37.5231971,-122.3544681,,10.623409,0.1,353.712,1596754434433
Fix,GT,37.5231932,-122.3545882,,10.790443,0.1,356.04825,1596754435433
Fix,GT,37.5231915,-122.3547098,,10.792635,0.1,356.69083,1596754436433
Fix,GT,37.5231901,-122.3548314,,10.538576,0.1,356.5377,1596754437433
Fix,GT,37.523188,-122.3549505,,10.371811,0.1,355.6104,1596754438433
Fix,GT,37.5231853,-122.3550683,,10.6283045,0.1,354.696,1596754439433
Fix,GT,37.5231815,-122.3551896,,10.915812,0.1,354.3121,1596754440433
Fix,GT,37.5231771,-122.3553142,,11.122131,0.1,354.1373,1596754441433
Fix,GT,37.5231721,-122.3554409,,11.291534,0.1,354.00613,1596754442433
Fix,GT,37.5231674,-122.3555695,,11.531132,0.1,354.364,1596754443433
Fix,GT,37.5231637,-122.3557014,,11.915309,0.1,355.09955,1596754444433
Fix,GT,37.5231608,-122.3558381,,12.293385,0.1,355.37225,1596754445433
Fix,GT,37.5231576,-122.3559781,,12.439402,0.1,355.09705,1596754446433
Fix,GT,37.5231537,-122.3561173,,12.114052,0.1,354.78745,1596754447433
Fix,GT,37.5231499,-122.3562494,,11.204645,0.1,354.94708,1596754448433
Fix,GT,37.5231465,-122.3563702,,10.148384,0.1,355.15305,1596754449433
Fix,GT,37.5231433,-122.3564783,,8.9061,0.1,355.1562,1596754450433
Fix,GT,37.5231404,-122.3565713,,7.452622,0.1,355.28403,1596754451433
Fix,GT,37.5231384,-122.356647,,5.835256,0.1,355.51334,1596754452433
Fix,GT,37.523137,-122.356703,,4.097708,0.1,355.52313,1596754453433
Fix,GT,37.523136,-122.3567411,,2.761395,0.1,355.4403,1596754454433
Fix,GT,37.5231353,-122.3567664,,1.7479188,0.1,355.34534,1596754455433
Fix,GT,37.5231349,-122.3567813,,1.0724176,0.1,355.293,1596754456433
Fix,GT,37.5231345,-122.3567938,,1.4250679,0.1,354.67633,1596754457433
Fix,GT,37.5231308,-122.356821,,2.9440737,0.1,347.10995,1596754458433
Fix,GT,37.5231135,-122.356869,,4.6245313,0.1,326.8321,1596754459433
Fix,GT,37.5230726,-122.3569181,,5.8562326,0.1,301.21414,1596754460433
Fix,GT,37.5230111,-122.356948,,7.067232,0.1,279.872,1596754461433
Fix,GT,37.5229356,-122.3569535,,8.423965,0.1,263.814,1596754462433
Fix,GT,37.5228515,-122.3569342,,9.540678,0.1,252.24481,1596754463433
Fix,GT,37.5227651,-122.3568968,,10.144789,0.1,247.55869,1596754464433
Fix,GT,37.5226798,-122.3568528,,10.329796,0.1,246.99078,1596754465433
Fix,GT,37.5225989,-122.35681,,10.25924,0.1,248.50626,1596754466433
Fix,GT,37.5225274,-122.3567739,,9.753664,0.1,250.84106,1596754467433
Fix,GT,37.5224439,-122.3567496,,8.859799,0.1,251.37811,1596754468433
Fix,GT,37.5223514,-122.3567254,,7.9860463,0.1,245.36623,1596754469433
Fix,GT,37.5222857,-122.3566779,,7.68985,0.1,228.28508,1596754470433
Fix,GT,37.5222366,-122.3566034,,7.9917154,0.1,207.52974,1596754471433
Fix,GT,37.5222076,-122.3565106,,8.562925,0.1,193.3248,1596754472433
Fix,GT,37.5221895,-122.3564099,,9.356323,0.1,189.76326,1596754473433
Fix,GT,37.522169,-122.3563052,,10.168936,0.1,194.5619,1596754474433
Fix,GT,37.5221359,-122.3561996,,10.985114,0.1,204.86302,1596754475433
Fix,GT,37.522082,-122.3560977,,12.06848,0.1,217.52715,1596754476433
Fix,GT,37.5220027,-122.3560027,,13.647829,0.1,229.72586,1596754477433
Fix,GT,37.5218962,-122.3559154,,15.480577,0.1,238.10583,1596754478433
Fix,GT,37.5217664,-122.3558302,,17.257277,0.1,240.85425,1596754479433
Fix,GT,37.5216207,-122.3557391,,18.843102,0.1,241.03731,1596754480433
Fix,GT,37.5214634,-122.3556397,,20.218828,0.1,240.60544,1596754481433
Fix,GT,37.5212962,-122.3555319,,21.489931,0.1,240.40192,1596754482433
Fix,GT,37.5211184,-122.355418,,22.82025,0.1,240.78284,1596754483433
Fix,GT,37.5209335,-122.3553015,,23.896458,0.1,240.08514,1596754484433
Fix,GT,37.520743,-122.3551833,,24.57949,0.1,238.84964,1596754485433
Fix,GT,37.5205438,-122.3550605,,25.140083,0.1,238.72441,1596754486433
Fix,GT,37.5203386,-122.3549331,,25.846226,0.1,238.67203,1596754487433
Fix,GT,37.5201277,-122.354803,,26.759563,0.1,238.2868,1596754488433
Fix,GT,37.5199125,-122.3546637,,27.626814,0.1,237.41833,1596754489433
Fix,GT,37.5196937,-122.3545069,,28.273428,0.1,236.58965,1596754490433
Fix,GT,37.5194717,-122.3543417,,28.779984,0.1,236.01108,1596754491433
Fix,GT,37.5192464,-122.35417,,29.19619,0.1,235.56107,1596754492433
Fix,GT,37.5190178,-122.3539931,,29.519009,0.1,234.89688,1596754493433
Fix,GT,37.518787,-122.3538104,,29.817097,0.1,233.93765,1596754494433
Fix,GT,37.5185556,-122.3536208,,30.219593,0.1,232.64594,1596754495433
Fix,GT,37.5183253,-122.3534235,,30.636108,0.1,230.9646,1596754496433
Fix,GT,37.518098,-122.3532186,,31.050228,0.1,229.34761,1596754497433
Fix,GT,37.5178728,-122.3530067,,31.498058,0.1,228.38408,1596754498433
Fix,GT,37.5176478,-122.3527874,,32.00339,0.1,227.67618,1596754499433
Fix,GT,37.5174228,-122.3525608,,32.517128,0.1,226.89993,1596754500433
Fix,GT,37.5171982,-122.3523278,,32.91002,0.1,226.19136,1596754501433
Fix,GT,37.5169734,-122.3520901,,33.197727,0.1,225.7166,1596754502433
Fix,GT,37.5167474,-122.3518488,,33.424156,0.1,225.48804,1596754503433
Fix,GT,37.5165193,-122.3516044,,33.610622,0.1,225.38922,1596754504433
Fix,GT,37.5162886,-122.3513583,,33.681458,0.1,225.45854,1596754505433
Fix,GT,37.5160548,-122.3511115,,33.843735,0.1,225.55057,1596754506433
Fix,GT,37.5158185,-122.3508615,,34.20508,0.1,225.78404,1596754507433
Fix,GT,37.5155806,-122.3506071,,34.543728,0.1,225.94458,1596754508433
Fix,GT,37.5153415,-122.3503497,,34.755745,0.1,225.95255,1596754509433
Fix,GT,37.515102,-122.3500905,,34.905495,0.1,225.98485,1596754510433
Fix,GT,37.5148621,-122.3498308,,34.96478,0.1,226.04054,1596754511433
Fix,GT,37.5146223,-122.3495722,,34.82891,0.1,226.01642,1596754512433
Fix,GT,37.5143825,-122.3493163,,34.684658,0.1,225.98994,1596754513433
Fix,GT,37.514143,-122.3490668,,34.708984,0.1,226.1128,1596754514433
Fix,GT,37.5139053,-122.3488177,,34.819595,0.1,226.35968,1596754515433
Fix,GT,37.5136686,-122.3485593,,34.86724,0.1,226.54019,1596754516433
Fix,GT,37.513432,-122.3482997,,34.903625,0.1,226.51602,1596754517433
Fix,GT,37.5131951,-122.348039,,35.011265,0.1,226.16415,1596754518433
Fix,GT,37.5129586,-122.3477751,,35.18905,0.1,225.73767,1596754519433
Fix,GT,37.5127227,-122.3475074,,35.37007,0.1,225.18703,1596754520433
Fix,GT,37.5124877,-122.347235,,35.569473,0.1,224.46309,1596754521433
Fix,GT,37.5122545,-122.3469569,,35.865536,0.1,223.65436,1596754522433
Fix,GT,37.5120221,-122.3466728,,36.2063,0.1,222.97095,1596754523433
Fix,GT,37.5117908,-122.3463835,,36.44589,0.1,222.39215,1596754524433
Fix,GT,37.5115611,-122.3460891,,36.695183,0.1,221.70404,1596754525433
Fix,GT,37.5113304,-122.3457892,,36.92459,0.1,220.99127,1596754526433
Fix,GT,37.5111017,-122.3454841,,37.039154,0.1,220.27788,1596754527433
Fix,GT,37.5108754,-122.345175,,37.076897,0.1,219.60556,1596754528433
Fix,GT,37.5106519,-122.3448624,,37.07615,0.1,218.85794,1596754529433
Fix,GT,37.5104315,-122.3445464,,37.046844,0.1,218.14922,1596754530433
Fix,GT,37.5102142,-122.3442279,,36.983315,0.1,217.71173,1596754531433
Fix,GT,37.5099993,-122.3439089,,36.784622,0.1,217.14816,1596754532433
Fix,GT,37.509789,-122.3435885,,36.528263,0.1,216.10269,1596754533433
Fix,GT,37.5095848,-122.3432646,,36.42079,0.1,215.3841,1596754534433
Fix,GT,37.5093834,-122.3429391,,36.402267,0.1,215.08649,1596754535433
Fix,GT,37.509183,-122.3426128,,36.45458,0.1,214.85925,1596754536433
Fix,GT,37.5089829,-122.3422851,,36.56546,0.1,214.82396,1596754537433
Fix,GT,37.5087825,-122.3419563,,36.679115,0.1,214.80579,1596754538433
Fix,GT,37.5085815,-122.3416262,,36.765636,0.1,214.72488,1596754539433
Fix,GT,37.5083809,-122.3412951,,36.783924,0.1,214.51624,1596754540433
Fix,GT,37.5081813,-122.340963,,36.74527,0.1,214.39716,1596754541433
Fix,GT,37.5079821,-122.3406311,,36.71821,0.1,214.49557,1596754542433
Fix,GT,37.5077814,-122.3403002,,36.783188,0.1,214.87556,1596754543433
Fix,GT,37.5075782,-122.3399699,,36.94548,0.1,215.23479,1596754544433
Fix,GT,37.5073738,-122.3396387,,37.133163,0.1,215.18793,1596754545433
Fix,GT,37.5071688,-122.3393052,,37.296944,0.1,215.14868,1596754546433
Fix,GT,37.5069628,-122.3389704,,37.41886,0.1,215.20137,1596754547433
Fix,GT,37.5067567,-122.3386347,,37.39635,0.1,215.07086,1596754548433
Fix,GT,37.5065519,-122.3382993,,37.24405,0.1,214.90521,1596754549433
Fix,GT,37.5063483,-122.3379647,,37.08969,0.1,214.91669,1596754550433
Fix,GT,37.5061459,-122.3376315,,36.89969,0.1,214.83575,1596754551433
Fix,GT,37.505945,-122.3372996,,36.72733,0.1,214.74356,1596754552433
Fix,GT,37.5057452,-122.3369689,,36.60508,0.1,214.89851,1596754553433
Fix,GT,37.5055447,-122.3366414,,36.44919,0.1,215.45944,1596754554433
Fix,GT,37.5053427,-122.3363178,,36.270622,0.1,215.95189,1596754555433
Fix,GT,37.5051399,-122.335998,,36.02507,0.1,216.36197,1596754556433
Fix,GT,37.5049365,-122.3356833,,35.636948,0.1,216.99153,1596754557433
Fix,GT,37.504733,-122.3353754,,35.142654,0.1,217.44412,1596754558433
Fix,GT,37.5045307,-122.3350739,,34.639473,0.1,217.95866,1596754559433
Fix,GT,37.5043286,-122.3347793,,34.163246,0.1,218.62099,1596754560433
Fix,GT,37.5041268,-122.3344904,,33.88133,0.1,218.90132,1596754561433
Fix,GT,37.5039251,-122.3342028,,33.89372,0.1,218.72559,1596754562433
Fix,GT,37.5037241,-122.3339135,,33.96702,0.1,218.48317,1596754563433
Fix,GT,37.503523,-122.3336236,,34.00895,0.1,218.61662,1596754564433
Fix,GT,37.503321,-122.3333345,,34.053192,0.1,218.93625,1596754565433
Fix,GT,37.5031179,-122.3330456,,34.10129,0.1,218.96498,1596754566433
Fix,GT,37.5029146,-122.3327561,,34.170143,0.1,218.86563,1596754567433
Fix,GT,37.5027117,-122.3324653,,34.15472,0.1,218.63806,1596754568433
Fix,GT,37.5025102,-122.3321734,,34.11073,0.1,218.2526,1596754569433
Fix,GT,37.5023109,-122.3318795,,34.0955,0.1,217.47668,1596754570433
Fix,GT,37.5021159,-122.3315811,,34.01523,0.1,216.06161,1596754571433
Fix,GT,37.5019284,-122.3312769,,33.88081,0.1,214.32828,1596754572433
Fix,GT,37.501749,-122.3309667,,33.767975,0.1,212.39964,1596754573433
Fix,GT,37.5015792,-122.3306492,,33.66149,0.1,210.18787,1596754574433
Fix,GT,37.5014198,-122.3303245,,33.58894,0.1,207.87276,1596754575433
Fix,GT,37.501271,-122.3299926,,33.564674,0.1,205.61119,1596754576433
Fix,GT,37.5011326,-122.3296538,,33.514183,0.1,203.5432,1596754577433
Fix,GT,37.5010033,-122.3293097,,33.49614,0.1,201.66594,1596754578433
Fix,GT,37.500884,-122.3289604,,33.525005,0.1,199.75714,1596754579433
Fix,GT,37.5007745,-122.3286064,,33.50818,0.1,197.83261,1596754580433
Fix,GT,37.5006737,-122.3282482,,33.505295,0.1,195.85394,1596754581433
Fix,GT,37.5005837,-122.3278852,,33.520977,0.1,193.40903,1596754582433
Fix,GT,37.5005071,-122.3275176,,33.53655,0.1,190.91966,1596754583433
Fix,GT,37.5004419,-122.3271462,,33.59371,0.1,188.78168,1596754584433
Fix,GT,37.5003856,-122.3267717,,33.75726,0.1,186.738,1596754585433
Fix,GT,37.5003396,-122.3263927,,34.02497,0.1,184.79799,1596754586433
Fix,GT,37.5003036,-122.3260079,,34.34353,0.1,182.78128,1596754587433
Fix,GT,37.5002786,-122.325618,,34.668915,0.1,180.4805,1596754588433
Fix,GT,37.5002662,-122.325223,,34.9653,0.1,178.43268,1596754589433
Fix,GT,37.5002631,-122.3248241,,35.326675,0.1,177.33942,1596754590433
Fix,GT,37.5002628,-122.3244215,,35.76792,0.1,177.3966,1596754591433
Fix,GT,37.5002614,-122.3240155,,36.103344,0.1,177.89386,1596754592433
Fix,GT,37.5002581,-122.323607,,36.195465,0.1,178.24286,1596754593433
Fix,GT,37.5002527,-122.3231986,,36.042778,0.1,178.74854,1596754594433
Fix,GT,37.5002429,-122.3227926,,35.91599,0.1,179.90302,1596754595433
Fix,GT,37.5002249,-122.3223881,,35.943253,0.1,181.93156,1596754596433
Fix,GT,37.5001936,-122.3219849,,35.97918,0.1,184.62018,1596754597433
Fix,GT,37.5001476,-122.3215829,,36.045486,0.1,186.8127,1596754598433
Fix,GT,37.5000908,-122.3211821,,36.089962,0.1,188.44807,1596754599433
Fix,GT,37.5000244,-122.3207835,,36.047516,0.1,190.155,1596754600433
Fix,GT,37.4999497,-122.3203885,,35.87899,0.1,191.73239,1596754601433
Fix,GT,37.4998664,-122.3199989,,35.629524,0.1,193.54688,1596754602433
Fix,GT,37.4997732,-122.3196152,,35.51436,0.1,195.65146,1596754603433
Fix,GT,37.4996684,-122.3192371,,35.486546,0.1,198.07564,1596754604433
Fix,GT,37.4995516,-122.318865,,35.429066,0.1,200.2578,1596754605433
Fix,GT,37.4994245,-122.3184995,,35.19559,0.1,202.15475,1596754606433
Fix,GT,37.4992888,-122.3181437,,34.720833,0.1,204.05139,1596754607433
Fix,GT,37.4991464,-122.3177968,,34.44966,0.1,205.48886,1596754608433
Fix,GT,37.4989977,-122.3174553,,34.566383,0.1,206.95317,1596754609433
Fix,GT,37.4988411,-122.317117,,34.79987,0.1,208.6639,1596754610433
Fix,GT,37.4986753,-122.3167823,,35.044296,0.1,210.40213,1596754611433
Fix,GT,37.4985009,-122.316451,,35.277786,0.1,211.7044,1596754612433
Fix,GT,37.4983205,-122.3161209,,35.587284,0.1,212.4337,1596754613433
Fix,GT,37.4981354,-122.3157893,,36.005997,0.1,212.59274,1596754614433
Fix,GT,37.4979477,-122.3154535,,36.434753,0.1,212.44638,1596754615433
Fix,GT,37.4977592,-122.3151139,,36.63461,0.1,212.05505,1596754616433
Fix,GT,37.4975727,-122.3147707,,36.70497,0.1,211.31897,1596754617433
Fix,GT,37.4973895,-122.3144233,,36.87288,0.1,210.78049,1596754618433
Fix,GT,37.4972076,-122.3140738,,36.992928,0.1,210.92482,1596754619433
Fix,GT,37.4970251,-122.3137238,,36.98239,0.1,210.44658,1596754620433
Fix,GT,37.4968462,-122.3133705,,36.945446,0.1,208.98936,1596754621433
Fix,GT,37.4966749,-122.3130112,,36.99163,0.1,207.61139,1596754622433
Fix,GT,37.4965099,-122.312647,,37.030956,0.1,206.40137,1596754623433
Fix,GT,37.4963502,-122.3122785,,37.075752,0.1,205.25311,1596754624433
Fix,GT,37.4961959,-122.3119054,,37.157936,0.1,203.95395,1596754625433
Fix,GT,37.4960485,-122.3115269,,37.257736,0.1,202.37459,1596754626433
Fix,GT,37.4959092,-122.3111424,,37.323906,0.1,200.68721,1596754627433
Fix,GT,37.4957786,-122.3107526,,37.327335,0.1,199.2262,1596754628433
Fix,GT,37.495656,-122.3103592,,37.23146,0.1,197.83163,1596754629433
Fix,GT,37.4955411,-122.3099634,,37.084732,0.1,196.555,1596754630433
Fix,GT,37.4954325,-122.3095659,,37.047035,0.1,195.61926,1596754631433
Fix,GT,37.4953281,-122.3091667,,37.14003,0.1,195.01042,1596754632433
Fix,GT,37.4952266,-122.3087659,,37.205406,0.1,194.53821,1596754633433
Fix,GT,37.4951274,-122.3083644,,37.23648,0.1,194.25122,1596754634433
Fix,GT,37.4950295,-122.3079623,,37.268784,0.1,194.20372,1596754635433
Fix,GT,37.4949319,-122.3075605,,37.18098,0.1,194.25325,1596754636433
Fix,GT,37.4948343,-122.3071601,,36.949345,0.1,194.2561,1596754637433
Fix,GT,37.4947379,-122.3067615,,36.751266,0.1,194.05554,1596754638433
Fix,GT,37.494643,-122.3063642,,36.59707,0.1,194.07802,1596754639433
Fix,GT,37.4945472,-122.3059693,,36.462677,0.1,194.65128,1596754640433
Fix,GT,37.4944475,-122.3055778,,36.323517,0.1,195.84915,1596754641433
Fix,GT,37.4943402,-122.3051919,,36.19313,0.1,197.81396,1596754642433
Fix,GT,37.4942214,-122.3048126,,36.110275,0.1,200.17847,1596754643433
Fix,GT,37.4940902,-122.3044404,,36.10176,0.1,202.59058,1596754644433
Fix,GT,37.4939473,-122.3040748,,36.132122,0.1,204.73062,1596754645433
Fix,GT,37.4937939,-122.3037161,,36.08905,0.1,206.93602,1596754646433
Fix,GT,37.49363,-122.3033652,,36.071476,0.1,209.13434,1596754647433
Fix,GT,37.493455,-122.3030235,,36.042763,0.1,211.78769,1596754648433
Fix,GT,37.4932673,-122.3026933,,36.041298,0.1,214.63557,1596754649433
Fix,GT,37.4930684,-122.302373,,36.108562,0.1,216.59613,1596754650433
Fix,GT,37.4928609,-122.3020599,,36.27087,0.1,218.56459,1596754651433
Fix,GT,37.4926434,-122.3017559,,36.41992,0.1,220.9009,1596754652433
Fix,GT,37.492415,-122.3014619,,36.55385,0.1,223.1339,1596754653433
Fix,GT,37.4921731,-122.3011775,,36.763573,0.1,225.32236,1596754654433
Fix,GT,37.4919202,-122.3009035,,37.01418,0.1,227.80428,1596754655433
Fix,GT,37.4916592,-122.3006424,,37.355927,0.1,230.58752,1596754656433
Fix,GT,37.4913859,-122.3003946,,37.75689,0.1,233.13141,1596754657433
Fix,GT,37.4911021,-122.3001594,,38.050797,0.1,235.4186,1596754658433
Fix,GT,37.4908086,-122.2999375,,38.290993,0.1,237.44604,1596754659433
Fix,GT,37.4905061,-122.2997284,,38.43941,0.1,239.88013,1596754660433
Fix,GT,37.4901966,-122.2995348,,38.32358,0.1,242.17035,1596754661433
Fix,GT,37.489882,-122.299358,,38.192802,0.1,244.15906,1596754662433
Fix,GT,37.4895632,-122.2991963,,38.283585,0.1,246.5091,1596754663433
Fix,GT,37.4892392,-122.2990521,,38.326424,0.1,249.06018,1596754664433
Fix,GT,37.4889107,-122.2989263,,38.21182,0.1,251.59189,1596754665433
Fix,GT,37.4885793,-122.2988173,,38.00667,0.1,254.0176,1596754666433
Fix,GT,37.4882466,-122.2987242,,37.914047,0.1,256.10767,1596754667433
Fix,GT,37.4879129,-122.2986499,,37.94866,0.1,258.56195,1596754668433
Fix,GT,37.4875761,-122.2985949,,37.93698,0.1,261.43597,1596754669433
Fix,GT,37.4872373,-122.2985608,,37.774723,0.1,263.82825,1596754670433
Fix,GT,37.4868996,-122.2985443,,37.488388,0.1,266.07306,1596754671433
Fix,GT,37.4865644,-122.2985447,,37.260307,0.1,268.48492,1596754672433
Fix,GT,37.4862306,-122.2985621,,37.12984,0.1,270.71667,1596754673433
Fix,GT,37.4858977,-122.2985948,,37.049828,0.1,272.78003,1596754674433
Fix,GT,37.4855657,-122.2986411,,36.94919,0.1,274.24542,1596754675433
Fix,GT,37.4852352,-122.2986944,,36.848125,0.1,274.75183,1596754676433
Fix,GT,37.4849057,-122.2987484,,36.777733,0.1,274.721,1596754677433
Fix,GT,37.4845773,-122.2988013,,36.727608,0.1,274.608,1596754678433
Fix,GT,37.4842495,-122.298854,,36.697357,0.1,274.58267,1596754679433
Fix,GT,37.4839222,-122.2989066,,36.65611,0.1,274.49054,1596754680433
Fix,GT,37.4835955,-122.2989589,,36.580627,0.1,274.47748,1596754681433
Fix,GT,37.4832697,-122.299012,,36.526024,0.1,274.67657,1596754682433
Fix,GT,37.4829444,-122.2990667,,36.489487,0.1,274.81357,1596754683433
Fix,GT,37.4826194,-122.2991215,,36.44248,0.1,274.64105,1596754684433
Fix,GT,37.4822943,-122.2991752,,36.523045,0.1,274.43637,1596754685433
Fix,GT,37.4819678,-122.2992268,,36.70182,0.1,274.13184,1596754686433
Fix,GT,37.4816398,-122.2992765,,36.801563,0.1,274.05603,1596754687433
Fix,GT,37.481311,-122.2993273,,36.845932,0.1,274.40125,1596754688433
Fix,GT,37.4809823,-122.29938,,36.730865,0.1,274.6479,1596754689433
Fix,GT,37.4806554,-122.2994343,,36.402874,0.1,274.85428,1596754690433
Fix,GT,37.4803311,-122.2994891,,36.138416,0.1,274.77933,1596754691433
Fix,GT,37.480008,-122.299542,,36.007504,0.1,274.41412,1596754692433
Fix,GT,37.4796854,-122.2995911,,35.904766,0.1,273.65485,1596754693433
Fix,GT,37.4793637,-122.2996324,,35.693283,0.1,272.15027,1596754694433
Fix,GT,37.4790435,-122.299661,,35.43627,0.1,270.09467,1596754695433
Fix,GT,37.478725,-122.2996745,,35.28802,0.1,267.80276,1596754696433
Fix,GT,37.4784077,-122.2996716,,35.1708,0.1,265.5192,1596754697433
Fix,GT,37.4780898,-122.2996539,,35.142204,0.1,263.17047,1596754698433
Fix,GT,37.4777707,-122.2996204,,35.048767,0.1,261.0433,1596754699433
Fix,GT,37.4774554,-122.2995721,,34.744934,0.1,259.24792,1596754700433
Fix,GT,37.4771469,-122.29951,,34.44957,0.1,256.92316,1596754701433
Fix,GT,37.4768424,-122.2994313,,34.402138,0.1,254.2337,1596754702433
Fix,GT,37.4765413,-122.2993338,,34.66189,0.1,251.31552,1596754703433
Fix,GT,37.4762416,-122.2992181,,35.00785,0.1,248.43887,1596754704433
Fix,GT,37.4759413,-122.2990851,,35.41875,0.1,246.30382,1596754705433
Fix,GT,37.4756408,-122.2989377,,35.796936,0.1,244.61665,1596754706433
Fix,GT,37.4753396,-122.2987794,,36.06029,0.1,242.76831,1596754707433
Fix,GT,37.4750411,-122.298608,,36.33519,0.1,240.86694,1596754708433
Fix,GT,37.4747461,-122.2984228,,36.611126,0.1,238.9572,1596754709433
Fix,GT,37.4744553,-122.2982233,,36.774265,0.1,236.8831,1596754710433
Fix,GT,37.47417,-122.2980096,,36.895298,0.1,234.88205,1596754711433
Fix,GT,37.4738908,-122.2977811,,37.01406,0.1,232.453,1596754712433
Fix,GT,37.4736199,-122.2975349,,37.084255,0.1,229.76622,1596754713433
Fix,GT,37.4733577,-122.2972727,,37.195152,0.1,227.82808,1596754714433
Fix,GT,37.4730997,-122.297001,,37.450848,0.1,227.12077,1596754715433
Fix,GT,37.4728416,-122.2967241,,37.80226,0.1,226.8454,1596754716433
Fix,GT,37.4725821,-122.2964441,,38.06083,0.1,226.91652,1596754717433
Fix,GT,37.4723209,-122.2961639,,38.15139,0.1,227.13155,1596754718433
Fix,GT,37.4720588,-122.2958841,,38.18466,0.1,227.21512,1596754719433
Fix,GT,37.4717963,-122.2956036,,38.316307,0.1,227.04521,1596754720433
Fix,GT,37.4715335,-122.2953208,,38.50561,0.1,226.81554,1596754721433
Fix,GT,37.4712702,-122.2950353,,38.71662,0.1,226.57205,1596754722433
Fix,GT,37.4710065,-122.2947463,,38.97709,0.1,226.38287,1596754723433
Fix,GT,37.4707413,-122.2944556,,39.199615,0.1,226.76645,1596754724433
Fix,GT,37.4704722,-122.2941679,,39.35105,0.1,227.76703,1596754725433
Fix,GT,37.4701977,-122.2938857,,39.513763,0.1,228.9801,1596754726433
Fix,GT,37.4699173,-122.2936095,,39.723503,0.1,230.43842,1596754727433
Fix,GT,37.4696295,-122.293344,,39.75875,0.1,232.81587,1596754728433
Fix,GT,37.4693329,-122.2930952,,39.664574,0.1,235.23764,1596754729433
Fix,GT,37.4690291,-122.2928611,,39.662743,0.1,237.0791,1596754730433
Fix,GT,37.4687192,-122.2926387,,39.75264,0.1,238.75041,1596754731433
Fix,GT,37.4684034,-122.2924272,,39.880157,0.1,240.26852,1596754732433
Fix,GT,37.4680821,-122.292226,,40.03103,0.1,242.08264,1596754733433
Fix,GT,37.4677547,-122.2920368,,40.19861,0.1,244.09697,1596754734433
Fix,GT,37.4674204,-122.2918632,,40.334667,0.1,246.36746,1596754735433
Fix,GT,37.4670801,-122.2917054,,40.36953,0.1,248.27962,1596754736433
Fix,GT,37.4667363,-122.2915617,,40.249992,0.1,250.10468,1596754737433
Fix,GT,37.4663905,-122.2914323,,40.041435,0.1,252.10481,1596754738433
Fix,GT,37.4660434,-122.2913196,,39.772507,0.1,254.33058,1596754739433
Fix,GT,37.4656951,-122.2912236,,39.617264,0.1,256.19623,1596754740433
Fix,GT,37.465345,-122.2911416,,39.659218,0.1,257.90457,1596754741433
Fix,GT,37.4649919,-122.2910724,,39.88192,0.1,259.74274,1596754742433
Fix,GT,37.4646347,-122.2910167,,40.164383,0.1,261.49646,1596754743433
Fix,GT,37.4642745,-122.2909753,,40.274475,0.1,263.46802,1596754744433
Fix,GT,37.4639129,-122.2909495,,40.287384,0.1,265.1844,1596754745433
Fix,GT,37.4635504,-122.2909342,,40.320496,0.1,265.9336,1596754746433
Fix,GT,37.463187,-122.2909221,,40.39106,0.1,266.0157,1596754747433
Fix,GT,37.4628228,-122.29091,,40.47277,0.1,265.98486,1596754748433
Fix,GT,37.4624579,-122.2908981,,40.55889,0.1,266.07843,1596754749433
Fix,GT,37.462092,-122.2908859,,40.64794,0.1,265.71222,1596754750433
Fix,GT,37.461725,-122.2908675,,40.770832,0.1,264.27478,1596754751433
Fix,GT,37.4613571,-122.2908358,,40.90092,0.1,262.19467,1596754752433
Fix,GT,37.4609896,-122.2907863,,40.981674,0.1,259.93463,1596754753433
Fix,GT,37.4606232,-122.2907169,,41.075054,0.1,257.27704,1596754754433
Fix,GT,37.4602586,-122.2906256,,41.218925,0.1,254.32126,1596754755433
Fix,GT,37.4598967,-122.2905093,,41.47683,0.1,251.01431,1596754756433
Fix,GT,37.4595377,-122.2903677,,41.908348,0.1,248.69333,1596754757433
Fix,GT,37.4591793,-122.2902082,,42.328674,0.1,246.88164,1596754758433
Fix,GT,37.4588221,-122.290032,,42.662308,0.1,244.65332,1596754759433
Fix,GT,37.4584683,-122.2898357,,42.98137,0.1,241.81612,1596754760433
Fix,GT,37.4581209,-122.2896131,,43.317215,0.1,238.24689,1596754761433
Fix,GT,37.4577826,-122.2893628,,43.649384,0.1,235.36853,1596754762433
Fix,GT,37.4574512,-122.2890917,,43.982468,0.1,233.12857,1596754763433
Fix,GT,37.4571265,-122.2888017,,44.269897,0.1,230.48616,1596754764433
Fix,GT,37.4568116,-122.2884908,,44.463696,0.1,227.72705,1596754765433
Fix,GT,37.4565078,-122.2881601,,44.56694,0.1,224.92694,1596754766433
Fix,GT,37.4562169,-122.2878103,,44.65018,0.1,221.99158,1596754767433
Fix,GT,37.4559395,-122.2874429,,44.694168,0.1,219.59137,1596754768433
Fix,GT,37.455673,-122.2870634,,44.70916,0.1,218.09428,1596754769433
Fix,GT,37.4554132,-122.2866768,,44.71251,0.1,217.18398,1596754770433
Fix,GT,37.4551567,-122.2862867,,44.713318,0.1,216.75325,1596754771433
Fix,GT,37.4549017,-122.2858956,,44.72406,0.1,216.74243,1596754772433
Fix,GT,37.4546466,-122.285504,,44.77151,0.1,216.80293,1596754773433
Fix,GT,37.454391,-122.285112,,44.859955,0.1,216.85919,1596754774433
Fix,GT,37.4541343,-122.2847195,,44.969536,0.1,216.94637,1596754775433
Fix,GT,37.4538768,-122.2843267,,45.00235,0.1,217.0196,1596754776433
Fix,GT,37.4536189,-122.2839349,,44.94291,0.1,217.20096,1596754777433
Fix,GT,37.4533607,-122.2835447,,44.761024,0.1,217.34178,1596754778433
Fix,GT,37.4531041,-122.2831576,,44.244225,0.1,217.24644,1596754779433
Fix,GT,37.4528518,-122.2827758,,43.489845,0.1,217.0315,1596754780433
Fix,GT,37.4526051,-122.282399,,42.782578,0.1,216.92717,1596754781433
Fix,GT,37.4523623,-122.2820282,,42.162537,0.1,217.03029,1596754782433
Fix,GT,37.4521225,-122.2816629,,41.596214,0.1,217.1628,1596754783433
Fix,GT,37.4518849,-122.2813025,,41.206505,0.1,217.21873,1596754784433
Fix,GT,37.4516485,-122.2809444,,41.13109,0.1,217.12796,1596754785433
Fix,GT,37.4514125,-122.2805855,,41.182335,0.1,217.06139,1596754786433
Fix,GT,37.4511762,-122.2802266,,41.201263,0.1,217.34242,1596754787433
Fix,GT,37.4509379,-122.27987,,41.188385,0.1,217.94647,1596754788433
Fix,GT,37.4506967,-122.2795164,,41.225655,0.1,218.37878,1596754789433
Fix,GT,37.4504536,-122.2791633,,41.34545,0.1,218.31244,1596754790433
Fix,GT,37.4502108,-122.2788079,,41.398808,0.1,217.88393,1596754791433
Fix,GT,37.4499705,-122.2784513,,41.2193,0.1,217.63058,1596754792433
Fix,GT,37.4497324,-122.2780952,,41.055397,0.1,217.43945,1596754793433
Fix,GT,37.4494957,-122.2777374,,41.314674,0.1,217.14134,1596754794433
Fix,GT,37.4492568,-122.2773755,,41.865448,0.1,217.34607,1596754795433
Fix,GT,37.4490131,-122.2770112,,42.317627,0.1,217.99501,1596754796433
Fix,GT,37.4487643,-122.2766475,,42.52478,0.1,218.48956,1596754797433
Fix,GT,37.4485123,-122.2762839,,42.77729,0.1,218.60504,1596754798433
Fix,GT,37.448258,-122.2759174,,43.195354,0.1,218.61946,1596754799433
Fix,GT,37.4480017,-122.2755474,,43.516556,0.1,218.60817,1596754800433
Fix,GT,37.447744,-122.2751757,,43.64633,0.1,218.71495,1596754801433
Fix,GT,37.4474849,-122.2748039,,43.7968,0.1,218.88556,1596754802433
Fix,GT,37.4472235,-122.2744313,,44.096146,0.1,219.04239,1596754803433
Fix,GT,37.4469593,-122.2740565,,44.423447,0.1,219.13177,1596754804433
Fix,GT,37.4466935,-122.2736796,,44.59035,0.1,219.0815,1596754805433
Fix,GT,37.4464277,-122.2733011,,44.64684,0.1,218.83237,1596754806433
Fix,GT,37.4461634,-122.2729209,,44.546402,0.1,218.43169,1596754807433
Fix,GT,37.4459034,-122.272539,,44.209885,0.1,217.4521,1596754808433
Fix,GT,37.4456518,-122.2721534,,43.891987,0.1,216.06755,1596754809433
Fix,GT,37.4454102,-122.271761,,43.689194,0.1,214.25201,1596754810433
Fix,GT,37.4451806,-122.2713606,,43.398567,0.1,211.83214,1596754811433
Fix,GT,37.444967,-122.2709508,,43.00431,0.1,209.05243,1596754812433
Fix,GT,37.4447719,-122.2705327,,42.514496,0.1,206.43161,1596754813433
Fix,GT,37.4445927,-122.2701102,,41.994896,0.1,204.39069,1596754814433
Fix,GT,37.4444275,-122.2696848,,41.64437,0.1,202.37332,1596754815433
Fix,GT,37.4442759,-122.2692542,,41.49239,0.1,200.139,1596754816433
Fix,GT,37.4441377,-122.2688179,,41.41073,0.1,197.81804,1596754817433
Fix,GT,37.4440144,-122.2683753,,41.348038,0.1,195.38809,1596754818433
Fix,GT,37.4439063,-122.2679272,,41.301003,0.1,193.07553,1596754819433
Fix,GT,37.4438126,-122.2674748,,41.284412,0.1,190.99252,1596754820433
Fix,GT,37.4437319,-122.2670184,,41.28016,0.1,188.9523,1596754821433
Fix,GT,37.4436646,-122.266559,,41.209908,0.1,186.70537,1596754822433
Fix,GT,37.4436115,-122.2660975,,41.142685,0.1,184.55049,1596754823433
Fix,GT,37.4435722,-122.2656343,,41.12883,0.1,182.43114,1596754824433
Fix,GT,37.4435468,-122.2651701,,41.03457,0.1,180.24579,1596754825433
Fix,GT,37.4435352,-122.2647065,,40.8714,0.1,178.11694,1596754826433
Fix,GT,37.4435378,-122.2642447,,40.67993,0.1,175.91632,1596754827433
Fix,GT,37.4435549,-122.2637852,,40.548515,0.1,173.56573,1596754828433
Fix,GT,37.4435861,-122.2633281,,40.50733,0.1,171.63861,1596754829433
Fix,GT,37.4436281,-122.262873,,40.43161,0.1,170.30707,1596754830433
Fix,GT,37.443676,-122.262421,,40.181187,0.1,169.78711,1596754831433
Fix,GT,37.4437246,-122.2619736,,39.750504,0.1,170.03088,1596754832433
Fix,GT,37.4437715,-122.2615308,,39.292587,0.1,170.00305,1596754833433
Fix,GT,37.4438187,-122.2610931,,38.85127,0.1,169.81293,1596754834433
Fix,GT,37.4438658,-122.2606606,,38.407112,0.1,169.96045,1596754835433
Fix,GT,37.4439109,-122.2602331,,37.947083,0.1,170.34973,1596754836433
Fix,GT,37.443953,-122.2598103,,37.50875,0.1,170.94861,1596754837433
Fix,GT,37.4439893,-122.2593919,,37.120773,0.1,172.46289,1596754838433
Fix,GT,37.4440142,-122.258977,,36.760506,0.1,174.87158,1596754839433
Fix,GT,37.4440247,-122.2585649,,36.461525,0.1,177.41437,1596754840433
Fix,GT,37.4440209,-122.2581557,,36.213715,0.1,179.862,1596754841433
Fix,GT,37.4440033,-122.2577498,,35.986275,0.1,182.29453,1596754842433
Fix,GT,37.4439725,-122.2573474,,35.739014,0.1,184.56047,1596754843433
Fix,GT,37.4439296,-122.2569504,,35.372585,0.1,186.75441,1596754844433
Fix,GT,37.4438752,-122.2565602,,34.988968,0.1,189.16605,1596754845433
Fix,GT,37.4438085,-122.2561768,,34.655865,0.1,191.5057,1596754846433
Fix,GT,37.4437311,-122.2558006,,34.291016,0.1,193.27669,1596754847433
Fix,GT,37.4436454,-122.2554308,,34.10909,0.1,195.03305,1596754848433
Fix,GT,37.4435503,-122.2550653,,34.12926,0.1,196.98709,1596754849433
Fix,GT,37.4434459,-122.2547033,,34.174747,0.1,198.53645,1596754850433
Fix,GT,37.4433337,-122.2543432,,34.472122,0.1,200.08507,1596754851433
Fix,GT,37.4432097,-122.253984,,35.138863,0.1,202.79987,1596754852433
Fix,GT,37.4430683,-122.253626,,35.846146,0.1,205.79921,1596754853433
Fix,GT,37.4429102,-122.2532708,,36.391853,0.1,208.45299,1596754854433
Fix,GT,37.4427369,-122.2529207,,36.820305,0.1,211.03665,1596754855433
Fix,GT,37.442549,-122.2525764,,37.26932,0.1,213.50404,1596754856433
Fix,GT,37.4423478,-122.2522371,,37.757378,0.1,215.56407,1596754857433
Fix,GT,37.4421347,-122.251903,,38.175163,0.1,217.80278,1596754858433
Fix,GT,37.4419085,-122.2515779,,38.447113,0.1,220.1356,1596754859433
Fix,GT,37.4416715,-122.2512599,,38.72442,0.1,221.40921,1596754860433
Fix,GT,37.4414285,-122.2509434,,39.090267,0.1,221.77657,1596754861433
Fix,GT,37.4411821,-122.2506247,,39.457077,0.1,221.76651,1596754862433
Fix,GT,37.4409342,-122.250303,,39.68235,0.1,221.60999,1596754863433
Fix,GT,37.440686,-122.2499798,,39.716206,0.1,221.7371,1596754864433
Fix,GT,37.4404362,-122.2496588,,39.769768,0.1,222.40611,1596754865433
Fix,GT,37.4401822,-122.2493407,,40.023277,0.1,223.04367,1596754866433
Fix,GT,37.4399242,-122.2490224,,40.295425,0.1,223.09933,1596754867433
Fix,GT,37.439665,-122.2487021,,40.507202,0.1,223.03584,1596754868433
Fix,GT,37.4394041,-122.24838,,40.8023,0.1,223.24666,1596754869433
Fix,GT,37.4391394,-122.2480569,,41.239014,0.1,223.72455,1596754870433
Fix,GT,37.4388695,-122.2477329,,41.736206,0.1,224.14398,1596754871433
Fix,GT,37.4385953,-122.2474067,,42.144646,0.1,224.14197,1596754872433
Fix,GT,37.4383191,-122.2470776,,42.430275,0.1,224.02701,1596754873433
Fix,GT,37.4380416,-122.2467459,,42.659576,0.1,224.04166,1596754874433
Fix,GT,37.4377628,-122.2464124,,42.84436,0.1,224.03583,1596754875433
Fix,GT,37.4374829,-122.2460777,,43.015823,0.1,224.03484,1596754876433
Fix,GT,37.4372016,-122.2457416,,43.218124,0.1,223.97298,1596754877433
Fix,GT,37.4369193,-122.2454034,,43.441204,0.1,223.90366,1596754878433
Fix,GT,37.4366358,-122.2450633,,43.64105,0.1,223.93677,1596754879433
Fix,GT,37.4363514,-122.2447225,,43.681866,0.1,224.00323,1596754880433
Fix,GT,37.4360669,-122.2443828,,43.493298,0.1,224.0799,1596754881433
Fix,GT,37.4357837,-122.2440459,,43.130344,0.1,224.23442,1596754882433
Fix,GT,37.4355027,-122.2437132,,42.69178,0.1,224.37207,1596754883433
Fix,GT,37.4352238,-122.243384,,42.33725,0.1,224.3459,1596754884433
Fix,GT,37.4349467,-122.2430565,,42.194107,0.1,224.11765,1596754885433
Fix,GT,37.4346708,-122.2427286,,42.188957,0.1,223.979,1596754886433
Fix,GT,37.4343953,-122.2424,,42.19369,0.1,223.95265,1596754887433
Fix,GT,37.4341201,-122.2420718,,42.12489,0.1,224.05338,1596754888433
Fix,GT,37.4338451,-122.2417455,,41.90559,0.1,224.21165,1596754889433
Fix,GT,37.433572,-122.2414219,,41.52132,0.1,224.13097,1596754890433
Fix,GT,37.4333018,-122.2411004,,41.126305,0.1,223.9762,1596754891433
Fix,GT,37.4330348,-122.2407817,,40.72531,0.1,224.02013,1596754892433
Fix,GT,37.4327705,-122.2404664,,40.221542,0.1,224.0465,1596754893433
Fix,GT,37.4325104,-122.2401543,,39.628967,0.1,223.60522,1596754894433
Fix,GT,37.4322571,-122.2398432,,39.01383,0.1,222.75294,1596754895433
Fix,GT,37.4320107,-122.2395329,,38.487537,0.1,222.25029,1596754896433
Fix,GT,37.431769,-122.2392246,,38.085915,0.1,222.10422,1596754897433
Fix,GT,37.4315294,-122.2389186,,37.847534,0.1,222.02641,1596754898433
Fix,GT,37.4312917,-122.2386129,,37.707325,0.1,221.70958,1596754899433
Fix,GT,37.4310568,-122.2383068,,37.400528,0.1,221.22006,1596754900433
Fix,GT,37.4308266,-122.2380015,,36.94069,0.1,220.63394,1596754901433
Fix,GT,37.4306019,-122.2376972,,36.37591,0.1,220.009,1596754902433
Fix,GT,37.4303834,-122.2373954,,35.745888,0.1,219.61012,1596754903433
Fix,GT,37.4301696,-122.2370981,,35.20734,0.1,219.721,1596754904433
Fix,GT,37.4299575,-122.2368054,,34.87344,0.1,220.0956,1596754905433
Fix,GT,37.429745,-122.2365172,,34.687225,0.1,220.77934,1596754906433
Fix,GT,37.4295301,-122.2362325,,34.84996,0.1,221.38982,1596754907433
Fix,GT,37.4293106,-122.2359455,,35.60826,0.1,221.36946,1596754908433
Fix,GT,37.4290864,-122.2356497,,36.62456,0.1,220.92719,1596754909433
Fix,GT,37.4288582,-122.2353439,,37.40361,0.1,220.46149,1596754910433
Fix,GT,37.4286279,-122.2350308,,37.98156,0.1,220.14682,1596754911433
Fix,GT,37.4283954,-122.2347121,,38.456642,0.1,219.9882,1596754912433
Fix,GT,37.4281608,-122.2343891,,38.854164,0.1,219.91728,1596754913433
Fix,GT,37.4279246,-122.2340634,,39.048676,0.1,219.9595,1596754914433
Fix,GT,37.4276875,-122.2337378,,39.016216,0.1,220.16927,1596754915433
Fix,GT,37.4274501,-122.2334132,,38.940933,0.1,220.13795,1596754916433
Fix,GT,37.4272138,-122.2330885,,38.855103,0.1,219.8666,1596754917433
Fix,GT,37.426979,-122.2327626,,38.9248,0.1,219.70357,1596754918433
Fix,GT,37.4267432,-122.2324352,,39.208817,0.1,219.88577,1596754919433
Fix,GT,37.4265042,-122.2321071,,39.536053,0.1,220.46912,1596754920433
Fix,GT,37.4262597,-122.2317799,,39.904686,0.1,221.15512,1596754921433
Fix,GT,37.4260102,-122.231452,,40.332584,0.1,221.4491,1596754922433
Fix,GT,37.4257579,-122.2311215,,40.610115,0.1,221.33395,1596754923433
Fix,GT,37.4255051,-122.2307886,,40.731308,0.1,221.10762,1596754924433
Fix,GT,37.4252524,-122.2304536,,40.871895,0.1,220.90437,1596754925433
Fix,GT,37.425,-122.2301155,,41.02777,0.1,220.3105,1596754926433
Fix,GT,37.4247503,-122.2297726,,41.0928,0.1,219.49011,1596754927433
Fix,GT,37.4245042,-122.229425,,41.11727,0.1,218.85721,1596754928433
Fix,GT,37.4242601,-122.2290752,,41.108498,0.1,218.5425,1596754929433
Fix,GT,37.4240174,-122.228725,,40.997536,0.1,218.48117,1596754930433
Fix,GT,37.4237759,-122.2283758,,40.783493,0.1,218.41263,1596754931433
Fix,GT,37.4235362,-122.2280288,,40.39229,0.1,218.34914,1596754932433
Fix,GT,37.4232998,-122.2276867,,39.70658,0.1,218.49419,1596754933433
Fix,GT,37.423067,-122.227351,,39.101067,0.1,218.52715,1596754934433
Fix,GT,37.4228367,-122.2270183,,38.906925,0.1,218.35854,1596754935433
Fix,GT,37.4226074,-122.2266852,,38.944324,0.1,218.35277,1596754936433
Fix,GT,37.4223779,-122.2263524,,38.95295,0.1,218.45453,1596754937433
Fix,GT,37.4221479,-122.2260197,,38.992928,0.1,218.47864,1596754938433
Fix,GT,37.4219172,-122.2256867,,39.064167,0.1,218.6072,1596754939433
Fix,GT,37.4216856,-122.2253544,,39.07098,0.1,218.79529,1596754940433
Fix,GT,37.4214534,-122.2250225,,39.05832,0.1,218.77818,1596754941433
Fix,GT,37.421222,-122.2246907,,38.90159,0.1,218.63966,1596754942433
Fix,GT,37.4209926,-122.2243606,,38.60382,0.1,218.53851,1596754943433
Fix,GT,37.4207651,-122.2240316,,38.452408,0.1,218.35126,1596754944433
Fix,GT,37.4205405,-122.2237026,,38.074203,0.1,217.85445,1596754945433
Fix,GT,37.4203234,-122.2233742,,37.270058,0.1,216.32193,1596754946433
Fix,GT,37.4201199,-122.2230439,,36.475487,0.1,213.81189,1596754947433
Fix,GT,37.4199319,-122.222709,,35.857677,0.1,211.0837,1596754948433
Fix,GT,37.4197587,-122.222369,,35.346016,0.1,208.46864,1596754949433
Fix,GT,37.4196012,-122.2220243,,34.73472,0.1,205.93628,1596754950433
Fix,GT,37.4194605,-122.2216786,,33.66632,0.1,202.95628,1596754951433
Fix,GT,37.4193381,-122.2213375,,32.4288,0.1,200.291,1596754952433
Fix,GT,37.419232,-122.2209996,,31.785473,0.1,197.4714,1596754953433
Fix,GT,37.4191411,-122.2206585,,31.7275,0.1,194.3936,1596754954433
Fix,GT,37.4190638,-122.2203097,,32.320625,0.1,191.98686,1596754955433
Fix,GT,37.4189954,-122.2199475,,33.384674,0.1,190.04562,1596754956433
Fix,GT,37.4189336,-122.2195719,,34.260006,0.1,188.43578,1596754957433
Fix,GT,37.4188766,-122.2191879,,34.761127,0.1,187.87227,1596754958433
Fix,GT,37.4188195,-122.2187993,,35.230774,0.1,188.15797,1596754959433
Fix,GT,37.4187599,-122.2184057,,35.67313,0.1,188.29407,1596754960433
Fix,GT,37.4186997,-122.2180077,,35.915043,0.1,188.16328,1596754961433
Fix,GT,37.41864,-122.2176091,,35.76393,0.1,188.15805,1596754962433
Fix,GT,37.4185808,-122.2172134,,35.50392,0.1,188.16484,1596754963433
Fix,GT,37.418522,-122.2168198,,35.39013,0.1,188.13521,1596754964433
Fix,GT,37.4184631,-122.2164286,,35.0781,0.1,188.40152,1596754965433
Fix,GT,37.4184019,-122.2160433,,34.562473,0.1,189.5624,1596754966433
Fix,GT,37.418333,-122.2156659,,34.24515,0.1,191.7185,1596754967433
Fix,GT,37.4182518,-122.2152942,,34.36493,0.1,194.35062,1596754968433
Fix,GT,37.4181565,-122.214925,,34.679382,0.1,197.12871,1596754969433
Fix,GT,37.4180461,-122.2145594,,34.78225,0.1,200.02055,1596754970433
Fix,GT,37.4179218,-122.2141999,,34.832874,0.1,202.53328,1596754971433
Fix,GT,37.4177848,-122.2138471,,34.91418,0.1,205.06851,1596754972433
Fix,GT,37.4176342,-122.2135023,,35.05196,0.1,207.88133,1596754973433
Fix,GT,37.4174695,-122.2131654,,35.22354,0.1,210.65456,1596754974433
Fix,GT,37.4172911,-122.2128363,,35.451054,0.1,213.22885,1596754975433
Fix,GT,37.4171001,-122.2125154,,35.629513,0.1,215.66542,1596754976433
Fix,GT,37.4168978,-122.2122041,,35.73179,0.1,218.08838,1596754977433
Fix,GT,37.4166844,-122.2119034,,35.83317,0.1,220.7557,1596754978433
Fix,GT,37.4164594,-122.2116151,,35.897697,0.1,223.62085,1596754979433
Fix,GT,37.4162228,-122.2113401,,35.958714,0.1,226.23657,1596754980433
Fix,GT,37.4159768,-122.2110773,,35.97449,0.1,228.0868,1596754981433
Fix,GT,37.4157257,-122.2108211,,35.94318,0.1,228.54008,1596754982433
Fix,GT,37.4154743,-122.2105648,,35.94332,0.1,228.40404,1596754983433
Fix,GT,37.4152241,-122.2103079,,35.779877,0.1,228.15657,1596754984433
Fix,GT,37.414977,-122.2100511,,35.445354,0.1,227.71935,1596754985433
Fix,GT,37.4147338,-122.2097929,,35.225132,0.1,226.79137,1596754986433
Fix,GT,37.4144958,-122.2095287,,35.2116,0.1,224.78027,1596754987433
Fix,GT,37.4142655,-122.2092519,,35.387306,0.1,222.26312,1596754988433
Fix,GT,37.4140443,-122.2089607,,35.594448,0.1,219.5468,1596754989433
Fix,GT,37.413833,-122.2086546,,35.87143,0.1,216.61493,1596754990433
Fix,GT,37.4136323,-122.2083328,,36.255028,0.1,214.11115,1596754991433
Fix,GT,37.4134404,-122.2079974,,36.58543,0.1,211.7322,1596754992433
Fix,GT,37.413259,-122.2076488,,36.87336,0.1,208.87364,1596754993433
Fix,GT,37.4130917,-122.2072854,,37.159607,0.1,205.38441,1596754994433
Fix,GT,37.4129401,-122.2069086,,37.344532,0.1,202.7749,1596754995433
Fix,GT,37.4128,-122.2065237,,37.420555,0.1,200.93811,1596754996433
Fix,GT,37.4126692,-122.2061327,,37.530804,0.1,199.23839,1596754997433
Fix,GT,37.4125449,-122.2057376,,37.638184,0.1,198.98688,1596754998433
Fix,GT,37.4124198,-122.2053421,,37.778267,0.1,199.4671,1596754999433
Fix,GT,37.4122925,-122.2049445,,38.087685,0.1,199.3435,1596755000433
Fix,GT,37.4121647,-122.2045429,,38.41896,0.1,199.20653,1596755001433
Fix,GT,37.4120365,-122.2041383,,38.674076,0.1,199.27284,1596755002433
Fix,GT,37.4119071,-122.2037315,,38.89268,0.1,199.49506,1596755003433
Fix,GT,37.4117754,-122.2033235,,39.04933,0.1,199.7609,1596755004433
Fix,GT,37.4116424,-122.2029145,,39.16051,0.1,199.66293,1596755005433
Fix,GT,37.4115101,-122.2025038,,39.24311,0.1,199.433,1596755006433
Fix,GT,37.4113788,-122.2020919,,39.27159,0.1,199.38574,1596755007433
Fix,GT,37.4112476,-122.2016807,,39.154327,0.1,199.4147,1596755008433
Fix,GT,37.4111167,-122.2012716,,38.888573,0.1,199.47408,1596755009433
Fix,GT,37.4109866,-122.2008656,,38.593906,0.1,199.4418,1596755010433
Fix,GT,37.4108576,-122.200462,,38.37877,0.1,199.33109,1596755011433
Fix,GT,37.4107295,-122.2000599,,38.29628,0.1,199.2587,1596755012433
Fix,GT,37.4106022,-122.1996577,,38.304077,0.1,199.1402,1596755013433
Fix,GT,37.4104758,-122.1992553,,38.275547,0.1,199.01715,1596755014433
Fix,GT,37.4103494,-122.1988541,,38.12532,0.1,199.27435,1596755015433
Fix,GT,37.410222,-122.1984553,,37.97281,0.1,199.48145,1596755016433
Fix,GT,37.4100947,-122.1980576,,37.90674,0.1,199.21086,1596755017433
Fix,GT,37.4099688,-122.1976597,,37.882927,0.1,199.17136,1596755018433
Fix,GT,37.4098429,-122.1972623,,37.84026,0.1,199.2292,1596755019433
Fix,GT,37.4097168,-122.1968653,,37.81157,0.1,199.26161,1596755020433
Fix,GT,37.4095904,-122.1964688,,37.83075,0.1,199.42996,1596755021433
Fix,GT,37.4094634,-122.1960718,,37.890144,0.1,199.28908,1596755022433
Fix,GT,37.4093372,-122.1956736,,37.97049,0.1,199.22441,1596755023433
Fix,GT,37.4092107,-122.195275,,38.021744,0.1,199.48741,1596755024433
Fix,GT,37.409082,-122.1948762,,38.17779,0.1,199.65471,1596755025433
Fix,GT,37.4089523,-122.1944751,,38.45439,0.1,199.54826,1596755026433
Fix,GT,37.4088226,-122.1940709,,38.63861,0.1,199.3991,1596755027433
Fix,GT,37.4086931,-122.1936658,,38.633125,0.1,199.45209,1596755028433
Fix,GT,37.4085632,-122.1932623,,38.382782,0.1,199.68001,1596755029433
Fix,GT,37.408433,-122.1928632,,37.991955,0.1,200.10666,1596755030433
Fix,GT,37.4083003,-122.1924709,,37.593178,0.1,201.36858,1596755031433
Fix,GT,37.4081602,-122.192088,,37.19696,0.1,203.445,1596755032433
Fix,GT,37.4080098,-122.1917163,,36.88421,0.1,206.07462,1596755033433
Fix,GT,37.4078466,-122.1913562,,36.73972,0.1,208.63907,1596755034433
Fix,GT,37.4076716,-122.1910057,,36.709007,0.1,210.72246,1596755035433
Fix,GT,37.4074867,-122.1906631,,36.74108,0.1,212.77998,1596755036433
Fix,GT,37.4072922,-122.1903286,,36.787354,0.1,214.96367,1596755037433
Fix,GT,37.4070864,-122.1900043,,36.863647,0.1,217.54312,1596755038433
Fix,GT,37.4068683,-122.1896913,,37.01951,0.1,220.23268,1596755039433
Fix,GT,37.406638,-122.1893891,,37.236977,0.1,222.57486,1596755040433
Fix,GT,37.4063971,-122.189096,,37.45054,0.1,224.61024,1596755041433
Fix,GT,37.4061462,-122.1888137,,37.622498,0.1,227.09233,1596755042433
Fix,GT,37.4058848,-122.1885441,,37.711914,0.1,229.28928,1596755043433
Fix,GT,37.4056161,-122.1882842,,37.726746,0.1,230.47401,1596755044433
Fix,GT,37.4053448,-122.1880288,,37.59814,0.1,230.72388,1596755045433
Fix,GT,37.4050745,-122.1877755,,37.31221,0.1,230.81798,1596755046433
Fix,GT,37.4048058,-122.1875248,,37.066483,0.1,230.95795,1596755047433
Fix,GT,37.4045389,-122.187276,,36.739784,0.1,230.87018,1596755048433
Fix,GT,37.4042753,-122.18703,,36.181984,0.1,230.94467,1596755049433
Fix,GT,37.4040156,-122.1867883,,35.617844,0.1,231.0799,1596755050433
Fix,GT,37.4037596,-122.1865504,,35.128418,0.1,231.01869,1596755051433
Fix,GT,37.4035074,-122.1863145,,34.673798,0.1,230.5956,1596755052433
Fix,GT,37.4032603,-122.186079,,34.206474,0.1,230.03598,1596755053433
Fix,GT,37.4030178,-122.1858447,,33.728535,0.1,229.75563,1596755054433
Fix,GT,37.4027797,-122.1856114,,33.28894,0.1,229.15695,1596755055433
Fix,GT,37.4025463,-122.1853774,,33.005943,0.1,228.53844,1596755056433
Fix,GT,37.4023154,-122.1851426,,32.98862,0.1,228.46033,1596755057433
Fix,GT,37.402084,-122.1849078,,33.09774,0.1,228.58116,1596755058433
Fix,GT,37.4018515,-122.1846725,,33.20001,0.1,228.55807,1596755059433
Fix,GT,37.4016183,-122.1844363,,33.30397,0.1,228.49431,1596755060433
Fix,GT,37.4013849,-122.1841991,,33.375378,0.1,228.41402,1596755061433
Fix,GT,37.4011513,-122.1839611,,33.435814,0.1,228.43163,1596755062433
Fix,GT,37.4009171,-122.1837229,,33.535965,0.1,228.51982,1596755063433
Fix,GT,37.4006816,-122.1834837,,33.77567,0.1,228.42358,1596755064433
Fix,GT,37.4004445,-122.1832419,,34.06662,0.1,228.36493,1596755065433
Fix,GT,37.4002055,-122.1829983,,34.250614,0.1,228.4852,1596755066433
Fix,GT,37.3999659,-122.1827558,,34.086933,0.1,228.7919,1596755067433
Fix,GT,37.3997276,-122.1825174,,33.589348,0.1,229.04088,1596755068433
Fix,GT,37.3994919,-122.1822826,,33.2638,0.1,228.80698,1596755069433
Fix,GT,37.3992582,-122.1820467,,33.35016,0.1,228.35011,1596755070433
Fix,GT,37.3990247,-122.1818078,,33.495384,0.1,228.19339,1596755071433
Fix,GT,37.398791,-122.1815685,,33.468323,0.1,228.29015,1596755072433
Fix,GT,37.3985575,-122.1813306,,33.449455,0.1,228.49954,1596755073433
Fix,GT,37.398323,-122.1810926,,33.5661,0.1,228.49796,1596755074433
Fix,GT,37.3980877,-122.1808538,,33.586235,0.1,228.49493,1596755075433
Fix,GT,37.3978534,-122.1806162,,33.284534,0.1,228.5872,1596755076433
Fix,GT,37.3976208,-122.1803811,,33.141792,0.1,228.5132,1596755077433
Fix,GT,37.3973886,-122.1801448,,33.285797,0.1,228.31148,1596755078433
Fix,GT,37.397156,-122.1799066,,33.3748,0.1,228.25179,1596755079433
Fix,GT,37.3969228,-122.1796674,,33.507942,0.1,228.16171,1596755080433
Fix,GT,37.3966892,-122.1794268,,33.619743,0.1,228.15115,1596755081433
Fix,GT,37.3964549,-122.179186,,33.65233,0.1,228.39069,1596755082433
Fix,GT,37.3962197,-122.1789463,,33.646355,0.1,228.50194,1596755083433
Fix,GT,37.3959847,-122.1787072,,33.532303,0.1,228.48517,1596755084433
Fix,GT,37.3957506,-122.1784695,,33.34771,0.1,228.6238,1596755085433
Fix,GT,37.3955171,-122.178233,,33.334885,0.1,228.56734,1596755086433
Fix,GT,37.3952839,-122.1779956,,33.353584,0.1,228.4223,1596755087433
Fix,GT,37.3950513,-122.1777577,,33.322395,0.1,228.34972,1596755088433
Fix,GT,37.3948185,-122.1775186,,33.513706,0.1,228.13481,1596755089433
Fix,GT,37.3945848,-122.177275,,33.920155,0.1,227.3986,1596755090433
Fix,GT,37.3943515,-122.1770223,,34.3684,0.1,225.69527,1596755091433
Fix,GT,37.3941229,-122.1767561,,34.63758,0.1,223.1369,1596755092433
Fix,GT,37.3939034,-122.1764756,,34.705032,0.1,220.31381,1596755093433
Fix,GT,37.3936952,-122.1761818,,34.683094,0.1,217.53032,1596755094433
Fix,GT,37.3934982,-122.1758762,,34.678593,0.1,214.87233,1596755095433
Fix,GT,37.3933127,-122.1755596,,34.676308,0.1,212.17448,1596755096433
Fix,GT,37.3931393,-122.1752323,,34.682705,0.1,209.46652,1596755097433
Fix,GT,37.3929787,-122.1748951,,34.682476,0.1,206.77852,1596755098433
Fix,GT,37.3928304,-122.1745487,,34.724365,0.1,204.2418,1596755099433
Fix,GT,37.392694,-122.1741942,,34.766724,0.1,201.61714,1596755100433
Fix,GT,37.3925714,-122.173831,,34.89463,0.1,198.73323,1596755101433
Fix,GT,37.3924631,-122.1734575,,35.23772,0.1,195.80649,1596755102433
Fix,GT,37.3923681,-122.1730749,,35.445915,0.1,193.37878,1596755103433
Fix,GT,37.3922854,-122.1726874,,35.41422,0.1,191.19424,1596755104433
Fix,GT,37.3922156,-122.1722961,,35.35821,0.1,188.43196,1596755105433
Fix,GT,37.3921608,-122.1719018,,35.305145,0.1,185.81714,1596755106433
Fix,GT,37.3921189,-122.171506,,35.250973,0.1,183.87772,1596755107433
Fix,GT,37.3920868,-122.1711102,,35.123447,0.1,182.45958,1596755108433
Fix,GT,37.3920612,-122.1707164,,34.77186,0.1,181.8887,1596755109433
Fix,GT,37.3920373,-122.1703266,,34.415462,0.1,182.01091,1596755110433
Fix,GT,37.3920135,-122.1699399,,34.299072,0.1,181.93205,1596755111433
Fix,GT,37.39199,-122.169554,,34.266155,0.1,182.21524,1596755112433
Fix,GT,37.3919622,-122.1691686,,34.503162,0.1,183.79956,1596755113433
Fix,GT,37.3919224,-122.1687805,,35.15545,0.1,186.79395,1596755114433
Fix,GT,37.3918643,-122.168388,,35.89255,0.1,190.26506,1596755115433
Fix,GT,37.3917858,-122.1679938,,36.379093,0.1,193.84584,1596755116433
Fix,GT,37.3916872,-122.1676024,,36.58524,0.1,197.20341,1596755117433
Fix,GT,37.3915705,-122.1672178,,36.595234,0.1,200.28758,1596755118433
Fix,GT,37.3914374,-122.1668427,,36.461708,0.1,203.61906,1596755119433
Fix,GT,37.3912871,-122.1664794,,36.406567,0.1,207.1663,1596755120433
Fix,GT,37.3911191,-122.1661289,,36.35669,0.1,210.69067,1596755121433
Fix,GT,37.3909356,-122.1657922,,36.168816,0.1,213.55756,1596755122433
Fix,GT,37.3907418,-122.1654667,,35.889816,0.1,215.07892,1596755123433
Fix,GT,37.3905456,-122.1651478,,35.468662,0.1,215.29233,1596755124433
Fix,GT,37.3903516,-122.1648325,,35.035004,0.1,215.21428,1596755125433
Fix,GT,37.3901603,-122.1645193,,34.844257,0.1,214.82385,1596755126433
Fix,GT,37.3899734,-122.164202,,34.854393,0.1,212.7898,1596755127433
Fix,GT,37.3897975,-122.1638743,,34.902107,0.1,209.97118,1596755128433
Fix,GT,37.389634,-122.1635363,,34.918343,0.1,207.5143,1596755129433
Fix,GT,37.389482,-122.1631904,,34.80139,0.1,205.09924,1596755130433
Fix,GT,37.3893424,-122.1628381,,34.70887,0.1,202.61943,1596755131433
Fix,GT,37.3892154,-122.1624783,,34.802856,0.1,199.77676,1596755132433
Fix,GT,37.3891022,-122.1621092,,34.984848,0.1,196.97755,1596755133433
Fix,GT,37.3890022,-122.1617317,,35.25416,0.1,194.48866,1596755134433
Fix,GT,37.3889148,-122.1613467,,35.388443,0.1,192.02348,1596755135433
Fix,GT,37.3888407,-122.1609584,,35.08065,0.1,189.77986,1596755136433
Fix,GT,37.3887781,-122.1605712,,34.809155,0.1,188.1782,1596755137433
Fix,GT,37.3887217,-122.160184,,34.834118,0.1,187.5266,1596755138433
Fix,GT,37.3886673,-122.159797,,34.64537,0.1,187.39055,1596755139433
Fix,GT,37.388614,-122.159414,,34.241165,0.1,187.38686,1596755140433
Fix,GT,37.3885611,-122.1590338,,34.173832,0.1,187.52792,1596755141433
Fix,GT,37.3885069,-122.1586538,,34.194073,0.1,187.91179,1596755142433
Fix,GT,37.388451,-122.1582758,,33.899677,0.1,188.2517,1596755143433
Fix,GT,37.3883937,-122.1579022,,33.51593,0.1,188.7148,1596755144433
Fix,GT,37.3883322,-122.157534,,33.29425,0.1,190.28737,1596755145433
Fix,GT,37.3882606,-122.1571702,,33.38672,0.1,193.00114,1596755146433
Fix,GT,37.388174,-122.1568097,,33.620987,0.1,196.36859,1596755147433
Fix,GT,37.3880698,-122.1564548,,33.69417,0.1,199.84622,1596755148433
Fix,GT,37.3879492,-122.1561083,,33.602257,0.1,203.0693,1596755149433
Fix,GT,37.3878137,-122.15577,,33.780598,0.1,205.98842,1596755150433
Fix,GT,37.3876629,-122.155438,,34.211372,0.1,209.28024,1596755151433
Fix,GT,37.3874949,-122.1551142,,34.5247,0.1,212.67857,1596755152433
Fix,GT,37.3873111,-122.1548008,,34.65822,0.1,215.84074,1596755153433
Fix,GT,37.3871131,-122.1545003,,34.687202,0.1,219.25093,1596755154433
Fix,GT,37.386901,-122.1542157,,34.647297,0.1,222.7958,1596755155433
Fix,GT,37.386676,-122.1539481,,34.566647,0.1,226.20726,1596755156433
Fix,GT,37.3864392,-122.1536971,,34.565556,0.1,229.19397,1596755157433
Fix,GT,37.3861924,-122.1534615,,34.561516,0.1,231.73792,1596755158433
Fix,GT,37.385938,-122.1532412,,34.338814,0.1,234.51665,1596755159433
Fix,GT,37.3856772,-122.1530395,,34.097054,0.1,238.19931,1596755160433
Fix,GT,37.3854078,-122.1528618,,33.939404,0.1,242.07251,1596755161433
Fix,GT,37.3851303,-122.1527068,,33.907715,0.1,245.40134,1596755162433
Fix,GT,37.384846,-122.1525712,,33.904152,0.1,248.41092,1596755163433
Fix,GT,37.3845573,-122.1524547,,33.67732,0.1,251.29271,1596755164433
Fix,GT,37.3842671,-122.152357,,33.316673,0.1,253.99081,1596755165433
Fix,GT,37.3839762,-122.1522765,,33.09347,0.1,256.30045,1596755166433
Fix,GT,37.3836837,-122.1522079,,33.099854,0.1,257.51355,1596755167433
Fix,GT,37.3833898,-122.1521439,,33.090878,0.1,257.63452,1596755168433
Fix,GT,37.383097,-122.1520803,,32.82762,0.1,257.669,1596755169433
Fix,GT,37.3828068,-122.1520175,,32.561066,0.1,257.70712,1596755170433
Fix,GT,37.3825184,-122.1519553,,32.459694,0.1,257.64038,1596755171433
Fix,GT,37.3822299,-122.1518923,,32.585903,0.1,257.5153,1596755172433
Fix,GT,37.3819396,-122.1518282,,32.861595,0.1,257.4308,1596755173433
Fix,GT,37.3816468,-122.1517635,,33.132187,0.1,257.4852,1596755174433
Fix,GT,37.3813525,-122.1516986,,33.201492,0.1,257.54163,1596755175433
Fix,GT,37.381058,-122.1516327,,33.17272,0.1,257.1258,1596755176433
Fix,GT,37.3807636,-122.1515616,,33.33036,0.1,256.0767,1596755177433
Fix,GT,37.3804687,-122.1514813,,33.554314,0.1,254.4614,1596755178433
Fix,GT,37.3801734,-122.1513892,,33.81759,0.1,252.54372,1596755179433
Fix,GT,37.3798785,-122.1512833,,34.03181,0.1,250.16968,1596755180433
Fix,GT,37.3795862,-122.1511597,,34.161766,0.1,246.9939,1596755181433
Fix,GT,37.3792988,-122.151015,,34.351463,0.1,243.92578,1596755182433
Fix,GT,37.3790162,-122.1508521,,34.47431,0.1,241.44946,1596755183433
Fix,GT,37.3787392,-122.1506739,,34.442314,0.1,238.93127,1596755184433
Fix,GT,37.378469,-122.1504807,,34.37995,0.1,236.34935,1596755185433
Fix,GT,37.3782066,-122.1502736,,34.258553,0.1,233.88483,1596755186433
Fix,GT,37.3779526,-122.1500532,,34.11326,0.1,231.49402,1596755187433
Fix,GT,37.3777072,-122.1498207,,33.91755,0.1,228.97517,1596755188433
Fix,GT,37.377472,-122.1495778,,33.53685,0.1,226.8785,1596755189433
Fix,GT,37.3772457,-122.149329,,33.235485,0.1,225.67781,1596755190433
Fix,GT,37.3770234,-122.1490784,,33.151737,0.1,225.28699,1596755191433
Fix,GT,37.3768017,-122.1488271,,33.258972,0.1,225.32079,1596755192433
Fix,GT,37.3765782,-122.1485742,,33.59501,0.1,225.36015,1596755193433
Fix,GT,37.3763522,-122.1483181,,33.972466,0.1,225.26486,1596755194433
Fix,GT,37.3761251,-122.1480598,,34.0362,0.1,225.19092,1596755195433
Fix,GT,37.3758986,-122.1478019,,33.893257,0.1,225.19925,1596755196433
Fix,GT,37.3756732,-122.1475449,,33.779068,0.1,225.12604,1596755197433
Fix,GT,37.3754482,-122.1472877,,33.823036,0.1,225.05931,1596755198433
Fix,GT,37.3752232,-122.1470304,,33.76991,0.1,225.19368,1596755199433
Fix,GT,37.3749991,-122.1467761,,33.34948,0.1,225.47395,1596755200433
Fix,GT,37.3747773,-122.1465265,,32.857586,0.1,225.66417,1596755201433
Fix,GT,37.3745581,-122.1462806,,32.447975,0.1,225.7302,1596755202433
Fix,GT,37.3743409,-122.1460377,,32.268467,0.1,225.96234,1596755203433
Fix,GT,37.3741226,-122.1457982,,32.25311,0.1,226.76881,1596755204433
Fix,GT,37.3739012,-122.1455626,,32.32859,0.1,227.65059,1596755205433
Fix,GT,37.3736762,-122.1453308,,32.413506,0.1,228.73259,1596755206433
Fix,GT,37.3734474,-122.1451044,,32.38807,0.1,229.80972,1596755207433
Fix,GT,37.373216,-122.1448821,,32.38952,0.1,230.21225,1596755208433
Fix,GT,37.3729831,-122.1446621,,32.404736,0.1,230.86024,1596755209433
Fix,GT,37.3727482,-122.1444456,,32.38502,0.1,231.53024,1596755210433
Fix,GT,37.372512,-122.144232,,32.33581,0.1,231.87384,1596755211433
Fix,GT,37.3722754,-122.14402,,32.285007,0.1,231.932,1596755212433
Fix,GT,37.3720388,-122.1438077,,32.32829,0.1,231.78204,1596755213433
Fix,GT,37.3718025,-122.1435946,,32.27863,0.1,231.74838,1596755214433
