MessageType,Provider,LatitudeDegrees,LongitudeDegrees,AltitudeMeters,SpeedMps,AccuracyMeters,BearingDegrees,UnixTimeMillis
Fix,GT,37.6296225,-122.4224937,,0.010225749,0.1,64.074554,1594250775436
Fix,GT,37.6296226,-122.4224936,,0.00981985,0.1,64.0748,1594250776436
Fix,GT,37.6296227,-122.4224935,,0.00934406,0.1,64.07449,1594250777436
Fix,GT,37.6296227,-122.4224935,,0.011175294,0.1,64.074524,1594250778436
Fix,GT,37.6296227,-122.4224935,,0.010876546,0.1,64.0748,1594250779436
Fix,GT,37.6296227,-122.4224935,,0.010723247,0.1,64.07449,1594250780436
Fix,GT,37.6296227,-122.4224935,,0.011401754,0.1,64.074585,1594250781436
Fix,GT,37.6296227,-122.4224935,,0.011305146,0.1,64.07477,1594250782436
Fix,GT,37.6296227,-122.4224935,,0.011276948,0.1,64.07495,1594250783436
Fix,GT,37.6296227,-122.4224935,,0.011401754,0.1,64.07495,1594250784436
Fix,GT,37.6296227,-122.4224935,,0.011401754,0.1,64.07477,1594250785436
Fix,GT,37.6296227,-122.4224935,,0.010982253,0.1,64.07474,1594250786436
Fix,GT,37.6296227,-122.4224935,,0.010440307,0.1,64.074646,1594250787436
Fix,GT,37.6296227,-122.4224935,,0.0107632,0.1,64.074615,1594250788436
Fix,GT,37.6296227,-122.4224935,,0.01075174,0.1,64.074615,1594250789436
Fix,GT,37.6296227,-122.4224935,,0.010303746,0.1,64.074646,1594250790436
Fix,GT,37.6296227,-122.4224935,,0.0103346,0.1,64.074646,1594250791436
Fix,GT,37.6296227,-122.4224936,,0.010303746,0.1,64.074646,1594250792436
Fix,GT,37.6296227,-122.4224936,,0.009612907,0.1,64.07471,1594250793436
Fix,GT,37.6296227,-122.4224936,,0.008955381,0.1,64.07495,1594250794436
Fix,GT,37.6296227,-122.4224936,,0.008945522,0.1,64.07492,1594250795436
Fix,GT,37.6296227,-122.4224936,,0.008376145,0.1,64.07471,1594250796436
Fix,GT,37.6296227,-122.4224936,,0.008138996,0.1,64.07474,1594250797436
Fix,GT,37.6296227,-122.4224936,,0.0072197802,0.1,64.0748,1594250798436
Fix,GT,37.6296227,-122.4224936,,0.006575091,0.1,64.07468,1594250799436
Fix,GT,37.6296227,-122.4224936,,0.0061534727,0.1,64.07443,1594250800436
Fix,GT,37.6296227,-122.4224936,,0.0056364452,0.1,64.07428,1594250801436
Fix,GT,37.6296227,-122.4224937,,0.005260313,0.1,64.07437,1594250802436
Fix,GT,37.6296227,-122.4224937,,0.005528249,0.1,64.07443,1594250803436
Fix,GT,37.6296227,-122.4224937,,0.0063556563,0.1,64.07446,1594250804436
Fix,GT,37.6296226,-122.4224937,,0.007803958,0.1,64.074585,1594250805436
Fix,GT,37.6296226,-122.4224938,,0.010450868,0.1,64.07471,1594250806436
Fix,GT,37.6296226,-122.4224938,,0.013823064,0.1,64.075195,1594250807436
Fix,GT,37.6296225,-122.4224937,,0.017134415,0.1,64.07483,1594250808436
Fix,GT,37.6296224,-122.4224937,,0.019731408,0.1,64.073944,1594250809436
Fix,GT,37.6296223,-122.4224935,,0.028154003,0.1,64.078,1594250810436
Fix,GT,37.6296221,-122.4224933,,0.033470806,0.1,64.08371,1594250811436
Fix,GT,37.629622,-122.4224923,,0.33895084,0.1,64.088806,1594250812436
Fix,GT,37.6296245,-122.4224847,,1.3210359,0.1,64.51245,1594250813436
Fix,GT,37.6296309,-122.422464,,2.5960958,0.1,66.27106,1594250814436
Fix,GT,37.6296405,-122.4224299,,3.8006277,0.1,68.8703,1594250815436
Fix,GT,37.6296528,-122.4223824,,5.0284624,0.1,71.02649,1594250816436
Fix,GT,37.6296677,-122.4223224,,5.9734898,0.1,72.2135,1594250817436
Fix,GT,37.629684,-122.422256,,6.2155623,0.1,72.16037,1594250818436
Fix,GT,37.6296996,-122.4221893,,6.0269275,0.1,73.69446,1594250819436
Fix,GT,37.6297089,-122.4221241,,5.7292852,0.1,81.53436,1594250820436
Fix,GT,37.629703,-122.4220622,,5.504871,0.1,99.84799,1594250821436
Fix,GT,37.6296767,-122.4220121,,5.479246,0.1,126.35083,1594250822436
Fix,GT,37.6296352,-122.4219819,,5.4554696,0.1,152.78717,1594250823436
Fix,GT,37.6295882,-122.4219781,,5.356883,0.1,180.13428,1594250824436
Fix,GT,37.6295472,-122.4220033,,5.293718,0.1,210.07466,1594250825436
Fix,GT,37.6295181,-122.4220508,,5.7597466,0.1,234.2727,1594250826436
Fix,GT,37.6294937,-122.4221132,,6.5972996,0.1,244.95322,1594250827436
Fix,GT,37.6294669,-122.4221844,,7.2790375,0.1,245.2243,1594250828436
Fix,GT,37.6294366,-122.4222605,,7.682208,0.1,243.87158,1594250829436
Fix,GT,37.6294048,-122.4223391,,7.849114,0.1,243.51172,1594250830436
Fix,GT,37.6293732,-122.4224192,,7.9051495,0.1,244.05838,1594250831436
Fix,GT,37.6293419,-122.422499,,7.758767,0.1,244.02765,1594250832436
Fix,GT,37.6293119,-122.4225759,,7.278679,0.1,244.37967,1594250833436
Fix,GT,37.6292868,-122.4226471,,6.3607435,0.1,247.69424,1594250834436
Fix,GT,37.6292736,-122.4227105,,5.230027,0.1,258.87164,1594250835436
Fix,GT,37.6292791,-122.4227623,,4.3631296,0.1,282.02048,1594250836436
Fix,GT,37.6293023,-122.4227972,,4.1751842,0.1,309.83862,1594250837436
Fix,GT,37.6293341,-122.4228229,,4.355913,0.1,324.93497,1594250838436
Fix,GT,37.6293642,-122.4228548,,4.362929,0.1,318.00525,1594250839436
Fix,GT,37.6293819,-122.4228986,,4.3961215,0.1,296.00693,1594250840436
Fix,GT,37.6293834,-122.4229508,,4.9081955,0.1,272.26553,1594250841436
Fix,GT,37.6293721,-122.42301,,5.9197493,0.1,256.30554,1594250842436
Fix,GT,37.6293523,-122.4230788,,6.9599743,0.1,249.8417,1594250843436
Fix,GT,37.6293266,-122.4231561,,7.7864122,0.1,246.80688,1594250844436
Fix,GT,37.6292962,-122.4232397,,8.431764,0.1,245.16946,1594250845436
Fix,GT,37.6292624,-122.4233288,,8.979731,0.1,244.20358,1594250846436
Fix,GT,37.6292263,-122.4234217,,9.180433,0.1,243.82053,1594250847436
Fix,GT,37.6291906,-122.4235145,,8.963743,0.1,244.08209,1594250848436
Fix,GT,37.6291569,-122.4236039,,8.462557,0.1,244.37967,1594250849436
Fix,GT,37.629125,-122.4236875,,7.893335,0.1,243.73714,1594250850436
Fix,GT,37.6290927,-122.4237631,,7.238089,0.1,239.64194,1594250851436
Fix,GT,37.6290562,-122.4238257,,6.519677,0.1,229.67126,1594250852436
Fix,GT,37.6290116,-122.4238669,,5.90001,0.1,210.86288,1594250853436
Fix,GT,37.6289624,-122.4238776,,5.4211016,0.1,184.46118,1594250854436
Fix,GT,37.628918,-122.423857,,5.318736,0.1,156.0459,1594250855436
Fix,GT,37.6288873,-122.4238101,,5.552756,0.1,126.529755,1594250856436
Fix,GT,37.6288781,-122.4237466,,6.0564313,0.1,97.729645,1594250857436
Fix,GT,37.6288909,-122.423676,,6.8927174,0.1,75.65964,1594250858436
Fix,GT,37.6289185,-122.4236002,,7.853894,0.1,64.792175,1594250859436
Fix,GT,37.6289543,-122.4235187,,8.552272,0.1,61.171326,1594250860436
Fix,GT,37.6289935,-122.4234333,,8.837819,0.1,60.184357,1594250861436
Fix,GT,37.6290335,-122.423346,,8.999546,0.1,60.83075,1594250862436
Fix,GT,37.6290726,-122.423256,,9.121088,0.1,62.01654,1594250863436
Fix,GT,37.6291107,-122.423164,,9.187616,0.1,63.156677,1594250864436
Fix,GT,37.6291474,-122.4230711,,9.062264,0.1,64.15469,1594250865436
Fix,GT,37.629181,-122.422981,,8.303909,0.1,65.46536,1594250866436
Fix,GT,37.6292087,-122.4229018,,6.854914,0.1,66.28009,1594250867436
Fix,GT,37.6292339,-122.422842,,5.2384815,0.1,59.027588,1594250868436
Fix,GT,37.6292653,-122.4228083,,4.304373,0.1,36.65094,1594250869436
Fix,GT,37.6293037,-122.4228017,,4.436816,0.1,7.8428955,1594250870436
Fix,GT,37.6293439,-122.4228132,,4.656642,0.1,347.94693,1594250871436
Fix,GT,37.6293828,-122.4228271,,4.2534523,0.1,345.66702,1594250872436
Fix,GT,37.6294196,-122.4228263,,4.0888233,0.1,2.2231445,1594250873436
Fix,GT,37.6294527,-122.422802,,4.731419,0.1,29.449799,1594250874436
Fix,GT,37.6294816,-122.4227548,,6.0152636,0.1,52.242096,1594250875436
Fix,GT,37.6295097,-122.4226872,,7.4520845,0.1,62.59082,1594250876436
Fix,GT,37.6295402,-122.4226047,,8.536219,0.1,64.935394,1594250877436
Fix,GT,37.6295734,-122.4225138,,9.0640545,0.1,65.167725,1594250878436
Fix,GT,37.6296073,-122.4224196,,9.151052,0.1,65.38254,1594250879436
Fix,GT,37.6296402,-122.4223263,,8.84985,0.1,65.82086,1594250880436
Fix,GT,37.6296704,-122.422238,,8.093792,0.1,66.643005,1594250881436
Fix,GT,37.6296941,-122.4221578,,7.0056167,0.1,70.80109,1594250882436
Fix,GT,37.6297032,-122.4220874,,5.813128,0.1,84.819885,1594250883436
Fix,GT,37.6296904,-122.42203,,5.2093234,0.1,109.72403,1594250884436
Fix,GT,37.629658,-122.4219906,,5.262848,0.1,139.14194,1594250885436
Fix,GT,37.6296137,-122.421975,,5.366498,0.1,167.47314,1594250886436
Fix,GT,37.6295674,-122.4219876,,5.4804564,0.1,196.00327,1594250887436
Fix,GT,37.6295313,-122.422028,,5.7562046,0.1,225.47299,1594250888436
Fix,GT,37.629506,-122.4220872,,6.417552,0.1,243.51395,1594250889436
Fix,GT,37.6294812,-122.422158,,7.224951,0.1,246.52895,1594250890436
Fix,GT,37.6294526,-122.4222358,,7.835534,0.1,245.62325,1594250891436
Fix,GT,37.6294214,-122.4223177,,8.150258,0.1,244.53967,1594250892436
Fix,GT,37.6293885,-122.4224008,,8.193466,0.1,243.46335,1594250893436
Fix,GT,37.6293547,-122.4224823,,7.9966145,0.1,242.41805,1594250894436
Fix,GT,37.6293214,-122.42256,,7.5637946,0.1,241.61952,1594250895436
Fix,GT,37.6292915,-122.4226328,,6.8276873,0.1,243.66664,1594250896436
Fix,GT,37.6292733,-122.4226997,,5.7221785,0.1,254.97021,1594250897436
Fix,GT,37.6292756,-122.422756,,4.6384077,0.1,277.47095,1594250898436
Fix,GT,37.629296,-122.422797,,4.1677966,0.1,303.02313,1594250899436
Fix,GT,37.6293263,-122.4228238,,4.231812,0.1,324.83533,1594250900436
Fix,GT,37.6293636,-122.4228375,,4.570152,0.1,344.21033,1594250901436
Fix,GT,37.6294059,-122.4228342,,5.021326,0.1,5.2842712,1594250902436
Fix,GT,37.6294479,-122.4228097,,5.513519,0.1,27.119263,1594250903436
Fix,GT,37.6294862,-122.4227667,,5.9849234,0.1,43.74405,1594250904436
Fix,GT,37.6295204,-122.4227122,,6.2536983,0.1,53.559143,1594250905436
Fix,GT,37.6295508,-122.4226523,,6.2662,0.1,58.83722,1594250906436
Fix,GT,37.6295781,-122.4225917,,5.961604,0.1,61.635742,1594250907436
Fix,GT,37.629602,-122.4225355,,5.2157583,0.1,62.861115,1594250908436
Fix,GT,37.6296211,-122.4224892,,3.9119635,0.1,63.53604,1594250909436
Fix,GT,37.6296341,-122.4224576,,2.3726807,0.1,63.81659,1594250910436
Fix,GT,37.6296411,-122.4224409,,1.0337245,0.1,63.97699,1594250911436
Fix,GT,37.6296437,-122.4224354,,0.22879004,0.1,64.010956,1594250912436
Fix,GT,37.6296444,-122.4224349,,0.04046455,0.1,64.01959,1594250913436
Fix,GT,37.6296448,-122.422435,,0.034419548,0.1,64.01932,1594250914436
Fix,GT,37.629645,-122.422435,,0.028469412,0.1,64.02054,1594250915436
Fix,GT,37.6296451,-122.422435,,0.023520548,0.1,64.020966,1594250916436
Fix,GT,37.6296451,-122.422435,,0.020095438,0.1,64.021454,1594250917436
Fix,GT,37.6296451,-122.422435,,0.016746651,0.1,64.02161,1594250918436
Fix,GT,37.6296453,-122.422435,,0.013314293,0.1,64.02167,1594250919436
Fix,GT,37.6296455,-122.422435,,0.00992061,0.1,64.02167,1594250920436
Fix,GT,37.6296456,-122.4224349,,0.0068370155,0.1,64.02167,1594250921436
Fix,GT,37.6296457,-122.4224349,,0.005468389,0.1,64.02161,1594250922436
Fix,GT,37.6296457,-122.4224349,,0.004052494,0.1,64.02167,1594250923436
Fix,GT,37.6296457,-122.4224349,,0.0025699674,0.1,64.02161,1594250924436
Fix,GT,37.6296457,-122.4224349,,0.002236068,0.1,64.02167,1594250925436
Fix,GT,37.6296457,-122.4224349,,0.0021330663,0.1,64.02185,1594250926436
Fix,GT,37.6296457,-122.4224349,,0.0015636777,0.1,64.02185,1594250927436
Fix,GT,37.6296457,-122.4224349,,0.00056367763,0.1,64.02185,1594250928436
Fix,GT,37.6296457,-122.4224349,,0.0,0.1,64.02191,1594250929436
Fix,GT,37.6296457,-122.4224349,,0.0004363224,0.1,64.022,1594250930436
Fix,GT,37.6296457,-122.4224349,,0.00056367763,0.1,64.022095,1594250931436
Fix,GT,37.6296457,-122.4224349,,0.0004363224,0.1,64.022064,1594250932436
Fix,GT,37.6296457,-122.4224349,,0.00056367763,0.1,64.02197,1594250933436
Fix,GT,37.6296457,-122.4224349,,0.0,0.1,64.02203,1594250934436
Fix,GT,37.6296457,-122.4224349,,0.0,0.1,64.02225,1594250935436
Fix,GT,37.6296457,-122.4224349,,0.0,0.1,64.02222,1594250936436
Fix,GT,37.6296457,-122.4224349,,0.0004363224,0.1,64.02234,1594250937436
Fix,GT,37.6296457,-122.4224349,,0.001,0.1,64.02237,1594250938436
Fix,GT,37.6296457,-122.4224349,,0.001,0.1,64.0224,1594250939436
Fix,GT,37.6296457,-122.4224349,,0.0011807308,0.1,64.02249,1594250940436
Fix,GT,37.6296457,-122.4224349,,0.001233483,0.1,64.022675,1594250941436
Fix,GT,37.6296457,-122.4224349,,0.001,0.1,64.02295,1594250942436
Fix,GT,37.6296457,-122.4224349,,0.001,0.1,64.02307,1594250943436
Fix,GT,37.6296457,-122.4224349,,0.0011807308,0.1,64.0231,1594250944436
Fix,GT,37.6296457,-122.4224349,,0.0007971605,0.1,64.0231,1594250945436
Fix,GT,37.6296457,-122.4224349,,0.0,0.1,64.02307,1594250946436
Fix,GT,37.6296457,-122.4224349,,0.0004363224,0.1,64.02316,1594250947436
Fix,GT,37.6296457,-122.4224349,,0.001,0.1,64.023224,1594250948436
Fix,GT,37.6296457,-122.4224349,,0.0005636776,0.1,64.023254,1594250949436
Fix,GT,37.6296457,-122.4224349,,0.00043632244,0.1,64.023224,1594250950436
Fix,GT,37.6296457,-122.4224349,,0.001,0.1,64.0231,1594250951436
Fix,GT,37.6296457,-122.4224349,,0.001,0.1,64.02304,1594250952436
Fix,GT,37.6296457,-122.4224349,,0.0005636776,0.1,64.02316,1594250953436
Fix,GT,37.6296457,-122.4224349,,0.00043632244,0.1,64.023224,1594250954436
Fix,GT,37.6296457,-122.4224349,,0.0011807306,0.1,64.02319,1594250955436
Fix,GT,37.6296457,-122.4224349,,0.0014142136,0.1,64.02319,1594250956436
Fix,GT,37.6296457,-122.4224349,,0.0014142136,0.1,64.023315,1594250957436
Fix,GT,37.6296457,-122.4224349,,0.0012334828,0.1,64.02344,1594250958436
Fix,GT,37.6296457,-122.4224349,,0.0005636776,0.1,64.02341,1594250959436
Fix,GT,37.6296457,-122.4224349,,0.0,0.1,64.02341,1594250960436
Fix,GT,37.6296457,-122.4224349,,0.00043632244,0.1,64.0235,1594250961436
Fix,GT,37.6296457,-122.4224349,,0.0011807306,0.1,64.02356,1594250962436
Fix,GT,37.6296457,-122.4224349,,0.00079716044,0.1,64.0235,1594250963436
Fix,GT,37.6296457,-122.4224349,,0.0,0.1,64.02338,1594250964436
Fix,GT,37.6296457,-122.4224349,,0.0,0.1,64.02338,1594250965436
Fix,GT,37.6296457,-122.4224349,,0.0,0.1,64.02338,1594250966436
Fix,GT,37.6296457,-122.4224349,,0.0,0.1,64.02338,1594250967436
Fix,GT,37.6296457,-122.4224349,,0.00061705307,0.1,64.02338,1594250968436
Fix,GT,37.6296457,-122.4224349,,0.0007971605,0.1,64.0235,1594250969436
Fix,GT,37.6296457,-122.4224349,,0.0,0.1,64.02356,1594250970436
Fix,GT,37.6296457,-122.4224349,,0.0,0.1,64.02359,1594250971436
Fix,GT,37.6296457,-122.4224349,,0.0004363224,0.1,64.02362,1594250972436
Fix,GT,37.6296457,-122.4224349,,0.00056367763,0.1,64.02362,1594250973436
Fix,GT,37.6296457,-122.4224349,,0.0,0.1,64.02359,1594250974436
Fix,GT,37.6296457,-122.4224349,,0.0,0.1,64.02353,1594250975436
Fix,GT,37.6296457,-122.4224349,,0.00061705307,0.1,64.02353,1594250976436
Fix,GT,37.6296457,-122.4224349,,0.0014142136,0.1,64.02362,1594250977436
Fix,GT,37.6296457,-122.4224349,,0.0012334828,0.1,64.02368,1594250978436
Fix,GT,37.6296457,-122.4224349,,0.001,0.1,64.02371,1594250979436
Fix,GT,37.6296457,-122.4224349,,0.00056367763,0.1,64.02362,1594250980436
Fix,GT,37.6296457,-122.4224349,,0.0,0.1,64.02359,1594250981436
Fix,GT,37.6296457,-122.4224349,,0.00043632244,0.1,64.02362,1594250982436
Fix,GT,37.6296457,-122.4224349,,0.001,0.1,64.02374,1594250983436
Fix,GT,37.6296457,-122.4224349,,0.001,0.1,64.02374,1594250984436
Fix,GT,37.6296457,-122.4224349,,0.001,0.1,64.023705,1594250985436
Fix,GT,37.6296457,-122.4224349,,0.0015393242,0.1,64.0238,1594250986436
Fix,GT,37.6296457,-122.4224349,,0.0028336043,0.1,64.02396,1594250987436
Fix,GT,37.6296457,-122.4224349,,0.0039836615,0.1,64.02402,1594250988436
Fix,GT,37.6296457,-122.4224349,,0.004472136,0.1,64.02405,1594250989436
Fix,GT,37.6296457,-122.4224349,,0.0048705107,0.1,64.02417,1594250990436
Fix,GT,37.6296457,-122.4224349,,0.0053851646,0.1,64.02423,1594250991436
Fix,GT,37.6296457,-122.4224349,,0.005579672,0.1,64.02417,1594250992436
Fix,GT,37.6296457,-122.4224349,,0.005636445,0.1,64.02426,1594250993436
Fix,GT,37.6296457,-122.4224349,,0.0053851646,0.1,64.02435,1594250994436
Fix,GT,37.6296457,-122.4224349,,0.0046086796,0.1,64.02435,1594250995436
Fix,GT,37.6296457,-122.4224349,,0.0036055513,0.1,64.02429,1594250996436
Fix,GT,37.6296457,-122.4224349,,0.0038835276,0.1,64.02429,1594250997436
Fix,GT,37.6296457,-122.4224349,,0.003625587,0.1,64.02435,1594250998436
Fix,GT,37.6296457,-122.4224349,,0.002211374,0.1,64.024414,1594250999436
Fix,GT,37.6296457,-122.4224349,,0.00079716044,0.1,64.024414,1594251000436
Fix,GT,37.6296457,-122.4224349,,0.0008726449,0.1,64.024475,1594251001436
Fix,GT,37.6296457,-122.4224349,,0.0024363224,0.1,64.024475,1594251002436
Fix,GT,37.6296456,-122.4224349,,0.003,0.1,64.024475,1594251003436
Fix,GT,37.6296456,-122.4224349,,0.0030708052,0.1,64.024536,1594251004436
Fix,GT,37.6296456,-122.4224349,,0.0031622776,0.1,64.02463,1594251005436
Fix,GT,37.6296455,-122.4224349,,0.003355688,0.1,64.02466,1594251006436
Fix,GT,37.6296455,-122.4224349,,0.003008015,0.1,64.024506,1594251007436
Fix,GT,37.6296455,-122.4224349,,0.0012604214,0.1,64.024475,1594251008436
Fix,GT,37.6296455,-122.4224349,,0.0008726449,0.1,64.02463,1594251009436
Fix,GT,37.6296455,-122.4224349,,0.0033521717,0.1,64.024506,1594251010436
Fix,GT,37.6296455,-122.4224349,,0.0046732062,0.1,64.024445,1594251011436
Fix,GT,37.6296455,-122.4224349,,0.0050836476,0.1,64.02457,1594251012436
Fix,GT,37.6296455,-122.4224349,,0.005914678,0.1,64.0246,1594251013436
Fix,GT,37.6296455,-122.4224349,,0.005795042,0.1,64.024506,1594251014436
Fix,GT,37.6296455,-122.4224349,,0.0063245553,0.1,64.02457,1594251015436
Fix,GT,37.6296455,-122.4224349,,0.0057898266,0.1,64.0246,1594251016436
Fix,GT,37.6296455,-122.4224349,,0.005099019,0.1,64.02469,1594251017436
Fix,GT,37.6296455,-122.4224349,,0.005099019,0.1,64.02487,1594251018436
Fix,GT,37.6296455,-122.4224349,,0.005099019,0.1,64.02493,1594251019436
Fix,GT,37.6296455,-122.4224349,,0.0046194927,0.1,64.025055,1594251020436
Fix,GT,37.6296455,-122.4224349,,0.004,0.1,64.02515,1594251021436
Fix,GT,37.6296455,-122.4224349,,0.0035636774,0.1,64.025116,1594251022436
Fix,GT,37.6296455,-122.4224349,,0.003,0.1,64.025085,1594251023436
Fix,GT,37.6296455,-122.4224349,,0.003,0.1,64.025085,1594251024436
Fix,GT,37.6296455,-122.4224349,,0.0034900361,0.1,64.025055,1594251025436
Fix,GT,37.6296455,-122.4224349,,0.0042753955,0.1,64.02551,1594251026436
Fix,GT,37.6296455,-122.4224349,,0.0042661326,0.1,64.02545,1594251027436
Fix,GT,37.6296456,-122.4224349,,0.0057724537,0.1,64.02484,1594251028436
Fix,GT,37.6296456,-122.4224349,,0.0076297787,0.1,64.02527,1594251029436
Fix,GT,37.6296456,-122.4224349,,0.0070710676,0.1,64.02545,1594251030436
Fix,GT,37.6296456,-122.4224349,,0.0070710676,0.1,64.02521,1594251031436
Fix,GT,37.6296456,-122.4224349,,0.0066398475,0.1,64.025055,1594251032436
Fix,GT,37.6296456,-122.4224349,,0.006082762,0.1,64.024994,1594251033436
Fix,GT,37.6296456,-122.4224349,,0.005653533,0.1,64.025085,1594251034436
Fix,GT,37.6296456,-122.4224349,,0.005223871,0.1,64.02536,1594251035436
Fix,GT,37.6296457,-122.4224349,,0.006120762,0.1,64.02545,1594251036436
Fix,GT,37.6296458,-122.4224349,,0.0070710676,0.1,64.02557,1594251037436
Fix,GT,37.6296458,-122.4224349,,0.008541143,0.1,64.025635,1594251038436
Fix,GT,37.6296458,-122.4224347,,0.016661335,0.1,64.03076,1594251039436
Fix,GT,37.6296459,-122.4224345,,0.022257736,0.1,64.03821,1594251040436
Fix,GT,37.6296468,-122.422432,,0.46544653,0.1,64.27951,1594251041436
Fix,GT,37.6296497,-122.4224226,,1.3180343,0.1,65.61325,1594251042436
Fix,GT,37.6296548,-122.4224054,,1.8498905,0.1,67.63599,1594251043436
Fix,GT,37.629661,-122.4223838,,2.197608,0.1,69.22214,1594251044436
Fix,GT,37.6296679,-122.4223566,,2.8728497,0.1,71.0715,1594251045436
Fix,GT,37.6296763,-122.422319,,4.0179644,0.1,73.44452,1594251046436
Fix,GT,37.6296865,-122.4222693,,5.006927,0.1,75.026245,1594251047436
Fix,GT,37.6296985,-122.4222103,,5.6203775,0.1,75.318726,1594251048436
Fix,GT,37.6297089,-122.4221469,,5.704032,0.1,79.18335,1594251049436
Fix,GT,37.6297097,-122.4220841,,5.4136896,0.1,92.032074,1594251050436
Fix,GT,37.6296937,-122.4220296,,5.103021,0.1,113.631134,1594251051436
Fix,GT,37.6296626,-122.4219914,,4.8399568,0.1,138.18329,1594251052436
Fix,GT,37.6296248,-122.4219678,,4.685314,0.1,154.4201,1594251053436
Fix,GT,37.6295841,-122.4219467,,5.1368656,0.1,157.80884,1594251054436
Fix,GT,37.6295383,-122.4219194,,6.123534,0.1,155.10303,1594251055436
Fix,GT,37.6294855,-122.4218831,,7.122201,0.1,151.28876,1594251056436
Fix,GT,37.6294278,-122.4218392,,7.7699175,0.1,148.78925,1594251057436
Fix,GT,37.6293673,-122.4217929,,7.9524374,0.1,149.43808,1594251058436
Fix,GT,37.6293069,-122.4217509,,7.3656034,0.1,152.41895,1594251059436
Fix,GT,37.6292513,-122.4217167,,6.3890667,0.1,154.5578,1594251060436
Fix,GT,37.629204,-122.4216875,,5.37441,0.1,153.72913,1594251061436
Fix,GT,37.6291666,-122.4216609,,4.1854715,0.1,149.8747,1594251062436
Fix,GT,37.6291403,-122.4216381,,2.8895507,0.1,145.54565,1594251063436
Fix,GT,37.6291248,-122.421623,,1.3804523,0.1,143.20856,1594251064436
Fix,GT,37.6291189,-122.4216172,,0.34717324,0.1,142.51031,1594251065436
Fix,GT,37.6291178,-122.4216161,,0.077595994,0.1,142.34802,1594251066436
Fix,GT,37.629117,-122.4216157,,0.16671827,0.1,142.22696,1594251067436
Fix,GT,37.6291156,-122.4216144,,0.21852009,0.1,141.9972,1594251068436
Fix,GT,37.6291141,-122.4216132,,0.16860646,0.1,141.7644,1594251069436
Fix,GT,37.6291129,-122.4216122,,0.26573786,0.1,141.54227,1594251070436
Fix,GT,37.6291094,-122.4216085,,0.87524647,0.1,140.29999,1594251071436
Fix,GT,37.6291006,-122.4215959,,2.0232863,0.1,135.50488,1594251072436
Fix,GT,37.6290881,-122.4215709,,3.1245422,0.1,125.363495,1594251073436
Fix,GT,37.6290778,-122.4215327,,4.019758,0.1,110.40631,1594251074436
Fix,GT,37.629076,-122.4214806,,5.247397,0.1,92.786255,1594251075436
Fix,GT,37.6290873,-122.421414,,6.821699,0.1,77.07391,1594251076436
Fix,GT,37.6291119,-122.4213345,,8.245344,0.1,68.076294,1594251077436
Fix,GT,37.6291458,-122.4212438,,9.399798,0.1,64.825836,1594251078436
Fix,GT,37.6291854,-122.4211434,,10.333374,0.1,63.690582,1594251079436
Fix,GT,37.6292292,-122.421035,,11.059236,0.1,63.210815,1594251080436
Fix,GT,37.6292758,-122.4209214,,11.408726,0.1,62.789978,1594251081436
Fix,GT,37.6293235,-122.420807,,11.376949,0.1,62.595245,1594251082436
Fix,GT,37.6293706,-122.4206937,,11.160433,0.1,62.681213,1594251083436
Fix,GT,37.6294158,-122.4205839,,10.56646,0.1,62.93579,1594251084436
Fix,GT,37.6294569,-122.4204821,,9.53863,0.1,63.45578,1594251085436
Fix,GT,37.6294924,-122.4203919,,8.163015,0.1,63.73633,1594251086436
Fix,GT,37.6295224,-122.4203173,,6.553772,0.1,63.08441,1594251087436
Fix,GT,37.6295462,-122.4202603,,4.8005433,0.1,62.401154,1594251088436
Fix,GT,37.6295624,-122.4202215,,3.0204237,0.1,62.293457,1594251089436
Fix,GT,37.6295722,-122.4201983,,1.709048,0.1,62.327087,1594251090436
Fix,GT,37.6295775,-122.4201858,,0.8080301,0.1,62.334198,1594251091436
Fix,GT,37.6295794,-122.4201813,,0.21001431,0.1,62.322845,1594251092436
Fix,GT,37.6295796,-122.4201808,,0.0034900364,0.1,62.322388,1594251093436
Fix,GT,37.6295796,-122.4201808,,0.0035582082,0.1,62.322205,1594251094436
Fix,GT,37.6295797,-122.4201806,,0.12415435,0.1,62.324036,1594251095436
Fix,GT,37.6295819,-122.4201758,,1.097275,0.1,62.203247,1594251096436
Fix,GT,37.6295906,-122.4201552,,3.1307206,0.1,62.048218,1594251097436
Fix,GT,37.6296085,-122.4201127,,5.376828,0.1,62.22986,1594251098436
Fix,GT,37.6296351,-122.4200478,,7.564908,0.1,62.966614,1594251099436
Fix,GT,37.629669,-122.4199622,,9.221467,0.1,63.783813,1594251100436
Fix,GT,37.6297078,-122.4198629,,10.308158,0.1,63.919098,1594251101436
Fix,GT,37.6297515,-122.4197529,,11.37472,0.1,63.480164,1594251102436
Fix,GT,37.6298006,-122.4196337,,12.327215,0.1,62.232513,1594251103436
Fix,GT,37.6298572,-122.4195081,,13.098398,0.1,59.344147,1594251104436
Fix,GT,37.6299239,-122.4193817,,13.66624,0.1,54.822815,1594251105436
Fix,GT,37.6300002,-122.4192581,,13.944734,0.1,50.94522,1594251106436
Fix,GT,37.6300824,-122.4191385,,13.915918,0.1,48.386566,1594251107436
Fix,GT,37.6301673,-122.4190238,,13.722213,0.1,46.50183,1594251108436
Fix,GT,37.6302523,-122.4189141,,13.265967,0.1,45.71524,1594251109436
Fix,GT,37.6303339,-122.4188092,,12.626369,0.1,45.805786,1594251110436
Fix,GT,37.6304105,-122.4187085,,12.004347,0.1,46.86911,1594251111436
Fix,GT,37.6304809,-122.4186104,,11.315578,0.1,49.085876,1594251112436
Fix,GT,37.6305426,-122.4185148,,10.391111,0.1,52.499023,1594251113436
Fix,GT,37.630593,-122.4184245,,9.012597,0.1,56.39557,1594251114436
Fix,GT,37.6306315,-122.4183458,,7.294552,0.1,59.254425,1594251115436
Fix,GT,37.63066,-122.4182829,,5.488984,0.1,60.885193,1594251116436
Fix,GT,37.6306796,-122.4182369,,3.7932105,0.1,61.979156,1594251117436
Fix,GT,37.630693,-122.4182045,,2.784059,0.1,62.575806,1594251118436
Fix,GT,37.6307033,-122.418179,,2.3198872,0.1,63.069763,1594251119436
Fix,GT,37.6307116,-122.4181582,,1.7123466,0.1,63.345245,1594251120436
Fix,GT,37.6307172,-122.4181447,,0.9917859,0.1,63.47513,1594251121436
Fix,GT,37.6307203,-122.4181369,,0.61392117,0.1,63.576355,1594251122436
Fix,GT,37.6307229,-122.4181309,,0.56611747,0.1,63.659943,1594251123436
Fix,GT,37.6307252,-122.4181255,,0.46821624,0.1,63.654785,1594251124436
Fix,GT,37.6307271,-122.4181213,,0.3791744,0.1,63.55493,1594251125436
Fix,GT,37.6307284,-122.418118,,0.26193154,0.1,63.46457,1594251126436
Fix,GT,37.6307292,-122.4181163,,0.08208299,0.1,63.411743,1594251127436
Fix,GT,37.6307293,-122.4181161,,0.0042175855,0.1,63.40869,1594251128436
Fix,GT,37.6307294,-122.418116,,0.002788495,0.1,63.407593,1594251129436
Fix,GT,37.6307295,-122.418116,,0.004825496,0.1,63.406708,1594251130436
Fix,GT,37.6307295,-122.4181159,,0.004319846,0.1,63.4068,1594251131436
Fix,GT,37.6307295,-122.4181159,,0.0041231057,0.1,63.406647,1594251132436
Fix,GT,37.6307295,-122.4181159,,0.0040693916,0.1,63.406372,1594251133436
Fix,GT,37.6307295,-122.4181159,,0.0035636777,0.1,63.406494,1594251134436
Fix,GT,37.6307295,-122.4181159,,0.002127355,0.1,63.40677,1594251135436
Fix,GT,37.6307295,-122.4181159,,0.001,0.1,63.40689,1594251136436
Fix,GT,37.6307295,-122.4181159,,0.00056367746,0.1,63.406616,1594251137436
Fix,GT,37.6307295,-122.4181159,,0.0,0.1,63.406647,1594251138436
Fix,GT,37.6307295,-122.4181159,,0.00061705336,0.1,63.406616,1594251139436
Fix,GT,37.6307295,-122.4181159,,0.0016698055,0.1,63.406677,1594251140436
Fix,GT,37.6307295,-122.4181159,,0.0015636776,0.1,63.407104,1594251141436
Fix,GT,37.6307295,-122.4181159,,0.0019434507,0.1,63.407166,1594251142436
Fix,GT,37.6307295,-122.4181159,,0.0031622779,0.1,63.406677,1594251143436
Fix,GT,37.6307295,-122.4181159,,0.0030914722,0.1,63.406555,1594251144436
Fix,GT,37.6307295,-122.4181159,,0.0030708057,0.1,63.406525,1594251145436
Fix,GT,37.6307295,-122.4181159,,0.003355688,0.1,63.40634,1594251146436
Fix,GT,37.6307295,-122.4181159,,0.0033413358,0.1,63.406372,1594251147436
Fix,GT,37.6307295,-122.4181159,,0.0034900364,0.1,63.406708,1594251148436
Fix,GT,37.6307295,-122.4181159,,0.0041231057,0.1,63.40692,1594251149436
Fix,GT,37.6307295,-122.4181159,,0.0041231057,0.1,63.40674,1594251150436
Fix,GT,37.6307295,-122.4181159,,0.0036330693,0.1,63.406616,1594251151436
Fix,GT,37.6307295,-122.4181159,,0.0026666792,0.1,63.406494,1594251152436
Fix,GT,37.6307295,-122.4181159,,0.0021330663,0.1,63.406525,1594251153436
Fix,GT,37.6307295,-122.4181159,,0.0015636776,0.1,63.406677,1594251154436
Fix,GT,37.6307295,-122.4181159,,0.001,0.1,63.406433,1594251155436
Fix,GT,37.6307295,-122.4181159,,0.0011807308,0.1,63.40631,1594251156436
Fix,GT,37.6307295,-122.4181159,,0.00079716026,0.1,63.406372,1594251157436
Fix,GT,37.6307295,-122.4181159,,0.00043632262,0.1,63.406494,1594251158436
Fix,GT,37.6307295,-122.4181159,,0.0014363227,0.1,63.406555,1594251159436
Fix,GT,37.6307295,-122.4181159,,0.002,0.1,63.406464,1594251160436
Fix,GT,37.6307295,-122.4181159,,0.0025071283,0.1,63.406433,1594251161436
Fix,GT,37.6307295,-122.4181159,,0.0030914722,0.1,63.406494,1594251162436
Fix,GT,37.6307295,-122.4181159,,0.003,0.1,63.406586,1594251163436
Fix,GT,37.6307294,-122.4181159,,0.003,0.1,63.406616,1594251164436
Fix,GT,37.6307293,-122.418116,,0.0034900364,0.1,63.406586,1594251165436
Fix,GT,37.6307293,-122.418116,,0.0041231057,0.1,63.406616,1594251166436
Fix,GT,37.6307293,-122.418116,,0.0041231057,0.1,63.406525,1594251167436
Fix,GT,37.6307293,-122.418116,,0.0041231057,0.1,63.406403,1594251168436
Fix,GT,37.6307293,-122.418116,,0.0041231057,0.1,63.406372,1594251169436
Fix,GT,37.6307293,-122.418116,,0.0037038748,0.1,63.406464,1594251170436
Fix,GT,37.6307293,-122.418116,,0.003527795,0.1,63.406586,1594251171436
Fix,GT,37.6307293,-122.418116,,0.004,0.1,63.406433,1594251172436
Fix,GT,37.6307293,-122.418116,,0.0040537138,0.1,63.40628,1594251173436
Fix,GT,37.6307293,-122.418116,,0.004069392,0.1,63.40628,1594251174436
Fix,GT,37.6307293,-122.418116,,0.004,0.1,63.406433,1594251175436
Fix,GT,37.6307293,-122.418116,,0.004,0.1,63.406433,1594251176436
Fix,GT,37.6307293,-122.418116,,0.004,0.1,63.406403,1594251177436
Fix,GT,37.6307293,-122.418116,,0.0035636777,0.1,63.406403,1594251178436
Fix,GT,37.6307293,-122.418116,,0.0034900364,0.1,63.406464,1594251179436
Fix,GT,37.6307293,-122.418116,,0.0040693916,0.1,63.40634,1594251180436
Fix,GT,37.6307293,-122.418116,,0.0040537138,0.1,63.406128,1594251181436
Fix,GT,37.6307293,-122.418116,,0.0036330693,0.1,63.406128,1594251182436
Fix,GT,37.6307293,-122.418116,,0.0034363228,0.1,63.40619,1594251183436
Fix,GT,37.6307293,-122.418116,,0.003634483,0.1,63.40631,1594251184436
Fix,GT,37.6307293,-122.418116,,0.0035815085,0.1,63.40631,1594251185436
Fix,GT,37.6307293,-122.418116,,0.0041231057,0.1,63.40619,1594251186436
Fix,GT,37.6307293,-122.418116,,0.004069392,0.1,63.40628,1594251187436
Fix,GT,37.6307293,-122.418116,,0.0038278932,0.1,63.406464,1594251188436
Fix,GT,37.6307293,-122.418116,,0.003983662,0.1,63.40634,1594251189436
Fix,GT,37.6307293,-122.418116,,0.0040940256,0.1,63.40631,1594251190436
Fix,GT,37.6307293,-122.418116,,0.004213981,0.1,63.406403,1594251191436
Fix,GT,37.6307293,-122.418116,,0.004769681,0.1,63.406372,1594251192436
Fix,GT,37.6307289,-122.418116,,0.0047024554,0.1,63.406525,1594251193436
Fix,GT,37.6307282,-122.4181161,,0.005,0.1,63.406647,1594251194436
Fix,GT,37.6307281,-122.4181162,,0.00419816,0.1,63.40683,1594251195436
Fix,GT,37.6307281,-122.4181162,,0.0036336642,0.1,63.407623,1594251196436
Fix,GT,37.6307281,-122.4181162,,0.003964664,0.1,63.40802,1594251197436
Fix,GT,37.6307281,-122.4181162,,0.003983662,0.1,63.407867,1594251198436
Fix,GT,37.6307281,-122.4181162,,0.004372002,0.1,63.407867,1594251199436
Fix,GT,37.6307281,-122.4181162,,0.0042426405,0.1,63.407837,1594251200436
Fix,GT,37.6307281,-122.4181162,,0.0045730937,0.1,63.407715,1594251201436
Fix,GT,37.6307281,-122.4181162,,0.005,0.1,63.407684,1594251202436
Fix,GT,37.6307281,-122.4181162,,0.005,0.1,63.407684,1594251203436
Fix,GT,37.6307281,-122.4181162,,0.005,0.1,63.407715,1594251204436
Fix,GT,37.6307281,-122.4181162,,0.0052866004,0.1,63.407654,1594251205436
Fix,GT,37.6307281,-122.4181162,,0.0057328166,0.1,63.407806,1594251206436
Fix,GT,37.6307281,-122.4181162,,0.005830952,0.1,63.408234,1594251207436
Fix,GT,37.6307281,-122.4181162,,0.00523807,0.1,63.408447,1594251208436
Fix,GT,37.6307281,-122.4181162,,0.004870511,0.1,63.408417,1594251209436
Fix,GT,37.6307281,-122.4181162,,0.005579672,0.1,63.40811,1594251210436
Fix,GT,37.6307281,-122.4181162,,0.0057549896,0.1,63.407776,1594251211436
Fix,GT,37.6307281,-122.4181162,,0.0053702537,0.1,63.407654,1594251212436
Fix,GT,37.6307281,-122.4181162,,0.005362563,0.1,63.407684,1594251213436
Fix,GT,37.6307281,-122.4181162,,0.005830952,0.1,63.407867,1594251214436
Fix,GT,37.6307281,-122.4181162,,0.005830952,0.1,63.40796,1594251215436
Fix,GT,37.6307281,-122.4181162,,0.006213717,0.1,63.407806,1594251216436
Fix,GT,37.6307281,-122.4181162,,0.00692763,0.1,63.407776,1594251217436
Fix,GT,37.6307281,-122.4181162,,0.007211103,0.1,63.407623,1594251218436
Fix,GT,37.6307281,-122.4181162,,0.006858564,0.1,63.407593,1594251219436
Fix,GT,37.6307281,-122.4181162,,0.0067556635,0.1,63.407776,1594251220436
Fix,GT,37.6307281,-122.4181162,,0.0073876698,0.1,63.407623,1594251221436
Fix,GT,37.6307281,-122.4181162,,0.007615773,0.1,63.40744,1594251222436
Fix,GT,37.6307281,-122.4181162,,0.008432158,0.1,63.40744,1594251223436
Fix,GT,37.6307281,-122.4181162,,0.009250102,0.1,63.407593,1594251224436
Fix,GT,37.6307281,-122.4181162,,0.009157944,0.1,63.407654,1594251225436
Fix,GT,37.6307281,-122.4181162,,0.0101959575,0.1,63.40753,1594251226436
Fix,GT,37.6307281,-122.4181162,,0.01118034,0.1,63.40748,1594251227436
Fix,GT,37.6307281,-122.4181162,,0.011974299,0.1,63.40738,1594251228436
Fix,GT,37.6307281,-122.4181162,,0.013405077,0.1,63.40735,1594251229436
Fix,GT,37.6307281,-122.4181162,,0.014680646,0.1,63.407562,1594251230436
Fix,GT,37.6307281,-122.4181162,,0.016278831,0.1,63.407654,1594251231436
Fix,GT,37.6307281,-122.4181162,,0.018024955,0.1,63.407623,1594251232436
Fix,GT,37.6307282,-122.4181162,,0.020210795,0.1,63.407806,1594251233436
Fix,GT,37.6307281,-122.4181162,,0.023810431,0.1,63.40799,1594251234436
Fix,GT,37.630728,-122.4181164,,0.028395284,0.1,63.40805,1594251235436
Fix,GT,37.6307278,-122.4181165,,0.03236492,0.1,63.40808,1594251236436
Fix,GT,37.6307276,-122.4181167,,0.03725291,0.1,63.40802,1594251237436
Fix,GT,37.6307274,-122.4181169,,0.042477906,0.1,63.40811,1594251238436
Fix,GT,37.6307271,-122.418117,,0.15248844,0.1,63.403564,1594251239436
Fix,GT,37.630729,-122.4181117,,1.1720648,0.1,63.318146,1594251240436
Fix,GT,37.6307378,-122.4180897,,3.3675213,0.1,62.89911,1594251241436
Fix,GT,37.6307572,-122.418046,,5.4854693,0.1,60.236237,1594251242436
Fix,GT,37.6307913,-122.4179921,,6.6036305,0.1,48.967102,1594251243436
Fix,GT,37.6308428,-122.4179498,,7.141493,0.1,28.59372,1594251244436
Fix,GT,37.6309082,-122.4179325,,7.8683624,0.1,7.927643,1594251245436
Fix,GT,37.6309821,-122.4179405,,8.795173,0.1,352.04092,1594251246436
Fix,GT,37.6310648,-122.4179681,,10.367994,0.1,344.22012,1594251247436
Fix,GT,37.6311605,-122.4180071,,11.767359,0.1,342.15704,1594251248436
Fix,GT,37.6312626,-122.4180505,,11.88802,0.1,341.44028,1594251249436
Fix,GT,37.6313604,-122.4180918,,10.874139,0.1,342.0046,1594251250436
Fix,GT,37.6314471,-122.4181271,,9.416952,0.1,342.08466,1594251251436
Fix,GT,37.6315209,-122.4181591,,7.958787,0.1,340.52713,1594251252436
Fix,GT,37.6315817,-122.4181881,,6.3972607,0.1,339.0276,1594251253436
Fix,GT,37.6316285,-122.4182116,,4.797409,0.1,338.11658,1594251254436
Fix,GT,37.6316636,-122.4182302,,3.6547093,0.1,337.40686,1594251255436
Fix,GT,37.6316908,-122.4182449,,2.8655167,0.1,336.9348,1594251256436
Fix,GT,37.6317106,-122.4182558,,1.9277458,0.1,336.71817,1594251257436
Fix,GT,37.6317228,-122.4182625,,1.1056619,0.1,336.62894,1594251258436
Fix,GT,37.6317292,-122.4182661,,0.4906921,0.1,336.59042,1594251259436
Fix,GT,37.6317313,-122.4182673,,0.16908498,0.1,336.58188,1594251260436
Fix,GT,37.6317328,-122.4182682,,0.27383265,0.1,336.5765,1594251261436
Fix,GT,37.6317363,-122.41827,,0.52714777,0.1,336.55414,1594251262436
Fix,GT,37.6317412,-122.4182727,,0.61175233,0.1,336.51855,1594251263436
Fix,GT,37.6317453,-122.4182749,,0.3265464,0.1,336.48575,1594251264436
Fix,GT,37.6317467,-122.4182756,,0.037596293,0.1,336.47552,1594251265436
Fix,GT,37.6317467,-122.4182756,,0.0015393246,0.1,336.47638,1594251266436
Fix,GT,37.6317467,-122.4182756,,0.0016967433,0.1,336.47543,1594251267436
Fix,GT,37.6317467,-122.4182756,,0.001,0.1,336.4753,1594251268436
Fix,GT,37.6317467,-122.4182756,,0.0011807309,0.1,336.47528,1594251269436
Fix,GT,37.6317467,-122.4182756,,0.0016698055,0.1,336.47504,1594251270436
Fix,GT,37.6317467,-122.4182756,,0.0023614618,0.1,336.47513,1594251271436
Fix,GT,37.6317467,-122.4182756,,0.0028284271,0.1,336.47498,1594251272436
Fix,GT,37.6317467,-122.4182756,,0.002974094,0.1,336.47488,1594251273436
Fix,GT,37.6317467,-122.4182756,,0.0030914722,0.1,336.47552,1594251274436
Fix,GT,37.6317466,-122.4182756,,0.0034900368,0.1,336.47562,1594251275436
Fix,GT,37.6317466,-122.4182756,,0.004069392,0.1,336.4752,1594251276436
Fix,GT,37.6317466,-122.4182756,,0.0031273547,0.1,336.4747,1594251277436
Fix,GT,37.6317466,-122.4182756,,0.002103002,0.1,336.4748,1594251278436
Fix,GT,37.6317466,-122.4182757,,0.06431171,0.1,336.47778,1594251279436
Fix,GT,37.6317498,-122.4182775,,0.8178025,0.1,336.46732,1594251280436
Fix,GT,37.6317642,-122.4182855,,2.7850347,0.1,336.44873,1594251281436
Fix,GT,37.6317972,-122.4183038,,5.209118,0.1,336.35745,1594251282436
Fix,GT,37.6318499,-122.4183332,,7.4390817,0.1,336.0698,1594251283436
Fix,GT,37.6319183,-122.4183721,,9.112151,0.1,335.78247,1594251284436
Fix,GT,37.6319982,-122.4184171,,10.309232,0.1,335.98343,1594251285436
Fix,GT,37.6320884,-122.4184668,,11.511043,0.1,336.652,1594251286436
Fix,GT,37.6321873,-122.4185172,,12.131664,0.1,338.8481,1594251287436
Fix,GT,37.6322915,-122.4185606,,12.198105,0.1,343.34082,1594251288436
Fix,GT,37.6323981,-122.4185922,,12.062706,0.1,348.76218,1594251289436
Fix,GT,37.6325028,-122.418609,,11.405062,0.1,355.87717,1594251290436
Fix,GT,37.6326,-122.4186041,,10.440664,0.1,7.4291077,1594251291436
Fix,GT,37.6326851,-122.4185692,,10.039106,0.1,24.607605,1594251292436
Fix,GT,37.6327582,-122.4184998,,10.842443,0.1,42.22998,1594251293436
Fix,GT,37.6328252,-122.4183996,,12.522926,0.1,52.725952,1594251294436
Fix,GT,37.6328961,-122.418274,,14.735504,0.1,55.423676,1594251295436
Fix,GT,37.6329773,-122.4181246,,17.118273,0.1,56.09488,1594251296436
Fix,GT,37.6330673,-122.4179559,,18.653288,0.1,56.503845,1594251297436
Fix,GT,37.6331632,-122.4177737,,19.91299,0.1,56.8136,1594251298436
Fix,GT,37.6332646,-122.4175795,,21.12582,0.1,56.973236,1594251299436
Fix,GT,37.6333714,-122.4173728,,22.395155,0.1,57.417023,1594251300436
Fix,GT,37.6334806,-122.4171514,,23.551083,0.1,59.353424,1594251301436
Fix,GT,37.6335862,-122.4169137,,24.499723,0.1,62.39325,1594251302436
Fix,GT,37.6336848,-122.4166604,,25.29095,0.1,65.500244,1594251303436
Fix,GT,37.6337757,-122.4163927,,26.169483,0.1,68.245514,1594251304436
Fix,GT,37.63386,-122.4161103,,27.101498,0.1,70.78845,1594251305436
Fix,GT,37.6339356,-122.4158137,,27.90039,0.1,74.12207,1594251306436
Fix,GT,37.6339989,-122.4155044,,28.508038,0.1,77.20502,1594251307436
Fix,GT,37.6340503,-122.4151855,,28.975956,0.1,80.18973,1594251308436
Fix,GT,37.6340885,-122.4148579,,29.537529,0.1,83.536835,1594251309436
Fix,GT,37.6341116,-122.4145215,,30.109703,0.1,86.81494,1594251310436
Fix,GT,37.6341206,-122.4141791,,30.361439,0.1,89.78482,1594251311436
Fix,GT,37.6341154,-122.4138357,,30.310432,0.1,92.6611,1594251312436
Fix,GT,37.6340982,-122.4134929,,30.389572,0.1,94.89972,1594251313436
Fix,GT,37.6340708,-122.4131493,,30.56921,0.1,96.938324,1594251314436
Fix,GT,37.6340348,-122.4128055,,30.645779,0.1,98.226685,1594251315436
Fix,GT,37.6339952,-122.4124619,,30.666088,0.1,98.669464,1594251316436
Fix,GT,37.6339528,-122.4121181,,30.766754,0.1,99.21417,1594251317436
Fix,GT,37.6339078,-122.4117736,,30.793556,0.1,99.72778,1594251318436
Fix,GT,37.6338608,-122.4114304,,30.691357,0.1,100.15808,1594251319436
Fix,GT,37.6338123,-122.4110875,,30.818127,0.1,100.282104,1594251320436
Fix,GT,37.6337637,-122.4107421,,31.121712,0.1,100.177734,1594251321436
Fix,GT,37.6337155,-122.4103933,,31.368263,0.1,99.89673,1594251322436
Fix,GT,37.6336692,-122.410042,,31.465994,0.1,99.06998,1594251323436
Fix,GT,37.6336296,-122.4096893,,31.445034,0.1,97.17438,1594251324436
Fix,GT,37.6336017,-122.4093346,,31.569082,0.1,94.42328,1594251325436
Fix,GT,37.6335878,-122.4089756,,31.961073,0.1,91.417114,1594251326436
Fix,GT,37.63359,-122.4086109,,32.420082,0.1,87.91681,1594251327436
Fix,GT,37.6336099,-122.4082435,,32.55696,0.1,84.39743,1594251328436
Fix,GT,37.633645,-122.4078782,,32.38723,0.1,82.07001,1594251329436
Fix,GT,37.6336882,-122.4075172,,31.994492,0.1,81.07898,1594251330436
Fix,GT,37.6337333,-122.4071628,,31.363316,0.1,80.9433,1594251331436
Fix,GT,37.6337761,-122.4068152,,30.814453,0.1,81.704956,1594251332436
Fix,GT,37.6338118,-122.4064711,,30.469032,0.1,83.94559,1594251333436
Fix,GT,37.6338309,-122.4061293,,30.10931,0.1,88.69711,1594251334436
Fix,GT,37.6338227,-122.4057918,,29.68959,0.1,95.40317,1594251335436
Fix,GT,37.6337828,-122.4054627,,29.271826,0.1,102.40839,1594251336436
Fix,GT,37.6337126,-122.4051462,,28.936523,0.1,109.15546,1594251337436
Fix,GT,37.6336142,-122.4048443,,28.843342,0.1,115.84012,1594251338436
Fix,GT,37.6334885,-122.4045596,,28.76687,0.1,122.58096,1594251339436
Fix,GT,37.6333383,-122.4042967,,28.555136,0.1,129.03687,1594251340436
Fix,GT,37.6331669,-122.4040573,,28.483112,0.1,135.27454,1594251341436
Fix,GT,37.6329764,-122.403843,,28.402138,0.1,141.57806,1594251342436
Fix,GT,37.6327684,-122.403657,,28.440228,0.1,148.04779,1594251343436
Fix,GT,37.6325437,-122.4035017,,28.63425,0.1,154.73889,1594251344436
Fix,GT,37.6323051,-122.403379,,28.71417,0.1,161.2345,1594251345436
Fix,GT,37.6320569,-122.4032895,,28.72284,0.1,167.07178,1594251346436
Fix,GT,37.6318023,-122.4032284,,28.914143,0.1,171.53387,1594251347436
Fix,GT,37.6315422,-122.4031874,,29.326477,0.1,174.2345,1594251348436
Fix,GT,37.6312778,-122.403154,,29.618504,0.1,174.64581,1594251349436
Fix,GT,37.631012,-122.4031181,,29.694777,0.1,173.84583,1594251350436
Fix,GT,37.6307465,-122.4030801,,29.60802,0.1,173.52795,1594251351436
Fix,GT,37.6304828,-122.4030425,,29.303566,0.1,173.82104,1594251352436
Fix,GT,37.6302219,-122.4030071,,28.993132,0.1,173.94653,1594251353436
Fix,GT,37.6299626,-122.4029708,,29.042606,0.1,173.55853,1594251354436
Fix,GT,37.6297008,-122.4029324,,29.578953,0.1,173.47113,1594251355436
Fix,GT,37.6294328,-122.4028939,,30.346605,0.1,173.75122,1594251356436
Fix,GT,37.6291561,-122.4028549,,31.43277,0.1,173.61536,1594251357436
Fix,GT,37.628869,-122.4028125,,32.56695,0.1,173.22571,1594251358436
Fix,GT,37.6285748,-122.4027664,,33.09453,0.1,172.71265,1594251359436
Fix,GT,37.628278,-122.4027155,,33.516155,0.1,171.85254,1594251360436
Fix,GT,37.6279771,-122.4026568,,34.072617,0.1,170.78302,1594251361436
Fix,GT,37.6276727,-122.4025897,,34.47387,0.1,169.5108,1594251362436
Fix,GT,37.6273676,-122.4025129,,34.55665,0.1,167.9436,1594251363436
Fix,GT,37.6270639,-122.4024254,,34.595596,0.1,166.39136,1594251364436
Fix,GT,37.6267625,-122.4023282,,34.468563,0.1,164.90576,1594251365436
Fix,GT,37.6264656,-122.4022208,,34.09517,0.1,163.06561,1594251366436
Fix,GT,37.6261751,-122.4021032,,33.67083,0.1,161.65509,1594251367436
Fix,GT,37.6258899,-122.4019809,,33.229523,0.1,161.11884,1594251368436
Fix,GT,37.6256087,-122.401859,,32.803406,0.1,161.31384,1594251369436
Fix,GT,37.6253301,-122.4017429,,32.382484,0.1,162.43927,1594251370436
Fix,GT,37.6250533,-122.4016349,,31.960613,0.1,163.229,1594251371436
Fix,GT,37.6247793,-122.4015304,,31.634724,0.1,163.40674,1594251372436
Fix,GT,37.624507,-122.4014279,,31.48922,0.1,163.6369,1594251373436
Fix,GT,37.6242349,-122.401327,,31.47037,0.1,163.7649,1594251374436
Fix,GT,37.6239626,-122.401227,,31.505201,0.1,163.93439,1594251375436
Fix,GT,37.6236899,-122.4011278,,31.501392,0.1,164.04724,1594251376436
Fix,GT,37.6234176,-122.4010294,,31.365667,0.1,164.14728,1594251377436
Fix,GT,37.623147,-122.4009321,,31.068104,0.1,164.23523,1594251378436
Fix,GT,37.6228792,-122.4008365,,30.730618,0.1,164.51611,1594251379436
Fix,GT,37.6226133,-122.4007445,,30.489113,0.1,165.0257,1594251380436
Fix,GT,37.6223488,-122.4006551,,30.316399,0.1,165.14594,1594251381436
Fix,GT,37.6220858,-122.4005663,,30.1338,0.1,164.9917,1594251382436
Fix,GT,37.6218244,-122.400477,,29.998396,0.1,164.94751,1594251383436
Fix,GT,37.6215638,-122.4003881,,29.98405,0.1,164.95886,1594251384436
Fix,GT,37.6213029,-122.400299,,30.042038,0.1,164.88281,1594251385436
Fix,GT,37.6210414,-122.4002099,,30.086887,0.1,165.02466,1594251386436
Fix,GT,37.6207794,-122.4001217,,30.116545,0.1,165.33905,1594251387436
Fix,GT,37.6205167,-122.4000346,,30.18536,0.1,165.34229,1594251388436
Fix,GT,37.6202534,-122.399947,,30.273964,0.1,165.20996,1594251389436
Fix,GT,37.6199897,-122.3998582,,30.31366,0.1,165.13116,1594251390436
Fix,GT,37.6197261,-122.3997695,,30.20081,0.1,165.16406,1594251391436
Fix,GT,37.6194644,-122.3996815,,29.901016,0.1,165.10901,1594251392436
Fix,GT,37.6192059,-122.3995943,,29.532696,0.1,165.08722,1594251393436
Fix,GT,37.6189499,-122.3995077,,29.349081,0.1,165.04248,1594251394436
Fix,GT,37.6186944,-122.3994208,,29.386566,0.1,164.96179,1594251395436
Fix,GT,37.618439,-122.3993342,,29.326439,0.1,165.1499,1594251396436
Fix,GT,37.6181848,-122.3992491,,29.020847,0.1,165.37323,1594251397436
Fix,GT,37.6179339,-122.3991662,,28.533915,0.1,165.48584,1594251398436
Fix,GT,37.6176875,-122.3990852,,28.00188,0.1,165.47333,1594251399436
Fix,GT,37.6174456,-122.3990047,,27.550732,0.1,165.12518,1594251400436
Fix,GT,37.6172076,-122.3989237,,27.20914,0.1,164.96869,1594251401436
Fix,GT,37.6169718,-122.3988433,,27.040836,0.1,165.01575,1594251402436
Fix,GT,37.6167374,-122.3987629,,26.851088,0.1,164.72241,1594251403436
Fix,GT,37.6165062,-122.3986801,,26.495773,0.1,163.72382,1594251404436
Fix,GT,37.6162795,-122.3985925,,26.165741,0.1,162.48834,1594251405436
Fix,GT,37.6160564,-122.3985002,,25.96691,0.1,161.43793,1594251406436
Fix,GT,37.6158368,-122.3984034,,25.610403,0.1,160.24707,1594251407436
Fix,GT,37.6156239,-122.3983021,,24.907139,0.1,158.50104,1594251408436
Fix,GT,37.6154194,-122.3981952,,24.391186,0.1,156.64465,1594251409436
Fix,GT,37.615219,-122.3980816,,24.47047,0.1,155.1737,1594251410436
Fix,GT,37.6150174,-122.3979598,,25.239834,0.1,153.86719,1594251411436
Fix,GT,37.6148104,-122.3978275,,26.353722,0.1,152.49292,1594251412436
Fix,GT,37.6145981,-122.3976834,,27.120731,0.1,151.12024,1594251413436
Fix,GT,37.6143837,-122.3975296,,27.63831,0.1,149.77872,1594251414436
Fix,GT,37.614169,-122.3973663,,28.035805,0.1,148.14825,1594251415436
Fix,GT,37.6139557,-122.3971926,,28.380913,0.1,146.18118,1594251416436
Fix,GT,37.6137444,-122.3970087,,28.678192,0.1,144.69446,1594251417436
Fix,GT,37.6135347,-122.396818,,28.792114,0.1,143.77808,1594251418436
Fix,GT,37.6133262,-122.3966216,,29.027618,0.1,142.69977,1594251419436
Fix,GT,37.6131194,-122.3964182,,29.265182,0.1,141.50137,1594251420436
Fix,GT,37.6129143,-122.3962072,,29.618084,0.1,140.22174,1594251421436
Fix,GT,37.6127101,-122.3959874,,30.013556,0.1,138.90802,1594251422436
Fix,GT,37.6125082,-122.39576,,30.0778,0.1,137.61133,1594251423436
Fix,GT,37.6123111,-122.3955269,,29.96395,0.1,136.10202,1594251424436
Fix,GT,37.6121206,-122.3952874,,29.843716,0.1,134.09537,1594251425436
Fix,GT,37.6119375,-122.3950403,,29.849167,0.1,132.15662,1594251426436
Fix,GT,37.6117585,-122.3947856,,30.1941,0.1,131.10059,1594251427436
Fix,GT,37.611581,-122.3945249,,30.367834,0.1,130.23566,1594251428436
Fix,GT,37.6114068,-122.3942612,,30.158184,0.1,129.3581,1594251429436
Fix,GT,37.6112369,-122.3939965,,29.9141,0.1,128.79272,1594251430436
Fix,GT,37.6110695,-122.3937321,,29.775467,0.1,128.67047,1594251431436
Fix,GT,37.6109026,-122.3934682,,29.772747,0.1,128.75867,1594251432436
Fix,GT,37.6107348,-122.3932044,,29.89344,0.1,128.77307,1594251433436
Fix,GT,37.6105661,-122.392939,,30.100681,0.1,128.78558,1594251434436
Fix,GT,37.6103962,-122.3926722,,30.222704,0.1,128.83777,1594251435436
Fix,GT,37.6102261,-122.3924045,,30.268105,0.1,128.71664,1594251436436
Fix,GT,37.6100564,-122.3921359,,30.272253,0.1,128.57925,1594251437436
Fix,GT,37.6098871,-122.3918682,,30.100613,0.1,128.8125,1594251438436
Fix,GT,37.609718,-122.391604,,29.7893,0.1,129.17203,1594251439436
Fix,GT,37.6095497,-122.3913436,,29.454433,0.1,129.23523,1594251440436
Fix,GT,37.6093831,-122.391086,,29.192036,0.1,129.30667,1594251441436
Fix,GT,37.6092173,-122.3908306,,29.05747,0.1,129.47119,1594251442436
Fix,GT,37.6090511,-122.3905759,,29.161997,0.1,129.46588,1594251443436
Fix,GT,37.6088836,-122.3903184,,29.59426,0.1,129.33307,1594251444436
Fix,GT,37.6087139,-122.3900565,,30.040249,0.1,129.28912,1594251445436
Fix,GT,37.6085419,-122.3897917,,30.279346,0.1,129.40128,1594251446436
Fix,GT,37.6083684,-122.389526,,30.462353,0.1,129.57214,1594251447436
Fix,GT,37.6081932,-122.3892584,,30.749134,0.1,129.58105,1594251448436
Fix,GT,37.6080162,-122.3889883,,31.025389,0.1,129.60242,1594251449436
Fix,GT,37.6078379,-122.3887164,,31.180428,0.1,129.61224,1594251450436
Fix,GT,37.6076595,-122.3884441,,31.086014,0.1,129.59277,1594251451436
Fix,GT,37.6074821,-122.3881733,,30.85119,0.1,129.60184,1594251452436
Fix,GT,37.6073061,-122.3879048,,30.580826,0.1,129.62231,1594251453436
Fix,GT,37.6071316,-122.387639,,30.25033,0.1,129.73517,1594251454436
Fix,GT,37.606959,-122.3873769,,29.78687,0.1,129.68408,1594251455436
Fix,GT,37.6067906,-122.3871195,,29.008762,0.1,129.38617,1594251456436
Fix,GT,37.6066281,-122.3868685,,28.152866,0.1,129.20416,1594251457436
Fix,GT,37.6064702,-122.3866243,,27.459263,0.1,129.27618,1594251458436
Fix,GT,37.6063157,-122.3863863,,26.780228,0.1,129.35046,1594251459436
Fix,GT,37.6061649,-122.3861544,,26.10513,0.1,129.33194,1594251460436
Fix,GT,37.6060181,-122.3859284,,25.403332,0.1,129.3996,1594251461436
Fix,GT,37.6058753,-122.3857094,,24.614223,0.1,129.51749,1594251462436
Fix,GT,37.6057366,-122.3854974,,23.927483,0.1,129.61887,1594251463436
Fix,GT,37.6056005,-122.3852903,,23.545982,0.1,129.65753,1594251464436
Fix,GT,37.6054665,-122.3850859,,23.235249,0.1,129.60223,1594251465436
Fix,GT,37.6053344,-122.3848839,,22.915781,0.1,129.45953,1594251466436
Fix,GT,37.6052046,-122.3846842,,22.65192,0.1,129.28833,1594251467436
Fix,GT,37.6050762,-122.3844859,,22.524021,0.1,129.27435,1594251468436
Fix,GT,37.6049481,-122.3842884,,22.429436,0.1,129.40784,1594251469436
Fix,GT,37.6048209,-122.3840936,,22.0624,0.1,129.56708,1594251470436
Fix,GT,37.6046964,-122.3839036,,21.38579,0.1,129.63483,1594251471436
Fix,GT,37.6045758,-122.3837203,,20.63293,0.1,129.6836,1594251472436
Fix,GT,37.60446,-122.3835438,,19.725908,0.1,129.49817,1594251473436
Fix,GT,37.604351,-122.3833756,,18.532196,0.1,129.11469,1594251474436
Fix,GT,37.604249,-122.3832163,,17.693308,0.1,128.91946,1594251475436
Fix,GT,37.6041504,-122.3830619,,17.302523,0.1,128.9049,1594251476436
Fix,GT,37.6040535,-122.3829105,,17.014147,0.1,128.98901,1594251477436
Fix,GT,37.6039575,-122.3827608,,16.997356,0.1,129.04181,1594251478436
Fix,GT,37.6038605,-122.3826097,,17.34943,0.1,129.06564,1594251479436
Fix,GT,37.6037607,-122.3824543,,17.926086,0.1,129.18933,1594251480436
Fix,GT,37.6036571,-122.3822942,,18.509346,0.1,129.2933,1594251481436
Fix,GT,37.6035503,-122.3821299,,18.916569,0.1,129.3985,1594251482436
Fix,GT,37.6034412,-122.3819626,,19.305805,0.1,129.52042,1594251483436
Fix,GT,37.6033299,-122.3817921,,19.63427,0.1,129.54776,1594251484436
Fix,GT,37.6032166,-122.3816196,,19.835737,0.1,129.77414,1594251485436
Fix,GT,37.6031023,-122.3814461,,19.94352,0.1,129.77151,1594251486436
Fix,GT,37.6029878,-122.381272,,19.900883,0.1,129.72714,1594251487436
Fix,GT,37.6028739,-122.3810989,,19.770988,0.1,129.78839,1594251488436
Fix,GT,37.6027603,-122.3809268,,19.6968,0.1,129.83203,1594251489436
Fix,GT,37.6026472,-122.3807553,,19.625374,0.1,129.74982,1594251490436
Fix,GT,37.6025357,-122.380585,,19.31715,0.1,129.5466,1594251491436
Fix,GT,37.6024265,-122.3804177,,18.85981,0.1,129.5426,1594251492436
Fix,GT,37.6023202,-122.3802548,,18.361174,0.1,129.51324,1594251493436
Fix,GT,37.6022169,-122.3800959,,17.881453,0.1,129.32861,1594251494436
Fix,GT,37.6021166,-122.37994,,17.542667,0.1,129.00641,1594251495436
Fix,GT,37.6020182,-122.379786,,17.351362,0.1,129.02933,1594251496436
Fix,GT,37.6019199,-122.3796338,,17.263077,0.1,129.44775,1594251497436
Fix,GT,37.6018218,-122.3794831,,17.079193,0.1,129.34125,1594251498436
Fix,GT,37.6017258,-122.3793342,,16.745228,0.1,129.13327,1594251499436
Fix,GT,37.6016318,-122.3791886,,16.434353,0.1,129.24078,1594251500436
Fix,GT,37.6015389,-122.3790447,,16.282393,0.1,129.13202,1594251501436
Fix,GT,37.601447,-122.3789016,,16.177391,0.1,129.07526,1594251502436
Fix,GT,37.6013557,-122.37876,,16.017921,0.1,129.43039,1594251503436
Fix,GT,37.6012644,-122.3786209,,15.835375,0.1,129.815,1594251504436
Fix,GT,37.6011742,-122.3784841,,15.484259,0.1,129.76114,1594251505436
Fix,GT,37.6010865,-122.378351,,15.007429,0.1,129.76605,1594251506436
Fix,GT,37.6010014,-122.3782219,,14.617827,0.1,129.85437,1594251507436
Fix,GT,37.6009181,-122.378096,,14.316945,0.1,129.93704,1594251508436
Fix,GT,37.6008362,-122.3779724,,14.1325,0.1,129.89038,1594251509436
Fix,GT,37.6007551,-122.3778488,,14.18974,0.1,129.52032,1594251510436
Fix,GT,37.6006731,-122.377723,,14.523791,0.1,129.45715,1594251511436
Fix,GT,37.600589,-122.3775942,,14.913675,0.1,129.5481,1594251512436
Fix,GT,37.6005027,-122.377462,,15.278719,0.1,129.48105,1594251513436
Fix,GT,37.6004147,-122.3773269,,15.515451,0.1,129.43198,1594251514436
Fix,GT,37.6003263,-122.3771914,,15.316736,0.1,129.58932,1594251515436
Fix,GT,37.6002401,-122.3770599,,14.786541,0.1,129.66586,1594251516436
Fix,GT,37.6001568,-122.3769331,,14.328802,0.1,129.65588,1594251517436
Fix,GT,37.6000755,-122.3768091,,14.05093,0.1,129.63702,1594251518436
Fix,GT,37.5999953,-122.3766865,,14.048889,0.1,129.54303,1594251519436
Fix,GT,37.599914,-122.3765615,,14.552046,0.1,129.31091,1594251520436
Fix,GT,37.599829,-122.37643,,15.440416,0.1,129.20294,1594251521436
Fix,GT,37.5997384,-122.3762901,,16.386787,0.1,129.32782,1594251522436
Fix,GT,37.5996429,-122.3761431,,17.08087,0.1,129.3601,1594251523436
Fix,GT,37.599544,-122.3759909,,17.584917,0.1,129.3252,1594251524436
Fix,GT,37.5994431,-122.3758355,,17.76183,0.1,129.37006,1594251525436
Fix,GT,37.5993421,-122.3756801,,17.689949,0.1,129.40787,1594251526436
Fix,GT,37.5992414,-122.3755247,,17.748163,0.1,129.16595,1594251527436
Fix,GT,37.59914,-122.375367,,18.084145,0.1,129.00717,1594251528436
Fix,GT,37.5990364,-122.3752056,,18.568424,0.1,129.10962,1594251529436
Fix,GT,37.5989294,-122.37504,,19.144245,0.1,129.26776,1594251530436
Fix,GT,37.5988187,-122.3748691,,19.751907,0.1,129.35236,1594251531436
Fix,GT,37.5987049,-122.3746941,,20.148075,0.1,129.4986,1594251532436
Fix,GT,37.5985889,-122.3745163,,20.43925,0.1,129.51013,1594251533436
Fix,GT,37.5984718,-122.3743363,,20.584652,0.1,129.41144,1594251534436
Fix,GT,37.5983543,-122.3741554,,20.65393,0.1,129.32,1594251535436
Fix,GT,37.5982368,-122.3739736,,20.719055,0.1,129.19617,1594251536436
Fix,GT,37.5981195,-122.3737914,,20.660414,0.1,129.07538,1594251537436
Fix,GT,37.5980031,-122.3736096,,20.583267,0.1,128.94003,1594251538436
Fix,GT,37.5978868,-122.3734277,,20.65062,0.1,128.9472,1594251539436
Fix,GT,37.5977696,-122.373245,,20.780693,0.1,129.09265,1594251540436
Fix,GT,37.5976517,-122.3730614,,20.882656,0.1,129.04767,1594251541436
Fix,GT,37.5975331,-122.3728764,,21.114342,0.1,129.05133,1594251542436
Fix,GT,37.5974125,-122.3726891,,21.465836,0.1,129.18903,1594251543436
Fix,GT,37.5972898,-122.3724986,,21.80746,0.1,129.10199,1594251544436
Fix,GT,37.5971655,-122.3723057,,22.001135,0.1,129.25171,1594251545436
Fix,GT,37.5970399,-122.3721125,,22.055904,0.1,129.59149,1594251546436
Fix,GT,37.5969129,-122.3719197,,22.147844,0.1,129.90381,1594251547436
Fix,GT,37.5967846,-122.3717272,,22.208132,0.1,130.12961,1594251548436
Fix,GT,37.5966564,-122.3715344,,22.15778,0.1,129.91821,1594251549436
Fix,GT,37.5965294,-122.3713416,,22.043852,0.1,129.62149,1594251550436
Fix,GT,37.5964038,-122.3711492,,21.93084,0.1,129.4223,1594251551436
Fix,GT,37.5962788,-122.3709558,,22.157143,0.1,129.06696,1594251552436
Fix,GT,37.5961526,-122.3707581,,22.628521,0.1,128.87415,1594251553436
Fix,GT,37.5960238,-122.3705568,,22.944485,0.1,128.97327,1594251554436
Fix,GT,37.5958927,-122.370354,,23.227158,0.1,129.34967,1594251555436
Fix,GT,37.5957589,-122.3701491,,23.607828,0.1,129.7172,1594251556436
Fix,GT,37.5956224,-122.3699419,,23.8671,0.1,129.86469,1594251557436
Fix,GT,37.5954847,-122.3697337,,23.917934,0.1,129.88834,1594251558436
Fix,GT,37.5953475,-122.3695249,,23.939266,0.1,129.54456,1594251559436
Fix,GT,37.5952106,-122.3693144,,24.070423,0.1,129.32849,1594251560436
Fix,GT,37.5950731,-122.3691024,,24.245335,0.1,129.38318,1594251561436
Fix,GT,37.5949343,-122.3688895,,24.386763,0.1,129.52136,1594251562436
Fix,GT,37.5947944,-122.3686762,,24.425926,0.1,129.70917,1594251563436
Fix,GT,37.5946541,-122.368463,,24.427898,0.1,129.64813,1594251564436
Fix,GT,37.5945146,-122.3682496,,24.333302,0.1,129.46808,1594251565436
Fix,GT,37.5943764,-122.3680375,,24.089207,0.1,129.49088,1594251566436
Fix,GT,37.5942395,-122.3678278,,23.818378,0.1,129.55157,1594251567436
Fix,GT,37.594104,-122.3676206,,23.54123,0.1,129.56299,1594251568436
Fix,GT,37.5939701,-122.3674159,,23.269348,0.1,129.52228,1594251569436
Fix,GT,37.5938378,-122.3672134,,23.006063,0.1,129.5816,1594251570436
Fix,GT,37.5937066,-122.3670137,,22.735786,0.1,129.78543,1594251571436
Fix,GT,37.5935765,-122.3668169,,22.45819,0.1,129.92273,1594251572436
Fix,GT,37.5934475,-122.3666223,,22.315771,0.1,129.9154,1594251573436
Fix,GT,37.5933187,-122.3664272,,22.51501,0.1,129.6748,1594251574436
Fix,GT,37.5931889,-122.3662282,,22.95187,0.1,129.28833,1594251575436
Fix,GT,37.5930578,-122.3660252,,23.143564,0.1,129.14563,1594251576436
Fix,GT,37.5929269,-122.3658227,,22.917286,0.1,129.27515,1594251577436
Fix,GT,37.5927976,-122.3656228,,22.569635,0.1,129.20099,1594251578436
Fix,GT,37.5926707,-122.3654257,,22.196318,0.1,128.9841,1594251579436
Fix,GT,37.5925459,-122.3652318,,21.892685,0.1,129.25952,1594251580436
Fix,GT,37.5924213,-122.3650412,,21.708067,0.1,129.80548,1594251581436
Fix,GT,37.5922958,-122.3648521,,21.87664,0.1,130.04468,1594251582436
Fix,GT,37.5921678,-122.3646597,,22.438463,0.1,129.99326,1594251583436
Fix,GT,37.5920364,-122.3644617,,23.061703,0.1,130.01404,1594251584436
Fix,GT,37.5919017,-122.3642591,,23.557749,0.1,130.0755,1594251585436
Fix,GT,37.5917643,-122.3640531,,23.91638,0.1,130.08563,1594251586436
Fix,GT,37.5916253,-122.3638439,,24.213842,0.1,129.91956,1594251587436
Fix,GT,37.5914849,-122.3636313,,24.60426,0.1,129.73523,1594251588436
Fix,GT,37.5913425,-122.3634139,,25.168907,0.1,129.50977,1594251589436
Fix,GT,37.5911974,-122.3631912,,25.63107,0.1,129.45627,1594251590436
Fix,GT,37.5910498,-122.3629658,,25.925316,0.1,129.75598,1594251591436
Fix,GT,37.5908995,-122.3627386,,26.308334,0.1,129.92038,1594251592436
Fix,GT,37.5907465,-122.3625074,,26.792141,0.1,129.83124,1594251593436
Fix,GT,37.5905913,-122.362272,,27.158432,0.1,129.75238,1594251594436
Fix,GT,37.5904351,-122.3620345,,27.219387,0.1,129.67697,1594251595436
Fix,GT,37.5902799,-122.3617972,,27.003096,0.1,129.46326,1594251596436
Fix,GT,37.5901269,-122.3615618,,26.7014,0.1,129.25876,1594251597436
Fix,GT,37.5899761,-122.3613282,,26.406158,0.1,129.11346,1594251598436
Fix,GT,37.5898277,-122.3610968,,26.121819,0.1,128.94263,1594251599436
Fix,GT,37.5896814,-122.3608665,,25.943377,0.1,128.59601,1594251600436
Fix,GT,37.5895369,-122.3606361,,25.889479,0.1,128.09698,1594251601436
Fix,GT,37.5893943,-122.360404,,25.906769,0.1,127.57449,1594251602436
Fix,GT,37.5892533,-122.3601696,,25.98188,0.1,126.8349,1594251603436
Fix,GT,37.5891153,-122.3599318,,25.984028,0.1,125.67566,1594251604436
Fix,GT,37.5889818,-122.3596906,,25.938457,0.1,124.25784,1594251605436
Fix,GT,37.5888535,-122.3594451,,25.951778,0.1,122.6297,1594251606436
Fix,GT,37.5887309,-122.3591946,,25.993412,0.1,120.86743,1594251607436
Fix,GT,37.5886134,-122.3589397,,26.069366,0.1,119.640076,1594251608436
Fix,GT,37.5884986,-122.3586817,,26.108307,0.1,119.07126,1594251609436
Fix,GT,37.5883862,-122.3584223,,26.049309,0.1,118.38034,1594251610436
Fix,GT,37.5882769,-122.3581615,,26.024517,0.1,117.42737,1594251611436
Fix,GT,37.588172,-122.3578983,,25.95722,0.1,116.09918,1594251612436
Fix,GT,37.5880728,-122.3576328,,25.842403,0.1,114.57837,1594251613436
Fix,GT,37.5879788,-122.3573658,,25.71585,0.1,113.39407,1594251614436
Fix,GT,37.5878895,-122.3570977,,25.650593,0.1,112.257416,1594251615436
Fix,GT,37.5878052,-122.3568269,,25.747124,0.1,110.70044,1594251616436
Fix,GT,37.5877266,-122.3565513,,25.970945,0.1,109.1311,1594251617436
Fix,GT,37.5876528,-122.3562711,,26.1333,0.1,107.86197,1594251618436
Fix,GT,37.5875829,-122.3559882,,26.191406,0.1,106.95166,1594251619436
Fix,GT,37.5875165,-122.3557035,,26.1932,0.1,105.94739,1594251620436
Fix,GT,37.5874548,-122.3554178,,26.092808,0.1,104.711975,1594251621436
Fix,GT,37.5873985,-122.355132,,25.913914,0.1,103.31445,1594251622436
Fix,GT,37.5873486,-122.3548463,,25.736145,0.1,101.76578,1594251623436
Fix,GT,37.5873047,-122.3545614,,25.534313,0.1,100.47266,1594251624436
Fix,GT,37.5872664,-122.3542773,,25.386375,0.1,99.1015,1594251625436
Fix,GT,37.5872331,-122.3539929,,25.403759,0.1,98.00876,1594251626436
Fix,GT,37.5872036,-122.3537069,,25.55568,0.1,97.044556,1594251627436
Fix,GT,37.5871781,-122.3534185,,25.686756,0.1,95.92102,1594251628436
Fix,GT,37.5871574,-122.3531283,,25.76231,0.1,94.591064,1594251629436
Fix,GT,37.5871425,-122.3528365,,25.893774,0.1,93.09485,1594251630436
Fix,GT,37.5871327,-122.3525428,,26.026958,0.1,92.07727,1594251631436
Fix,GT,37.5871261,-122.3522474,,26.190197,0.1,91.555084,1594251632436
