MessageType,Provider,LatitudeDegrees,LongitudeDegrees,AltitudeMeters,SpeedMps,AccuracyMeters,BearingDegrees,UnixTimeMillis
Fix,GT,37.4273296,-122.0699089,,0.0004344814,0.1,180.83035,1597354929434
Fix,GT,37.4273296,-122.0699089,,0.001,0.1,180.83041,1597354930434
Fix,GT,37.4273296,-122.0699089,,0.0017944176,0.1,180.83017,1597354931434
Fix,GT,37.4273296,-122.0699089,,0.0022139777,0.1,180.82994,1597354932434
Fix,GT,37.4273296,-122.0699089,,0.0012342455,0.1,180.83012,1597354933434
Fix,GT,37.4273295,-122.0699089,,0.08790061,0.1,180.83238,1597354934434
Fix,GT,37.4273275,-122.0699089,,0.44779557,0.1,180.84836,1597354935434
Fix,GT,37.427321,-122.0699093,,0.987736,0.1,181.52103,1597354936434
Fix,GT,37.4273095,-122.0699105,,1.5952351,0.1,182.89577,1597354937434
Fix,GT,37.4272912,-122.0699122,,2.575679,0.1,183.6553,1597354938434
Fix,GT,37.427262,-122.0699146,,3.9671485,0.1,183.7963,1597354939434
Fix,GT,37.4272192,-122.0699181,,5.4689198,0.1,183.99109,1597354940434
Fix,GT,37.4271647,-122.0699231,,6.47919,0.1,184.43825,1597354941434
Fix,GT,37.4271053,-122.0699285,,6.647538,0.1,184.0078,1597354942434
Fix,GT,37.4270463,-122.0699321,,6.446356,0.1,182.36986,1597354943434
Fix,GT,37.4269899,-122.0699339,,6.0412927,0.1,181.32237,1597354944434
Fix,GT,37.4269391,-122.0699357,,5.1326876,0.1,182.03023,1597354945434
Fix,GT,37.4268987,-122.0699416,,3.8916426,0.1,188.43271,1597354946434
Fix,GT,37.4268703,-122.0699579,,3.130752,0.1,204.68588,1597354947434
Fix,GT,37.4268531,-122.069985,,2.9250813,0.1,228.6065,1597354948434
Fix,GT,37.4268466,-122.0700184,,3.0803237,0.1,251.09045,1597354949434
Fix,GT,37.4268422,-122.0700554,,3.5597725,0.1,259.00653,1597354950434
Fix,GT,37.4268288,-122.0700944,,4.0163736,0.1,246.7536,1597354951434
Fix,GT,37.4268015,-122.0701253,,4.3747206,0.1,222.06438,1597354952434
Fix,GT,37.4267627,-122.0701402,,4.911474,0.1,197.76088,1597354953434
Fix,GT,37.4267144,-122.0701428,,5.901108,0.1,183.2526,1597354954434
Fix,GT,37.4266562,-122.0701408,,6.9656067,0.1,178.98773,1597354955434
Fix,GT,37.4265909,-122.0701386,,7.412084,0.1,178.92078,1597354956434
Fix,GT,37.4265247,-122.0701372,,7.2725263,0.1,179.65906,1597354957434
Fix,GT,37.4264593,-122.0701374,,7.3349705,0.1,180.57962,1597354958434
Fix,GT,37.4263904,-122.070138,,8.056125,0.1,180.6444,1597354959434
Fix,GT,37.4263135,-122.0701382,,9.039335,0.1,180.28223,1597354960434
Fix,GT,37.4262285,-122.0701374,,9.788641,0.1,179.76656,1597354961434
Fix,GT,37.426139,-122.0701359,,10.006016,0.1,179.41516,1597354962434
Fix,GT,37.4260494,-122.0701342,,9.870995,0.1,179.49243,1597354963434
Fix,GT,37.425961,-122.070134,,9.733104,0.1,180.58887,1597354964434
Fix,GT,37.4258745,-122.0701363,,9.46207,0.1,182.06287,1597354965434
Fix,GT,37.4257904,-122.07014,,9.247194,0.1,182.03549,1597354966434
Fix,GT,37.4257076,-122.070142,,9.111228,0.1,180.86461,1597354967434
Fix,GT,37.4256268,-122.070141,,8.793861,0.1,179.24994,1597354968434
Fix,GT,37.4255489,-122.0701388,,8.551819,0.1,179.12268,1597354969434
Fix,GT,37.4254719,-122.0701398,,8.57937,0.1,181.33708,1597354970434
Fix,GT,37.4253945,-122.0701434,,8.579695,0.1,182.23529,1597354971434
Fix,GT,37.425318,-122.070145,,8.329094,0.1,180.49545,1597354972434
Fix,GT,37.425246,-122.0701442,,7.559273,0.1,179.33954,1597354973434
Fix,GT,37.4251831,-122.070142,,6.3971076,0.1,177.92188,1597354974434
Fix,GT,37.4251306,-122.0701337,,5.52627,0.1,170.16986,1597354975434
Fix,GT,37.425088,-122.0701099,,5.067191,0.1,151.9834,1597354976434
Fix,GT,37.425061,-122.0700691,,4.6082945,0.1,126.83969,1597354977434
Fix,GT,37.4250493,-122.0700229,,4.1232924,0.1,108.175446,1597354978434
Fix,GT,37.4250388,-122.0699814,,3.6073918,0.1,109.200195,1597354979434
Fix,GT,37.4250192,-122.0699515,,3.28223,0.1,128.11124,1597354980434
Fix,GT,37.4249904,-122.0699378,,3.499234,0.1,154.84552,1597354981434
Fix,GT,37.4249557,-122.0699435,,4.22521,0.1,184.72223,1597354982434
Fix,GT,37.4249201,-122.0699735,,5.344682,0.1,214.02007,1597354983434
Fix,GT,37.4248911,-122.0700293,,6.5488915,0.1,240.15945,1597354984434
Fix,GT,37.4248768,-122.0701062,,7.56481,0.1,260.4689,1597354985434
Fix,GT,37.4248734,-122.0701959,,8.284218,0.1,269.14755,1597354986434
Fix,GT,37.4248731,-122.0702933,,8.960464,0.1,270.81122,1597354987434
Fix,GT,37.4248735,-122.0703989,,9.790859,0.1,270.94138,1597354988434
Fix,GT,37.4248742,-122.0705148,,10.745651,0.1,270.68442,1597354989434
Fix,GT,37.4248739,-122.0706411,,11.557547,0.1,269.972,1597354990434
Fix,GT,37.4248728,-122.070775,,12.1075735,0.1,269.70523,1597354991434
Fix,GT,37.4248715,-122.0709144,,12.556953,0.1,269.70514,1597354992434
Fix,GT,37.4248708,-122.0710576,,12.724208,0.1,270.1596,1597354993434
Fix,GT,37.4248712,-122.0712009,,12.656314,0.1,270.781,1597354994434
Fix,GT,37.4248726,-122.071344,,12.764776,0.1,270.97202,1597354995434
Fix,GT,37.4248738,-122.0714893,,12.9814415,0.1,270.76648,1597354996434
Fix,GT,37.4248745,-122.0716367,,13.055259,0.1,270.56323,1597354997434
Fix,GT,37.424875,-122.0717839,,12.989809,0.1,270.46057,1597354998434
Fix,GT,37.4248751,-122.0719304,,12.9842415,0.1,270.13458,1597354999434
Fix,GT,37.4248746,-122.072077,,12.966702,0.1,269.92288,1597355000434
Fix,GT,37.4248741,-122.0722231,,12.902682,0.1,269.96002,1597355001434
Fix,GT,37.4248737,-122.0723689,,12.908525,0.1,269.98047,1597355002434
Fix,GT,37.4248732,-122.0725149,,12.943865,0.1,269.90167,1597355003434
Fix,GT,37.4248724,-122.0726616,,13.015676,0.1,269.85233,1597355004434
Fix,GT,37.4248718,-122.0728091,,13.127074,0.1,269.9087,1597355005434
Fix,GT,37.4248712,-122.0729579,,13.203458,0.1,269.96906,1597355006434
Fix,GT,37.4248708,-122.0731071,,13.186624,0.1,270.09662,1597355007434
Fix,GT,37.4248708,-122.0732562,,13.202501,0.1,270.14545,1597355008434
Fix,GT,37.4248703,-122.0734059,,13.3155365,0.1,269.76816,1597355009434
Fix,GT,37.4248687,-122.073557,,13.432849,0.1,269.42102,1597355010434
Fix,GT,37.4248667,-122.0737093,,13.520447,0.1,269.34604,1597355011434
Fix,GT,37.4248649,-122.0738624,,13.576298,0.1,269.5144,1597355012434
Fix,GT,37.4248648,-122.0740161,,13.66253,0.1,270.61508,1597355013434
Fix,GT,37.4248668,-122.0741709,,13.738846,0.1,271.13528,1597355014434
Fix,GT,37.4248679,-122.0743264,,13.805622,0.1,270.37476,1597355015434
Fix,GT,37.4248679,-122.0744829,,13.891511,0.1,270.283,1597355016434
Fix,GT,37.4248687,-122.0746398,,13.864804,0.1,270.65546,1597355017434
Fix,GT,37.4248697,-122.0747955,,13.676271,0.1,270.68604,1597355018434
Fix,GT,37.4248708,-122.0749482,,13.337924,0.1,270.71,1597355019434
Fix,GT,37.4248718,-122.0750972,,13.038005,0.1,270.62088,1597355020434
Fix,GT,37.4248722,-122.0752432,,12.8223,0.1,270.2859,1597355021434
Fix,GT,37.4248722,-122.0753871,,12.6544075,0.1,270.17004,1597355022434
Fix,GT,37.4248722,-122.0755295,,12.552429,0.1,270.25375,1597355023434
Fix,GT,37.424872,-122.0756709,,12.472267,0.1,270.0833,1597355024434
Fix,GT,37.4248716,-122.0758115,,12.419183,0.1,270.02176,1597355025434
Fix,GT,37.4248714,-122.0759516,,12.388978,0.1,270.08932,1597355026434
Fix,GT,37.4248712,-122.0760917,,12.432396,0.1,270.04062,1597355027434
Fix,GT,37.4248708,-122.0762324,,12.479515,0.1,269.90204,1597355028434
Fix,GT,37.4248699,-122.076373,,12.370278,0.1,269.69714,1597355029434
Fix,GT,37.4248687,-122.0765115,,12.177371,0.1,269.74188,1597355030434
Fix,GT,37.4248682,-122.0766483,,12.079588,0.1,270.1345,1597355031434
Fix,GT,37.4248684,-122.0767842,,11.982449,0.1,270.56952,1597355032434
Fix,GT,37.4248692,-122.0769183,,11.734137,0.1,270.7177,1597355033434
Fix,GT,37.4248698,-122.0770491,,11.4101515,0.1,270.44516,1597355034434
Fix,GT,37.4248696,-122.0771758,,11.001258,0.1,270.01245,1597355035434
Fix,GT,37.4248685,-122.0772975,,10.49647,0.1,269.2942,1597355036434
Fix,GT,37.4248656,-122.0774116,,9.646942,0.1,267.8147,1597355037434
Fix,GT,37.4248605,-122.0775132,,8.299471,0.1,266.0973,1597355038434
Fix,GT,37.4248541,-122.0775978,,6.729062,0.1,264.4621,1597355039434
Fix,GT,37.4248481,-122.0776635,,4.9415784,0.1,263.69147,1597355040434
Fix,GT,37.4248448,-122.0777077,,2.9781704,0.1,265.33667,1597355041434
Fix,GT,37.4248441,-122.0777313,,1.2875861,0.1,267.7304,1597355042434
Fix,GT,37.4248442,-122.0777395,,0.28088754,0.1,268.8933,1597355043434
Fix,GT,37.4248443,-122.0777409,,0.042303994,0.1,269.07184,1597355044434
Fix,GT,37.4248444,-122.0777414,,0.045674782,0.1,269.13904,1597355045434
Fix,GT,37.4248446,-122.0777418,,0.032970432,0.1,269.20023,1597355046434
Fix,GT,37.4248448,-122.077742,,0.12809339,0.1,269.2548,1597355047434
Fix,GT,37.424845,-122.0777459,,0.76287997,0.1,269.5918,1597355048434
Fix,GT,37.4248454,-122.0777621,,2.18019,0.1,270.0993,1597355049434
Fix,GT,37.4248457,-122.0777963,,3.8584547,0.1,270.22693,1597355050434
Fix,GT,37.4248447,-122.0778485,,5.239543,0.1,268.117,1597355051434
Fix,GT,37.4248369,-122.0779111,,5.873235,0.1,258.94278,1597355052434
Fix,GT,37.4248152,-122.0779711,,6.0329,0.1,242.72284,1597355053434
Fix,GT,37.4247775,-122.0780234,,6.7534933,0.1,225.52359,1597355054434
Fix,GT,37.4247226,-122.0780661,,7.8176756,0.1,208.88655,1597355055434
Fix,GT,37.4246519,-122.0780923,,8.772839,0.1,193.41974,1597355056434
Fix,GT,37.4245695,-122.0781008,,9.701939,0.1,182.87106,1597355057434
Fix,GT,37.4244781,-122.0780979,,10.558359,0.1,178.01727,1597355058434
Fix,GT,37.4243801,-122.0780904,,11.130278,0.1,176.63593,1597355059434
Fix,GT,37.4242794,-122.0780812,,11.216604,0.1,176.0423,1597355060434
Fix,GT,37.4241795,-122.0780713,,11.015457,0.1,175.82202,1597355061434
Fix,GT,37.4240818,-122.0780623,,10.682538,0.1,176.29498,1597355062434
Fix,GT,37.423988,-122.078054,,10.16031,0.1,176.08514,1597355063434
Fix,GT,37.4239,-122.0780448,,9.389805,0.1,175.10327,1597355064434
Fix,GT,37.4238204,-122.0780354,,8.289724,0.1,174.94775,1597355065434
Fix,GT,37.4237512,-122.078028,,7.074054,0.1,175.65625,1597355066434
Fix,GT,37.4236934,-122.0780232,,5.7309837,0.1,176.86334,1597355067434
Fix,GT,37.4236488,-122.0780205,,4.168999,0.1,177.7937,1597355068434
Fix,GT,37.4236172,-122.078019,,2.968422,0.1,178.01923,1597355069434
Fix,GT,37.4235938,-122.0780179,,2.3194194,0.1,178.04297,1597355070434
Fix,GT,37.423576,-122.078017,,1.5802517,0.1,178.05725,1597355071434
Fix,GT,37.423566,-122.0780165,,0.6387281,0.1,178.0788,1597355072434
Fix,GT,37.4235631,-122.0780164,,0.0860306,0.1,178.08795,1597355073434
Fix,GT,37.4235626,-122.0780164,,0.06913569,0.1,178.09265,1597355074434
Fix,GT,37.4235621,-122.0780164,,0.038175974,0.1,178.0951,1597355075434
Fix,GT,37.423562,-122.0780164,,0.0037579746,0.1,178.09503,1597355076434
Fix,GT,37.423562,-122.0780164,,0.002973479,0.1,178.09454,1597355077434
Fix,GT,37.423562,-122.0780164,,0.0030172258,0.1,178.09448,1597355078434
Fix,GT,37.423562,-122.0780164,,0.002034009,0.1,178.09442,1597355079434
Fix,GT,37.423562,-122.0780164,,0.0014344818,0.1,178.09436,1597355080434
Fix,GT,37.423562,-122.0780164,,0.0021025673,0.1,178.09436,1597355081434
Fix,GT,37.423562,-122.0780164,,0.0018789873,0.1,178.09412,1597355082434
Fix,GT,37.423562,-122.0780164,,0.0016687273,0.1,178.09393,1597355083434
Fix,GT,37.423562,-122.0780164,,0.0021025673,0.1,178.09375,1597355084434
Fix,GT,37.423562,-122.0780164,,0.0022360682,0.1,178.09357,1597355085434
Fix,GT,37.4235619,-122.0780164,,0.059155058,0.1,178.09558,1597355086434
Fix,GT,37.4235595,-122.0780163,,0.5780436,0.1,178.11755,1597355087434
Fix,GT,37.4235493,-122.0780159,,1.7964479,0.1,178.22827,1597355088434
Fix,GT,37.4235261,-122.0780151,,3.3379703,0.1,178.6109,1597355089434
Fix,GT,37.4234885,-122.0780143,,5.050342,0.1,179.22162,1597355090434
Fix,GT,37.4234349,-122.0780139,,6.905049,0.1,179.93188,1597355091434
Fix,GT,37.4233646,-122.0780145,,8.619,0.1,180.71078,1597355092434
Fix,GT,37.4232801,-122.0780159,,10.052782,0.1,180.9747,1597355093434
Fix,GT,37.4231835,-122.0780175,,11.370642,0.1,181.17773,1597355094434
Fix,GT,37.4230755,-122.0780216,,12.615831,0.1,182.44269,1597355095434
Fix,GT,37.4229566,-122.0780299,,13.786123,0.1,183.80998,1597355096434
Fix,GT,37.4228278,-122.0780404,,14.847225,0.1,184.00087,1597355097434
Fix,GT,37.4226896,-122.078051,,15.847664,0.1,183.76367,1597355098434
Fix,GT,37.4225431,-122.0780628,,16.675617,0.1,184.10918,1597355099434
Fix,GT,37.4223901,-122.0780768,,17.300209,0.1,184.54062,1597355100434
Fix,GT,37.4222333,-122.0780907,,17.53262,0.1,183.88715,1597355101434
Fix,GT,37.4220758,-122.078099,,17.461609,0.1,181.64102,1597355102434
Fix,GT,37.4219192,-122.0780989,,17.275187,0.1,179.04175,1597355103434
Fix,GT,37.4217654,-122.07809,,16.900993,0.1,176.45685,1597355104434
Fix,GT,37.4216163,-122.0780728,,16.360275,0.1,173.92627,1597355105434
Fix,GT,37.4214729,-122.0780503,,15.663887,0.1,172.85889,1597355106434
Fix,GT,37.4213359,-122.0780286,,15.027267,0.1,173.52747,1597355107434
Fix,GT,37.4212021,-122.0780124,,14.864796,0.1,175.9544,1597355108434
Fix,GT,37.4210679,-122.078005,,15.043817,0.1,178.76831,1597355109434
Fix,GT,37.4209311,-122.0780037,,15.374161,0.1,180.28304,1597355110434
Fix,GT,37.4207904,-122.0780048,,15.86009,0.1,180.68933,1597355111434
Fix,GT,37.4206451,-122.0780066,,16.389856,0.1,180.91006,1597355112434
Fix,GT,37.4204949,-122.0780088,,16.954638,0.1,181.00085,1597355113434
Fix,GT,37.4203392,-122.0780113,,17.618235,0.1,180.89632,1597355114434
Fix,GT,37.4201778,-122.0780135,,18.225145,0.1,180.84894,1597355115434
Fix,GT,37.4200112,-122.0780156,,18.766325,0.1,180.81778,1597355116434
Fix,GT,37.4198399,-122.0780173,,19.250141,0.1,180.64047,1597355117434
Fix,GT,37.419665,-122.0780184,,19.541111,0.1,180.5155,1597355118434
Fix,GT,37.4194884,-122.0780196,,19.635727,0.1,180.59929,1597355119434
Fix,GT,37.4193114,-122.078021,,19.668423,0.1,180.57578,1597355120434
Fix,GT,37.4191339,-122.0780223,,19.737011,0.1,180.52629,1597355121434
Fix,GT,37.4189555,-122.0780235,,19.869423,0.1,180.54416,1597355122434
Fix,GT,37.4187759,-122.0780243,,19.977852,0.1,180.46617,1597355123434
Fix,GT,37.418596,-122.0780257,,19.931183,0.1,180.6953,1597355124434
Fix,GT,37.4184165,-122.0780285,,19.934498,0.1,181.27971,1597355125434
Fix,GT,37.4182364,-122.0780362,,20.05778,0.1,182.95334,1597355126434
Fix,GT,37.4180555,-122.0780527,,20.18393,0.1,185.25443,1597355127434
Fix,GT,37.4178733,-122.0780727,,20.41026,0.1,184.87856,1597355128434
Fix,GT,37.4176888,-122.0780878,,20.659456,0.1,183.1,1597355129434
Fix,GT,37.417502,-122.0780958,,20.841946,0.1,181.53603,1597355130434
Fix,GT,37.4173137,-122.0780986,,20.946407,0.1,180.52446,1597355131434
Fix,GT,37.4171248,-122.0780991,,20.944748,0.1,180.39311,1597355132434
Fix,GT,37.4169366,-122.0780996,,20.740929,0.1,180.43617,1597355133434
Fix,GT,37.4167525,-122.0781005,,20.033436,0.1,180.53363,1597355134434
Fix,GT,37.4165774,-122.0781018,,18.743774,0.1,180.5979,1597355135434
Fix,GT,37.4164155,-122.0781033,,17.128637,0.1,180.69307,1597355136434
Fix,GT,37.4162695,-122.0781051,,15.280375,0.1,180.95644,1597355137434
Fix,GT,37.4161412,-122.0781079,,13.176729,0.1,181.52939,1597355138434
Fix,GT,37.4160324,-122.0781123,,10.97331,0.1,182.52643,1597355139434
Fix,GT,37.4159433,-122.0781181,,8.887977,0.1,183.6257,1597355140434
Fix,GT,37.4158718,-122.0781236,,7.0327644,0.1,183.79654,1597355141434
Fix,GT,37.4158162,-122.0781272,,5.3865995,0.1,182.99069,1597355142434
Fix,GT,37.4157749,-122.0781292,,3.7648222,0.1,182.3893,1597355143434
Fix,GT,37.4157476,-122.0781304,,2.3263779,0.1,182.24384,1597355144434
Fix,GT,37.4157318,-122.078131,,1.2829776,0.1,182.14882,1597355145434
Fix,GT,37.4157235,-122.0781313,,0.62469304,0.1,182.07533,1597355146434
Fix,GT,37.4157196,-122.0781314,,0.3133712,0.1,182.0373,1597355147434
Fix,GT,37.4157171,-122.0781314,,0.2416488,0.1,182.01167,1597355148434
Fix,GT,37.4157148,-122.0781315,,0.2762372,0.1,181.97809,1597355149434
Fix,GT,37.4157126,-122.0781316,,0.20994295,0.1,181.94395,1597355150434
Fix,GT,37.4157102,-122.0781316,,0.3754863,0.1,181.90657,1597355151434
Fix,GT,37.4157032,-122.0781319,,1.4112211,0.1,181.85834,1597355152434
Fix,GT,37.4156813,-122.0781325,,3.6497428,0.1,181.79002,1597355153434
Fix,GT,37.4156364,-122.0781335,,6.313757,0.1,181.33084,1597355154434
Fix,GT,37.4155698,-122.0781341,,8.358139,0.1,180.58388,1597355155434
Fix,GT,37.4154873,-122.0781342,,9.839872,0.1,180.12976,1597355156434
Fix,GT,37.4153934,-122.0781334,,10.9970255,0.1,179.90015,1597355157434
Fix,GT,37.4152904,-122.0781329,,11.765812,0.1,180.16675,1597355158434
Fix,GT,37.415183,-122.0781344,,11.971699,0.1,181.49266,1597355159434
Fix,GT,37.4150756,-122.0781403,,11.954775,0.1,183.54329,1597355160434
Fix,GT,37.4149656,-122.0781501,,12.620571,0.1,184.3568,1597355161434
Fix,GT,37.4148477,-122.0781595,,13.476917,0.1,183.48994,1597355162434
Fix,GT,37.4147256,-122.0781659,,13.475906,0.1,182.14345,1597355163434
Fix,GT,37.4146066,-122.0781689,,12.848774,0.1,180.95226,1597355164434
Fix,GT,37.4144952,-122.0781693,,11.870623,0.1,180.25092,1597355165434
Fix,GT,37.414392,-122.0781687,,11.010392,0.1,179.85318,1597355166434
Fix,GT,37.414296,-122.0781676,,10.257397,0.1,179.5791,1597355167434
Fix,GT,37.4142079,-122.0781664,,9.246811,0.1,179.77441,1597355168434
Fix,GT,37.4141317,-122.0781661,,7.550864,0.1,180.31094,1597355169434
Fix,GT,37.4140733,-122.0781666,,5.3904805,0.1,180.70215,1597355170434
Fix,GT,37.4140329,-122.0781671,,3.6835814,0.1,180.7332,1597355171434
Fix,GT,37.4140051,-122.0781672,,2.5936687,0.1,180.57115,1597355172434
Fix,GT,37.4139842,-122.0781672,,2.1119385,0.1,180.42473,1597355173434
Fix,GT,37.4139664,-122.0781673,,1.7422464,0.1,180.30939,1597355174434
Fix,GT,37.4139539,-122.0781672,,1.0044132,0.1,180.22275,1597355175434
Fix,GT,37.4139481,-122.0781672,,0.31528053,0.1,180.17671,1597355176434
Fix,GT,37.4139465,-122.0781672,,0.060487244,0.1,180.16188,1597355177434
Fix,GT,37.4139463,-122.0781672,,0.03634145,0.1,180.15894,1597355178434
Fix,GT,37.4139461,-122.0781672,,0.031065594,0.1,180.15715,1597355179434
Fix,GT,37.413946,-122.0781672,,0.013068686,0.1,180.15565,1597355180434
Fix,GT,37.413946,-122.0781672,,0.0014142136,0.1,180.15445,1597355181434
Fix,GT,37.413946,-122.0781672,,0.0014142136,0.1,180.1542,1597355182434
Fix,GT,37.4139459,-122.0781672,,0.0014142136,0.1,180.15431,1597355183434
Fix,GT,37.4139459,-122.0781672,,0.0012342451,0.1,180.15425,1597355184434
Fix,GT,37.4139459,-122.0781672,,0.0011799685,0.1,180.15405,1597355185434
Fix,GT,37.4139459,-122.0781672,,0.0014142136,0.1,180.15378,1597355186434
Fix,GT,37.4139459,-122.0781672,,0.0014142136,0.1,180.15356,1597355187434
Fix,GT,37.4139459,-122.0781672,,0.0014142136,0.1,180.15352,1597355188434
Fix,GT,37.4139459,-122.0781672,,0.0020286643,0.1,180.15366,1597355189434
Fix,GT,37.4139459,-122.0781672,,0.0022139763,0.1,180.1537,1597355190434
Fix,GT,37.4139459,-122.0781672,,0.001234245,0.1,180.15363,1597355191434
Fix,GT,37.4139459,-122.0781672,,0.001,0.1,180.1535,1597355192434
Fix,GT,37.4139459,-122.0781672,,0.0011799685,0.1,180.1533,1597355193434
Fix,GT,37.4139459,-122.0781672,,0.001234245,0.1,180.15303,1597355194434
Fix,GT,37.4139459,-122.0781672,,0.0011799685,0.1,180.15298,1597355195434
Fix,GT,37.4139459,-122.0781673,,0.001234245,0.1,180.1531,1597355196434
Fix,GT,37.4139459,-122.0781673,,0.0011799685,0.1,180.15305,1597355197434
Fix,GT,37.4139459,-122.0781673,,0.001234245,0.1,180.15283,1597355198434
Fix,GT,37.4139459,-122.0781673,,0.01187041,0.1,180.15259,1597355199434
Fix,GT,37.4139446,-122.0781673,,0.3127705,0.1,180.13985,1597355200434
Fix,GT,37.4139374,-122.0781672,,1.4011655,0.1,180.07611,1597355201434
Fix,GT,37.413917,-122.0781672,,3.359993,0.1,179.9455,1597355202434
Fix,GT,37.4138766,-122.0781666,,5.737445,0.1,179.67743,1597355203434
Fix,GT,37.4138151,-122.0781659,,7.8206425,0.1,179.59705,1597355204434
Fix,GT,37.4137379,-122.0781653,,9.197316,0.1,179.97522,1597355205434
Fix,GT,37.4136511,-122.0781654,,10.042774,0.1,180.36238,1597355206434
Fix,GT,37.4135582,-122.0781662,,10.4751835,0.1,180.66568,1597355207434
Fix,GT,37.4134632,-122.0781678,,10.589846,0.1,181.17175,1597355208434
Fix,GT,37.4133683,-122.0781712,,10.493423,0.1,182.29681,1597355209434
Fix,GT,37.413274,-122.078177,,10.611631,0.1,183.38632,1597355210434
Fix,GT,37.4131747,-122.0781844,,11.614208,0.1,183.68568,1597355211434
Fix,GT,37.4130643,-122.0781921,,12.897213,0.1,183.23357,1597355212434
Fix,GT,37.4129431,-122.0781985,,13.992538,0.1,182.35143,1597355213434
Fix,GT,37.4128131,-122.078203,,14.886955,0.1,181.58133,1597355214434
Fix,GT,37.4126759,-122.0782058,,15.573397,0.1,180.97537,1597355215434
Fix,GT,37.4125335,-122.0782076,,16.006062,0.1,180.79793,1597355216434
Fix,GT,37.412389,-122.0782097,,15.98806,0.1,180.90086,1597355217434
Fix,GT,37.4122476,-122.0782119,,15.327786,0.1,181.2178,1597355218434
Fix,GT,37.4121133,-122.0782157,,14.512287,0.1,181.8183,1597355219434
Fix,GT,37.4119852,-122.0782207,,13.942366,0.1,182.1801,1597355220434
Fix,GT,37.4118619,-122.0782257,,13.462391,0.1,181.93303,1597355221434
Fix,GT,37.4117426,-122.0782292,,13.013405,0.1,181.44922,1597355222434
Fix,GT,37.4116281,-122.078232,,12.369314,0.1,181.18587,1597355223434
Fix,GT,37.4115207,-122.0782338,,11.476017,0.1,180.75035,1597355224434
Fix,GT,37.411421,-122.0782347,,10.774565,0.1,180.78723,1597355225434
Fix,GT,37.4113267,-122.0782393,,10.192268,0.1,183.53929,1597355226434
Fix,GT,37.4112393,-122.0782531,,9.419241,0.1,189.58038,1597355227434
Fix,GT,37.4111596,-122.0782805,,9.131981,0.1,198.24396,1597355228434
Fix,GT,37.4110844,-122.0783272,,9.596143,0.1,209.79636,1597355229434
Fix,GT,37.4110159,-122.0783978,,10.161476,0.1,223.7589,1597355230434
Fix,GT,37.4109617,-122.0784927,,10.70076,0.1,239.77246,1597355231434
Fix,GT,37.4109311,-122.0786094,,11.337662,0.1,258.1569,1597355232434
Fix,GT,37.4109332,-122.0787392,,11.932688,0.1,278.42514,1597355233434
Fix,GT,37.410972,-122.0788665,,12.411787,0.1,297.935,1597355234434
Fix,GT,37.4110413,-122.0789774,,12.680613,0.1,314.32962,1597355235434
Fix,GT,37.4111323,-122.0790621,,12.69166,0.1,329.57846,1597355236434
Fix,GT,37.4112377,-122.0791138,,12.64287,0.1,344.70673,1597355237434
Fix,GT,37.4113497,-122.0791305,,12.592408,0.1,359.36713,1597355238434
Fix,GT,37.4114609,-122.0791097,,12.586727,0.1,15.118744,1597355239434
Fix,GT,37.4115624,-122.0790493,,12.585438,0.1,32.62265,1597355240434
Fix,GT,37.4116441,-122.078953,,12.618263,0.1,50.47467,1597355241434
Fix,GT,37.4116995,-122.0788295,,12.762127,0.1,67.64624,1597355242434
Fix,GT,37.411725,-122.078689,,13.07608,0.1,84.23242,1597355243434
Fix,GT,37.4117185,-122.0785394,,13.793527,0.1,99.3624,1597355244434
Fix,GT,37.4116823,-122.0783841,,14.949846,0.1,110.59775,1597355245434
Fix,GT,37.4116252,-122.0782234,,16.131779,0.1,116.17627,1597355246434
Fix,GT,37.4115579,-122.0780547,,17.197195,0.1,117.138336,1597355247434
Fix,GT,37.411485,-122.0778766,,18.169212,0.1,117.64972,1597355248434
Fix,GT,37.4114074,-122.0776902,,19.012447,0.1,118.05792,1597355249434
Fix,GT,37.4113255,-122.0774965,,19.75079,0.1,118.14099,1597355250434
Fix,GT,37.4112408,-122.0772959,,20.380688,0.1,118.06683,1597355251434
Fix,GT,37.4111546,-122.077089,,20.950432,0.1,117.687775,1597355252434
Fix,GT,37.4110672,-122.076876,,21.449406,0.1,117.42685,1597355253434
Fix,GT,37.4109781,-122.0766583,,21.823143,0.1,117.499695,1597355254434
Fix,GT,37.410887,-122.0764381,,22.071167,0.1,117.71936,1597355255434
Fix,GT,37.4107951,-122.0762159,,22.205647,0.1,117.36035,1597355256434
Fix,GT,37.4107046,-122.0759918,,22.256226,0.1,116.79999,1597355257434
Fix,GT,37.4106155,-122.0757659,,22.38596,0.1,116.4545,1597355258434
Fix,GT,37.4105261,-122.0755377,,22.618752,0.1,116.32831,1597355259434
Fix,GT,37.4104354,-122.0753077,,22.753746,0.1,116.7059,1597355260434
Fix,GT,37.4103432,-122.0750779,,22.813995,0.1,117.111206,1597355261434
Fix,GT,37.4102487,-122.0748479,,23.050875,0.1,117.669556,1597355262434
Fix,GT,37.4101506,-122.0746157,,23.431301,0.1,118.50391,1597355263434
Fix,GT,37.4100486,-122.0743825,,23.614954,0.1,119.34131,1597355264434
Fix,GT,37.4099436,-122.0741493,,23.836523,0.1,119.68652,1597355265434
Fix,GT,37.4098374,-122.0739132,,24.115696,0.1,119.41678,1597355266434
Fix,GT,37.4097316,-122.0736751,,24.069569,0.1,119.25525,1597355267434
Fix,GT,37.4096264,-122.0734381,,23.970041,0.1,119.15457,1597355268434
Fix,GT,37.4095216,-122.0732015,,23.933638,0.1,119.24521,1597355269434
Fix,GT,37.4094167,-122.0729668,,23.658417,0.1,119.59827,1597355270434
Fix,GT,37.409312,-122.0727366,,23.229027,0.1,120.03937,1597355271434
Fix,GT,37.4092083,-122.0725111,,22.943031,0.1,120.11261,1597355272434
Fix,GT,37.4091056,-122.0722862,,22.99342,0.1,119.73456,1597355273434
Fix,GT,37.4090031,-122.0720591,,23.205893,0.1,119.733734,1597355274434
Fix,GT,37.4088981,-122.0718315,,23.334373,0.1,120.901794,1597355275434
Fix,GT,37.4087869,-122.0716078,,23.334358,0.1,123.45444,1597355276434
Fix,GT,37.4086667,-122.0713928,,23.155594,0.1,127.16086,1597355277434
Fix,GT,37.4085361,-122.0711922,,22.7474,0.1,131.64935,1597355278434
Fix,GT,37.4083962,-122.0710073,,22.454567,0.1,135.6878,1597355279434
Fix,GT,37.408248,-122.0708362,,22.299986,0.1,139.5907,1597355280434
Fix,GT,37.4080911,-122.07068,,22.242077,0.1,144.00427,1597355281434
Fix,GT,37.4079252,-122.0705399,,22.183418,0.1,148.48822,1597355282434
Fix,GT,37.4077524,-122.0704165,,21.963718,0.1,152.71692,1597355283434
Fix,GT,37.4075749,-122.0703109,,21.676601,0.1,156.94379,1597355284434
Fix,GT,37.4073934,-122.0702228,,21.57145,0.1,161.05273,1597355285434
Fix,GT,37.4072081,-122.0701512,,21.534538,0.1,165.05682,1597355286434
Fix,GT,37.4070191,-122.0700966,,21.585678,0.1,169.43268,1597355287434
Fix,GT,37.4068259,-122.0700603,,21.802319,0.1,173.85419,1597355288434
Fix,GT,37.4066289,-122.0700403,,22.102764,0.1,177.02246,1597355289434
Fix,GT,37.4064282,-122.0700303,,22.52651,0.1,178.70471,1597355290434
Fix,GT,37.4062229,-122.0700255,,23.096436,0.1,179.51752,1597355291434
Fix,GT,37.4060117,-122.0700223,,23.828045,0.1,179.51526,1597355292434
Fix,GT,37.405793,-122.0700184,,24.726055,0.1,179.29431,1597355293434
Fix,GT,37.4055662,-122.0700137,,25.61185,0.1,179.22351,1597355294434
Fix,GT,37.4053318,-122.0700088,,26.41512,0.1,179.27563,1597355295434
Fix,GT,37.4050907,-122.070004,,27.076792,0.1,179.45422,1597355296434
Fix,GT,37.4048444,-122.070001,,27.584427,0.1,179.93774,1597355297434
Fix,GT,37.404594,-122.0700015,,27.993431,0.1,180.49686,1597355298434
Fix,GT,37.4043405,-122.0700043,,28.275753,0.1,180.86084,1597355299434
Fix,GT,37.4040847,-122.0700083,,28.497623,0.1,180.95065,1597355300434
Fix,GT,37.4038273,-122.0700123,,28.64611,0.1,180.9232,1597355301434
Fix,GT,37.403569,-122.0700157,,28.709183,0.1,180.74112,1597355302434
Fix,GT,37.4033108,-122.0700184,,28.609936,0.1,180.73944,1597355303434
Fix,GT,37.4030543,-122.0700214,,28.345207,0.1,180.83713,1597355304434
Fix,GT,37.4027996,-122.0700242,,28.180717,0.1,180.59264,1597355305434
Fix,GT,37.4025454,-122.0700257,,28.266062,0.1,180.37575,1597355306434
Fix,GT,37.4022897,-122.0700264,,28.525383,0.1,180.37268,1597355307434
Fix,GT,37.402031,-122.0700277,,28.866428,0.1,180.51723,1597355308434
Fix,GT,37.4017695,-122.0700298,,29.214445,0.1,180.57166,1597355309434
Fix,GT,37.4015044,-122.0700315,,29.616543,0.1,180.37492,1597355310434
Fix,GT,37.4012361,-122.0700318,,29.863356,0.1,180.09892,1597355311434
Fix,GT,37.4009669,-122.0700301,,29.861694,0.1,179.44,1597355312434
Fix,GT,37.4006986,-122.0700218,,29.73311,0.1,177.75806,1597355313434
Fix,GT,37.4004319,-122.0700013,,29.59957,0.1,175.48645,1597355314434
Fix,GT,37.4001671,-122.0699676,,29.483852,0.1,173.14557,1597355315434
Fix,GT,37.3999048,-122.0699208,,29.360355,0.1,170.8811,1597355316434
Fix,GT,37.3996451,-122.0698626,,29.213312,0.1,169.1366,1597355317434
Fix,GT,37.3993876,-122.0697971,,29.15039,0.1,168.23584,1597355318434
Fix,GT,37.3991309,-122.0697285,,29.110067,0.1,168.06665,1597355319434
Fix,GT,37.3988748,-122.0696599,,28.986435,0.1,168.20679,1597355320434
Fix,GT,37.39862,-122.0695918,,28.853384,0.1,168.12439,1597355321434
Fix,GT,37.3983662,-122.0695233,,28.758625,0.1,168.01654,1597355322434
Fix,GT,37.3981132,-122.0694548,,28.701267,0.1,168.02942,1597355323434
Fix,GT,37.3978605,-122.0693862,,28.659056,0.1,168.00842,1597355324434
Fix,GT,37.3976088,-122.0693181,,28.464602,0.1,168.0315,1597355325434
Fix,GT,37.3973597,-122.0692511,,28.0783,0.1,168.17139,1597355326434
Fix,GT,37.3971143,-122.0691856,,27.619465,0.1,168.11707,1597355327434
Fix,GT,37.3968733,-122.0691202,,27.085308,0.1,167.87976,1597355328434
Fix,GT,37.3966371,-122.0690549,,26.584581,0.1,167.73145,1597355329434
Fix,GT,37.3964048,-122.0689908,,26.233315,0.1,167.82794,1597355330434
Fix,GT,37.3961751,-122.0689283,,25.9179,0.1,168.10175,1597355331434
Fix,GT,37.3959479,-122.0688677,,25.633736,0.1,168.30798,1597355332434
Fix,GT,37.3957223,-122.0688084,,25.637901,0.1,168.52844,1597355333434
Fix,GT,37.3954943,-122.0687516,,26.001154,0.1,169.47815,1597355334434
Fix,GT,37.3952606,-122.0686996,,26.67595,0.1,170.76343,1597355335434
Fix,GT,37.3950194,-122.0686509,,27.540329,0.1,171.21643,1597355336434
Fix,GT,37.3947707,-122.068602,,28.30963,0.1,171.5221,1597355337434
Fix,GT,37.3945153,-122.0685563,,28.940739,0.1,172.83191,1597355338434
Fix,GT,37.3942539,-122.0685195,,29.43817,0.1,174.95215,1597355339434
Fix,GT,37.393988,-122.0684952,,29.730635,0.1,177.11597,1597355340434
Fix,GT,37.3937207,-122.0684825,,29.5994,0.1,178.83734,1597355341434
Fix,GT,37.3934555,-122.0684784,,29.261753,0.1,180.20471,1597355342434
Fix,GT,37.3931924,-122.0684818,,29.148567,0.1,181.46724,1597355343434
Fix,GT,37.39293,-122.0684925,,29.118523,0.1,182.77124,1597355344434
Fix,GT,37.3926683,-122.0685105,,29.076092,0.1,183.96619,1597355345434
Fix,GT,37.3924067,-122.0685343,,29.155697,0.1,184.74174,1597355346434
Fix,GT,37.3921443,-122.0685608,,29.265541,0.1,184.84937,1597355347434
Fix,GT,37.391881,-122.0685864,,29.337276,0.1,184.52704,1597355348434
Fix,GT,37.3916173,-122.0686109,,29.31222,0.1,184.39769,1597355349434
Fix,GT,37.3913548,-122.0686351,,29.082775,0.1,184.48781,1597355350434
Fix,GT,37.3910957,-122.0686598,,28.56641,0.1,184.67316,1597355351434
Fix,GT,37.3908422,-122.0686852,,27.880627,0.1,184.91615,1597355352434
Fix,GT,37.3905948,-122.068711,,27.25001,0.1,184.98112,1597355353434
Fix,GT,37.3903522,-122.0687356,,26.80429,0.1,184.639,1597355354434
Fix,GT,37.3901124,-122.0687578,,26.59719,0.1,184.22118,1597355355434
Fix,GT,37.3898741,-122.0687784,,26.432945,0.1,184.13528,1597355356434
Fix,GT,37.3896372,-122.0687992,,26.272072,0.1,184.26575,1597355357434
Fix,GT,37.3894016,-122.06882,,26.176071,0.1,184.19662,1597355358434
Fix,GT,37.3891664,-122.0688402,,26.132812,0.1,184.05428,1597355359434
Fix,GT,37.3889316,-122.0688584,,26.116962,0.1,183.25484,1597355360434
Fix,GT,37.3886967,-122.0688698,,26.130442,0.1,181.40495,1597355361434
Fix,GT,37.3884606,-122.0688719,,26.356747,0.1,179.63991,1597355362434
Fix,GT,37.3882215,-122.0688655,,26.759201,0.1,178.24158,1597355363434
Fix,GT,37.3879791,-122.0688516,,27.049995,0.1,176.65814,1597355364434
Fix,GT,37.3877344,-122.0688288,,27.428465,0.1,175.16888,1597355365434
Fix,GT,37.3874865,-122.0687999,,27.834269,0.1,174.6817,1597355366434
Fix,GT,37.3872361,-122.0687706,,27.910215,0.1,175.02734,1597355367434
Fix,GT,37.3869862,-122.0687429,,27.735142,0.1,175.19067,1597355368434
Fix,GT,37.3867381,-122.0687161,,27.518497,0.1,175.22528,1597355369434
Fix,GT,37.3864918,-122.0686891,,27.345333,0.1,175.13867,1597355370434
Fix,GT,37.3862474,-122.0686614,,27.094028,0.1,175.04968,1597355371434
Fix,GT,37.386005,-122.068634,,26.974106,0.1,175.0603,1597355372434
Fix,GT,37.3857624,-122.0686062,,27.146873,0.1,174.94849,1597355373434
Fix,GT,37.3855179,-122.0685781,,27.324677,0.1,175.03271,1597355374434
Fix,GT,37.3852725,-122.068551,,27.29462,0.1,175.28705,1597355375434
Fix,GT,37.3850286,-122.0685253,,27.00232,0.1,175.47552,1597355376434
Fix,GT,37.3847882,-122.0685002,,26.559654,0.1,175.4574,1597355377434
Fix,GT,37.3845512,-122.0684749,,26.307362,0.1,175.21106,1597355378434
Fix,GT,37.384315,-122.0684481,,26.427608,0.1,174.80463,1597355379434
Fix,GT,37.3840767,-122.068419,,26.662464,0.1,174.51074,1597355380434
Fix,GT,37.383837,-122.0683894,,26.804203,0.1,174.67505,1597355381434
Fix,GT,37.3835953,-122.0683603,,27.07935,0.1,174.77484,1597355382434
Fix,GT,37.3833511,-122.0683315,,27.313961,0.1,174.9054,1597355383434
Fix,GT,37.3831062,-122.0683039,,27.21507,0.1,175.25385,1597355384434
Fix,GT,37.3828623,-122.0682779,,27.161655,0.1,175.43787,1597355385434
Fix,GT,37.3826177,-122.0682521,,27.369808,0.1,175.40161,1597355386434
Fix,GT,37.3823704,-122.0682256,,27.766907,0.1,175.25983,1597355387434
Fix,GT,37.3821196,-122.0681984,,28.107904,0.1,175.284,1597355388434
Fix,GT,37.3818662,-122.0681713,,28.3264,0.1,175.39685,1597355389434
Fix,GT,37.381611,-122.0681443,,28.52446,0.1,175.30359,1597355390434
Fix,GT,37.3813538,-122.0681164,,28.7612,0.1,175.27124,1597355391434
Fix,GT,37.3810946,-122.0680884,,28.96321,0.1,175.31787,1597355392434
Fix,GT,37.3808342,-122.0680605,,29.015884,0.1,175.32831,1597355393434
Fix,GT,37.3805742,-122.0680324,,28.903385,0.1,175.24316,1597355394434
Fix,GT,37.3803158,-122.0680039,,28.668882,0.1,175.1424,1597355395434
Fix,GT,37.3800597,-122.0679755,,28.372314,0.1,175.16638,1597355396434
Fix,GT,37.3798064,-122.0679478,,28.090681,0.1,175.29736,1597355397434
Fix,GT,37.3795549,-122.067921,,27.949112,0.1,175.37805,1597355398434
Fix,GT,37.3793038,-122.067894,,28.008894,0.1,175.22601,1597355399434
Fix,GT,37.3790518,-122.0678661,,28.142971,0.1,175.11646,1597355400434
Fix,GT,37.3787987,-122.067838,,28.215706,0.1,175.25104,1597355401434
Fix,GT,37.3785452,-122.0678114,,28.232113,0.1,175.6153,1597355402434
Fix,GT,37.3782915,-122.0677877,,28.233418,0.1,176.37738,1597355403434
Fix,GT,37.3780378,-122.0677695,,28.160131,0.1,177.71844,1597355404434
Fix,GT,37.3777844,-122.0677602,,28.120264,0.1,179.47723,1597355405434
Fix,GT,37.3775311,-122.0677612,,28.074505,0.1,181.43724,1597355406434
Fix,GT,37.3772786,-122.0677732,,27.998951,0.1,183.38977,1597355407434
Fix,GT,37.377027,-122.067795,,27.952076,0.1,185.02339,1597355408434
Fix,GT,37.3767765,-122.0678246,,27.901314,0.1,186.12134,1597355409434
Fix,GT,37.3765269,-122.0678582,,27.818277,0.1,186.5257,1597355410434
Fix,GT,37.3762782,-122.0678923,,27.743076,0.1,186.37457,1597355411434
Fix,GT,37.3760295,-122.0679247,,27.762043,0.1,185.96019,1597355412434
Fix,GT,37.3757811,-122.0679556,,27.605099,0.1,185.78575,1597355413434
Fix,GT,37.3755353,-122.0679844,,27.179415,0.1,185.22324,1597355414434
Fix,GT,37.3752932,-122.0680078,,26.740286,0.1,183.76894,1597355415434
Fix,GT,37.3750537,-122.0680219,,26.55521,0.1,181.67043,1597355416434
Fix,GT,37.3748145,-122.0680233,,26.590483,0.1,179.08662,1597355417434
Fix,GT,37.3745753,-122.0680116,,26.57394,0.1,176.66364,1597355418434
Fix,GT,37.3743368,-122.0679881,,26.555792,0.1,174.53918,1597355419434
Fix,GT,37.374099,-122.0679531,,26.63785,0.1,172.2179,1597355420434
Fix,GT,37.3738617,-122.0679048,,26.75448,0.1,169.55164,1597355421434
Fix,GT,37.3736263,-122.0678424,,26.675922,0.1,166.81384,1597355422434
Fix,GT,37.3733949,-122.067767,,26.38765,0.1,164.28748,1597355423434
Fix,GT,37.3731689,-122.0676804,,26.136995,0.1,161.98956,1597355424434
Fix,GT,37.3729468,-122.0675833,,26.179035,0.1,159.76581,1597355425434
Fix,GT,37.3727265,-122.0674744,,26.500643,0.1,157.38239,1597355426434
Fix,GT,37.3725066,-122.0673525,,26.895441,0.1,155.2367,1597355427434
Fix,GT,37.3722864,-122.0672201,,27.34214,0.1,153.96399,1597355428434
Fix,GT,37.3720639,-122.0670817,,27.822218,0.1,153.74158,1597355429434
Fix,GT,37.3718373,-122.0669419,,28.216906,0.1,154.22327,1597355430434
Fix,GT,37.3716073,-122.0668024,,28.50076,0.1,154.4997,1597355431434
Fix,GT,37.3713747,-122.0666624,,28.759007,0.1,154.53674,1597355432434
Fix,GT,37.3711404,-122.0665211,,28.964638,0.1,154.51465,1597355433434
Fix,GT,37.3709049,-122.066379,,29.039383,0.1,154.52655,1597355434434
Fix,GT,37.3706698,-122.0662372,,28.890991,0.1,154.55573,1597355435434
Fix,GT,37.3704365,-122.0660963,,28.600306,0.1,154.47156,1597355436434
Fix,GT,37.3702057,-122.0659563,,28.331764,0.1,154.24622,1597355437434
Fix,GT,37.3699771,-122.0658166,,28.083956,0.1,154.11609,1597355438434
Fix,GT,37.3697507,-122.0656779,,27.818953,0.1,154.25604,1597355439434
Fix,GT,37.3695264,-122.0655414,,27.519463,0.1,154.2799,1597355440434
Fix,GT,37.3693046,-122.0654064,,27.223736,0.1,154.30774,1597355441434
Fix,GT,37.3690844,-122.0652728,,27.102137,0.1,154.42212,1597355442434
Fix,GT,37.3688641,-122.0651397,,27.198145,0.1,154.43402,1597355443434
Fix,GT,37.368643,-122.0650057,,27.250126,0.1,154.39783,1597355444434
Fix,GT,37.3684223,-122.0648722,,27.09507,0.1,154.48975,1597355445434
Fix,GT,37.3682031,-122.06474,,26.942587,0.1,154.49585,1597355446434
Fix,GT,37.3679841,-122.0646078,,27.05967,0.1,154.47302,1597355447434
Fix,GT,37.3677634,-122.0644745,,27.328537,0.1,154.4469,1597355448434
Fix,GT,37.3675406,-122.0643393,,27.640707,0.1,154.28082,1597355449434
Fix,GT,37.3673156,-122.0642023,,27.88856,0.1,154.32104,1597355450434
Fix,GT,37.3670887,-122.0640653,,27.979046,0.1,154.65784,1597355451434
Fix,GT,37.3668606,-122.0639295,,28.071198,0.1,154.90613,1597355452434
Fix,GT,37.3666314,-122.0637953,,28.085749,0.1,155.56848,1597355453434
Fix,GT,37.3664005,-122.0636667,,28.006157,0.1,157.17218,1597355454434
Fix,GT,37.3661667,-122.0635477,,28.062035,0.1,159.25793,1597355455434
Fix,GT,37.3659286,-122.0634395,,28.183311,0.1,161.59296,1597355456434
Fix,GT,37.3656862,-122.0633432,,28.267315,0.1,163.8667,1597355457434
Fix,GT,37.3654404,-122.0632584,,28.301775,0.1,166.01239,1597355458434
Fix,GT,37.3651925,-122.063186,,28.16665,0.1,168.2873,1597355459434
Fix,GT,37.3649448,-122.0631261,,27.871504,0.1,170.3645,1597355460434
Fix,GT,37.3646976,-122.0630773,,27.707264,0.1,172.30835,1597355461434
Fix,GT,37.3644498,-122.0630395,,27.714693,0.1,174.32031,1597355462434
Fix,GT,37.3642008,-122.0630133,,27.735012,0.1,176.64142,1597355463434
Fix,GT,37.3639512,-122.0629995,,27.753391,0.1,178.79486,1597355464434
Fix,GT,37.3637008,-122.0629951,,27.851414,0.1,180.06726,1597355465434
Fix,GT,37.3634491,-122.0629959,,28.044235,0.1,180.7099,1597355466434
Fix,GT,37.3631954,-122.0629998,,28.259426,0.1,181.08502,1597355467434
Fix,GT,37.3629398,-122.0630051,,28.453814,0.1,181.1492,1597355468434
Fix,GT,37.3626827,-122.0630103,,28.60884,0.1,181.12383,1597355469434
Fix,GT,37.3624245,-122.0630153,,28.688356,0.1,181.10518,1597355470434
Fix,GT,37.3621662,-122.0630204,,28.66127,0.1,181.16603,1597355471434
Fix,GT,37.3619081,-122.0630262,,28.660917,0.1,181.27231,1597355472434
Fix,GT,37.3616495,-122.063032,,28.763885,0.1,181.23729,1597355473434
Fix,GT,37.3613898,-122.0630376,,28.876434,0.1,181.17723,1597355474434
Fix,GT,37.3611293,-122.0630432,,28.938492,0.1,181.2255,1597355475434
Fix,GT,37.3608685,-122.063049,,28.979889,0.1,181.22638,1597355476434
Fix,GT,37.360607,-122.0630547,,29.099373,0.1,181.19032,1597355477434
Fix,GT,37.360344,-122.0630607,,29.282207,0.1,181.27318,1597355478434
Fix,GT,37.3600794,-122.063067,,29.466938,0.1,181.2846,1597355479434
Fix,GT,37.3598131,-122.0630723,,29.611565,0.1,180.83997,1597355480434
Fix,GT,37.3595464,-122.063074,,29.57725,0.1,179.95206,1597355481434
Fix,GT,37.3592802,-122.0630694,,29.532482,0.1,178.74554,1597355482434
Fix,GT,37.3590138,-122.0630576,,29.634102,0.1,177.54742,1597355483434
Fix,GT,37.3587468,-122.0630392,,29.700459,0.1,176.44116,1597355484434
Fix,GT,37.3584801,-122.0630141,,29.687748,0.1,175.24188,1597355485434
Fix,GT,37.3582136,-122.0629812,,29.77509,0.1,173.86377,1597355486434
Fix,GT,37.3579465,-122.0629407,,29.927753,0.1,172.69666,1597355487434
Fix,GT,37.3576792,-122.0628938,,29.993061,0.1,171.61285,1597355488434
Fix,GT,37.3574123,-122.0628402,,30.012344,0.1,170.4588,1597355489434
Fix,GT,37.3571463,-122.0627802,,29.980844,0.1,169.44458,1597355490434
Fix,GT,37.3568816,-122.0627147,,29.915894,0.1,168.48389,1597355491434
Fix,GT,37.3566184,-122.0626434,,29.861217,0.1,167.38403,1597355492434
Fix,GT,37.3563567,-122.0625658,,29.833475,0.1,166.23572,1597355493434
Fix,GT,37.3560967,-122.0624818,,29.76213,0.1,165.2168,1597355494434
Fix,GT,37.3558392,-122.0623927,,29.49467,0.1,164.20361,1597355495434
Fix,GT,37.3555866,-122.0622988,,29.019592,0.1,163.0476,1597355496434
Fix,GT,37.3553396,-122.0622001,,28.530428,0.1,161.87823,1597355497434
Fix,GT,37.3550983,-122.0620972,,28.07576,0.1,160.85388,1597355498434
Fix,GT,37.354862,-122.0619905,,27.67936,0.1,159.82666,1597355499434
Fix,GT,37.3546301,-122.0618798,,27.43998,0.1,158.789,1597355500434
Fix,GT,37.354401,-122.0617652,,27.33739,0.1,158.13611,1597355501434
Fix,GT,37.3541728,-122.0616493,,27.309742,0.1,158.18073,1597355502434
Fix,GT,37.3539442,-122.0615341,,27.424953,0.1,158.32422,1597355503434
Fix,GT,37.3537142,-122.0614184,,27.610008,0.1,158.30762,1597355504434
Fix,GT,37.3534831,-122.0613021,,27.671768,0.1,158.37097,1597355505434
Fix,GT,37.3532515,-122.0611861,,27.681969,0.1,158.56421,1597355506434
Fix,GT,37.3530194,-122.0610723,,27.632446,0.1,159.28748,1597355507434
Fix,GT,37.3527865,-122.0609642,,27.52108,0.1,160.54279,1597355508434
Fix,GT,37.3525526,-122.0608629,,27.427979,0.1,161.70972,1597355509434
Fix,GT,37.3523178,-122.0607672,,27.397213,0.1,162.6922,1597355510434
Fix,GT,37.3520818,-122.0606767,,27.391422,0.1,163.76001,1597355511434
Fix,GT,37.3518445,-122.0605921,,27.384277,0.1,164.95605,1597355512434
Fix,GT,37.3516057,-122.0605133,,27.442162,0.1,165.97937,1597355513434
Fix,GT,37.351365,-122.0604392,,27.615881,0.1,166.87848,1597355514434
Fix,GT,37.3511214,-122.0603699,,27.84399,0.1,168.00897,1597355515434
Fix,GT,37.3508745,-122.0603066,,28.095112,0.1,169.27283,1597355516434
Fix,GT,37.3506243,-122.0602491,,28.336922,0.1,170.40192,1597355517434
Fix,GT,37.3503717,-122.0601973,,28.47227,0.1,171.474,1597355518434
Fix,GT,37.3501176,-122.0601514,,28.514029,0.1,172.58539,1597355519434
Fix,GT,37.3498628,-122.0601118,,28.457237,0.1,173.72827,1597355520434
Fix,GT,37.3496081,-122.0600779,,28.407562,0.1,174.61804,1597355521434
Fix,GT,37.3493526,-122.060049,,28.5136,0.1,175.54138,1597355522434
Fix,GT,37.3490955,-122.0600255,,28.698505,0.1,176.60583,1597355523434
Fix,GT,37.3488366,-122.060008,,28.862244,0.1,177.60272,1597355524434
Fix,GT,37.3485762,-122.0599954,,28.982994,0.1,178.47528,1597355525434
Fix,GT,37.3483147,-122.0599879,,29.06108,0.1,179.39453,1597355526434
Fix,GT,37.3480527,-122.0599854,,29.075436,0.1,180.16241,1597355527434
Fix,GT,37.3477909,-122.0599857,,29.034616,0.1,180.31831,1597355528434
Fix,GT,37.3475296,-122.059986,,28.97026,0.1,180.18286,1597355529434
Fix,GT,37.3472689,-122.0599855,,28.874168,0.1,180.18309,1597355530434
Fix,GT,37.3470095,-122.0599855,,28.704578,0.1,180.30421,1597355531434
Fix,GT,37.3467517,-122.0599862,,28.506924,0.1,180.348,1597355532434
Fix,GT,37.3464957,-122.0599867,,28.303513,0.1,180.23605,1597355533434
Fix,GT,37.3462416,-122.0599865,,28.084396,0.1,180.16176,1597355534434
Fix,GT,37.3459895,-122.0599861,,27.883453,0.1,180.16393,1597355535434
Fix,GT,37.3457388,-122.0599855,,27.778221,0.1,180.06696,1597355536434
Fix,GT,37.3454884,-122.0599843,,27.830761,0.1,179.95555,1597355537434
Fix,GT,37.3452371,-122.0599826,,27.983484,0.1,179.89752,1597355538434
Fix,GT,37.344984,-122.0599807,,28.210915,0.1,179.82684,1597355539434
Fix,GT,37.3447284,-122.0599782,,28.536324,0.1,179.72327,1597355540434
Fix,GT,37.3444696,-122.0599751,,28.893124,0.1,179.70624,1597355541434
Fix,GT,37.3442076,-122.059972,,29.25989,0.1,179.60846,1597355542434
Fix,GT,37.3439426,-122.0599679,,29.604637,0.1,179.44708,1597355543434
Fix,GT,37.3436741,-122.0599632,,30.004192,0.1,179.42035,1597355544434
Fix,GT,37.3434016,-122.0599585,,30.507437,0.1,179.37994,1597355545434
Fix,GT,37.3431244,-122.0599529,,31.037498,0.1,179.22864,1597355546434
Fix,GT,37.3428428,-122.059947,,31.432325,0.1,179.36938,1597355547434
Fix,GT,37.3425588,-122.059943,,31.568768,0.1,179.88843,1597355548434
Fix,GT,37.3422749,-122.059942,,31.383366,0.1,180.24089,1597355549434
Fix,GT,37.3419935,-122.0599424,,31.086878,0.1,180.24422,1597355550434
Fix,GT,37.3417147,-122.0599424,,30.825397,0.1,180.16432,1597355551434
Fix,GT,37.3414378,-122.0599418,,30.669703,0.1,180.09068,1597355552434
Fix,GT,37.3411617,-122.059941,,30.60759,0.1,180.07822,1597355553434
Fix,GT,37.3408862,-122.0599403,,30.567837,0.1,180.11357,1597355554434
Fix,GT,37.3406109,-122.0599398,,30.555794,0.1,180.18338,1597355555434
Fix,GT,37.3403356,-122.0599398,,30.532087,0.1,180.284,1597355556434
Fix,GT,37.340061,-122.0599407,,30.398502,0.1,180.41818,1597355557434
Fix,GT,37.3397889,-122.0599419,,29.888193,0.1,180.37299,1597355558434
Fix,GT,37.3395241,-122.0599418,,28.759846,0.1,180.02019,1597355559434
Fix,GT,37.3392721,-122.0599391,,27.141136,0.1,179.38782,1597355560434
Fix,GT,37.3390345,-122.0599334,,25.68457,0.1,178.729,1597355561434
Fix,GT,37.3388079,-122.0599245,,24.754732,0.1,178.00354,1597355562434
Fix,GT,37.3385881,-122.0599119,,24.084501,0.1,177.08423,1597355563434
Fix,GT,37.3383737,-122.0598957,,23.637127,0.1,176.39838,1597355564434
Fix,GT,37.3381622,-122.0598769,,23.496578,0.1,175.79718,1597355565434
Fix,GT,37.3379496,-122.0598539,,24.025257,0.1,174.44702,1597355566434
Fix,GT,37.3377304,-122.0598203,,25.239914,0.1,172.04883,1597355567434
Fix,GT,37.3374995,-122.0597727,,26.852955,0.1,169.82593,1597355568434
Fix,GT,37.3372544,-122.0597121,,28.579193,0.1,168.3476,1597355569434
Fix,GT,37.3369963,-122.059643,,29.988953,0.1,168.00012,1597355570434
Fix,GT,37.3367271,-122.0595704,,31.11437,0.1,168.0307,1597355571434
Fix,GT,37.3364497,-122.059495,,31.78208,0.1,167.93799,1597355572434
Fix,GT,37.3361691,-122.0594182,,31.884304,0.1,167.8894,1597355573434
Fix,GT,37.3358895,-122.0593428,,31.545704,0.1,168.35614,1597355574434
Fix,GT,37.3356133,-122.0592725,,30.97953,0.1,169.29706,1597355575434
Fix,GT,37.3353419,-122.0592091,,30.233376,0.1,170.14532,1597355576434
Fix,GT,37.3350779,-122.059153,,29.120735,0.1,171.05066,1597355577434
Fix,GT,37.334825,-122.0591038,,27.624935,0.1,171.73358,1597355578434
Fix,GT,37.3345865,-122.0590596,,25.783918,0.1,171.6051,1597355579434
Fix,GT,37.3343675,-122.0590163,,23.342907,0.1,170.64905,1597355580434
Fix,GT,37.3341724,-122.0589742,,20.613548,0.1,170.36298,1597355581434
Fix,GT,37.3339984,-122.0589404,,18.595638,0.1,172.72357,1597355582434
Fix,GT,37.333836,-122.0589249,,17.822279,0.1,178.80176,1597355583434
Fix,GT,37.333677,-122.0589377,,17.672516,0.1,188.12811,1597355584434
Fix,GT,37.3335237,-122.0589853,,17.585228,0.1,199.14972,1597355585434
Fix,GT,37.3333814,-122.0590701,,17.645266,0.1,211.00989,1597355586434
Fix,GT,37.3332556,-122.0591909,,17.827883,0.1,223.0817,1597355587434
Fix,GT,37.3331494,-122.0593436,,18.210876,0.1,233.9935,1597355588434
Fix,GT,37.3330642,-122.0595218,,18.753433,0.1,243.686,1597355589434
Fix,GT,37.3330004,-122.0597205,,19.321547,0.1,251.82979,1597355590434
Fix,GT,37.3329538,-122.0599359,,20.219685,0.1,257.74918,1597355591434
Fix,GT,37.3329226,-122.0601672,,21.325817,0.1,263.58838,1597355592434
Fix,GT,37.3329102,-122.0604143,,22.560905,0.1,269.53027,1597355593434
Fix,GT,37.3329185,-122.0606761,,23.897717,0.1,275.4591,1597355594434
Fix,GT,37.3329503,-122.0609493,,25.042048,0.1,281.5795,1597355595434
Fix,GT,37.3330063,-122.0612286,,25.988617,0.1,286.9358,1597355596434
Fix,GT,37.3330818,-122.0615118,,26.917461,0.1,290.10815,1597355597434
Fix,GT,37.3331682,-122.0617991,,27.405859,0.1,291.547,1597355598434
Fix,GT,37.333259,-122.0620855,,27.120214,0.1,292.22794,1597355599434
Fix,GT,37.3333503,-122.062366,,26.564705,0.1,292.4622,1597355600434
Fix,GT,37.3334385,-122.0626413,,26.075527,0.1,291.7414,1597355601434
Fix,GT,37.3335222,-122.062915,,25.97586,0.1,290.7398,1597355602434
Fix,GT,37.333605,-122.0631915,,26.448208,0.1,290.9572,1597355603434
Fix,GT,37.3336929,-122.0634739,,27.293217,0.1,292.0706,1597355604434
Fix,GT,37.3337887,-122.063764,,28.3373,0.1,293.05832,1597355605434
Fix,GT,37.33389,-122.0640638,,29.340847,0.1,293.00464,1597355606434
Fix,GT,37.3339922,-122.0643742,,30.115292,0.1,291.87646,1597355607434
Fix,GT,37.3340896,-122.0646944,,30.622746,0.1,289.96564,1597355608434
Fix,GT,37.3341792,-122.0650236,,31.05016,0.1,287.87854,1597355609434
Fix,GT,37.3342599,-122.065361,,31.398056,0.1,285.56387,1597355610434
Fix,GT,37.3343303,-122.0657053,,31.606125,0.1,283.25568,1597355611434
Fix,GT,37.3343902,-122.0660548,,31.754808,0.1,281.0442,1597355612434
Fix,GT,37.3344395,-122.0664077,,31.761505,0.1,278.97632,1597355613434
Fix,GT,37.3344788,-122.0667614,,31.48386,0.1,277.02893,1597355614434
Fix,GT,37.3345077,-122.0671118,,30.935225,0.1,274.88977,1597355615434
Fix,GT,37.334526,-122.0674564,,30.29791,0.1,272.8575,1597355616434
Fix,GT,37.3345346,-122.0677948,,29.767044,0.1,270.98315,1597355617434
Fix,GT,37.3345344,-122.0681285,,29.423145,0.1,269.11578,1597355618434
Fix,GT,37.3345255,-122.0684593,,29.250298,0.1,267.19858,1597355619434
Fix,GT,37.3345072,-122.0687884,,29.274626,0.1,265.11432,1597355620434
Fix,GT,37.3344792,-122.069118,,29.537895,0.1,262.9991,1597355621434
Fix,GT,37.3344409,-122.06945,,29.969849,0.1,260.78943,1597355622434
Fix,GT,37.3343923,-122.0697847,,30.288925,0.1,258.89743,1597355623434
Fix,GT,37.3343362,-122.0701192,,30.263786,0.1,257.69427,1597355624434
Fix,GT,37.3342762,-122.0704508,,29.992815,0.1,257.15982,1597355625434
Fix,GT,37.3342151,-122.0707792,,29.809643,0.1,256.99063,1597355626434
Fix,GT,37.3341534,-122.0711065,,29.788136,0.1,256.86472,1597355627434
Fix,GT,37.334091,-122.0714333,,29.759659,0.1,256.61853,1597355628434
Fix,GT,37.3340282,-122.0717597,,29.754528,0.1,256.76553,1597355629434
Fix,GT,37.333967,-122.0720869,,29.814098,0.1,257.22998,1597355630434
Fix,GT,37.3339068,-122.0724151,,29.870953,0.1,257.25522,1597355631434
Fix,GT,37.3338463,-122.0727438,,29.88525,0.1,257.19553,1597355632434
Fix,GT,37.3337874,-122.0730724,,29.798452,0.1,258.11914,1597355633434
Fix,GT,37.3337358,-122.0734016,,29.680384,0.1,260.3729,1597355634434
Fix,GT,37.3336946,-122.0737322,,29.669893,0.1,262.3381,1597355635434
Fix,GT,37.3336618,-122.0740649,,29.759659,0.1,264.2749,1597355636434
Fix,GT,37.3336394,-122.0744002,,29.910227,0.1,266.9198,1597355637434
Fix,GT,37.33363,-122.0747383,,30.09989,0.1,269.51212,1597355638434
Fix,GT,37.3336314,-122.0750792,,30.314304,0.1,271.6023,1597355639434
Fix,GT,37.3336423,-122.0754222,,30.544806,0.1,273.63913,1597355640434
Fix,GT,37.3336641,-122.075767,,30.762966,0.1,276.03867,1597355641434
Fix,GT,37.3336973,-122.0761126,,30.967793,0.1,278.36322,1597355642434
Fix,GT,37.3337421,-122.0764585,,31.15828,0.1,280.78473,1597355643434
Fix,GT,37.3338001,-122.0768035,,31.355637,0.1,283.8151,1597355644434
Fix,GT,37.3338736,-122.0771462,,31.581814,0.1,286.72693,1597355645434
Fix,GT,37.3339595,-122.077487,,31.813854,0.1,288.87112,1597355646434
Fix,GT,37.334056,-122.0778263,,32.076565,0.1,291.20013,1597355647434
Fix,GT,37.334165,-122.0781628,,32.366028,0.1,293.8977,1597355648434
Fix,GT,37.3342888,-122.078495,,32.65001,0.1,296.74063,1597355649434
Fix,GT,37.3344258,-122.0788228,,32.909378,0.1,299.186,1597355650434
Fix,GT,37.3345748,-122.0791443,,32.97184,0.1,301.8451,1597355651434
Fix,GT,37.3347357,-122.0794564,,32.882195,0.1,304.5829,1597355652434
Fix,GT,37.3349078,-122.0797588,,33.003242,0.1,307.0652,1597355653434
Fix,GT,37.3350916,-122.0800535,,33.294178,0.1,309.62704,1597355654434
Fix,GT,37.3352874,-122.0803403,,33.606945,0.1,312.06046,1597355655434
Fix,GT,37.3354936,-122.0806207,,33.980896,0.1,313.76154,1597355656434
Fix,GT,37.3357071,-122.0808985,,34.371193,0.1,314.4757,1597355657434
Fix,GT,37.3359246,-122.0811775,,34.73435,0.1,314.5331,1597355658434
Fix,GT,37.3361438,-122.0814601,,35.097466,0.1,314.27948,1597355659434
Fix,GT,37.3363642,-122.0817463,,35.351578,0.1,314.08295,1597355660434
Fix,GT,37.3365846,-122.0820352,,35.46167,0.1,313.71002,1597355661434
Fix,GT,37.3368036,-122.0823269,,35.515396,0.1,313.0803,1597355662434
Fix,GT,37.3370204,-122.0826218,,35.503216,0.1,312.32477,1597355663434
Fix,GT,37.3372322,-122.0829207,,35.306175,0.1,310.8923,1597355664434
Fix,GT,37.3374353,-122.083225,,35.003838,0.1,308.98828,1597355665434
Fix,GT,37.3376297,-122.0835344,,34.794216,0.1,307.66776,1597355666434
Fix,GT,37.3378179,-122.0838472,,34.61805,0.1,306.40405,1597355667434
Fix,GT,37.3379991,-122.084163,,34.306797,0.1,305.40802,1597355668434
Fix,GT,37.3381756,-122.0844786,,34.032475,0.1,305.23114,1597355669434
Fix,GT,37.3383513,-122.0847934,,34.105293,0.1,305.00598,1597355670434
Fix,GT,37.338527,-122.0851114,,34.443478,0.1,304.84125,1597355671434
Fix,GT,37.3387039,-122.0854329,,34.765823,0.1,304.81097,1597355672434
Fix,GT,37.3388824,-122.0857569,,34.961285,0.1,304.84518,1597355673434
Fix,GT,37.3390618,-122.0860819,,35.062065,0.1,304.94736,1597355674434
Fix,GT,37.3392422,-122.0864072,,35.13592,0.1,305.11276,1597355675434
Fix,GT,37.3394233,-122.0867323,,35.079987,0.1,305.16977,1597355676434
Fix,GT,37.3396035,-122.0870564,,34.858513,0.1,304.99896,1597355677434
Fix,GT,37.3397814,-122.0873795,,34.662014,0.1,304.5794,1597355678434
Fix,GT,37.3399565,-122.0877033,,34.713085,0.1,303.97607,1597355679434
Fix,GT,37.34013,-122.0880317,,35.117413,0.1,303.2787,1597355680434
Fix,GT,37.3403022,-122.0883672,,35.55181,0.1,302.51453,1597355681434
Fix,GT,37.3404724,-122.088709,,35.8269,0.1,301.76703,1597355682434
Fix,GT,37.3406405,-122.0890554,,36.0248,0.1,301.17352,1597355683434
Fix,GT,37.3408069,-122.0894059,,36.248245,0.1,300.63135,1597355684434
Fix,GT,37.3409727,-122.0897596,,36.449326,0.1,300.67297,1597355685434
Fix,GT,37.3411404,-122.0901142,,36.589344,0.1,301.1996,1597355686434
Fix,GT,37.3413121,-122.090467,,36.641495,0.1,302.18723,1597355687434
Fix,GT,37.3414909,-122.0908146,,36.628895,0.1,304.1273,1597355688434
Fix,GT,37.3416794,-122.0911541,,36.627533,0.1,306.22983,1597355689434
Fix,GT,37.341878,-122.0914833,,36.490883,0.1,308.77304,1597355690434
Fix,GT,37.3420878,-122.0917987,,36.25857,0.1,311.5614,1597355691434
Fix,GT,37.3423076,-122.0920992,,35.95138,0.1,314.10962,1597355692434
Fix,GT,37.3425346,-122.0923853,,35.52894,0.1,316.19907,1597355693434
Fix,GT,37.3427659,-122.0926593,,35.175884,0.1,317.52902,1597355694434
Fix,GT,37.3429991,-122.0929269,,35.067368,0.1,317.7675,1597355695434
Fix,GT,37.3432321,-122.0931942,,35.027607,0.1,317.61917,1597355696434
Fix,GT,37.3434642,-122.0934612,,34.9177,0.1,317.72626,1597355697434
Fix,GT,37.3436961,-122.0937261,,34.71107,0.1,317.8912,1597355698434
Fix,GT,37.3439258,-122.093989,,34.32444,0.1,317.47784,1597355699434
Fix,GT,37.3441491,-122.0942527,,33.817036,0.1,316.07745,1597355700434
Fix,GT,37.3443633,-122.0945211,,33.490246,0.1,314.0905,1597355701434
Fix,GT,37.3445686,-122.0947973,,33.43478,0.1,311.74792,1597355702434
Fix,GT,37.3447642,-122.0950841,,33.454536,0.1,309.2417,1597355703434
Fix,GT,37.3449498,-122.0953815,,33.431858,0.1,306.9171,1597355704434
Fix,GT,37.345125,-122.0956874,,33.269444,0.1,304.38113,1597355705434
Fix,GT,37.3452887,-122.0960003,,33.07669,0.1,302.11078,1597355706434
Fix,GT,37.3454424,-122.0963193,,33.01026,0.1,300.15927,1597355707434
Fix,GT,37.3455871,-122.0966446,,33.026783,0.1,298.44348,1597355708434
Fix,GT,37.345727,-122.0969742,,33.103447,0.1,297.83914,1597355709434
Fix,GT,37.3458665,-122.0973049,,33.17496,0.1,298.098,1597355710434
Fix,GT,37.3460064,-122.097636,,33.221222,0.1,298.05112,1597355711434
Fix,GT,37.3461457,-122.0979688,,33.40119,0.1,297.60773,1597355712434
Fix,GT,37.3462833,-122.0983058,,33.63685,0.1,296.96594,1597355713434
Fix,GT,37.3464191,-122.0986453,,33.58501,0.1,296.71997,1597355714434
Fix,GT,37.3465538,-122.098983,,33.31755,0.1,296.8873,1597355715434
Fix,GT,37.3466887,-122.0993168,,32.97442,0.1,297.27115,1597355716434
Fix,GT,37.3468241,-122.0996458,,32.635395,0.1,297.72498,1597355717434
Fix,GT,37.3469603,-122.0999709,,32.475407,0.1,298.05984,1597355718434
Fix,GT,37.3470972,-122.1002947,,32.451294,0.1,298.15167,1597355719434
Fix,GT,37.347234,-122.1006177,,32.321835,0.1,298.19443,1597355720434
Fix,GT,37.3473708,-122.1009388,,32.19765,0.1,298.3838,1597355721434
Fix,GT,37.3475085,-122.1012586,,32.216694,0.1,298.79608,1597355722434
Fix,GT,37.3476503,-122.1015763,,32.28806,0.1,300.24045,1597355723434
Fix,GT,37.3478003,-122.1018888,,32.333107,0.1,302.57178,1597355724434
Fix,GT,37.3479609,-122.1021933,,32.37393,0.1,305.08868,1597355725434
Fix,GT,37.3481331,-122.1024882,,32.39775,0.1,308.071,1597355726434
Fix,GT,37.3483176,-122.1027713,,32.37784,0.1,311.1469,1597355727434
Fix,GT,37.3485131,-122.1030418,,32.307636,0.1,313.96313,1597355728434
Fix,GT,37.3487183,-122.1033,,32.27556,0.1,316.55493,1597355729434
Fix,GT,37.3489327,-122.1035459,,32.282505,0.1,319.2216,1597355730434
Fix,GT,37.3491562,-122.1037794,,32.335323,0.1,321.875,1597355731434
Fix,GT,37.3493888,-122.1039992,,32.366005,0.1,324.8418,1597355732434
Fix,GT,37.3496301,-122.1042044,,32.384624,0.1,327.3798,1597355733434
Fix,GT,37.3498775,-122.1043991,,32.462967,0.1,328.6747,1597355734434
Fix,GT,37.3501275,-122.1045899,,32.510845,0.1,329.10104,1597355735434
Fix,GT,37.3503782,-122.1047789,,32.42372,0.1,329.25565,1597355736434
Fix,GT,37.350628,-122.1049667,,32.2183,0.1,329.2232,1597355737434
Fix,GT,37.3508756,-122.1051533,,31.905327,0.1,329.05673,1597355738434
Fix,GT,37.3511197,-122.1053391,,31.483707,0.1,328.73425,1597355739434
Fix,GT,37.3513589,-122.1055257,,31.078087,0.1,327.83755,1597355740434
Fix,GT,37.3515923,-122.1057159,,30.72666,0.1,326.28986,1597355741434
Fix,GT,37.3518189,-122.1059116,,30.39854,0.1,324.58505,1597355742434
Fix,GT,37.3520384,-122.1061153,,30.29226,0.1,322.4637,1597355743434
Fix,GT,37.3522521,-122.1063295,,30.47889,0.1,320.45715,1597355744434
Fix,GT,37.3524614,-122.1065541,,30.661205,0.1,318.56766,1597355745434
Fix,GT,37.3526647,-122.1067876,,30.533077,0.1,316.5566,1597355746434
Fix,GT,37.3528595,-122.1070288,,30.285263,0.1,314.29977,1597355747434
Fix,GT,37.3530445,-122.1072774,,29.910511,0.1,312.0929,1597355748434
Fix,GT,37.3532203,-122.1075309,,29.644772,0.1,310.3112,1597355749434
Fix,GT,37.3533899,-122.1077901,,29.777954,0.1,308.5385,1597355750434
Fix,GT,37.3535543,-122.1080579,,30.119987,0.1,306.75262,1597355751434
Fix,GT,37.3537135,-122.1083357,,30.445578,0.1,304.70792,1597355752434
Fix,GT,37.3538656,-122.1086228,,30.59866,0.1,302.5327,1597355753434
Fix,GT,37.3540097,-122.1089186,,30.854301,0.1,300.34167,1597355754434
Fix,GT,37.3541452,-122.1092245,,31.173113,0.1,297.75623,1597355755434
Fix,GT,37.3542709,-122.109541,,31.483482,0.1,295.36957,1597355756434
Fix,GT,37.3543884,-122.1098658,,31.705162,0.1,293.59674,1597355757434
Fix,GT,37.3544985,-122.1101966,,31.759697,0.1,291.87012,1597355758434
Fix,GT,37.3545999,-122.1105311,,31.637932,0.1,289.96216,1597355759434
Fix,GT,37.3546928,-122.1108677,,31.480778,0.1,288.4314,1597355760434
Fix,GT,37.3547794,-122.1112053,,31.359367,0.1,287.6171,1597355761434
Fix,GT,37.3548637,-122.111542,,31.132332,0.1,287.617,1597355762434
Fix,GT,37.3549473,-122.1118759,,30.912159,0.1,287.604,1597355763434
Fix,GT,37.3550301,-122.1122089,,30.91713,0.1,287.41785,1597355764434
Fix,GT,37.3551125,-122.1125429,,31.020954,0.1,287.3984,1597355765434
Fix,GT,37.3551959,-122.1128771,,31.006294,0.1,287.78564,1597355766434
Fix,GT,37.3552822,-122.1132094,,30.898207,0.1,289.00897,1597355767434
Fix,GT,37.3553763,-122.1135364,,30.684046,0.1,291.43643,1597355768434
Fix,GT,37.3554819,-122.1138547,,30.425604,0.1,294.14374,1597355769434
Fix,GT,37.3555966,-122.1141654,,30.25688,0.1,295.89005,1597355770434
Fix,GT,37.3557173,-122.1144711,,30.17799,0.1,297.33417,1597355771434
Fix,GT,37.3558447,-122.1147712,,30.056686,0.1,299.25693,1597355772434
Fix,GT,37.3559796,-122.1150634,,29.71782,0.1,301.47485,1597355773434
Fix,GT,37.3561214,-122.1153447,,29.25884,0.1,303.59766,1597355774434
Fix,GT,37.3562691,-122.1156165,,29.08474,0.1,305.43063,1597355775434
Fix,GT,37.3564236,-122.1158824,,29.198387,0.1,307.29556,1597355776434
Fix,GT,37.3565863,-122.116142,,29.2892,0.1,309.5249,1597355777434
Fix,GT,37.356757,-122.1163941,,29.286537,0.1,311.6512,1597355778434
Fix,GT,37.3569348,-122.1166385,,29.307896,0.1,313.5336,1597355779434
Fix,GT,37.357119,-122.1168755,,29.280106,0.1,315.50793,1597355780434
Fix,GT,37.3573092,-122.1171042,,29.28122,0.1,317.38605,1597355781434
Fix,GT,37.3575056,-122.1173261,,29.443668,0.1,319.09534,1597355782434
Fix,GT,37.357709,-122.1175412,,29.628994,0.1,321.20456,1597355783434
Fix,GT,37.3579201,-122.1177478,,29.8481,0.1,323.34424,1597355784434
Fix,GT,37.3581389,-122.1179463,,30.126747,0.1,325.38678,1597355785434
Fix,GT,37.3583653,-122.1181368,,30.431099,0.1,327.36978,1597355786434
Fix,GT,37.3585992,-122.1183198,,30.80518,0.1,329.22415,1597355787434
Fix,GT,37.3588408,-122.1184954,,31.197247,0.1,331.17657,1597355788434
Fix,GT,37.3590897,-122.1186621,,31.39552,0.1,333.11478,1597355789434
Fix,GT,37.3593426,-122.1188205,,31.29545,0.1,334.21448,1597355790434
