MessageType,Provider,LatitudeDegrees,LongitudeDegrees,AltitudeMeters,SpeedMps,AccuracyMeters,BearingDegrees,UnixTimeMillis
Fix,GT,37.4245544,-122.0922789,,0.002994406,0.1,202.9239,1591898776446
Fix,GT,37.4245544,-122.0922789,,0.0022360682,0.1,202.92352,1591898777446
Fix,GT,37.4245544,-122.0922789,,0.002649398,0.1,202.9232,1591898778446
Fix,GT,37.4245544,-122.0922789,,0.0026436,0.1,202.92296,1591898779446
Fix,GT,37.4245544,-122.0922789,,0.0011074806,0.1,202.92305,1591898780446
Fix,GT,37.4245544,-122.0922789,,0.00063110655,0.1,202.92274,1591898781446
Fix,GT,37.4245544,-122.0922789,,0.0012293668,0.1,202.92241,1591898782446
Fix,GT,37.4245544,-122.0922789,,0.0011848469,0.1,202.9218,1591898783446
Fix,GT,37.4245544,-122.0922789,,0.0014142136,0.1,202.92194,1591898784446
Fix,GT,37.4245544,-122.0922789,,0.0016756265,0.1,202.92188,1591898785446
Fix,GT,37.4245544,-122.0922789,,0.0017385872,0.1,202.92137,1591898786446
Fix,GT,37.4245544,-122.0922789,,0.0016756265,0.1,202.92091,1591898787446
Fix,GT,37.4245544,-122.0922789,,0.002,0.1,202.92082,1591898788446
Fix,GT,37.4245544,-122.0922789,,0.0015537405,0.1,202.92055,1591898789446
Fix,GT,37.4245544,-122.0922789,,0.0011848469,0.1,202.91911,1591898790446
Fix,GT,37.4245544,-122.0922789,,0.001780974,0.1,202.91882,1591898791446
Fix,GT,37.4245544,-122.0922789,,0.002236068,0.1,202.91975,1591898792446
Fix,GT,37.4245544,-122.0922789,,0.0022360678,0.1,202.91951,1591898793446
Fix,GT,37.4245544,-122.0922789,,0.0016844608,0.1,202.91884,1591898794446
Fix,GT,37.4245544,-122.0922789,,0.001,0.1,202.91876,1591898795446
Fix,GT,37.4245544,-122.0922789,,0.0011848467,0.1,202.91914,1591898796446
Fix,GT,37.4245544,-122.0922789,,0.0012293668,0.1,202.91899,1591898797446
Fix,GT,37.4245544,-122.0922789,,0.0011848467,0.1,202.91797,1591898798446
Fix,GT,37.4245544,-122.0922789,,0.0014142136,0.1,202.91725,1591898799446
Fix,GT,37.4245544,-122.0922789,,0.0012293668,0.1,202.91702,1591898800446
Fix,GT,37.4245544,-122.0922789,,0.00055374054,0.1,202.91644,1591898801446
Fix,GT,37.4245544,-122.0922789,,0.0004462595,0.1,202.91606,1591898802446
Fix,GT,37.4245544,-122.0922789,,0.001,0.1,202.91518,1591898803446
Fix,GT,37.4245544,-122.0922789,,0.001,0.1,202.91457,1591898804446
Fix,GT,37.4245544,-122.0922789,,0.001892519,0.1,202.91411,1591898805446
Fix,GT,37.4245544,-122.0922789,,0.0034462595,0.1,202.91368,1591898806446
Fix,GT,37.4245544,-122.0922789,,0.0032128287,0.1,202.91357,1591898807446
Fix,GT,37.4245544,-122.0922789,,0.0016844609,0.1,202.9135,1591898808446
Fix,GT,37.4245544,-122.0922789,,0.0014462594,0.1,202.91254,1591898809446
Fix,GT,37.4245544,-122.0922789,,0.0017385873,0.1,202.91171,1591898810446
Fix,GT,37.4245544,-122.0922789,,0.0012293669,0.1,202.91132,1591898811446
Fix,GT,37.4245544,-122.0922789,,0.001,0.1,202.9103,1591898812446
Fix,GT,37.4245544,-122.0922789,,0.001551607,0.1,202.90962,1591898813446
Fix,GT,37.4245544,-122.0922789,,0.0016844611,0.1,202.90907,1591898814446
Fix,GT,37.4245544,-122.0922789,,0.0014462594,0.1,202.90842,1591898815446
Fix,GT,37.4245544,-122.0922789,,0.0011074813,0.1,202.90793,1591898816446
Fix,GT,37.4245544,-122.0922789,,0.00044625936,0.1,202.90736,1591898817446
Fix,GT,37.4245544,-122.0922789,,0.001,0.1,202.90675,1591898818446
Fix,GT,37.4245544,-122.0922789,,0.001,0.1,-157.09311,1591898819446
Fix,GT,37.4245544,-122.0922789,,0.001,0.1,202.90645,1591898820446
Fix,GT,37.4245544,-122.0922789,,0.0014462594,0.1,202.90576,1591898821446
Fix,GT,37.4245544,-122.0922789,,0.0017385874,0.1,202.90532,1591898822446
Fix,GT,37.4245544,-122.0922789,,0.0016756263,0.1,202.90504,1591898823446
Fix,GT,37.4245544,-122.0922789,,0.0017385874,0.1,202.90474,1591898824446
Fix,GT,37.4245544,-122.0922789,,0.0017809737,0.1,202.90385,1591898825446
Fix,GT,37.4245544,-122.0922789,,0.0021307205,0.1,202.90364,1591898826446
Fix,GT,37.4245544,-122.0922789,,0.002,0.1,202.90346,1591898827446
Fix,GT,37.4245544,-122.0922789,,0.0015537408,0.1,202.90242,1591898828446
Fix,GT,37.4245544,-122.0922789,,0.001,0.1,202.90161,1591898829446
Fix,GT,37.4245544,-122.0922789,,0.001,0.1,202.9009,1591898830446
Fix,GT,37.4245544,-122.0922789,,0.001,0.1,202.90057,1591898831446
Fix,GT,37.4245544,-122.0922789,,0.001,0.1,202.90028,1591898832446
Fix,GT,37.4245544,-122.0922789,,0.001,0.1,202.89967,1591898833446
Fix,GT,37.4245544,-122.0922789,,0.00055374077,0.1,202.89917,1591898834446
Fix,GT,37.4245544,-122.0922789,,0.0018399742,0.1,202.89873,1591898835446
Fix,GT,37.4245544,-122.0922789,,0.003694327,0.1,202.89833,1591898836446
Fix,GT,37.4245544,-122.0922789,,0.003982378,0.1,202.8981,1591898837446
Fix,GT,37.4245544,-122.0922789,,0.005,0.1,202.8974,1591898838446
Fix,GT,37.4245544,-122.0922789,,0.0043777144,0.1,202.89708,1591898839446
Fix,GT,37.4245544,-122.0922789,,0.0028890593,0.1,202.897,1591898840446
Fix,GT,37.4245544,-122.0922789,,0.0021053476,0.1,202.89629,1591898841446
Fix,GT,37.4245544,-122.0922789,,0.0016844613,0.1,202.89645,1591898842446
Fix,GT,37.4245544,-122.0922789,,0.00055374077,0.1,202.89642,1591898843446
Fix,GT,37.4245544,-122.0922789,,0.00089251855,0.1,202.89523,1591898844446
Fix,GT,37.4245544,-122.0922789,,0.0021053476,0.1,202.89432,1591898845446
Fix,GT,37.4245544,-122.0922789,,0.0018693078,0.1,202.89368,1591898846446
Fix,GT,37.4245544,-122.0922789,,0.0014142136,0.1,202.89323,1591898847446
Fix,GT,37.4245544,-122.0922789,,0.0026764253,0.1,202.89249,1591898848446
Fix,GT,37.4245544,-122.0922789,,0.003347189,0.1,202.89233,1591898849446
Fix,GT,37.4245544,-122.0922789,,0.0018693078,0.1,202.8922,1591898850446
Fix,GT,37.4245544,-122.0922789,,0.001229367,0.1,202.89171,1591898851446
Fix,GT,37.4245544,-122.0922789,,0.0015516068,0.1,202.89105,1591898852446
Fix,GT,37.4245544,-122.0922788,,0.002236068,0.1,202.89072,1591898853446
Fix,GT,37.4245544,-122.0922788,,0.0018693078,0.1,202.89023,1591898854446
Fix,GT,37.4245544,-122.0922788,,0.0026230817,0.1,202.8893,1591898855446
Fix,GT,37.4245544,-122.0922788,,0.004278864,0.1,202.88785,1591898856446
Fix,GT,37.4245539,-122.092279,,0.14194724,0.1,202.84772,1591898857446
Fix,GT,37.4245512,-122.09228,,0.55343133,0.1,202.02338,1591898858446
Fix,GT,37.4245432,-122.0922814,,1.194491,0.1,197.77603,1591898859446
Fix,GT,37.424528,-122.0922809,,1.978889,0.1,187.6536,1591898860446
Fix,GT,37.424506,-122.0922733,,2.785659,0.1,171.98259,1591898861446
Fix,GT,37.4244804,-122.0922535,,3.5983043,0.1,153.38776,1591898862446
Fix,GT,37.4244541,-122.0922212,,4.321494,0.1,138.37192,1591898863446
Fix,GT,37.4244287,-122.0921796,,4.7454815,0.1,128.78192,1591898864446
Fix,GT,37.424407,-122.0921342,,4.4212766,0.1,122.08661,1591898865446
Fix,GT,37.4243899,-122.0920927,,3.7831385,0.1,118.327545,1591898866446
Fix,GT,37.4243777,-122.0920533,,3.727092,0.1,112.072266,1591898867446
Fix,GT,37.4243719,-122.0920095,,4.0466375,0.1,100.79474,1591898868446
Fix,GT,37.4243753,-122.0919598,,4.64789,0.1,86.23465,1591898869446
Fix,GT,37.4243904,-122.0919059,,5.3105645,0.1,71.13641,1591898870446
Fix,GT,37.4244175,-122.091851,,5.9865513,0.1,58.232544,1591898871446
Fix,GT,37.4244565,-122.0917979,,6.6704354,0.1,46.62387,1591898872446
Fix,GT,37.4245066,-122.091751,,7.052121,0.1,36.186157,1591898873446
Fix,GT,37.4245615,-122.091713,,6.6260643,0.1,28.756927,1591898874446
Fix,GT,37.424612,-122.0916845,,5.529933,0.1,24.507141,1591898875446
Fix,GT,37.4246532,-122.0916639,,4.4633656,0.1,23.240051,1591898876446
Fix,GT,37.4246855,-122.0916431,,3.897398,0.1,29.310059,1591898877446
Fix,GT,37.4247092,-122.091613,,4.003535,0.1,46.73819,1591898878446
Fix,GT,37.4247204,-122.0915691,,4.8147573,0.1,72.37109,1591898879446
Fix,GT,37.4247157,-122.091509,,6.4227037,0.1,96.838196,1591898880446
Fix,GT,37.4246949,-122.0914315,,8.289413,0.1,110.89258,1591898881446
Fix,GT,37.4246608,-122.0913375,,10.011911,0.1,116.456604,1591898882446
Fix,GT,37.424616,-122.0912299,,11.481863,0.1,119.59946,1591898883446
Fix,GT,37.4245617,-122.0911116,,12.704441,0.1,121.735596,1591898884446
Fix,GT,37.4244995,-122.0909863,,13.446468,0.1,124.0329,1591898885446
Fix,GT,37.4244296,-122.0908609,,13.635101,0.1,127.49878,1591898886446
Fix,GT,37.4243533,-122.0907414,,13.493714,0.1,131.41016,1591898887446
Fix,GT,37.4242727,-122.0906317,,12.952502,0.1,135.5307,1591898888446
Fix,GT,37.4241909,-122.0905348,,11.997456,0.1,139.03131,1591898889446
Fix,GT,37.4241131,-122.0904524,,10.615958,0.1,142.3086,1591898890446
Fix,GT,37.4240423,-122.0903878,,8.886748,0.1,147.40045,1591898891446
Fix,GT,37.42398,-122.0903444,,7.063005,0.1,154.73602,1591898892446
Fix,GT,37.4239293,-122.0903217,,5.0702915,0.1,164.177,1591898893446
Fix,GT,37.4238928,-122.0903142,,3.4489892,0.1,173.06976,1591898894446
Fix,GT,37.423865,-122.0903145,,3.2273717,0.1,180.49524,1591898895446
Fix,GT,37.423833,-122.0903235,,4.453115,0.1,192.0642,1591898896446
Fix,GT,37.423793,-122.0903521,,6.158903,0.1,211.45885,1591898897446
Fix,GT,37.4237527,-122.090409,,7.7950487,0.1,232.10988,1591898898446
Fix,GT,37.4237143,-122.0904936,,9.620935,0.1,242.77255,1591898899446
Fix,GT,37.4236721,-122.0905996,,11.328599,0.1,244.61267,1591898900446
Fix,GT,37.4236229,-122.0907215,,12.816879,0.1,244.05112,1591898901446
Fix,GT,37.4235631,-122.0908543,,14.089771,0.1,240.19626,1591898902446
Fix,GT,37.4234875,-122.0909906,,15.21487,0.1,233.95456,1591898903446
Fix,GT,37.4233944,-122.0911246,,16.206062,0.1,227.91101,1591898904446
Fix,GT,37.423286,-122.0912538,,16.908663,0.1,222.69565,1591898905446
Fix,GT,37.4231649,-122.0913744,,17.368425,0.1,217.30905,1591898906446
Fix,GT,37.4230318,-122.0914825,,17.821075,0.1,211.81038,1591898907446
Fix,GT,37.4228885,-122.0915779,,18.17394,0.1,207.35924,1591898908446
Fix,GT,37.4227384,-122.0916631,,18.366749,0.1,204.5885,1591898909446
Fix,GT,37.4225849,-122.0917437,,18.550102,0.1,203.52826,1591898910446
Fix,GT,37.4224294,-122.0918234,,18.70515,0.1,203.53111,1591898911446
Fix,GT,37.4222734,-122.0919042,,18.743195,0.1,204.00917,1591898912446
Fix,GT,37.4221184,-122.0919875,,18.660244,0.1,204.70062,1591898913446
Fix,GT,37.4219648,-122.0920718,,18.575659,0.1,205.02112,1591898914446
Fix,GT,37.4218116,-122.0921566,,18.62178,0.1,205.06262,1591898915446
Fix,GT,37.4216573,-122.092242,,18.776993,0.1,204.9878,1591898916446
Fix,GT,37.4215022,-122.0923262,,18.696123,0.1,204.3387,1591898917446
Fix,GT,37.4213483,-122.0924071,,18.349995,0.1,203.86905,1591898918446
Fix,GT,37.4211977,-122.0924868,,17.978907,0.1,204.2386,1591898919446
Fix,GT,37.4210505,-122.0925658,,17.51767,0.1,204.50375,1591898920446
Fix,GT,37.4209079,-122.0926427,,16.897343,0.1,204.42,1591898921446
Fix,GT,37.4207711,-122.0927158,,16.080566,0.1,204.14229,1591898922446
Fix,GT,37.4206415,-122.0927838,,15.091182,0.1,203.80281,1591898923446
Fix,GT,37.4205204,-122.0928466,,13.9332905,0.1,203.48933,1591898924446
Fix,GT,37.4204097,-122.0929028,,12.507927,0.1,203.19884,1591898925446
Fix,GT,37.420312,-122.0929519,,10.823414,0.1,202.98138,1591898926446
Fix,GT,37.420229,-122.0929933,,9.023089,0.1,202.87929,1591898927446
Fix,GT,37.4201607,-122.0930272,,7.2761602,0.1,202.79517,1591898928446
Fix,GT,37.4201074,-122.0930535,,5.408883,0.1,202.68541,1591898929446
Fix,GT,37.4200705,-122.0930716,,3.407549,0.1,202.58527,1591898930446
Fix,GT,37.4200496,-122.093082,,1.6480627,0.1,202.72903,1591898931446
Fix,GT,37.4200415,-122.0930861,,0.4530617,0.1,202.96216,1591898932446
Fix,GT,37.4200402,-122.0930867,,0.0027293926,0.1,202.98717,1591898933446
Fix,GT,37.4200402,-122.0930867,,0.001,0.1,202.98804,1591898934446
Fix,GT,37.4200402,-122.0930867,,0.0011848464,0.1,202.98714,1591898935446
Fix,GT,37.4200402,-122.0930867,,0.0012293672,0.1,202.98695,1591898936446
Fix,GT,37.4200402,-122.0930867,,0.0011848464,0.1,202.98672,1591898937446
Fix,GT,37.4200402,-122.0930867,,0.0007831085,0.1,202.98677,1591898938446
Fix,GT,37.4200402,-122.0930867,,0.00063110504,0.1,202.9864,1591898939446
Fix,GT,37.4200402,-122.0930867,,0.0016756258,0.1,202.98578,1591898940446
Fix,GT,37.4200402,-122.0930867,,0.002716491,0.1,202.98526,1591898941446
Fix,GT,37.4200402,-122.0930867,,0.0029944074,0.1,202.98495,1591898942446
Fix,GT,37.4200402,-122.0930867,,0.0018693083,0.1,202.98479,1591898943446
Fix,GT,37.4200402,-122.0930867,,0.0012293672,0.1,202.98482,1591898944446
Fix,GT,37.4200402,-122.0930867,,0.001551606,0.1,202.98506,1591898945446
Fix,GT,37.4200402,-122.0930867,,0.001684462,0.1,202.98499,1591898946446
Fix,GT,37.4200402,-122.0930867,,0.001,0.1,202.9848,1591898947446
Fix,GT,37.4200402,-122.0930867,,0.001,0.1,202.98418,1591898948446
Fix,GT,37.4200402,-122.0930867,,0.0014462587,0.1,202.984,1591898949446
Fix,GT,37.4200402,-122.0930867,,0.0029474543,0.1,202.98445,1591898950446
Fix,GT,37.4200402,-122.0930867,,0.0042788633,0.1,202.9841,1591898951446
Fix,GT,37.4200402,-122.0930867,,0.0038876003,0.1,202.98392,1591898952446
Fix,GT,37.4200402,-122.0930867,,0.0026436013,0.1,202.98369,1591898953446
Fix,GT,37.4200402,-122.0930867,,0.0017385877,0.1,202.98334,1591898954446
Fix,GT,37.4200402,-122.0930867,,0.011229755,0.1,202.98386,1591898955446
Fix,GT,37.4200389,-122.0930874,,0.3080585,0.1,203.01723,1591898956446
Fix,GT,37.4200334,-122.0930902,,1.0560899,0.1,203.23735,1591898957446
Fix,GT,37.4200198,-122.0930974,,2.3715494,0.1,203.59871,1591898958446
Fix,GT,37.4199923,-122.0931117,,4.2755814,0.1,203.6724,1591898959446
Fix,GT,37.4199491,-122.093134,,6.008319,0.1,203.50877,1591898960446
Fix,GT,37.4198942,-122.093162,,7.0324893,0.1,203.31099,1591898961446
Fix,GT,37.4198351,-122.0931927,,7.092739,0.1,204.24318,1591898962446
Fix,GT,37.4197814,-122.0932281,,6.515773,0.1,211.72495,1591898963446
Fix,GT,37.4197425,-122.0932761,,6.1470623,0.1,230.1601,1591898964446
Fix,GT,37.4197254,-122.0933376,,6.166857,0.1,256.92465,1591898965446
Fix,GT,37.4197347,-122.0934038,,6.6412067,0.1,285.53815,1591898966446
Fix,GT,37.4197722,-122.093464,,7.7674456,0.1,313.7463,1591898967446
Fix,GT,37.4198367,-122.0935036,,9.074339,0.1,340.43158,1591898968446
Fix,GT,37.4199223,-122.0935176,,10.517115,0.1,357.08127,1591898969446
Fix,GT,37.4200235,-122.0935172,,11.993671,0.1,2.5175476,1591898970446
Fix,GT,37.4201376,-122.0935128,,13.316259,0.1,2.9623718,1591898971446
Fix,GT,37.4202625,-122.0935103,,14.286961,0.1,1.5978699,1591898972446
Fix,GT,37.4203938,-122.0935128,,14.690405,0.1,359.37894,1591898973446
Fix,GT,37.4205263,-122.0935239,,14.686192,0.1,356.1101,1591898974446
Fix,GT,37.4206571,-122.0935445,,14.548437,0.1,352.9303,1591898975446
Fix,GT,37.4207851,-122.0935707,,14.143948,0.1,351.79507,1591898976446
Fix,GT,37.4209066,-122.0935955,,13.096383,0.1,352.51413,1591898977446
Fix,GT,37.4210165,-122.0936131,,11.481073,0.1,355.50595,1591898978446
Fix,GT,37.4211113,-122.0936179,,9.684166,0.1,1.545166,1591898979446
Fix,GT,37.421189,-122.0936082,,7.8301926,0.1,10.316254,1591898980446
Fix,GT,37.4212482,-122.0935834,,6.464957,0.1,23.805145,1591898981446
Fix,GT,37.4212905,-122.0935413,,6.3342614,0.1,44.065674,1591898982446
Fix,GT,37.4213144,-122.0934771,,7.167059,0.1,70.24805,1591898983446
Fix,GT,37.4213143,-122.0933922,,8.612907,0.1,95.61072,1591898984446
Fix,GT,37.4212877,-122.0932935,,10.299677,0.1,113.70743,1591898985446
Fix,GT,37.4212368,-122.0931871,,11.936918,0.1,125.00131,1591898986446
Fix,GT,37.4211665,-122.0930738,,13.569567,0.1,130.32672,1591898987446
Fix,GT,37.4210835,-122.0929491,,15.169727,0.1,131.41766,1591898988446
Fix,GT,37.4209903,-122.0928123,,16.690857,0.1,131.89725,1591898989446
Fix,GT,37.4208884,-122.0926628,,18.092194,0.1,131.60175,1591898990446
Fix,GT,37.4207796,-122.0925001,,19.469872,0.1,131.19287,1591898991446
Fix,GT,37.4206626,-122.0923258,,20.846556,0.1,131.73706,1591898992446
Fix,GT,37.4205357,-122.0921419,,22.196249,0.1,132.6466,1591898993446
Fix,GT,37.4203988,-122.0919492,,23.541553,0.1,133.18372,1591898994446
Fix,GT,37.4202519,-122.0917468,,24.8988,0.1,133.7344,1591898995446
Fix,GT,37.4200962,-122.0915341,,26.224915,0.1,133.78033,1591898996446
Fix,GT,37.4199327,-122.0913099,,27.549881,0.1,133.57843,1591898997446
Fix,GT,37.4197625,-122.0910732,,28.866997,0.1,132.99551,1591898998446
Fix,GT,37.4195883,-122.090824,,29.698997,0.1,131.92517,1591898999446
Fix,GT,37.4194138,-122.0905669,,29.968552,0.1,131.44934,1591899000446
Fix,GT,37.4192382,-122.0903081,,30.198185,0.1,131.96405,1591899001446
Fix,GT,37.4190586,-122.0900504,,30.392197,0.1,132.83667,1591899002446
Fix,GT,37.4188749,-122.0897942,,30.62476,0.1,133.53564,1591899003446
Fix,GT,37.4186878,-122.0895376,,30.9179,0.1,133.88684,1591899004446
Fix,GT,37.4184976,-122.0892804,,31.17677,0.1,134.2544,1591899005446
Fix,GT,37.4183045,-122.089023,,31.39288,0.1,134.62451,1591899006446
Fix,GT,37.4181098,-122.0887642,,31.581284,0.1,134.34448,1591899007446
Fix,GT,37.4179159,-122.0885018,,31.752972,0.1,133.66135,1591899008446
Fix,GT,37.4177231,-122.0882352,,31.943674,0.1,133.33911,1591899009446
Fix,GT,37.4175295,-122.0879667,,32.153187,0.1,133.37042,1591899010446
Fix,GT,37.4173342,-122.0876968,,32.38443,0.1,133.48358,1591899011446
Fix,GT,37.4171371,-122.0874251,,32.65415,0.1,133.61337,1591899012446
Fix,GT,37.4169379,-122.0871515,,32.939163,0.1,133.68909,1591899013446
Fix,GT,37.4167368,-122.0868757,,33.207043,0.1,133.6419,1591899014446
Fix,GT,37.4165344,-122.0865977,,33.447838,0.1,133.60406,1591899015446
Fix,GT,37.4163306,-122.0863176,,33.691513,0.1,133.62317,1591899016446
Fix,GT,37.4161252,-122.0860355,,33.92437,0.1,133.6289,1591899017446
Fix,GT,37.4159186,-122.0857516,,34.102325,0.1,133.61292,1591899018446
Fix,GT,37.4157112,-122.0854664,,34.219376,0.1,133.59445,1591899019446
Fix,GT,37.4155032,-122.0851806,,34.26701,0.1,133.65,1591899020446
Fix,GT,37.4152948,-122.0848951,,34.23015,0.1,133.80878,1591899021446
Fix,GT,37.4150863,-122.084611,,34.134842,0.1,133.86151,1591899022446
Fix,GT,37.4148789,-122.0843269,,34.102238,0.1,133.49261,1591899023446
Fix,GT,37.4146738,-122.0840399,,34.103264,0.1,132.6084,1591899024446
Fix,GT,37.4144728,-122.0837484,,34.10254,0.1,131.44489,1591899025446
Fix,GT,37.4142769,-122.0834518,,34.060097,0.1,130.1529,1591899026446
Fix,GT,37.414087,-122.0831503,,33.926888,0.1,128.79523,1591899027446
Fix,GT,37.4139035,-122.0828448,,33.781975,0.1,127.56586,1591899028446
Fix,GT,37.413726,-122.0825354,,33.719456,0.1,126.267975,1591899029446
Fix,GT,37.413554,-122.0822211,,33.752014,0.1,125.01227,1591899030446
Fix,GT,37.413388,-122.0819017,,33.73721,0.1,123.5376,1591899031446
Fix,GT,37.4132287,-122.0815771,,33.71486,0.1,122.055176,1591899032446
Fix,GT,37.4130751,-122.081248,,33.78795,0.1,121.06482,1591899033446
Fix,GT,37.4129253,-122.0809153,,33.86419,0.1,120.26367,1591899034446
Fix,GT,37.4127788,-122.0805792,,33.93131,0.1,119.453735,1591899035446
Fix,GT,37.4126357,-122.0802399,,33.996857,0.1,118.69281,1591899036446
Fix,GT,37.4124954,-122.0798982,,34.065575,0.1,118.298035,1591899037446
Fix,GT,37.4123554,-122.0795557,,34.06568,0.1,118.461914,1591899038446
Fix,GT,37.4122144,-122.0792149,,33.840305,0.1,118.66699,1591899039446
Fix,GT,37.4120747,-122.0788781,,33.338734,0.1,118.62146,1591899040446
Fix,GT,37.4119367,-122.0785476,,32.705555,0.1,119.14084,1591899041446
Fix,GT,37.4117979,-122.0782257,,32.06123,0.1,120.04364,1591899042446
Fix,GT,37.4116596,-122.0779118,,31.435764,0.1,120.16925,1591899043446
Fix,GT,37.4115245,-122.0776032,,30.942762,0.1,119.67993,1591899044446
Fix,GT,37.4113932,-122.0772964,,30.798613,0.1,119.10361,1591899045446
Fix,GT,37.4112644,-122.0769876,,30.890968,0.1,118.46753,1591899046446
Fix,GT,37.4111368,-122.0766769,,30.987883,0.1,118.52057,1591899047446
Fix,GT,37.4110066,-122.0763665,,31.109571,0.1,119.40219,1591899048446
Fix,GT,37.4108719,-122.0760578,,31.21488,0.1,120.35388,1591899049446
Fix,GT,37.4107332,-122.0757503,,31.320702,0.1,121.041016,1591899050446
Fix,GT,37.4105922,-122.075443,,31.432852,0.1,121.20416,1591899051446
Fix,GT,37.4104506,-122.075135,,31.501875,0.1,121.10501,1591899052446
Fix,GT,37.410309,-122.0748264,,31.545238,0.1,121.09161,1591899053446
Fix,GT,37.4101673,-122.0745174,,31.560822,0.1,121.10498,1591899054446
Fix,GT,37.4100254,-122.0742087,,31.500792,0.1,121.11929,1591899055446
Fix,GT,37.409884,-122.0739011,,31.37608,0.1,121.171844,1591899056446
Fix,GT,37.4097426,-122.0735947,,31.33088,0.1,121.4137,1591899057446
Fix,GT,37.4096003,-122.0732894,,31.27496,0.1,121.61508,1591899058446
Fix,GT,37.4094583,-122.0729853,,31.142277,0.1,121.38446,1591899059446
Fix,GT,37.4093182,-122.0726815,,30.96849,0.1,121.129364,1591899060446
Fix,GT,37.4091796,-122.0723793,,30.75346,0.1,121.193115,1591899061446
Fix,GT,37.4090414,-122.0720801,,30.514671,0.1,121.36981,1591899062446
Fix,GT,37.4089019,-122.0717849,,30.259842,0.1,122.52716,1591899063446
Fix,GT,37.4087549,-122.0714999,,29.948376,0.1,126.00302,1591899064446
Fix,GT,37.408593,-122.0712329,,29.631073,0.1,131.24518,1591899065446
Fix,GT,37.4084128,-122.0709893,,29.404177,0.1,137.11111,1591899066446
Fix,GT,37.4082151,-122.0707708,,29.275036,0.1,142.54999,1591899067446
Fix,GT,37.4080026,-122.0705772,,29.214455,0.1,147.72098,1591899068446
Fix,GT,37.4077774,-122.0704085,,29.154665,0.1,152.92859,1591899069446
Fix,GT,37.4075422,-122.070267,,28.93216,0.1,158.3429,1591899070446
Fix,GT,37.4072997,-122.0701567,,28.51823,0.1,164.31128,1591899071446
Fix,GT,37.4070523,-122.0700794,,28.287605,0.1,170.08496,1591899072446
Fix,GT,37.4068007,-122.0700325,,28.380503,0.1,175.24445,1591899073446
Fix,GT,37.4065446,-122.0700105,,28.688053,0.1,178.78772,1591899074446
Fix,GT,37.4062846,-122.0700017,,29.065296,0.1,179.95123,1591899075446
Fix,GT,37.4060204,-122.0699958,,29.594954,0.1,180.19824,1591899076446
Fix,GT,37.4057512,-122.0699905,,30.194286,0.1,180.29832,1591899077446
Fix,GT,37.4054767,-122.0699854,,30.74158,0.1,180.28218,1591899078446
Fix,GT,37.4051977,-122.0699808,,31.220709,0.1,180.56534,1591899079446
Fix,GT,37.4049144,-122.0699787,,31.649393,0.1,181.03355,1591899080446
Fix,GT,37.4046277,-122.0699789,,31.998018,0.1,181.32889,1591899081446
Fix,GT,37.4043381,-122.0699806,,32.276917,0.1,181.55136,1591899082446
Fix,GT,37.4040463,-122.069983,,32.484467,0.1,181.48619,1591899083446
Fix,GT,37.4037529,-122.0699845,,32.636196,0.1,181.34949,1591899084446
Fix,GT,37.4034583,-122.0699859,,32.7566,0.1,181.44304,1591899085446
Fix,GT,37.4031626,-122.0699885,,32.8604,0.1,181.68597,1591899086446
Fix,GT,37.402866,-122.0699922,,32.980724,0.1,181.8237,1591899087446
Fix,GT,37.4025682,-122.0699965,,33.167297,0.1,181.91693,1591899088446
Fix,GT,37.4022683,-122.0700019,,33.440056,0.1,182.0351,1591899089446
Fix,GT,37.4019654,-122.0700067,,33.762966,0.1,181.75566,1591899090446
Fix,GT,37.4016598,-122.0700092,,34.07901,0.1,181.39934,1591899091446
Fix,GT,37.4013518,-122.0700098,,34.22368,0.1,181.06915,1591899092446
Fix,GT,37.4010439,-122.070007,,34.045284,0.1,180.38837,1591899093446
Fix,GT,37.400738,-122.0699981,,33.899193,0.1,179.10297,1591899094446
Fix,GT,37.4004325,-122.0699773,,34.05136,0.1,176.78601,1591899095446
Fix,GT,37.400126,-122.0699385,,34.26954,0.1,173.96155,1591899096446
Fix,GT,37.3998197,-122.0698813,,34.444748,0.1,171.367,1591899097446
Fix,GT,37.3995142,-122.0698086,,34.58701,0.1,169.53394,1591899098446
Fix,GT,37.3992087,-122.0697275,,34.710617,0.1,169.00177,1591899099446
Fix,GT,37.3989025,-122.0696447,,34.79245,0.1,168.97412,1591899100446
Fix,GT,37.398596,-122.0695615,,34.82334,0.1,168.88629,1591899101446
Fix,GT,37.3982894,-122.0694776,,34.837006,0.1,168.83984,1591899102446
Fix,GT,37.3979825,-122.069394,,34.876015,0.1,168.97644,1591899103446
Fix,GT,37.3976752,-122.069311,,34.93008,0.1,169.06195,1591899104446
Fix,GT,37.3973672,-122.0692284,,34.99544,0.1,169.12299,1591899105446
Fix,GT,37.3970586,-122.0691469,,35.039753,0.1,169.57214,1591899106446
Fix,GT,37.3967488,-122.06907,,35.061726,0.1,170.44934,1591899107446
Fix,GT,37.396438,-122.0689983,,35.091515,0.1,170.84094,1591899108446
Fix,GT,37.3961274,-122.0689268,,34.9391,0.1,170.48462,1591899109446
Fix,GT,37.3958202,-122.0688525,,34.447903,0.1,170.01196,1591899110446
Fix,GT,37.3955178,-122.0687785,,33.976315,0.1,170.43591,1591899111446
Fix,GT,37.3952174,-122.0687119,,33.812546,0.1,171.95325,1591899112446
Fix,GT,37.3949165,-122.0686566,,33.722797,0.1,173.7121,1591899113446
Fix,GT,37.3946158,-122.068612,,33.53218,0.1,175.1026,1591899114446
Fix,GT,37.394316,-122.068576,,33.33689,0.1,176.43353,1591899115446
Fix,GT,37.3940173,-122.06855,,33.17502,0.1,178.13983,1591899116446
Fix,GT,37.3937194,-122.0685357,,33.026886,0.1,179.87775,1591899117446
Fix,GT,37.3934224,-122.068532,,32.949368,0.1,181.44124,1591899118446
Fix,GT,37.3931257,-122.0685381,,32.994976,0.1,182.80653,1591899119446
Fix,GT,37.3928282,-122.0685526,,33.131393,0.1,184.15771,1591899120446
Fix,GT,37.3925294,-122.068576,,33.318882,0.1,185.35696,1591899121446
Fix,GT,37.3922294,-122.0686057,,33.509808,0.1,185.92924,1591899122446
Fix,GT,37.3919279,-122.0686373,,33.684864,0.1,185.9834,1591899123446
Fix,GT,37.3916245,-122.0686685,,33.873306,0.1,185.69852,1591899124446
Fix,GT,37.3913195,-122.068698,,34.060635,0.1,185.47728,1591899125446
Fix,GT,37.3910128,-122.0687269,,34.257153,0.1,185.55357,1591899126446
Fix,GT,37.3907041,-122.0687572,,34.48363,0.1,185.72038,1591899127446
Fix,GT,37.3903933,-122.0687887,,34.72831,0.1,185.75674,1591899128446
Fix,GT,37.3900801,-122.0688193,,35.01037,0.1,185.49977,1591899129446
Fix,GT,37.3897641,-122.0688481,,35.293037,0.1,185.19476,1591899130446
Fix,GT,37.3894462,-122.0688755,,35.439598,0.1,185.11621,1591899131446
Fix,GT,37.3891269,-122.0689014,,35.59739,0.1,184.53952,1591899132446
Fix,GT,37.3888048,-122.0689196,,35.96144,0.1,182.81541,1591899133446
Fix,GT,37.3884791,-122.0689234,,36.30204,0.1,180.56425,1591899134446
Fix,GT,37.3881511,-122.0689123,,36.42333,0.1,178.59827,1591899135446
Fix,GT,37.3878243,-122.0688886,,36.18402,0.1,177.10925,1591899136446
Fix,GT,37.3875014,-122.0688564,,35.667744,0.1,176.27747,1591899137446
Fix,GT,37.3871843,-122.0688215,,34.98396,0.1,176.12451,1591899138446
Fix,GT,37.3868737,-122.068787,,34.228413,0.1,176.09076,1591899139446
Fix,GT,37.3865698,-122.0687528,,33.49191,0.1,175.96057,1591899140446
Fix,GT,37.3862725,-122.0687186,,32.781948,0.1,175.87799,1591899141446
Fix,GT,37.3859816,-122.068685,,32.094543,0.1,175.93872,1591899142446
Fix,GT,37.3856964,-122.0686527,,31.501328,0.1,176.0921,1591899143446
Fix,GT,37.3854152,-122.0686219,,31.223278,0.1,176.2649,1591899144446
Fix,GT,37.385135,-122.0685922,,31.13816,0.1,176.44104,1591899145446
Fix,GT,37.3848567,-122.0685636,,30.771233,0.1,176.44165,1591899146446
Fix,GT,37.3845827,-122.0685344,,30.250778,0.1,176.11499,1591899147446
Fix,GT,37.3843135,-122.0685038,,29.771473,0.1,175.83954,1591899148446
Fix,GT,37.3840485,-122.0684727,,29.337059,0.1,175.81836,1591899149446
Fix,GT,37.3837866,-122.0684422,,29.082909,0.1,175.9002,1591899150446
Fix,GT,37.3835256,-122.0684122,,29.132149,0.1,176.0274,1591899151446
Fix,GT,37.3832632,-122.068383,,29.348455,0.1,176.1958,1591899152446
Fix,GT,37.3829987,-122.0683543,,29.561623,0.1,176.20654,1591899153446
Fix,GT,37.3827331,-122.0683251,,29.601017,0.1,176.10327,1591899154446
Fix,GT,37.382468,-122.0682957,,29.4981,0.1,176.09253,1591899155446
Fix,GT,37.3822036,-122.0682663,,29.410797,0.1,176.08972,1591899156446
Fix,GT,37.3819399,-122.0682368,,29.365608,0.1,176.03235,1591899157446
Fix,GT,37.381676,-122.0682071,,29.49466,0.1,175.99945,1591899158446
Fix,GT,37.3814103,-122.0681771,,29.707087,0.1,176.03241,1591899159446
Fix,GT,37.3811436,-122.0681473,,29.689629,0.1,176.14563,1591899160446
Fix,GT,37.3808782,-122.0681183,,29.419964,0.1,176.18298,1591899161446
Fix,GT,37.3806158,-122.0680893,,29.053848,0.1,176.13824,1591899162446
Fix,GT,37.3803567,-122.068061,,28.681847,0.1,176.18457,1591899163446
Fix,GT,37.380101,-122.0680328,,28.302082,0.1,176.0918,1591899164446
Fix,GT,37.3798489,-122.0680044,,27.884365,0.1,176.00262,1591899165446
Fix,GT,37.3796006,-122.0679767,,27.44786,0.1,176.1961,1591899166446
Fix,GT,37.3793568,-122.0679508,,26.80093,0.1,176.44806,1591899167446
Fix,GT,37.3791205,-122.0679265,,25.765623,0.1,176.44507,1591899168446
Fix,GT,37.3788931,-122.067902,,24.951,0.1,176.03375,1591899169446
Fix,GT,37.3786702,-122.0678758,,24.850521,0.1,175.69623,1591899170446
Fix,GT,37.378446,-122.0678502,,25.205147,0.1,176.38153,1591899171446
Fix,GT,37.3782175,-122.0678299,,25.681318,0.1,177.844,1591899172446
Fix,GT,37.3779845,-122.0678179,,26.093634,0.1,179.65259,1591899173446
Fix,GT,37.3777479,-122.0678156,,26.466984,0.1,181.62415,1591899174446
Fix,GT,37.377508,-122.0678224,,26.826504,0.1,183.1367,1591899175446
Fix,GT,37.3772652,-122.0678364,,27.163372,0.1,184.28421,1591899176446
Fix,GT,37.3770196,-122.0678562,,27.467274,0.1,185.44284,1591899177446
Fix,GT,37.3767717,-122.0678823,,27.753853,0.1,186.46289,1591899178446
Fix,GT,37.3765217,-122.067913,,28.010822,0.1,186.97807,1591899179446
Fix,GT,37.3762697,-122.0679454,,28.204128,0.1,187.14914,1591899180446
Fix,GT,37.3760164,-122.067979,,28.360287,0.1,187.34323,1591899181446
Fix,GT,37.3757615,-122.0680131,,28.497593,0.1,187.11115,1591899182446
Fix,GT,37.3755052,-122.0680437,,28.646782,0.1,186.15271,1591899183446
Fix,GT,37.3752467,-122.0680672,,28.830082,0.1,184.54991,1591899184446
Fix,GT,37.3749862,-122.0680792,,29.043297,0.1,182.03302,1591899185446
Fix,GT,37.3747235,-122.0680755,,29.252434,0.1,179.20258,1591899186446
Fix,GT,37.3744596,-122.0680569,,29.37872,0.1,176.72754,1591899187446
Fix,GT,37.374196,-122.0680239,,29.399836,0.1,174.20166,1591899188446
Fix,GT,37.3739345,-122.0679754,,29.222038,0.1,171.35681,1591899189446
Fix,GT,37.3736773,-122.0679113,,29.003307,0.1,168.54529,1591899190446
Fix,GT,37.3734236,-122.0678319,,29.068186,0.1,165.85571,1591899191446
Fix,GT,37.373172,-122.0677373,,29.218853,0.1,163.15942,1591899192446
Fix,GT,37.372923,-122.0676274,,29.338001,0.1,160.4668,1591899193446
Fix,GT,37.3726775,-122.0675031,,29.451874,0.1,157.95935,1591899194446
Fix,GT,37.3724347,-122.0673664,,29.638912,0.1,156.1258,1591899195446
Fix,GT,37.3721927,-122.0672216,,29.883205,0.1,155.38733,1591899196446
Fix,GT,37.3719494,-122.0670741,,30.1002,0.1,155.33838,1591899197446
Fix,GT,37.3717045,-122.0669258,,30.266357,0.1,155.42828,1591899198446
Fix,GT,37.371458,-122.0667772,,30.435211,0.1,155.52429,1591899199446
Fix,GT,37.3712101,-122.0666281,,30.617947,0.1,155.55511,1591899200446
Fix,GT,37.3709607,-122.0664781,,30.76838,0.1,155.47632,1591899201446
Fix,GT,37.3707109,-122.0663268,,30.818745,0.1,155.26587,1591899202446
Fix,GT,37.370461,-122.0661742,,30.907053,0.1,155.17175,1591899203446
Fix,GT,37.3702099,-122.0660211,,31.081728,0.1,155.2699,1591899204446
Fix,GT,37.3699573,-122.0658678,,31.238806,0.1,155.35449,1591899205446
Fix,GT,37.3697031,-122.0657139,,31.401733,0.1,155.38733,1591899206446
Fix,GT,37.3694479,-122.0655596,,31.461409,0.1,155.39148,1591899207446
Fix,GT,37.3691932,-122.0654054,,31.29705,0.1,155.34088,1591899208446
Fix,GT,37.3689401,-122.0652517,,31.187237,0.1,155.25208,1591899209446
Fix,GT,37.368687,-122.0650974,,31.296104,0.1,155.18811,1591899210446
Fix,GT,37.3684329,-122.0649424,,31.438587,0.1,155.19513,1591899211446
Fix,GT,37.3681776,-122.0647876,,31.511623,0.1,155.43787,1591899212446
Fix,GT,37.3679219,-122.0646337,,31.447372,0.1,155.58582,1591899213446
Fix,GT,37.3676669,-122.0644804,,31.326336,0.1,155.4483,1591899214446
Fix,GT,37.3674132,-122.064327,,31.222946,0.1,155.3393,1591899215446
Fix,GT,37.3671601,-122.0641734,,31.21129,0.1,155.28064,1591899216446
Fix,GT,37.3669072,-122.0640195,,31.186535,0.1,155.30127,1591899217446
Fix,GT,37.3666547,-122.0638676,,30.933968,0.1,155.99445,1591899218446
Fix,GT,37.3664027,-122.0637253,,30.458408,0.1,158.06152,1591899219446
Fix,GT,37.3661502,-122.063599,,29.927876,0.1,160.6784,1591899220446
Fix,GT,37.3658983,-122.0634881,,29.388903,0.1,162.87561,1591899221446
Fix,GT,37.3656482,-122.0633907,,28.805424,0.1,165.04883,1591899222446
Fix,GT,37.3654003,-122.0633076,,28.200127,0.1,167.33679,1591899223446
Fix,GT,37.3651552,-122.063238,,27.682053,0.1,169.39038,1591899224446
Fix,GT,37.3649117,-122.0631797,,27.424229,0.1,171.27771,1591899225446
Fix,GT,37.364668,-122.0631319,,27.384136,0.1,173.15094,1591899226446
Fix,GT,37.3644233,-122.0630941,,27.398129,0.1,175.15326,1591899227446
Fix,GT,37.3641774,-122.0630675,,27.441809,0.1,177.30621,1591899228446
Fix,GT,37.363931,-122.0630528,,27.312748,0.1,179.57385,1591899229446
Fix,GT,37.363686,-122.063049,,27.09515,0.1,181.25838,1591899230446
Fix,GT,37.3634423,-122.0630514,,27.024488,0.1,181.9187,1591899231446
Fix,GT,37.3631995,-122.0630558,,26.8316,0.1,182.10123,1591899232446
Fix,GT,37.3629597,-122.0630606,,26.30566,0.1,182.17699,1591899233446
Fix,GT,37.3627266,-122.063066,,25.34365,0.1,182.33383,1591899234446
Fix,GT,37.3625033,-122.0630716,,24.250877,0.1,182.30861,1591899235446
Fix,GT,37.3622893,-122.0630764,,23.258139,0.1,182.1099,1591899236446
Fix,GT,37.3620845,-122.0630802,,22.147491,0.1,181.95793,1591899237446
Fix,GT,37.3618902,-122.0630831,,20.94405,0.1,181.92737,1591899238446
Fix,GT,37.3617063,-122.0630862,,19.959782,0.1,182.01187,1591899239446
Fix,GT,37.3615286,-122.0630897,,19.53389,0.1,182.16733,1591899240446
Fix,GT,37.3613539,-122.0630938,,19.266739,0.1,182.3439,1591899241446
Fix,GT,37.3611817,-122.0630986,,18.886078,0.1,182.531,1591899242446
Fix,GT,37.3610145,-122.0631038,,18.147457,0.1,182.68764,1591899243446
Fix,GT,37.3608556,-122.0631089,,17.153452,0.1,182.57607,1591899244446
Fix,GT,37.3607049,-122.0631127,,16.33508,0.1,182.09442,1591899245446
Fix,GT,37.3605598,-122.0631151,,15.91526,0.1,181.84221,1591899246446
Fix,GT,37.3604176,-122.0631177,,15.684147,0.1,182.08453,1591899247446
Fix,GT,37.3602768,-122.0631207,,15.625677,0.1,182.27533,1591899248446
Fix,GT,37.3601351,-122.0631242,,15.913385,0.1,182.38786,1591899249446
Fix,GT,37.3599895,-122.0631281,,16.447256,0.1,182.45665,1591899250446
Fix,GT,37.3598388,-122.0631318,,16.961515,0.1,182.28825,1591899251446
Fix,GT,37.3596846,-122.0631341,,17.188107,0.1,181.5485,1591899252446
Fix,GT,37.3595295,-122.063133,,17.279446,0.1,180.41563,1591899253446
Fix,GT,37.3593731,-122.0631282,,17.476767,0.1,179.30548,1591899254446
Fix,GT,37.3592144,-122.0631196,,17.767803,0.1,178.42236,1591899255446
Fix,GT,37.3590525,-122.063109,,18.215023,0.1,178.18323,1591899256446
Fix,GT,37.3588872,-122.063098,,18.507767,0.1,178.0423,1591899257446
Fix,GT,37.3587201,-122.0630852,,18.67154,0.1,177.47101,1591899258446
Fix,GT,37.3585514,-122.0630702,,18.853855,0.1,176.85681,1591899259446
Fix,GT,37.3583816,-122.0630528,,18.861252,0.1,176.18304,1591899260446
Fix,GT,37.3582132,-122.0630327,,18.655287,0.1,175.44812,1591899261446
Fix,GT,37.3580483,-122.0630104,,18.14792,0.1,174.7049,1591899262446
Fix,GT,37.3578887,-122.0629861,,17.527903,0.1,173.96802,1591899263446
Fix,GT,37.3577338,-122.0629601,,17.194603,0.1,173.22546,1591899264446
Fix,GT,37.3575815,-122.0629318,,16.970901,0.1,172.39459,1591899265446
Fix,GT,37.3574307,-122.0629008,,17.020546,0.1,171.60687,1591899266446
Fix,GT,37.3572777,-122.0628674,,17.559261,0.1,171.18549,1591899267446
Fix,GT,37.3571187,-122.0628313,,18.300716,0.1,170.68323,1591899268446
Fix,GT,37.3569536,-122.0627912,,19.027695,0.1,169.8888,1591899269446
Fix,GT,37.3567826,-122.0627467,,19.729921,0.1,169.1333,1591899270446
Fix,GT,37.3566059,-122.0626976,,20.39777,0.1,168.38202,1591899271446
Fix,GT,37.3564242,-122.0626443,,21.00881,0.1,167.67438,1591899272446
Fix,GT,37.3562381,-122.0625866,,21.51902,0.1,166.97052,1591899273446
Fix,GT,37.3560486,-122.0625247,,21.945974,0.1,166.21008,1591899274446
Fix,GT,37.3558562,-122.0624583,,22.355707,0.1,165.43774,1591899275446
Fix,GT,37.3556611,-122.0623873,,22.724081,0.1,164.60284,1591899276446
Fix,GT,37.355464,-122.0623115,,23.042725,0.1,163.6654,1591899277446
Fix,GT,37.3552652,-122.0622304,,23.328342,0.1,162.63855,1591899278446
Fix,GT,37.3550654,-122.0621438,,23.580578,0.1,161.6148,1591899279446
Fix,GT,37.3548648,-122.0620519,,23.815918,0.1,160.62958,1591899280446
Fix,GT,37.3546637,-122.061955,,23.994434,0.1,159.71735,1591899281446
Fix,GT,37.3544629,-122.0618544,,23.958527,0.1,159.07458,1591899282446
Fix,GT,37.3542641,-122.0617526,,23.632658,0.1,158.92548,1591899283446
Fix,GT,37.3540685,-122.061653,,23.277393,0.1,159.18903,1591899284446
Fix,GT,37.3538743,-122.0615561,,23.192959,0.1,159.6084,1591899285446
Fix,GT,37.3536794,-122.0614606,,23.284754,0.1,159.90112,1591899286446
Fix,GT,37.3534832,-122.0613653,,23.401497,0.1,160.0249,1591899287446
Fix,GT,37.353286,-122.0612699,,23.525303,0.1,160.03186,1591899288446
Fix,GT,37.3530878,-122.0611739,,23.616856,0.1,159.96527,1591899289446
Fix,GT,37.3528888,-122.0610781,,23.693008,0.1,160.3186,1591899290446
Fix,GT,37.3526887,-122.0609858,,23.631983,0.1,161.47046,1591899291446
Fix,GT,37.3524884,-122.0608995,,23.424911,0.1,162.75024,1591899292446
Fix,GT,37.352288,-122.0608184,,23.411003,0.1,163.63684,1591899293446
Fix,GT,37.3520855,-122.0607404,,23.64644,0.1,164.46149,1591899294446
Fix,GT,37.3518796,-122.0606658,,23.95082,0.1,165.54138,1591899295446
Fix,GT,37.3516702,-122.0605958,,24.154366,0.1,166.77594,1591899296446
Fix,GT,37.3514582,-122.0605302,,24.31557,0.1,167.6637,1591899297446
Fix,GT,37.3512442,-122.0604681,,24.481186,0.1,168.51398,1591899298446
Fix,GT,37.3510287,-122.0604103,,24.443386,0.1,169.58289,1591899299446
Fix,GT,37.3508131,-122.060357,,24.3301,0.1,170.24603,1591899300446
Fix,GT,37.350598,-122.0603067,,24.284437,0.1,170.88452,1591899301446
Fix,GT,37.3503817,-122.0602598,,24.493671,0.1,171.7143,1591899302446
Fix,GT,37.3501626,-122.0602164,,24.77541,0.1,172.66077,1591899303446
Fix,GT,37.3499414,-122.060178,,24.76678,0.1,173.86115,1591899304446
Fix,GT,37.3497211,-122.0601457,,24.47963,0.1,175.15222,1591899305446
Fix,GT,37.3495033,-122.0601199,,24.086239,0.1,176.27417,1591899306446
Fix,GT,37.3492888,-122.060099,,23.694847,0.1,177.11316,1591899307446
Fix,GT,37.3490769,-122.0600815,,23.512772,0.1,177.74414,1591899308446
Fix,GT,37.3488653,-122.0600667,,23.60809,0.1,178.28473,1591899309446
Fix,GT,37.3486525,-122.0600548,,23.636961,0.1,178.97217,1591899310446
Fix,GT,37.3484403,-122.0600467,,23.467697,0.1,179.94421,1591899311446
Fix,GT,37.3482297,-122.0600434,,23.326092,0.1,180.92136,1591899312446
Fix,GT,37.3480195,-122.060043,,23.370083,0.1,181.15376,1591899313446
Fix,GT,37.3478085,-122.0600419,,23.439926,0.1,180.85388,1591899314446
Fix,GT,37.3475975,-122.0600401,,23.32333,0.1,180.78676,1591899315446
Fix,GT,37.3473886,-122.060039,,23.05138,0.1,181.16783,1591899316446
Fix,GT,37.347182,-122.0600401,,22.860407,0.1,181.6603,1591899317446
Fix,GT,37.346976,-122.0600424,,22.927235,0.1,181.67448,1591899318446
Fix,GT,37.3467687,-122.0600443,,23.088627,0.1,181.52101,1591899319446
Fix,GT,37.3465605,-122.0600453,,23.090675,0.1,181.29604,1591899320446
Fix,GT,37.3463533,-122.0600451,,22.876213,0.1,180.98451,1591899321446
Fix,GT,37.3461486,-122.0600437,,22.54712,0.1,180.84001,1591899322446
Fix,GT,37.345947,-122.0600422,,22.192242,0.1,180.89333,1591899323446
Fix,GT,37.3457484,-122.0600411,,21.956562,0.1,180.96893,1591899324446
Fix,GT,37.3455507,-122.0600406,,22.003853,0.1,181.1943,1591899325446
Fix,GT,37.3453515,-122.0600415,,22.175163,0.1,181.58588,1591899326446
Fix,GT,37.3451512,-122.0600439,,22.296669,0.1,181.82436,1591899327446
Fix,GT,37.3449497,-122.0600466,,22.45434,0.1,181.70905,1591899328446
Fix,GT,37.3447467,-122.0600479,,22.596737,0.1,181.25266,1591899329446
Fix,GT,37.3445427,-122.0600466,,22.688892,0.1,180.59952,1591899330446
Fix,GT,37.3443377,-122.0600424,,22.837547,0.1,180.05988,1591899331446
Fix,GT,37.344131,-122.0600369,,23.067799,0.1,180.00159,1591899332446
Fix,GT,37.343922,-122.0600321,,23.33454,0.1,180.2772,1591899333446
Fix,GT,37.3437107,-122.0600284,,23.587347,0.1,180.52032,1591899334446
Fix,GT,37.3434972,-122.0600259,,23.819113,0.1,180.70518,1591899335446
Fix,GT,37.3432815,-122.0600237,,24.075836,0.1,180.73103,1591899336446
Fix,GT,37.343063,-122.0600214,,24.424137,0.1,180.64005,1591899337446
Fix,GT,37.3428409,-122.060018,,24.859428,0.1,180.2841,1591899338446
Fix,GT,37.3426151,-122.0600131,,25.281292,0.1,180.1604,1591899339446
Fix,GT,37.3423855,-122.0600092,,25.703133,0.1,180.65837,1591899340446
Fix,GT,37.3421519,-122.0600076,,26.15578,0.1,181.10127,1591899341446
Fix,GT,37.341914,-122.0600078,,26.66816,0.1,181.34384,1591899342446
Fix,GT,37.3416714,-122.0600085,,27.177582,0.1,181.29466,1591899343446
Fix,GT,37.3414247,-122.0600086,,27.548079,0.1,181.10965,1591899344446
Fix,GT,37.3411753,-122.0600078,,27.776718,0.1,181.04926,1591899345446
Fix,GT,37.340924,-122.0600076,,28.023396,0.1,181.40196,1591899346446
Fix,GT,37.3406704,-122.0600108,,28.304562,0.1,182.22704,1591899347446
Fix,GT,37.3404141,-122.0600191,,28.579552,0.1,183.00487,1591899348446
Fix,GT,37.3401557,-122.0600293,,28.81504,0.1,182.87518,1591899349446
Fix,GT,37.3398953,-122.0600367,,28.980246,0.1,182.10973,1591899350446
Fix,GT,37.3396337,-122.0600397,,29.042902,0.1,181.38593,1591899351446
Fix,GT,37.3393725,-122.0600389,,28.945414,0.1,180.82147,1591899352446
Fix,GT,37.3391119,-122.0600353,,28.93332,0.1,180.35136,1591899353446
Fix,GT,37.3388505,-122.0600283,,29.07175,0.1,179.5991,1591899354446
Fix,GT,37.3385883,-122.0600151,,29.15421,0.1,178.20325,1591899355446
Fix,GT,37.3383258,-122.0599924,,29.232796,0.1,176.3736,1591899356446
Fix,GT,37.3380633,-122.0599586,,29.296501,0.1,174.23865,1591899357446
Fix,GT,37.3378018,-122.0599119,,29.30885,0.1,171.91907,1591899358446
Fix,GT,37.337542,-122.059853,,29.305096,0.1,170.03485,1591899359446
Fix,GT,37.3372835,-122.0597848,,29.303986,0.1,168.50427,1591899360446
Fix,GT,37.3370265,-122.0597088,,29.28688,0.1,167.38959,1591899361446
Fix,GT,37.3367706,-122.059629,,29.232882,0.1,167.05042,1591899362446
Fix,GT,37.3365164,-122.059549,,28.927608,0.1,167.11584,1591899363446
Fix,GT,37.336266,-122.0594716,,28.302685,0.1,167.6283,1591899364446
Fix,GT,37.3360209,-122.0594,,27.542805,0.1,168.48853,1591899365446
Fix,GT,37.3357822,-122.0593352,,26.721392,0.1,169.4372,1591899366446
Fix,GT,37.3355498,-122.0592775,,25.853266,0.1,170.45825,1591899367446
Fix,GT,37.3353247,-122.0592267,,24.899427,0.1,171.31421,1591899368446
Fix,GT,37.3351077,-122.0591809,,23.985352,0.1,171.75305,1591899369446
Fix,GT,37.334898,-122.0591377,,23.222782,0.1,171.80548,1591899370446
Fix,GT,37.334695,-122.059096,,22.367264,0.1,171.84863,1591899371446
Fix,GT,37.3345005,-122.0590565,,21.252407,0.1,172.12445,1591899372446
Fix,GT,37.3343177,-122.0590203,,19.79508,0.1,172.15344,1591899373446
Fix,GT,37.3341496,-122.058987,,17.937393,0.1,172.24286,1591899374446
Fix,GT,37.3339977,-122.0589596,,16.243483,0.1,173.62683,1591899375446
Fix,GT,37.3338571,-122.0589432,,15.319289,0.1,177.78406,1591899376446
Fix,GT,37.3337218,-122.058946,,14.925079,0.1,185.36212,1591899377446
Fix,GT,37.3335919,-122.0589739,,14.6430645,0.1,194.65784,1591899378446
Fix,GT,37.3334692,-122.0590286,,14.587954,0.1,204.70766,1591899379446
Fix,GT,37.3333548,-122.0591093,,14.844728,0.1,214.20224,1591899380446
Fix,GT,37.3332496,-122.0592151,,15.373101,0.1,223.73994,1591899381446
Fix,GT,37.3331579,-122.0593467,,15.905787,0.1,234.17383,1591899382446
Fix,GT,37.3330834,-122.0595014,,16.445274,0.1,243.71297,1591899383446
Fix,GT,37.3330256,-122.0596745,,17.021729,0.1,251.33263,1591899384446
Fix,GT,37.3329824,-122.0598611,,17.573448,0.1,257.19904,1591899385446
Fix,GT,37.3329516,-122.0600581,,18.121235,0.1,262.06165,1591899386446
Fix,GT,37.3329338,-122.0602638,,18.689156,0.1,267.02206,1591899387446
Fix,GT,37.3329295,-122.0604773,,19.270348,0.1,271.52185,1591899388446
Fix,GT,37.3329372,-122.0606972,,19.828781,0.1,275.2575,1591899389446
Fix,GT,37.3329568,-122.0609218,,20.273659,0.1,279.30017,1591899390446
Fix,GT,37.3329918,-122.0611474,,20.60793,0.1,284.71045,1591899391446
Fix,GT,37.3330457,-122.0613714,,21.0017,0.1,290.17413,1591899392446
Fix,GT,37.3331137,-122.0615954,,21.557835,0.1,292.9001,1591899393446
Fix,GT,37.3331884,-122.061824,,22.268085,0.1,293.65533,1591899394446
Fix,GT,37.3332673,-122.0620598,,23.054863,0.1,294.03146,1591899395446
Fix,GT,37.3333493,-122.0623036,,23.8162,0.1,293.7832,1591899396446
Fix,GT,37.3334318,-122.0625563,,24.55224,0.1,292.92572,1591899397446
Fix,GT,37.3335132,-122.0628183,,25.267038,0.1,291.97162,1591899398446
Fix,GT,37.3335943,-122.0630888,,25.918224,0.1,291.68042,1591899399446
Fix,GT,37.3336782,-122.0633655,,26.53209,0.1,292.19623,1591899400446
Fix,GT,37.333767,-122.0636469,,27.129467,0.1,293.19617,1591899401446
Fix,GT,37.3338612,-122.0639327,,27.69046,0.1,293.9842,1591899402446
Fix,GT,37.3339588,-122.0642235,,28.227879,0.1,293.76157,1591899403446
Fix,GT,37.3340545,-122.0645221,,28.761122,0.1,292.19492,1591899404446
Fix,GT,37.3341437,-122.0648301,,29.299433,0.1,290.04428,1591899405446
Fix,GT,37.3342246,-122.0651479,,29.798532,0.1,287.74426,1591899406446
Fix,GT,37.3342966,-122.0654746,,30.247616,0.1,285.4797,1591899407446
Fix,GT,37.3343601,-122.0658091,,30.66796,0.1,283.60516,1591899408446
Fix,GT,37.3344153,-122.0661501,,30.992426,0.1,281.5368,1591899409446
Fix,GT,37.3344608,-122.0664965,,31.185795,0.1,279.45276,1591899410446
Fix,GT,37.3344965,-122.0668461,,31.278435,0.1,277.3695,1591899411446
Fix,GT,37.3345216,-122.0671982,,31.361412,0.1,275.1472,1591899412446
Fix,GT,37.3345359,-122.0675521,,31.445385,0.1,272.95032,1591899413446
Fix,GT,37.3345402,-122.0679075,,31.525013,0.1,271.10052,1591899414446
Fix,GT,37.3345359,-122.068264,,31.65287,0.1,269.31668,1591899415446
Fix,GT,37.3345216,-122.0686219,,31.83867,0.1,267.14264,1591899416446
Fix,GT,37.3344963,-122.0689816,,32.13846,0.1,265.00885,1591899417446
Fix,GT,37.334461,-122.0693438,,32.50094,0.1,263.11774,1591899418446
Fix,GT,37.3344149,-122.0697075,,32.656197,0.1,260.94434,1591899419446
Fix,GT,37.334358,-122.0700681,,32.45289,0.1,258.95947,1591899420446
Fix,GT,37.3342936,-122.0704234,,32.13858,0.1,257.77667,1591899421446
Fix,GT,37.3342261,-122.0707753,,32.023075,0.1,257.47403,1591899422446
Fix,GT,37.3341586,-122.0711264,,31.998005,0.1,257.6557,1591899423446
Fix,GT,37.3340919,-122.0714775,,31.961708,0.1,257.87582,1591899424446
Fix,GT,37.3340266,-122.0718288,,31.954105,0.1,258.17645,1591899425446
Fix,GT,37.3339628,-122.0721799,,31.834272,0.1,258.43484,1591899426446
Fix,GT,37.3339003,-122.0725289,,31.493305,0.1,258.44672,1591899427446
Fix,GT,37.3338391,-122.0728728,,30.947552,0.1,258.7236,1591899428446
Fix,GT,37.3337823,-122.0732109,,30.295174,0.1,259.85773,1591899429446
Fix,GT,37.3337333,-122.073543,,29.580307,0.1,261.34015,1591899430446
Fix,GT,37.3336927,-122.0738682,,28.841522,0.1,263.16708,1591899431446
Fix,GT,37.3336629,-122.0741874,,28.202705,0.1,265.86505,1591899432446
Fix,GT,37.3336452,-122.0745005,,27.5044,0.1,268.30997,1591899433446
Fix,GT,37.3336379,-122.0748056,,26.67331,0.1,270.5338,1591899434446
Fix,GT,37.3336401,-122.0751025,,26.022873,0.1,272.8542,1591899435446
Fix,GT,37.3336511,-122.0753926,,25.451252,0.1,274.69986,1591899436446
Fix,GT,37.3336686,-122.0756752,,24.798912,0.1,276.37637,1591899437446
Fix,GT,37.3336924,-122.0759497,,24.198019,0.1,278.2609,1591899438446
Fix,GT,37.3337234,-122.0762174,,23.789658,0.1,280.41193,1591899439446
Fix,GT,37.3337619,-122.0764792,,23.462517,0.1,282.63434,1591899440446
Fix,GT,37.3338077,-122.0767357,,23.179413,0.1,284.6231,1591899441446
Fix,GT,37.3338594,-122.0769873,,22.93827,0.1,286.35046,1591899442446
Fix,GT,37.3339167,-122.0772358,,22.952656,0.1,287.91016,1591899443446
Fix,GT,37.3339793,-122.0774839,,23.191484,0.1,289.26666,1591899444446
Fix,GT,37.3340476,-122.0777322,,23.370321,0.1,291.0057,1591899445446
Fix,GT,37.3341232,-122.0779787,,23.461891,0.1,293.22974,1591899446446
Fix,GT,37.3342067,-122.0782217,,23.447393,0.1,295.40424,1591899447446
Fix,GT,37.3342968,-122.0784609,,23.481964,0.1,297.18323,1591899448446
Fix,GT,37.3343928,-122.0786978,,23.671322,0.1,298.76382,1591899449446
Fix,GT,37.334495,-122.0789336,,23.913044,0.1,300.51022,1591899450446
Fix,GT,37.3346044,-122.0791673,,24.128109,0.1,302.50848,1591899451446
Fix,GT,37.3347213,-122.079398,,24.334408,0.1,304.5068,1591899452446
Fix,GT,37.3348457,-122.0796245,,24.413734,0.1,306.88284,1591899453446
Fix,GT,37.3349777,-122.0798441,,24.328693,0.1,309.27454,1591899454446
Fix,GT,37.3351155,-122.0800572,,24.335394,0.1,310.96954,1591899455446
Fix,GT,37.3352592,-122.0802664,,24.623959,0.1,312.6544,1591899456446
Fix,GT,37.3354094,-122.0804732,,24.908796,0.1,314.11563,1591899457446
Fix,GT,37.3355637,-122.0806773,,24.867,0.1,314.94788,1591899458446
Fix,GT,37.3357188,-122.0808784,,24.71899,0.1,315.37265,1591899459446
Fix,GT,37.3358739,-122.0810775,,24.591263,0.1,315.41748,1591899460446
Fix,GT,37.3360287,-122.081277,,24.742695,0.1,315.378,1591899461446
Fix,GT,37.3361854,-122.081479,,25.167019,0.1,315.30695,1591899462446
Fix,GT,37.3363441,-122.0816848,,25.5057,0.1,315.0871,1591899463446
Fix,GT,37.3365041,-122.0818934,,25.750626,0.1,315.0629,1591899464446
Fix,GT,37.336665,-122.0821036,,25.793617,0.1,314.8339,1591899465446
Fix,GT,37.3368238,-122.0823147,,25.556675,0.1,314.13455,1591899466446
Fix,GT,37.3369784,-122.0825255,,25.165184,0.1,313.4572,1591899467446
Fix,GT,37.3371284,-122.0827352,,24.717497,0.1,312.63055,1591899468446
Fix,GT,37.3372729,-122.0829449,,24.400951,0.1,311.35422,1591899469446
Fix,GT,37.3374124,-122.0831569,,24.323582,0.1,310.1851,1591899470446
Fix,GT,37.3375486,-122.083372,,24.31499,0.1,309.12738,1591899471446
Fix,GT,37.3376817,-122.0835901,,24.31218,0.1,308.0732,1591899472446
Fix,GT,37.3378113,-122.0838106,,24.182182,0.1,307.08154,1591899473446
Fix,GT,37.3379375,-122.0840313,,23.934763,0.1,306.53772,1591899474446
Fix,GT,37.3380619,-122.0842514,,23.885492,0.1,306.5182,1591899475446
Fix,GT,37.3381868,-122.0844721,,24.052847,0.1,306.42276,1591899476446
Fix,GT,37.3383113,-122.0846946,,24.074001,0.1,306.00903,1591899477446
Fix,GT,37.3384341,-122.0849169,,23.825453,0.1,305.6871,1591899478446
Fix,GT,37.3385554,-122.085137,,23.553776,0.1,305.86218,1591899479446
Fix,GT,37.3386756,-122.0853543,,23.306763,0.1,305.86658,1591899480446
Fix,GT,37.3387945,-122.0855695,,23.10043,0.1,305.83017,1591899481446
Fix,GT,37.3389126,-122.0857831,,22.938248,0.1,305.89215,1591899482446
Fix,GT,37.3390303,-122.0859952,,22.964436,0.1,306.0314,1591899483446
Fix,GT,37.3391496,-122.0862091,,23.42644,0.1,306.0266,1591899484446
Fix,GT,37.3392709,-122.0864302,,24.125637,0.1,305.08926,1591899485446
Fix,GT,37.3393919,-122.086662,,24.946266,0.1,303.75113,1591899486446
Fix,GT,37.3395147,-122.0869043,,25.913166,0.1,303.70377,1591899487446
Fix,GT,37.3396438,-122.0871538,,26.802166,0.1,304.5159,1591899488446
Fix,GT,37.3397801,-122.0874094,,27.703007,0.1,305.22324,1591899489446
Fix,GT,37.3399229,-122.0876723,,28.639496,0.1,305.4395,1591899490446
Fix,GT,37.3400698,-122.087944,,29.531683,0.1,305.0756,1591899491446
Fix,GT,37.3402187,-122.088226,,30.368183,0.1,304.1644,1591899492446
Fix,GT,37.3403674,-122.0885189,,31.123684,0.1,303.09637,1591899493446
Fix,GT,37.3405157,-122.0888214,,31.746231,0.1,302.39514,1591899494446
Fix,GT,37.3406642,-122.0891308,,32.18268,0.1,301.946,1591899495446
Fix,GT,37.3408126,-122.089445,,32.48739,0.1,301.6671,1591899496446
Fix,GT,37.340962,-122.0897624,,32.83545,0.1,301.71103,1591899497446
Fix,GT,37.3411138,-122.0900831,,33.24607,0.1,301.9546,1591899498446
Fix,GT,37.3412693,-122.0904063,,33.667236,0.1,302.62973,1591899499446
Fix,GT,37.3414312,-122.0907295,,33.941017,0.1,303.91504,1591899500446
Fix,GT,37.341601,-122.0910489,,34.083706,0.1,305.81693,1591899501446
Fix,GT,37.3417806,-122.0913615,,34.234886,0.1,308.23486,1591899502446
Fix,GT,37.3419719,-122.0916648,,34.298294,0.1,310.95337,1591899503446
Fix,GT,37.3421754,-122.0919553,,34.256622,0.1,314.17496,1591899504446
Fix,GT,37.3423915,-122.0922296,,34.0877,0.1,317.4099,1591899505446
Fix,GT,37.3426164,-122.0924895,,33.85924,0.1,319.3986,1591899506446
Fix,GT,37.3428445,-122.0927418,,33.713802,0.1,319.96347,1591899507446
Fix,GT,37.3430721,-122.0929928,,33.59629,0.1,319.55188,1591899508446
Fix,GT,37.3432968,-122.093246,,33.476765,0.1,318.77798,1591899509446
Fix,GT,37.3435189,-122.0935007,,33.393364,0.1,318.59695,1591899510446
Fix,GT,37.3437408,-122.0937547,,33.33124,0.1,318.85547,1591899511446
Fix,GT,37.3439617,-122.0940089,,33.275696,0.1,318.20847,1591899512446
Fix,GT,37.3441786,-122.0942683,,33.26346,0.1,316.60815,1591899513446
Fix,GT,37.3443894,-122.0945361,,33.35142,0.1,314.86337,1591899514446
Fix,GT,37.3445938,-122.0948133,,33.51371,0.1,312.71558,1591899515446
Fix,GT,37.3447903,-122.095102,,33.691505,0.1,310.24417,1591899516446
Fix,GT,37.3449768,-122.0954035,,33.880592,0.1,307.57684,1591899517446
Fix,GT,37.3451534,-122.095717,,34.07125,0.1,305.1389,1591899518446
Fix,GT,37.3453209,-122.0960406,,34.254173,0.1,302.99704,1591899519446
Fix,GT,37.3454796,-122.0963735,,34.506477,0.1,300.94495,1591899520446
Fix,GT,37.3456314,-122.0967157,,34.870052,0.1,299.42688,1591899521446
Fix,GT,37.3457796,-122.0970654,,35.292053,0.1,298.8287,1591899522446
Fix,GT,37.3459282,-122.0974201,,35.674706,0.1,298.8077,1591899523446
Fix,GT,37.3460785,-122.0977782,,36.020294,0.1,299.0184,1591899524446
Fix,GT,37.3462314,-122.098139,,36.355995,0.1,299.20978,1591899525446
Fix,GT,37.3463865,-122.0985024,,36.664856,0.1,299.33575,1591899526446
Fix,GT,37.346543,-122.0988683,,36.88468,0.1,299.3452,1591899527446
Fix,GT,37.3467002,-122.0992358,,36.988853,0.1,299.24207,1591899528446
Fix,GT,37.3468571,-122.0996041,,37.0123,0.1,299.1865,1591899529446
Fix,GT,37.3470136,-122.0999727,,36.948566,0.1,299.13928,1591899530446
Fix,GT,37.3471695,-122.1003404,,36.82801,0.1,299.0842,1591899531446
Fix,GT,37.3473246,-122.1007072,,36.687096,0.1,298.97195,1591899532446
Fix,GT,37.3474787,-122.1010723,,36.503807,0.1,299.26004,1591899533446
Fix,GT,37.3476358,-122.101432,,36.190678,0.1,300.82947,1591899534446
Fix,GT,37.347802,-122.10178,,35.697777,0.1,303.35565,1591899535446
Fix,GT,37.3479776,-122.1021133,,35.119995,0.1,305.83575,1591899536446
Fix,GT,37.3481613,-122.1024315,,34.53335,0.1,308.5496,1591899537446
Fix,GT,37.3483545,-122.1027323,,33.974995,0.1,311.6011,1591899538446
Fix,GT,37.3485569,-122.1030157,,33.48502,0.1,314.51965,1591899539446
Fix,GT,37.3487677,-122.1032822,,33.06973,0.1,317.47412,1591899540446
Fix,GT,37.3489865,-122.1035319,,32.72922,0.1,320.35782,1591899541446
Fix,GT,37.349213,-122.1037652,,32.470497,0.1,323.24078,1591899542446
Fix,GT,37.3494476,-122.1039825,,32.40735,0.1,326.25186,1591899543446
Fix,GT,37.3496907,-122.1041856,,32.52154,0.1,328.59708,1591899544446
Fix,GT,37.3499397,-122.1043806,,32.677094,0.1,329.59772,1591899545446
Fix,GT,37.3501922,-122.1045733,,32.972397,0.1,329.9676,1591899546446
Fix,GT,37.350448,-122.1047667,,33.342506,0.1,330.09842,1591899547446
Fix,GT,37.3507063,-122.1049618,,33.611465,0.1,330.10086,1591899548446
Fix,GT,37.3509664,-122.1051584,,33.793552,0.1,330.06912,1591899549446
Fix,GT,37.3512267,-122.1053567,,33.822887,0.1,329.6287,1591899550446
Fix,GT,37.351485,-122.105559,,33.768723,0.1,328.6271,1591899551446
Fix,GT,37.3517392,-122.105768,,33.716614,0.1,326.93225,1591899552446
Fix,GT,37.3519868,-122.1059876,,33.59699,0.1,324.40314,1591899553446
Fix,GT,37.3522248,-122.1062205,,33.426773,0.1,321.80563,1591899554446
Fix,GT,37.3524535,-122.1064645,,33.267365,0.1,319.65143,1591899555446
Fix,GT,37.3526744,-122.1067173,,33.143196,0.1,317.74527,1591899556446
Fix,GT,37.3528876,-122.1069784,,33.014435,0.1,315.749,1591899557446
Fix,GT,37.3530921,-122.1072485,,32.903522,0.1,313.4221,1591899558446
Fix,GT,37.3532869,-122.1075281,,32.83323,0.1,310.93948,1591899559446
Fix,GT,37.3534718,-122.1078169,,32.77052,0.1,308.61087,1591899560446
Fix,GT,37.3536469,-122.1081142,,32.67695,0.1,306.38727,1591899561446
Fix,GT,37.3538122,-122.1084187,,32.592175,0.1,304.21808,1591899562446
Fix,GT,37.3539681,-122.1087303,,32.567406,0.1,302.13144,1591899563446
Fix,GT,37.354115,-122.1090486,,32.57677,0.1,300.11502,1591899564446
Fix,GT,37.3542522,-122.1093739,,32.621563,0.1,297.7558,1591899565446
Fix,GT,37.3543796,-122.1097064,,32.72745,0.1,295.72034,1591899566446
Fix,GT,37.3544982,-122.1100456,,32.879192,0.1,293.7656,1591899567446
Fix,GT,37.3546075,-122.1103918,,33.061523,0.1,291.6001,1591899568446
Fix,GT,37.3547072,-122.1107449,,33.237465,0.1,289.68692,1591899569446
Fix,GT,37.3547995,-122.1111019,,33.175507,0.1,288.47574,1591899570446
Fix,GT,37.3548876,-122.1114575,,32.752098,0.1,288.38403,1591899571446
Fix,GT,37.3549753,-122.1118072,,32.17465,0.1,288.77393,1591899572446
Fix,GT,37.3550625,-122.1121503,,31.701767,0.1,288.77734,1591899573446
Fix,GT,37.3551485,-122.1124902,,31.562702,0.1,288.62842,1591899574446
Fix,GT,37.3552349,-122.1128298,,31.596758,0.1,289.08978,1591899575446
Fix,GT,37.3553251,-122.1131677,,31.527367,0.1,290.39008,1591899576446
Fix,GT,37.3554227,-122.1135008,,31.361952,0.1,292.3344,1591899577446
Fix,GT,37.3555297,-122.1138271,,31.192017,0.1,294.62448,1591899578446
Fix,GT,37.355646,-122.1141464,,31.042654,0.1,296.71222,1591899579446
Fix,GT,37.3557704,-122.1144592,,30.908663,0.1,298.4578,1591899580446
Fix,GT,37.3559014,-122.1147661,,30.788849,0.1,300.12613,1591899581446
Fix,GT,37.3560396,-122.1150664,,30.672241,0.1,302.15442,1591899582446
Fix,GT,37.3561862,-122.1153589,,30.569021,0.1,304.31378,1591899583446
Fix,GT,37.3563407,-122.1156438,,30.495876,0.1,306.4352,1591899584446
Fix,GT,37.3565035,-122.1159202,,30.43215,0.1,308.76163,1591899585446
Fix,GT,37.3566746,-122.1161878,,30.34222,0.1,310.98102,1591899586446
Fix,GT,37.3568532,-122.116446,,30.225536,0.1,313.1992,1591899587446
Fix,GT,37.3570389,-122.1166943,,30.118464,0.1,315.42667,1591899588446
Fix,GT,37.3572317,-122.1169327,,30.04573,0.1,317.67252,1591899589446
Fix,GT,37.3574306,-122.1171619,,29.958084,0.1,319.4087,1591899590446
Fix,GT,37.3576337,-122.117383,,29.823994,0.1,320.9948,1591899591446
Fix,GT,37.3578413,-122.1175955,,29.746588,0.1,322.96967,1591899592446
Fix,GT,37.3580552,-122.1177979,,29.801363,0.1,325.25885,1591899593446
Fix,GT,37.3582759,-122.1179897,,29.877823,0.1,327.4682,1591899594446
Fix,GT,37.3585024,-122.1181722,,29.997208,0.1,329.29443,1591899595446
Fix,GT,37.3587347,-122.1183469,,30.185942,0.1,331.09222,1591899596446
Fix,GT,37.3589728,-122.1185134,,30.383116,0.1,332.947,1591899597446
Fix,GT,37.3592163,-122.1186724,,30.620861,0.1,334.2477,1591899598446
Fix,GT,37.3594642,-122.1188276,,30.9324,0.1,335.00198,1591899599446
Fix,GT,37.359716,-122.1189817,,31.26272,0.1,335.2723,1591899600446
Fix,GT,37.3599708,-122.1191362,,31.572876,0.1,335.43314,1591899601446
Fix,GT,37.3602283,-122.1192919,,31.844221,0.1,335.3862,1591899602446
Fix,GT,37.3604869,-122.119449,,31.891594,0.1,335.21173,1591899603446
Fix,GT,37.3607445,-122.1196069,,31.72759,0.1,335.02048,1591899604446
Fix,GT,37.3610005,-122.1197648,,31.650799,0.1,334.96823,1591899605446
Fix,GT,37.3612565,-122.1199234,,31.802929,0.1,334.71957,1591899606446
Fix,GT,37.3615133,-122.120087,,32.136288,0.1,333.50058,1591899607446
Fix,GT,37.361769,-122.1202626,,32.58719,0.1,331.24823,1591899608446
Fix,GT,37.362022,-122.1204543,,32.98093,0.1,328.67468,1591899609446
Fix,GT,37.3622699,-122.1206618,,33.14441,0.1,325.9961,1591899610446
Fix,GT,37.3625104,-122.1208851,,33.29495,0.1,323.09283,1591899611446
Fix,GT,37.3627428,-122.1211251,,33.533012,0.1,320.20877,1591899612446
Fix,GT,37.362967,-122.1213794,,33.526363,0.1,317.81082,1591899613446
Fix,GT,37.3631811,-122.1216437,,33.159687,0.1,315.24506,1591899614446
Fix,GT,37.3633826,-122.1219172,,32.79335,0.1,312.46814,1591899615446
Fix,GT,37.3635721,-122.1221993,,32.512527,0.1,309.99014,1591899616446
Fix,GT,37.3637499,-122.1224884,,32.089745,0.1,307.432,1591899617446
Fix,GT,37.3639144,-122.1227833,,31.661938,0.1,304.60562,1591899618446
Fix,GT,37.3640653,-122.1230851,,31.471891,0.1,301.80267,1591899619446
Fix,GT,37.3642048,-122.1233948,,31.54777,0.1,299.39572,1591899620446
Fix,GT,37.3643344,-122.1237128,,31.680809,0.1,296.939,1591899621446
Fix,GT,37.364453,-122.1240391,,31.807861,0.1,294.2248,1591899622446
Fix,GT,37.3645596,-122.1243733,,31.944866,0.1,291.59717,1591899623446
Fix,GT,37.3646548,-122.1247145,,32.063538,0.1,289.15305,1591899624446
Fix,GT,37.3647383,-122.1250608,,31.975887,0.1,286.71866,1591899625446
Fix,GT,37.3648094,-122.1254093,,31.736794,0.1,284.19885,1591899626446
Fix,GT,37.3648678,-122.125759,,31.564152,0.1,281.8038,1591899627446
Fix,GT,37.3649148,-122.12611,,31.48151,0.1,279.5028,1591899628446
Fix,GT,37.3649499,-122.1264625,,31.402363,0.1,276.8609,1591899629446
Fix,GT,37.3649716,-122.1268148,,31.217993,0.1,274.24054,1591899630446
Fix,GT,37.3649827,-122.1271666,,31.174288,0.1,272.66022,1591899631446
Fix,GT,37.3649881,-122.1275187,,31.230972,0.1,271.87714,1591899632446
Fix,GT,37.3649907,-122.1278713,,31.238388,0.1,271.4496,1591899633446
Fix,GT,37.3649922,-122.1282234,,31.149696,0.1,271.46686,1591899634446
Fix,GT,37.3649943,-122.1285738,,30.93412,0.1,271.7366,1591899635446
