MessageType,Provider,LatitudeDegrees,LongitudeDegrees,AltitudeMeters,SpeedMps,AccuracyMeters,BearingDegrees,UnixTimeMillis
Fix,GT,37.6296308,-122.4224873,,0.002641162,0.1,242.50871,1596500383437
Fix,GT,37.6296308,-122.4224873,,0.0027571837,0.1,242.50871,1596500384437
Fix,GT,37.6296308,-122.4224873,,0.0021328195,0.1,242.5086,1596500385437
Fix,GT,37.6296308,-122.4224873,,0.0021032486,0.1,242.50851,1596500386437
Fix,GT,37.6296308,-122.4224873,,0.002236068,0.1,242.50854,1596500387437
Fix,GT,37.6296308,-122.4224873,,0.0021328197,0.1,242.50842,1596500388437
Fix,GT,37.6296308,-122.4224873,,0.002437367,0.1,242.50815,1596500389437
Fix,GT,37.6296308,-122.4224873,,0.002665881,0.1,242.50803,1596500390437
Fix,GT,37.6296308,-122.4224873,,0.0021328197,0.1,242.508,1596500391437
Fix,GT,37.6296308,-122.4224873,,0.002,0.1,242.5079,1596500392437
Fix,GT,37.6296308,-122.4224873,,0.002,0.1,242.5076,1596500393437
Fix,GT,37.6296308,-122.4224873,,0.002,0.1,242.50748,1596500394437
Fix,GT,37.6296308,-122.4224873,,0.0023623267,0.1,242.50696,1596500395437
Fix,GT,37.6296308,-122.4224873,,0.0031683152,0.1,242.50665,1596500396437
Fix,GT,37.6296308,-122.4224873,,0.0029033364,0.1,242.50769,1596500397437
Fix,GT,37.6296308,-122.4224873,,0.0021032486,0.1,242.508,1596500398437
Fix,GT,37.6296308,-122.4224873,,0.0024951464,0.1,242.50784,1596500399437
Fix,GT,37.6296308,-122.4224873,,0.0028284271,0.1,242.50818,1596500400437
Fix,GT,37.6296308,-122.4224873,,0.0029744422,0.1,242.50839,1596500401437
Fix,GT,37.6296308,-122.4224873,,0.0027571844,0.1,242.50842,1596500402437
Fix,GT,37.6296308,-122.4224873,,0.0018766164,0.1,242.50822,1596500403437
Fix,GT,37.6296308,-122.4224873,,0.0017736652,0.1,242.50816,1596500404437
Fix,GT,37.6296308,-122.4224873,,0.002495146,0.1,242.50853,1596500405437
Fix,GT,37.6296308,-122.4224873,,0.0028284271,0.1,242.5088,1596500406437
Fix,GT,37.6296308,-122.4224873,,0.002569349,0.1,242.5088,1596500407437
Fix,GT,37.6296308,-122.4224873,,0.00213282,0.1,242.5086,1596500408437
Fix,GT,37.6296308,-122.4224873,,0.0017437967,0.1,242.508,1596500409437
Fix,GT,37.6296308,-122.4224873,,0.001773665,0.1,242.50777,1596500410437
Fix,GT,37.6296308,-122.4224873,,0.002641161,0.1,242.50815,1596500411437
Fix,GT,37.6296308,-122.4224873,,0.0030162628,0.1,242.50815,1596500412437
Fix,GT,37.6296308,-122.4224873,,0.0022098979,0.1,242.50812,1596500413437
Fix,GT,37.6296308,-122.4224873,,0.0017736648,0.1,242.50815,1596500414437
Fix,GT,37.6296308,-122.4224873,,0.002495146,0.1,242.50798,1596500415437
Fix,GT,37.6296308,-122.4224873,,0.0031683152,0.1,242.50781,1596500416437
Fix,GT,37.6296308,-122.4224873,,0.003605551,0.1,242.508,1596500417437
Fix,GT,37.6296308,-122.4224873,,0.003605551,0.1,242.50766,1596500418437
Fix,GT,37.6296308,-122.4224873,,0.0032656635,0.1,242.5076,1596500419437
Fix,GT,37.6296308,-122.4224873,,0.002974442,0.1,242.5077,1596500420437
Fix,GT,37.6296308,-122.4224873,,0.003528669,0.1,242.50731,1596500421437
Fix,GT,37.6296308,-122.4224873,,0.0040538423,0.1,242.50732,1596500422437
Fix,GT,37.6296308,-122.4224873,,0.0038967454,0.1,242.50748,1596500423437
Fix,GT,37.6296308,-122.4224873,,0.0036055513,0.1,242.50783,1596500424437
Fix,GT,37.6296308,-122.4224873,,0.0030065859,0.1,242.50787,1596500425437
Fix,GT,37.6296308,-122.4224873,,0.0026411605,0.1,242.50772,1596500426437
Fix,GT,37.6296308,-122.4224873,,0.003091303,0.1,242.50772,1596500427437
Fix,GT,37.6296308,-122.4224873,,0.0034912082,0.1,242.50787,1596500428437
Fix,GT,37.6296308,-122.4224873,,0.0037028724,0.1,242.50795,1596500429437
Fix,GT,37.6296308,-122.4224873,,0.0033561504,0.1,242.50812,1596500430437
Fix,GT,37.6296308,-122.4224873,,0.0030065863,0.1,242.508,1596500431437
Fix,GT,37.6296308,-122.4224873,,0.00213282,0.1,242.50769,1596500432437
Fix,GT,37.6296308,-122.4224873,,0.0021032481,0.1,242.5075,1596500433437
Fix,GT,37.6296308,-122.4224873,,0.0030613933,0.1,242.50743,1596500434437
Fix,GT,37.6296308,-122.4224873,,0.0040692636,0.1,242.5074,1596500435437
Fix,GT,37.6296308,-122.4224873,,0.0035626346,0.1,242.50748,1596500436437
Fix,GT,37.6296308,-122.4224873,,0.0023064315,0.1,242.50746,1596500437437
Fix,GT,37.6296308,-122.4224873,,0.0017736643,0.1,242.50737,1596500438437
Fix,GT,37.6296308,-122.4224873,,0.00264116,0.1,242.50708,1596500439437
Fix,GT,37.6296308,-122.4224873,,0.0035825106,0.1,242.50693,1596500440437
Fix,GT,37.6296308,-122.4224873,,0.0032977806,0.1,242.5073,1596500441437
Fix,GT,37.6296308,-122.4224873,,0.0025701853,0.1,242.50766,1596500442437
Fix,GT,37.6296308,-122.4224873,,0.003,0.1,242.5075,1596500443437
Fix,GT,37.6296308,-122.4224873,,0.0030709747,0.1,242.50716,1596500444437
Fix,GT,37.6296308,-122.4224873,,0.0035825106,0.1,242.50696,1596500445437
Fix,GT,37.6296308,-122.4224873,,0.0040692636,0.1,242.50708,1596500446437
Fix,GT,37.6296308,-122.4224873,,0.0040538423,0.1,242.50717,1596500447437
Fix,GT,37.6296308,-122.4224873,,0.0040692636,0.1,242.50739,1596500448437
Fix,GT,37.6296308,-122.4224873,,0.003562635,0.1,242.50735,1596500449437
Fix,GT,37.6296308,-122.4224873,,0.003,0.1,242.50714,1596500450437
Fix,GT,37.6296308,-122.4224873,,0.0034373654,0.1,242.50696,1596500451437
Fix,GT,37.6296308,-122.4224873,,0.004480673,0.1,242.50687,1596500452437
Fix,GT,37.6296308,-122.4224873,,0.005529274,0.1,242.50687,1596500453437
Fix,GT,37.6296308,-122.4224873,,0.0056525073,0.1,242.5069,1596500454437
Fix,GT,37.6296308,-122.4224873,,0.0050990195,0.1,242.507,1596500455437
Fix,GT,37.6296308,-122.4224873,,0.0050990195,0.1,242.50702,1596500456437
Fix,GT,37.6296308,-122.4224873,,0.004824843,0.1,242.50697,1596500457437
Fix,GT,37.6296308,-122.4224873,,0.004871463,0.1,242.50674,1596500458437
Fix,GT,37.6296308,-122.4224873,,0.006213947,0.1,242.50656,1596500459437
Fix,GT,37.6296308,-122.4224873,,0.006326177,0.1,242.50641,1596500460437
Fix,GT,37.6296309,-122.4224872,,0.0050557116,0.1,242.50613,1596500461437
Fix,GT,37.6296309,-122.4224872,,0.005579314,0.1,242.50624,1596500462437
Fix,GT,37.6296309,-122.4224872,,0.006889289,0.1,242.50623,1596500463437
Fix,GT,37.6296309,-122.4224871,,0.006034361,0.1,242.50595,1596500464437
Fix,GT,37.6296309,-122.4224871,,0.0057766894,0.1,242.50641,1596500465437
Fix,GT,37.6296306,-122.4224876,,0.13891537,0.1,242.48679,1596500466437
Fix,GT,37.6296288,-122.4224907,,0.6836123,0.1,241.29633,1596500467437
Fix,GT,37.6296226,-122.4225023,,1.8509485,0.1,239.26762,1596500468437
Fix,GT,37.6296101,-122.4225274,,3.3514075,0.1,238.34549,1596500469437
Fix,GT,37.6295905,-122.4225664,,4.814865,0.1,237.72272,1596500470437
Fix,GT,37.6295632,-122.4226192,,6.2764006,0.1,237.04057,1596500471437
Fix,GT,37.6295288,-122.4226844,,7.3694086,0.1,236.4473,1596500472437
Fix,GT,37.6294898,-122.4227571,,7.9789248,0.1,235.84384,1596500473437
Fix,GT,37.6294491,-122.4228346,,8.371366,0.1,237.0654,1596500474437
Fix,GT,37.6294108,-122.4229179,,8.63748,0.1,241.17743,1596500475437
Fix,GT,37.6293763,-122.4230071,,8.876316,0.1,244.99864,1596500476437
Fix,GT,37.6293438,-122.4231001,,9.05666,0.1,246.652,1596500477437
Fix,GT,37.629311,-122.4231951,,9.243964,0.1,246.57245,1596500478437
Fix,GT,37.6292766,-122.4232922,,9.502407,0.1,245.87756,1596500479437
Fix,GT,37.6292405,-122.4233904,,9.507919,0.1,244.99374,1596500480437
Fix,GT,37.6292045,-122.4234861,,9.133158,0.1,244.76103,1596500481437
Fix,GT,37.6291702,-122.4235775,,8.736099,0.1,244.99593,1596500482437
Fix,GT,37.629137,-122.4236649,,8.326604,0.1,244.28033,1596500483437
Fix,GT,37.6291039,-122.4237452,,7.6064,0.1,241.50684,1596500484437
Fix,GT,37.6290674,-122.4238123,,6.7603493,0.1,232.46967,1596500485437
Fix,GT,37.629023,-122.4238572,,6.0417566,0.1,213.84166,1596500486437
Fix,GT,37.6289731,-122.4238721,,5.5400944,0.1,188.95699,1596500487437
Fix,GT,37.6289262,-122.4238564,,5.415174,0.1,161.46552,1596500488437
Fix,GT,37.6288913,-122.4238129,,5.6996326,0.1,131.95718,1596500489437
Fix,GT,37.6288765,-122.4237483,,6.4128017,0.1,102.87079,1596500490437
Fix,GT,37.6288843,-122.4236708,,7.4983807,0.1,80.04349,1596500491437
Fix,GT,37.6289102,-122.423585,,8.678579,0.1,67.40689,1596500492437
Fix,GT,37.6289471,-122.4234917,,9.622156,0.1,63.038635,1596500493437
Fix,GT,37.6289884,-122.4233917,,10.238356,0.1,62.91455,1596500494437
Fix,GT,37.6290316,-122.4232859,,10.744892,0.1,63.089417,1596500495437
Fix,GT,37.6290764,-122.4231758,,11.053115,0.1,63.067078,1596500496437
Fix,GT,37.6291222,-122.4230633,,11.239672,0.1,63.166473,1596500497437
Fix,GT,37.6291684,-122.4229484,,11.44656,0.1,63.493896,1596500498437
Fix,GT,37.6292146,-122.4228314,,11.564875,0.1,63.903748,1596500499437
Fix,GT,37.6292601,-122.4227143,,11.364232,0.1,64.25955,1596500500437
Fix,GT,37.6293036,-122.4226019,,10.622799,0.1,64.263245,1596500501437
Fix,GT,37.6293434,-122.4224998,,9.475044,0.1,63.868988,1596500502437
Fix,GT,37.6293794,-122.4224094,,8.481226,0.1,63.569794,1596500503437
Fix,GT,37.6294123,-122.4223267,,8.001524,0.1,63.611023,1596500504437
Fix,GT,37.6294441,-122.4222462,,7.8645916,0.1,63.97876,1596500505437
Fix,GT,37.6294746,-122.4221674,,7.587924,0.1,64.56525,1596500506437
Fix,GT,37.629503,-122.4220924,,7.0231037,0.1,65.042816,1596500507437
Fix,GT,37.6295265,-122.4220242,,5.9818053,0.1,68.21216,1596500508437
Fix,GT,37.6295362,-122.4219643,,5.0542383,0.1,82.31244,1596500509437
Fix,GT,37.629524,-122.4219129,,4.9806004,0.1,108.916016,1596500510437
Fix,GT,37.6294911,-122.4218715,,5.82996,0.1,135.13947,1596500511437
Fix,GT,37.6294415,-122.4218336,,7.1253705,0.1,149.33142,1596500512437
Fix,GT,37.6293808,-122.4217946,,7.8633003,0.1,154.02441,1596500513437
Fix,GT,37.6293159,-122.4217592,,7.742903,0.1,157.92456,1596500514437
Fix,GT,37.6292541,-122.4217299,,6.9265227,0.1,159.71136,1596500515437
Fix,GT,37.6292009,-122.421704,,5.6357317,0.1,158.43,1596500516437
Fix,GT,37.6291596,-122.4216813,,4.2882376,0.1,155.9538,1596500517437
Fix,GT,37.6291298,-122.42166,,3.4975433,0.1,149.97699,1596500518437
Fix,GT,37.6291055,-122.4216351,,3.544958,0.1,141.84683,1596500519437
Fix,GT,37.6290822,-122.4216003,,4.434659,0.1,130.65045,1596500520437
Fix,GT,37.6290659,-122.4215468,,5.6875067,0.1,110.210266,1596500521437
Fix,GT,37.6290668,-122.4214745,,7.2326603,0.1,87.10538,1596500522437
Fix,GT,37.6290881,-122.4213871,,8.9981,0.1,70.964325,1596500523437
Fix,GT,37.6291246,-122.4212855,,10.651752,0.1,64.990204,1596500524437
Fix,GT,37.6291702,-122.4211688,,12.25596,0.1,63.862305,1596500525437
Fix,GT,37.6292226,-122.4210377,,13.583822,0.1,63.340363,1596500526437
Fix,GT,37.62928,-122.4208966,,14.262592,0.1,63.10196,1596500527437
Fix,GT,37.6293388,-122.4207525,,14.153795,0.1,63.10434,1596500528437
Fix,GT,37.6293953,-122.4206136,,13.228931,0.1,63.217957,1596500529437
Fix,GT,37.6294458,-122.4204879,,11.571625,0.1,63.334045,1596500530437
Fix,GT,37.6294891,-122.4203812,,9.521405,0.1,63.10327,1596500531437
Fix,GT,37.6295239,-122.4202969,,7.2812634,0.1,62.768036,1596500532437
Fix,GT,37.6295507,-122.4202311,,5.91997,0.1,63.095123,1596500533437
Fix,GT,37.6295753,-122.4201699,,6.312773,0.1,63.5083,1596500534437
Fix,GT,37.6296034,-122.4200976,,8.065578,0.1,64.244934,1596500535437
Fix,GT,37.6296387,-122.4200035,,10.232529,0.1,65.11658,1596500536437
Fix,GT,37.6296811,-122.4198894,,11.879578,0.1,64.95587,1596500537437
Fix,GT,37.6297311,-122.4197617,,13.16361,0.1,63.509033,1596500538437
Fix,GT,37.6297891,-122.4196254,,14.108618,0.1,61.189148,1596500539437
Fix,GT,37.6298567,-122.4194844,,14.933916,0.1,57.702393,1596500540437
Fix,GT,37.6299358,-122.4193435,,15.4818,0.1,53.18512,1596500541437
Fix,GT,37.6300254,-122.4192074,,15.661778,0.1,49.094482,1596500542437
Fix,GT,37.6301198,-122.4190769,,15.452154,0.1,47.626923,1596500543437
Fix,GT,37.6302116,-122.4189488,,14.980473,0.1,48.74048,1596500544437
Fix,GT,37.6302973,-122.418822,,14.33709,0.1,50.41977,1596500545437
Fix,GT,37.630377,-122.4187012,,13.305012,0.1,50.385986,1596500546437
Fix,GT,37.6304501,-122.4185915,,11.909275,0.1,50.245636,1596500547437
Fix,GT,37.6305129,-122.4184942,,10.151895,0.1,52.07303,1596500548437
Fix,GT,37.630561,-122.4184109,,8.028211,0.1,55.73401,1596500549437
Fix,GT,37.6305936,-122.4183445,,5.740084,0.1,59.558807,1596500550437
Fix,GT,37.6306137,-122.4182994,,3.408492,0.1,61.08545,1596500551437
Fix,GT,37.6306239,-122.4182762,,1.390512,0.1,61.266113,1596500552437
Fix,GT,37.6306271,-122.418269,,0.25565484,0.1,61.304382,1596500553437
Fix,GT,37.6306274,-122.4182684,,0.003306254,0.1,61.319916,1596500554437
Fix,GT,37.6306274,-122.4182684,,0.0009999999,0.1,61.319885,1596500555437
Fix,GT,37.6306274,-122.4182684,,0.001,0.1,61.319824,1596500556437
Fix,GT,37.6306274,-122.4182684,,0.001,0.1,61.319824,1596500557437
Fix,GT,37.6306274,-122.4182684,,0.0009999999,0.1,61.319794,1596500558437
Fix,GT,37.6306274,-122.4182684,,0.0009999999,0.1,61.319885,1596500559437
Fix,GT,37.6306274,-122.4182684,,0.001,0.1,61.319824,1596500560437
Fix,GT,37.6306274,-122.4182684,,0.001,0.1,61.319794,1596500561437
Fix,GT,37.6306274,-122.4182684,,0.001,0.1,61.319824,1596500562437
Fix,GT,37.6306275,-122.4182685,,0.0015406122,0.1,61.319733,1596500563437
Fix,GT,37.6306275,-122.4182685,,0.0021328202,0.1,61.31952,1596500564437
Fix,GT,37.6306275,-122.4182685,,0.0015626355,0.1,61.319336,1596500565437
Fix,GT,37.6306275,-122.4182685,,0.0011811622,0.1,61.319336,1596500566437
Fix,GT,37.6306275,-122.4182685,,0.0017736633,0.1,61.319458,1596500567437
Fix,GT,37.6306275,-122.4182685,,0.0024951447,0.1,61.31955,1596500568437
Fix,GT,37.6306275,-122.4182685,,0.0025693502,0.1,61.319366,1596500569437
Fix,GT,37.6306275,-122.4182685,,0.0016954558,0.1,61.319275,1596500570437
Fix,GT,37.6306275,-122.4182685,,0.0009999999,0.1,61.319366,1596500571437
Fix,GT,37.6306275,-122.4182685,,0.0009999999,0.1,61.319458,1596500572437
Fix,GT,37.6306275,-122.4182685,,0.001,0.1,61.31955,1596500573437
Fix,GT,37.6306275,-122.4182685,,0.0015406122,0.1,61.31967,1596500574437
Fix,GT,37.6306275,-122.4182685,,0.0024951447,0.1,61.319702,1596500575437
Fix,GT,37.6306275,-122.4182685,,0.0025693502,0.1,61.31967,1596500576437
Fix,GT,37.6306275,-122.4182685,,0.0025701849,0.1,61.31967,1596500577437
Fix,GT,37.6306275,-122.4182685,,0.0025626356,0.1,61.319794,1596500578437
Fix,GT,37.6306275,-122.4182685,,0.0015626356,0.1,61.319916,1596500579437
Fix,GT,37.6306275,-122.4182685,,0.0011811622,0.1,61.319916,1596500580437
Fix,GT,37.6306275,-122.4182685,,0.0012330513,0.1,61.31958,1596500581437
Fix,GT,37.6306275,-122.4182685,,0.0018747288,0.1,61.319275,1596500582437
Fix,GT,37.6306275,-122.4182685,,0.0026658834,0.1,61.319366,1596500583437
Fix,GT,37.6306275,-122.4182685,,0.001876618,0.1,61.319336,1596500584437
Fix,GT,37.6306275,-122.4182685,,0.0012330513,0.1,61.319366,1596500585437
Fix,GT,37.6306275,-122.4182685,,0.001,0.1,61.319183,1596500586437
Fix,GT,37.6306275,-122.4182685,,0.0011811622,0.1,61.31906,1596500587437
Fix,GT,37.6306275,-122.4182685,,0.0014142136,0.1,61.31891,1596500588437
Fix,GT,37.6306275,-122.4182685,,0.0017736634,0.1,61.31888,1596500589437
Fix,GT,37.6306275,-122.4182685,,0.0022360682,0.1,61.31906,1596500590437
Fix,GT,37.6306275,-122.4182685,,0.0022360682,0.1,61.31906,1596500591437
Fix,GT,37.6306275,-122.4182685,,0.0021328204,0.1,61.31897,1596500592437
Fix,GT,37.6306275,-122.4182685,,0.0017437979,0.1,61.31909,1596500593437
Fix,GT,37.6306275,-122.4182685,,0.0012330513,0.1,61.31891,1596500594437
Fix,GT,37.6306275,-122.4182685,,0.001,0.1,61.318787,1596500595437
Fix,GT,37.6306275,-122.4182685,,0.0011811622,0.1,61.318573,1596500596437
Fix,GT,37.6306275,-122.4182685,,0.0014142136,0.1,61.318665,1596500597437
Fix,GT,37.6306275,-122.4182685,,0.0014142136,0.1,61.31906,1596500598437
Fix,GT,37.6306275,-122.4182685,,0.0017736633,0.1,61.318726,1596500599437
Fix,GT,37.6306275,-122.4182685,,0.0012580917,0.1,61.31833,1596500600437
Fix,GT,37.6306275,-122.4182685,,0.00043736436,0.1,61.317993,1596500601437
Fix,GT,37.6306275,-122.4182685,,0.00056263566,0.1,61.317627,1596500602437
Fix,GT,37.6306275,-122.4182685,,0.0,0.1,61.317627,1596500603437
Fix,GT,37.6306275,-122.4182685,,0.0,0.1,61.317932,1596500604437
Fix,GT,37.6306275,-122.4182685,,0.0004373644,0.1,61.31848,1596500605437
Fix,GT,37.6306275,-122.4182685,,0.001,0.1,61.318726,1596500606437
Fix,GT,37.6306275,-122.4182685,,0.0011811622,0.1,61.3183,1596500607437
Fix,GT,37.6306275,-122.4182685,,0.0012330513,0.1,61.318146,1596500608437
Fix,GT,37.6306275,-122.4182685,,0.0011811622,0.1,61.318115,1596500609437
Fix,GT,37.6306275,-122.4182685,,0.0012330513,0.1,61.31787,1596500610437
Fix,GT,37.6306275,-122.4182685,,0.001,0.1,61.317993,1596500611437
Fix,GT,37.6306275,-122.4182685,,0.00056263566,0.1,61.318024,1596500612437
Fix,GT,37.6306275,-122.4182685,,0.00043736436,0.1,61.317688,1596500613437
Fix,GT,37.6306275,-122.4182685,,0.0011811622,0.1,61.317566,1596500614437
Fix,GT,37.6306275,-122.4182685,,0.0014142136,0.1,61.31775,1596500615437
Fix,GT,37.6306275,-122.4182685,,0.00079568697,0.1,61.318176,1596500616437
Fix,GT,37.6306275,-122.4182685,,0.00043736436,0.1,61.31787,1596500617437
Fix,GT,37.6306275,-122.4182685,,0.0014373644,0.1,61.31714,1596500618437
Fix,GT,37.6306275,-122.4182685,,0.0015626356,0.1,61.31732,1596500619437
Fix,GT,37.6306275,-122.4182685,,0.001,0.1,61.31787,1596500620437
Fix,GT,37.6306275,-122.4182685,,0.0011811622,0.1,61.318146,1596500621437
Fix,GT,37.6306275,-122.4182685,,0.0016704157,0.1,61.318085,1596500622437
Fix,GT,37.6306275,-122.4182685,,0.0017437979,0.1,61.31775,1596500623437
Fix,GT,37.6306275,-122.4182685,,0.0012330513,0.1,61.317627,1596500624437
Fix,GT,37.6306275,-122.4182685,,0.00056263566,0.1,61.317657,1596500625437
Fix,GT,37.6306275,-122.4182685,,0.0006185266,0.1,61.317627,1596500626437
Fix,GT,37.6306275,-122.4182685,,0.0014142136,0.1,61.317505,1596500627437
Fix,GT,37.6306275,-122.4182685,,0.00079568697,0.1,61.317383,1596500628437
Fix,GT,37.6306275,-122.4182685,,0.0006185266,0.1,61.31732,1596500629437
Fix,GT,37.6306275,-122.4182685,,0.0017736633,0.1,61.31711,1596500630437
Fix,GT,37.6306275,-122.4182685,,0.002236068,0.1,61.31659,1596500631437
Fix,GT,37.6306275,-122.4182685,,0.0021328204,0.1,61.31659,1596500632437
Fix,GT,37.6306275,-122.4182685,,0.0019999999,0.1,61.316803,1596500633437
Fix,GT,37.6306275,-122.4182685,,0.0021032477,0.1,61.316803,1596500634437
Fix,GT,37.6306275,-122.4182685,,0.001695456,0.1,61.316895,1596500635437
Fix,GT,37.6306275,-122.4182685,,0.00056263566,0.1,61.316925,1596500636437
Fix,GT,37.6306276,-122.4182686,,0.0,0.1,61.316956,1596500637437
Fix,GT,37.6306276,-122.4182686,,0.00043736433,0.1,61.31717,1596500638437
Fix,GT,37.6306276,-122.4182686,,0.0009999999,0.1,61.317413,1596500639437
Fix,GT,37.6306276,-122.4182686,,0.0009999999,0.1,61.317535,1596500640437
Fix,GT,37.6306276,-122.4182686,,0.0009999999,0.1,61.31787,1596500641437
Fix,GT,37.6306276,-122.4182686,,0.0009999999,0.1,61.317535,1596500642437
Fix,GT,37.6306276,-122.4182686,,0.0011811622,0.1,61.316803,1596500643437
Fix,GT,37.6306276,-122.4182686,,0.0014142136,0.1,61.31656,1596500644437
Fix,GT,37.6306276,-122.4182686,,0.0012330513,0.1,61.316254,1596500645437
Fix,GT,37.6306276,-122.4182686,,0.0011811622,0.1,61.3161,1596500646437
Fix,GT,37.6306276,-122.4182686,,0.0017736633,0.1,61.315887,1596500647437
Fix,GT,37.6306276,-122.4182686,,0.002236068,0.1,61.3161,1596500648437
Fix,GT,37.6306276,-122.4182686,,0.002641159,0.1,61.31613,1596500649437
Fix,GT,37.6306276,-122.4182685,,0.06810447,0.1,61.31949,1596500650437
Fix,GT,37.6306293,-122.4182642,,1.005889,0.1,61.361115,1596500651437
Fix,GT,37.6306376,-122.4182445,,3.1443503,0.1,61.89807,1596500652437
Fix,GT,37.6306553,-122.4182012,,5.429334,0.1,62.780518,1596500653437
Fix,GT,37.6306812,-122.4181374,,7.152559,0.1,63.249847,1596500654437
Fix,GT,37.6307135,-122.4180602,,8.158761,0.1,61.78943,1596500655437
Fix,GT,37.6307562,-122.4179816,,8.576727,0.1,52.79944,1596500656437
Fix,GT,37.6308137,-122.4179189,,8.4425745,0.1,35.53235,1596500657437
Fix,GT,37.6308833,-122.4178843,,8.477593,0.1,16.440552,1596500658437
Fix,GT,37.630962,-122.4178786,,9.198394,0.1,359.6658,1596500659437
Fix,GT,37.6310483,-122.4178964,,10.195194,0.1,348.17957,1596500660437
Fix,GT,37.6311388,-122.4179311,,10.782055,0.1,341.5417,1596500661437
Fix,GT,37.6312305,-122.4179761,,10.990959,0.1,338.05078,1596500662437
Fix,GT,37.6313208,-122.4180251,,10.764309,0.1,336.54764,1596500663437
Fix,GT,37.6314067,-122.4180735,,10.014149,0.1,335.97235,1596500664437
Fix,GT,37.6314835,-122.4181172,,8.674072,0.1,335.86057,1596500665437
Fix,GT,37.6315484,-122.4181542,,7.0786514,0.1,335.8045,1596500666437
Fix,GT,37.6315987,-122.4181828,,5.049579,0.1,335.91177,1596500667437
Fix,GT,37.6316314,-122.4182012,,3.0059023,0.1,336.07544,1596500668437
Fix,GT,37.63165,-122.4182117,,1.7816553,0.1,336.1166,1596500669437
Fix,GT,37.6316625,-122.4182186,,1.2376527,0.1,336.12784,1596500670437
Fix,GT,37.6316704,-122.4182231,,0.60530734,0.1,336.13397,1596500671437
Fix,GT,37.6316728,-122.4182245,,0.035520885,0.1,336.13998,1596500672437
Fix,GT,37.6316729,-122.4182245,,0.0038992276,0.1,336.14435,1596500673437
Fix,GT,37.6316729,-122.4182245,,0.0020327403,0.1,336.14377,1596500674437
Fix,GT,37.6316729,-122.4182245,,0.0020287381,0.1,336.14285,1596500675437
Fix,GT,37.6316729,-122.4182245,,0.0014373645,0.1,336.14243,1596500676437
Fix,GT,37.6316729,-122.4182245,,0.0015626355,0.1,336.14236,1596500677437
Fix,GT,37.6316729,-122.4182245,,0.00056263554,0.1,336.14252,1596500678437
Fix,GT,37.6316729,-122.4182245,,0.0,0.1,336.14243,1596500679437
Fix,GT,37.6316729,-122.4182245,,0.00043736448,0.1,336.14233,1596500680437
Fix,GT,37.6316729,-122.4182245,,0.001,0.1,336.14206,1596500681437
Fix,GT,37.6316729,-122.4182245,,0.0011811623,0.1,336.14185,1596500682437
Fix,GT,37.6316729,-122.4182245,,0.0007956868,0.1,336.14227,1596500683437
Fix,GT,37.6316729,-122.4182245,,0.0,0.1,336.14264,1596500684437
Fix,GT,37.6316729,-122.4182245,,0.00061852677,0.1,336.14258,1596500685437
Fix,GT,37.6316729,-122.4182245,,0.0016704157,0.1,336.14224,1596500686437
Fix,GT,37.6316729,-122.4182245,,0.0015626355,0.1,336.14233,1596500687437
Fix,GT,37.6316729,-122.4182245,,0.001,0.1,336.14246,1596500688437
Fix,GT,37.6316729,-122.4182245,,0.001,0.1,336.14233,1596500689437
Fix,GT,37.6316729,-122.4182245,,0.0011811623,0.1,336.14218,1596500690437
Fix,GT,37.6316729,-122.4182245,,0.0014142136,0.1,336.14206,1596500691437
Fix,GT,37.6316729,-122.4182245,,0.0014142136,0.1,336.14194,1596500692437
Fix,GT,37.6316729,-122.4182246,,0.0012330513,0.1,336.1419,1596500693437
Fix,GT,37.6316732,-122.4182247,,0.15190402,0.1,336.14627,1596500694437
Fix,GT,37.6316768,-122.4182267,,0.8127149,0.1,336.0476,1596500695437
Fix,GT,37.6316887,-122.4182337,,2.166781,0.1,335.6346,1596500696437
Fix,GT,37.6317136,-122.4182486,,3.985016,0.1,335.16504,1596500697437
Fix,GT,37.6317551,-122.4182732,,6.21484,0.1,335.05267,1596500698437
Fix,GT,37.6318161,-122.4183087,,8.6982,0.1,335.42316,1596500699437
Fix,GT,37.6318961,-122.4183541,,10.69532,0.1,336.07275,1596500700437
Fix,GT,37.6319906,-122.4184067,,12.107605,0.1,336.48972,1596500701437
Fix,GT,37.6320943,-122.4184633,,12.797327,0.1,337.02344,1596500702437
Fix,GT,37.6322009,-122.4185177,,12.6736355,0.1,339.08582,1596500703437
Fix,GT,37.6323076,-122.4185626,,12.359097,0.1,343.44336,1596500704437
Fix,GT,37.632414,-122.4185943,,11.971956,0.1,349.42746,1596500705437
Fix,GT,37.6325185,-122.4186068,,11.431076,0.1,358.8013,1596500706437
Fix,GT,37.6326165,-122.4185908,,10.805008,0.1,13.212006,1596500707437
Fix,GT,37.6327014,-122.4185428,,10.4182625,0.1,30.237885,1596500708437
Fix,GT,37.6327721,-122.4184663,,10.798432,0.1,45.160492,1596500709437
Fix,GT,37.6328354,-122.4183653,,12.194248,0.1,53.735992,1596500710437
Fix,GT,37.6329019,-122.4182424,,14.05472,0.1,56.361816,1596500711437
Fix,GT,37.632976,-122.4181021,,15.671963,0.1,56.667694,1596500712437
Fix,GT,37.6330573,-122.4179475,,17.031057,0.1,56.7005,1596500713437
Fix,GT,37.6331452,-122.4177816,,18.208488,0.1,56.362976,1596500714437
Fix,GT,37.6332397,-122.4176056,,19.324324,0.1,56.03839,1596500715437
Fix,GT,37.6333404,-122.4174183,,20.566875,0.1,56.431763,1596500716437
Fix,GT,37.6334439,-122.4172168,,21.777111,0.1,58.381226,1596500717437
Fix,GT,37.633545,-122.4169975,,22.979164,0.1,61.59311,1596500718437
Fix,GT,37.6336412,-122.4167593,,24.22622,0.1,64.6232,1596500719437
Fix,GT,37.6337329,-122.4165029,,25.385307,0.1,67.236206,1596500720437
Fix,GT,37.6338183,-122.4162308,,26.262024,0.1,70.0535,1596500721437
Fix,GT,37.6338957,-122.4159459,,26.869678,0.1,72.74942,1596500722437
Fix,GT,37.6339629,-122.4156511,,27.30859,0.1,75.63577,1596500723437
Fix,GT,37.6340192,-122.4153477,,27.751373,0.1,78.655945,1596500724437
Fix,GT,37.6340626,-122.4150355,,28.27483,0.1,82.00598,1596500725437
Fix,GT,37.6340917,-122.4147146,,28.787775,0.1,85.36429,1596500726437
Fix,GT,37.6341071,-122.4143871,,29.12267,0.1,88.19861,1596500727437
Fix,GT,37.6341103,-122.4140564,,29.209957,0.1,90.85834,1596500728437
Fix,GT,37.6341022,-122.4137268,,28.915182,0.1,93.26276,1596500729437
Fix,GT,37.6340843,-122.4134044,,28.016045,0.1,95.316864,1596500730437
Fix,GT,37.6340585,-122.4130973,,26.574429,0.1,97.26257,1596500731437
Fix,GT,37.6340279,-122.4128057,,25.421135,0.1,98.10721,1596500732437
Fix,GT,37.6339957,-122.412524,,24.839993,0.1,98.62991,1596500733437
Fix,GT,37.633962,-122.4122477,,24.597492,0.1,99.206024,1596500734437
Fix,GT,37.633926,-122.4119722,,24.697557,0.1,99.77377,1596500735437
Fix,GT,37.6338877,-122.4116953,,24.920866,0.1,100.294495,1596500736437
Fix,GT,37.6338475,-122.4114163,,25.09575,0.1,100.56616,1596500737437
Fix,GT,37.6338067,-122.4111359,,25.188965,0.1,100.530365,1596500738437
Fix,GT,37.6337659,-122.4108554,,25.078281,0.1,100.53003,1596500739437
Fix,GT,37.6337261,-122.4105769,,24.854305,0.1,100.23761,1596500740437
Fix,GT,37.6336884,-122.4103003,,24.68098,0.1,99.5918,1596500741437
Fix,GT,37.6336533,-122.4100242,,24.685806,0.1,98.88016,1596500742437
Fix,GT,37.6336215,-122.4097462,,24.970951,0.1,97.58063,1596500743437
Fix,GT,37.6335961,-122.4094624,,25.49722,0.1,95.3461,1596500744437
Fix,GT,37.6335808,-122.4091708,,26.107904,0.1,92.37204,1596500745437
Fix,GT,37.6335779,-122.4088717,,26.72057,0.1,89.356476,1596500746437
Fix,GT,37.6335869,-122.4085663,,27.214787,0.1,86.59451,1596500747437
Fix,GT,37.6336072,-122.4082574,,27.446772,0.1,84.13245,1596500748437
Fix,GT,37.6336368,-122.4079491,,27.375061,0.1,82.39322,1596500749437
Fix,GT,37.6336719,-122.4076428,,27.249126,0.1,81.42792,1596500750437
Fix,GT,37.6337097,-122.4073383,,27.155159,0.1,81.11615,1596500751437
Fix,GT,37.6337477,-122.4070348,,27.055687,0.1,81.34363,1596500752437
Fix,GT,37.6337823,-122.4067323,,26.893456,0.1,82.74805,1596500753437
Fix,GT,37.6338086,-122.4064299,,26.912418,0.1,85.43298,1596500754437
Fix,GT,37.6338211,-122.4061246,,27.201504,0.1,89.4324,1596500755437
Fix,GT,37.6338125,-122.405816,,27.437712,0.1,95.19684,1596500756437
Fix,GT,37.6337777,-122.4055084,,27.543262,0.1,101.59085,1596500757437
Fix,GT,37.633716,-122.4052076,,27.433147,0.1,108.01517,1596500758437
Fix,GT,37.6336287,-122.4049192,,27.111084,0.1,114.29001,1596500759437
Fix,GT,37.6335191,-122.4046484,,26.630379,0.1,120.30417,1596500760437
Fix,GT,37.6333899,-122.4043982,,26.149635,0.1,126.48004,1596500761437
Fix,GT,37.6332423,-122.4041711,,25.773674,0.1,132.62335,1596500762437
Fix,GT,37.6330784,-122.4039673,,25.541412,0.1,138.34448,1596500763437
Fix,GT,37.6329002,-122.4037855,,25.566849,0.1,143.992,1596500764437
Fix,GT,37.6327084,-122.4036259,,25.596733,0.1,149.53064,1596500765437
Fix,GT,37.632506,-122.4034901,,25.45636,0.1,154.9477,1596500766437
Fix,GT,37.6322948,-122.4033803,,25.445635,0.1,160.66974,1596500767437
Fix,GT,37.6320744,-122.4032978,,25.782969,0.1,166.61426,1596500768437
Fix,GT,37.6318447,-122.4032417,,26.232964,0.1,171.58563,1596500769437
Fix,GT,37.6316091,-122.4032032,,26.450413,0.1,173.74164,1596500770437
Fix,GT,37.6313718,-122.4031695,,26.634666,0.1,173.81189,1596500771437
Fix,GT,37.6311318,-122.4031351,,27.054039,0.1,173.70386,1596500772437
Fix,GT,37.6308872,-122.4030997,,27.562054,0.1,173.65497,1596500773437
Fix,GT,37.6306387,-122.4030636,,27.91478,0.1,173.63434,1596500774437
Fix,GT,37.6303873,-122.4030278,,28.304218,0.1,173.83667,1596500775437
Fix,GT,37.6301314,-122.4029922,,28.834946,0.1,174.02081,1596500776437
Fix,GT,37.6298715,-122.4029571,,29.12284,0.1,174.23102,1596500777437
Fix,GT,37.6296105,-122.4029233,,29.156242,0.1,174.36371,1596500778437
Fix,GT,37.6293486,-122.4028895,,29.289268,0.1,174.34601,1596500779437
Fix,GT,37.6290855,-122.402855,,29.395811,0.1,174.16052,1596500780437
Fix,GT,37.6288222,-122.402819,,29.334194,0.1,173.86707,1596500781437
Fix,GT,37.6285602,-122.402781,,29.231258,0.1,173.2959,1596500782437
Fix,GT,37.6282992,-122.4027384,,29.215755,0.1,172.13922,1596500783437
Fix,GT,37.6280383,-122.4026875,,29.395285,0.1,170.5835,1596500784437
Fix,GT,37.6277764,-122.4026282,,29.666088,0.1,169.33508,1596500785437
Fix,GT,37.627513,-122.4025623,,29.935892,0.1,168.42065,1596500786437
Fix,GT,37.6272475,-122.4024902,,30.34652,0.1,167.4209,1596500787437
Fix,GT,37.6269801,-122.4024107,,30.620785,0.1,166.17712,1596500788437
Fix,GT,37.6267128,-122.4023226,,30.683945,0.1,164.62866,1596500789437
Fix,GT,37.6264477,-122.4022244,,30.60812,0.1,162.73462,1596500790437
Fix,GT,37.6261864,-122.4021162,,30.500664,0.1,161.2334,1596500791437
Fix,GT,37.6259266,-122.4020022,,30.634216,0.1,160.64252,1596500792437
Fix,GT,37.6256657,-122.4018863,,30.697805,0.1,160.91248,1596500793437
Fix,GT,37.6254053,-122.4017741,,30.372145,0.1,162.07495,1596500794437
Fix,GT,37.6251458,-122.4016704,,30.094051,0.1,163.34192,1596500795437
Fix,GT,37.6248861,-122.4015735,,30.058842,0.1,163.82141,1596500796437
Fix,GT,37.6246265,-122.4014752,,30.090916,0.1,162.94348,1596500797437
Fix,GT,37.6243684,-122.401373,,29.93876,0.1,162.48499,1596500798437
Fix,GT,37.6241122,-122.40127,,29.792711,0.1,162.5307,1596500799437
Fix,GT,37.6238563,-122.4011681,,29.80428,0.1,162.81354,1596500800437
Fix,GT,37.6235998,-122.4010674,,29.86066,0.1,162.68518,1596500801437
Fix,GT,37.6233431,-122.4009634,,29.992687,0.1,161.83179,1596500802437
Fix,GT,37.6230859,-122.400856,,30.19331,0.1,162.1731,1596500803437
Fix,GT,37.6228254,-122.4007531,,30.493145,0.1,163.50421,1596500804437
Fix,GT,37.6225609,-122.4006549,,30.776543,0.1,163.62555,1596500805437
Fix,GT,37.6222943,-122.4005531,,31.052248,0.1,162.83972,1596500806437
Fix,GT,37.6220259,-122.4004483,,31.36366,0.1,163.23273,1596500807437
Fix,GT,37.6217538,-122.4003455,,31.787663,0.1,163.60211,1596500808437
Fix,GT,37.6214775,-122.4002395,,32.377995,0.1,162.95703,1596500809437
Fix,GT,37.6211949,-122.4001299,,33.316696,0.1,163.36005,1596500810437
Fix,GT,37.6209011,-122.4000218,,34.63897,0.1,164.13507,1596500811437
Fix,GT,37.6205952,-122.3999133,,35.91829,0.1,164.66809,1596500812437
Fix,GT,37.6202777,-122.3998049,,37.08925,0.1,165.36694,1596500813437
Fix,GT,37.6199503,-122.3996959,,38.009857,0.1,165.33215,1596500814437
Fix,GT,37.6196177,-122.3995837,,38.31488,0.1,165.1966,1596500815437
Fix,GT,37.6192855,-122.3994703,,38.11301,0.1,165.10907,1596500816437
Fix,GT,37.6189542,-122.3993573,,38.13079,0.1,165.0503,1596500817437
Fix,GT,37.6186221,-122.399245,,38.14756,0.1,165.28528,1596500818437
Fix,GT,37.6182908,-122.3991347,,37.890434,0.1,165.43616,1596500819437
Fix,GT,37.6179621,-122.3990255,,37.558296,0.1,165.43555,1596500820437
Fix,GT,37.6176362,-122.3989174,,37.25865,0.1,165.54736,1596500821437
Fix,GT,37.6173132,-122.3988111,,36.852413,0.1,165.51819,1596500822437
Fix,GT,37.6169943,-122.3987046,,36.402157,0.1,165.14429,1596500823437
Fix,GT,37.6166799,-122.3985962,,35.980263,0.1,164.29102,1596500824437
Fix,GT,37.6163709,-122.398481,,35.566315,0.1,162.57867,1596500825437
Fix,GT,37.6160691,-122.3983535,,35.118336,0.1,160.28436,1596500826437
Fix,GT,37.6157752,-122.3982131,,34.69383,0.1,158.16156,1596500827437
Fix,GT,37.6154889,-122.3980624,,34.17956,0.1,156.47986,1596500828437
Fix,GT,37.6152112,-122.3979032,,33.57071,0.1,154.53534,1596500829437
Fix,GT,37.6149427,-122.3977349,,33.06454,0.1,152.61829,1596500830437
Fix,GT,37.6146817,-122.3975589,,32.7114,0.1,151.29138,1596500831437
Fix,GT,37.6144257,-122.3973779,,32.53191,0.1,150.13239,1596500832437
Fix,GT,37.6141734,-122.3971901,,32.537148,0.1,148.73831,1596500833437
Fix,GT,37.6139245,-122.3969932,,32.784348,0.1,146.97229,1596500834437
Fix,GT,37.613678,-122.3967849,,33.14116,0.1,145.28745,1596500835437
Fix,GT,37.6134342,-122.396566,,33.352726,0.1,143.71841,1596500836437
Fix,GT,37.6131942,-122.3963375,,33.465717,0.1,142.03607,1596500837437
Fix,GT,37.6129592,-122.3961001,,33.4664,0.1,140.54736,1596500838437
Fix,GT,37.6127292,-122.3958544,,33.572853,0.1,138.98419,1596500839437
Fix,GT,37.612503,-122.3955998,,33.85177,0.1,137.49353,1596500840437
Fix,GT,37.6122802,-122.3953357,,34.091946,0.1,135.96039,1596500841437
Fix,GT,37.6120623,-122.3950629,,34.135937,0.1,134.42072,1596500842437
Fix,GT,37.6118505,-122.3947832,,34.025177,0.1,132.88068,1596500843437
Fix,GT,37.6116458,-122.3944971,,33.986076,0.1,131.19421,1596500844437
Fix,GT,37.6114472,-122.3942031,,34.111935,0.1,129.71051,1596500845437
Fix,GT,37.6112526,-122.3939029,,34.25095,0.1,129.0238,1596500846437
Fix,GT,37.6110587,-122.3936002,,34.37396,0.1,128.99347,1596500847437
Fix,GT,37.6108643,-122.3932973,,34.334618,0.1,128.99615,1596500848437
Fix,GT,37.6106721,-122.3929961,,33.82344,0.1,128.88123,1596500849437
Fix,GT,37.6104836,-122.3926996,,33.18458,0.1,128.74066,1596500850437
Fix,GT,37.6102987,-122.3924073,,32.76539,0.1,128.66315,1596500851437
Fix,GT,37.6101155,-122.3921182,,32.534203,0.1,128.83124,1596500852437
Fix,GT,37.6099322,-122.3918301,,32.693398,0.1,128.86783,1596500853437
Fix,GT,37.609747,-122.3915392,,33.109043,0.1,128.84161,1596500854437
Fix,GT,37.6095592,-122.3912451,,33.44583,0.1,128.98956,1596500855437
Fix,GT,37.6093693,-122.3909493,,33.70742,0.1,129.26974,1596500856437
Fix,GT,37.6091764,-122.390652,,34.063038,0.1,129.56406,1596500857437
Fix,GT,37.6089805,-122.3903519,,34.444214,0.1,129.62091,1596500858437
Fix,GT,37.6087825,-122.3900489,,34.76157,0.1,129.6247,1596500859437
Fix,GT,37.6085827,-122.3897437,,35.02231,0.1,129.63696,1596500860437
Fix,GT,37.6083824,-122.389437,,35.035843,0.1,129.62903,1596500861437
Fix,GT,37.6081822,-122.389131,,34.870808,0.1,129.66547,1596500862437
Fix,GT,37.6079834,-122.3888268,,34.658768,0.1,129.62091,1596500863437
Fix,GT,37.607786,-122.3885246,,34.410503,0.1,129.5799,1596500864437
Fix,GT,37.60759,-122.3882238,,34.22855,0.1,129.48853,1596500865437
Fix,GT,37.6073953,-122.3879245,,34.0753,0.1,129.51074,1596500866437
Fix,GT,37.6072011,-122.3876264,,33.982727,0.1,129.60059,1596500867437
Fix,GT,37.6070065,-122.3873289,,34.00853,0.1,129.63727,1596500868437
Fix,GT,37.6068115,-122.387031,,34.137314,0.1,129.70966,1596500869437
Fix,GT,37.6066152,-122.3867319,,34.351837,0.1,129.71133,1596500870437
Fix,GT,37.6064178,-122.3864304,,34.63515,0.1,129.63315,1596500871437
Fix,GT,37.606219,-122.3861257,,34.89822,0.1,129.4823,1596500872437
Fix,GT,37.6060195,-122.3858191,,35.03125,0.1,129.53027,1596500873437
Fix,GT,37.6058191,-122.3855126,,35.006886,0.1,129.74301,1596500874437
Fix,GT,37.6056185,-122.3852068,,34.956177,0.1,129.64307,1596500875437
Fix,GT,37.6054193,-122.3849015,,34.767864,0.1,129.54025,1596500876437
Fix,GT,37.6052212,-122.3845982,,34.542526,0.1,129.65091,1596500877437
Fix,GT,37.6050236,-122.3842962,,34.573902,0.1,129.5834,1596500878437
Fix,GT,37.6048262,-122.3839924,,34.695427,0.1,129.33801,1596500879437
Fix,GT,37.6046288,-122.3836868,,34.830894,0.1,129.24081,1596500880437
Fix,GT,37.6044308,-122.3833795,,34.929985,0.1,129.047,1596500881437
Fix,GT,37.6042339,-122.3830716,,34.795002,0.1,128.9538,1596500882437
Fix,GT,37.604038,-122.382765,,34.707382,0.1,128.93616,1596500883437
Fix,GT,37.6038417,-122.3824577,,34.901375,0.1,128.9292,1596500884437
Fix,GT,37.6036433,-122.3821504,,34.89334,0.1,129.57144,1596500885437
Fix,GT,37.6034431,-122.3818474,,34.66866,0.1,130.11053,1596500886437
Fix,GT,37.6032433,-122.3815464,,34.611183,0.1,129.79926,1596500887437
Fix,GT,37.6030449,-122.3812441,,34.56294,0.1,129.57104,1596500888437
Fix,GT,37.602847,-122.3809428,,34.431576,0.1,129.70377,1596500889437
Fix,GT,37.6026488,-122.3806423,,34.60832,0.1,129.83966,1596500890437
Fix,GT,37.6024491,-122.3803386,,34.987617,0.1,129.57822,1596500891437
Fix,GT,37.6022483,-122.3800309,,35.22868,0.1,129.40186,1596500892437
Fix,GT,37.6020475,-122.3797225,,35.12805,0.1,129.4856,1596500893437
Fix,GT,37.6018477,-122.3794166,,34.756096,0.1,129.56927,1596500894437
Fix,GT,37.6016503,-122.3791141,,34.3127,0.1,129.4426,1596500895437
Fix,GT,37.6014558,-122.3788153,,33.88513,0.1,129.45789,1596500896437
Fix,GT,37.6012631,-122.3785196,,33.652397,0.1,129.48294,1596500897437
Fix,GT,37.6010707,-122.3782247,,33.780037,0.1,129.46216,1596500898437
Fix,GT,37.6008768,-122.3779275,,34.16225,0.1,129.61487,1596500899437
Fix,GT,37.6006796,-122.3776262,,34.73817,0.1,129.66547,1596500900437
Fix,GT,37.600479,-122.3773203,,35.215233,0.1,129.59103,1596500901437
Fix,GT,37.600277,-122.3770122,,35.18558,0.1,129.82013,1596500902437
Fix,GT,37.6000735,-122.3767076,,35.119217,0.1,130.60849,1596500903437
Fix,GT,37.5998658,-122.3764057,,35.441254,0.1,131.31409,1596500904437
Fix,GT,37.5996548,-122.3761016,,35.79189,0.1,131.01746,1596500905437
Fix,GT,37.5994451,-122.3757924,,35.923252,0.1,130.16132,1596500906437
Fix,GT,37.599239,-122.37548,,35.687454,0.1,129.58606,1596500907437
Fix,GT,37.599037,-122.3751689,,35.247597,0.1,129.24835,1596500908437
Fix,GT,37.5988382,-122.3748603,,34.860817,0.1,129.19818,1596500909437
Fix,GT,37.5986411,-122.3745548,,34.664856,0.1,129.17188,1596500910437
Fix,GT,37.5984448,-122.3742485,,34.8302,0.1,128.85144,1596500911437
Fix,GT,37.598248,-122.373939,,35.10431,0.1,128.84668,1596500912437
Fix,GT,37.5980499,-122.3736292,,35.04116,0.1,129.1445,1596500913437
Fix,GT,37.5978526,-122.3733219,,34.677383,0.1,129.11472,1596500914437
Fix,GT,37.5976575,-122.3730178,,34.31771,0.1,129.16989,1596500915437
Fix,GT,37.5974637,-122.3727173,,34.010365,0.1,129.39014,1596500916437
Fix,GT,37.5972708,-122.3724209,,33.61412,0.1,129.61633,1596500917437
Fix,GT,37.5970796,-122.3721291,,33.133537,0.1,129.72113,1596500918437
Fix,GT,37.5968911,-122.3718418,,32.66309,0.1,129.70993,1596500919437
Fix,GT,37.5967055,-122.3715579,,32.248417,0.1,129.40314,1596500920437
Fix,GT,37.5965242,-122.3712751,,31.909834,0.1,128.66522,1596500921437
Fix,GT,37.5963478,-122.370992,,31.581444,0.1,127.995605,1596500922437
Fix,GT,37.5961744,-122.3707108,,31.274624,0.1,128.04596,1596500923437
Fix,GT,37.5960013,-122.3704329,,31.108528,0.1,128.60028,1596500924437
Fix,GT,37.5958261,-122.3701585,,31.045395,0.1,129.25562,1596500925437
Fix,GT,37.5956494,-122.3698868,,30.877659,0.1,129.66559,1596500926437
Fix,GT,37.595473,-122.3696176,,30.791594,0.1,129.60175,1596500927437
Fix,GT,37.5952969,-122.3693471,,30.978193,0.1,129.32089,1596500928437
Fix,GT,37.59512,-122.3690734,,31.294579,0.1,129.30719,1596500929437
Fix,GT,37.5949411,-122.3687971,,31.620155,0.1,129.39783,1596500930437
Fix,GT,37.5947603,-122.3685188,,31.830326,0.1,129.51523,1596500931437
Fix,GT,37.594578,-122.3682402,,31.845783,0.1,129.78387,1596500932437
Fix,GT,37.5943951,-122.3679627,,31.835543,0.1,129.89539,1596500933437
Fix,GT,37.5942114,-122.3676837,,32.144825,0.1,129.70416,1596500934437
Fix,GT,37.5940268,-122.3674019,,32.269184,0.1,129.70306,1596500935437
Fix,GT,37.5938427,-122.3671207,,32.030464,0.1,129.63434,1596500936437
Fix,GT,37.5936606,-122.3668414,,31.717838,0.1,129.4649,1596500937437
Fix,GT,37.5934809,-122.3665648,,31.358578,0.1,129.46472,1596500938437
Fix,GT,37.5933029,-122.3662919,,30.96825,0.1,129.60767,1596500939437
Fix,GT,37.5931265,-122.3660222,,30.74815,0.1,129.5633,1596500940437
Fix,GT,37.5929509,-122.3657528,,30.786766,0.1,129.45923,1596500941437
Fix,GT,37.5927751,-122.3654818,,30.992798,0.1,129.41718,1596500942437
Fix,GT,37.5925971,-122.3652087,,31.418104,0.1,129.66907,1596500943437
Fix,GT,37.592415,-122.3649322,,32.01844,0.1,129.97028,1596500944437
Fix,GT,37.592229,-122.3646504,,32.655865,0.1,129.7807,1596500945437
Fix,GT,37.5920399,-122.3643624,,33.23867,0.1,129.6593,1596500946437
Fix,GT,37.5918487,-122.3640701,,33.53949,0.1,129.61887,1596500947437
Fix,GT,37.5916566,-122.3637761,,33.645004,0.1,129.56326,1596500948437
Fix,GT,37.5914637,-122.3634809,,33.872562,0.1,129.63776,1596500949437
Fix,GT,37.5912687,-122.3631835,,34.20043,0.1,129.79419,1596500950437
Fix,GT,37.5910712,-122.3628833,,34.567085,0.1,129.80304,1596500951437
Fix,GT,37.5908717,-122.3625804,,34.8853,0.1,129.87845,1596500952437
Fix,GT,37.5906703,-122.3622747,,35.20111,0.1,129.76553,1596500953437
Fix,GT,37.5904676,-122.3619659,,35.492813,0.1,129.7149,1596500954437
Fix,GT,37.5902639,-122.3616546,,35.69753,0.1,129.5314,1596500955437
Fix,GT,37.5900602,-122.3613406,,35.81202,0.1,129.22455,1596500956437
Fix,GT,37.5898574,-122.3610258,,35.701954,0.1,129.24222,1596500957437
Fix,GT,37.5896557,-122.3607125,,35.486732,0.1,128.97754,1596500958437
Fix,GT,37.5894571,-122.3603983,,35.427635,0.1,127.99603,1596500959437
Fix,GT,37.5892638,-122.3600787,,35.53023,0.1,126.64636,1596500960437
Fix,GT,37.5890765,-122.3597515,,35.663826,0.1,124.95682,1596500961437
Fix,GT,37.5888978,-122.3594157,,35.693367,0.1,122.696594,1596500962437
Fix,GT,37.58873,-122.3590707,,35.726387,0.1,120.44357,1596500963437
Fix,GT,37.5885707,-122.3587195,,35.681683,0.1,119.35101,1596500964437
Fix,GT,37.5884156,-122.3583661,,35.572548,0.1,118.394226,1596500965437
Fix,GT,37.5882674,-122.3580096,,35.508533,0.1,116.64252,1596500966437
Fix,GT,37.5881293,-122.3576469,,35.56418,0.1,114.46002,1596500967437
Fix,GT,37.5880016,-122.3572769,,35.671833,0.1,112.42761,1596500968437
Fix,GT,37.5878836,-122.3569005,,35.794197,0.1,110.662415,1596500969437
Fix,GT,37.5877742,-122.3565188,,35.862633,0.1,109.03876,1596500970437
Fix,GT,37.5876727,-122.3561333,,35.84659,0.1,107.53638,1596500971437
Fix,GT,37.5875798,-122.355745,,35.74542,0.1,105.88153,1596500972437
Fix,GT,37.5874967,-122.3553552,,35.539364,0.1,104.15668,1596500973437
Fix,GT,37.5874239,-122.3549647,,35.309258,0.1,102.28815,1596500974437
Fix,GT,37.5873614,-122.3545741,,35.087578,0.1,100.56113,1596500975437
Fix,GT,37.5873082,-122.3541833,,34.951347,0.1,99.03119,1596500976437
Fix,GT,37.5872638,-122.3537916,,34.97779,0.1,97.32312,1596500977437
Fix,GT,37.5872286,-122.3533973,,35.129166,0.1,95.57825,1596500978437
Fix,GT,37.587203,-122.3529995,,35.360012,0.1,93.92218,1596500979437
Fix,GT,37.5871857,-122.352598,,35.67402,0.1,92.5484,1596500980437
Fix,GT,37.5871743,-122.3521923,,36.036564,0.1,91.88693,1596500981437
Fix,GT,37.5871644,-122.3517827,,36.321404,0.1,92.08923,1596500982437
Fix,GT,37.5871531,-122.3513713,,36.357376,0.1,92.292694,1596500983437
Fix,GT,37.587142,-122.3509612,,36.075764,0.1,92.09039,1596500984437
Fix,GT,37.5871317,-122.3505559,,35.57005,0.1,91.989136,1596500985437
Fix,GT,37.587122,-122.3501564,,35.033043,0.1,91.85828,1596500986437
Fix,GT,37.5871131,-122.3497624,,34.594666,0.1,91.8569,1596500987437
Fix,GT,37.5871039,-122.3493733,,34.204556,0.1,92.01367,1596500988437
Fix,GT,37.5870943,-122.3489873,,34.050995,0.1,91.94122,1596500989437
Fix,GT,37.5870852,-122.3486014,,34.201027,0.1,91.885376,1596500990437
Fix,GT,37.5870757,-122.3482126,,34.529533,0.1,92.06323,1596500991437
Fix,GT,37.5870648,-122.3478206,,34.714672,0.1,92.25049,1596500992437
Fix,GT,37.5870536,-122.3474287,,34.48535,0.1,92.28528,1596500993437
Fix,GT,37.5870424,-122.3470407,,34.101112,0.1,92.25571,1596500994437
Fix,GT,37.5870315,-122.3466572,,33.687412,0.1,92.28375,1596500995437
Fix,GT,37.5870202,-122.3462783,,33.307457,0.1,92.44382,1596500996437
Fix,GT,37.5870084,-122.3459028,,33.09627,0.1,92.37482,1596500997437
Fix,GT,37.5869979,-122.3455284,,33.11779,0.1,91.99118,1596500998437
Fix,GT,37.5869892,-122.3451531,,33.210953,0.1,91.79993,1596500999437
Fix,GT,37.5869806,-122.3447768,,33.258343,0.1,91.878845,1596501000437
Fix,GT,37.5869716,-122.3444001,,33.322258,0.1,91.875854,1596501001437
Fix,GT,37.5869629,-122.3440222,,33.456097,0.1,91.82785,1596501002437
Fix,GT,37.5869542,-122.3436418,,33.80419,0.1,91.915955,1596501003437
Fix,GT,37.5869448,-122.3432566,,34.275345,0.1,92.02365,1596501004437
Fix,GT,37.5869345,-122.3428667,,34.62347,0.1,92.14749,1596501005437
Fix,GT,37.5869238,-122.3424733,,34.93161,0.1,92.169464,1596501006437
Fix,GT,37.5869131,-122.3420763,,35.21528,0.1,92.10669,1596501007437
Fix,GT,37.5869027,-122.3416764,,35.45993,0.1,92.026794,1596501008437
Fix,GT,37.5868924,-122.3412742,,35.58369,0.1,91.99008,1596501009437
Fix,GT,37.5868821,-122.3408717,,35.507996,0.1,92.06464,1596501010437
Fix,GT,37.5868718,-122.3404711,,35.30103,0.1,91.959564,1596501011437
Fix,GT,37.5868623,-122.3400725,,35.179478,0.1,91.83798,1596501012437
Fix,GT,37.586853,-122.3396741,,35.24574,0.1,91.98392,1596501013437
Fix,GT,37.5868426,-122.3392745,,35.39178,0.1,92.11957,1596501014437
Fix,GT,37.5868317,-122.3388731,,35.56185,0.1,92.14157,1596501015437
Fix,GT,37.586821,-122.3384696,,35.7536,0.1,92.1196,1596501016437
Fix,GT,37.5868101,-122.338064,,35.92827,0.1,92.18231,1596501017437
Fix,GT,37.5867988,-122.3376562,,36.162403,0.1,92.14969,1596501018437
Fix,GT,37.5867879,-122.3372454,,36.4261,0.1,92.06177,1596501019437
Fix,GT,37.5867769,-122.3368323,,36.578102,0.1,92.13696,1596501020437
Fix,GT,37.5867656,-122.3364178,,36.679817,0.1,92.20566,1596501021437
Fix,GT,37.586754,-122.3360027,,36.64878,0.1,92.16177,1596501022437
Fix,GT,37.586743,-122.3355894,,36.38841,0.1,92.01013,1596501023437
Fix,GT,37.586733,-122.335179,,36.14884,0.1,91.833374,1596501024437
Fix,GT,37.5867232,-122.334771,,35.963882,0.1,92.12402,1596501025437
Fix,GT,37.5867103,-122.334365,,35.825302,0.1,93.142426,1596501026437
Fix,GT,37.5866898,-122.3339611,,35.69156,0.1,94.9693,1596501027437
Fix,GT,37.5866574,-122.3335602,,35.506393,0.1,97.45236,1596501028437
Fix,GT,37.5866101,-122.3331637,,35.356255,0.1,100.35431,1596501029437
Fix,GT,37.5865463,-122.3327725,,35.25135,0.1,103.57245,1596501030437
Fix,GT,37.5864647,-122.3323876,,35.186718,0.1,107.02765,1596501031437
Fix,GT,37.5863651,-122.3320104,,35.09038,0.1,110.45499,1596501032437
Fix,GT,37.5862482,-122.3316424,,34.990597,0.1,113.98865,1596501033437
Fix,GT,37.5861135,-122.331285,,34.954224,0.1,117.59268,1596501034437
Fix,GT,37.5859614,-122.3309387,,34.972816,0.1,121.07004,1596501035437
Fix,GT,37.5857925,-122.3306044,,35.027367,0.1,124.61255,1596501036437
Fix,GT,37.5856075,-122.3302828,,35.12046,0.1,127.98468,1596501037437
Fix,GT,37.5854076,-122.3299749,,35.14186,0.1,131.30206,1596501038437
Fix,GT,37.5851945,-122.3296815,,35.048576,0.1,134.3034,1596501039437
Fix,GT,37.5849709,-122.3294032,,34.852562,0.1,136.93335,1596501040437
Fix,GT,37.5847397,-122.3291378,,34.68103,0.1,138.75482,1596501041437
Fix,GT,37.5845047,-122.32888,,34.5868,0.1,139.34207,1596501042437
Fix,GT,37.5842691,-122.3286239,,34.56315,0.1,139.29251,1596501043437
Fix,GT,37.5840337,-122.328367,,34.672596,0.1,139.11713,1596501044437
Fix,GT,37.5837972,-122.3281084,,34.916,0.1,139.21909,1596501045437
Fix,GT,37.5835585,-122.3278482,,35.234787,0.1,139.27695,1596501046437
Fix,GT,37.5833173,-122.3275859,,35.571068,0.1,139.23389,1596501047437
Fix,GT,37.5830739,-122.3273207,,35.915688,0.1,139.2956,1596501048437
Fix,GT,37.582828,-122.3270539,,36.16958,0.1,139.4123,1596501049437
Fix,GT,37.5825813,-122.3267861,,36.182674,0.1,139.24939,1596501050437
Fix,GT,37.5823355,-122.326518,,36.058743,0.1,139.19818,1596501051437
Fix,GT,37.5820903,-122.326251,,35.97083,0.1,139.33154,1596501052437
Fix,GT,37.5818455,-122.3259849,,35.90372,0.1,139.37878,1596501053437
Fix,GT,37.5816004,-122.3257192,,35.960583,0.1,139.45999,1596501054437
Fix,GT,37.5813543,-122.325453,,36.110302,0.1,139.32306,1596501055437
Fix,GT,37.5811078,-122.325185,,36.24366,0.1,139.36774,1596501056437
Fix,GT,37.5808603,-122.3249165,,36.341778,0.1,139.45978,1596501057437
Fix,GT,37.5806122,-122.3246476,,36.374302,0.1,139.36008,1596501058437
Fix,GT,37.5803642,-122.3243778,,36.456947,0.1,139.26874,1596501059437
Fix,GT,37.5801161,-122.3241059,,36.600365,0.1,138.99896,1596501060437
Fix,GT,37.5798673,-122.3238325,,36.79339,0.1,139.1676,1596501061437
Fix,GT,37.5796154,-122.3235587,,37.145554,0.1,139.53644,1596501062437
Fix,GT,37.5793607,-122.3232831,,37.474052,0.1,139.49829,1596501063437
Fix,GT,37.579104,-122.3230059,,37.64436,0.1,139.55844,1596501064437
Fix,GT,37.578846,-122.322728,,37.74182,0.1,139.65994,1596501065437
Fix,GT,37.5785875,-122.3224498,,37.819878,0.1,139.56555,1596501066437
Fix,GT,37.5783288,-122.3221708,,37.82605,0.1,139.54102,1596501067437
Fix,GT,37.578071,-122.3218924,,37.593704,0.1,139.48901,1596501068437
Fix,GT,37.5778153,-122.3216154,,37.329483,0.1,139.38257,1596501069437
Fix,GT,37.5775617,-122.32134,,37.073704,0.1,139.42908,1596501070437
Fix,GT,37.5773098,-122.3210666,,36.822777,0.1,139.3104,1596501071437
Fix,GT,37.57706,-122.3207946,,36.52626,0.1,139.31924,1596501072437
Fix,GT,37.576813,-122.320526,,35.959644,0.1,139.32544,1596501073437
Fix,GT,37.5765704,-122.3202623,,35.278713,0.1,139.3583,1596501074437
Fix,GT,37.5763315,-122.3200033,,34.758698,0.1,139.47125,1596501075437
Fix,GT,37.5760958,-122.3197484,,34.27207,0.1,139.41522,1596501076437
Fix,GT,37.5758644,-122.3194967,,33.65835,0.1,139.27594,1596501077437
Fix,GT,37.5756377,-122.3192501,,32.928677,0.1,139.3599,1596501078437
Fix,GT,37.5754155,-122.3190082,,32.361458,0.1,139.23624,1596501079437
Fix,GT,37.5751972,-122.3187694,,31.903343,0.1,139.13672,1596501080437
Fix,GT,37.5749816,-122.3185343,,31.478302,0.1,139.414,1596501081437
Fix,GT,37.5747683,-122.3183031,,31.078573,0.1,139.4165,1596501082437
Fix,GT,37.5745578,-122.3180743,,30.696482,0.1,139.24518,1596501083437
Fix,GT,37.57435,-122.3178481,,30.341873,0.1,139.33008,1596501084437
Fix,GT,37.5741443,-122.3176249,,29.995659,0.1,139.40387,1596501085437
Fix,GT,37.5739408,-122.317404,,29.723969,0.1,139.28201,1596501086437
Fix,GT,37.5737393,-122.3171844,,29.497807,0.1,139.27133,1596501087437
Fix,GT,37.5735391,-122.3169667,,29.312038,0.1,139.30896,1596501088437
Fix,GT,37.5733395,-122.3167489,,29.444473,0.1,139.17206,1596501089437
Fix,GT,37.5731382,-122.316529,,29.789284,0.1,139.20847,1596501090437
Fix,GT,37.5729345,-122.3163073,,30.029991,0.1,139.39514,1596501091437
Fix,GT,37.5727287,-122.3160845,,30.272411,0.1,139.51794,1596501092437
Fix,GT,37.572521,-122.3158598,,30.542454,0.1,139.4566,1596501093437
Fix,GT,37.5723119,-122.3156328,,30.80894,0.1,139.24078,1596501094437
Fix,GT,37.5721017,-122.3154025,,31.108097,0.1,139.00809,1596501095437
Fix,GT,37.5718895,-122.3151697,,31.446743,0.1,139.09076,1596501096437
Fix,GT,37.5716743,-122.3149348,,31.84109,0.1,139.29163,1596501097437
Fix,GT,37.5714555,-122.3146972,,32.34506,0.1,139.42352,1596501098437
Fix,GT,37.5712327,-122.3144563,,32.916252,0.1,139.39972,1596501099437
Fix,GT,37.5710068,-122.3142106,,33.391045,0.1,139.09833,1596501100437
Fix,GT,37.5707788,-122.3139605,,33.729187,0.1,138.97742,1596501101437
Fix,GT,37.5705492,-122.3137084,,33.97412,0.1,138.91144,1596501102437
Fix,GT,37.570318,-122.3134547,,34.19458,0.1,139.09216,1596501103437
Fix,GT,37.5700845,-122.3132002,,34.39075,0.1,139.30823,1596501104437
Fix,GT,37.569849,-122.3129457,,34.552002,0.1,139.56744,1596501105437
Fix,GT,37.5696117,-122.3126907,,34.795258,0.1,139.62476,1596501106437
Fix,GT,37.5693724,-122.3124333,,35.15751,0.1,139.58093,1596501107437
Fix,GT,37.5691308,-122.3121724,,35.554977,0.1,139.47162,1596501108437
Fix,GT,37.5688868,-122.3119083,,35.91012,0.1,139.50629,1596501109437
Fix,GT,37.5686403,-122.3116427,,36.173584,0.1,139.65613,1596501110437
Fix,GT,37.5683918,-122.3113759,,36.37925,0.1,139.59613,1596501111437
Fix,GT,37.5681426,-122.3111073,,36.47667,0.1,139.4701,1596501112437
Fix,GT,37.5678934,-122.3108379,,36.46273,0.1,139.44568,1596501113437
Fix,GT,37.5676447,-122.3105685,,36.450745,0.1,139.38568,1596501114437
Fix,GT,37.567396,-122.3102981,,36.55703,0.1,139.24307,1596501115437
Fix,GT,37.5671471,-122.3100259,,36.713272,0.1,139.07684,1596501116437
Fix,GT,37.5668974,-122.3097522,,36.82881,0.1,139.16833,1596501117437
Fix,GT,37.5666464,-122.309479,,36.878296,0.1,139.48615,1596501118437
Fix,GT,37.5663946,-122.3092078,,36.72036,0.1,139.6372,1596501119437
Fix,GT,37.5661443,-122.308939,,36.36327,0.1,139.66595,1596501120437
Fix,GT,37.5658963,-122.3086725,,36.10972,0.1,139.55182,1596501121437
Fix,GT,37.5656501,-122.3084061,,36.05595,0.1,139.28665,1596501122437
Fix,GT,37.5654051,-122.3081382,,36.046104,0.1,139.07205,1596501123437
Fix,GT,37.5651603,-122.30787,,36.038197,0.1,139.1499,1596501124437
Fix,GT,37.564915,-122.3076023,,36.13436,0.1,139.3103,1596501125437
Fix,GT,37.5646683,-122.3073335,,36.372906,0.1,139.23114,1596501126437
Fix,GT,37.56442,-122.307062,,36.70577,0.1,139.14203,1596501127437
Fix,GT,37.5641693,-122.3067885,,36.9881,0.1,139.36798,1596501128437
Fix,GT,37.5639158,-122.3065148,,37.212395,0.1,139.61716,1596501129437
Fix,GT,37.5636607,-122.3062403,,37.30941,0.1,139.57837,1596501130437
Fix,GT,37.5634062,-122.3059655,,37.09063,0.1,139.43701,1596501131437
Fix,GT,37.5631546,-122.3056926,,36.72662,0.1,139.32837,1596501132437
Fix,GT,37.5629051,-122.3054207,,36.6175,0.1,139.24658,1596501133437
Fix,GT,37.5626555,-122.3051491,,36.667778,0.1,139.36902,1596501134437
Fix,GT,37.5624052,-122.3048782,,36.645844,0.1,139.49164,1596501135437
Fix,GT,37.5621558,-122.3046074,,36.502407,0.1,139.23193,1596501136437
Fix,GT,37.5619085,-122.3043378,,36.180637,0.1,139.27362,1596501137437
Fix,GT,37.5616622,-122.3040708,,36.088634,0.1,139.50677,1596501138437
Fix,GT,37.5614149,-122.3038036,,36.39704,0.1,139.38153,1596501139437
Fix,GT,37.5611653,-122.3035329,,36.775078,0.1,139.4018,1596501140437
Fix,GT,37.5609125,-122.3032613,,37.034058,0.1,139.98651,1596501141437
Fix,GT,37.5606561,-122.3029915,,37.206238,0.1,140.63074,1596501142437
Fix,GT,37.5603962,-122.3027243,,37.30885,0.1,141.294,1596501143437
Fix,GT,37.5601337,-122.3024615,,37.200546,0.1,142.1365,1596501144437
Fix,GT,37.5598698,-122.3022046,,36.91459,0.1,142.8346,1596501145437
Fix,GT,37.5596064,-122.3019536,,36.46765,0.1,143.28857,1596501146437
Fix,GT,37.5593445,-122.3017087,,36.030327,0.1,143.79782,1596501147437
Fix,GT,37.5590834,-122.3014694,,35.75083,0.1,144.26584,1596501148437
Fix,GT,37.5588226,-122.3012333,,35.622818,0.1,144.52539,1596501149437
Fix,GT,37.5585618,-122.3009988,,35.577923,0.1,144.82172,1596501150437
Fix,GT,37.5583001,-122.3007667,,35.568863,0.1,145.08261,1596501151437
Fix,GT,37.5580376,-122.3005351,,35.628178,0.1,145.02957,1596501152437
Fix,GT,37.5577748,-122.300303,,35.654167,0.1,145.09851,1596501153437
Fix,GT,37.5575125,-122.3000717,,35.440567,0.1,145.13617,1596501154437
Fix,GT,37.5572529,-122.2998427,,34.88074,0.1,144.99951,1596501155437
Fix,GT,37.5570003,-122.2996175,,33.76969,0.1,144.5817,1596501156437
Fix,GT,37.5567594,-122.2993984,,32.150658,0.1,143.98547,1596501157437
Fix,GT,37.5565334,-122.299189,,30.13637,0.1,143.62668,1596501158437
Fix,GT,37.5563227,-122.2989922,,28.159157,0.1,143.44183,1596501159437
Fix,GT,37.5561257,-122.2988072,,26.54858,0.1,143.44965,1596501160437
Fix,GT,37.5559394,-122.2986327,,25.211164,0.1,143.50946,1596501161437
Fix,GT,37.5557603,-122.2984655,,24.392736,0.1,143.70505,1596501162437
Fix,GT,37.5555846,-122.2983036,,24.043098,0.1,144.09448,1596501163437
Fix,GT,37.5554107,-122.2981436,,23.855751,0.1,143.82135,1596501164437
Fix,GT,37.5552379,-122.2979822,,24.006397,0.1,143.45697,1596501165437
Fix,GT,37.5550628,-122.2978177,,24.563175,0.1,143.43561,1596501166437
Fix,GT,37.5548833,-122.2976498,,25.081886,0.1,143.59912,1596501167437
Fix,GT,37.554701,-122.2974797,,25.267574,0.1,143.5332,1596501168437
Fix,GT,37.5545191,-122.2973083,,25.148537,0.1,143.05743,1596501169437
Fix,GT,37.5543403,-122.2971364,,24.810982,0.1,142.52264,1596501170437
Fix,GT,37.5541652,-122.2969653,,24.445385,0.1,142.18817,1596501171437
Fix,GT,37.5539927,-122.2967957,,24.18063,0.1,142.15729,1596501172437
Fix,GT,37.5538211,-122.2966273,,24.161678,0.1,142.2749,1596501173437
Fix,GT,37.5536484,-122.296459,,24.329693,0.1,142.51007,1596501174437
Fix,GT,37.5534742,-122.2962917,,24.36576,0.1,143.0657,1596501175437
Fix,GT,37.5532982,-122.2961261,,24.468216,0.1,143.4701,1596501176437
Fix,GT,37.5531201,-122.2959595,,24.870949,0.1,143.50806,1596501177437
Fix,GT,37.552938,-122.2957897,,25.477932,0.1,143.69647,1596501178437
Fix,GT,37.5527517,-122.2956176,,25.785664,0.1,143.97723,1596501179437
Fix,GT,37.5525648,-122.2954456,,25.578346,0.1,143.97385,1596501180437
Fix,GT,37.5523808,-122.2952758,,25.083664,0.1,143.78513,1596501181437
Fix,GT,37.552201,-122.295109,,24.500286,0.1,143.7323,1596501182437
Fix,GT,37.5520248,-122.2949461,,24.099972,0.1,143.94315,1596501183437
Fix,GT,37.5518508,-122.2947861,,23.78788,0.1,144.0008,1596501184437
Fix,GT,37.5516791,-122.294628,,23.424538,0.1,143.84222,1596501185437
Fix,GT,37.5515113,-122.294472,,22.8901,0.1,143.60767,1596501186437
Fix,GT,37.5513476,-122.2943193,,22.40083,0.1,143.54077,1596501187437
Fix,GT,37.5511866,-122.2941689,,22.179085,0.1,143.48032,1596501188437
Fix,GT,37.5510268,-122.2940187,,22.20779,0.1,143.31674,1596501189437
Fix,GT,37.5508659,-122.2938665,,22.522676,0.1,143.10907,1596501190437
Fix,GT,37.5507027,-122.2937109,,22.99986,0.1,142.88593,1596501191437
Fix,GT,37.5505356,-122.2935513,,23.622145,0.1,143.03027,1596501192437
Fix,GT,37.5503625,-122.2933884,,24.40484,0.1,143.5415,1596501193437
Fix,GT,37.5501838,-122.2932224,,24.884205,0.1,143.75104,1596501194437
Fix,GT,37.5500029,-122.2930545,,25.007055,0.1,143.76001,1596501195437
Fix,GT,37.5498211,-122.2928858,,25.1974,0.1,143.81265,1596501196437
Fix,GT,37.5496378,-122.2927167,,25.230413,0.1,143.8388,1596501197437
Fix,GT,37.5494556,-122.2925477,,25.100801,0.1,143.5846,1596501198437
Fix,GT,37.5492743,-122.2923765,,25.345407,0.1,143.06317,1596501199437
Fix,GT,37.5490905,-122.2922013,,25.880924,0.1,143.01971,1596501200437
Fix,GT,37.5489026,-122.2920238,,26.326279,0.1,143.35495,1596501201437
Fix,GT,37.5487106,-122.2918446,,26.796484,0.1,143.60083,1596501202437
Fix,GT,37.5485151,-122.2916623,,27.231497,0.1,143.62885,1596501203437
Fix,GT,37.5483164,-122.2914783,,27.515224,0.1,143.91498,1596501204437
Fix,GT,37.5481158,-122.2912939,,27.682308,0.1,143.95264,1596501205437
Fix,GT,37.5479143,-122.2911077,,27.851034,0.1,143.76657,1596501206437
Fix,GT,37.5477117,-122.2909196,,28.074593,0.1,143.73688,1596501207437
Fix,GT,37.5475071,-122.2907303,,28.3191,0.1,143.85175,1596501208437
Fix,GT,37.5473004,-122.2905394,,28.657637,0.1,143.84793,1596501209437
Fix,GT,37.547091,-122.2903459,,29.039463,0.1,143.86145,1596501210437
Fix,GT,37.5468791,-122.2901506,,29.287506,0.1,143.9071,1596501211437
Fix,GT,37.5466658,-122.289954,,29.40305,0.1,143.87549,1596501212437
Fix,GT,37.5464527,-122.2897569,,29.347994,0.1,143.77393,1596501213437
Fix,GT,37.5462405,-122.2895596,,29.272758,0.1,143.557,1596501214437
Fix,GT,37.5460287,-122.2893607,,29.480564,0.1,143.27118,1596501215437
Fix,GT,37.5458155,-122.2891594,,29.68577,0.1,143.32733,1596501216437
Fix,GT,37.5456011,-122.2889588,,29.623863,0.1,143.63986,1596501217437
Fix,GT,37.5453874,-122.28876,,29.421967,0.1,143.69574,1596501218437
Fix,GT,37.5451742,-122.2885619,,29.474735,0.1,143.69385,1596501219437
Fix,GT,37.5449594,-122.2883627,,29.79914,0.1,143.75461,1596501220437
Fix,GT,37.5447419,-122.2881622,,30.063345,0.1,143.96405,1596501221437
Fix,GT,37.5445223,-122.2879615,,30.208702,0.1,144.21948,1596501222437
Fix,GT,37.5443017,-122.2877601,,30.334251,0.1,144.0058,1596501223437
Fix,GT,37.5440811,-122.2875559,,30.548275,0.1,143.58472,1596501224437
Fix,GT,37.5438589,-122.2873477,,30.999664,0.1,143.47266,1596501225437
Fix,GT,37.5436333,-122.2871367,,31.433548,0.1,143.55676,1596501226437
Fix,GT,37.5434049,-122.2869234,,31.74514,0.1,143.58868,1596501227437
Fix,GT,37.5431741,-122.2867085,,32.01637,0.1,143.78516,1596501228437
Fix,GT,37.5429405,-122.2864928,,32.35392,0.1,143.96918,1596501229437
Fix,GT,37.5427039,-122.2862758,,32.718597,0.1,144.11377,1596501230437
Fix,GT,37.5424641,-122.2860566,,33.106773,0.1,144.14703,1596501231437
Fix,GT,37.5422214,-122.2858347,,33.5008,0.1,144.08649,1596501232437
Fix,GT,37.5419766,-122.2856099,,33.829517,0.1,143.89105,1596501233437
Fix,GT,37.5417303,-122.285382,,34.091396,0.1,143.74438,1596501234437
Fix,GT,37.541482,-122.2851522,,34.370888,0.1,143.87708,1596501235437
Fix,GT,37.5412312,-122.2849217,,34.616814,0.1,144.05164,1596501236437
Fix,GT,37.5409783,-122.2846901,,34.860123,0.1,144.1785,1596501237437
Fix,GT,37.5407228,-122.2844572,,35.164585,0.1,144.2904,1596501238437
Fix,GT,37.5404655,-122.2842227,,35.371834,0.1,144.13705,1596501239437
Fix,GT,37.5402077,-122.2839867,,35.423737,0.1,144.00732,1596501240437
