MessageType,Provider,LatitudeDegrees,LongitudeDegrees,AltitudeMeters,SpeedMps,AccuracyMeters,BearingDegrees,UnixTimeMillis
Fix,GT,37.4273295,-122.0699069,,0.00043114054,0.1,180.83194,1597354875431
Fix,GT,37.4273295,-122.0699069,,0.001,0.1,180.83202,1597354876431
Fix,GT,37.4273295,-122.0699069,,0.001,0.1,180.83191,1597354877431
Fix,GT,37.4273295,-122.0699069,,0.001,0.1,180.8319,1597354878431
Fix,GT,37.4273295,-122.0699069,,0.00056885957,0.1,180.83197,1597354879431
Fix,GT,37.4273295,-122.0699069,,0.0004311405,0.1,180.83214,1597354880431
Fix,GT,37.4273295,-122.0699069,,0.001,0.1,180.83217,1597354881431
Fix,GT,37.4273295,-122.0699069,,0.0011785843,0.1,180.83195,1597354882431
Fix,GT,37.4273295,-122.0699069,,0.0014142136,0.1,180.83168,1597354883431
Fix,GT,37.4273295,-122.0699069,,0.0014142136,0.1,180.83171,1597354884431
Fix,GT,37.4273295,-122.0699069,,0.0012356294,0.1,180.8317,1597354885431
Fix,GT,37.4273295,-122.0699069,,0.0010000002,0.1,180.83168,1597354886431
Fix,GT,37.4273295,-122.0699069,,0.0010000002,0.1,180.83147,1597354887431
Fix,GT,37.4273295,-122.0699069,,0.0010000002,0.1,180.83124,1597354888431
Fix,GT,37.4273295,-122.0699069,,0.0010000002,0.1,180.83127,1597354889431
Fix,GT,37.4273295,-122.0699069,,0.0011785843,0.1,180.83133,1597354890431
Fix,GT,37.4273295,-122.0699069,,0.0012356294,0.1,180.8313,1597354891431
Fix,GT,37.4273295,-122.0699069,,0.0005688596,0.1,180.83165,1597354892431
Fix,GT,37.4273295,-122.0699069,,0.00043114048,0.1,180.832,1597354893431
Fix,GT,37.4273295,-122.0699069,,0.0010000002,0.1,180.8317,1597354894431
Fix,GT,37.4273295,-122.0699069,,0.0011785843,0.1,180.83131,1597354895431
Fix,GT,37.4273295,-122.0699069,,0.0016667699,0.1,180.83145,1597354896431
Fix,GT,37.4273295,-122.0699069,,0.0015688597,0.1,180.83177,1597354897431
Fix,GT,37.4273295,-122.0699069,,0.0011785843,0.1,180.83153,1597354898431
Fix,GT,37.4273295,-122.0699069,,0.0014142136,0.1,180.83138,1597354899431
Fix,GT,37.4273295,-122.0699069,,0.0012356294,0.1,180.83116,1597354900431
Fix,GT,37.4273295,-122.0699069,,0.0010000002,0.1,180.83104,1597354901431
Fix,GT,37.4273295,-122.0699069,,0.0010000002,0.1,180.83115,1597354902431
Fix,GT,37.4273295,-122.0699069,,0.001,0.1,180.83131,1597354903431
Fix,GT,37.4273295,-122.0699069,,0.0011785843,0.1,180.83138,1597354904431
Fix,GT,37.4273295,-122.0699069,,0.0012356293,0.1,180.83128,1597354905431
Fix,GT,37.4273295,-122.0699069,,0.001,0.1,180.83119,1597354906431
Fix,GT,37.4273295,-122.0699069,,0.001,0.1,180.83105,1597354907431
Fix,GT,37.4273295,-122.0699069,,0.00056885957,0.1,180.83095,1597354908431
Fix,GT,37.4273295,-122.0699069,,0.0,0.1,180.83109,1597354909431
Fix,GT,37.4273295,-122.0699069,,0.000862281,0.1,180.83138,1597354910431
Fix,GT,37.4273295,-122.0699069,,0.0017474438,0.1,180.83138,1597354911431
Fix,GT,37.4273295,-122.0699069,,0.0014142136,0.1,180.83118,1597354912431
Fix,GT,37.4273295,-122.0699069,,0.0014142136,0.1,180.8312,1597354913431
Fix,GT,37.4273295,-122.0699069,,0.0016667699,0.1,180.83119,1597354914431
Fix,GT,37.4273295,-122.0699069,,0.0011377193,0.1,180.83119,1597354915431
Fix,GT,37.4273295,-122.0699069,,0.00043114048,0.1,180.8312,1597354916431
Fix,GT,37.4273295,-122.0699069,,0.0010000002,0.1,180.83125,1597354917431
Fix,GT,37.4273295,-122.0699069,,0.0014311406,0.1,180.8312,1597354918431
Fix,GT,37.4273295,-122.0699069,,0.0024311407,0.1,180.83107,1597354919431
Fix,GT,37.4273295,-122.0699069,,0.0025688596,0.1,180.83098,1597354920431
Fix,GT,37.4273295,-122.0699069,,0.002501105,0.1,180.83092,1597354921431
Fix,GT,37.4273295,-122.0699069,,0.0027629512,0.1,180.83087,1597354922431
Fix,GT,37.4273295,-122.0699069,,0.0018817333,0.1,180.8308,1597354923431
Fix,GT,37.4273295,-122.0699069,,0.00080448884,0.1,180.83069,1597354924431
Fix,GT,37.4273295,-122.0699069,,0.0009640594,0.1,180.83061,1597354925431
Fix,GT,37.4273295,-122.0699069,,0.0017031492,0.1,180.83067,1597354926431
Fix,GT,37.4273295,-122.0699069,,0.0014311406,0.1,180.8306,1597354927431
Fix,GT,37.4273295,-122.0699069,,0.0011377193,0.1,180.83046,1597354928431
Fix,GT,37.4273295,-122.0699069,,0.00043114048,0.1,180.83035,1597354929431
Fix,GT,37.4273295,-122.0699069,,0.0010000002,0.1,180.83041,1597354930431
Fix,GT,37.4273295,-122.0699069,,0.001788309,0.1,180.83017,1597354931431
Fix,GT,37.4273295,-122.0699069,,0.0022187023,0.1,180.82993,1597354932431
Fix,GT,37.4273295,-122.0699069,,0.0012356293,0.1,180.83012,1597354933431
Fix,GT,37.4273294,-122.0699069,,0.08723238,0.1,180.83237,1597354934431
Fix,GT,37.4273274,-122.0699069,,0.44589794,0.1,180.84825,1597354935431
Fix,GT,37.4273209,-122.0699073,,0.9860541,0.1,181.51599,1597354936431
Fix,GT,37.4273094,-122.0699085,,1.5927529,0.1,182.89177,1597354937431
Fix,GT,37.4272912,-122.0699102,,2.5713708,0.1,183.65468,1597354938431
Fix,GT,37.427262,-122.0699126,,3.9620564,0.1,183.79602,1597354939431
Fix,GT,37.4272192,-122.0699161,,5.4639997,0.1,183.98993,1597354940431
Fix,GT,37.4271648,-122.0699211,,6.4778256,0.1,184.4363,1597354941431
Fix,GT,37.4271054,-122.0699265,,6.64802,0.1,184.01363,1597354942431
Fix,GT,37.4270464,-122.0699301,,6.447276,0.1,182.37485,1597354943431
Fix,GT,37.42699,-122.0699318,,6.0432096,0.1,181.32393,1597354944431
Fix,GT,37.4269391,-122.0699336,,5.137179,0.1,182.02277,1597354945431
Fix,GT,37.4268986,-122.0699396,,3.8953395,0.1,188.39319,1597354946431
Fix,GT,37.4268696,-122.0699559,,3.131791,0.1,204.61234,1597354947431
Fix,GT,37.426852,-122.0699836,,2.9253106,0.1,228.51828,1597354948431
Fix,GT,37.426845,-122.0700176,,3.0788314,0.1,251.03238,1597354949431
Fix,GT,37.4268406,-122.0700549,,3.5580282,0.1,259.02124,1597354950431
Fix,GT,37.4268275,-122.0700936,,4.015133,0.1,246.82867,1597354951431
Fix,GT,37.4268006,-122.0701237,,4.3735795,0.1,222.15651,1597354952431
Fix,GT,37.4267623,-122.0701383,,4.908832,0.1,197.82784,1597354953431
Fix,GT,37.4267145,-122.0701408,,5.8969374,0.1,183.27701,1597354954431
Fix,GT,37.4266564,-122.0701388,,6.9628496,0.1,178.98871,1597354955431
Fix,GT,37.4265911,-122.0701366,,7.412238,0.1,178.91998,1597354956431
Fix,GT,37.4265249,-122.0701352,,7.2733974,0.1,179.65442,1597354957431
Fix,GT,37.4264594,-122.0701354,,7.333356,0.1,180.57855,1597354958431
Fix,GT,37.4263905,-122.070136,,8.052681,0.1,180.6453,1597354959431
Fix,GT,37.4263137,-122.0701362,,9.036257,0.1,180.28386,1597354960431
Fix,GT,37.4262288,-122.0701354,,9.786884,0.1,179.76842,1597354961431
Fix,GT,37.4261393,-122.0701339,,10.006629,0.1,179.41547,1597354962431
Fix,GT,37.4260497,-122.0701323,,9.871233,0.1,179.49146,1597354963431
Fix,GT,37.4259612,-122.070132,,9.733852,0.1,180.58167,1597354964431
Fix,GT,37.4258746,-122.0701343,,9.463181,0.1,182.06085,1597354965431
Fix,GT,37.4257906,-122.0701379,,9.247402,0.1,182.03831,1597354966431
Fix,GT,37.4257078,-122.07014,,9.112003,0.1,180.86993,1597354967431
Fix,GT,37.425627,-122.070139,,8.795293,0.1,179.25543,1597354968431
Fix,GT,37.4255491,-122.0701369,,8.551817,0.1,179.11652,1597354969431
Fix,GT,37.425472,-122.0701378,,8.57916,0.1,181.32805,1597354970431
Fix,GT,37.4253946,-122.0701413,,8.579966,0.1,182.24013,1597354971431
Fix,GT,37.4253182,-122.0701429,,8.330669,0.1,180.50253,1597354972431
Fix,GT,37.4252462,-122.0701421,,7.5631423,0.1,179.33917,1597354973431
Fix,GT,37.4251833,-122.0701401,,6.4010077,0.1,177.93323,1597354974431
Fix,GT,37.425131,-122.0701319,,5.5278893,0.1,170.21472,1597354975431
Fix,GT,37.4250888,-122.0701082,,5.068613,0.1,152.06488,1597354976431
Fix,GT,37.4250623,-122.070068,,4.6099715,0.1,126.927,1597354977431
Fix,GT,37.4250508,-122.0700225,,4.124839,0.1,108.20532,1597354978431
Fix,GT,37.4250403,-122.0699808,,3.6093469,0.1,109.15344,1597354979431
Fix,GT,37.4250206,-122.0699503,,3.2821856,0.1,128.02667,1597354980431
Fix,GT,37.4249912,-122.069936,,3.4976225,0.1,154.75,1597354981431
Fix,GT,37.4249557,-122.0699415,,4.2217245,0.1,184.61682,1597354982431
Fix,GT,37.4249193,-122.0699717,,5.3406105,0.1,213.93202,1597354983431
Fix,GT,37.4248898,-122.0700281,,6.5449314,0.1,240.07306,1597354984431
Fix,GT,37.4248752,-122.0701056,,7.562152,0.1,260.42517,1597354985431
Fix,GT,37.4248718,-122.0701956,,8.282145,0.1,269.1377,1597354986431
Fix,GT,37.4248715,-122.0702931,,8.95796,0.1,270.81122,1597354987431
Fix,GT,37.4248719,-122.0703986,,9.787731,0.1,270.94037,1597354988431
Fix,GT,37.4248726,-122.0705145,,10.742381,0.1,270.6877,1597354989431
Fix,GT,37.4248723,-122.0706407,,11.555559,0.1,269.9732,1597354990431
Fix,GT,37.4248712,-122.0707745,,12.105929,0.1,269.70572,1597354991431
Fix,GT,37.4248699,-122.0709139,,12.555637,0.1,269.7045,1597354992431
Fix,GT,37.4248692,-122.0710572,,12.724634,0.1,270.15692,1597354993431
Fix,GT,37.4248696,-122.0712006,,12.6562805,0.1,270.77972,1597354994431
Fix,GT,37.424871,-122.0713436,,12.763985,0.1,270.97223,1597354995431
Fix,GT,37.4248722,-122.0714889,,12.980804,0.1,270.76776,1597354996431
Fix,GT,37.4248729,-122.0716363,,13.055519,0.1,270.56314,1597354997431
Fix,GT,37.4248734,-122.0717835,,12.989972,0.1,270.46152,1597354998431
Fix,GT,37.4248735,-122.0719299,,12.98407,0.1,270.13586,1597354999431
Fix,GT,37.424873,-122.0720765,,12.96706,0.1,269.92285,1597355000431
Fix,GT,37.4248725,-122.0722227,,12.90271,0.1,269.9598,1597355001431
Fix,GT,37.4248721,-122.0723684,,12.908445,0.1,269.9806,1597355002431
Fix,GT,37.4248716,-122.0725144,,12.943699,0.1,269.9021,1597355003431
Fix,GT,37.4248708,-122.0726611,,13.015342,0.1,269.85214,1597355004431
Fix,GT,37.4248702,-122.0728086,,13.126654,0.1,269.9085,1597355005431
Fix,GT,37.4248696,-122.0729574,,13.203419,0.1,269.9688,1597355006431
Fix,GT,37.4248692,-122.0731066,,13.186805,0.1,270.09595,1597355007431
Fix,GT,37.4248692,-122.0732558,,13.202145,0.1,270.14597,1597355008431
Fix,GT,37.4248687,-122.0734054,,13.315132,0.1,269.7704,1597355009431
Fix,GT,37.4248671,-122.0735565,,13.432472,0.1,269.42078,1597355010431
Fix,GT,37.4248651,-122.0737088,,13.520262,0.1,269.34692,1597355011431
Fix,GT,37.4248633,-122.0738619,,13.576107,0.1,269.51196,1597355012431
Fix,GT,37.4248632,-122.0740157,,13.662115,0.1,270.6098,1597355013431
Fix,GT,37.4248652,-122.0741705,,13.7388,0.1,271.13815,1597355014431
Fix,GT,37.4248663,-122.074326,,13.80517,0.1,270.37686,1597355015431
Fix,GT,37.4248663,-122.0744824,,13.891439,0.1,270.28094,1597355016431
Fix,GT,37.4248671,-122.0746394,,13.865101,0.1,270.65524,1597355017431
Fix,GT,37.4248681,-122.0747951,,13.677334,0.1,270.68604,1597355018431
Fix,GT,37.4248692,-122.0749478,,13.339143,0.1,270.70978,1597355019431
Fix,GT,37.4248702,-122.0750968,,13.038723,0.1,270.62186,1597355020431
Fix,GT,37.4248706,-122.0752428,,12.823022,0.1,270.2872,1597355021431
Fix,GT,37.4248706,-122.0753867,,12.654758,0.1,270.16922,1597355022431
Fix,GT,37.4248706,-122.0755291,,12.552757,0.1,270.2542,1597355023431
Fix,GT,37.4248704,-122.0756704,,12.472458,0.1,270.08405,1597355024431
Fix,GT,37.42487,-122.075811,,12.419344,0.1,270.02127,1597355025431
Fix,GT,37.4248698,-122.0759511,,12.389002,0.1,270.08945,1597355026431
Fix,GT,37.4248696,-122.0760912,,12.432032,0.1,270.04083,1597355027431
Fix,GT,37.4248692,-122.076232,,12.479628,0.1,269.90283,1597355028431
Fix,GT,37.4248683,-122.0763725,,12.370972,0.1,269.6977,1597355029431
Fix,GT,37.4248671,-122.0765111,,12.17795,0.1,269.7408,1597355030431
Fix,GT,37.4248666,-122.0766478,,12.079586,0.1,270.13287,1597355031431
Fix,GT,37.4248668,-122.0767839,,11.983198,0.1,270.5683,1597355032431
Fix,GT,37.4248676,-122.076918,,11.73507,0.1,270.7182,1597355033431
Fix,GT,37.4248682,-122.0770487,,11.411428,0.1,270.44666,1597355034431
Fix,GT,37.424868,-122.0771753,,11.002741,0.1,270.01382,1597355035431
Fix,GT,37.4248669,-122.0772971,,10.498425,0.1,269.2979,1597355036431
Fix,GT,37.424864,-122.0774112,,9.650934,0.1,267.82126,1597355037431
Fix,GT,37.4248589,-122.0775127,,8.304639,0.1,266.102,1597355038431
Fix,GT,37.4248525,-122.0775974,,6.734415,0.1,264.4686,1597355039431
Fix,GT,37.4248465,-122.077663,,4.9483614,0.1,263.68896,1597355040431
Fix,GT,37.4248432,-122.0777075,,2.9844456,0.1,265.32727,1597355041431
Fix,GT,37.4248425,-122.0777312,,1.2924235,0.1,267.7242,1597355042431
Fix,GT,37.4248426,-122.0777395,,0.28233543,0.1,268.8924,1597355043431
Fix,GT,37.4248427,-122.0777409,,0.042254753,0.1,269.07162,1597355044431
Fix,GT,37.4248428,-122.0777414,,0.04571294,0.1,269.1388,1597355045431
Fix,GT,37.424843,-122.0777418,,0.033018485,0.1,269.20007,1597355046431
Fix,GT,37.4248432,-122.077742,,0.12729907,0.1,269.25458,1597355047431
Fix,GT,37.4248434,-122.0777459,,0.75903046,0.1,269.58948,1597355048431
Fix,GT,37.4248438,-122.077762,,2.1742973,0.1,270.0984,1597355049431
Fix,GT,37.4248441,-122.0777963,,3.8532138,0.1,270.2271,1597355050431
Fix,GT,37.4248431,-122.0778483,,5.2357397,0.1,268.13297,1597355051431
Fix,GT,37.4248353,-122.0779104,,5.873311,0.1,258.99255,1597355052431
Fix,GT,37.4248139,-122.07797,,6.0315733,0.1,242.7828,1597355053431
Fix,GT,37.4247765,-122.0780218,,6.7496758,0.1,225.57785,1597355054431
Fix,GT,37.424722,-122.0780642,,7.814457,0.1,208.94392,1597355055431
Fix,GT,37.4246518,-122.0780902,,8.769679,0.1,193.46407,1597355056431
Fix,GT,37.4245696,-122.0780988,,9.698902,0.1,182.89455,1597355057431
Fix,GT,37.4244784,-122.0780959,,10.555722,0.1,178.02405,1597355058431
Fix,GT,37.4243805,-122.0780884,,11.129311,0.1,176.6377,1597355059431
Fix,GT,37.4242798,-122.0780792,,11.2172,0.1,176.04456,1597355060431
Fix,GT,37.4241799,-122.0780693,,11.016229,0.1,175.8208,1597355061431
Fix,GT,37.4240823,-122.0780603,,10.684093,0.1,176.29291,1597355062431
Fix,GT,37.4239884,-122.078052,,10.162302,0.1,176.08942,1597355063431
Fix,GT,37.4239004,-122.0780429,,9.39314,0.1,175.10522,1597355064431
Fix,GT,37.4238208,-122.0780334,,8.293848,0.1,174.94635,1597355065431
Fix,GT,37.4237516,-122.078026,,7.078041,0.1,175.65265,1597355066431
Fix,GT,37.4236937,-122.0780212,,5.736128,0.1,176.85876,1597355067431
Fix,GT,37.423649,-122.0780184,,4.1743217,0.1,177.79242,1597355068431
Fix,GT,37.4236172,-122.078017,,2.9707317,0.1,178.0191,1597355069431
Fix,GT,37.4235938,-122.0780159,,2.3214064,0.1,178.04297,1597355070431
Fix,GT,37.423576,-122.078015,,1.5833527,0.1,178.05719,1597355071431
Fix,GT,37.423566,-122.0780145,,0.6419363,0.1,178.07874,1597355072431
Fix,GT,37.4235631,-122.0780144,,0.08610748,0.1,178.08789,1597355073431
Fix,GT,37.4235626,-122.0780144,,0.06916563,0.1,178.09265,1597355074431
Fix,GT,37.4235621,-122.0780144,,0.03837522,0.1,178.0951,1597355075431
Fix,GT,37.423562,-122.0780144,,0.0037634696,0.1,178.0951,1597355076431
Fix,GT,37.423562,-122.0780144,,0.002972363,0.1,178.0946,1597355077431
Fix,GT,37.423562,-122.0780144,,0.003018342,0.1,178.09448,1597355078431
Fix,GT,37.423562,-122.0780144,,0.0020401222,0.1,178.09448,1597355079431
Fix,GT,37.423562,-122.0780144,,0.0014311385,0.1,178.09436,1597355080431
Fix,GT,37.423562,-122.0780144,,0.002101778,0.1,178.09436,1597355081431
Fix,GT,37.423562,-122.0780144,,0.001881735,0.1,178.09412,1597355082431
Fix,GT,37.423562,-122.0780144,,0.0016667686,0.1,178.09393,1597355083431
Fix,GT,37.423562,-122.0780144,,0.002101778,0.1,178.09375,1597355084431
Fix,GT,37.423562,-122.0780144,,0.002236068,0.1,178.09357,1597355085431
Fix,GT,37.4235619,-122.0780144,,0.05871705,0.1,178.09558,1597355086431
Fix,GT,37.4235596,-122.0780143,,0.5746207,0.1,178.11743,1597355087431
Fix,GT,37.4235493,-122.0780139,,1.7915272,0.1,178.2276,1597355088431
Fix,GT,37.4235262,-122.0780131,,3.3325129,0.1,178.60883,1597355089431
Fix,GT,37.4234887,-122.0780123,,5.044268,0.1,179.21967,1597355090431
Fix,GT,37.4234351,-122.0780118,,6.8986816,0.1,179.92902,1597355091431
Fix,GT,37.4233647,-122.0780125,,8.614098,0.1,180.70854,1597355092431
Fix,GT,37.4232803,-122.0780138,,10.048129,0.1,180.97557,1597355093431
Fix,GT,37.4231837,-122.0780155,,11.366556,0.1,181.17503,1597355094431
Fix,GT,37.4230757,-122.0780195,,12.611567,0.1,182.43648,1597355095431
Fix,GT,37.4229569,-122.0780278,,13.782669,0.1,183.80754,1597355096431
Fix,GT,37.4228282,-122.0780384,,14.843555,0.1,184.00258,1597355097431
Fix,GT,37.42269,-122.078049,,15.844742,0.1,183.76328,1597355098431
Fix,GT,37.4225435,-122.0780608,,16.67305,0.1,184.10704,1597355099431
Fix,GT,37.4223906,-122.0780748,,17.298744,0.1,184.54007,1597355100431
Fix,GT,37.4222337,-122.0780886,,17.532738,0.1,183.89288,1597355101431
Fix,GT,37.4220762,-122.0780969,,17.462002,0.1,181.65085,1597355102431
Fix,GT,37.4219198,-122.0780969,,17.276108,0.1,179.04895,1597355103431
Fix,GT,37.421766,-122.0780881,,16.902672,0.1,176.46735,1597355104431
Fix,GT,37.421617,-122.0780708,,16.362251,0.1,173.93213,1597355105431
Fix,GT,37.4214736,-122.0780483,,15.6666765,0.1,172.8595,1597355106431
Fix,GT,37.4213365,-122.0780266,,15.028538,0.1,173.52148,1597355107431
Fix,GT,37.4212027,-122.0780105,,14.864394,0.1,175.94348,1597355108431
Fix,GT,37.4210684,-122.078003,,15.042963,0.1,178.76086,1597355109431
Fix,GT,37.4209315,-122.0780017,,15.372728,0.1,180.28114,1597355110431
Fix,GT,37.4207908,-122.0780027,,15.858213,0.1,180.68867,1597355111431
Fix,GT,37.4206455,-122.0780045,,16.388224,0.1,180.90921,1597355112431
Fix,GT,37.4204953,-122.0780068,,16.95242,0.1,181.00125,1597355113431
Fix,GT,37.4203397,-122.0780092,,17.616018,0.1,180.8966,1597355114431
Fix,GT,37.4201782,-122.0780115,,18.223362,0.1,180.84894,1597355115431
Fix,GT,37.4200117,-122.0780135,,18.764482,0.1,180.81804,1597355116431
Fix,GT,37.4198404,-122.0780153,,19.248817,0.1,180.64151,1597355117431
Fix,GT,37.4196655,-122.0780164,,19.540596,0.1,180.5151,1597355118431
Fix,GT,37.4194889,-122.0780176,,19.63567,0.1,180.59915,1597355119431
Fix,GT,37.4193119,-122.078019,,19.668247,0.1,180.57613,1597355120431
Fix,GT,37.4191344,-122.0780203,,19.736713,0.1,180.52621,1597355121431
Fix,GT,37.418956,-122.0780215,,19.868793,0.1,180.54413,1597355122431
Fix,GT,37.4187764,-122.0780223,,19.977837,0.1,180.4668,1597355123431
Fix,GT,37.4185965,-122.0780236,,19.93156,0.1,180.6927,1597355124431
Fix,GT,37.418417,-122.0780264,,19.933983,0.1,181.27858,1597355125431
Fix,GT,37.418237,-122.0780342,,20.0575,0.1,182.94193,1597355126431
Fix,GT,37.4180559,-122.0780507,,20.183321,0.1,185.25157,1597355127431
Fix,GT,37.4178738,-122.0780706,,20.40931,0.1,184.88516,1597355128431
Fix,GT,37.4176893,-122.0780857,,20.658775,0.1,183.1051,1597355129431
Fix,GT,37.4175025,-122.0780938,,20.841429,0.1,181.54144,1597355130431
Fix,GT,37.4173143,-122.0780966,,20.946278,0.1,180.52519,1597355131431
Fix,GT,37.4171253,-122.0780971,,20.944927,0.1,180.39317,1597355132431
Fix,GT,37.4169371,-122.0780976,,20.742262,0.1,180.43576,1597355133431
Fix,GT,37.416753,-122.0780985,,20.037144,0.1,180.5334,1597355134431
Fix,GT,37.4165779,-122.0780997,,18.74887,0.1,180.5977,1597355135431
Fix,GT,37.4164159,-122.0781012,,17.134434,0.1,180.6926,1597355136431
Fix,GT,37.4162699,-122.0781031,,15.287056,0.1,180.95503,1597355137431
Fix,GT,37.4161415,-122.0781059,,13.184225,0.1,181.52681,1597355138431
Fix,GT,37.4160326,-122.0781103,,10.980515,0.1,182.52211,1597355139431
Fix,GT,37.4159434,-122.0781161,,8.894651,0.1,183.62285,1597355140431
Fix,GT,37.4158719,-122.0781216,,7.038356,0.1,183.79893,1597355141431
Fix,GT,37.4158163,-122.0781252,,5.3919916,0.1,182.99379,1597355142431
Fix,GT,37.4157749,-122.0781272,,3.770286,0.1,182.38991,1597355143431
Fix,GT,37.4157476,-122.0781283,,2.330337,0.1,182.24416,1597355144431
Fix,GT,37.4157318,-122.078129,,1.2858547,0.1,182.14912,1597355145431
Fix,GT,37.4157234,-122.0781293,,0.62601453,0.1,182.0755,1597355146431
Fix,GT,37.4157195,-122.0781293,,0.31404728,0.1,182.03737,1597355147431
Fix,GT,37.4157171,-122.0781294,,0.24132085,0.1,182.01178,1597355148431
Fix,GT,37.4157147,-122.0781295,,0.27639782,0.1,181.97821,1597355149431
Fix,GT,37.4157125,-122.0781296,,0.21024412,0.1,181.94405,1597355150431
Fix,GT,37.4157101,-122.0781296,,0.37382028,0.1,181.90672,1597355151431
Fix,GT,37.4157031,-122.0781298,,1.4054182,0.1,181.85849,1597355152431
Fix,GT,37.4156813,-122.0781305,,3.6400673,0.1,181.79033,1597355153431
Fix,GT,37.4156365,-122.0781315,,6.3058476,0.1,181.33397,1597355154431
Fix,GT,37.4155699,-122.0781321,,8.3527,0.1,180.58557,1597355155431
Fix,GT,37.4154876,-122.0781322,,9.835548,0.1,180.13107,1597355156431
Fix,GT,37.4153937,-122.0781314,,10.993749,0.1,179.9002,1597355157431
Fix,GT,37.4152908,-122.0781309,,11.76416,0.1,180.16461,1597355158431
Fix,GT,37.4151833,-122.0781324,,11.972263,0.1,181.48524,1597355159431
Fix,GT,37.4150759,-122.0781383,,11.954171,0.1,183.53716,1597355160431
Fix,GT,37.4149659,-122.078148,,12.616234,0.1,184.3585,1597355161431
Fix,GT,37.414848,-122.0781575,,13.475973,0.1,183.4944,1597355162431
Fix,GT,37.4147259,-122.0781638,,13.477145,0.1,182.14803,1597355163431
Fix,GT,37.4146069,-122.0781668,,12.85199,0.1,180.95546,1597355164431
Fix,GT,37.4144955,-122.0781673,,11.873967,0.1,180.25214,1597355165431
Fix,GT,37.4143923,-122.0781667,,11.012661,0.1,179.85466,1597355166431
Fix,GT,37.4142963,-122.0781656,,10.26024,0.1,179.57928,1597355167431
Fix,GT,37.4142082,-122.0781644,,9.25089,0.1,179.7727,1597355168431
Fix,GT,37.4141318,-122.078164,,7.5586095,0.1,180.3091,1597355169431
Fix,GT,37.4140734,-122.0781645,,5.397028,0.1,180.70155,1597355170431
Fix,GT,37.4140329,-122.0781651,,3.6881971,0.1,180.73373,1597355171431
Fix,GT,37.414005,-122.0781652,,2.5960498,0.1,180.5717,1597355172431
Fix,GT,37.4139841,-122.0781652,,2.112547,0.1,180.42514,1597355173431
Fix,GT,37.4139664,-122.0781652,,1.7442997,0.1,180.30974,1597355174431
Fix,GT,37.4139539,-122.0781652,,1.0074195,0.1,180.22296,1597355175431
Fix,GT,37.4139481,-122.0781652,,0.31667164,0.1,180.17679,1597355176431
Fix,GT,37.4139465,-122.0781652,,0.06063762,0.1,180.1619,1597355177431
Fix,GT,37.4139463,-122.0781652,,0.036331568,0.1,180.15895,1597355178431
Fix,GT,37.4139461,-122.0781652,,0.031119067,0.1,180.15717,1597355179431
Fix,GT,37.413946,-122.0781652,,0.013137603,0.1,180.15565,1597355180431
Fix,GT,37.413946,-122.0781652,,0.0014142136,0.1,180.15445,1597355181431
Fix,GT,37.413946,-122.0781652,,0.0014142136,0.1,180.1542,1597355182431
Fix,GT,37.4139459,-122.0781652,,0.0014142136,0.1,180.15431,1597355183431
Fix,GT,37.4139459,-122.0781652,,0.0012356304,0.1,180.15425,1597355184431
Fix,GT,37.4139459,-122.0781652,,0.0011785834,0.1,180.15407,1597355185431
Fix,GT,37.4139459,-122.0781652,,0.0014142136,0.1,180.15378,1597355186431
Fix,GT,37.4139459,-122.0781652,,0.0014142136,0.1,180.15356,1597355187431
Fix,GT,37.4139459,-122.0781652,,0.0014142136,0.1,180.15352,1597355188431
Fix,GT,37.4139459,-122.0781652,,0.002023935,0.1,180.15366,1597355189431
Fix,GT,37.4139459,-122.0781652,,0.0022187058,0.1,180.1537,1597355190431
Fix,GT,37.4139459,-122.0781652,,0.0012356304,0.1,180.15363,1597355191431
Fix,GT,37.4139459,-122.0781652,,0.001,0.1,180.1535,1597355192431
Fix,GT,37.4139459,-122.0781652,,0.0011785834,0.1,180.1533,1597355193431
Fix,GT,37.4139459,-122.0781652,,0.0012356304,0.1,180.15303,1597355194431
Fix,GT,37.4139459,-122.0781652,,0.0011785834,0.1,180.15298,1597355195431
Fix,GT,37.4139459,-122.0781653,,0.0012356304,0.1,180.1531,1597355196431
Fix,GT,37.4139459,-122.0781653,,0.0011785834,0.1,180.15305,1597355197431
Fix,GT,37.4139459,-122.0781653,,0.0012356304,0.1,180.15285,1597355198431
Fix,GT,37.4139459,-122.0781653,,0.011786743,0.1,180.15259,1597355199431
Fix,GT,37.4139446,-122.0781653,,0.31056342,0.1,180.13994,1597355200431
Fix,GT,37.4139375,-122.0781652,,1.395661,0.1,180.07648,1597355201431
Fix,GT,37.4139171,-122.0781652,,3.3520808,0.1,179.94601,1597355202431
Fix,GT,37.4138767,-122.0781646,,5.7294445,0.1,179.67883,1597355203431
Fix,GT,37.4138153,-122.0781639,,7.8150215,0.1,179.59589,1597355204431
Fix,GT,37.4137382,-122.0781633,,9.1940365,0.1,179.97382,1597355205431
Fix,GT,37.4136513,-122.0781634,,10.040537,0.1,180.36122,1597355206431
Fix,GT,37.4135584,-122.0781642,,10.474768,0.1,180.66487,1597355207431
Fix,GT,37.4134634,-122.0781658,,10.589504,0.1,181.16891,1597355208431
Fix,GT,37.4133685,-122.0781692,,10.494612,0.1,182.29184,1597355209431
Fix,GT,37.4132742,-122.0781749,,10.609176,0.1,183.38441,1597355210431
Fix,GT,37.4131749,-122.0781824,,11.609686,0.1,183.68587,1597355211431
Fix,GT,37.4130646,-122.0781901,,12.893222,0.1,183.23682,1597355212431
Fix,GT,37.4129435,-122.0781965,,13.989302,0.1,182.354,1597355213431
Fix,GT,37.4128134,-122.078201,,14.884284,0.1,181.58391,1597355214431
Fix,GT,37.4126762,-122.0782038,,15.571592,0.1,180.97668,1597355215431
Fix,GT,37.4125339,-122.0782056,,16.005081,0.1,180.79759,1597355216431
Fix,GT,37.4123893,-122.0782077,,15.989473,0.1,180.90051,1597355217431
Fix,GT,37.412248,-122.0782099,,15.331029,0.1,181.21582,1597355218431
Fix,GT,37.4121136,-122.0782136,,14.514344,0.1,181.81625,1597355219431
Fix,GT,37.4119856,-122.0782187,,13.944074,0.1,182.17998,1597355220431
Fix,GT,37.4118622,-122.0782236,,13.46386,0.1,181.93509,1597355221431
Fix,GT,37.4117429,-122.0782272,,13.014948,0.1,181.45026,1597355222431
Fix,GT,37.4116284,-122.07823,,12.372263,0.1,181.18654,1597355223431
Fix,GT,37.411521,-122.0782318,,11.479055,0.1,180.75282,1597355224431
Fix,GT,37.4114212,-122.0782327,,10.776009,0.1,180.78374,1597355225431
Fix,GT,37.4113269,-122.0782373,,10.194872,0.1,183.52267,1597355226431
Fix,GT,37.4112393,-122.0782511,,9.4218025,0.1,189.55553,1597355227431
Fix,GT,37.4111594,-122.0782784,,9.130857,0.1,198.20963,1597355228431
Fix,GT,37.4110838,-122.0783254,,9.594034,0.1,209.75212,1597355229431
Fix,GT,37.411015,-122.078396,,10.15987,0.1,223.70898,1597355230431
Fix,GT,37.4109605,-122.0784914,,10.6987,0.1,239.71414,1597355231431
Fix,GT,37.4109295,-122.0786086,,11.335442,0.1,258.09125,1597355232431
Fix,GT,37.4109315,-122.078739,,11.930999,0.1,278.35455,1597355233431
Fix,GT,37.4109704,-122.078867,,12.410298,0.1,297.8767,1597355234431
Fix,GT,37.4110398,-122.0789785,,12.680481,0.1,314.2793,1597355235431
Fix,GT,37.4111312,-122.0790637,,12.691746,0.1,329.52658,1597355236431
Fix,GT,37.411237,-122.0791157,,12.643133,0.1,344.6578,1597355237431
Fix,GT,37.4113493,-122.0791326,,12.592455,0.1,359.31796,1597355238431
Fix,GT,37.4114609,-122.0791117,,12.58671,0.1,15.061462,1597355239431
Fix,GT,37.4115629,-122.0790513,,12.58547,0.1,32.56247,1597355240431
Fix,GT,37.411645,-122.0789546,,12.61797,0.1,50.41559,1597355241431
Fix,GT,37.4117008,-122.0788308,,12.761402,0.1,67.591,1597355242431
Fix,GT,37.4117265,-122.0786897,,13.074608,0.1,84.1767,1597355243431
Fix,GT,37.4117201,-122.0785395,,13.789921,0.1,99.31848,1597355244431
Fix,GT,37.411684,-122.0783838,,14.945641,0.1,110.56845,1597355245431
Fix,GT,37.4116269,-122.078223,,16.128159,0.1,116.17148,1597355246431
Fix,GT,37.4115595,-122.0780544,,17.193708,0.1,117.13718,1597355247431
Fix,GT,37.4114867,-122.0778763,,18.166267,0.1,117.64728,1597355248431
Fix,GT,37.411409,-122.07769,,19.009789,0.1,118.05792,1597355249431
Fix,GT,37.4113272,-122.0774962,,19.74857,0.1,118.14032,1597355250431
Fix,GT,37.4112425,-122.0772956,,20.37873,0.1,118.06824,1597355251431
Fix,GT,37.4111563,-122.0770887,,20.948597,0.1,117.68884,1597355252431
Fix,GT,37.4110689,-122.0768758,,21.447956,0.1,117.42746,1597355253431
Fix,GT,37.4109798,-122.0766582,,21.822155,0.1,117.49835,1597355254431
Fix,GT,37.4108888,-122.0764378,,22.070549,0.1,117.71942,1597355255431
Fix,GT,37.4107968,-122.0762157,,22.20542,0.1,117.36304,1597355256431
Fix,GT,37.4107063,-122.0759917,,22.256134,0.1,116.80084,1597355257431
Fix,GT,37.4106172,-122.0757657,,22.385082,0.1,116.456055,1597355258431
Fix,GT,37.4105278,-122.0755375,,22.618103,0.1,116.32724,1597355259431
Fix,GT,37.4104371,-122.0753076,,22.753551,0.1,116.70438,1597355260431
Fix,GT,37.4103449,-122.0750778,,22.81379,0.1,117.11008,1597355261431
Fix,GT,37.4102505,-122.0748477,,23.049324,0.1,117.66672,1597355262431
Fix,GT,37.4101524,-122.0746155,,23.430393,0.1,118.50116,1597355263431
Fix,GT,37.4100503,-122.0743823,,23.614723,0.1,119.33844,1597355264431
Fix,GT,37.4099454,-122.0741491,,23.835117,0.1,119.68762,1597355265431
Fix,GT,37.4098392,-122.073913,,24.115377,0.1,119.41742,1597355266431
Fix,GT,37.4097334,-122.073675,,24.070341,0.1,119.25568,1597355267431
Fix,GT,37.4096282,-122.0734379,,23.969803,0.1,119.154816,1597355268431
Fix,GT,37.4095233,-122.0732014,,23.93423,0.1,119.2442,1597355269431
Fix,GT,37.4094184,-122.0729666,,23.659767,0.1,119.59689,1597355270431
Fix,GT,37.4093137,-122.0727364,,23.23058,0.1,120.03778,1597355271431
Fix,GT,37.40921,-122.0725108,,22.943216,0.1,120.114075,1597355272431
Fix,GT,37.4091073,-122.0722859,,22.992792,0.1,119.735535,1597355273431
Fix,GT,37.4090049,-122.0720589,,23.205074,0.1,119.73248,1597355274431
Fix,GT,37.4088999,-122.0718312,,23.33445,0.1,120.89447,1597355275431
Fix,GT,37.4087886,-122.0716074,,23.334259,0.1,123.44437,1597355276431
Fix,GT,37.4086684,-122.0713923,,23.1571,0.1,127.14545,1597355277431
Fix,GT,37.4085378,-122.0711914,,22.748585,0.1,131.63489,1597355278431
Fix,GT,37.4083978,-122.0710064,,22.45528,0.1,135.67557,1597355279431
Fix,GT,37.4082495,-122.0708351,,22.300247,0.1,139.57654,1597355280431
Fix,GT,37.4080925,-122.0706788,,22.24218,0.1,143.98871,1597355281431
Fix,GT,37.4079267,-122.0705386,,22.183735,0.1,148.474,1597355282431
Fix,GT,37.4077537,-122.070415,,21.964996,0.1,152.70288,1597355283431
Fix,GT,37.4075762,-122.0703093,,21.677147,0.1,156.9295,1597355284431
Fix,GT,37.4073946,-122.0702212,,21.57155,0.1,161.03967,1597355285431
Fix,GT,37.4072091,-122.0701494,,21.534693,0.1,165.04297,1597355286431
Fix,GT,37.40702,-122.0700948,,21.585087,0.1,169.41705,1597355287431
Fix,GT,37.4068268,-122.0700584,,21.801418,0.1,173.84052,1597355288431
Fix,GT,37.4066297,-122.0700382,,22.10162,0.1,177.01587,1597355289431
Fix,GT,37.4064289,-122.0700283,,22.524738,0.1,178.70038,1597355290431
Fix,GT,37.4062236,-122.0700234,,23.094353,0.1,179.5169,1597355291431
Fix,GT,37.4060124,-122.0700203,,23.825123,0.1,179.51605,1597355292431
Fix,GT,37.4057937,-122.0700164,,24.722946,0.1,179.29504,1597355293431
Fix,GT,37.405567,-122.0700117,,25.609077,0.1,179.22314,1597355294431
Fix,GT,37.4053326,-122.0700068,,26.412544,0.1,179.27563,1597355295431
Fix,GT,37.4050915,-122.070002,,27.07505,0.1,179.45276,1597355296431
Fix,GT,37.4048452,-122.069999,,27.582787,0.1,179.93585,1597355297431
Fix,GT,37.4045947,-122.0699994,,27.99242,0.1,180.49501,1597355298431
Fix,GT,37.4043412,-122.0700022,,28.274899,0.1,180.86044,1597355299431
Fix,GT,37.4040855,-122.0700063,,28.49703,0.1,180.95049,1597355300431
Fix,GT,37.4038281,-122.0700103,,28.64574,0.1,180.92363,1597355301431
Fix,GT,37.4035698,-122.0700137,,28.70918,0.1,180.74196,1597355302431
Fix,GT,37.4033116,-122.0700164,,28.610703,0.1,180.73836,1597355303431
Fix,GT,37.403055,-122.0700194,,28.346245,0.1,180.83778,1597355304431
Fix,GT,37.4028004,-122.0700222,,28.18063,0.1,180.59364,1597355305431
Fix,GT,37.4025462,-122.0700237,,28.265518,0.1,180.3761,1597355306431
Fix,GT,37.4022904,-122.0700244,,28.524094,0.1,180.37225,1597355307431
Fix,GT,37.4020318,-122.0700257,,28.865479,0.1,180.5167,1597355308431
Fix,GT,37.4017703,-122.0700278,,29.213001,0.1,180.57196,1597355309431
Fix,GT,37.4015052,-122.0700295,,29.615328,0.1,180.37607,1597355310431
Fix,GT,37.401237,-122.0700297,,29.863037,0.1,180.09956,1597355311431
Fix,GT,37.4009678,-122.0700281,,29.862122,0.1,179.44421,1597355312431
Fix,GT,37.4006995,-122.0700199,,29.733543,0.1,177.7655,1597355313431
Fix,GT,37.4004329,-122.0699994,,29.600033,0.1,175.49426,1597355314431
Fix,GT,37.4001682,-122.0699657,,29.484142,0.1,173.15344,1597355315431
Fix,GT,37.3999059,-122.0699189,,29.360931,0.1,170.88824,1597355316431
Fix,GT,37.3996463,-122.0698608,,29.213696,0.1,169.14062,1597355317431
Fix,GT,37.3993887,-122.0697953,,29.15038,0.1,168.23755,1597355318431
Fix,GT,37.399132,-122.0697267,,29.110394,0.1,168.06586,1597355319431
Fix,GT,37.398876,-122.0696582,,28.986961,0.1,168.20679,1597355320431
Fix,GT,37.3986211,-122.06959,,28.853725,0.1,168.125,1597355321431
Fix,GT,37.3983673,-122.0695216,,28.758915,0.1,168.0166,1597355322431
Fix,GT,37.3981144,-122.0694531,,28.701338,0.1,168.0293,1597355323431
Fix,GT,37.3978617,-122.0693846,,28.65929,0.1,168.00873,1597355324431
Fix,GT,37.39761,-122.0693163,,28.465794,0.1,168.03088,1597355325431
Fix,GT,37.3973608,-122.0692494,,28.079723,0.1,168.17114,1597355326431
Fix,GT,37.3971154,-122.0691838,,27.621145,0.1,168.1178,1597355327431
Fix,GT,37.3968744,-122.0691184,,27.08723,0.1,167.88062,1597355328431
Fix,GT,37.3966382,-122.0690532,,26.58593,0.1,167.73145,1597355329431
Fix,GT,37.3964058,-122.068989,,26.23426,0.1,167.82721,1597355330431
Fix,GT,37.3961761,-122.0689265,,25.919094,0.1,168.10065,1597355331431
Fix,GT,37.3959491,-122.0688659,,25.634369,0.1,168.30786,1597355332431
Fix,GT,37.3957233,-122.0688066,,25.637045,0.1,168.52692,1597355333431
Fix,GT,37.3954953,-122.0687498,,25.999472,0.1,169.47278,1597355334431
Fix,GT,37.3952616,-122.0686979,,26.672945,0.1,170.7605,1597355335431
Fix,GT,37.3950205,-122.068649,,27.537586,0.1,171.21667,1597355336431
Fix,GT,37.3947719,-122.0686001,,28.307281,0.1,171.51935,1597355337431
Fix,GT,37.3945163,-122.0685545,,28.938938,0.1,172.82538,1597355338431
Fix,GT,37.394255,-122.0685176,,29.436684,0.1,174.94434,1597355339431
Fix,GT,37.393989,-122.0684933,,29.730316,0.1,177.1095,1597355340431
Fix,GT,37.3937216,-122.0684806,,29.60082,0.1,178.83246,1597355341431
Fix,GT,37.3934563,-122.0684764,,29.2625,0.1,180.2005,1597355342431
Fix,GT,37.3931932,-122.0684796,,29.148464,0.1,181.46298,1597355343431
Fix,GT,37.3929308,-122.0684904,,29.118887,0.1,182.76675,1597355344431
Fix,GT,37.3926691,-122.0685084,,29.075945,0.1,183.96283,1597355345431
Fix,GT,37.3924075,-122.0685323,,29.155277,0.1,184.74013,1597355346431
Fix,GT,37.392145,-122.0685587,,29.265244,0.1,184.85063,1597355347431
Fix,GT,37.3918818,-122.0685843,,29.337114,0.1,184.52786,1597355348431
Fix,GT,37.3916181,-122.0686088,,29.312622,0.1,184.3976,1597355349431
Fix,GT,37.3913556,-122.068633,,29.084015,0.1,184.48723,1597355350431
Fix,GT,37.3910964,-122.0686577,,28.568768,0.1,184.67249,1597355351431
Fix,GT,37.3908429,-122.0686831,,27.882837,0.1,184.91516,1597355352431
Fix,GT,37.3905955,-122.0687089,,27.251987,0.1,184.9819,1597355353431
Fix,GT,37.3903529,-122.0687335,,26.805147,0.1,184.64062,1597355354431
Fix,GT,37.3901131,-122.0687557,,26.597672,0.1,184.22229,1597355355431
Fix,GT,37.3898748,-122.0687763,,26.433582,0.1,184.1345,1597355356431
Fix,GT,37.3896379,-122.0687971,,26.272478,0.1,184.26576,1597355357431
Fix,GT,37.3894023,-122.0688179,,26.176277,0.1,184.19711,1597355358431
Fix,GT,37.3891671,-122.0688381,,26.132872,0.1,184.05472,1597355359431
Fix,GT,37.3889323,-122.0688563,,26.117004,0.1,183.2604,1597355360431
Fix,GT,37.3886973,-122.0688678,,26.130283,0.1,181.41193,1597355361431
Fix,GT,37.3884614,-122.0688699,,26.35521,0.1,179.64441,1597355362431
Fix,GT,37.3882223,-122.0688636,,26.758102,0.1,178.24646,1597355363431
Fix,GT,37.3879801,-122.0688496,,27.049187,0.1,176.66394,1597355364431
Fix,GT,37.3877355,-122.0688269,,27.426603,0.1,175.17285,1597355365431
Fix,GT,37.3874875,-122.0687979,,27.833569,0.1,174.6803,1597355366431
Fix,GT,37.3872372,-122.0687687,,27.910542,0.1,175.02649,1597355367431
Fix,GT,37.3869872,-122.068741,,27.736065,0.1,175.19055,1597355368431
Fix,GT,37.3867391,-122.0687142,,27.518965,0.1,175.22516,1597355369431
Fix,GT,37.3864929,-122.0686872,,27.34606,0.1,175.13953,1597355370431
Fix,GT,37.3862484,-122.0686595,,27.09502,0.1,175.0492,1597355371431
Fix,GT,37.3860061,-122.0686321,,26.97374,0.1,175.06079,1597355372431
Fix,GT,37.3857634,-122.0686043,,27.146023,0.1,174.94873,1597355373431
Fix,GT,37.3855189,-122.0685762,,27.324413,0.1,175.03174,1597355374431
Fix,GT,37.3852735,-122.0685491,,27.295189,0.1,175.28632,1597355375431
Fix,GT,37.3850296,-122.0685233,,27.003826,0.1,175.47498,1597355376431
Fix,GT,37.3847892,-122.0684982,,26.5611,0.1,175.45819,1597355377431
Fix,GT,37.3845522,-122.068473,,26.30742,0.1,175.21191,1597355378431
Fix,GT,37.3843158,-122.0684462,,26.426601,0.1,174.80664,1597355379431
Fix,GT,37.3840776,-122.0684171,,26.661964,0.1,174.51038,1597355380431
Fix,GT,37.3838379,-122.0683874,,26.80376,0.1,174.67432,1597355381431
Fix,GT,37.3835963,-122.0683584,,27.077808,0.1,174.77509,1597355382431
Fix,GT,37.383352,-122.0683296,,27.314163,0.1,174.90411,1597355383431
Fix,GT,37.3831072,-122.068302,,27.21557,0.1,175.25287,1597355384431
Fix,GT,37.3828633,-122.068276,,27.161419,0.1,175.43774,1597355385431
Fix,GT,37.3826188,-122.0682502,,27.368519,0.1,175.40204,1597355386431
Fix,GT,37.3823715,-122.0682236,,27.765532,0.1,175.26038,1597355387431
Fix,GT,37.3821207,-122.0681964,,28.107073,0.1,175.28308,1597355388431
Fix,GT,37.3818673,-122.0681694,,28.325802,0.1,175.39716,1597355389431
Fix,GT,37.3816121,-122.0681424,,28.523716,0.1,175.30396,1597355390431
Fix,GT,37.3813549,-122.0681145,,28.760353,0.1,175.27112,1597355391431
Fix,GT,37.3810957,-122.0680865,,28.962763,0.1,175.31775,1597355392431
Fix,GT,37.3808353,-122.0680586,,29.016062,0.1,175.32837,1597355393431
Fix,GT,37.3805753,-122.0680305,,28.90402,0.1,175.24371,1597355394431
Fix,GT,37.3803168,-122.068002,,28.66986,0.1,175.14246,1597355395431
Fix,GT,37.3800608,-122.0679736,,28.373323,0.1,175.1662,1597355396431
Fix,GT,37.3798074,-122.0679459,,28.091537,0.1,175.29663,1597355397431
Fix,GT,37.3795559,-122.0679191,,27.949091,0.1,175.3783,1597355398431
Fix,GT,37.3793048,-122.0678921,,28.008465,0.1,175.2268,1597355399431
Fix,GT,37.3790528,-122.0678642,,28.142502,0.1,175.11627,1597355400431
Fix,GT,37.3787997,-122.0678361,,28.215763,0.1,175.25024,1597355401431
Fix,GT,37.3785462,-122.0678095,,28.231915,0.1,175.61353,1597355402431
Fix,GT,37.3782924,-122.0677858,,28.233662,0.1,176.37378,1597355403431
Fix,GT,37.3780386,-122.0677676,,28.160374,0.1,177.71283,1597355404431
Fix,GT,37.3777852,-122.0677582,,28.120253,0.1,179.47107,1597355405431
Fix,GT,37.3775319,-122.0677591,,28.07487,0.1,181.4302,1597355406431
Fix,GT,37.3772794,-122.067771,,27.999058,0.1,183.38391,1597355407431
Fix,GT,37.3770278,-122.067793,,27.952297,0.1,185.01845,1597355408431
Fix,GT,37.3767772,-122.0678225,,27.901413,0.1,186.11932,1597355409431
Fix,GT,37.3765275,-122.0678561,,27.818787,0.1,186.5252,1597355410431
Fix,GT,37.3762788,-122.0678902,,27.742996,0.1,186.37636,1597355411431
Fix,GT,37.3760301,-122.0679226,,27.762005,0.1,185.96104,1597355412431
Fix,GT,37.3757817,-122.0679534,,27.606354,0.1,185.78596,1597355413431
Fix,GT,37.3755359,-122.0679823,,27.181057,0.1,185.22728,1597355414431
Fix,GT,37.3752939,-122.0680057,,26.741526,0.1,183.77487,1597355415431
Fix,GT,37.3750544,-122.0680199,,26.555016,0.1,181.67885,1597355416431
Fix,GT,37.3748153,-122.0680213,,26.590462,0.1,179.09552,1597355417431
Fix,GT,37.3745762,-122.0680096,,26.574097,0.1,176.67072,1597355418431
Fix,GT,37.3743377,-122.0679862,,26.555729,0.1,174.54639,1597355419431
Fix,GT,37.3741,-122.0679512,,26.6373,0.1,172.22644,1597355420431
Fix,GT,37.3738628,-122.0679031,,26.7543,0.1,169.56104,1597355421431
Fix,GT,37.3736274,-122.0678407,,26.676765,0.1,166.82263,1597355422431
Fix,GT,37.3733961,-122.0677653,,26.388771,0.1,164.29547,1597355423431
Fix,GT,37.3731701,-122.0676788,,26.137459,0.1,161.99689,1597355424431
Fix,GT,37.3729482,-122.0675818,,26.178104,0.1,159.77344,1597355425431
Fix,GT,37.3727278,-122.067473,,26.499378,0.1,157.39087,1597355426431
Fix,GT,37.372508,-122.0673511,,26.894049,0.1,155.24219,1597355427431
Fix,GT,37.3722878,-122.0672188,,27.340519,0.1,153.96661,1597355428431
Fix,GT,37.3720653,-122.0670804,,27.820637,0.1,153.73987,1597355429431
Fix,GT,37.3718388,-122.0669406,,28.215927,0.1,154.2218,1597355430431
Fix,GT,37.3716086,-122.0668011,,28.499851,0.1,154.49951,1597355431431
Fix,GT,37.3713762,-122.066661,,28.758205,0.1,154.53674,1597355432431
Fix,GT,37.3711419,-122.0665197,,28.964104,0.1,154.5149,1597355433431
Fix,GT,37.3709064,-122.0663776,,29.039505,0.1,154.52625,1597355434431
Fix,GT,37.3706712,-122.0662358,,28.891975,0.1,154.55597,1597355435431
Fix,GT,37.3704379,-122.066095,,28.601261,0.1,154.47192,1597355436431
Fix,GT,37.3702072,-122.065955,,28.332584,0.1,154.2475,1597355437431
Fix,GT,37.3699786,-122.0658153,,28.084797,0.1,154.11542,1597355438431
Fix,GT,37.3697522,-122.0656766,,27.819899,0.1,154.25586,1597355439431
Fix,GT,37.3695279,-122.06554,,27.520536,0.1,154.27997,1597355440431
Fix,GT,37.369306,-122.065405,,27.224617,0.1,154.30743,1597355441431
Fix,GT,37.3690858,-122.0652714,,27.101929,0.1,154.42169,1597355442431
Fix,GT,37.3688655,-122.0651383,,27.197678,0.1,154.43451,1597355443431
Fix,GT,37.3686444,-122.0650043,,27.250334,0.1,154.39746,1597355444431
Fix,GT,37.3684236,-122.0648709,,27.095991,0.1,154.4895,1597355445431
Fix,GT,37.3682044,-122.0647387,,26.942562,0.1,154.4961,1597355446431
Fix,GT,37.3679854,-122.0646065,,27.058804,0.1,154.47278,1597355447431
Fix,GT,37.3677648,-122.0644732,,27.327597,0.1,154.44739,1597355448431
Fix,GT,37.367542,-122.0643379,,27.639526,0.1,154.2815,1597355449431
Fix,GT,37.367317,-122.0642009,,27.888187,0.1,154.31982,1597355450431
Fix,GT,37.3670901,-122.064064,,27.978832,0.1,154.6568,1597355451431
Fix,GT,37.3668621,-122.0639282,,28.070765,0.1,154.90558,1597355452431
Fix,GT,37.3666328,-122.063794,,28.0862,0.1,155.56415,1597355453431
Fix,GT,37.3664019,-122.0636652,,28.00618,0.1,157.16547,1597355454431
Fix,GT,37.3661681,-122.0635462,,28.061573,0.1,159.25055,1597355455431
Fix,GT,37.3659299,-122.063438,,28.182976,0.1,161.58453,1597355456431
Fix,GT,37.3656874,-122.0633415,,28.267101,0.1,163.8601,1597355457431
Fix,GT,37.3654415,-122.0632567,,28.301786,0.1,166.00446,1597355458431
Fix,GT,37.3651937,-122.0631842,,28.167675,0.1,168.28015,1597355459431
Fix,GT,37.3649459,-122.0631244,,27.872444,0.1,170.35779,1597355460431
Fix,GT,37.3646986,-122.0630755,,27.707306,0.1,172.302,1597355461431
Fix,GT,37.3644507,-122.0630376,,27.714582,0.1,174.31299,1597355462431
Fix,GT,37.3642018,-122.0630113,,27.735,0.1,176.63306,1597355463431
Fix,GT,37.3639521,-122.0629976,,27.753263,0.1,178.78912,1597355464431
Fix,GT,37.3637017,-122.0629931,,27.850824,0.1,180.06488,1597355465431
Fix,GT,37.3634498,-122.0629939,,28.043518,0.1,180.70802,1597355466431
Fix,GT,37.3631961,-122.0629977,,28.258701,0.1,181.08458,1597355467431
Fix,GT,37.3629406,-122.0630031,,28.453259,0.1,181.14928,1597355468431
Fix,GT,37.3626835,-122.0630083,,28.608368,0.1,181.12393,1597355469431
Fix,GT,37.3624253,-122.0630133,,28.688356,0.1,181.1052,1597355470431
Fix,GT,37.3621669,-122.0630184,,28.66148,0.1,181.16556,1597355471431
Fix,GT,37.3619088,-122.0630241,,28.66065,0.1,181.27211,1597355472431
Fix,GT,37.3616502,-122.06303,,28.763443,0.1,181.23781,1597355473431
Fix,GT,37.3613906,-122.0630356,,28.876148,0.1,181.17702,1597355474431
Fix,GT,37.3611301,-122.0630412,,28.938389,0.1,181.2254,1597355475431
Fix,GT,37.3608693,-122.063047,,28.979704,0.1,181.22649,1597355476431
Fix,GT,37.3606078,-122.0630527,,29.098698,0.1,181.19046,1597355477431
Fix,GT,37.3603448,-122.0630585,,29.281683,0.1,181.27238,1597355478431
Fix,GT,37.3600801,-122.063065,,29.466202,0.1,181.28557,1597355479431
Fix,GT,37.3598139,-122.0630703,,29.611412,0.1,180.84213,1597355480431
Fix,GT,37.3595473,-122.063072,,29.577717,0.1,179.95607,1597355481431
Fix,GT,37.3592811,-122.0630674,,29.532223,0.1,178.74963,1597355482431
Fix,GT,37.3590147,-122.0630556,,29.63366,0.1,177.55133,1597355483431
Fix,GT,37.3587478,-122.0630373,,29.700523,0.1,176.44458,1597355484431
Fix,GT,37.3584811,-122.0630122,,29.687761,0.1,175.2467,1597355485431
Fix,GT,37.3582147,-122.0629793,,29.7744,0.1,173.86816,1597355486431
Fix,GT,37.3579477,-122.0629389,,29.927475,0.1,172.69995,1597355487431
Fix,GT,37.3576803,-122.062892,,29.99292,0.1,171.61688,1597355488431
Fix,GT,37.3574134,-122.0628384,,30.012379,0.1,170.4624,1597355489431
Fix,GT,37.3571474,-122.0627784,,29.981041,0.1,169.4477,1597355490431
Fix,GT,37.3568829,-122.0627129,,29.916138,0.1,168.48718,1597355491431
Fix,GT,37.3566197,-122.0626418,,29.861317,0.1,167.38812,1597355492431
Fix,GT,37.356358,-122.062564,,29.833553,0.1,166.2392,1597355493431
Fix,GT,37.3560979,-122.0624802,,29.762575,0.1,165.2201,1597355494431
Fix,GT,37.3558406,-122.0623911,,29.49615,0.1,164.20715,1597355495431
Fix,GT,37.3555878,-122.0622972,,29.021324,0.1,163.05188,1597355496431
Fix,GT,37.3553409,-122.0621985,,28.531937,0.1,161.88165,1597355497431
Fix,GT,37.3550996,-122.0620956,,28.077293,0.1,160.8573,1597355498431
Fix,GT,37.3548634,-122.061989,,27.680414,0.1,159.8302,1597355499431
Fix,GT,37.3546314,-122.0618783,,27.440449,0.1,158.79248,1597355500431
Fix,GT,37.3544023,-122.0617637,,27.33757,0.1,158.13666,1597355501431
Fix,GT,37.3541742,-122.0616478,,27.309723,0.1,158.17969,1597355502431
Fix,GT,37.3539456,-122.0615326,,27.424091,0.1,158.3244,1597355503431
Fix,GT,37.3537155,-122.0614169,,27.609705,0.1,158.3075,1597355504431
Fix,GT,37.3534844,-122.0613006,,27.671688,0.1,158.37067,1597355505431
Fix,GT,37.3532529,-122.0611846,,27.681993,0.1,158.56311,1597355506431
Fix,GT,37.3530207,-122.0610708,,27.632793,0.1,159.28333,1597355507431
Fix,GT,37.3527878,-122.0609627,,27.521484,0.1,160.53845,1597355508431
Fix,GT,37.3525539,-122.0608613,,27.428165,0.1,161.70636,1597355509431
Fix,GT,37.3523191,-122.0607656,,27.397205,0.1,162.68903,1597355510431
Fix,GT,37.352083,-122.0606751,,27.391476,0.1,163.75586,1597355511431
Fix,GT,37.3518457,-122.0605905,,27.384262,0.1,164.95227,1597355512431
Fix,GT,37.3516068,-122.0605117,,27.441734,0.1,165.97644,1597355513431
Fix,GT,37.3513661,-122.0604375,,27.6151,0.1,166.87537,1597355514431
Fix,GT,37.3511225,-122.0603682,,27.84325,0.1,168.00433,1597355515431
Fix,GT,37.3508756,-122.0603048,,28.094147,0.1,169.2691,1597355516431
Fix,GT,37.3506255,-122.0602473,,28.336319,0.1,170.39807,1597355517431
Fix,GT,37.3503729,-122.0601954,,28.47201,0.1,171.4707,1597355518431
Fix,GT,37.3501187,-122.0601496,,28.514044,0.1,172.58105,1597355519431
Fix,GT,37.3498638,-122.06011,,28.457653,0.1,173.7251,1597355520431
Fix,GT,37.349609,-122.060076,,28.4074,0.1,174.61536,1597355521431
Fix,GT,37.3493537,-122.0600471,,28.51299,0.1,175.53778,1597355522431
Fix,GT,37.3490965,-122.0600236,,28.697872,0.1,176.6023,1597355523431
Fix,GT,37.3488375,-122.0600059,,28.861805,0.1,177.59967,1597355524431
Fix,GT,37.3485771,-122.0599934,,28.982635,0.1,178.47253,1597355525431
Fix,GT,37.3483156,-122.0599859,,29.060951,0.1,179.39099,1597355526431
Fix,GT,37.3480536,-122.0599834,,29.075497,0.1,180.16107,1597355527431
Fix,GT,37.3477917,-122.0599837,,29.034851,0.1,180.31888,1597355528431
Fix,GT,37.3475305,-122.059984,,28.970455,0.1,180.18317,1597355529431
Fix,GT,37.3472698,-122.0599835,,28.874659,0.1,180.1827,1597355530431
Fix,GT,37.3470103,-122.0599834,,28.705242,0.1,180.3038,1597355531431
Fix,GT,37.3467525,-122.0599842,,28.50758,0.1,180.3482,1597355532431
Fix,GT,37.3464966,-122.0599847,,28.304224,0.1,180.23666,1597355533431
Fix,GT,37.3462425,-122.0599845,,28.085155,0.1,180.16154,1597355534431
Fix,GT,37.3459903,-122.0599841,,27.884014,0.1,180.1642,1597355535431
Fix,GT,37.3457397,-122.0599835,,27.778307,0.1,180.06735,1597355536431
Fix,GT,37.3454893,-122.0599824,,27.83025,0.1,179.9559,1597355537431
Fix,GT,37.3452379,-122.0599806,,27.982977,0.1,179.89752,1597355538431
Fix,GT,37.3449848,-122.0599787,,28.209826,0.1,179.8274,1597355539431
Fix,GT,37.3447292,-122.0599761,,28.535236,0.1,179.72333,1597355540431
Fix,GT,37.3444705,-122.0599731,,28.891792,0.1,179.7063,1597355541431
Fix,GT,37.3442085,-122.05997,,29.258799,0.1,179.60913,1597355542431
Fix,GT,37.3439435,-122.0599659,,29.603401,0.1,179.44739,1597355543431
Fix,GT,37.343675,-122.0599612,,30.002722,0.1,179.42017,1597355544431
Fix,GT,37.3434025,-122.0599565,,30.505474,0.1,179.38055,1597355545431
Fix,GT,37.3431253,-122.0599509,,31.035973,0.1,179.229,1597355546431
Fix,GT,37.3428438,-122.059945,,31.431274,0.1,179.3678,1597355547431
Fix,GT,37.3425597,-122.059941,,31.569084,0.1,179.88647,1597355548431
Fix,GT,37.3422759,-122.05994,,31.38438,0.1,180.24072,1597355549431
Fix,GT,37.3419944,-122.0599404,,31.087841,0.1,180.24442,1597355550431
Fix,GT,37.3417156,-122.0599404,,30.826157,0.1,180.16469,1597355551431
Fix,GT,37.3414387,-122.0599398,,30.669912,0.1,180.09077,1597355552431
Fix,GT,37.3411626,-122.059939,,30.607794,0.1,180.0782,1597355553431
Fix,GT,37.3408871,-122.0599382,,30.567879,0.1,180.11331,1597355554431
Fix,GT,37.3406118,-122.0599378,,30.555836,0.1,180.18318,1597355555431
Fix,GT,37.3403365,-122.0599378,,30.532219,0.1,180.2835,1597355556431
Fix,GT,37.3400618,-122.0599387,,30.39936,0.1,180.4178,1597355557431
Fix,GT,37.3397897,-122.0599399,,29.891003,0.1,180.37381,1597355558431
Fix,GT,37.339525,-122.0599398,,28.764874,0.1,180.02182,1597355559431
Fix,GT,37.3392729,-122.0599371,,27.14705,0.1,179.39056,1597355560431
Fix,GT,37.3390353,-122.0599314,,25.68808,0.1,178.73047,1597355561431
Fix,GT,37.3388086,-122.0599225,,24.757318,0.1,178.0072,1597355562431
Fix,GT,37.3385889,-122.0599099,,24.086292,0.1,177.08655,1597355563431
Fix,GT,37.3383745,-122.0598937,,23.638237,0.1,176.40063,1597355564431
Fix,GT,37.338163,-122.059875,,23.496214,0.1,175.79889,1597355565431
Fix,GT,37.3379504,-122.059852,,24.02166,0.1,174.4552,1597355566431
Fix,GT,37.3377313,-122.0598184,,25.235245,0.1,172.05664,1597355567431
Fix,GT,37.3375006,-122.0597709,,26.846619,0.1,169.83289,1597355568431
Fix,GT,37.3372557,-122.0597103,,28.574154,0.1,168.34998,1597355569431
Fix,GT,37.3369975,-122.0596414,,29.984657,0.1,167.9997,1597355570431
Fix,GT,37.3367283,-122.0595686,,31.111298,0.1,168.031,1597355571431
Fix,GT,37.336451,-122.0594933,,31.780941,0.1,167.93835,1597355572431
Fix,GT,37.3361703,-122.0594165,,31.885002,0.1,167.88934,1597355573431
Fix,GT,37.3358908,-122.0593411,,31.547401,0.1,168.35266,1597355574431
Fix,GT,37.3356145,-122.0592707,,30.98168,0.1,169.29437,1597355575431
Fix,GT,37.3353431,-122.0592073,,30.236322,0.1,170.14233,1597355576431
Fix,GT,37.3350791,-122.0591512,,29.125463,0.1,171.0476,1597355577431
Fix,GT,37.334826,-122.0591021,,27.630293,0.1,171.73224,1597355578431
Fix,GT,37.3345874,-122.0590578,,25.791111,0.1,171.60773,1597355579431
Fix,GT,37.3343684,-122.0590144,,23.35233,0.1,170.6529,1597355580431
Fix,GT,37.3341733,-122.0589724,,20.622288,0.1,170.3601,1597355581431
Fix,GT,37.3339993,-122.0589385,,18.599792,0.1,172.7091,1597355582431
Fix,GT,37.3338365,-122.0589229,,17.822823,0.1,178.7738,1597355583431
Fix,GT,37.3336773,-122.0589356,,17.672958,0.1,188.09268,1597355584431
Fix,GT,37.3335236,-122.0589832,,17.585323,0.1,199.111,1597355585431
Fix,GT,37.333381,-122.059068,,17.64468,0.1,210.96901,1597355586431
Fix,GT,37.3332549,-122.059189,,17.827238,0.1,223.04199,1597355587431
Fix,GT,37.3331484,-122.0593418,,18.208765,0.1,233.96121,1597355588431
Fix,GT,37.3330629,-122.0595203,,18.752007,0.1,243.65346,1597355589431
Fix,GT,37.3329989,-122.0597192,,19.319035,0.1,251.80948,1597355590431
Fix,GT,37.3329524,-122.0599347,,20.216042,0.1,257.73004,1597355591431
Fix,GT,37.3329211,-122.0601662,,21.322044,0.1,263.56833,1597355592431
Fix,GT,37.3329087,-122.0604134,,22.55631,0.1,269.51062,1597355593431
Fix,GT,37.3329168,-122.0606754,,23.89341,0.1,275.43903,1597355594431
Fix,GT,37.3329485,-122.0609488,,25.038845,0.1,281.5585,1597355595431
Fix,GT,37.3330045,-122.0612282,,25.985497,0.1,286.9219,1597355596431
Fix,GT,37.33308,-122.0615115,,26.914371,0.1,290.10184,1597355597431
Fix,GT,37.3331665,-122.0617989,,27.40612,0.1,291.54413,1597355598431
Fix,GT,37.3332572,-122.0620854,,27.122074,0.1,292.2264,1597355599431
Fix,GT,37.3333485,-122.0623658,,26.566559,0.1,292.4624,1597355600431
Fix,GT,37.3334367,-122.0626411,,26.076874,0.1,291.7467,1597355601431
Fix,GT,37.3335205,-122.0629147,,25.974873,0.1,290.74063,1597355602431
Fix,GT,37.3336032,-122.0631912,,26.445858,0.1,290.95444,1597355603431
Fix,GT,37.3336912,-122.0634738,,27.289768,0.1,292.0656,1597355604431
Fix,GT,37.3337868,-122.0637638,,28.333748,0.1,293.05722,1597355605431
Fix,GT,37.3338881,-122.0640635,,29.337746,0.1,293.00653,1597355606431
Fix,GT,37.3339904,-122.0643738,,30.113367,0.1,291.8827,1597355607431
Fix,GT,37.3340878,-122.064694,,30.621342,0.1,289.97217,1597355608431
Fix,GT,37.3341774,-122.0650231,,31.048698,0.1,287.88605,1597355609431
Fix,GT,37.3342581,-122.0653604,,31.397284,0.1,285.5719,1597355610431
Fix,GT,37.3343285,-122.0657046,,31.605534,0.1,283.263,1597355611431
Fix,GT,37.3343884,-122.0660539,,31.754438,0.1,281.0517,1597355612431
Fix,GT,37.3344378,-122.0664069,,31.761936,0.1,278.98245,1597355613431
Fix,GT,37.3344771,-122.0667604,,31.485435,0.1,277.03592,1597355614431
Fix,GT,37.334506,-122.0671108,,30.9374,0.1,274.89716,1597355615431
Fix,GT,37.3345243,-122.0674554,,30.299988,0.1,272.86356,1597355616431
Fix,GT,37.334533,-122.0677937,,29.768425,0.1,270.98972,1597355617431
Fix,GT,37.3345328,-122.0681274,,29.423992,0.1,269.1216,1597355618431
Fix,GT,37.334524,-122.0684581,,29.250526,0.1,267.20572,1597355619431
Fix,GT,37.3345057,-122.0687871,,29.27414,0.1,265.12103,1597355620431
Fix,GT,37.3344777,-122.0691166,,29.5365,0.1,263.00662,1597355621431
Fix,GT,37.3344396,-122.0694485,,29.968338,0.1,260.79663,1597355622431
Fix,GT,37.3343909,-122.0697832,,30.288437,0.1,258.9026,1597355623431
Fix,GT,37.3343347,-122.0701177,,30.264618,0.1,257.69684,1597355624431
Fix,GT,37.3342748,-122.0704492,,29.99382,0.1,257.16064,1597355625431
Fix,GT,37.3342137,-122.0707777,,29.809742,0.1,256.99088,1597355626431
Fix,GT,37.3341521,-122.071105,,29.788166,0.1,256.8654,1597355627431
Fix,GT,37.3340896,-122.0714317,,29.759838,0.1,256.61957,1597355628431
Fix,GT,37.334027,-122.0717582,,29.754335,0.1,256.76306,1597355629431
Fix,GT,37.3339656,-122.0720853,,29.813889,0.1,257.2296,1597355630431
Fix,GT,37.3339054,-122.0724135,,29.870785,0.1,257.25546,1597355631431
Fix,GT,37.3338449,-122.0727422,,29.88536,0.1,257.19568,1597355632431
Fix,GT,37.333786,-122.0730709,,29.79898,0.1,258.11185,1597355633431
Fix,GT,37.3337344,-122.0734001,,29.680603,0.1,260.36505,1597355634431
Fix,GT,37.3336931,-122.0737309,,29.669685,0.1,262.33322,1597355635431
Fix,GT,37.3336603,-122.0740636,,29.759237,0.1,264.26636,1597355636431
Fix,GT,37.3336379,-122.074399,,29.909618,0.1,266.91055,1597355637431
Fix,GT,37.3336284,-122.0747372,,30.099222,0.1,269.5042,1597355638431
Fix,GT,37.3336298,-122.0750781,,30.313522,0.1,271.5965,1597355639431
Fix,GT,37.3336406,-122.0754212,,30.544048,0.1,273.63098,1597355640431
Fix,GT,37.3336624,-122.0757661,,30.762272,0.1,276.03082,1597355641431
Fix,GT,37.3336956,-122.0761118,,30.967117,0.1,278.35556,1597355642431
Fix,GT,37.3337404,-122.0764577,,31.157692,0.1,280.77606,1597355643431
Fix,GT,37.3337984,-122.0768027,,31.354881,0.1,283.80307,1597355644431
Fix,GT,37.3338717,-122.0771456,,31.581055,0.1,286.72018,1597355645431
Fix,GT,37.3339576,-122.0774866,,31.813053,0.1,288.8634,1597355646431
Fix,GT,37.3340541,-122.0778258,,32.075584,0.1,291.19223,1597355647431
Fix,GT,37.3341633,-122.0781625,,32.365074,0.1,293.88724,1597355648431
Fix,GT,37.3342869,-122.0784948,,32.649063,0.1,296.7324,1597355649431
Fix,GT,37.334424,-122.0788226,,32.908615,0.1,299.17792,1597355650431
Fix,GT,37.334573,-122.0791443,,32.972355,0.1,301.83514,1597355651431
Fix,GT,37.3347337,-122.0794564,,32.882214,0.1,304.57474,1597355652431
Fix,GT,37.3349059,-122.079759,,33.00228,0.1,307.0567,1597355653431
Fix,GT,37.3350898,-122.0800538,,33.29319,0.1,309.61838,1597355654431
Fix,GT,37.3352856,-122.0803406,,33.605827,0.1,312.05298,1597355655431
Fix,GT,37.3354917,-122.0806211,,33.97947,0.1,313.75818,1597355656431
Fix,GT,37.3357053,-122.080899,,34.37004,0.1,314.4746,1597355657431
Fix,GT,37.3359227,-122.081178,,34.73305,0.1,314.5341,1597355658431
Fix,GT,37.336142,-122.0814605,,35.096363,0.1,314.28015,1597355659431
Fix,GT,37.3363622,-122.0817467,,35.35106,0.1,314.0836,1597355660431
Fix,GT,37.3365827,-122.0820356,,35.461494,0.1,313.71204,1597355661431
Fix,GT,37.3368017,-122.0823273,,35.515213,0.1,313.0825,1597355662431
Fix,GT,37.3370185,-122.0826221,,35.50355,0.1,312.32773,1597355663431
Fix,GT,37.3372303,-122.082921,,35.30726,0.1,310.89948,1597355664431
Fix,GT,37.3374334,-122.0832253,,35.004753,0.1,308.9936,1597355665431
Fix,GT,37.3376277,-122.0835346,,34.794636,0.1,307.671,1597355666431
Fix,GT,37.337816,-122.0838474,,34.618862,0.1,306.40958,1597355667431
Fix,GT,37.3379972,-122.0841631,,34.30814,0.1,305.4085,1597355668431
Fix,GT,37.3381737,-122.0844787,,34.032845,0.1,305.2319,1597355669431
Fix,GT,37.3383494,-122.0847935,,34.104256,0.1,305.00674,1597355670431
Fix,GT,37.338525,-122.0851115,,34.442226,0.1,304.8415,1597355671431
Fix,GT,37.338702,-122.085433,,34.764973,0.1,304.81088,1597355672431
Fix,GT,37.3388804,-122.085757,,34.960888,0.1,304.84506,1597355673431
Fix,GT,37.3390599,-122.0860819,,35.061806,0.1,304.94675,1597355674431
Fix,GT,37.3392403,-122.0864073,,35.13569,0.1,305.1123,1597355675431
Fix,GT,37.3394214,-122.0867324,,35.08072,0.1,305.16992,1597355676431
Fix,GT,37.3396016,-122.0870564,,34.859264,0.1,305.0001,1597355677431
Fix,GT,37.3397794,-122.0873795,,34.662544,0.1,304.58118,1597355678431
Fix,GT,37.3399546,-122.0877033,,34.711998,0.1,303.97842,1597355679431
Fix,GT,37.3401281,-122.0880317,,35.115707,0.1,303.281,1597355680431
Fix,GT,37.3403002,-122.0883672,,35.550682,0.1,302.5174,1597355681431
Fix,GT,37.3404704,-122.0887088,,35.826256,0.1,301.76904,1597355682431
Fix,GT,37.3406386,-122.0890553,,36.02412,0.1,301.17545,1597355683431
Fix,GT,37.3408049,-122.0894057,,36.247414,0.1,300.63303,1597355684431
Fix,GT,37.3409707,-122.0897594,,36.448864,0.1,300.67047,1597355685431
Fix,GT,37.3411384,-122.0901141,,36.588867,0.1,301.1988,1597355686431
Fix,GT,37.3413102,-122.0904668,,36.641716,0.1,302.18066,1597355687431
Fix,GT,37.341489,-122.0908145,,36.628708,0.1,304.1209,1597355688431
Fix,GT,37.3416774,-122.0911541,,36.62779,0.1,306.22195,1597355689431
Fix,GT,37.3418761,-122.0914834,,36.491608,0.1,308.7637,1597355690431
Fix,GT,37.3420858,-122.0917989,,36.25942,0.1,311.55212,1597355691431
Fix,GT,37.3423056,-122.0920996,,35.952644,0.1,314.10208,1597355692431
Fix,GT,37.3425327,-122.0923859,,35.53055,0.1,316.19275,1597355693431
Fix,GT,37.342764,-122.0926599,,35.17651,0.1,317.527,1597355694431
Fix,GT,37.3429973,-122.0929275,,35.06739,0.1,317.76828,1597355695431
Fix,GT,37.3432303,-122.0931947,,35.027878,0.1,317.61926,1597355696431
Fix,GT,37.3434624,-122.0934618,,34.918194,0.1,317.7253,1597355697431
Fix,GT,37.3436942,-122.0937267,,34.71203,0.1,317.89117,1597355698431
Fix,GT,37.3439239,-122.0939896,,34.326176,0.1,317.48108,1597355699431
Fix,GT,37.3441472,-122.0942534,,33.818687,0.1,316.08405,1597355700431
Fix,GT,37.3443614,-122.0945216,,33.490612,0.1,314.09723,1597355701431
Fix,GT,37.3445668,-122.0947977,,33.43473,0.1,311.7572,1597355702431
Fix,GT,37.3447624,-122.0950845,,33.454453,0.1,309.24893,1597355703431
Fix,GT,37.344948,-122.0953817,,33.432144,0.1,306.92563,1597355704431
Fix,GT,37.3451231,-122.0956875,,33.270325,0.1,304.3896,1597355705431
Fix,GT,37.3452869,-122.0960004,,33.077026,0.1,302.11725,1597355706431
Fix,GT,37.3454405,-122.0963193,,33.01033,0.1,300.16586,1597355707431
Fix,GT,37.3455853,-122.0966445,,33.026566,0.1,298.44812,1597355708431
Fix,GT,37.3457251,-122.096974,,33.103146,0.1,297.8378,1597355709431
Fix,GT,37.3458647,-122.0973048,,33.174805,0.1,298.09778,1597355710431
Fix,GT,37.3460046,-122.0976359,,33.22107,0.1,298.05176,1597355711431
Fix,GT,37.3461438,-122.0979687,,33.4,0.1,297.6103,1597355712431
Fix,GT,37.3462814,-122.0983055,,33.63658,0.1,296.96756,1597355713431
Fix,GT,37.3464172,-122.098645,,33.58576,0.1,296.7198,1597355714431
Fix,GT,37.3465519,-122.0989828,,33.318638,0.1,296.88623,1597355715431
Fix,GT,37.3466868,-122.0993166,,32.97565,0.1,297.26956,1597355716431
Fix,GT,37.3468221,-122.0996457,,32.636402,0.1,297.72354,1597355717431
Fix,GT,37.3469584,-122.0999708,,32.475327,0.1,298.05914,1597355718431
Fix,GT,37.3470954,-122.1002947,,32.451584,0.1,298.1519,1597355719431
Fix,GT,37.3472322,-122.1006176,,32.322456,0.1,298.19385,1597355720431
Fix,GT,37.3473689,-122.1009387,,32.197796,0.1,298.3831,1597355721431
Fix,GT,37.3475066,-122.1012585,,32.216354,0.1,298.7938,1597355722431
Fix,GT,37.3476484,-122.1015763,,32.287952,0.1,300.23227,1597355723431
Fix,GT,37.3477984,-122.1018887,,32.3329,0.1,302.56445,1597355724431
Fix,GT,37.347959,-122.1021934,,32.37389,0.1,305.07883,1597355725431
Fix,GT,37.3481313,-122.1024885,,32.39763,0.1,308.06085,1597355726431
Fix,GT,37.3483158,-122.1027716,,32.37815,0.1,311.13644,1597355727431
Fix,GT,37.3485114,-122.1030423,,32.307766,0.1,313.95508,1597355728431
Fix,GT,37.3487165,-122.1033006,,32.275635,0.1,316.54547,1597355729431
Fix,GT,37.348931,-122.1035467,,32.28235,0.1,319.21335,1597355730431
Fix,GT,37.3491545,-122.1037803,,32.335114,0.1,321.8653,1597355731431
Fix,GT,37.3493871,-122.1040001,,32.366035,0.1,324.8316,1597355732431
Fix,GT,37.3496285,-122.1042054,,32.384438,0.1,327.37347,1597355733431
Fix,GT,37.3498758,-122.1044002,,32.46261,0.1,328.67294,1597355734431
