MessageType,Provider,LatitudeDegrees,LongitudeDegrees,AltitudeMeters,SpeedMps,AccuracyMeters,BearingDegrees,UnixTimeMillis
Fix,GT,37.5232677,-122.354297,,0.0018684962,0.1,257.61432,1590794863447
Fix,GT,37.5232677,-122.354297,,0.0012289579,0.1,257.61435,1590794864447
Fix,GT,37.5232677,-122.354297,,0.0015528277,0.1,257.61475,1590794865447
Fix,GT,37.5232677,-122.354297,,0.0021304875,0.1,257.61438,1590794866447
Fix,GT,37.5232677,-122.354297,,0.0011055062,0.1,257.61417,1590794867447
Fix,GT,37.5232677,-122.354297,,0.0010000746,0.1,257.6147,1590794868447
Fix,GT,37.5232677,-122.354297,,0.002236068,0.1,257.6142,1590794869447
Fix,GT,37.5232677,-122.354297,,0.002236068,0.1,257.6139,1590794870447
Fix,GT,37.5232677,-122.354297,,0.002236068,0.1,257.61496,1590794871447
Fix,GT,37.5232677,-122.354297,,0.0012359935,0.1,257.61566,1590794872447
Fix,GT,37.5232677,-122.354297,,0.0,0.1,257.6155,1590794873447
Fix,GT,37.5232677,-122.354297,,0.00063250266,0.1,257.6153,1590794874447
Fix,GT,37.5232676,-122.354297,,0.0012289579,0.1,257.61472,1590794875447
Fix,GT,37.5232676,-122.354297,,0.0015528277,0.1,257.61493,1590794876447
Fix,GT,37.5232676,-122.354297,,0.002236068,0.1,257.61615,1590794877447
Fix,GT,37.5232676,-122.354297,,0.002236068,0.1,257.61685,1590794878447
Fix,GT,37.5232676,-122.354297,,0.002848565,0.1,257.61697,1590794879447
Fix,GT,37.5232676,-122.354297,,0.0048567574,0.1,257.61792,1590794880447
Fix,GT,37.5232676,-122.354297,,0.005775581,0.1,257.6188,1590794881447
Fix,GT,37.5232676,-122.3542969,,0.00845629,0.1,257.58038,1590794882447
Fix,GT,37.5232677,-122.354297,,0.03065495,0.1,257.50586,1590794883447
Fix,GT,37.5232666,-122.3542986,,0.33620623,0.1,255.61455,1590794884447
Fix,GT,37.5232624,-122.3543036,,0.96645486,0.1,248.80713,1590794885447
Fix,GT,37.5232532,-122.3543129,,1.7505248,0.1,237.40866,1590794886447
Fix,GT,37.5232392,-122.3543293,,2.5662918,0.1,231.44707,1590794887447
Fix,GT,37.5232237,-122.3543566,,3.310538,0.1,237.27515,1590794888447
Fix,GT,37.5232114,-122.3543923,,3.2702146,0.1,248.73584,1590794889447
Fix,GT,37.523206,-122.3544221,,1.7937821,0.1,258.61542,1590794890447
Fix,GT,37.5232047,-122.3544337,,0.44236314,0.1,261.68503,1590794891447
Fix,GT,37.5232047,-122.3544348,,0.0043623396,0.1,261.99066,1590794892447
Fix,GT,37.5232047,-122.3544348,,0.0021304875,0.1,261.98895,1590794893447
Fix,GT,37.5232047,-122.3544348,,0.001552753,0.1,261.98904,1590794894447
Fix,GT,37.5232047,-122.3544348,,0.0011852558,0.1,261.98932,1590794895447
Fix,GT,37.5232047,-122.3544348,,0.002394283,0.1,261.98926,1590794896447
Fix,GT,37.5232047,-122.3544348,,0.0038370262,0.1,261.98962,1590794897447
Fix,GT,37.5232047,-122.3544348,,0.0036208,0.1,261.99017,1590794898447
Fix,GT,37.5232047,-122.3544348,,0.0026583336,0.1,261.99045,1590794899447
Fix,GT,37.5232047,-122.3544347,,0.001868496,0.1,261.99042,1590794900447
Fix,GT,37.5232047,-122.3544347,,0.0016762048,0.1,261.99072,1590794901447
Fix,GT,37.5232047,-122.3544347,,0.0015527529,0.1,261.9916,1590794902447
Fix,GT,37.5232047,-122.3544347,,0.0021653255,0.1,261.99207,1590794903447
Fix,GT,37.5232047,-122.3544347,,0.0029930538,0.1,261.99292,1590794904447
Fix,GT,37.5232047,-122.3544346,,0.0030249816,0.1,261.99387,1590794905447
Fix,GT,37.5232045,-122.3544356,,0.27867955,0.1,262.2215,1590794906447
Fix,GT,37.5232037,-122.3544427,,1.0920527,0.1,263.03195,1590794907447
Fix,GT,37.5232018,-122.3544599,,1.9000111,0.1,264.4056,1590794908447
Fix,GT,37.5231998,-122.3544833,,2.084166,0.1,266.55585,1590794909447
Fix,GT,37.5231986,-122.354506,,1.8445096,0.1,269.15558,1590794910447
Fix,GT,37.5231983,-122.3545256,,1.6126728,0.1,271.13562,1590794911447
Fix,GT,37.5231982,-122.3545423,,1.3028963,0.1,272.46515,1590794912447
Fix,GT,37.5231983,-122.3545542,,0.78434753,0.1,273.33942,1590794913447
Fix,GT,37.5231984,-122.3545598,,0.26552802,0.1,273.755,1590794914447
Fix,GT,37.5231984,-122.3545607,,0.0029115614,0.1,273.8266,1590794915447
Fix,GT,37.5231984,-122.3545607,,0.0021234523,0.1,273.8269,1590794916447
Fix,GT,37.5231985,-122.3545607,,0.003502306,0.1,273.82745,1590794917447
Fix,GT,37.5231985,-122.3545607,,0.004068047,0.1,273.82718,1590794918447
Fix,GT,37.5231985,-122.3545611,,0.16014057,0.1,273.86972,1590794919447
Fix,GT,37.5231982,-122.3545663,,1.0618331,0.1,272.8626,1590794920447
Fix,GT,37.5231951,-122.3545882,,3.0742755,0.1,268.36307,1590794921447
Fix,GT,37.5231886,-122.3546349,,5.2609415,0.1,264.836,1590794922447
Fix,GT,37.5231812,-122.3547031,,6.816079,0.1,266.18567,1590794923447
Fix,GT,37.5231743,-122.3547862,,7.8780746,0.1,268.2381,1590794924447
Fix,GT,37.5231689,-122.3548791,,8.536111,0.1,270.03116,1590794925447
Fix,GT,37.5231646,-122.3549787,,9.092221,0.1,270.97638,1590794926447
Fix,GT,37.5231609,-122.3550848,,9.654356,0.1,271.45792,1590794927447
Fix,GT,37.5231569,-122.3551969,,10.173664,0.1,271.14258,1590794928447
Fix,GT,37.5231519,-122.3553142,,10.605066,0.1,270.6774,1590794929447
Fix,GT,37.5231468,-122.3554364,,10.9990425,0.1,271.09534,1590794930447
Fix,GT,37.5231426,-122.3555634,,11.452478,0.1,271.7818,1590794931447
Fix,GT,37.5231395,-122.3556955,,11.833994,0.1,272.28214,1590794932447
Fix,GT,37.523137,-122.3558301,,11.89826,0.1,272.56976,1590794933447
Fix,GT,37.5231351,-122.3559635,,11.6523075,0.1,273.02136,1590794934447
Fix,GT,37.523134,-122.356093,,11.169037,0.1,273.13342,1590794935447
Fix,GT,37.5231326,-122.3562158,,10.524791,0.1,272.97266,1590794936447
Fix,GT,37.5231311,-122.3563301,,9.671974,0.1,272.8159,1590794937447
Fix,GT,37.5231295,-122.3564327,,8.387741,0.1,272.6302,1590794938447
Fix,GT,37.5231282,-122.3565194,,6.9262033,0.1,272.77594,1590794939447
Fix,GT,37.5231272,-122.3565891,,5.3854027,0.1,272.8341,1590794940447
Fix,GT,37.5231263,-122.3566399,,3.5433762,0.1,272.44946,1590794941447
Fix,GT,37.5231254,-122.3566748,,2.7232223,0.1,271.87607,1590794942447
Fix,GT,37.5231241,-122.3567086,,3.3175502,0.1,271.13696,1590794943447
Fix,GT,37.523122,-122.3567477,,3.4130077,0.1,270.02896,1590794944447
Fix,GT,37.5231197,-122.3567803,,2.1436114,0.1,268.91693,1590794945447
Fix,GT,37.5231186,-122.3567946,,0.63961864,0.1,268.3813,1590794946447
Fix,GT,37.5231182,-122.3567988,,0.3809208,0.1,268.2023,1590794947447
Fix,GT,37.5231175,-122.3568043,,0.43927643,0.1,267.67078,1590794948447
Fix,GT,37.523117,-122.356808,,0.15328035,0.1,267.1079,1590794949447
Fix,GT,37.5231169,-122.3568082,,0.0025527528,0.1,267.04388,1590794950447
Fix,GT,37.5231169,-122.3568081,,0.0021055809,0.1,267.0441,1590794951447
Fix,GT,37.5231169,-122.3568081,,0.0025777346,0.1,267.04565,1590794952447
Fix,GT,37.5231169,-122.3568081,,0.0056834845,0.1,267.04742,1590794953447
Fix,GT,37.5231166,-122.3568095,,0.2520991,0.1,266.74478,1590794954447
Fix,GT,37.5231156,-122.3568148,,0.54796284,0.1,265.46918,1590794955447
Fix,GT,37.5231145,-122.3568206,,0.37637278,0.1,264.13177,1590794956447
Fix,GT,37.5231137,-122.3568245,,0.50385135,0.1,263.22665,1590794957447
Fix,GT,37.5231111,-122.356835,,1.4065598,0.1,260.78683,1590794958447
Fix,GT,37.5231036,-122.356855,,2.5444422,0.1,253.52338,1590794959447
Fix,GT,37.5230857,-122.3568813,,3.8878562,0.1,237.5745,1590794960447
Fix,GT,37.5230517,-122.3569074,,5.2613993,0.1,216.38089,1590794961447
Fix,GT,37.5230022,-122.3569234,,6.4332113,0.1,196.96375,1590794962447
Fix,GT,37.5229403,-122.356923,,7.6360726,0.1,181.53026,1590794963447
Fix,GT,37.5228679,-122.3569072,,8.780341,0.1,172.37946,1590794964447
Fix,GT,37.5227884,-122.3568806,,9.439701,0.1,167.6015,1590794965447
Fix,GT,37.5227086,-122.3568446,,9.403372,0.1,162.55988,1590794966447
Fix,GT,37.5226323,-122.3568031,,9.099367,0.1,160.13708,1590794967447
Fix,GT,37.5225576,-122.3567642,,8.829174,0.1,162.48346,1590794968447
Fix,GT,37.5224833,-122.3567335,,8.4221115,0.1,166.73083,1590794969447
Fix,GT,37.5224128,-122.3567092,,7.7797356,0.1,168.59174,1590794970447
Fix,GT,37.5223497,-122.3566845,,7.0367737,0.1,164.89209,1590794971447
Fix,GT,37.5222971,-122.356648,,6.8005342,0.1,151.06873,1590794972447
Fix,GT,37.5222586,-122.3565895,,7.244051,0.1,128.84302,1590794973447
Fix,GT,37.5222378,-122.3565114,,7.8329306,0.1,108.9281,1590794974447
Fix,GT,37.5222258,-122.3564192,,8.8312,0.1,102.66193,1590794975447
Fix,GT,37.5222063,-122.3563149,,10.076498,0.1,109.127655,1590794976447
Fix,GT,37.5221707,-122.356203,,11.135521,0.1,118.62097,1590794977447
Fix,GT,37.5221152,-122.3560916,,12.06362,0.1,129.40765,1590794978447
Fix,GT,37.5220386,-122.3559879,,12.925745,0.1,140.4477,1590794979447
Fix,GT,37.5219422,-122.3558975,,13.766155,0.1,150.4884,1590794980447
Fix,GT,37.5218303,-122.3558195,,14.602438,0.1,156.59174,1590794981447
Fix,GT,37.5217087,-122.3557452,,15.378067,0.1,158.15039,1590794982447
Fix,GT,37.5215807,-122.3556674,,16.194506,0.1,157.90869,1590794983447
Fix,GT,37.5214458,-122.3555843,,17.150078,0.1,157.71594,1590794984447
Fix,GT,37.5213027,-122.3554967,,18.195282,0.1,157.95325,1590794985447
Fix,GT,37.5211505,-122.3554047,,19.294819,0.1,158.07019,1590794986447
Fix,GT,37.5209898,-122.3553066,,20.385567,0.1,157.79626,1590794987447
Fix,GT,37.5208208,-122.3552014,,21.510681,0.1,157.21674,1590794988447
Fix,GT,37.5206433,-122.355088,,22.71669,0.1,156.66846,1590794989447
Fix,GT,37.5204566,-122.3549665,,23.967558,0.1,156.09314,1590794990447
Fix,GT,37.5202615,-122.3548353,,25.161,0.1,155.31647,1590794991447
Fix,GT,37.5200592,-122.3546955,,26.044662,0.1,155.03528,1590794992447
Fix,GT,37.5198512,-122.3545524,,26.556412,0.1,155.14294,1590794993447
Fix,GT,37.5196398,-122.3544066,,26.973583,0.1,154.94592,1590794994447
Fix,GT,37.5194261,-122.3542573,,27.32122,0.1,154.42474,1590794995447
Fix,GT,37.5192116,-122.3541029,,27.56594,0.1,153.50214,1590794996447
Fix,GT,37.5189982,-122.3539423,,27.683472,0.1,152.41895,1590794997447
Fix,GT,37.5187863,-122.3537769,,27.721107,0.1,151.5213,1590794998447
Fix,GT,37.5185758,-122.3536075,,27.792347,0.1,150.78241,1590794999447
Fix,GT,37.5183664,-122.3534341,,27.903214,0.1,150.08698,1590795000447
Fix,GT,37.5181581,-122.3532564,,28.0377,0.1,149.18182,1590795001447
Fix,GT,37.5179508,-122.3530735,,28.223507,0.1,148.1662,1590795002447
Fix,GT,37.517745,-122.3528841,,28.436604,0.1,147.05692,1590795003447
Fix,GT,37.5175407,-122.3526883,,28.657257,0.1,145.83047,1590795004447
Fix,GT,37.5173378,-122.3524858,,28.899784,0.1,144.81311,1590795005447
Fix,GT,37.5171357,-122.3522772,,29.19228,0.1,143.90698,1590795006447
Fix,GT,37.5169342,-122.3520624,,29.517117,0.1,143.14658,1590795007447
Fix,GT,37.5167323,-122.3518434,,29.673946,0.1,142.88153,1590795008447
Fix,GT,37.5165305,-122.3516241,,29.529076,0.1,142.93674,1590795009447
Fix,GT,37.5163299,-122.3514071,,29.222155,0.1,143.15778,1590795010447
Fix,GT,37.516131,-122.3511932,,28.922434,0.1,143.29877,1590795011447
Fix,GT,37.5159334,-122.3509816,,28.796837,0.1,143.4375,1590795012447
Fix,GT,37.5157358,-122.3507706,,28.801802,0.1,143.40912,1590795013447
Fix,GT,37.5155379,-122.3505593,,28.865374,0.1,143.33615,1590795014447
Fix,GT,37.5153395,-122.3503474,,28.957733,0.1,143.43146,1590795015447
Fix,GT,37.5151405,-122.350135,,29.023695,0.1,143.3675,1590795016447
Fix,GT,37.5149418,-122.3499215,,29.01324,0.1,143.07098,1590795017447
Fix,GT,37.5147442,-122.3497071,,28.965176,0.1,142.84631,1590795018447
Fix,GT,37.5145472,-122.3494925,,28.93774,0.1,142.88715,1590795019447
Fix,GT,37.5143499,-122.3492786,,28.9276,0.1,143.0917,1590795020447
Fix,GT,37.5141517,-122.349066,,28.964031,0.1,143.39111,1590795021447
Fix,GT,37.5139523,-122.3488542,,29.018837,0.1,143.64612,1590795022447
Fix,GT,37.5137523,-122.3486425,,29.033043,0.1,143.62164,1590795023447
Fix,GT,37.5135528,-122.3484299,,29.081373,0.1,143.34161,1590795024447
Fix,GT,37.5133536,-122.3482153,,29.217316,0.1,142.96494,1590795025447
Fix,GT,37.5131543,-122.3479974,,29.45803,0.1,142.58447,1590795026447
Fix,GT,37.5129546,-122.3477753,,29.785343,0.1,141.99316,1590795027447
Fix,GT,37.5127544,-122.347548,,30.131544,0.1,141.40234,1590795028447
Fix,GT,37.5125538,-122.347316,,30.433016,0.1,140.84647,1590795029447
Fix,GT,37.5123531,-122.3470792,,30.700241,0.1,140.30054,1590795030447
Fix,GT,37.5121527,-122.3468378,,30.929886,0.1,139.7182,1590795031447
Fix,GT,37.5119534,-122.3465921,,31.060482,0.1,138.94891,1590795032447
Fix,GT,37.5117561,-122.3463427,,31.10793,0.1,138.34973,1590795033447
Fix,GT,37.5115606,-122.3460906,,31.105484,0.1,137.98761,1590795034447
Fix,GT,37.5113665,-122.3458372,,31.063541,0.1,137.48975,1590795035447
Fix,GT,37.5111742,-122.3455822,,30.993168,0.1,136.99915,1590795036447
Fix,GT,37.5109845,-122.3453261,,30.86646,0.1,136.4765,1590795037447
Fix,GT,37.5107974,-122.3450689,,30.735699,0.1,135.98444,1590795038447
Fix,GT,37.5106127,-122.3448106,,30.675653,0.1,135.55585,1590795039447
Fix,GT,37.5104297,-122.3445508,,30.678635,0.1,135.04993,1590795040447
Fix,GT,37.5102487,-122.3442886,,30.70616,0.1,134.22662,1590795041447
Fix,GT,37.510071,-122.3440224,,30.721031,0.1,133.26578,1590795042447
Fix,GT,37.5098962,-122.3437528,,30.750206,0.1,132.64703,1590795043447
Fix,GT,37.5097229,-122.3434811,,30.8041,0.1,132.26599,1590795044447
Fix,GT,37.509551,-122.3432076,,30.82837,0.1,131.77496,1590795045447
Fix,GT,37.5093809,-122.3429318,,30.849817,0.1,131.22943,1590795046447
Fix,GT,37.5092122,-122.3426542,,30.888107,0.1,131.03094,1590795047447
Fix,GT,37.5090436,-122.3423759,,30.9485,0.1,131.09808,1590795048447
Fix,GT,37.5088743,-122.3420974,,31.024647,0.1,131.16388,1590795049447
Fix,GT,37.5087042,-122.3418182,,31.127598,0.1,131.21432,1590795050447
Fix,GT,37.5085336,-122.341538,,31.255644,0.1,131.15839,1590795051447
Fix,GT,37.5083624,-122.3412564,,31.406307,0.1,131.12381,1590795052447
Fix,GT,37.5081905,-122.3409729,,31.591566,0.1,131.02386,1590795053447
Fix,GT,37.5080182,-122.3406872,,31.80328,0.1,130.86853,1590795054447
Fix,GT,37.5078449,-122.3403991,,32.043938,0.1,130.9317,1590795055447
Fix,GT,37.5076692,-122.3401096,,32.289017,0.1,131.32074,1590795056447
Fix,GT,37.5074905,-122.3398197,,32.498287,0.1,131.63708,1590795057447
Fix,GT,37.5073102,-122.3395284,,32.710915,0.1,131.5737,1590795058447
Fix,GT,37.5071293,-122.3392343,,32.981174,0.1,131.36426,1590795059447
Fix,GT,37.5069474,-122.3389369,,33.278877,0.1,131.21011,1590795060447
Fix,GT,37.5067647,-122.3386365,,33.51201,0.1,131.02493,1590795061447
Fix,GT,37.5065819,-122.3383337,,33.67162,0.1,130.91382,1590795062447
Fix,GT,37.506398,-122.3380295,,33.823933,0.1,131.02368,1590795063447
Fix,GT,37.5062133,-122.3377242,,33.945286,0.1,131.08014,1590795064447
Fix,GT,37.506028,-122.3374181,,34.031914,0.1,131.16208,1590795065447
Fix,GT,37.505841,-122.3371124,,34.109264,0.1,131.59125,1590795066447
Fix,GT,37.505652,-122.3368077,,34.16629,0.1,131.87958,1590795067447
Fix,GT,37.5054616,-122.3365038,,34.1907,0.1,132.03937,1590795068447
Fix,GT,37.5052705,-122.3362008,,34.166553,0.1,132.35938,1590795069447
Fix,GT,37.5050779,-122.3358996,,34.11421,0.1,132.88419,1590795070447
Fix,GT,37.5048834,-122.3356012,,34.03254,0.1,133.4458,1590795071447
Fix,GT,37.5046876,-122.3353066,,33.774033,0.1,133.8393,1590795072447
Fix,GT,37.5044922,-122.3350174,,33.236206,0.1,134.419,1590795073447
Fix,GT,37.5042978,-122.3347361,,32.58326,0.1,134.97998,1590795074447
Fix,GT,37.504106,-122.3344612,,32.041054,0.1,134.94586,1590795075447
Fix,GT,37.5039168,-122.3341893,,31.807487,0.1,134.97116,1590795076447
Fix,GT,37.503728,-122.3339191,,31.733284,0.1,135.18265,1590795077447
Fix,GT,37.5035391,-122.3336501,,31.677605,0.1,135.14026,1590795078447
Fix,GT,37.5033507,-122.3333812,,31.642738,0.1,135.14166,1590795079447
Fix,GT,37.5031621,-122.3331128,,31.637447,0.1,135.24384,1590795080447
Fix,GT,37.5029733,-122.3328448,,31.601997,0.1,135.27026,1590795081447
Fix,GT,37.5027852,-122.3325772,,31.500233,0.1,135.14554,1590795082447
Fix,GT,37.5025982,-122.3323098,,31.391182,0.1,135.02124,1590795083447
Fix,GT,37.5024127,-122.3320426,,31.28431,0.1,134.63232,1590795084447
Fix,GT,37.5022304,-122.3317735,,31.185606,0.1,133.54236,1590795085447
Fix,GT,37.5020541,-122.3314999,,31.090218,0.1,131.85223,1590795086447
Fix,GT,37.5018853,-122.3312203,,30.983997,0.1,130.08273,1590795087447
Fix,GT,37.5017236,-122.3309358,,30.871525,0.1,128.34955,1590795088447
Fix,GT,37.50157,-122.3306457,,30.781384,0.1,126.25818,1590795089447
Fix,GT,37.5014262,-122.330349,,30.701962,0.1,123.96066,1590795090447
Fix,GT,37.5012914,-122.3300465,,30.636625,0.1,122.092896,1590795091447
Fix,GT,37.5011643,-122.3297396,,30.564169,0.1,120.39191,1590795092447
Fix,GT,37.5010452,-122.3294287,,30.465103,0.1,118.4534,1590795093447
Fix,GT,37.500935,-122.3291141,,30.364264,0.1,116.49048,1590795094447
Fix,GT,37.5008338,-122.3287958,,30.290249,0.1,114.635284,1590795095447
Fix,GT,37.5007403,-122.3284746,,30.217129,0.1,113.07266,1590795096447
Fix,GT,37.5006543,-122.328151,,30.143719,0.1,111.29947,1590795097447
Fix,GT,37.5005773,-122.3278249,,30.06808,0.1,109.2229,1590795098447
Fix,GT,37.5005099,-122.3274961,,30.023617,0.1,107.13629,1590795099447
Fix,GT,37.5004521,-122.3271647,,30.030518,0.1,105.154785,1590795100447
Fix,GT,37.5004027,-122.3268308,,30.041897,0.1,103.451965,1590795101447
Fix,GT,37.5003611,-122.3264954,,30.0345,0.1,101.84778,1590795102447
Fix,GT,37.5003267,-122.3261588,,30.01771,0.1,100.270935,1590795103447
Fix,GT,37.5002999,-122.3258215,,29.959747,0.1,98.45395,1590795104447
Fix,GT,37.5002825,-122.3254839,,29.899837,0.1,96.44525,1590795105447
Fix,GT,37.5002738,-122.3251463,,29.868954,0.1,94.87909,1590795106447
Fix,GT,37.5002703,-122.3248087,,29.850183,0.1,94.227875,1590795107447
Fix,GT,37.5002683,-122.3244712,,29.844023,0.1,94.17178,1590795108447
Fix,GT,37.5002661,-122.3241338,,29.851059,0.1,94.31958,1590795109447
Fix,GT,37.5002628,-122.323796,,29.893705,0.1,94.61017,1590795110447
Fix,GT,37.5002581,-122.3234574,,29.955631,0.1,94.854675,1590795111447
Fix,GT,37.5002524,-122.3231185,,29.9788,0.1,95.187225,1590795112447
Fix,GT,37.500244,-122.3227797,,29.94887,0.1,95.94449,1590795113447
Fix,GT,37.5002305,-122.3224414,,29.919662,0.1,97.405945,1590795114447
Fix,GT,37.5002081,-122.3221041,,29.931528,0.1,99.69397,1590795115447
Fix,GT,37.5001746,-122.3217681,,29.919031,0.1,102.00775,1590795116447
Fix,GT,37.5001316,-122.3214342,,29.870121,0.1,103.732605,1590795117447
Fix,GT,37.5000822,-122.3211025,,29.81402,0.1,104.95468,1590795118447
Fix,GT,37.5000276,-122.3207726,,29.746899,0.1,105.99863,1590795119447
Fix,GT,37.4999677,-122.3204451,,29.680248,0.1,107.39624,1590795120447
Fix,GT,37.4999009,-122.3201204,,29.604855,0.1,109.194275,1590795121447
Fix,GT,37.4998257,-122.3197996,,29.530941,0.1,111.20276,1590795122447
Fix,GT,37.4997419,-122.3194828,,29.482985,0.1,113.019104,1590795123447
Fix,GT,37.4996507,-122.3191696,,29.48082,0.1,114.58569,1590795124447
Fix,GT,37.4995531,-122.3188592,,29.517498,0.1,116.02939,1590795125447
Fix,GT,37.4994489,-122.3185522,,29.528536,0.1,117.76532,1590795126447
Fix,GT,37.4993367,-122.3182492,,29.530617,0.1,119.60864,1590795127447
Fix,GT,37.4992174,-122.3179507,,29.534645,0.1,121.14734,1590795128447
Fix,GT,37.4990924,-122.3176563,,29.45419,0.1,122.64798,1590795129447
Fix,GT,37.4989618,-122.317367,,29.347122,0.1,124.06708,1590795130447
Fix,GT,37.4988261,-122.3170827,,29.254444,0.1,125.288574,1590795131447
Fix,GT,37.4986864,-122.3168028,,29.153748,0.1,126.477295,1590795132447
Fix,GT,37.4985423,-122.3165279,,29.029839,0.1,127.78656,1590795133447
Fix,GT,37.4983946,-122.3162576,,28.925564,0.1,128.63983,1590795134447
Fix,GT,37.4982453,-122.31599,,28.859463,0.1,128.92923,1590795135447
Fix,GT,37.4980958,-122.3157232,,28.84414,0.1,128.99579,1590795136447
Fix,GT,37.4979458,-122.3154566,,28.905983,0.1,129.06915,1590795137447
Fix,GT,37.4977954,-122.3151889,,29.023207,0.1,128.90656,1590795138447
Fix,GT,37.4976454,-122.3149194,,29.129597,0.1,128.70044,1590795139447
Fix,GT,37.4974954,-122.3146485,,29.205894,0.1,128.56165,1590795140447
Fix,GT,37.4973457,-122.3143767,,29.239223,0.1,128.45258,1590795141447
Fix,GT,37.4971964,-122.3141044,,29.234335,0.1,128.31915,1590795142447
Fix,GT,37.4970482,-122.3138312,,29.237564,0.1,127.76285,1590795143447
Fix,GT,37.4969035,-122.3135549,,29.26539,0.1,126.58801,1590795144447
Fix,GT,37.4967632,-122.3132746,,29.306353,0.1,125.32825,1590795145447
Fix,GT,37.4966276,-122.3129902,,29.359814,0.1,124.12146,1590795146447
Fix,GT,37.4964967,-122.3127015,,29.436245,0.1,122.94275,1590795147447
Fix,GT,37.4963694,-122.3124089,,29.539707,0.1,122.030334,1590795148447
Fix,GT,37.4962452,-122.312113,,29.62875,0.1,121.14969,1590795149447
Fix,GT,37.496125,-122.3118133,,29.75953,0.1,120.02295,1590795150447
Fix,GT,37.4960086,-122.3115089,,30.062744,0.1,118.91321,1590795151447
Fix,GT,37.4958955,-122.3111977,,30.461445,0.1,117.65338,1590795152447
Fix,GT,37.4957865,-122.3108792,,30.842335,0.1,116.40219,1590795153447
Fix,GT,37.4956816,-122.3105541,,31.206524,0.1,115.25223,1590795154447
Fix,GT,37.4955811,-122.3102225,,31.565796,0.1,113.98517,1590795155447
Fix,GT,37.4954849,-122.3098845,,31.92236,0.1,112.871826,1590795156447
Fix,GT,37.4953934,-122.3095402,,32.269447,0.1,111.65216,1590795157447
Fix,GT,37.4953058,-122.3091902,,32.62542,0.1,110.94968,1590795158447
Fix,GT,37.4952189,-122.3088355,,32.98671,0.1,110.872314,1590795159447
Fix,GT,37.4951309,-122.3084771,,33.34638,0.1,110.958374,1590795160447
Fix,GT,37.4950416,-122.3081149,,33.69229,0.1,110.99164,1590795161447
Fix,GT,37.4949516,-122.3077492,,33.984474,0.1,110.89313,1590795162447
Fix,GT,37.4948619,-122.3073803,,34.237984,0.1,110.62686,1590795163447
Fix,GT,37.4947731,-122.3070083,,34.49049,0.1,110.27527,1590795164447
Fix,GT,37.4946848,-122.3066332,,34.682526,0.1,110.249084,1590795165447
Fix,GT,37.4945953,-122.3062567,,34.806427,0.1,110.60443,1590795166447
Fix,GT,37.4945028,-122.30588,,34.912613,0.1,111.335144,1590795167447
Fix,GT,37.4944049,-122.3055044,,34.988247,0.1,112.74411,1590795168447
Fix,GT,37.4942975,-122.3051318,,35.059193,0.1,114.78598,1590795169447
Fix,GT,37.4941791,-122.3047637,,35.136932,0.1,116.834625,1590795170447
Fix,GT,37.4940499,-122.3044001,,35.25422,0.1,118.98398,1590795171447
Fix,GT,37.4939086,-122.3040423,,35.3698,0.1,121.51343,1590795172447
Fix,GT,37.4937546,-122.3036918,,35.368225,0.1,123.90515,1590795173447
Fix,GT,37.4935894,-122.3033503,,35.266083,0.1,126.30194,1590795174447
Fix,GT,37.4934133,-122.303019,,35.159145,0.1,128.72662,1590795175447
Fix,GT,37.4932275,-122.3026975,,35.062553,0.1,130.73444,1590795176447
Fix,GT,37.4930339,-122.3023848,,34.945435,0.1,132.59888,1590795177447
Fix,GT,37.4928329,-122.3020816,,34.808907,0.1,134.70004,1590795178447
Fix,GT,37.4926234,-122.30179,,34.619476,0.1,137.12872,1590795179447
Fix,GT,37.492406,-122.3015113,,34.283436,0.1,139.38666,1590795180447
Fix,GT,37.4921834,-122.3012462,,33.79584,0.1,141.42883,1590795181447
Fix,GT,37.4919564,-122.300996,,33.27354,0.1,143.7337,1590795182447
Fix,GT,37.4917248,-122.3007613,,32.78457,0.1,146.0877,1590795183447
Fix,GT,37.4914894,-122.3005415,,32.31836,0.1,148.06628,1590795184447
Fix,GT,37.4912522,-122.3003336,,31.902176,0.1,149.62396,1590795185447
Fix,GT,37.4910134,-122.3001363,,31.579369,0.1,151.41074,1590795186447
Fix,GT,37.4907714,-122.2999508,,31.36898,0.1,153.5824,1590795187447
Fix,GT,37.490525,-122.2997785,,31.231335,0.1,155.86877,1590795188447
Fix,GT,37.4902743,-122.2996194,,31.111073,0.1,158.16052,1590795189447
Fix,GT,37.4900199,-122.2994732,,31.004593,0.1,160.20898,1590795190447
Fix,GT,37.4897623,-122.2993381,,30.960503,0.1,161.98718,1590795191447
Fix,GT,37.4895015,-122.2992131,,31.0196,0.1,163.9925,1590795192447
Fix,GT,37.4892364,-122.2990994,,31.132166,0.1,166.06555,1590795193447
Fix,GT,37.4889674,-122.2989974,,31.206982,0.1,168.0149,1590795194447
Fix,GT,37.4886954,-122.2989073,,31.236607,0.1,170.177,1590795195447
Fix,GT,37.4884203,-122.2988305,,31.30037,0.1,172.34229,1590795196447
Fix,GT,37.4881428,-122.298765,,31.400108,0.1,173.90564,1590795197447
Fix,GT,37.4878628,-122.2987082,,31.51655,0.1,175.53107,1590795198447
Fix,GT,37.4875803,-122.2986625,,31.687695,0.1,177.55127,1590795199447
Fix,GT,37.4872952,-122.2986289,,31.85809,0.1,179.47388,1590795200447
Fix,GT,37.487008,-122.2986074,,31.977365,0.1,181.47852,1590795201447
Fix,GT,37.4867196,-122.2985988,,32.056606,0.1,183.63933,1590795202447
Fix,GT,37.4864304,-122.2986044,,32.13418,0.1,185.89447,1590795203447
Fix,GT,37.4861409,-122.2986241,,32.196796,0.1,187.94705,1590795204447
Fix,GT,37.485852,-122.2986553,,32.133595,0.1,189.59087,1590795205447
Fix,GT,37.485565,-122.2986946,,31.923515,0.1,190.51926,1590795206447
Fix,GT,37.4852808,-122.2987376,,31.604675,0.1,190.93155,1590795207447
Fix,GT,37.4850003,-122.298782,,31.137983,0.1,191.19063,1590795208447
Fix,GT,37.484724,-122.2988271,,30.725386,0.1,191.40094,1590795209447
Fix,GT,37.4844507,-122.2988732,,30.528828,0.1,191.56523,1590795210447
Fix,GT,37.4841784,-122.2989194,,30.46133,0.1,191.54439,1590795211447
Fix,GT,37.4839067,-122.2989647,,30.385021,0.1,191.38052,1590795212447
Fix,GT,37.4836358,-122.2990092,,30.273407,0.1,191.29688,1590795213447
Fix,GT,37.4833659,-122.2990535,,30.145887,0.1,191.34383,1590795214447
Fix,GT,37.4830972,-122.2990975,,30.008133,0.1,191.33215,1590795215447
Fix,GT,37.4828297,-122.2991412,,29.891144,0.1,191.41032,1590795216447
Fix,GT,37.4825633,-122.2991858,,29.769627,0.1,191.46347,1590795217447
Fix,GT,37.482298,-122.2992301,,29.625118,0.1,191.41891,1590795218447
Fix,GT,37.482034,-122.2992739,,29.485622,0.1,191.38579,1590795219447
Fix,GT,37.4817712,-122.2993168,,29.35991,0.1,191.16307,1590795220447
Fix,GT,37.4815092,-122.2993586,,29.277496,0.1,191.12038,1590795221447
Fix,GT,37.4812478,-122.2994011,,29.21584,0.1,191.34415,1590795222447
Fix,GT,37.480987,-122.2994438,,29.188503,0.1,191.26799,1590795223447
Fix,GT,37.480726,-122.2994861,,29.236414,0.1,191.23344,1590795224447
Fix,GT,37.4804646,-122.2995288,,29.276428,0.1,191.41144,1590795225447
Fix,GT,37.480203,-122.2995722,,29.279097,0.1,191.42973,1590795226447
Fix,GT,37.4799415,-122.2996145,,29.257435,0.1,190.99126,1590795227447
Fix,GT,37.4796799,-122.2996529,,29.236027,0.1,190.12201,1590795228447
Fix,GT,37.4794179,-122.2996859,,29.234838,0.1,189.08018,1590795229447
Fix,GT,37.4791553,-122.2997119,,29.264164,0.1,187.6777,1590795230447
Fix,GT,37.4788918,-122.2997287,,29.333565,0.1,185.78088,1590795231447
Fix,GT,37.4786273,-122.2997335,,29.420208,0.1,183.68217,1590795232447
Fix,GT,37.4783621,-122.2997267,,29.483095,0.1,181.79968,1590795233447
Fix,GT,37.4780968,-122.2997097,,29.5145,0.1,180.20845,1590795234447
Fix,GT,37.4778319,-122.2996833,,29.522015,0.1,178.54834,1590795235447
Fix,GT,37.4775675,-122.2996471,,29.529282,0.1,176.7091,1590795236447
Fix,GT,37.4773042,-122.2995997,,29.569914,0.1,174.73364,1590795237447
Fix,GT,37.4770419,-122.2995408,,29.623951,0.1,172.74695,1590795238447
Fix,GT,37.476781,-122.2994707,,29.653038,0.1,170.80627,1590795239447
Fix,GT,37.4765219,-122.2993898,,29.677048,0.1,169.00195,1590795240447
Fix,GT,37.4762644,-122.2992987,,29.727814,0.1,167.36865,1590795241447
Fix,GT,37.4760086,-122.2991987,,29.809227,0.1,165.75049,1590795242447
Fix,GT,37.4757544,-122.2990891,,29.888617,0.1,164.08752,1590795243447
Fix,GT,37.4755022,-122.2989697,,29.974487,0.1,162.26038,1590795244447
Fix,GT,37.4752526,-122.2988392,,30.110813,0.1,160.13733,1590795245447
Fix,GT,37.4750058,-122.2986964,,30.253569,0.1,157.96997,1590795246447
Fix,GT,37.4747624,-122.2985412,,30.39152,0.1,155.80261,1590795247447
Fix,GT,37.4745228,-122.298374,,30.53779,0.1,153.77179,1590795248447
Fix,GT,37.4742865,-122.2981957,,30.689777,0.1,151.9226,1590795249447
Fix,GT,37.4740535,-122.2980074,,30.881245,0.1,150.27911,1590795250447
Fix,GT,37.4738228,-122.2978105,,31.091337,0.1,148.93475,1590795251447
Fix,GT,37.4735947,-122.2976049,,31.28491,0.1,147.21387,1590795252447
Fix,GT,37.4733708,-122.2973886,,31.47869,0.1,145.21158,1590795253447
Fix,GT,37.4731509,-122.2971621,,31.723156,0.1,143.7673,1590795254447
Fix,GT,37.4729323,-122.2969288,,32.005783,0.1,143.21936,1590795255447
Fix,GT,37.4727125,-122.2966922,,32.261726,0.1,143.11902,1590795256447
Fix,GT,37.4724915,-122.2964533,,32.478516,0.1,143.0191,1590795257447
Fix,GT,37.4722693,-122.2962125,,32.696964,0.1,143.03113,1590795258447
Fix,GT,37.472045,-122.2959706,,32.933807,0.1,143.15265,1590795259447
Fix,GT,37.4718191,-122.2957273,,33.15133,0.1,143.16943,1590795260447
Fix,GT,37.4715916,-122.2954825,,33.346775,0.1,143.25684,1590795261447
Fix,GT,37.4713628,-122.2952369,,33.51122,0.1,143.29468,1590795262447
Fix,GT,37.4711329,-122.2949904,,33.628677,0.1,143.33234,1590795263447
Fix,GT,37.4709023,-122.2947433,,33.70616,0.1,143.40436,1590795264447
Fix,GT,37.4706706,-122.2944961,,33.81096,0.1,143.68082,1590795265447
Fix,GT,37.4704367,-122.2942504,,33.911953,0.1,144.1706,1590795266447
Fix,GT,37.4702002,-122.294007,,33.94443,0.1,144.8277,1590795267447
Fix,GT,37.469961,-122.2937679,,33.944016,0.1,145.94543,1590795268447
Fix,GT,37.469717,-122.2935366,,33.955807,0.1,147.84225,1590795269447
Fix,GT,37.4694664,-122.2933158,,33.97779,0.1,149.8512,1590795270447
Fix,GT,37.4692101,-122.2931055,,33.98034,0.1,151.58292,1590795271447
Fix,GT,37.4689492,-122.2929051,,33.87509,0.1,153.40393,1590795272447
Fix,GT,37.4686851,-122.2927163,,33.531807,0.1,155.12927,1590795273447
Fix,GT,37.4684204,-122.2925396,,33.006065,0.1,156.5979,1590795274447
Fix,GT,37.4681567,-122.2923745,,32.39493,0.1,158.20032,1590795275447
Fix,GT,37.4678944,-122.2922224,,31.751251,0.1,159.98633,1590795276447
Fix,GT,37.4676338,-122.2920825,,31.159866,0.1,161.33331,1590795277447
Fix,GT,37.4673757,-122.2919515,,30.635933,0.1,162.26532,1590795278447
Fix,GT,37.4671197,-122.2918269,,30.37875,0.1,162.97784,1590795279447
Fix,GT,37.466863,-122.2917062,,30.533386,0.1,163.64233,1590795280447
Fix,GT,37.4666029,-122.2915889,,30.808258,0.1,164.70892,1590795281447
Fix,GT,37.4663379,-122.2914801,,31.065348,0.1,166.95227,1590795282447
Fix,GT,37.4660673,-122.2913853,,31.31171,0.1,169.61835,1590795283447
Fix,GT,37.4657916,-122.2913041,,31.53654,0.1,171.7268,1590795284447
Fix,GT,37.4655119,-122.2912343,,31.747086,0.1,173.45972,1590795285447
Fix,GT,37.4652289,-122.2911733,,31.954298,0.1,174.66461,1590795286447
Fix,GT,37.4649435,-122.2911186,,32.130077,0.1,175.84796,1590795287447
Fix,GT,37.4646556,-122.2910722,,32.30458,0.1,177.56061,1590795288447
Fix,GT,37.4643647,-122.2910387,,32.53576,0.1,179.72614,1590795289447
Fix,GT,37.464071,-122.2910178,,32.733482,0.1,181.4131,1590795290447
Fix,GT,37.4637757,-122.2910046,,32.8861,0.1,182.22168,1590795291447
Fix,GT,37.4634787,-122.2909944,,33.089622,0.1,182.36249,1590795292447
Fix,GT,37.4631795,-122.2909838,,33.35063,0.1,182.14772,1590795293447
Fix,GT,37.4628778,-122.2909721,,33.6718,0.1,182.07487,1590795294447
Fix,GT,37.4625733,-122.2909602,,33.91111,0.1,182.09868,1590795295447
Fix,GT,37.4622681,-122.2909479,,33.80871,0.1,181.96358,1590795296447
Fix,GT,37.4619653,-122.2909342,,33.43965,0.1,181.75195,1590795297447
Fix,GT,37.4616656,-122.2909173,,33.168144,0.1,180.77673,1590795298447
Fix,GT,37.461368,-122.2908915,,33.123974,0.1,178.92078,1590795299447
Fix,GT,37.4610709,-122.2908531,,33.243843,0.1,176.97198,1590795300447
Fix,GT,37.4607736,-122.290801,,33.426395,0.1,174.77283,1590795301447
Fix,GT,37.4604772,-122.2907339,,33.405174,0.1,172.42145,1590795302447
Fix,GT,37.4601846,-122.2906526,,33.130585,0.1,170.29456,1590795303447
Fix,GT,37.4598971,-122.2905595,,32.795982,0.1,168.43726,1590795304447
Fix,GT,37.459615,-122.2904558,,32.531223,0.1,166.50269,1590795305447
Fix,GT,37.4593376,-122.2903404,,32.421677,0.1,164.448,1590795306447
Fix,GT,37.459064,-122.2902129,,32.425785,0.1,162.53253,1590795307447
Fix,GT,37.4587934,-122.2900743,,32.493847,0.1,160.63007,1590795308447
Fix,GT,37.4585264,-122.2899233,,32.57137,0.1,158.40247,1590795309447
Fix,GT,37.4582642,-122.2897584,,32.583817,0.1,155.98547,1590795310447
Fix,GT,37.4580076,-122.2895805,,32.544415,0.1,153.80396,1590795311447
Fix,GT,37.4577568,-122.2893916,,32.399834,0.1,151.92307,1590795312447
Fix,GT,37.4575122,-122.2891941,,32.223045,0.1,150.26971,1590795313447
Fix,GT,37.4572731,-122.2889889,,32.19649,0.1,148.67484,1590795314447
Fix,GT,37.4570385,-122.2887741,,32.328896,0.1,146.65082,1590795315447
Fix,GT,37.4568093,-122.2885475,,32.485264,0.1,144.57025,1590795316447
Fix,GT,37.4565853,-122.2883104,,32.6094,0.1,142.73804,1590795317447
Fix,GT,37.4563672,-122.2880631,,32.70144,0.1,140.59119,1590795318447
Fix,GT,37.4561564,-122.2878046,,32.778713,0.1,138.34741,1590795319447
Fix,GT,37.4559528,-122.287536,,32.838036,0.1,136.40436,1590795320447
Fix,GT,37.4557558,-122.2872592,,32.844334,0.1,134.73041,1590795321447
Fix,GT,37.4555649,-122.2869761,,32.814,0.1,133.47565,1590795322447
Fix,GT,37.4553776,-122.2866895,,32.756756,0.1,132.99286,1590795323447
Fix,GT,37.4551915,-122.2864032,,32.575584,0.1,133.0835,1590795324447
Fix,GT,37.4550062,-122.28612,,32.18199,0.1,133.25427,1590795325447
Fix,GT,37.4548235,-122.285841,,31.69891,0.1,133.14392,1590795326447
Fix,GT,37.4546438,-122.2855656,,31.286152,0.1,133.12564,1590795327447
Fix,GT,37.4544659,-122.2852938,,30.969498,0.1,133.30719,1590795328447
Fix,GT,37.4542891,-122.2850251,,30.682163,0.1,133.3935,1590795329447
Fix,GT,37.4541139,-122.2847591,,30.387285,0.1,133.4347,1590795330447
Fix,GT,37.4539403,-122.2844957,,30.114897,0.1,133.45328,1590795331447
Fix,GT,37.453768,-122.2842346,,29.89682,0.1,133.4621,1590795332447
Fix,GT,37.4535967,-122.2839752,,29.704418,0.1,133.43265,1590795333447
Fix,GT,37.4534269,-122.2837172,,29.487875,0.1,133.31696,1590795334447
Fix,GT,37.4532586,-122.2834608,,29.280008,0.1,133.20972,1590795335447
Fix,GT,37.4530919,-122.2832058,,29.084726,0.1,133.19873,1590795336447
Fix,GT,37.452926,-122.2829527,,28.901981,0.1,133.39441,1590795337447
Fix,GT,37.4527601,-122.2827021,,28.748219,0.1,133.64117,1590795338447
Fix,GT,37.4525948,-122.282453,,28.628065,0.1,133.5391,1590795339447
Fix,GT,37.452431,-122.2822039,,28.529346,0.1,133.12708,1590795340447
Fix,GT,37.452269,-122.2819541,,28.48597,0.1,132.92932,1590795341447
Fix,GT,37.452107,-122.2817044,,28.501953,0.1,133.08722,1590795342447
Fix,GT,37.4519439,-122.281455,,28.560923,0.1,133.29553,1590795343447
Fix,GT,37.4517799,-122.2812057,,28.641527,0.1,133.40594,1590795344447
Fix,GT,37.4516153,-122.2809556,,28.732544,0.1,133.35556,1590795345447
Fix,GT,37.4514506,-122.2807045,,28.8209,0.1,133.26532,1590795346447
Fix,GT,37.4512857,-122.2804525,,28.866829,0.1,133.18097,1590795347447
Fix,GT,37.4511207,-122.2802001,,28.890762,0.1,133.20798,1590795348447
Fix,GT,37.4509552,-122.2799475,,28.965513,0.1,133.33878,1590795349447
Fix,GT,37.4507889,-122.2796944,,29.08168,0.1,133.38864,1590795350447
Fix,GT,37.4506217,-122.2794404,,29.224194,0.1,133.44238,1590795351447
Fix,GT,37.4504532,-122.2791853,,29.411812,0.1,133.53058,1590795352447
Fix,GT,37.4502833,-122.2789286,,29.616215,0.1,133.52518,1590795353447
Fix,GT,37.4501127,-122.2786702,,29.729086,0.1,133.32043,1590795354447
Fix,GT,37.4499426,-122.2784109,,29.73016,0.1,133.23215,1590795355447
Fix,GT,37.4497724,-122.2781511,,29.79809,0.1,133.281,1590795356447
Fix,GT,37.4496015,-122.2778907,,29.864208,0.1,133.33191,1590795357447
Fix,GT,37.4494302,-122.2776305,,29.85511,0.1,133.43848,1590795358447
Fix,GT,37.4492588,-122.2773707,,29.841124,0.1,133.48764,1590795359447
Fix,GT,37.4490865,-122.2771113,,29.911957,0.1,133.86414,1590795360447
Fix,GT,37.4489119,-122.2768525,,30.072292,0.1,134.42834,1590795361447
Fix,GT,37.4487347,-122.2765943,,30.198025,0.1,134.68701,1590795362447
Fix,GT,37.4485565,-122.2763362,,30.193756,0.1,134.73029,1590795363447
Fix,GT,37.4483787,-122.2760789,,30.072027,0.1,134.88702,1590795364447
Fix,GT,37.4482005,-122.2758233,,30.073654,0.1,135.18082,1590795365447
Fix,GT,37.4480205,-122.2755675,,30.327908,0.1,135.30518,1590795366447
Fix,GT,37.4478387,-122.2753095,,30.595387,0.1,135.35504,1590795367447
Fix,GT,37.4476556,-122.2750497,,30.772146,0.1,135.31445,1590795368447
Fix,GT,37.4474721,-122.2747885,,30.797012,0.1,135.14093,1590795369447
Fix,GT,37.4472892,-122.2745272,,30.75501,0.1,135.11618,1590795370447
Fix,GT,37.4471061,-122.2742662,,30.788769,0.1,135.27301,1590795371447
Fix,GT,37.4469221,-122.2740052,,30.834768,0.1,135.30777,1590795372447
Fix,GT,37.4467382,-122.2737437,,30.905708,0.1,135.25732,1590795373447
Fix,GT,37.4465537,-122.2734815,,30.997952,0.1,135.28418,1590795374447
Fix,GT,37.4463688,-122.2732186,,31.035536,0.1,135.2818,1590795375447
Fix,GT,37.4461841,-122.2729555,,30.998068,0.1,135.1601,1590795376447
Fix,GT,37.4460006,-122.2726923,,30.857862,0.1,134.90451,1590795377447
Fix,GT,37.4458197,-122.2724285,,30.773594,0.1,134.1839,1590795378447
Fix,GT,37.4456427,-122.2721607,,30.858692,0.1,132.72305,1590795379447
Fix,GT,37.4454719,-122.2718849,,30.994362,0.1,130.70648,1590795380447
Fix,GT,37.445308,-122.2716006,,31.133,0.1,128.89365,1590795381447
Fix,GT,37.4451496,-122.2713096,,31.24799,0.1,127.47745,1590795382447
Fix,GT,37.4449969,-122.2710126,,31.320883,0.1,125.82678,1590795383447
Fix,GT,37.4448512,-122.2707093,,31.37474,0.1,124.00876,1590795384447
Fix,GT,37.4447128,-122.2703999,,31.426582,0.1,122.24115,1590795385447
Fix,GT,37.4445818,-122.2700851,,31.466757,0.1,120.49823,1590795386447
Fix,GT,37.4444583,-122.2697652,,31.453896,0.1,118.91876,1590795387447
Fix,GT,37.4443413,-122.269442,,31.386896,0.1,117.4993,1590795388447
Fix,GT,37.4442316,-122.2691155,,31.349022,0.1,115.66571,1590795389447
Fix,GT,37.4441311,-122.2687844,,31.391747,0.1,113.5314,1590795390447
Fix,GT,37.4440397,-122.2684484,,31.481739,0.1,111.77319,1590795391447
Fix,GT,37.4439555,-122.2681083,,31.578995,0.1,110.42291,1590795392447
Fix,GT,37.4438772,-122.2677648,,31.681034,0.1,109.19122,1590795393447
Fix,GT,37.4438049,-122.2674184,,31.682846,0.1,107.677704,1590795394447
Fix,GT,37.4437411,-122.2670703,,31.522306,0.1,105.685455,1590795395447
Fix,GT,37.4436876,-122.2667216,,31.38824,0.1,103.67993,1590795396447
Fix,GT,37.4436435,-122.2663715,,31.415901,0.1,101.9866,1590795397447
Fix,GT,37.443607,-122.2660192,,31.478535,0.1,100.45621,1590795398447
Fix,GT,37.4435781,-122.2656654,,31.48109,0.1,98.9082,1590795399447
Fix,GT,37.4435568,-122.2653111,,31.409828,0.1,97.3432,1590795400447
Fix,GT,37.4435432,-122.2649572,,31.353764,0.1,95.76343,1590795401447
Fix,GT,37.4435375,-122.2646028,,31.438862,0.1,94.1116,1590795402447
Fix,GT,37.44354,-122.2642472,,31.492577,0.1,92.3483,1590795403447
Fix,GT,37.4435515,-122.2638922,,31.448097,0.1,90.57532,1590795404447
Fix,GT,37.4435719,-122.2635377,,31.506046,0.1,88.655396,1590795405447
Fix,GT,37.4436016,-122.2631832,,31.625107,0.1,86.94797,1590795406447
Fix,GT,37.4436381,-122.2628281,,31.777813,0.1,86.06265,1590795407447
Fix,GT,37.4436774,-122.2624712,,31.989748,0.1,85.80463,1590795408447
Fix,GT,37.4437173,-122.2621123,,32.141186,0.1,85.88147,1590795409447
Fix,GT,37.4437566,-122.2617522,,32.15507,0.1,86.1478,1590795410447
Fix,GT,37.4437943,-122.2613923,,32.042,0.1,86.38629,1590795411447
Fix,GT,37.4438318,-122.2610341,,31.925924,0.1,86.13483,1590795412447
Fix,GT,37.4438713,-122.2606768,,31.948275,0.1,85.69351,1590795413447
Fix,GT,37.4439123,-122.260319,,32.014557,0.1,85.55133,1590795414447
Fix,GT,37.4439524,-122.2599611,,31.91135,0.1,86.18207,1590795415447
Fix,GT,37.4439865,-122.2596044,,31.670525,0.1,87.83075,1590795416447
Fix,GT,37.4440116,-122.2592484,,31.610493,0.1,89.6676,1590795417447
Fix,GT,37.4440275,-122.2588908,,31.772976,0.1,91.510284,1590795418447
Fix,GT,37.4440338,-122.258531,,31.878788,0.1,93.671234,1590795419447
Fix,GT,37.4440292,-122.2581709,,31.831951,0.1,95.816895,1590795420447
Fix,GT,37.4440145,-122.257812,,31.738878,0.1,97.780304,1590795421447
Fix,GT,37.4439897,-122.2574551,,31.66622,0.1,99.81,1590795422447
Fix,GT,37.4439549,-122.2571002,,31.605762,0.1,101.886444,1590795423447
Fix,GT,37.4439097,-122.2567477,,31.562244,0.1,104.02054,1590795424447
Fix,GT,37.4438543,-122.256398,,31.520409,0.1,106.033875,1590795425447
Fix,GT,37.4437897,-122.2560505,,31.652945,0.1,107.791016,1590795426447
Fix,GT,37.4437161,-122.2557027,,32.03711,0.1,109.55475,1590795427447
Fix,GT,37.4436326,-122.2553539,,32.34515,0.1,111.58142,1590795428447
Fix,GT,37.443538,-122.2550073,,32.42338,0.1,113.87616,1590795429447
Fix,GT,37.4434327,-122.2546657,,32.37754,0.1,116.108826,1590795430447
Fix,GT,37.4433178,-122.2543294,,32.33387,0.1,117.931305,1590795431447
Fix,GT,37.443195,-122.2539984,,32.273884,0.1,119.670685,1590795432447
Fix,GT,37.4430634,-122.253674,,32.132763,0.1,122.11603,1590795433447
Fix,GT,37.4429214,-122.2533589,,31.930988,0.1,124.71335,1590795434447
Fix,GT,37.4427706,-122.2530531,,31.700706,0.1,126.40497,1590795435447
Fix,GT,37.4426139,-122.2527551,,31.457642,0.1,128.06897,1590795436447
Fix,GT,37.4424508,-122.2524655,,31.299164,0.1,130.05994,1590795437447
Fix,GT,37.4422808,-122.2521836,,31.321453,0.1,131.94122,1590795438447
Fix,GT,37.4421025,-122.2519088,,31.395386,0.1,134.13147,1590795439447
Fix,GT,37.4419158,-122.2516425,,31.353199,0.1,136.14377,1590795440447
Fix,GT,37.4417238,-122.2513834,,31.230919,0.1,137.20105,1590795441447
Fix,GT,37.4415296,-122.2511289,,31.133976,0.1,137.91785,1590795442447
Fix,GT,37.4413339,-122.2508771,,31.084446,0.1,138.16406,1590795443447
Fix,GT,37.4411387,-122.2506258,,31.003742,0.1,137.93298,1590795444447
Fix,GT,37.4409451,-122.2503744,,30.857704,0.1,137.70248,1590795445447
Fix,GT,37.4407528,-122.250124,,30.666636,0.1,137.79437,1590795446447
Fix,GT,37.4405615,-122.2498754,,30.479603,0.1,137.80652,1590795447447
Fix,GT,37.440372,-122.2496276,,30.310078,0.1,137.43454,1590795448447
Fix,GT,37.4401844,-122.2493798,,30.179302,0.1,137.22638,1590795449447
Fix,GT,37.4399978,-122.2491322,,30.135391,0.1,137.28406,1590795450447
Fix,GT,37.4398101,-122.248886,,30.11504,0.1,137.78595,1590795451447
Fix,GT,37.4396207,-122.2486426,,30.083263,0.1,138.47552,1590795452447
Fix,GT,37.4394297,-122.2484012,,30.073626,0.1,138.71112,1590795453447
Fix,GT,37.4392389,-122.2481602,,30.071686,0.1,138.59149,1590795454447
Fix,GT,37.4390476,-122.2479189,,30.15907,0.1,138.81036,1590795455447
Fix,GT,37.4388543,-122.2476782,,30.304554,0.1,139.27643,1590795456447
Fix,GT,37.4386589,-122.2474378,,30.47812,0.1,139.52795,1590795457447
Fix,GT,37.4384616,-122.2471962,,30.737934,0.1,139.61206,1590795458447
Fix,GT,37.4382623,-122.2469526,,31.063656,0.1,139.56445,1590795459447
Fix,GT,37.4380607,-122.2467065,,31.394499,0.1,139.72427,1590795460447
Fix,GT,37.4378562,-122.2464593,,31.64046,0.1,140.03998,1590795461447
Fix,GT,37.4376496,-122.2462116,,31.786102,0.1,140.17682,1590795462447
Fix,GT,37.4374421,-122.245963,,31.906298,0.1,140.08017,1590795463447
Fix,GT,37.4372342,-122.2457132,,31.990593,0.1,140.06104,1590795464447
Fix,GT,37.4370261,-122.2454632,,31.962835,0.1,140.1662,1590795465447
Fix,GT,37.4368184,-122.2452146,,31.769566,0.1,140.26328,1590795466447
Fix,GT,37.4366117,-122.2449682,,31.528206,0.1,140.36426,1590795467447
Fix,GT,37.4364058,-122.2447239,,31.418182,0.1,140.42023,1590795468447
Fix,GT,37.4361999,-122.2444797,,31.51474,0.1,140.4714,1590795469447
Fix,GT,37.4359928,-122.2442344,,31.703463,0.1,140.54666,1590795470447
Fix,GT,37.4357847,-122.2439881,,31.809734,0.1,140.6011,1590795471447
Fix,GT,37.4355759,-122.2437417,,31.831617,0.1,140.69992,1590795472447
Fix,GT,37.4353665,-122.2434959,,31.848106,0.1,140.82635,1590795473447
Fix,GT,37.4351566,-122.2432506,,31.83095,0.1,140.844,1590795474447
Fix,GT,37.4349474,-122.243005,,31.771418,0.1,140.55524,1590795475447
Fix,GT,37.43474,-122.2427582,,31.711811,0.1,140.13617,1590795476447
Fix,GT,37.434534,-122.2425105,,31.603508,0.1,139.94543,1590795477447
Fix,GT,37.4343294,-122.2422638,,31.36913,0.1,140.10129,1590795478447
Fix,GT,37.4341257,-122.2420208,,31.003166,0.1,140.45404,1590795479447
Fix,GT,37.4339238,-122.2417821,,30.601486,0.1,140.5625,1590795480447
Fix,GT,37.4337246,-122.2415463,,30.203136,0.1,140.34906,1590795481447
Fix,GT,37.4335288,-122.2413125,,29.840855,0.1,140.12732,1590795482447
Fix,GT,37.4333353,-122.2410804,,29.61376,0.1,140.05127,1590795483447
Fix,GT,37.4331435,-122.2408489,,29.509449,0.1,139.70929,1590795484447
Fix,GT,37.4329542,-122.2406152,,29.447311,0.1,138.90472,1590795485447
Fix,GT,37.4327674,-122.2403792,,29.433002,0.1,138.44199,1590795486447
Fix,GT,37.4325807,-122.2401427,,29.44319,0.1,138.77057,1590795487447
Fix,GT,37.4323922,-122.2399086,,29.458324,0.1,139.4878,1590795488447
Fix,GT,37.4322015,-122.2396768,,29.49462,0.1,139.91284,1590795489447
Fix,GT,37.4320101,-122.2394452,,29.548813,0.1,139.83893,1590795490447
Fix,GT,37.4318188,-122.2392121,,29.63493,0.1,139.52673,1590795491447
Fix,GT,37.4316284,-122.2389768,,29.75031,0.1,139.03705,1590795492447
Fix,GT,37.4314385,-122.2387383,,29.88937,0.1,138.62549,1590795493447
Fix,GT,37.4312491,-122.2384971,,30.040192,0.1,138.16437,1590795494447
Fix,GT,37.4310608,-122.2382523,,30.178131,0.1,137.49585,1590795495447
Fix,GT,37.4308741,-122.2380037,,30.30781,0.1,136.85876,1590795496447
Fix,GT,37.4306883,-122.2377515,,30.492643,0.1,136.38,1590795497447
Fix,GT,37.4305025,-122.2374962,,30.664665,0.1,136.125,1590795498447
Fix,GT,37.430317,-122.2372392,,30.608875,0.1,135.92139,1590795499447
Fix,GT,37.4301333,-122.2369835,,30.302109,0.1,135.8797,1590795500447
Fix,GT,37.4299513,-122.2367311,,29.942652,0.1,136.05334,1590795501447
Fix,GT,37.429771,-122.2364821,,29.591534,0.1,136.01031,1590795502447
Fix,GT,37.429593,-122.2362355,,29.305756,0.1,135.96124,1590795503447
Fix,GT,37.4294164,-122.2359906,,29.198109,0.1,136.03699,1590795504447
Fix,GT,37.4292392,-122.235746,,29.34066,0.1,136.1865,1590795505447
Fix,GT,37.4290604,-122.2354997,,29.639748,0.1,136.14435,1590795506447
Fix,GT,37.4288799,-122.2352504,,29.990055,0.1,135.9888,1590795507447
Fix,GT,37.4286974,-122.2349974,,30.40683,0.1,135.97238,1590795508447
Fix,GT,37.4285124,-122.2347409,,30.76057,0.1,135.94116,1590795509447
Fix,GT,37.4283258,-122.2344823,,30.99067,0.1,135.97302,1590795510447
Fix,GT,37.4281377,-122.2342217,,31.234024,0.1,136.06418,1590795511447
Fix,GT,37.4279474,-122.2339594,,31.552538,0.1,136.23962,1590795512447
Fix,GT,37.427754,-122.2336954,,31.907469,0.1,136.55078,1590795513447
Fix,GT,37.4275577,-122.2334294,,32.24727,0.1,136.69794,1590795514447
Fix,GT,37.4273587,-122.2331613,,32.567917,0.1,136.88806,1590795515447
Fix,GT,37.4271571,-122.2328916,,32.853004,0.1,137.08197,1590795516447
Fix,GT,37.4269535,-122.2326202,,33.118435,0.1,137.26447,1590795517447
Fix,GT,37.4267469,-122.2323477,,33.434654,0.1,137.58978,1590795518447
Fix,GT,37.4265369,-122.232074,,33.81984,0.1,137.85999,1590795519447
Fix,GT,37.4263238,-122.2317974,,34.25355,0.1,137.86285,1590795520447
Fix,GT,37.4261081,-122.2315174,,34.618114,0.1,137.76343,1590795521447
Fix,GT,37.4258913,-122.2312347,,34.75425,0.1,137.6766,1590795522447
Fix,GT,37.4256747,-122.2309514,,34.712757,0.1,137.62955,1590795523447
Fix,GT,37.4254591,-122.2306682,,34.58621,0.1,137.38226,1590795524447
Fix,GT,37.4252458,-122.2303849,,34.34993,0.1,136.9455,1590795525447
Fix,GT,37.4250361,-122.2301019,,34.049255,0.1,136.54324,1590795526447
Fix,GT,37.4248299,-122.2298196,,33.748047,0.1,136.03522,1590795527447
Fix,GT,37.4246275,-122.2295372,,33.481388,0.1,135.55438,1590795528447
Fix,GT,37.4244282,-122.2292554,,33.19282,0.1,135.24438,1590795529447
Fix,GT,37.4242321,-122.2289753,,32.765705,0.1,134.94748,1590795530447
Fix,GT,37.4240395,-122.2286978,,32.355515,0.1,134.81586,1590795531447
Fix,GT,37.4238492,-122.2284237,,31.988407,0.1,134.96216,1590795532447
Fix,GT,37.4236606,-122.2281538,,31.523518,0.1,135.1063,1590795533447
Fix,GT,37.4234746,-122.227888,,31.128849,0.1,135.01404,1590795534447
Fix,GT,37.4232912,-122.2276244,,30.750118,0.1,134.77289,1590795535447
Fix,GT,37.4231111,-122.2273637,,30.32715,0.1,134.64221,1590795536447
Fix,GT,37.4229334,-122.2271058,,30.024574,0.1,134.5774,1590795537447
Fix,GT,37.4227574,-122.2268497,,29.850414,0.1,134.54367,1590795538447
Fix,GT,37.4225821,-122.2265946,,29.788303,0.1,134.57928,1590795539447
Fix,GT,37.4224069,-122.2263398,,29.776665,0.1,134.56494,1590795540447
Fix,GT,37.4222319,-122.2260852,,29.740599,0.1,134.56927,1590795541447
Fix,GT,37.4220568,-122.2258309,,29.741695,0.1,134.65729,1590795542447
Fix,GT,37.4218816,-122.2255765,,29.775791,0.1,134.64545,1590795543447
Fix,GT,37.4217061,-122.2253217,,29.807945,0.1,134.60349,1590795544447
Fix,GT,37.4215305,-122.2250664,,29.87035,0.1,134.67413,1590795545447
Fix,GT,37.4213543,-122.2248107,,29.951593,0.1,134.76047,1590795546447
Fix,GT,37.421177,-122.2245551,,30.042122,0.1,134.94897,1590795547447
Fix,GT,37.4209984,-122.2242993,,30.156668,0.1,135.08575,1590795548447
Fix,GT,37.4208191,-122.2240421,,30.28907,0.1,134.8714,1590795549447
Fix,GT,37.4206405,-122.2237826,,30.407022,0.1,134.40887,1590795550447
Fix,GT,37.4204635,-122.2235196,,30.516777,0.1,133.49762,1590795551447
Fix,GT,37.4202905,-122.223251,,30.62259,0.1,131.85474,1590795552447
Fix,GT,37.4201244,-122.2229743,,30.72435,0.1,129.62482,1590795553447
Fix,GT,37.4199666,-122.2226887,,30.838232,0.1,127.41803,1590795554447
Fix,GT,37.4198168,-122.2223947,,30.955158,0.1,125.357666,1590795555447
Fix,GT,37.4196751,-122.2220931,,31.049402,0.1,123.19125,1590795556447
Fix,GT,37.4195431,-122.2217839,,31.083752,0.1,120.65173,1590795557447
Fix,GT,37.4194227,-122.2214674,,31.038797,0.1,118.06494,1590795558447
Fix,GT,37.4193134,-122.221146,,30.83831,0.1,115.805115,1590795559447
Fix,GT,37.4192148,-122.2208221,,30.570984,0.1,113.5903,1590795560447
Fix,GT,37.419127,-122.2204958,,30.482296,0.1,111.37735,1590795561447
Fix,GT,37.4190486,-122.2201657,,30.530045,0.1,109.368744,1590795562447
Fix,GT,37.4189795,-122.2198316,,30.61919,0.1,107.22888,1590795563447
Fix,GT,37.4189201,-122.2194935,,30.73931,0.1,105.27588,1590795564447
Fix,GT,37.4188675,-122.2191519,,30.841103,0.1,104.30362,1590795565447
Fix,GT,37.4188173,-122.2188089,,30.888714,0.1,104.086,1590795566447
Fix,GT,37.4187677,-122.2184661,,30.755394,0.1,104.08298,1590795567447
Fix,GT,37.4187181,-122.2181261,,30.413342,0.1,104.22012,1590795568447
Fix,GT,37.4186683,-122.2177903,,30.081377,0.1,104.40939,1590795569447
Fix,GT,37.4186184,-122.2174575,,29.889648,0.1,104.42578,1590795570447
Fix,GT,37.4185688,-122.2171262,,29.780785,0.1,104.44318,1590795571447
Fix,GT,37.4185194,-122.2167963,,29.674597,0.1,104.36221,1590795572447
Fix,GT,37.4184703,-122.216467,,29.656311,0.1,104.498535,1590795573447
Fix,GT,37.4184189,-122.2161379,,29.732979,0.1,105.38336,1590795574447
Fix,GT,37.4183612,-122.2158095,,29.785341,0.1,107.15961,1590795575447
Fix,GT,37.4182942,-122.2154835,,29.795973,0.1,109.33078,1590795576447
Fix,GT,37.4182178,-122.2151606,,29.810104,0.1,111.31027,1590795577447
Fix,GT,37.4181322,-122.2148412,,29.847513,0.1,113.470215,1590795578447
Fix,GT,37.4180364,-122.2145257,,29.911196,0.1,115.83002,1590795579447
Fix,GT,37.41793,-122.2142147,,29.970675,0.1,118.16431,1590795580447
Fix,GT,37.4178138,-122.2139088,,30.021114,0.1,120.46619,1590795581447
Fix,GT,37.4176873,-122.2136086,,30.070974,0.1,122.972046,1590795582447
Fix,GT,37.4175494,-122.2133156,,30.124493,0.1,125.68207,1590795583447
Fix,GT,37.4174009,-122.2130301,,30.178759,0.1,128.10706,1590795584447
Fix,GT,37.4172436,-122.2127515,,30.225208,0.1,130.07663,1590795585447
Fix,GT,37.4170787,-122.2124794,,30.21725,0.1,132.0907,1590795586447
Fix,GT,37.4169063,-122.2122154,,30.177639,0.1,134.2445,1590795587447
Fix,GT,37.4167264,-122.2119601,,30.119457,0.1,136.52179,1590795588447
Fix,GT,37.4165381,-122.2117155,,30.074121,0.1,139.10754,1590795589447
Fix,GT,37.4163419,-122.2114814,,30.047848,0.1,141.25687,1590795590447
Fix,GT,37.4161399,-122.2112553,,30.047577,0.1,142.84708,1590795591447
Fix,GT,37.4159331,-122.2110359,,30.093914,0.1,144.24881,1590795592447
Fix,GT,37.4157226,-122.2108209,,30.186579,0.1,144.99017,1590795593447
Fix,GT,37.4155105,-122.2106069,,30.23061,0.1,144.95087,1590795594447
Fix,GT,37.4152991,-122.2103922,,30.12793,0.1,144.76764,1590795595447
Fix,GT,37.4150887,-122.2101782,,30.013931,0.1,144.71698,1590795596447
Fix,GT,37.4148797,-122.2099634,,30.024399,0.1,144.15155,1590795597447
Fix,GT,37.4146733,-122.2097435,,30.118185,0.1,142.7591,1590795598447
Fix,GT,37.4144715,-122.209516,,30.151356,0.1,140.8688,1590795599447
Fix,GT,37.4142765,-122.2092796,,30.10431,0.1,138.7074,1590795600447
Fix,GT,37.4140887,-122.2090344,,30.142467,0.1,136.59451,1590795601447
Fix,GT,37.4139076,-122.2087796,,30.340712,0.1,134.38647,1590795602447
Fix,GT,37.4137335,-122.2085137,,30.615253,0.1,131.95355,1590795603447
Fix,GT,37.4135673,-122.2082363,,30.85912,0.1,129.52103,1590795604447
Fix,GT,37.4134093,-122.2079483,,31.096464,0.1,126.98349,1590795605447
Fix,GT,37.4132601,-122.2076503,,31.22877,0.1,124.58246,1590795606447
Fix,GT,37.4131202,-122.2073443,,31.25931,0.1,122.479065,1590795607447
Fix,GT,37.4129895,-122.2070319,,31.2415,0.1,120.56052,1590795608447
Fix,GT,37.4128656,-122.2067156,,31.148035,0.1,119.441315,1590795609447
Fix,GT,37.4127463,-122.2063977,,31.08779,0.1,118.467926,1590795610447
Fix,GT,37.4126321,-122.2060771,,31.14054,0.1,117.370514,1590795611447
Fix,GT,37.4125214,-122.205753,,31.303753,0.1,116.56546,1590795612447
Fix,GT,37.412413,-122.2054253,,31.513256,0.1,116.0007,1590795613447
Fix,GT,37.4123067,-122.2050942,,31.673,0.1,115.46924,1590795614447
Fix,GT,37.4122018,-122.2047606,,31.80685,0.1,115.27136,1590795615447
Fix,GT,37.4120963,-122.2044257,,31.952114,0.1,115.520966,1590795616447
Fix,GT,37.4119888,-122.20409,,32.09292,0.1,115.77692,1590795617447
Fix,GT,37.4118802,-122.2037534,,32.191975,0.1,115.766785,1590795618447
Fix,GT,37.4117714,-122.2034159,,32.24812,0.1,115.71628,1590795619447
Fix,GT,37.4116629,-122.2030778,,32.278538,0.1,115.5791,1590795620447
Fix,GT,37.4115552,-122.202739,,32.269833,0.1,115.39499,1590795621447
Fix,GT,37.4114483,-122.2024002,,32.23651,0.1,115.288025,1590795622447
Fix,GT,37.4113421,-122.2020617,,32.17815,0.1,115.22305,1590795623447
Fix,GT,37.411236,-122.2017241,,32.074966,0.1,115.37625,1590795624447
Fix,GT,37.4111292,-122.2013885,,31.929867,0.1,115.69617,1590795625447
Fix,GT,37.4110216,-122.2010553,,31.701279,0.1,115.921844,1590795626447
Fix,GT,37.4109146,-122.2007254,,31.328957,0.1,115.90906,1590795627447
Fix,GT,37.4108094,-122.2003999,,30.865704,0.1,115.81592,1590795628447
Fix,GT,37.4107058,-122.2000789,,30.452747,0.1,115.748505,1590795629447
Fix,GT,37.4106039,-122.1997619,,30.054245,0.1,115.63309,1590795630447
Fix,GT,37.4105037,-122.1994495,,29.530075,0.1,115.71515,1590795631447
Fix,GT,37.4104051,-122.1991437,,28.825298,0.1,115.78961,1590795632447
Fix,GT,37.4103091,-122.1988462,,28.013283,0.1,115.681335,1590795633447
Fix,GT,37.4102168,-122.1985562,,27.257362,0.1,115.34369,1590795634447
Fix,GT,37.410128,-122.1982737,,26.523827,0.1,115.204834,1590795635447
Fix,GT,37.4100411,-122.1979982,,25.9316,0.1,115.39917,1590795636447
Fix,GT,37.4099555,-122.1977284,,25.530499,0.1,115.546265,1590795637447
Fix,GT,37.4098702,-122.197462,,25.34359,0.1,115.680084,1590795638447
Fix,GT,37.4097848,-122.1971967,,25.347954,0.1,115.752014,1590795639447
Fix,GT,37.4096994,-122.1969312,,25.331615,0.1,115.63266,1590795640447
Fix,GT,37.409615,-122.1966657,,25.263758,0.1,115.31119,1590795641447
Fix,GT,37.4095318,-122.1964006,,25.133387,0.1,115.174866,1590795642447
Fix,GT,37.4094491,-122.1961377,,24.895817,0.1,115.42102,1590795643447
Fix,GT,37.4093664,-122.195878,,24.65329,0.1,115.59,1590795644447
Fix,GT,37.4092841,-122.19562,,24.580048,0.1,115.557526,1590795645447
Fix,GT,37.4092016,-122.1953619,,24.672676,0.1,115.72482,1590795646447
Fix,GT,37.4091175,-122.1951026,,24.8987,0.1,115.97388,1590795647447
Fix,GT,37.4090321,-122.1948409,,25.162647,0.1,116.08667,1590795648447
Fix,GT,37.4089459,-122.1945769,,25.336315,0.1,115.983215,1590795649447
Fix,GT,37.4088599,-122.1943109,,25.428543,0.1,115.78473,1590795650447
Fix,GT,37.4087742,-122.1940448,,25.333092,0.1,115.64288,1590795651447
Fix,GT,37.4086901,-122.1937805,,25.008219,0.1,115.33441,1590795652447
Fix,GT,37.4086082,-122.1935198,,24.604698,0.1,115.25769,1590795653447
Fix,GT,37.4085271,-122.1932634,,24.262764,0.1,115.449036,1590795654447
Fix,GT,37.4084464,-122.1930099,,24.100426,0.1,115.632965,1590795655447
Fix,GT,37.4083648,-122.1927581,,24.011005,0.1,116.18048,1590795656447
Fix,GT,37.4082805,-122.1925091,,23.85617,0.1,117.43558,1590795657447
Fix,GT,37.4081917,-122.1922649,,23.664864,0.1,119.03897,1590795658447
Fix,GT,37.4080981,-122.1920258,,23.49619,0.1,120.69348,1590795659447
Fix,GT,37.4079999,-122.1917914,,23.358475,0.1,122.1488,1590795660447
Fix,GT,37.4078983,-122.1915612,,23.221344,0.1,123.22778,1590795661447
Fix,GT,37.4077939,-122.1913346,,23.09507,0.1,124.421936,1590795662447
Fix,GT,37.4076859,-122.1911124,,22.979591,0.1,125.84927,1590795663447
Fix,GT,37.4075738,-122.1908947,,22.892273,0.1,127.35672,1590795664447
Fix,GT,37.4074575,-122.1906816,,22.813206,0.1,128.86868,1590795665447
Fix,GT,37.4073375,-122.190473,,22.731144,0.1,130.22937,1590795666447
Fix,GT,37.4072139,-122.1902685,,22.680157,0.1,131.53406,1590795667447
Fix,GT,37.4070862,-122.1900687,,22.65797,0.1,133.42853,1590795668447
Fix,GT,37.4069531,-122.1898748,,22.622444,0.1,135.36969,1590795669447
Fix,GT,37.406816,-122.189686,,22.56573,0.1,136.64526,1590795670447
Fix,GT,37.4066763,-122.1895013,,22.483616,0.1,137.82678,1590795671447
Fix,GT,37.4065343,-122.1893212,,22.350157,0.1,139.0351,1590795672447
Fix,GT,37.4063901,-122.1891466,,22.09375,0.1,140.49362,1590795673447
Fix,GT,37.4062441,-122.1889799,,21.759304,0.1,142.39728,1590795674447
Fix,GT,37.4060954,-122.1888217,,21.537834,0.1,144.48694,1590795675447
Fix,GT,37.4059432,-122.1886716,,21.483475,0.1,146.61203,1590795676447
Fix,GT,37.405787,-122.1885282,,21.49027,0.1,148.24438,1590795677447
Fix,GT,37.405629,-122.1883875,,21.566357,0.1,148.43137,1590795678447
Fix,GT,37.4054707,-122.188244,,21.78952,0.1,147.62216,1590795679447
Fix,GT,37.4053117,-122.188097,,22.064566,0.1,147.51495,1590795680447
Fix,GT,37.4051499,-122.1879492,,22.375717,0.1,147.95001,1590795681447
Fix,GT,37.4049853,-122.1878002,,22.705357,0.1,148.04453,1590795682447
Fix,GT,37.4048182,-122.187649,,23.028969,0.1,147.92844,1590795683447
Fix,GT,37.4046492,-122.187495,,23.336836,0.1,147.64343,1590795684447
Fix,GT,37.404479,-122.187338,,23.578766,0.1,147.30081,1590795685447
Fix,GT,37.4043078,-122.1871786,,23.768988,0.1,147.17548,1590795686447
Fix,GT,37.4041354,-122.1870174,,23.965488,0.1,147.06659,1590795687447
Fix,GT,37.4039619,-122.1868547,,24.11855,0.1,147.03412,1590795688447
Fix,GT,37.4037874,-122.1866908,,24.270828,0.1,146.93887,1590795689447
Fix,GT,37.4036122,-122.1865248,,24.481518,0.1,146.55664,1590795690447
Fix,GT,37.4034365,-122.1863553,,24.76812,0.1,146.1018,1590795691447
Fix,GT,37.4032592,-122.1861824,,25.100681,0.1,145.90875,1590795692447
Fix,GT,37.4030797,-122.1860065,,25.438772,0.1,145.78568,1590795693447
Fix,GT,37.4028986,-122.1858277,,25.750675,0.1,145.57312,1590795694447
Fix,GT,37.4027157,-122.1856459,,26.049562,0.1,145.45648,1590795695447
Fix,GT,37.4025306,-122.1854621,,26.36385,0.1,145.45245,1590795696447
Fix,GT,37.4023436,-122.1852757,,26.659569,0.1,145.237,1590795697447
Fix,GT,37.4021551,-122.1850868,,26.911272,0.1,145.21094,1590795698447
Fix,GT,37.4019645,-122.1848967,,27.145678,0.1,145.37622,1590795699447
Fix,GT,37.4017723,-122.1847054,,27.347473,0.1,145.30621,1590795700447
Fix,GT,37.401579,-122.1845119,,27.532787,0.1,145.09668,1590795701447
Fix,GT,37.4013851,-122.1843162,,27.72805,0.1,144.8648,1590795702447
Fix,GT,37.4011904,-122.1841181,,27.929657,0.1,144.75049,1590795703447
Fix,GT,37.4009943,-122.1839187,,28.127014,0.1,144.76654,1590795704447
Fix,GT,37.4007968,-122.1837176,,28.337822,0.1,144.75323,1590795705447
Fix,GT,37.400598,-122.1835149,,28.534966,0.1,144.72754,1590795706447
Fix,GT,37.4003979,-122.1833108,,28.69686,0.1,144.74402,1590795707447
Fix,GT,37.4001965,-122.1831062,,28.848988,0.1,144.83557,1590795708447
Fix,GT,37.3999942,-122.1829006,,28.928589,0.1,144.68512,1590795709447
Fix,GT,37.3997925,-122.1826936,,28.927803,0.1,144.36536,1590795710447
Fix,GT,37.3995915,-122.1824859,,28.896477,0.1,144.39233,1590795711447
Fix,GT,37.3993905,-122.1822791,,28.826015,0.1,144.5766,1590795712447
Fix,GT,37.3991896,-122.1820735,,28.75822,0.1,144.74982,1590795713447
Fix,GT,37.3989885,-122.1818692,,28.702307,0.1,144.97461,1590795714447
Fix,GT,37.398787,-122.1816663,,28.668484,0.1,145.15811,1590795715447
Fix,GT,37.3985856,-122.1814637,,28.645954,0.1,145.02582,1590795716447
Fix,GT,37.398385,-122.1812602,,28.653456,0.1,144.8858,1590795717447
Fix,GT,37.3981844,-122.1810563,,28.694363,0.1,144.93842,1590795718447
Fix,GT,37.3979829,-122.1808529,,28.71548,0.1,145.07382,1590795719447
Fix,GT,37.3977811,-122.1806498,,28.72842,0.1,145.04727,1590795720447
Fix,GT,37.3975799,-122.1804458,,28.716162,0.1,144.75952,1590795721447
Fix,GT,37.3973795,-122.180241,,28.655655,0.1,144.65982,1590795722447
