MessageType,Provider,LatitudeDegrees,LongitudeDegrees,AltitudeMeters,SpeedMps,AccuracyMeters,BearingDegrees,UnixTimeMillis
Fix,GT,37.7769417,-122.3935108,,10.639444,0.1,231.00356,1590701019445
Fix,GT,37.7768717,-122.393599,,11.506675,0.1,230.19398,1590701020445
Fix,GT,37.7767946,-122.3936963,,12.580102,0.1,230.33241,1590701021445
Fix,GT,37.7767128,-122.3937993,,12.948864,0.1,230.07057,1590701022445
Fix,GT,37.7766295,-122.3939025,,12.947591,0.1,229.52159,1590701023445
Fix,GT,37.776546,-122.3940048,,12.906412,0.1,229.39859,1590701024445
Fix,GT,37.7764625,-122.3941062,,12.8816185,0.1,229.12318,1590701025445
Fix,GT,37.7763783,-122.3942068,,12.898433,0.1,228.61147,1590701026445
Fix,GT,37.7762931,-122.3943075,,13.027791,0.1,228.39748,1590701027445
Fix,GT,37.7762074,-122.3944101,,13.259518,0.1,229.02277,1590701028445
Fix,GT,37.7761205,-122.3945159,,13.576241,0.1,229.52957,1590701029445
Fix,GT,37.7760319,-122.3946249,,13.927122,0.1,229.66992,1590701030445
Fix,GT,37.7759416,-122.3947374,,14.232706,0.1,230.10957,1590701031445
Fix,GT,37.77585,-122.3948533,,14.585598,0.1,230.51942,1590701032445
Fix,GT,37.7757569,-122.3949728,,14.892931,0.1,230.85805,1590701033445
Fix,GT,37.7756625,-122.3950947,,15.063871,0.1,230.9891,1590701034445
Fix,GT,37.7755681,-122.3952164,,14.811504,0.1,230.77263,1590701035445
Fix,GT,37.7754766,-122.3953329,,14.002829,0.1,230.39362,1590701036445
Fix,GT,37.7753906,-122.3954411,,13.028347,0.1,230.07463,1590701037445
Fix,GT,37.7753105,-122.3955412,,12.122741,0.1,229.9271,1590701038445
Fix,GT,37.7752347,-122.3956356,,11.678703,0.1,229.92665,1590701039445
Fix,GT,37.77516,-122.395729,,11.753485,0.1,229.9784,1590701040445
Fix,GT,37.7750835,-122.3958249,,12.309643,0.1,230.15932,1590701041445
Fix,GT,37.7750023,-122.3959277,,13.21644,0.1,230.4885,1590701042445
Fix,GT,37.7749159,-122.396038,,14.090862,0.1,230.60667,1590701043445
Fix,GT,37.7748239,-122.3961549,,14.876063,0.1,230.45425,1590701044445
Fix,GT,37.7747273,-122.3962771,,15.473291,0.1,230.44499,1590701045445
Fix,GT,37.7746279,-122.3964035,,15.863634,0.1,230.70802,1590701046445
Fix,GT,37.7745271,-122.3965335,,16.182344,0.1,230.92432,1590701047445
Fix,GT,37.774424,-122.3966665,,16.598225,0.1,230.91945,1590701048445
Fix,GT,37.7743176,-122.3968026,,17.06294,0.1,230.57625,1590701049445
Fix,GT,37.7742075,-122.3969414,,17.527573,0.1,230.18784,1590701050445
Fix,GT,37.7740942,-122.3970836,,17.93396,0.1,230.28534,1590701051445
Fix,GT,37.7739792,-122.3972288,,18.196472,0.1,230.36195,1590701052445
Fix,GT,37.7738618,-122.3973742,,18.348515,0.1,229.38622,1590701053445
Fix,GT,37.773741,-122.3975168,,18.389322,0.1,227.62341,1590701054445
Fix,GT,37.7736156,-122.3976513,,18.213985,0.1,224.14815,1590701055445
Fix,GT,37.7734833,-122.3977706,,18.051315,0.1,218.4837,1590701056445
Fix,GT,37.7733427,-122.3978732,,18.128334,0.1,213.11565,1590701057445
Fix,GT,37.7731942,-122.3979598,,18.308624,0.1,207.8673,1590701058445
Fix,GT,37.7730385,-122.3980287,,18.457352,0.1,202.25201,1590701059445
Fix,GT,37.772877,-122.3980779,,18.60019,0.1,196.44417,1590701060445
Fix,GT,37.7727106,-122.3981069,,18.82801,0.1,190.89032,1590701061445
Fix,GT,37.7725396,-122.3981171,,19.23955,0.1,186.05743,1590701062445
Fix,GT,37.7723645,-122.3981106,,19.713013,0.1,181.93367,1590701063445
Fix,GT,37.7721858,-122.3980911,,20.240046,0.1,179.65985,1590701064445
Fix,GT,37.7720009,-122.3980691,,21.066505,0.1,180.4591,1590701065445
Fix,GT,37.7718062,-122.3980524,,22.197826,0.1,181.93224,1590701066445
Fix,GT,37.7716019,-122.3980377,,23.209044,0.1,181.96796,1590701067445
Fix,GT,37.7713909,-122.3980202,,23.653564,0.1,181.09866,1590701068445
Fix,GT,37.7711785,-122.397997,,23.618677,0.1,179.7566,1590701069445
Fix,GT,37.7709665,-122.3979698,,23.77237,0.1,179.32019,1590701070445
Fix,GT,37.7707529,-122.3979422,,23.871994,0.1,179.58118,1590701071445
Fix,GT,37.7705396,-122.3979142,,23.715294,0.1,179.34918,1590701072445
Fix,GT,37.7703271,-122.3978855,,23.798157,0.1,179.17786,1590701073445
Fix,GT,37.7701127,-122.3978553,,24.1141,0.1,178.70166,1590701074445
Fix,GT,37.7698962,-122.3978195,,24.372028,0.1,176.91364,1590701075445
Fix,GT,37.7696792,-122.3977715,,24.575962,0.1,173.92438,1590701076445
Fix,GT,37.7694634,-122.3977065,,24.7892,0.1,170.12323,1590701077445
Fix,GT,37.7692498,-122.3976224,,24.994705,0.1,166.11536,1590701078445
Fix,GT,37.7690399,-122.3975184,,25.16988,0.1,161.77533,1590701079445
Fix,GT,37.7688352,-122.3973937,,25.363434,0.1,157.91333,1590701080445
Fix,GT,37.7686347,-122.3972538,,25.575294,0.1,155.09424,1590701081445
Fix,GT,37.7684385,-122.3970998,,25.790226,0.1,151.8099,1590701082445
Fix,GT,37.7682485,-122.3969296,,26.055645,0.1,148.05396,1590701083445
Fix,GT,37.7680664,-122.3967416,,26.351038,0.1,144.10883,1590701084445
Fix,GT,37.7678918,-122.3965373,,26.589,0.1,141.38239,1590701085445
Fix,GT,37.7677203,-122.3963248,,26.815119,0.1,140.39117,1590701086445
Fix,GT,37.7675491,-122.3961082,,27.058535,0.1,139.97705,1590701087445
Fix,GT,37.7673774,-122.3958882,,27.298979,0.1,139.63904,1590701088445
Fix,GT,37.7672046,-122.3956659,,27.50922,0.1,139.83179,1590701089445
Fix,GT,37.7670297,-122.3954435,,27.679407,0.1,140.38574,1590701090445
Fix,GT,37.7668518,-122.3952219,,27.850916,0.1,140.7442,1590701091445
Fix,GT,37.7666723,-122.3949997,,28.043375,0.1,140.79541,1590701092445
Fix,GT,37.7664911,-122.3947759,,28.302803,0.1,141.04874,1590701093445
Fix,GT,37.7663048,-122.394554,,28.576279,0.1,142.81543,1590701094445
Fix,GT,37.7661103,-122.3943399,,28.722954,0.1,145.44229,1590701095445
Fix,GT,37.7659069,-122.3941378,,28.754787,0.1,148.73474,1590701096445
Fix,GT,37.7656935,-122.393953,,28.74398,0.1,152.80072,1590701097445
Fix,GT,37.7654705,-122.3937875,,28.709526,0.1,156.66083,1590701098445
Fix,GT,37.7652405,-122.3936385,,28.718842,0.1,159.30652,1590701099445
Fix,GT,37.7650051,-122.3935,,28.986618,0.1,161.177,1590701100445
Fix,GT,37.7647625,-122.3933701,,29.52361,0.1,163.39258,1590701101445
Fix,GT,37.7645116,-122.3932511,,29.988785,0.1,166.12543,1590701102445
Fix,GT,37.7642527,-122.3931477,,30.319101,0.1,169.4964,1590701103445
Fix,GT,37.7639868,-122.3930636,,30.545885,0.1,172.96472,1590701104445
Fix,GT,37.763716,-122.3929978,,30.677208,0.1,175.75067,1590701105445
Fix,GT,37.7634422,-122.3929471,,30.75693,0.1,178.03827,1590701106445
Fix,GT,37.7631666,-122.3929088,,30.773087,0.1,179.77356,1590701107445
Fix,GT,37.7628908,-122.3928772,,30.675484,0.1,180.26418,1590701108445
Fix,GT,37.7626167,-122.3928466,,30.381863,0.1,180.10342,1590701109445
Fix,GT,37.7623457,-122.392815,,30.017569,0.1,179.83313,1590701110445
Fix,GT,37.7620777,-122.3927826,,29.752274,0.1,179.74768,1590701111445
Fix,GT,37.7618118,-122.3927505,,29.543478,0.1,179.92273,1590701112445
Fix,GT,37.7615475,-122.3927202,,29.37553,0.1,180.20868,1590701113445
Fix,GT,37.7612844,-122.3926913,,29.251846,0.1,180.37592,1590701114445
Fix,GT,37.7610224,-122.3926628,,29.149872,0.1,180.37979,1590701115445
Fix,GT,37.7607608,-122.3926346,,29.119553,0.1,180.52031,1590701116445
Fix,GT,37.7604992,-122.3926074,,29.140444,0.1,180.63422,1590701117445
Fix,GT,37.7602373,-122.3925812,,29.198488,0.1,181.02295,1590701118445
Fix,GT,37.7599745,-122.3925588,,29.258938,0.1,181.94608,1590701119445
Fix,GT,37.7597111,-122.3925419,,29.235119,0.1,182.89297,1590701120445
Fix,GT,37.7594485,-122.3925306,,29.025328,0.1,183.84186,1590701121445
Fix,GT,37.7591884,-122.3925257,,28.715784,0.1,184.93497,1590701122445
Fix,GT,37.7589309,-122.3925264,,28.423763,0.1,185.75418,1590701123445
Fix,GT,37.758676,-122.3925298,,28.114613,0.1,186.03214,1590701124445
Fix,GT,37.7584238,-122.3925348,,27.892395,0.1,186.2737,1590701125445
Fix,GT,37.7581729,-122.3925402,,27.80727,0.1,186.24237,1590701126445
Fix,GT,37.7579231,-122.3925445,,27.590553,0.1,186.07153,1590701127445
Fix,GT,37.7576762,-122.392549,,27.234783,0.1,186.34377,1590701128445
Fix,GT,37.7574317,-122.3925542,,27.048653,0.1,186.30151,1590701129445
Fix,GT,37.757188,-122.3925585,,26.99165,0.1,186.06064,1590701130445
Fix,GT,37.756945,-122.392561,,26.955809,0.1,185.5549,1590701131445
Fix,GT,37.756702,-122.3925582,,27.041191,0.1,183.93533,1590701132445
Fix,GT,37.7564578,-122.3925452,,27.23713,0.1,181.90955,1590701133445
Fix,GT,37.7562124,-122.3925203,,27.454277,0.1,179.53815,1590701134445
Fix,GT,37.7559662,-122.3924821,,27.643967,0.1,177.16284,1590701135445
Fix,GT,37.75572,-122.3924317,,27.762474,0.1,175.04224,1590701136445
Fix,GT,37.7554747,-122.3923686,,27.888783,0.1,172.62817,1590701137445
Fix,GT,37.7552299,-122.3922929,,28.073002,0.1,170.6175,1590701138445
Fix,GT,37.7549852,-122.392209,,28.255241,0.1,169.6911,1590701139445
Fix,GT,37.7547396,-122.3921218,,28.436228,0.1,169.34265,1590701140445
Fix,GT,37.7544925,-122.3920328,,28.621195,0.1,169.44025,1590701141445
Fix,GT,37.7542435,-122.3919452,,28.76472,0.1,170.0733,1590701142445
Fix,GT,37.7539922,-122.3918625,,28.896305,0.1,171.36115,1590701143445
Fix,GT,37.7537376,-122.3917898,,29.075079,0.1,173.90778,1590701144445
Fix,GT,37.7534785,-122.3917335,,29.30238,0.1,177.00073,1590701145445
Fix,GT,37.7532153,-122.3916923,,29.577686,0.1,179.1651,1590701146445
Fix,GT,37.7529485,-122.3916622,,29.898308,0.1,181.11601,1590701147445
Fix,GT,37.7526781,-122.3916455,,30.171942,0.1,183.88036,1590701148445
Fix,GT,37.7524055,-122.3916461,,30.368347,0.1,186.8844,1590701149445
Fix,GT,37.752131,-122.3916642,,30.672722,0.1,189.5417,1590701150445
Fix,GT,37.7518546,-122.3916985,,30.919884,0.1,192.37491,1590701151445
Fix,GT,37.7515792,-122.3917513,,30.86625,0.1,195.54597,1590701152445
Fix,GT,37.7513077,-122.3918224,,30.659046,0.1,198.49162,1590701153445
Fix,GT,37.7510415,-122.3919094,,30.38776,0.1,201.39867,1590701154445
Fix,GT,37.7507824,-122.3920128,,29.901775,0.1,204.45807,1590701155445
Fix,GT,37.7505327,-122.392129,,29.120861,0.1,206.44687,1590701156445
Fix,GT,37.7502919,-122.3922478,,28.312946,0.1,206.83011,1590701157445
Fix,GT,37.7500574,-122.3923631,,27.594273,0.1,206.2736,1590701158445
Fix,GT,37.749828,-122.392473,,26.875393,0.1,206.09438,1590701159445
Fix,GT,37.7496051,-122.3925805,,26.118994,0.1,206.48445,1590701160445
Fix,GT,37.7493891,-122.3926881,,25.463943,0.1,207.14586,1590701161445
Fix,GT,37.7491775,-122.3927943,,25.166939,0.1,206.784,1590701162445
Fix,GT,37.7489663,-122.3928971,,25.140915,0.1,206.16678,1590701163445
Fix,GT,37.7487549,-122.3929985,,25.084574,0.1,206.3053,1590701164445
Fix,GT,37.7485441,-122.3931004,,25.068659,0.1,206.18172,1590701165445
Fix,GT,37.7483316,-122.3931999,,25.285612,0.1,205.29135,1590701166445
Fix,GT,37.7481147,-122.3932964,,25.786913,0.1,204.44424,1590701167445
Fix,GT,37.7478934,-122.3933938,,26.237751,0.1,204.88625,1590701168445
Fix,GT,37.7476699,-122.393497,,26.566034,0.1,206.01523,1590701169445
Fix,GT,37.7474459,-122.3936063,,26.748592,0.1,206.79268,1590701170445
Fix,GT,37.7472213,-122.3937177,,26.85859,0.1,206.64267,1590701171445
Fix,GT,37.7469946,-122.3938274,,27.044212,0.1,206.05821,1590701172445
Fix,GT,37.7467662,-122.3939371,,27.163998,0.1,206.48807,1590701173445
Fix,GT,37.7465388,-122.3940527,,27.236588,0.1,208.11281,1590701174445
Fix,GT,37.7463139,-122.3941779,,27.30606,0.1,210.01433,1590701175445
Fix,GT,37.7460919,-122.3943124,,27.386053,0.1,211.90466,1590701176445
Fix,GT,37.7458731,-122.3944563,,27.418415,0.1,213.63763,1590701177445
Fix,GT,37.7456576,-122.394608,,27.415651,0.1,215.3466,1590701178445
Fix,GT,37.7454454,-122.3947676,,27.447838,0.1,216.96487,1590701179445
Fix,GT,37.7452366,-122.3949347,,27.456028,0.1,218.35742,1590701180445
Fix,GT,37.7450308,-122.3951075,,27.445854,0.1,219.63596,1590701181445
Fix,GT,37.7448281,-122.3952857,,27.442802,0.1,220.7251,1590701182445
Fix,GT,37.7446274,-122.3954674,,27.451855,0.1,221.15485,1590701183445
Fix,GT,37.7444264,-122.3956491,,27.502335,0.1,220.64424,1590701184445
Fix,GT,37.7442231,-122.3958281,,27.576546,0.1,219.96805,1590701185445
Fix,GT,37.7440188,-122.3960064,,27.639515,0.1,220.10823,1590701186445
Fix,GT,37.7438148,-122.3961874,,27.741623,0.1,220.90193,1590701187445
Fix,GT,37.7436115,-122.3963716,,27.852383,0.1,221.31769,1590701188445
Fix,GT,37.7434084,-122.3965575,,27.885088,0.1,221.2364,1590701189445
Fix,GT,37.7432045,-122.3967425,,27.932175,0.1,220.85165,1590701190445
Fix,GT,37.7429991,-122.3969261,,28.008862,0.1,220.51686,1590701191445
Fix,GT,37.7427921,-122.3971108,,28.30565,0.1,220.73181,1590701192445
Fix,GT,37.7425825,-122.3972999,,28.904854,0.1,221.04808,1590701193445
Fix,GT,37.7423689,-122.3974933,,29.475384,0.1,220.84027,1590701194445
Fix,GT,37.7421502,-122.3976878,,29.952097,0.1,220.20473,1590701195445
Fix,GT,37.7419265,-122.3978816,,30.27938,0.1,219.48701,1590701196445
Fix,GT,37.7416991,-122.3980739,,30.566128,0.1,219.02573,1590701197445
Fix,GT,37.7414694,-122.3982675,,30.757296,0.1,219.26599,1590701198445
Fix,GT,37.7412409,-122.3984641,,30.598722,0.1,219.96997,1590701199445
Fix,GT,37.7410166,-122.398662,,30.15252,0.1,220.64362,1590701200445
Fix,GT,37.7407969,-122.3988596,,29.81755,0.1,220.88554,1590701201445
Fix,GT,37.7405784,-122.3990558,,29.843243,0.1,220.66846,1590701202445
Fix,GT,37.7403585,-122.3992522,,29.9837,0.1,220.65219,1590701203445
Fix,GT,37.7401384,-122.3994498,,30.010288,0.1,220.90334,1590701204445
Fix,GT,37.739919,-122.3996486,,29.970602,0.1,221.08652,1590701205445
Fix,GT,37.7397002,-122.3998473,,29.892372,0.1,221.06625,1590701206445
Fix,GT,37.7394818,-122.4000446,,29.75873,0.1,220.80894,1590701207445
Fix,GT,37.739264,-122.4002398,,29.569426,0.1,220.70883,1590701208445
Fix,GT,37.7390479,-122.4004343,,29.378864,0.1,221.14803,1590701209445
Fix,GT,37.7388349,-122.4006306,,29.171158,0.1,221.98495,1590701210445
Fix,GT,37.7386263,-122.4008298,,28.92123,0.1,223.19644,1590701211445
Fix,GT,37.7384235,-122.4010333,,28.688417,0.1,224.6292,1590701212445
Fix,GT,37.7382259,-122.4012428,,28.746964,0.1,226.18103,1590701213445
Fix,GT,37.7380307,-122.4014605,,29.1107,0.1,227.49019,1590701214445
Fix,GT,37.7378366,-122.4016854,,29.43715,0.1,228.26295,1590701215445
Fix,GT,37.7376431,-122.4019163,,29.684078,0.1,229.31412,1590701216445
Fix,GT,37.7374526,-122.402154,,29.838188,0.1,230.96193,1590701217445
Fix,GT,37.7372676,-122.4024005,,29.940388,0.1,232.83014,1590701218445
Fix,GT,37.7370883,-122.4026547,,29.96035,0.1,234.56885,1590701219445
Fix,GT,37.7369146,-122.4029139,,29.86254,0.1,235.671,1590701220445
Fix,GT,37.7367439,-122.4031751,,29.782116,0.1,235.97829,1590701221445
Fix,GT,37.7365729,-122.4034358,,29.833853,0.1,235.44511,1590701222445
Fix,GT,37.7363971,-122.4036924,,29.959007,0.1,233.43597,1590701223445
Fix,GT,37.7362107,-122.4039386,,30.09553,0.1,229.65817,1590701224445
Fix,GT,37.7360092,-122.4041669,,30.179068,0.1,224.75713,1590701225445
Fix,GT,37.735792,-122.4043721,,30.196945,0.1,219.60341,1590701226445
Fix,GT,37.7355614,-122.4045523,,30.169678,0.1,214.71896,1590701227445
Fix,GT,37.73532,-122.4047076,,30.105854,0.1,210.10901,1590701228445
Fix,GT,37.73507,-122.4048369,,30.021227,0.1,205.18056,1590701229445
Fix,GT,37.7348125,-122.4049385,,29.992765,0.1,200.30423,1590701230445
Fix,GT,37.7345493,-122.4050128,,30.036093,0.1,195.63303,1590701231445
Fix,GT,37.7342814,-122.4050592,,30.09712,0.1,190.71724,1590701232445
Fix,GT,37.7340107,-122.4050771,,30.176369,0.1,185.9968,1590701233445
Fix,GT,37.733739,-122.4050674,,30.275177,0.1,181.37306,1590701234445
Fix,GT,37.7334681,-122.4050284,,30.390486,0.1,176.11804,1590701235445
Fix,GT,37.7332007,-122.4049564,,30.49839,0.1,170.47302,1590701236445
Fix,GT,37.7329385,-122.4048536,,30.575336,0.1,165.88635,1590701237445
Fix,GT,37.7326813,-122.4047301,,30.610062,0.1,163.42346,1590701238445
Fix,GT,37.7324261,-122.4045977,,30.658466,0.1,162.8216,1590701239445
Fix,GT,37.7321705,-122.4044642,,30.762476,0.1,163.20099,1590701240445
Fix,GT,37.7319128,-122.404333,,30.912327,0.1,163.56372,1590701241445
Fix,GT,37.7316532,-122.4042036,,31.04673,0.1,164.05408,1590701242445
Fix,GT,37.7313912,-122.4040776,,31.19648,0.1,165.14044,1590701243445
Fix,GT,37.7311251,-122.4039597,,31.452988,0.1,167.0307,1590701244445
Fix,GT,37.7308529,-122.4038536,,31.796806,0.1,169.53918,1590701245445
Fix,GT,37.7305741,-122.4037625,,32.19209,0.1,172.20862,1590701246445
Fix,GT,37.7302886,-122.4036851,,32.642357,0.1,173.92969,1590701247445
Fix,GT,37.7299981,-122.4036125,,33.09394,0.1,174.08276,1590701248445
Fix,GT,37.7297046,-122.4035363,,33.443962,0.1,173.34497,1590701249445
Fix,GT,37.7294094,-122.4034539,,33.65708,0.1,172.42188,1590701250445
Fix,GT,37.7291139,-122.4033648,,33.759647,0.1,171.36963,1590701251445
Fix,GT,37.7288198,-122.4032675,,33.729763,0.1,169.9184,1590701252445
Fix,GT,37.7285283,-122.403163,,33.54285,0.1,169.09985,1590701253445
Fix,GT,37.7282389,-122.4030569,,33.40191,0.1,169.27795,1590701254445
Fix,GT,37.7279496,-122.4029529,,33.41116,0.1,169.56653,1590701255445
Fix,GT,37.7276599,-122.4028505,,33.366966,0.1,169.75519,1590701256445
Fix,GT,37.7273707,-122.4027485,,33.289383,0.1,169.67651,1590701257445
Fix,GT,37.7270828,-122.402645,,33.23315,0.1,169.19373,1590701258445
Fix,GT,37.7267958,-122.4025382,,33.21656,0.1,168.63318,1590701259445
Fix,GT,37.7265091,-122.4024285,,33.326813,0.1,168.24774,1590701260445
Fix,GT,37.7262214,-122.4023166,,33.52098,0.1,168.05298,1590701261445
Fix,GT,37.7259322,-122.4022034,,33.686478,0.1,168.07886,1590701262445
Fix,GT,37.7256417,-122.4020906,,33.794712,0.1,168.35638,1590701263445
Fix,GT,37.72535,-122.4019792,,33.84643,0.1,168.60559,1590701264445
Fix,GT,37.725058,-122.401869,,33.79653,0.1,168.70056,1590701265445
Fix,GT,37.7247671,-122.4017591,,33.597095,0.1,168.59985,1590701266445
Fix,GT,37.7244791,-122.4016487,,33.244656,0.1,168.14648,1590701267445
Fix,GT,37.724195,-122.4015353,,32.946342,0.1,167.2865,1590701268445
Fix,GT,37.7239138,-122.401418,,32.810486,0.1,166.79712,1590701269445
Fix,GT,37.7236341,-122.4013,,32.686302,0.1,166.95721,1590701270445
Fix,GT,37.7233556,-122.4011829,,32.5169,0.1,166.9112,1590701271445
Fix,GT,37.7230786,-122.4010662,,32.34233,0.1,166.9065,1590701272445
Fix,GT,37.7228025,-122.4009516,,32.1953,0.1,167.33527,1590701273445
Fix,GT,37.7225269,-122.40084,,32.072693,0.1,167.73358,1590701274445
Fix,GT,37.7222516,-122.4007312,,31.968573,0.1,168.24701,1590701275445
Fix,GT,37.7219761,-122.4006279,,31.864456,0.1,169.40363,1590701276445
Fix,GT,37.7216995,-122.4005323,,31.783527,0.1,170.56854,1590701277445
Fix,GT,37.7214225,-122.4004413,,31.754452,0.1,170.78497,1590701278445
Fix,GT,37.7211457,-122.4003509,,31.744156,0.1,170.89258,1590701279445
Fix,GT,37.7208685,-122.4002619,,31.760086,0.1,171.26147,1590701280445
Fix,GT,37.7205907,-122.4001752,,31.779793,0.1,171.6004,1590701281445
Fix,GT,37.7203121,-122.4000902,,31.824766,0.1,171.8631,1590701282445
Fix,GT,37.7200327,-122.4000072,,31.907848,0.1,172.3346,1590701283445
Fix,GT,37.719752,-122.3999268,,31.97977,0.1,172.8172,1590701284445
Fix,GT,37.7194702,-122.3998496,,32.0209,0.1,173.33691,1590701285445
Fix,GT,37.7191874,-122.3997761,,32.069992,0.1,173.89655,1590701286445
Fix,GT,37.7189037,-122.3997052,,32.12592,0.1,174.40875,1590701287445
Fix,GT,37.7186192,-122.3996371,,32.172527,0.1,174.73547,1590701288445
Fix,GT,37.7183343,-122.3995701,,32.15213,0.1,174.77283,1590701289445
Fix,GT,37.7180502,-122.3995025,,32.020435,0.1,174.60046,1590701290445
Fix,GT,37.7177679,-122.3994332,,31.839216,0.1,174.1153,1590701291445
Fix,GT,37.7174877,-122.3993616,,31.658634,0.1,173.74078,1590701292445
Fix,GT,37.7172092,-122.3992874,,31.548187,0.1,173.02997,1590701293445
Fix,GT,37.7169324,-122.3992061,,31.611576,0.1,171.43011,1590701294445
Fix,GT,37.7166567,-122.3991128,,31.784454,0.1,169.25647,1590701295445
Fix,GT,37.7163834,-122.3990054,,31.78637,0.1,166.87659,1590701296445
Fix,GT,37.7161138,-122.3988848,,31.777,0.1,164.7987,1590701297445
Fix,GT,37.715847,-122.398752,,31.94722,0.1,162.67871,1590701298445
Fix,GT,37.7155831,-122.3986051,,32.171024,0.1,160.22003,1590701299445
Fix,GT,37.7153227,-122.3984421,,32.41893,0.1,157.58093,1590701300445
Fix,GT,37.715067,-122.3982629,,32.560795,0.1,155.01715,1590701301445
Fix,GT,37.714817,-122.3980705,,32.422523,0.1,152.88379,1590701302445
Fix,GT,37.7145741,-122.3978707,,31.886639,0.1,151.5918,1590701303445
Fix,GT,37.7143382,-122.3976707,,31.328758,0.1,151.23743,1590701304445
Fix,GT,37.7141055,-122.3974734,,30.960747,0.1,151.49103,1590701305445
Fix,GT,37.7138749,-122.3972803,,30.493645,0.1,151.94849,1590701306445
Fix,GT,37.713646,-122.3970932,,30.110813,0.1,152.80182,1590701307445
Fix,GT,37.7134162,-122.3969132,,29.942844,0.1,154.40479,1590701308445
Fix,GT,37.7131824,-122.3967443,,29.925753,0.1,156.78925,1590701309445
Fix,GT,37.712943,-122.3965877,,29.986416,0.1,159.0033,1590701310445
Fix,GT,37.7126989,-122.3964419,,29.97806,0.1,160.72449,1590701311445
Fix,GT,37.7124518,-122.3963052,,29.927095,0.1,162.50269,1590701312445
Fix,GT,37.7122016,-122.3961783,,29.9418,0.1,164.41498,1590701313445
Fix,GT,37.7119472,-122.3960637,,29.948917,0.1,166.91272,1590701314445
Fix,GT,37.7116927,-122.3959647,,28.987972,0.1,169.61255,1590701315445
Fix,GT,37.7114486,-122.3958843,,27.07013,0.1,171.8628,1590701316445
Fix,GT,37.7112167,-122.3958188,,25.795261,0.1,173.55078,1590701317445
Fix,GT,37.7109915,-122.3957622,,25.156704,0.1,174.44446,1590701318445
Fix,GT,37.7107712,-122.3957105,,24.668228,0.1,174.96143,1590701319445
Fix,GT,37.7105534,-122.3956608,,24.489313,0.1,175.09204,1590701320445
Fix,GT,37.7103362,-122.3956115,,24.534222,0.1,175.12347,1590701321445
Fix,GT,37.7101177,-122.3955627,,24.737125,0.1,175.41089,1590701322445
Fix,GT,37.7098972,-122.3955138,,24.9833,0.1,175.25867,1590701323445
Fix,GT,37.7096756,-122.3954631,,24.921314,0.1,174.8894,1590701324445
Fix,GT,37.7094567,-122.3954124,,24.486351,0.1,174.98694,1590701325445
Fix,GT,37.7092416,-122.3953635,,24.065647,0.1,175.18921,1590701326445
Fix,GT,37.7090297,-122.3953162,,23.664614,0.1,175.36615,1590701327445
Fix,GT,37.7088211,-122.39527,,23.391438,0.1,175.35101,1590701328445
Fix,GT,37.7086137,-122.3952244,,23.37165,0.1,175.58917,1590701329445
Fix,GT,37.7084058,-122.3951803,,23.440037,0.1,176.099,1590701330445
Fix,GT,37.7081966,-122.3951378,,23.6235,0.1,176.24884,1590701331445
Fix,GT,37.7079854,-122.3950947,,23.842005,0.1,176.04504,1590701332445
Fix,GT,37.707773,-122.3950501,,23.927065,0.1,175.74768,1590701333445
Fix,GT,37.7075604,-122.3950045,,23.957033,0.1,175.64124,1590701334445
Fix,GT,37.707347,-122.3949585,,24.133232,0.1,175.65906,1590701335445
Fix,GT,37.7071312,-122.3949123,,24.46111,0.1,175.84393,1590701336445
Fix,GT,37.7069124,-122.3948669,,24.74218,0.1,176.18384,1590701337445
Fix,GT,37.7066915,-122.3948221,,24.937128,0.1,176.20679,1590701338445
Fix,GT,37.7064689,-122.3947765,,25.118511,0.1,175.94684,1590701339445
Fix,GT,37.7062452,-122.3947299,,25.192368,0.1,175.98828,1590701340445
Fix,GT,37.7060213,-122.3946828,,25.211542,0.1,175.77783,1590701341445
Fix,GT,37.7057969,-122.3946342,,25.346779,0.1,175.42175,1590701342445
Fix,GT,37.7055714,-122.3945837,,25.523556,0.1,175.24951,1590701343445
Fix,GT,37.7053441,-122.3945326,,25.74757,0.1,175.25653,1590701344445
Fix,GT,37.7051144,-122.3944812,,26.0308,0.1,175.29517,1590701345445
Fix,GT,37.7048823,-122.3944291,,26.325422,0.1,175.21509,1590701346445
Fix,GT,37.7046476,-122.3943759,,26.619164,0.1,175.16516,1590701347445
Fix,GT,37.7044102,-122.3943224,,26.924263,0.1,175.232,1590701348445
Fix,GT,37.7041705,-122.3942686,,27.088337,0.1,175.1648,1590701349445
Fix,GT,37.7039308,-122.3942141,,26.933735,0.1,175.04199,1590701350445
Fix,GT,37.7036932,-122.3941598,,26.67178,0.1,175.11176,1590701351445
Fix,GT,37.703457,-122.3941066,,26.640057,0.1,175.28448,1590701352445
Fix,GT,37.7032196,-122.3940542,,26.881603,0.1,175.52515,1590701353445
Fix,GT,37.7029796,-122.3940023,,27.180828,0.1,175.6377,1590701354445
Fix,GT,37.7027369,-122.3939497,,27.476067,0.1,175.4115,1590701355445
Fix,GT,37.7024921,-122.3938947,,27.74052,0.1,175.04102,1590701356445
Fix,GT,37.7022453,-122.3938372,,27.95942,0.1,174.7912,1590701357445
Fix,GT,37.7019966,-122.393779,,28.199615,0.1,174.94244,1590701358445
Fix,GT,37.7017455,-122.3937215,,28.483162,0.1,175.09131,1590701359445
Fix,GT,37.7014918,-122.3936634,,28.768932,0.1,175.00317,1590701360445
Fix,GT,37.7012355,-122.3936045,,29.053783,0.1,175.05634,1590701361445
Fix,GT,37.7009765,-122.3935455,,29.33988,0.1,175.1076,1590701362445
Fix,GT,37.7007151,-122.3934864,,29.599405,0.1,175.1886,1590701363445
Fix,GT,37.7004516,-122.3934273,,29.793457,0.1,175.29565,1590701364445
Fix,GT,37.7001867,-122.3933684,,29.915558,0.1,175.32849,1590701365445
Fix,GT,37.699921,-122.3933094,,29.993807,0.1,175.2898,1590701366445
Fix,GT,37.6996546,-122.3932497,,30.076168,0.1,175.18018,1590701367445
Fix,GT,37.6993872,-122.3931892,,30.241161,0.1,175.05298,1590701368445
Fix,GT,37.6991182,-122.3931276,,30.447266,0.1,175.00323,1590701369445
Fix,GT,37.6988474,-122.3930657,,30.588268,0.1,175.06396,1590701370445
Fix,GT,37.6985763,-122.3930041,,30.515385,0.1,175.04095,1590701371445
Fix,GT,37.6983071,-122.3929423,,30.223927,0.1,174.94946,1590701372445
Fix,GT,37.6980401,-122.3928811,,30.073627,0.1,175.1034,1590701373445
Fix,GT,37.6977729,-122.3928212,,30.168552,0.1,175.37933,1590701374445
Fix,GT,37.6975045,-122.3927626,,30.330048,0.1,175.54327,1590701375445
Fix,GT,37.6972347,-122.3927037,,30.420368,0.1,175.42218,1590701376445
Fix,GT,37.6969653,-122.3926436,,30.30125,0.1,175.2005,1590701377445
Fix,GT,37.6966978,-122.3925832,,30.024532,0.1,175.1372,1590701378445
Fix,GT,37.6964326,-122.3925232,,29.800648,0.1,175.1399,1590701379445
Fix,GT,37.6961689,-122.3924633,,29.685698,0.1,175.0647,1590701380445
Fix,GT,37.6959063,-122.3924033,,29.564495,0.1,175.031,1590701381445
Fix,GT,37.6956451,-122.3923437,,29.346798,0.1,175.15894,1590701382445
Fix,GT,37.695386,-122.3922855,,29.046864,0.1,175.2544,1590701383445
Fix,GT,37.6951299,-122.3922281,,28.695791,0.1,175.18268,1590701384445
Fix,GT,37.6948771,-122.3921709,,28.317715,0.1,175.1311,1590701385445
Fix,GT,37.6946277,-122.3921145,,27.920216,0.1,175.16858,1590701386445
Fix,GT,37.6943821,-122.3920592,,27.463028,0.1,175.22235,1590701387445
Fix,GT,37.6941402,-122.3920051,,27.088943,0.1,175.29315,1590701388445
Fix,GT,37.6939007,-122.3919517,,26.971846,0.1,175.24774,1590701389445
Fix,GT,37.6936612,-122.391898,,27.03291,0.1,175.17981,1590701390445
Fix,GT,37.6934207,-122.3918439,,27.203022,0.1,175.1211,1590701391445
Fix,GT,37.6931787,-122.3917889,,27.388252,0.1,175.04956,1590701392445
Fix,GT,37.6929354,-122.3917331,,27.484447,0.1,174.97461,1590701393445
Fix,GT,37.6926922,-122.3916765,,27.381666,0.1,174.73181,1590701394445
Fix,GT,37.6924508,-122.3916201,,27.14811,0.1,174.9021,1590701395445
Fix,GT,37.6922102,-122.391566,,27.144476,0.1,175.46143,1590701396445
Fix,GT,37.6919684,-122.3915133,,27.313858,0.1,175.5719,1590701397445
Fix,GT,37.6917252,-122.3914604,,27.487675,0.1,175.52008,1590701398445
Fix,GT,37.6914805,-122.3914064,,27.675463,0.1,175.29425,1590701399445
Fix,GT,37.6912344,-122.3913507,,27.835514,0.1,175.01465,1590701400445
Fix,GT,37.6909872,-122.3912938,,27.916832,0.1,174.98352,1590701401445
Fix,GT,37.6907396,-122.3912372,,27.931818,0.1,175.1748,1590701402445
Fix,GT,37.6904916,-122.3911813,,28.007236,0.1,175.19183,1590701403445
Fix,GT,37.6902426,-122.3911253,,28.166779,0.1,175.23053,1590701404445
Fix,GT,37.6899921,-122.3910691,,28.328156,0.1,175.2691,1590701405445
Fix,GT,37.6897401,-122.3910128,,28.48044,0.1,175.25201,1590701406445
Fix,GT,37.6894868,-122.390956,,28.645779,0.1,175.23706,1590701407445
Fix,GT,37.6892319,-122.3908988,,28.826317,0.1,175.219,1590701408445
Fix,GT,37.6889757,-122.3908411,,28.948227,0.1,175.19641,1590701409445
Fix,GT,37.6887192,-122.3907832,,28.898333,0.1,175.10687,1590701410445
Fix,GT,37.6884635,-122.390725,,28.793163,0.1,175.05933,1590701411445
Fix,GT,37.6882081,-122.3906668,,28.866713,0.1,175.11584,1590701412445
Fix,GT,37.6879512,-122.390609,,29.085989,0.1,175.2268,1590701413445
Fix,GT,37.6876921,-122.3905508,,29.309952,0.1,175.14868,1590701414445
Fix,GT,37.6874313,-122.3904913,,29.507698,0.1,175.02356,1590701415445
Fix,GT,37.6871689,-122.3904312,,29.685318,0.1,175.07983,1590701416445
Fix,GT,37.686905,-122.390371,,29.818966,0.1,175.07361,1590701417445
Fix,GT,37.6866402,-122.3903109,,29.911346,0.1,175.12646,1590701418445
Fix,GT,37.6863746,-122.3902513,,29.962505,0.1,175.2345,1590701419445
Fix,GT,37.6861092,-122.3901917,,29.85004,0.1,175.20447,1590701420445
Fix,GT,37.6858452,-122.3901322,,29.689903,0.1,175.13257,1590701421445
Fix,GT,37.6855823,-122.3900727,,29.63318,0.1,175.13849,1590701422445
Fix,GT,37.6853198,-122.3900136,,29.560432,0.1,175.24207,1590701423445
Fix,GT,37.6850577,-122.389955,,29.527437,0.1,175.21277,1590701424445
Fix,GT,37.6847957,-122.3898959,,29.563164,0.1,175.10516,1590701425445
Fix,GT,37.6845334,-122.3898362,,29.621983,0.1,175.0617,1590701426445
Fix,GT,37.6842706,-122.3897764,,29.65496,0.1,175.10486,1590701427445
Fix,GT,37.6840074,-122.3897172,,29.698334,0.1,175.255,1590701428445
Fix,GT,37.6837433,-122.3896588,,29.806213,0.1,175.40076,1590701429445
Fix,GT,37.6834787,-122.3896,,29.840937,0.1,175.16553,1590701430445
Fix,GT,37.6832149,-122.3895397,,29.64492,0.1,174.9336,1590701431445
Fix,GT,37.6829536,-122.3894797,,29.300007,0.1,175.06152,1590701432445
Fix,GT,37.6826953,-122.3894216,,28.930016,0.1,175.25586,1590701433445
Fix,GT,37.6824404,-122.3893649,,28.515629,0.1,175.27911,1590701434445
Fix,GT,37.6821895,-122.3893081,,28.051746,0.1,174.93921,1590701435445
Fix,GT,37.6819432,-122.3892509,,27.563755,0.1,174.74133,1590701436445
Fix,GT,37.6817014,-122.3891939,,27.052963,0.1,174.59406,1590701437445
Fix,GT,37.6814641,-122.3891368,,26.572342,0.1,174.2976,1590701438445
Fix,GT,37.6812312,-122.3890791,,26.161833,0.1,174.013,1590701439445
Fix,GT,37.6810011,-122.3890208,,26.016386,0.1,173.83484,1590701440445
Fix,GT,37.6807707,-122.3889624,,26.178787,0.1,174.04175,1590701441445
Fix,GT,37.6805382,-122.3889053,,26.374687,0.1,174.46039,1590701442445
Fix,GT,37.680304,-122.3888496,,26.520256,0.1,174.66364,1590701443445
Fix,GT,37.6800684,-122.3887946,,26.672358,0.1,174.96533,1590701444445
Fix,GT,37.6798308,-122.3887418,,26.837479,0.1,175.62903,1590701445445
Fix,GT,37.6795915,-122.3886927,,26.967007,0.1,176.44824,1590701446445
Fix,GT,37.6793505,-122.388648,,27.075348,0.1,177.38232,1590701447445
Fix,GT,37.6791082,-122.3886094,,27.10815,0.1,178.81781,1590701448445
Fix,GT,37.6788652,-122.3885799,,27.11763,0.1,180.75415,1590701449445
Fix,GT,37.6786207,-122.388561,,27.270042,0.1,182.76294,1590701450445
Fix,GT,37.6783749,-122.3885527,,27.277622,0.1,184.77855,1590701451445
Fix,GT,37.67813,-122.3885552,,27.032516,0.1,186.7641,1590701452445
Fix,GT,37.6778881,-122.3885675,,26.660475,0.1,188.43355,1590701453445
Fix,GT,37.6776503,-122.3885877,,26.233997,0.1,189.86095,1590701454445
Fix,GT,37.6774169,-122.3886147,,25.766209,0.1,191.25037,1590701455445
Fix,GT,37.6771885,-122.388648,,25.266802,0.1,192.61638,1590701456445
Fix,GT,37.6769651,-122.388688,,24.858393,0.1,194.2703,1590701457445
Fix,GT,37.6767457,-122.3887369,,24.649551,0.1,196.34499,1590701458445
Fix,GT,37.676529,-122.3887947,,24.484129,0.1,198.07968,1590701459445
Fix,GT,37.6763153,-122.3888587,,24.271051,0.1,199.34045,1590701460445
Fix,GT,37.6761046,-122.3889279,,24.061138,0.1,200.55959,1590701461445
Fix,GT,37.675897,-122.3890024,,23.88018,0.1,201.92584,1590701462445
Fix,GT,37.675692,-122.3890829,,23.814737,0.1,203.43312,1590701463445
Fix,GT,37.6754887,-122.3891694,,23.861023,0.1,204.50385,1590701464445
Fix,GT,37.6752857,-122.3892593,,23.936466,0.1,204.9492,1590701465445
Fix,GT,37.6750826,-122.3893516,,24.022045,0.1,205.49753,1590701466445
Fix,GT,37.6748793,-122.3894472,,24.14719,0.1,206.14745,1590701467445
Fix,GT,37.674676,-122.3895454,,24.155472,0.1,206.56331,1590701468445
Fix,GT,37.6744742,-122.3896452,,23.958515,0.1,207.05312,1590701469445
Fix,GT,37.674275,-122.3897466,,23.770061,0.1,207.7514,1590701470445
Fix,GT,37.6740777,-122.3898509,,23.75687,0.1,208.56895,1590701471445
Fix,GT,37.6738815,-122.3899583,,23.717123,0.1,209.05672,1590701472445
Fix,GT,37.6736869,-122.390067,,23.53616,0.1,209.47812,1590701473445
Fix,GT,37.6734947,-122.3901775,,23.376404,0.1,210.31242,1590701474445
Fix,GT,37.6733048,-122.3902907,,23.265686,0.1,211.00604,1590701475445
Fix,GT,37.6731165,-122.3904056,,23.180359,0.1,211.47705,1590701476445
Fix,GT,37.6729296,-122.3905222,,23.132332,0.1,211.9765,1590701477445
Fix,GT,37.6727436,-122.390641,,23.163471,0.1,212.52484,1590701478445
Fix,GT,37.672558,-122.390762,,23.240957,0.1,213.00125,1590701479445
Fix,GT,37.6723728,-122.3908849,,23.259876,0.1,213.32864,1590701480445
Fix,GT,37.6721886,-122.3910102,,23.196459,0.1,214.20082,1590701481445
Fix,GT,37.6720069,-122.3911394,,23.125786,0.1,215.41397,1590701482445
Fix,GT,37.6718273,-122.3912716,,23.045382,0.1,215.87573,1590701483445
Fix,GT,37.6716491,-122.3914045,,22.873468,0.1,216.12532,1590701484445
Fix,GT,37.6714736,-122.3915367,,22.531345,0.1,216.57452,1590701485445
Fix,GT,37.6713019,-122.3916696,,22.271156,0.1,217.44495,1590701486445
Fix,GT,37.6711333,-122.3918054,,22.195972,0.1,218.38354,1590701487445
Fix,GT,37.670966,-122.3919438,,22.324612,0.1,218.98593,1590701488445
Fix,GT,37.6707978,-122.3920853,,22.584553,0.1,219.36781,1590701489445
Fix,GT,37.6706284,-122.3922299,,22.834793,0.1,219.7113,1590701490445
Fix,GT,37.6704576,-122.3923774,,23.168413,0.1,220.03056,1590701491445
Fix,GT,37.6702846,-122.3925289,,23.64481,0.1,220.4093,1590701492445
Fix,GT,37.6701086,-122.3926855,,24.207558,0.1,220.9733,1590701493445
Fix,GT,37.66993,-122.3928485,,24.756344,0.1,221.7416,1590701494445
Fix,GT,37.6697496,-122.3930181,,25.201447,0.1,222.5909,1590701495445
Fix,GT,37.6695681,-122.3931936,,25.547625,0.1,223.26215,1590701496445
Fix,GT,37.6693856,-122.3933726,,25.78048,0.1,223.41576,1590701497445
Fix,GT,37.6692019,-122.3935517,,25.747828,0.1,222.8769,1590701498445
Fix,GT,37.6690179,-122.3937275,,25.518759,0.1,222.44576,1590701499445
Fix,GT,37.6688349,-122.3939015,,25.440971,0.1,222.601,1590701500445
Fix,GT,37.6686522,-122.3940767,,25.568398,0.1,222.76491,1590701501445
Fix,GT,37.668469,-122.3942528,,25.61266,0.1,222.818,1590701502445
Fix,GT,37.6682855,-122.3944294,,25.666523,0.1,222.7719,1590701503445
Fix,GT,37.6681012,-122.394606,,25.74482,0.1,222.72803,1590701504445
Fix,GT,37.6679173,-122.3947827,,25.655869,0.1,222.91508,1590701505445
Fix,GT,37.6677348,-122.3949599,,25.479233,0.1,223.15527,1590701506445
Fix,GT,37.6675543,-122.3951353,,25.142231,0.1,223.00113,1590701507445
Fix,GT,37.6673759,-122.3953075,,24.754124,0.1,222.80576,1590701508445
Fix,GT,37.6672,-122.3954767,,24.422026,0.1,222.86424,1590701509445
Fix,GT,37.667026,-122.3956448,,24.315224,0.1,222.93591,1590701510445
Fix,GT,37.6668519,-122.3958131,,24.440569,0.1,222.94893,1590701511445
Fix,GT,37.6666769,-122.3959824,,24.575598,0.1,222.86319,1590701512445
Fix,GT,37.6665007,-122.3961511,,24.542446,0.1,222.6053,1590701513445
Fix,GT,37.6663258,-122.3963177,,24.07529,0.1,222.5523,1590701514445
Fix,GT,37.6661556,-122.3964811,,23.43602,0.1,222.95708,1590701515445
Fix,GT,37.6659904,-122.3966423,,23.011297,0.1,223.37268,1590701516445
Fix,GT,37.6658282,-122.3968023,,22.694061,0.1,223.722,1590701517445
Fix,GT,37.6656693,-122.3969618,,22.494072,0.1,224.30226,1590701518445
Fix,GT,37.6655133,-122.3971234,,22.40638,0.1,225.47249,1590701519445
Fix,GT,37.6653612,-122.3972882,,22.080132,0.1,226.71832,1590701520445
Fix,GT,37.6652147,-122.397452,,21.363314,0.1,227.33762,1590701521445
Fix,GT,37.6650757,-122.3976112,,20.346756,0.1,228.15717,1590701522445
Fix,GT,37.6649466,-122.3977645,,19.018883,0.1,229.21948,1590701523445
Fix,GT,37.6648287,-122.3979087,,17.411648,0.1,229.8925,1590701524445
Fix,GT,37.6647227,-122.3980402,,15.612824,0.1,230.20236,1590701525445
Fix,GT,37.6646277,-122.3981594,,14.273628,0.1,230.47853,1590701526445
Fix,GT,37.6645394,-122.3982716,,13.660722,0.1,230.87679,1590701527445
Fix,GT,37.6644549,-122.3983809,,13.179718,0.1,231.52583,1590701528445
Fix,GT,37.6643748,-122.3984871,,12.648165,0.1,232.20676,1590701529445
Fix,GT,37.6642986,-122.3985906,,12.258673,0.1,232.79486,1590701530445
Fix,GT,37.6642251,-122.398692,,11.989448,0.1,233.21716,1590701531445
Fix,GT,37.6641533,-122.3987922,,11.827909,0.1,233.51105,1590701532445
Fix,GT,37.6640826,-122.3988918,,11.723807,0.1,233.76865,1590701533445
Fix,GT,37.664013,-122.398991,,11.631716,0.1,234.13492,1590701534445
Fix,GT,37.6639444,-122.3990904,,11.626097,0.1,234.69467,1590701535445
Fix,GT,37.6638763,-122.3991911,,11.702739,0.1,235.30562,1590701536445
Fix,GT,37.6638087,-122.3992935,,11.759039,0.1,235.90549,1590701537445
Fix,GT,37.6637416,-122.3993967,,11.76613,0.1,236.3462,1590701538445
Fix,GT,37.6636751,-122.3995003,,11.7332115,0.1,236.53552,1590701539445
Fix,GT,37.663609,-122.3996035,,11.648369,0.1,236.6121,1590701540445
Fix,GT,37.6635435,-122.3997058,,11.528101,0.1,236.62337,1590701541445
Fix,GT,37.6634786,-122.3998071,,11.41811,0.1,236.60031,1590701542445
Fix,GT,37.6634144,-122.3999072,,11.282339,0.1,236.49814,1590701543445
Fix,GT,37.6633511,-122.400005,,10.946104,0.1,236.26413,1590701544445
Fix,GT,37.6632899,-122.4000992,,10.496209,0.1,236.17702,1590701545445
Fix,GT,37.6632314,-122.40019,,10.128345,0.1,236.55418,1590701546445
Fix,GT,37.6631758,-122.4002777,,9.647045,0.1,237.00656,1590701547445
Fix,GT,37.663123,-122.4003617,,9.26095,0.1,237.12015,1590701548445
Fix,GT,37.6630716,-122.4004433,,9.1405525,0.1,236.95097,1590701549445
Fix,GT,37.6630204,-122.4005236,,9.037509,0.1,236.50198,1590701550445
Fix,GT,37.6629692,-122.4006025,,8.92666,0.1,236.23608,1590701551445
Fix,GT,37.6629185,-122.4006813,,8.975653,0.1,236.45508,1590701552445
Fix,GT,37.6628671,-122.4007617,,9.219954,0.1,236.8409,1590701553445
Fix,GT,37.662815,-122.4008441,,9.310093,0.1,236.89543,1590701554445
Fix,GT,37.6627628,-122.4009258,,9.161936,0.1,236.44853,1590701555445
Fix,GT,37.6627111,-122.4010052,,8.941315,0.1,236.10983,1590701556445
Fix,GT,37.6626607,-122.4010827,,8.716909,0.1,236.28726,1590701557445
Fix,GT,37.6626118,-122.4011589,,8.575925,0.1,236.5701,1590701558445
Fix,GT,37.6625635,-122.4012343,,8.492049,0.1,236.76892,1590701559445
Fix,GT,37.6625161,-122.4013085,,8.29254,0.1,236.62953,1590701560445
Fix,GT,37.6624698,-122.4013807,,8.083361,0.1,236.49033,1590701561445
Fix,GT,37.6624238,-122.401452,,8.238198,0.1,236.527,1590701562445
Fix,GT,37.662375,-122.401528,,9.132521,0.1,236.67886,1590701563445
Fix,GT,37.6623201,-122.4016143,,10.361201,0.1,236.9237,1590701564445
Fix,GT,37.6622592,-122.4017111,,11.374221,0.1,237.20642,1590701565445
Fix,GT,37.6621932,-122.4018166,,12.301023,0.1,237.31625,1590701566445
Fix,GT,37.662122,-122.40193,,13.189646,0.1,237.10162,1590701567445
Fix,GT,37.6620453,-122.4020507,,14.0877075,0.1,236.66556,1590701568445
Fix,GT,37.6619626,-122.4021785,,14.970774,0.1,236.24341,1590701569445
Fix,GT,37.6618751,-122.4023133,,15.687054,0.1,236.25308,1590701570445
Fix,GT,37.6617853,-122.4024528,,15.902002,0.1,236.57773,1590701571445
Fix,GT,37.6616959,-122.4025923,,15.7203665,0.1,236.68643,1590701572445
Fix,GT,37.6616074,-122.4027306,,15.662723,0.1,236.65645,1590701573445
Fix,GT,37.6615177,-122.4028694,,15.958708,0.1,236.30222,1590701574445
Fix,GT,37.6614244,-122.403011,,16.504906,0.1,235.43979,1590701575445
Fix,GT,37.6613255,-122.4031549,,17.09713,0.1,234.02551,1590701576445
Fix,GT,37.66122,-122.4033,,17.575432,0.1,232.47977,1590701577445
Fix,GT,37.6611098,-122.4034444,,17.719036,0.1,231.0959,1590701578445
Fix,GT,37.6609965,-122.4035856,,17.662495,0.1,229.7112,1590701579445
Fix,GT,37.6608815,-122.4037231,,17.562855,0.1,228.53282,1590701580445
Fix,GT,37.6607652,-122.4038569,,17.430618,0.1,227.55414,1590701581445
Fix,GT,37.660648,-122.4039871,,17.327454,0.1,226.47191,1590701582445
Fix,GT,37.6605285,-122.4041144,,17.47619,0.1,225.31308,1590701583445
Fix,GT,37.6604056,-122.4042404,,17.711393,0.1,224.14963,1590701584445
Fix,GT,37.6602794,-122.4043634,,17.7116,0.1,222.56955,1590701585445
Fix,GT,37.6601506,-122.4044812,,17.69386,0.1,220.78694,1590701586445
Fix,GT,37.6600187,-122.4045949,,17.841702,0.1,219.4047,1590701587445
Fix,GT,37.6598832,-122.4047066,,18.081264,0.1,218.26155,1590701588445
Fix,GT,37.659745,-122.4048156,,18.12231,0.1,217.00162,1590701589445
Fix,GT,37.6596049,-122.4049204,,18.095373,0.1,215.7075,1590701590445
Fix,GT,37.6594627,-122.405022,,18.27518,0.1,214.65096,1590701591445
Fix,GT,37.6593167,-122.4051216,,18.617987,0.1,213.39395,1590701592445
Fix,GT,37.659166,-122.4052178,,18.897778,0.1,211.61525,1590701593445
Fix,GT,37.6590114,-122.405309,,18.987164,0.1,209.86803,1590701594445
Fix,GT,37.6588549,-122.4053949,,18.927258,0.1,208.44592,1590701595445
Fix,GT,37.6586979,-122.4054767,,18.798454,0.1,207.71587,1590701596445
Fix,GT,37.6585416,-122.4055569,,18.6879,0.1,207.55884,1590701597445
Fix,GT,37.6583859,-122.4056365,,18.640144,0.1,207.53781,1590701598445
Fix,GT,37.6582303,-122.4057163,,18.685596,0.1,207.61401,1590701599445
Fix,GT,37.6580739,-122.4057969,,18.808296,0.1,207.76616,1590701600445
Fix,GT,37.6579166,-122.4058786,,18.991854,0.1,207.9209,1590701601445
Fix,GT,37.6577575,-122.4059614,,19.23402,0.1,207.86273,1590701602445
Fix,GT,37.6575962,-122.4060445,,19.461098,0.1,207.53938,1590701603445
Fix,GT,37.6574331,-122.4061274,,19.574661,0.1,207.37003,1590701604445
Fix,GT,37.6572695,-122.4062104,,19.55044,0.1,207.47752,1590701605445
Fix,GT,37.6571067,-122.4062934,,19.443878,0.1,207.58133,1590701606445
Fix,GT,37.6569446,-122.4063762,,19.429264,0.1,207.57253,1590701607445
Fix,GT,37.6567817,-122.4064591,,19.582054,0.1,207.38165,1590701608445
Fix,GT,37.656617,-122.4065408,,19.690376,0.1,206.64182,1590701609445
Fix,GT,37.6564512,-122.4066191,,19.636673,0.1,205.51257,1590701610445
Fix,GT,37.6562849,-122.4066924,,19.478756,0.1,204.1696,1590701611445
Fix,GT,37.6561188,-122.4067596,,19.296204,0.1,202.57187,1590701612445
Fix,GT,37.6559528,-122.4068208,,19.117859,0.1,201.21275,1590701613445
Fix,GT,37.6557872,-122.4068773,,18.964714,0.1,200.2005,1590701614445
Fix,GT,37.6556222,-122.4069295,,18.807728,0.1,199.11697,1590701615445
Fix,GT,37.6554578,-122.4069772,,18.662067,0.1,197.93364,1590701616445
Fix,GT,37.6552937,-122.4070206,,18.587643,0.1,196.80653,1590701617445
Fix,GT,37.6551294,-122.4070596,,18.542625,0.1,195.58266,1590701618445
Fix,GT,37.6549641,-122.4070938,,18.65709,0.1,194.29207,1590701619445
Fix,GT,37.6547965,-122.4071241,,18.975018,0.1,193.29933,1590701620445
Fix,GT,37.6546253,-122.4071517,,19.366238,0.1,192.36563,1590701621445
Fix,GT,37.65445,-122.4071756,,19.791452,0.1,191.1281,1590701622445
Fix,GT,37.6542704,-122.4071951,,20.24345,0.1,189.77422,1590701623445
Fix,GT,37.6540862,-122.4072094,,20.745117,0.1,188.40958,1590701624445
Fix,GT,37.6538973,-122.4072186,,21.250618,0.1,187.09644,1590701625445
Fix,GT,37.6537035,-122.4072226,,21.767662,0.1,185.75038,1590701626445
Fix,GT,37.6535052,-122.4072205,,22.294086,0.1,184.29141,1590701627445
Fix,GT,37.6533024,-122.4072118,,22.76892,0.1,182.90218,1590701628445
Fix,GT,37.6530964,-122.407198,,23.00753,0.1,182.04272,1590701629445
Fix,GT,37.6528893,-122.4071815,,23.067429,0.1,181.61394,1590701630445
Fix,GT,37.6526815,-122.4071635,,23.205723,0.1,181.40048,1590701631445
Fix,GT,37.6524726,-122.4071445,,23.283081,0.1,181.23589,1590701632445
Fix,GT,37.6522636,-122.4071248,,23.23408,0.1,181.11082,1590701633445
Fix,GT,37.652055,-122.4071057,,23.18116,0.1,181.28323,1590701634445
Fix,GT,37.6518469,-122.4070872,,23.090778,0.1,181.38142,1590701635445
Fix,GT,37.6516405,-122.4070687,,22.755655,0.1,181.42203,1590701636445
Fix,GT,37.6514382,-122.4070515,,22.2449,0.1,181.66878,1590701637445
Fix,GT,37.6512396,-122.407036,,21.935413,0.1,181.70824,1590701638445
Fix,GT,37.6510432,-122.40702,,21.753483,0.1,181.68625,1590701639445
Fix,GT,37.6508483,-122.4070043,,21.615953,0.1,181.70207,1590701640445
Fix,GT,37.6506539,-122.4069881,,21.635696,0.1,181.4055,1590701641445
Fix,GT,37.6504593,-122.4069703,,21.681396,0.1,181.20683,1590701642445
Fix,GT,37.6502643,-122.4069526,,21.724812,0.1,181.28728,1590701643445
Fix,GT,37.6500688,-122.4069348,,21.778557,0.1,181.16187,1590701644445
Fix,GT,37.6498734,-122.406916,,21.726212,0.1,180.9305,1590701645445
Fix,GT,37.6496788,-122.4068973,,21.58294,0.1,181.28392,1590701646445
Fix,GT,37.6494851,-122.4068806,,21.534756,0.1,181.66241,1590701647445
Fix,GT,37.6492914,-122.4068647,,21.552685,0.1,181.64343,1590701648445
Fix,GT,37.6490975,-122.4068482,,21.572618,0.1,181.42169,1590701649445
Fix,GT,37.6489037,-122.4068303,,21.558102,0.1,180.97134,1590701650445
Fix,GT,37.6487102,-122.4068113,,21.54467,0.1,180.95543,1590701651445
Fix,GT,37.648516,-122.4067932,,21.707441,0.1,181.4173,1590701652445
Fix,GT,37.6483194,-122.406777,,22.050335,0.1,181.73737,1590701653445
Fix,GT,37.6481201,-122.4067617,,22.236778,0.1,181.90483,1590701654445
Fix,GT,37.6479204,-122.4067455,,22.108166,0.1,181.58398,1590701655445
Fix,GT,37.6477225,-122.4067286,,21.919596,0.1,181.58987,1590701656445
Fix,GT,37.6475254,-122.4067128,,21.959988,0.1,181.87224,1590701657445
Fix,GT,37.6473271,-122.4066975,,22.182629,0.1,181.83609,1590701658445
Fix,GT,37.6471265,-122.4066811,,22.442627,0.1,181.52272,1590701659445
Fix,GT,37.6469237,-122.406663,,22.711887,0.1,181.22,1590701660445
Fix,GT,37.6467185,-122.4066438,,22.94942,0.1,181.16182,1590701661445
Fix,GT,37.6465112,-122.4066247,,23.191734,0.1,181.29842,1590701662445
Fix,GT,37.6463016,-122.406606,,23.4394,0.1,181.4332,1590701663445
Fix,GT,37.6460899,-122.4065876,,23.650387,0.1,181.43102,1590701664445
Fix,GT,37.6458767,-122.4065684,,23.781418,0.1,181.23572,1590701665445
Fix,GT,37.6456633,-122.4065483,,23.705746,0.1,181.05095,1590701666445
Fix,GT,37.6454513,-122.4065281,,23.476189,0.1,181.15291,1590701667445
Fix,GT,37.6452422,-122.4065092,,22.993155,0.1,181.40901,1590701668445
Fix,GT,37.6450389,-122.4064919,,22.2219,0.1,181.601,1590701669445
Fix,GT,37.6448421,-122.4064759,,21.57089,0.1,181.67285,1590701670445
Fix,GT,37.6446504,-122.40646,,21.078392,0.1,181.54001,1590701671445
Fix,GT,37.6444624,-122.4064438,,20.906555,0.1,181.34955,1590701672445
Fix,GT,37.6442735,-122.4064271,,21.226604,0.1,181.4107,1590701673445
Fix,GT,37.6440801,-122.4064105,,21.780155,0.1,181.59595,1590701674445
Fix,GT,37.6438821,-122.406394,,22.243542,0.1,181.56422,1590701675445
Fix,GT,37.6436805,-122.4063766,,22.619434,0.1,181.38782,1590701676445
Fix,GT,37.6434755,-122.4063579,,23.05941,0.1,181.21394,1590701677445
Fix,GT,37.6432662,-122.4063384,,23.531054,0.1,181.11642,1590701678445
Fix,GT,37.6430528,-122.4063182,,23.952679,0.1,181.07895,1590701679445
Fix,GT,37.6428361,-122.4062977,,24.277237,0.1,181.24675,1590701680445
Fix,GT,37.6426168,-122.4062781,,24.499811,0.1,181.5096,1590701681445
Fix,GT,37.6423959,-122.406259,,24.649628,0.1,181.54823,1590701682445
Fix,GT,37.6421739,-122.4062397,,24.736696,0.1,181.45921,1590701683445
Fix,GT,37.6419514,-122.4062189,,24.82051,0.1,180.99629,1590701684445
Fix,GT,37.641728,-122.4061945,,24.963356,0.1,179.92642,1590701685445
Fix,GT,37.6415037,-122.4061641,,25.144184,0.1,178.67603,1590701686445
Fix,GT,37.6412782,-122.4061273,,25.342041,0.1,177.41492,1590701687445
Fix,GT,37.6410517,-122.406084,,25.508026,0.1,176.20923,1590701688445
Fix,GT,37.640825,-122.406035,,25.504868,0.1,175.17847,1590701689445
Fix,GT,37.6405998,-122.4059811,,25.351383,0.1,174.07764,1590701690445
Fix,GT,37.6403775,-122.4059217,,25.143309,0.1,172.71631,1590701691445
Fix,GT,37.6401582,-122.4058562,,24.879967,0.1,171.45557,1590701692445
Fix,GT,37.6399425,-122.4057865,,24.548607,0.1,170.65967,1590701693445
Fix,GT,37.6397306,-122.4057144,,24.191689,0.1,169.95795,1590701694445
Fix,GT,37.6395225,-122.4056397,,23.872478,0.1,169.02332,1590701695445
Fix,GT,37.639318,-122.4055617,,23.578785,0.1,168.15887,1590701696445
Fix,GT,37.639117,-122.4054809,,23.270136,0.1,167.22418,1590701697445
Fix,GT,37.6389195,-122.4053971,,22.984657,0.1,166.3722,1590701698445
Fix,GT,37.638725,-122.4053111,,22.814953,0.1,165.78015,1590701699445
Fix,GT,37.6385318,-122.4052229,,22.894737,0.1,165.0503,1590701700445
Fix,GT,37.6383379,-122.40513,,23.153286,0.1,164.17737,1590701701445
Fix,GT,37.6381432,-122.4050329,,23.341702,0.1,163.43433,1590701702445
Fix,GT,37.6379481,-122.4049323,,23.455,0.1,162.8147,1590701703445
Fix,GT,37.6377529,-122.4048295,,23.51678,0.1,162.5462,1590701704445
Fix,GT,37.6375579,-122.4047265,,23.415836,0.1,162.55237,1590701705445
Fix,GT,37.6373638,-122.4046239,,23.347378,0.1,162.50134,1590701706445
Fix,GT,37.6371695,-122.4045209,,23.484064,0.1,162.42615,1590701707445
Fix,GT,37.6369733,-122.4044171,,23.74732,0.1,162.60028,1590701708445
Fix,GT,37.6367748,-122.4043132,,24.004059,0.1,162.87689,1590701709445
Fix,GT,37.6365737,-122.4042096,,24.259281,0.1,163.35052,1590701710445
Fix,GT,37.636369,-122.4041085,,24.539902,0.1,164.46265,1590701711445
Fix,GT,37.6361602,-122.404012,,24.842793,0.1,165.79016,1590701712445
Fix,GT,37.6359474,-122.4039201,,25.082146,0.1,166.89044,1590701713445
Fix,GT,37.6357323,-122.4038316,,25.109297,0.1,167.59302,1590701714445
Fix,GT,37.6355169,-122.4037472,,24.96121,0.1,168.45789,1590701715445
Fix,GT,37.6353012,-122.4036675,,24.980988,0.1,169.51514,1590701716445
Fix,GT,37.6350832,-122.4035923,,25.223919,0.1,170.47998,1590701717445
Fix,GT,37.6348619,-122.4035202,,25.49287,0.1,171.25403,1590701718445
Fix,GT,37.6346373,-122.4034515,,25.786228,0.1,172.29944,1590701719445
Fix,GT,37.634409,-122.4033884,,26.103386,0.1,173.55536,1590701720445
Fix,GT,37.634177,-122.4033303,,26.39627,0.1,174.63538,1590701721445
Fix,GT,37.6339416,-122.4032769,,26.662968,0.1,175.71716,1590701722445
Fix,GT,37.6337033,-122.4032287,,26.879183,0.1,176.75543,1590701723445
Fix,GT,37.6334633,-122.4031859,,26.90992,0.1,177.82324,1590701724445
Fix,GT,37.6332226,-122.4031481,,26.962154,0.1,178.64783,1590701725445
Fix,GT,37.6329801,-122.4031131,,27.22754,0.1,179.11255,1590701726445
Fix,GT,37.6327349,-122.4030808,,27.482454,0.1,179.7171,1590701727445
Fix,GT,37.6324876,-122.4030518,,27.633642,0.1,180.35268,1590701728445
Fix,GT,37.6322396,-122.4030248,,27.576225,0.1,180.51096,1590701729445
Fix,GT,37.6319931,-122.4029979,,27.307844,0.1,180.31013,1590701730445
Fix,GT,37.6317497,-122.4029705,,26.965504,0.1,180.23499,1590701731445
Fix,GT,37.6315087,-122.4029435,,26.79854,0.1,180.38948,1590701732445
Fix,GT,37.6312685,-122.4029172,,26.71716,0.1,180.36424,1590701733445
Fix,GT,37.6310298,-122.4028901,,26.485664,0.1,180.04974,1590701734445
Fix,GT,37.6307937,-122.402862,,26.16364,0.1,179.96313,1590701735445
Fix,GT,37.6305605,-122.4028347,,25.82922,0.1,180.21733,1590701736445
Fix,GT,37.6303305,-122.4028084,,25.460983,0.1,180.17534,1590701737445
Fix,GT,37.6301037,-122.4027817,,25.101265,0.1,179.95044,1590701738445
Fix,GT,37.6298797,-122.4027554,,24.872513,0.1,180.1665,1590701739445
Fix,GT,37.6296566,-122.4027303,,24.880077,0.1,180.37471,1590701740445
Fix,GT,37.6294328,-122.4027051,,24.977188,0.1,180.28743,1590701741445
Fix,GT,37.6292082,-122.4026792,,25.090677,0.1,180.12097,1590701742445
Fix,GT,37.6289824,-122.4026517,,25.259542,0.1,179.73804,1590701743445
Fix,GT,37.6287551,-122.4026219,,25.471598,0.1,179.25482,1590701744445
Fix,GT,37.6285261,-122.4025884,,25.689293,0.1,178.27771,1590701745445
Fix,GT,37.628296,-122.4025485,,25.884579,0.1,176.90735,1590701746445
Fix,GT,37.6280651,-122.4025016,,26.054749,0.1,175.73102,1590701747445
Fix,GT,37.6278334,-122.4024486,,26.256924,0.1,174.55713,1590701748445
Fix,GT,37.6276006,-122.4023889,,26.49546,0.1,173.25732,1590701749445
Fix,GT,37.627367,-122.4023215,,26.729012,0.1,171.758,1590701750445
Fix,GT,37.6271324,-122.4022463,,26.999977,0.1,170.51178,1590701751445
Fix,GT,37.6268971,-122.4021656,,27.143284,0.1,169.84924,1590701752445
Fix,GT,37.6266613,-122.4020822,,27.217278,0.1,169.60907,1590701753445
Fix,GT,37.6264243,-122.4019985,,27.456612,0.1,169.89044,1590701754445
Fix,GT,37.6261855,-122.4019158,,27.505379,0.1,170.16986,1590701755445
Fix,GT,37.6259471,-122.4018348,,27.31443,0.1,170.38275,1590701756445
Fix,GT,37.6257104,-122.4017547,,27.09616,0.1,170.46222,1590701757445
Fix,GT,37.6254749,-122.4016756,,27.008503,0.1,170.64258,1590701758445
Fix,GT,37.6252392,-122.4015975,,27.135574,0.1,170.7074,1590701759445
Fix,GT,37.6250022,-122.4015185,,27.273504,0.1,170.50977,1590701760445
Fix,GT,37.6247642,-122.4014392,,27.375034,0.1,170.58374,1590701761445
Fix,GT,37.6245253,-122.4013599,,27.473442,0.1,170.66919,1590701762445
Fix,GT,37.6242858,-122.401281,,27.455223,0.1,170.64978,1590701763445
Fix,GT,37.6240474,-122.4012024,,27.20876,0.1,170.64172,1590701764445
Fix,GT,37.6238127,-122.401125,,26.568195,0.1,170.62543,1590701765445
Fix,GT,37.6235863,-122.4010497,,25.332514,0.1,170.50476,1590701766445
Fix,GT,37.6233723,-122.400978,,23.872616,0.1,170.46204,1590701767445
Fix,GT,37.6231702,-122.4009103,,22.602947,0.1,170.34412,1590701768445
Fix,GT,37.6229789,-122.4008452,,21.361177,0.1,170.06067,1590701769445
Fix,GT,37.6227996,-122.4007832,,19.874199,0.1,169.94672,1590701770445
Fix,GT,37.6226339,-122.4007258,,18.41977,0.1,169.96234,1590701771445
Fix,GT,37.6224784,-122.4006718,,17.591135,0.1,169.91205,1590701772445
Fix,GT,37.6223269,-122.4006196,,17.25796,0.1,170.13245,1590701773445
Fix,GT,37.6221781,-122.4005691,,16.965044,0.1,170.27643,1590701774445
Fix,GT,37.6220312,-122.4005194,,16.887896,0.1,170.34454,1590701775445
Fix,GT,37.6218834,-122.4004697,,17.158127,0.1,170.4624,1590701776445
Fix,GT,37.6217317,-122.4004192,,17.640333,0.1,170.58447,1590701777445
Fix,GT,37.6215767,-122.4003678,,17.905731,0.1,170.55133,1590701778445
Fix,GT,37.6214209,-122.4003155,,17.868645,0.1,170.2591,1590701779445
Fix,GT,37.6212658,-122.4002622,,17.842575,0.1,169.97546,1590701780445
Fix,GT,37.6211101,-122.4002082,,18.031532,0.1,169.98059,1590701781445
Fix,GT,37.6209521,-122.4001539,,18.321743,0.1,170.20587,1590701782445
Fix,GT,37.620792,-122.4000999,,18.467567,0.1,170.41223,1590701783445
Fix,GT,37.620631,-122.4000461,,18.463581,0.1,170.54791,1590701784445
Fix,GT,37.6204701,-122.3999928,,18.4701,0.1,170.6333,1590701785445
Fix,GT,37.6203089,-122.3999395,,18.552795,0.1,170.6308,1590701786445
Fix,GT,37.6201463,-122.3998857,,18.792953,0.1,170.56274,1590701787445
Fix,GT,37.6199811,-122.3998307,,19.17241,0.1,170.50848,1590701788445
Fix,GT,37.6198124,-122.3997743,,19.570095,0.1,170.47223,1590701789445
Fix,GT,37.6196403,-122.3997166,,19.986492,0.1,170.42493,1590701790445
Fix,GT,37.6194643,-122.3996575,,20.431395,0.1,170.4173,1590701791445
Fix,GT,37.6192849,-122.3995972,,20.749985,0.1,170.44635,1590701792445
Fix,GT,37.619104,-122.3995364,,20.777237,0.1,170.38599,1590701793445
Fix,GT,37.6189239,-122.3994756,,20.622004,0.1,170.28589,1590701794445
Fix,GT,37.6187448,-122.3994147,,20.602592,0.1,170.25531,1590701795445
Fix,GT,37.6185648,-122.3993536,,20.828955,0.1,170.297,1590701796445
Fix,GT,37.6183821,-122.399292,,21.153286,0.1,170.40411,1590701797445
Fix,GT,37.6181965,-122.3992297,,21.455315,0.1,170.50983,1590701798445
Fix,GT,37.6180082,-122.3991671,,21.763935,0.1,170.60547,1590701799445
Fix,GT,37.6178173,-122.399104,,22.049591,0.1,170.62201,1590701800445
Fix,GT,37.6176243,-122.3990399,,22.279697,0.1,170.49042,1590701801445
Fix,GT,37.6174291,-122.3989744,,22.58091,0.1,170.33661,1590701802445
Fix,GT,37.6172307,-122.3989068,,23.058651,0.1,170.15533,1590701803445
Fix,GT,37.6170279,-122.3988379,,23.592678,0.1,170.3631,1590701804445
Fix,GT,37.61682,-122.3987688,,24.164406,0.1,170.8587,1590701805445
Fix,GT,37.6166072,-122.398697,,24.761778,0.1,169.91882,1590701806445
Fix,GT,37.6163912,-122.3986162,,25.262402,0.1,167.89917,1590701807445
Fix,GT,37.6161738,-122.3985258,,25.5256,0.1,166.56189,1590701808445
Fix,GT,37.6159569,-122.3984297,,25.48096,0.1,165.46497,1590701809445
Fix,GT,37.6157432,-122.3983286,,25.223324,0.1,164.21631,1590701810445
Fix,GT,37.6155335,-122.398223,,24.935703,0.1,162.96448,1590701811445
Fix,GT,37.6153283,-122.3981123,,24.68291,0.1,161.4148,1590701812445
Fix,GT,37.6151274,-122.397995,,24.521223,0.1,159.68567,1590701813445
Fix,GT,37.6149297,-122.3978714,,24.533916,0.1,158.33533,1590701814445
Fix,GT,37.6147333,-122.3977423,,24.720583,0.1,157.28503,1590701815445
Fix,GT,37.6145366,-122.3976074,,25.042885,0.1,156.25385,1590701816445
Fix,GT,37.614339,-122.3974658,,25.463205,0.1,155.17316,1590701817445
Fix,GT,37.6141402,-122.3973172,,25.883806,0.1,154.1189,1590701818445
Fix,GT,37.6139407,-122.3971619,,26.256996,0.1,153.08374,1590701819445
Fix,GT,37.6137407,-122.3969993,,26.62054,0.1,151.79633,1590701820445
Fix,GT,37.6135412,-122.3968284,,26.973896,0.1,150.27979,1590701821445
Fix,GT,37.613343,-122.3966484,,27.303043,0.1,148.72955,1590701822445
Fix,GT,37.6131468,-122.3964597,,27.565044,0.1,147.21704,1590701823445
Fix,GT,37.6129524,-122.3962633,,27.780792,0.1,145.94275,1590701824445
Fix,GT,37.6127606,-122.3960596,,27.962334,0.1,144.44238,1590701825445
Fix,GT,37.612572,-122.3958484,,28.132847,0.1,143.05618,1590701826445
Fix,GT,37.6123853,-122.3956315,,28.320395,0.1,142.21649,1590701827445
Fix,GT,37.6122003,-122.3954093,,28.505499,0.1,141.0426,1590701828445
Fix,GT,37.6120178,-122.3951806,,28.686394,0.1,139.87396,1590701829445
Fix,GT,37.611838,-122.3949458,,28.921597,0.1,138.63812,1590701830445
Fix,GT,37.6116603,-122.3947033,,29.341324,0.1,137.28632,1590701831445
Fix,GT,37.6114842,-122.3944515,,29.855076,0.1,136.06699,1590701832445
Fix,GT,37.6113091,-122.3941913,,30.325699,0.1,135.14154,1590701833445
Fix,GT,37.6111341,-122.3939244,,30.74928,0.1,134.56503,1590701834445
Fix,GT,37.6109581,-122.3936522,,31.184181,0.1,134.26312,1590701835445
Fix,GT,37.6107806,-122.3933752,,31.620102,0.1,134.1113,1590701836445
Fix,GT,37.6106009,-122.3930945,,31.992367,0.1,134.09479,1590701837445
Fix,GT,37.6104198,-122.3928107,,32.254784,0.1,133.89545,1590701838445
Fix,GT,37.6102391,-122.3925244,,32.219666,0.1,133.55414,1590701839445
Fix,GT,37.6100602,-122.3922393,,31.875051,0.1,133.58597,1590701840445
Fix,GT,37.6098824,-122.3919579,,31.633957,0.1,133.9169,1590701841445
Fix,GT,37.6097041,-122.3916785,,31.636751,0.1,134.10101,1590701842445
Fix,GT,37.6095249,-122.3913994,,31.71325,0.1,134.3226,1590701843445
Fix,GT,37.6093445,-122.3911204,,31.768616,0.1,134.47687,1590701844445
Fix,GT,37.6091637,-122.3908413,,31.79123,0.1,134.40488,1590701845445
Fix,GT,37.6089833,-122.3905617,,31.777311,0.1,134.29236,1590701846445
Fix,GT,37.6088032,-122.3902823,,31.709967,0.1,134.31677,1590701847445
Fix,GT,37.6086234,-122.3900033,,31.66541,0.1,134.31815,1590701848445
Fix,GT,37.6084439,-122.389725,,31.582462,0.1,134.31427,1590701849445
Fix,GT,37.6082652,-122.389448,,31.370575,0.1,134.39679,1590701850445
Fix,GT,37.6080876,-122.3891738,,31.080023,0.1,134.48395,1590701851445
Fix,GT,37.6079114,-122.3889019,,30.878555,0.1,134.52075,1590701852445
Fix,GT,37.6077358,-122.3886314,,30.776886,0.1,134.58371,1590701853445
Fix,GT,37.6075605,-122.3883622,,30.673912,0.1,134.61322,1590701854445
Fix,GT,37.6073858,-122.3880938,,30.549774,0.1,134.61472,1590701855445
Fix,GT,37.6072122,-122.3878262,,30.413147,0.1,134.46487,1590701856445
Fix,GT,37.6070395,-122.3875601,,30.235332,0.1,134.64175,1590701857445
Fix,GT,37.6068668,-122.3872967,,30.02086,0.1,134.88779,1590701858445
Fix,GT,37.6066954,-122.3870354,,29.795994,0.1,134.69672,1590701859445
Fix,GT,37.6065253,-122.3867753,,29.71165,0.1,134.75827,1590701860445
Fix,GT,37.6063548,-122.3865156,,29.75297,0.1,134.89374,1590701861445
Fix,GT,37.6061842,-122.386256,,29.676796,0.1,134.80383,1590701862445
Fix,GT,37.6060149,-122.3859974,,29.474716,0.1,134.67871,1590701863445
Fix,GT,37.6058469,-122.38574,,29.320343,0.1,134.73566,1590701864445
Fix,GT,37.605679,-122.3854842,,29.270905,0.1,134.88535,1590701865445
Fix,GT,37.6055111,-122.3852288,,29.209545,0.1,134.71588,1590701866445
Fix,GT,37.6053449,-122.3849736,,28.953808,0.1,134.56464,1590701867445
Fix,GT,37.6051809,-122.3847216,,28.539692,0.1,134.63034,1590701868445
Fix,GT,37.6050192,-122.3844741,,28.000816,0.1,134.66333,1590701869445
Fix,GT,37.6048615,-122.3842325,,27.122318,0.1,134.66473,1590701870445
Fix,GT,37.6047097,-122.3839986,,26.212252,0.1,134.57523,1590701871445
Fix,GT,37.6045617,-122.3837714,,25.699036,0.1,134.72089,1590701872445
Fix,GT,37.6044154,-122.3835486,,25.311516,0.1,134.84644,1590701873445
Fix,GT,37.6042716,-122.3833292,,24.884037,0.1,134.68298,1590701874445
Fix,GT,37.6041308,-122.3831128,,24.479439,0.1,134.46246,1590701875445
Fix,GT,37.6039928,-122.3828991,,24.152302,0.1,134.22278,1590701876445
Fix,GT,37.6038569,-122.3826878,,23.853241,0.1,134.32526,1590701877445
Fix,GT,37.6037219,-122.3824798,,23.600174,0.1,134.62115,1590701878445
Fix,GT,37.6035874,-122.3822738,,23.472244,0.1,134.6305,1590701879445
Fix,GT,37.6034538,-122.3820682,,23.392632,0.1,134.52893,1590701880445
Fix,GT,37.6033211,-122.3818637,,23.203968,0.1,134.54099,1590701881445
