MessageType,Provider,LatitudeDegrees,LongitudeDegrees,AltitudeMeters,SpeedMps,AccuracyMeters,BearingDegrees,UnixTimeMillis
Fix,GT,37.5252209,-122.3533955,,0.002196087,0.1,228.1664,1596754355447
Fix,GT,37.5252209,-122.3533955,,0.0031622779,0.1,228.16653,1596754356447
Fix,GT,37.5252209,-122.3533955,,0.0031622776,0.1,228.16676,1596754357447
Fix,GT,37.5252209,-122.3533955,,0.0033605448,0.1,228.16695,1596754358447
Fix,GT,37.5252209,-122.3533955,,0.0048217075,0.1,228.16731,1596754359447
Fix,GT,37.5252209,-122.3533955,,0.0067519555,0.1,228.16777,1596754360447
Fix,GT,37.5252209,-122.3533955,,0.0060241586,0.1,228.16791,1596754361447
Fix,GT,37.5252209,-122.3533955,,0.00408453,0.1,228.16771,1596754362447
Fix,GT,37.5252209,-122.3533955,,0.0036055513,0.1,228.16771,1596754363447
Fix,GT,37.5252209,-122.3533955,,0.0036055516,0.1,228.17108,1596754364447
Fix,GT,37.5252209,-122.3533955,,0.0029930081,0.1,228.171,1596754365447
Fix,GT,37.5252209,-122.3533955,,0.0030801035,0.1,228.1678,1596754366447
Fix,GT,37.5252209,-122.3533955,,0.0041231057,0.1,228.16898,1596754367447
Fix,GT,37.5252209,-122.3533955,,0.0046876003,0.1,228.1682,1596754368447
Fix,GT,37.5252209,-122.3533955,,0.0052128877,0.1,228.16948,1596754369447
Fix,GT,37.5252209,-122.3533956,,0.004105438,0.1,228.16655,1596754370447
Fix,GT,37.5252208,-122.3533956,,0.006063364,0.1,228.16292,1596754371447
Fix,GT,37.5252208,-122.3533956,,0.010384031,0.1,228.16386,1596754372447
Fix,GT,37.5252208,-122.3533956,,0.010600099,0.1,228.16422,1596754373447
Fix,GT,37.5252208,-122.3533956,,0.010940734,0.1,228.16444,1596754374447
Fix,GT,37.5252208,-122.3533956,,0.012041595,0.1,228.16476,1596754375447
Fix,GT,37.5252208,-122.3533956,,0.012933508,0.1,228.16508,1596754376447
Fix,GT,37.5252208,-122.3533956,,0.014526371,0.1,228.16545,1596754377447
Fix,GT,37.5252208,-122.3533956,,0.014768245,0.1,228.16579,1596754378447
Fix,GT,37.5252208,-122.3533956,,0.014622947,0.1,228.16573,1596754379447
Fix,GT,37.5252208,-122.3533956,,0.015059374,0.1,228.16565,1596754380447
Fix,GT,37.5252208,-122.3533956,,0.01520624,0.1,228.16595,1596754381447
Fix,GT,37.5252208,-122.3533956,,0.015104285,0.1,228.16609,1596754382447
Fix,GT,37.5252208,-122.3533956,,0.014446661,0.1,228.16614,1596754383447
Fix,GT,37.5252207,-122.3533956,,0.013302898,0.1,228.16666,1596754384447
Fix,GT,37.5252206,-122.3533956,,0.012025336,0.1,228.16626,1596754385447
Fix,GT,37.5252205,-122.3533955,,0.012302874,0.1,228.16687,1596754386447
Fix,GT,37.5252204,-122.3533954,,0.01285691,0.1,228.16924,1596754387447
Fix,GT,37.5252203,-122.3533952,,0.012807799,0.1,228.17093,1596754388447
Fix,GT,37.5252203,-122.353395,,0.015329225,0.1,228.17027,1596754389447
Fix,GT,37.5252203,-122.3533948,,0.023344317,0.1,228.16818,1596754390447
Fix,GT,37.5252203,-122.3533946,,0.035170034,0.1,228.16899,1596754391447
Fix,GT,37.5252198,-122.3533935,,0.2714681,0.1,228.06116,1596754392447
Fix,GT,37.5252153,-122.3533881,,1.1028541,0.1,226.85716,1596754393447
Fix,GT,37.5252034,-122.3533734,,2.4550896,0.1,224.39313,1596754394447
Fix,GT,37.5251828,-122.3533468,,3.8784657,0.1,222.36092,1596754395447
Fix,GT,37.5251545,-122.353309,,5.1619143,0.1,221.44356,1596754396447
Fix,GT,37.525119,-122.3532615,,6.332764,0.1,221.51987,1596754397447
Fix,GT,37.5250769,-122.353206,,7.183654,0.1,222.00795,1596754398447
Fix,GT,37.52503,-122.3531461,,7.6355953,0.1,223.02367,1596754399447
Fix,GT,37.5249812,-122.3530868,,7.604278,0.1,225.24713,1596754400447
Fix,GT,37.5249325,-122.3530327,,7.050025,0.1,228.16158,1596754401447
Fix,GT,37.5248862,-122.3529864,,6.2529793,0.1,230.53873,1596754402447
Fix,GT,37.5248441,-122.352947,,5.4813766,0.1,231.8274,1596754403447
Fix,GT,37.5248054,-122.3529131,,4.633455,0.1,233.61497,1596754404447
Fix,GT,37.5247742,-122.352888,,3.4270325,0.1,236.67319,1596754405447
Fix,GT,37.5247547,-122.3528746,,2.6745245,0.1,242.56151,1596754406447
Fix,GT,37.52474,-122.3528682,,2.7994304,0.1,253.61139,1596754407447
Fix,GT,37.5247245,-122.3528663,,3.2709496,0.1,270.227,1596754408447
Fix,GT,37.5247044,-122.3528714,,3.9017694,0.1,289.06036,1596754409447
Fix,GT,37.5246754,-122.3528898,,4.82766,0.1,302.25903,1596754410447
Fix,GT,37.5246374,-122.352924,,5.853255,0.1,308.6655,1596754411447
Fix,GT,37.5245935,-122.3529698,,6.6209574,0.1,313.05472,1596754412447
Fix,GT,37.5245473,-122.3530254,,7.175029,0.1,315.34467,1596754413447
Fix,GT,37.5244988,-122.3530884,,7.9886885,0.1,314.71222,1596754414447
Fix,GT,37.5244439,-122.3531571,,8.807334,0.1,313.3543,1596754415447
Fix,GT,37.5243841,-122.3532296,,9.181408,0.1,312.22168,1596754416447
Fix,GT,37.5243221,-122.3533028,,9.30999,0.1,311.23242,1596754417447
Fix,GT,37.52426,-122.3533756,,9.265646,0.1,310.21634,1596754418447
Fix,GT,37.5242,-122.3534469,,9.112898,0.1,309.5261,1596754419447
Fix,GT,37.5241418,-122.3535167,,9.07421,0.1,308.37952,1596754420447
Fix,GT,37.5240814,-122.3535857,,9.382784,0.1,305.92157,1596754421447
Fix,GT,37.5240117,-122.3536522,,9.900937,0.1,301.6343,1596754422447
Fix,GT,37.5239306,-122.3537119,,10.32128,0.1,295.6842,1596754423447
Fix,GT,37.5238432,-122.353763,,10.711573,0.1,290.50632,1596754424447
Fix,GT,37.5237545,-122.353808,,10.904604,0.1,288.24545,1596754425447
Fix,GT,37.5236677,-122.3538502,,10.653095,0.1,288.1239,1596754426447
Fix,GT,37.5235824,-122.3538923,,10.505825,0.1,289.69647,1596754427447
Fix,GT,37.5234984,-122.3539389,,10.594574,0.1,294.40994,1596754428447
Fix,GT,37.5234181,-122.3539966,,10.673696,0.1,302.72696,1596754429447
Fix,GT,37.5233437,-122.3540704,,10.665209,0.1,312.7495,1596754430447
Fix,GT,37.5232788,-122.3541596,,10.529837,0.1,322.75027,1596754431447
Fix,GT,37.5232305,-122.3542579,,10.284918,0.1,334.05798,1596754432447
Fix,GT,37.5232055,-122.3543589,,10.327915,0.1,345.93082,1596754433447
Fix,GT,37.5231972,-122.3544677,,10.626636,0.1,353.7594,1596754434447
Fix,GT,37.5231933,-122.3545878,,10.791563,0.1,356.06094,1596754435447
Fix,GT,37.5231916,-122.3547095,,10.791243,0.1,356.69476,1596754436447
Fix,GT,37.5231902,-122.3548311,,10.53228,0.1,356.52765,1596754437447
Fix,GT,37.5231881,-122.3549501,,10.374712,0.1,355.5939,1596754438447
Fix,GT,37.5231853,-122.3550678,,10.632708,0.1,354.6884,1596754439447
Fix,GT,37.5231816,-122.3551894,,10.919243,0.1,354.30984,1596754440447
Fix,GT,37.5231771,-122.3553139,,11.124239,0.1,354.1347,1596754441447
Fix,GT,37.5231723,-122.3554407,,11.294193,0.1,354.00537,1596754442447
Fix,GT,37.5231675,-122.3555693,,11.535311,0.1,354.37646,1596754443447
Fix,GT,37.5231638,-122.3557012,,11.922121,0.1,355.10675,1596754444447
Fix,GT,37.523161,-122.3558381,,12.29656,0.1,355.37155,1596754445447
Fix,GT,37.5231577,-122.355978,,12.439917,0.1,355.0892,1596754446447
Fix,GT,37.5231538,-122.3561172,,12.102985,0.1,354.7878,1596754447447
Fix,GT,37.52315,-122.3562491,,11.190057,0.1,354.95172,1596754448447
Fix,GT,37.5231467,-122.3563698,,10.133707,0.1,355.1536,1596754449447
Fix,GT,37.5231434,-122.3564777,,8.885595,0.1,355.15555,1596754450447
Fix,GT,37.5231406,-122.3565704,,7.432987,0.1,355.2889,1596754451447
Fix,GT,37.5231386,-122.3566459,,5.809247,0.1,355.51428,1596754452447
Fix,GT,37.5231372,-122.3567016,,4.0761914,0.1,355.52225,1596754453447
Fix,GT,37.5231361,-122.3567395,,2.7468257,0.1,355.43884,1596754454447
Fix,GT,37.5231355,-122.3567647,,1.7345824,0.1,355.34424,1596754455447
Fix,GT,37.5231351,-122.3567794,,1.0682678,0.1,355.2928,1596754456447
Fix,GT,37.5231346,-122.356792,,1.4417595,0.1,354.6569,1596754457447
Fix,GT,37.523131,-122.3568196,,2.970788,0.1,346.8936,1596754458447
Fix,GT,37.523114,-122.3568681,,4.643303,0.1,326.467,1596754459447
Fix,GT,37.5230732,-122.3569176,,5.871049,0.1,300.87283,1596754460447
Fix,GT,37.5230117,-122.3569479,,7.0865574,0.1,279.63623,1596754461447
Fix,GT,37.522936,-122.3569536,,8.442053,0.1,263.60907,1596754462447
Fix,GT,37.5228518,-122.3569344,,9.552715,0.1,252.143,1596754463447
Fix,GT,37.5227654,-122.3568969,,10.148357,0.1,247.54202,1596754464447
Fix,GT,37.5226801,-122.356853,,10.331043,0.1,246.99442,1596754465447
Fix,GT,37.5225993,-122.3568101,,10.255355,0.1,248.54996,1596754466447
Fix,GT,37.522528,-122.356774,,9.742589,0.1,250.85855,1596754467447
Fix,GT,37.5224439,-122.35675,,8.845716,0.1,251.3724,1596754468447
Fix,GT,37.5223519,-122.3567257,,7.9765368,0.1,245.1816,1596754469447
Fix,GT,37.5222861,-122.3566785,,7.6928167,0.1,227.98065,1596754470447
Fix,GT,37.5222368,-122.356604,,7.997484,0.1,207.2645,1596754471447
Fix,GT,37.5222077,-122.3565112,,8.573637,0.1,193.21762,1596754472447
Fix,GT,37.5221895,-122.3564105,,9.367672,0.1,189.78957,1596754473447
Fix,GT,37.5221691,-122.3563057,,10.180066,0.1,194.68085,1596754474447
Fix,GT,37.5221359,-122.3562,,10.996643,0.1,205.0367,1596754475447
Fix,GT,37.522082,-122.3560979,,12.088026,0.1,217.70477,1596754476447
Fix,GT,37.5220025,-122.3560028,,13.672745,0.1,229.88345,1596754477447
Fix,GT,37.5218958,-122.3559154,,15.506571,0.1,238.16763,1596754478447
Fix,GT,37.5217658,-122.35583,,17.28007,0.1,240.86131,1596754479447
Fix,GT,37.52162,-122.3557388,,18.863976,0.1,241.03392,1596754480447
Fix,GT,37.5214624,-122.3556393,,20.235498,0.1,240.59607,1596754481447
Fix,GT,37.5212952,-122.3555314,,21.508757,0.1,240.40765,1596754482447
Fix,GT,37.5211173,-122.3554174,,22.83815,0.1,240.7875,1596754483447
Fix,GT,37.5209322,-122.3553009,,23.907446,0.1,240.05676,1596754484447
Fix,GT,37.5207416,-122.3551826,,24.58695,0.1,238.84726,1596754485447
Fix,GT,37.5205424,-122.3550599,,25.148245,0.1,238.72351,1596754486447
Fix,GT,37.5203371,-122.3549323,,25.85812,0.1,238.67154,1596754487447
Fix,GT,37.5201261,-122.3548022,,26.773197,0.1,238.27516,1596754488447
Fix,GT,37.5199108,-122.3546627,,27.636702,0.1,237.40582,1596754489447
Fix,GT,37.5196919,-122.3545058,,28.281166,0.1,236.57953,1596754490447
Fix,GT,37.5194699,-122.3543405,,28.786058,0.1,236.0058,1596754491447
Fix,GT,37.5192446,-122.3541688,,29.20155,0.1,235.55357,1596754492447
Fix,GT,37.5190159,-122.3539918,,29.522316,0.1,234.88544,1596754493447
Fix,GT,37.5187851,-122.353809,,29.822296,0.1,233.92197,1596754494447
Fix,GT,37.5185537,-122.3536193,,30.225658,0.1,232.62518,1596754495447
Fix,GT,37.5183235,-122.3534219,,30.64149,0.1,230.93802,1596754496447
Fix,GT,37.5180962,-122.353217,,31.056425,0.1,229.33069,1596754497447
Fix,GT,37.5178709,-122.353005,,31.504267,0.1,228.37541,1596754498447
Fix,GT,37.5176457,-122.3527856,,32.011425,0.1,227.66489,1596754499447
Fix,GT,37.5174209,-122.352559,,32.52305,0.1,226.8899,1596754500447
Fix,GT,37.5171963,-122.3523259,,32.914837,0.1,226.18184,1596754501447
Fix,GT,37.5169715,-122.3520881,,33.200623,0.1,225.71387,1596754502447
Fix,GT,37.5167453,-122.3518469,,33.42761,0.1,225.4843,1596754503447
Fix,GT,37.5165173,-122.3516024,,33.61207,0.1,225.39095,1596754504447
Fix,GT,37.5162866,-122.3513564,,33.681824,0.1,225.4585,1596754505447
Fix,GT,37.5160526,-122.3511094,,33.84844,0.1,225.55357,1596754506447
Fix,GT,37.5158164,-122.3508594,,34.210484,0.1,225.7876,1596754507447
Fix,GT,37.5155783,-122.350605,,34.547485,0.1,225.94507,1596754508447
Fix,GT,37.5153393,-122.3503475,,34.757607,0.1,225.95215,1596754509447
Fix,GT,37.5150997,-122.3500883,,34.90785,0.1,225.98639,1596754510447
Fix,GT,37.51486,-122.3498286,,34.963604,0.1,226.0403,1596754511447
Fix,GT,37.5146202,-122.3495701,,34.82611,0.1,226.01596,1596754512447
Fix,GT,37.5143803,-122.3493142,,34.683712,0.1,225.9897,1596754513447
Fix,GT,37.5141409,-122.3490649,,34.711,0.1,226.11703,1596754514447
Fix,GT,37.5139032,-122.3488155,,34.82049,0.1,226.36201,1596754515447
Fix,GT,37.5136666,-122.348557,,34.86759,0.1,226.54291,1596754516447
Fix,GT,37.5134299,-122.3482975,,34.904335,0.1,226.5117,1596754517447
Fix,GT,37.5131931,-122.3480368,,35.01378,0.1,226.15855,1596754518447
Fix,GT,37.5129566,-122.3477729,,35.191444,0.1,225.73137,1596754519447
Fix,GT,37.5127205,-122.3475052,,35.372726,0.1,225.17767,1596754520447
Fix,GT,37.5124855,-122.3472327,,35.572376,0.1,224.45218,1596754521447
Fix,GT,37.5122524,-122.3469545,,35.87121,0.1,223.64278,1596754522447
Fix,GT,37.5120199,-122.3466702,,36.20978,0.1,222.96425,1596754523447
Fix,GT,37.5117887,-122.346381,,36.448997,0.1,222.38242,1596754524447
Fix,GT,37.5115589,-122.3460865,,36.69909,0.1,221.6948,1596754525447
Fix,GT,37.5113282,-122.3457866,,36.92682,0.1,220.98059,1596754526447
Fix,GT,37.5110995,-122.3454814,,37.0399,0.1,220.26903,1596754527447
Fix,GT,37.5108734,-122.3451722,,37.077126,0.1,219.59563,1596754528447
Fix,GT,37.5106498,-122.3448596,,37.07583,0.1,218.84703,1596754529447
Fix,GT,37.5104295,-122.3445436,,37.046326,0.1,218.14082,1596754530447
Fix,GT,37.5102122,-122.3442251,,36.981956,0.1,217.70871,1596754531447
Fix,GT,37.5099973,-122.3439061,,36.780045,0.1,217.1341,1596754532447
Fix,GT,37.5097871,-122.3435856,,36.526054,0.1,216.08766,1596754533447
Fix,GT,37.5095829,-122.3432618,,36.420242,0.1,215.38078,1596754534447
Fix,GT,37.5093815,-122.3429363,,36.40239,0.1,215.0813,1596754535447
Fix,GT,37.5091811,-122.3426099,,36.456085,0.1,214.85876,1596754536447
Fix,GT,37.5089811,-122.3422822,,36.567028,0.1,214.82349,1596754537447
Fix,GT,37.5087806,-122.3419534,,36.680695,0.1,214.80585,1596754538447
Fix,GT,37.5085796,-122.3416234,,36.766335,0.1,214.72223,1596754539447
Fix,GT,37.508379,-122.3412921,,36.78359,0.1,214.51305,1596754540447
Fix,GT,37.5081795,-122.3409601,,36.744473,0.1,214.39752,1596754541447
Fix,GT,37.5079802,-122.3406282,,36.718384,0.1,214.49825,1596754542447
Fix,GT,37.5077795,-122.3402973,,36.785027,0.1,214.88422,1596754543447
Fix,GT,37.5075764,-122.339967,,36.94826,0.1,215.23494,1596754544447
Fix,GT,37.507372,-122.3396357,,37.135532,0.1,215.18622,1596754545447
Fix,GT,37.5071669,-122.3393023,,37.299084,0.1,215.14966,1596754546447
Fix,GT,37.506961,-122.3389673,,37.419968,0.1,215.20178,1596754547447
Fix,GT,37.5067548,-122.3386318,,37.39419,0.1,215.06616,1596754548447
Fix,GT,37.5065499,-122.3382963,,37.242,0.1,214.90607,1596754549447
Fix,GT,37.5063464,-122.3379618,,37.087433,0.1,214.91592,1596754550447
Fix,GT,37.506144,-122.3376286,,36.89657,0.1,214.83415,1596754551447
Fix,GT,37.5059432,-122.3372966,,36.7259,0.1,214.7427,1596754552447
Fix,GT,37.5057433,-122.3369661,,36.603043,0.1,214.90457,1596754553447
Fix,GT,37.5055428,-122.3366385,,36.446865,0.1,215.46944,1596754554447
Fix,GT,37.5053407,-122.336315,,36.267952,0.1,215.95456,1596754555447
Fix,GT,37.5051379,-122.3359952,,36.020714,0.1,216.37158,1596754556447
Fix,GT,37.5049347,-122.3356807,,35.630234,0.1,216.99908,1596754557447
Fix,GT,37.5047312,-122.3353728,,35.135628,0.1,217.44873,1596754558447
Fix,GT,37.5045288,-122.3350714,,34.632572,0.1,217.96909,1596754559447
Fix,GT,37.5043268,-122.3347769,,34.157047,0.1,218.62852,1596754560447
Fix,GT,37.504125,-122.334488,,33.880424,0.1,218.90044,1596754561447
Fix,GT,37.5039234,-122.3342004,,33.8953,0.1,218.72115,1596754562447
Fix,GT,37.5037223,-122.333911,,33.967297,0.1,218.48125,1596754563447
Fix,GT,37.5035212,-122.3336212,,34.009926,0.1,218.6234,1596754564447
Fix,GT,37.5033191,-122.3333321,,34.053326,0.1,218.93759,1596754565447
Fix,GT,37.5031161,-122.3330432,,34.102654,0.1,218.96414,1596754566447
Fix,GT,37.5029128,-122.3327536,,34.170563,0.1,218.86357,1596754567447
Fix,GT,37.5027099,-122.3324628,,34.153675,0.1,218.63348,1596754568447
Fix,GT,37.5025085,-122.3321709,,34.110687,0.1,218.24625,1596754569447
Fix,GT,37.5023091,-122.3318769,,34.095074,0.1,217.46019,1596754570447
Fix,GT,37.5021143,-122.3315786,,34.01322,0.1,216.03795,1596754571447
Fix,GT,37.5019267,-122.3312743,,33.87913,0.1,214.3038,1596754572447
Fix,GT,37.5017474,-122.330964,,33.76656,0.1,212.37,1596754573447
Fix,GT,37.5015778,-122.3306464,,33.65994,0.1,210.15593,1596754574447
Fix,GT,37.5014184,-122.3303218,,33.58865,0.1,207.8405,1596754575447
Fix,GT,37.5012697,-122.3299897,,33.56428,0.1,205.58107,1596754576447
Fix,GT,37.5011314,-122.3296509,,33.513084,0.1,203.51646,1596754577447
Fix,GT,37.5010022,-122.3293067,,33.496998,0.1,201.64087,1596754578447
Fix,GT,37.5008829,-122.3289574,,33.524803,0.1,199.72888,1596754579447
Fix,GT,37.5007735,-122.3286033,,33.507904,0.1,197.80801,1596754580447
Fix,GT,37.5006728,-122.3282451,,33.505566,0.1,195.82285,1596754581447
Fix,GT,37.500583,-122.3278822,,33.521126,0.1,193.37154,1596754582447
Fix,GT,37.5005064,-122.3275145,,33.536854,0.1,190.8891,1596754583447
Fix,GT,37.5004412,-122.3271431,,33.59514,0.1,188.75328,1596754584447
Fix,GT,37.5003851,-122.3267685,,33.76062,0.1,186.7098,1596754585447
Fix,GT,37.5003392,-122.3263894,,34.029137,0.1,184.77286,1596754586447
Fix,GT,37.5003033,-122.3260046,,34.34827,0.1,182.74968,1596754587447
Fix,GT,37.5002784,-122.3256146,,34.673115,0.1,180.44826,1596754588447
Fix,GT,37.5002661,-122.3252195,,34.96928,0.1,178.40936,1596754589447
Fix,GT,37.500263,-122.3248205,,35.333023,0.1,177.33496,1596754590447
Fix,GT,37.5002627,-122.324418,,35.773735,0.1,177.4043,1596754591447
Fix,GT,37.5002614,-122.3240119,,36.106476,0.1,177.89978,1596754592447
Fix,GT,37.5002581,-122.3236033,,36.194317,0.1,178.24634,1596754593447
Fix,GT,37.5002526,-122.3231951,,36.0394,0.1,178.76013,1596754594447
Fix,GT,37.5002428,-122.3227891,,35.91636,0.1,179.92468,1596754595447
Fix,GT,37.5002247,-122.3223845,,35.943645,0.1,181.96805,1596754596447
Fix,GT,37.5001932,-122.3219813,,35.979816,0.1,184.65846,1596754597447
Fix,GT,37.5001471,-122.3215793,,36.046776,0.1,186.83276,1596754598447
Fix,GT,37.5000901,-122.3211785,,36.0897,0.1,188.47412,1596754599447
Fix,GT,37.5000237,-122.32078,,36.0465,0.1,190.1755,1596754600447
Fix,GT,37.499949,-122.3203849,,35.874928,0.1,191.756,1596754601447
Fix,GT,37.4998656,-122.3199955,,35.626858,0.1,193.574,1596754602447
Fix,GT,37.4997722,-122.3196118,,35.51416,0.1,195.68327,1596754603447
Fix,GT,37.4996674,-122.3192338,,35.485916,0.1,198.11154,1596754604447
Fix,GT,37.4995504,-122.3188617,,35.42805,0.1,200.28061,1596754605447
Fix,GT,37.4994232,-122.3184964,,35.18945,0.1,202.1856,1596754606447
Fix,GT,37.4992875,-122.3181406,,34.713676,0.1,204.07173,1596754607447
Fix,GT,37.4991451,-122.317794,,34.45034,0.1,205.50824,1596754608447
Fix,GT,37.4989963,-122.3174524,,34.56922,0.1,206.97466,1596754609447
Fix,GT,37.4988395,-122.317114,,34.80362,0.1,208.6905,1596754610447
Fix,GT,37.4986737,-122.3167794,,35.047207,0.1,210.42294,1596754611447
Fix,GT,37.4984993,-122.3164481,,35.28145,0.1,211.71884,1596754612447
Fix,GT,37.4983188,-122.3161181,,35.592396,0.1,212.43814,1596754613447
Fix,GT,37.4981338,-122.3157864,,36.012703,0.1,212.59203,1596754614447
Fix,GT,37.4979459,-122.3154505,,36.439697,0.1,212.44264,1596754615447
Fix,GT,37.4977574,-122.3151109,,36.634537,0.1,212.04744,1596754616447
Fix,GT,37.4975709,-122.3147676,,36.70732,0.1,211.3054,1596754617447
Fix,GT,37.4973878,-122.3144201,,36.875183,0.1,210.78102,1596754618447
Fix,GT,37.4972058,-122.3140707,,36.993755,0.1,210.92876,1596754619447
Fix,GT,37.4970233,-122.3137207,,36.98098,0.1,210.42615,1596754620447
Fix,GT,37.4968446,-122.3133674,,36.94612,0.1,208.96947,1596754621447
Fix,GT,37.4966733,-122.3130079,,36.992233,0.1,207.59332,1596754622447
Fix,GT,37.4965084,-122.3126437,,37.031425,0.1,206.38628,1596754623447
Fix,GT,37.4963487,-122.3122753,,37.07656,0.1,205.23611,1596754624447
Fix,GT,37.4961945,-122.311902,,37.1595,0.1,203.93463,1596754625447
Fix,GT,37.4960471,-122.3115235,,37.25888,0.1,202.34935,1596754626447
Fix,GT,37.495908,-122.3111389,,37.324524,0.1,200.66626,1596754627447
Fix,GT,37.4957774,-122.3107491,,37.326637,0.1,199.20686,1596754628447
Fix,GT,37.4956549,-122.3103556,,37.229305,0.1,197.81233,1596754629447
Fix,GT,37.4955399,-122.3099598,,37.08285,0.1,196.53943,1596754630447
Fix,GT,37.4954315,-122.3095624,,37.048286,0.1,195.6097,1596754631447
Fix,GT,37.4953272,-122.3091632,,37.141373,0.1,195.00345,1596754632447
Fix,GT,37.4952256,-122.3087623,,37.20574,0.1,194.53221,1596754633447
Fix,GT,37.4951264,-122.3083607,,37.23703,0.1,194.2499,1596754634447
Fix,GT,37.4950285,-122.3079587,,37.269096,0.1,194.20395,1596754635447
Fix,GT,37.4949309,-122.3075568,,37.177765,0.1,194.25455,1596754636447
Fix,GT,37.4948334,-122.3071565,,36.946144,0.1,194.25452,1596754637447
Fix,GT,37.494737,-122.3067579,,36.74912,0.1,194.05121,1596754638447
Fix,GT,37.4946421,-122.3063606,,36.594944,0.1,194.08441,1596754639447
Fix,GT,37.4945462,-122.3059657,,36.461155,0.1,194.66125,1596754640447
Fix,GT,37.4944466,-122.3055743,,36.32106,0.1,195.8744,1596754641447
Fix,GT,37.4943391,-122.3051885,,36.192177,0.1,197.84378,1596754642447
Fix,GT,37.4942201,-122.3048093,,36.10887,0.1,200.21509,1596754643447
Fix,GT,37.4940889,-122.3044372,,36.103317,0.1,202.61981,1596754644447
Fix,GT,37.493946,-122.3040716,,36.131054,0.1,204.76083,1596754645447
Fix,GT,37.4937924,-122.303713,,36.089066,0.1,206.96706,1596754646447
Fix,GT,37.4936284,-122.3033622,,36.07089,0.1,209.16406,1596754647447
Fix,GT,37.4934534,-122.3030207,,36.04261,0.1,211.83368,1596754648447
Fix,GT,37.4932655,-122.3026905,,36.04145,0.1,214.66652,1596754649447
Fix,GT,37.4930665,-122.3023702,,36.11052,0.1,216.61836,1596754650447
Fix,GT,37.4928589,-122.3020572,,36.273506,0.1,218.59846,1596754651447
Fix,GT,37.4926413,-122.3017532,,36.42125,0.1,220.9313,1596754652447
Fix,GT,37.4924128,-122.3014594,,36.556404,0.1,223.16551,1596754653447
Fix,GT,37.4921708,-122.301175,,36.766945,0.1,225.35098,1596754654447
Fix,GT,37.4919178,-122.3009011,,37.01779,0.1,227.8462,1596754655447
Fix,GT,37.4916568,-122.3006402,,37.362133,0.1,230.6217,1596754656447
Fix,GT,37.4913833,-122.3003925,,37.761597,0.1,233.16806,1596754657447
Fix,GT,37.4910994,-122.3001574,,38.054047,0.1,235.4438,1596754658447
Fix,GT,37.4908058,-122.2999357,,38.294426,0.1,237.47794,1596754659447
Fix,GT,37.4905032,-122.2997266,,38.439667,0.1,239.91629,1596754660447
Fix,GT,37.4901936,-122.2995332,,38.319546,0.1,242.1963,1596754661447
Fix,GT,37.489879,-122.2993565,,38.193893,0.1,244.18872,1596754662447
Fix,GT,37.4895602,-122.299195,,38.285057,0.1,246.54546,1596754663447
Fix,GT,37.4892361,-122.2990509,,38.325867,0.1,249.09421,1596754664447
Fix,GT,37.4889077,-122.2989254,,38.208885,0.1,251.62836,1596754665447
Fix,GT,37.4885762,-122.2988164,,38.00395,0.1,254.04749,1596754666447
Fix,GT,37.4882436,-122.2987236,,37.914642,0.1,256.13544,1596754667447
Fix,GT,37.4879097,-122.2986494,,37.94899,0.1,258.6042,1596754668447
Fix,GT,37.487573,-122.2985947,,37.936176,0.1,261.47272,1596754669447
Fix,GT,37.4872342,-122.2985606,,37.770584,0.1,263.85672,1596754670447
Fix,GT,37.4868966,-122.2985443,,37.484642,0.1,266.1076,1596754671447
Fix,GT,37.4865613,-122.298545,,37.25791,0.1,268.5169,1596754672447
Fix,GT,37.4862275,-122.2985624,,37.128803,0.1,270.74628,1596754673447
Fix,GT,37.4858948,-122.2985953,,37.048622,0.1,272.8073,1596754674447
Fix,GT,37.4855627,-122.2986417,,36.94754,0.1,274.2566,1596754675447
Fix,GT,37.4852322,-122.298695,,36.847046,0.1,274.75342,1596754676447
Fix,GT,37.4849028,-122.2987491,,36.77689,0.1,274.71796,1596754677447
Fix,GT,37.4845744,-122.2988019,,36.727097,0.1,274.60837,1596754678447
Fix,GT,37.4842466,-122.2988546,,36.697052,0.1,274.5814,1596754679447
Fix,GT,37.4839192,-122.2989072,,36.65519,0.1,274.48926,1596754680447
Fix,GT,37.4835926,-122.2989595,,36.579414,0.1,274.47873,1596754681447
Fix,GT,37.4832668,-122.2990127,,36.52586,0.1,274.68134,1596754682447
Fix,GT,37.4829415,-122.2990673,,36.488525,0.1,274.8117,1596754683447
Fix,GT,37.4826165,-122.2991222,,36.44223,0.1,274.63794,1596754684447
Fix,GT,37.4822914,-122.2991758,,36.525948,0.1,274.4339,1596754685447
Fix,GT,37.4819649,-122.2992274,,36.703743,0.1,274.1253,1596754686447
Fix,GT,37.4816369,-122.2992771,,36.80224,0.1,274.0621,1596754687447
Fix,GT,37.481308,-122.2993279,,36.846466,0.1,274.40436,1596754688447
Fix,GT,37.4809794,-122.2993807,,36.726486,0.1,274.65173,1596754689447
Fix,GT,37.4806525,-122.299435,,36.398117,0.1,274.85583,1596754690447
Fix,GT,37.4803282,-122.2994898,,36.136185,0.1,274.7749,1596754691447
Fix,GT,37.4800051,-122.2995426,,36.006233,0.1,274.40826,1596754692447
Fix,GT,37.4796826,-122.2995916,,35.903145,0.1,273.63824,1596754693447
Fix,GT,37.4793609,-122.2996327,,35.68865,0.1,272.1239,1596754694447
Fix,GT,37.4790407,-122.2996613,,35.434113,0.1,270.06342,1596754695447
Fix,GT,37.4787222,-122.2996745,,35.286102,0.1,267.77032,1596754696447
Fix,GT,37.4784048,-122.2996716,,35.16956,0.1,265.4886,1596754697447
Fix,GT,37.4780869,-122.2996539,,35.142914,0.1,263.13538,1596754698447
Fix,GT,37.4777678,-122.2996202,,35.044853,0.1,261.02118,1596754699447
Fix,GT,37.4774527,-122.2995716,,34.740326,0.1,259.21948,1596754700447
Fix,GT,37.4771443,-122.2995095,,34.44614,0.1,256.88605,1596754701447
Fix,GT,37.4768398,-122.2994305,,34.405106,0.1,254.19623,1596754702447
Fix,GT,37.4765387,-122.299333,,34.66632,0.1,251.27116,1596754703447
Fix,GT,37.4762389,-122.2992171,,35.013123,0.1,248.40485,1596754704447
Fix,GT,37.4759386,-122.2990839,,35.425,0.1,246.28001,1596754705447
Fix,GT,37.475638,-122.2989365,,35.800858,0.1,244.59381,1596754706447
Fix,GT,37.4753369,-122.298778,,36.063583,0.1,242.73904,1596754707447
Fix,GT,37.4750384,-122.2986065,,36.339676,0.1,240.84439,1596754708447
Fix,GT,37.4747434,-122.2984212,,36.614082,0.1,238.92561,1596754709447
Fix,GT,37.4744527,-122.2982216,,36.775616,0.1,236.85806,1596754710447
Fix,GT,37.4741674,-122.2980077,,36.8974,0.1,234.85077,1596754711447
Fix,GT,37.4738882,-122.297779,,37.01511,0.1,232.4162,1596754712447
Fix,GT,37.4736174,-122.2975327,,37.08513,0.1,229.72841,1596754713447
Fix,GT,37.4733554,-122.2972704,,37.197556,0.1,227.81554,1596754714447
Fix,GT,37.4730974,-122.2969985,,37.455887,0.1,227.11456,1596754715447
Fix,GT,37.4728392,-122.2967215,,37.806915,0.1,226.84471,1596754716447
Fix,GT,37.4725796,-122.2964416,,38.06301,0.1,226.9197,1596754717447
Fix,GT,37.4723185,-122.2961613,,38.15143,0.1,227.13426,1596754718447
Fix,GT,37.4720563,-122.2958816,,38.185677,0.1,227.21423,1596754719447
Fix,GT,37.4717939,-122.2956011,,38.31919,0.1,227.04092,1596754720447
Fix,GT,37.4715311,-122.2953182,,38.507893,0.1,226.81378,1596754721447
Fix,GT,37.4712677,-122.2950326,,38.720387,0.1,226.56656,1596754722447
Fix,GT,37.471004,-122.2947437,,38.9805,0.1,226.384,1596754723447
Fix,GT,37.4707388,-122.2944529,,39.20228,0.1,226.77724,1596754724447
Fix,GT,37.4704696,-122.2941654,,39.352417,0.1,227.78493,1596754725447
Fix,GT,37.4701952,-122.2938832,,39.51718,0.1,228.9955,1596754726447
Fix,GT,37.4699146,-122.293607,,39.725742,0.1,230.46494,1596754727447
Fix,GT,37.4696267,-122.2933416,,39.75695,0.1,232.85725,1596754728447
Fix,GT,37.46933,-122.293093,,39.66391,0.1,235.26099,1596754729447
Fix,GT,37.4690262,-122.2928591,,39.663544,0.1,237.10745,1596754730447
Fix,GT,37.4687162,-122.2926368,,39.754467,0.1,238.7668,1596754731447
Fix,GT,37.4684003,-122.2924253,,39.88185,0.1,240.29565,1596754732447
Fix,GT,37.468079,-122.2922242,,40.033638,0.1,242.1052,1596754733447
Fix,GT,37.4677515,-122.2920352,,40.200554,0.1,244.13191,1596754734447
Fix,GT,37.4674172,-122.2918617,,40.33647,0.1,246.3944,1596754735447
Fix,GT,37.4670769,-122.2917041,,40.36828,0.1,248.30557,1596754736447
Fix,GT,37.466733,-122.2915605,,40.247803,0.1,250.12912,1596754737447
Fix,GT,37.4663873,-122.2914312,,40.037632,0.1,252.13681,1596754738447
Fix,GT,37.4660402,-122.2913188,,39.768883,0.1,254.35992,1596754739447
Fix,GT,37.4656919,-122.2912229,,39.617043,0.1,256.21753,1596754740447
Fix,GT,37.4653418,-122.2911409,,39.660847,0.1,257.93134,1596754741447
Fix,GT,37.4649885,-122.291072,,39.886917,0.1,259.7665,1596754742447
Fix,GT,37.4646313,-122.2910164,,40.166893,0.1,261.52145,1596754743447
Fix,GT,37.4642711,-122.2909752,,40.274715,0.1,263.49838,1596754744447
Fix,GT,37.4639095,-122.2909495,,40.28748,0.1,265.1996,1596754745447
Fix,GT,37.4635469,-122.2909342,,40.321426,0.1,265.93768,1596754746447
Fix,GT,37.4631835,-122.2909222,,40.392097,0.1,266.01294,1596754747447
Fix,GT,37.4628194,-122.29091,,40.474022,0.1,265.98743,1596754748447
Fix,GT,37.4624545,-122.2908981,,40.56001,0.1,266.07806,1596754749447
Fix,GT,37.4620885,-122.2908859,,40.64933,0.1,265.70096,1596754750447
Fix,GT,37.4617214,-122.2908674,,40.77295,0.1,264.2435,1596754751447
Fix,GT,37.4613536,-122.2908355,,40.902313,0.1,262.16904,1596754752447
Fix,GT,37.4609861,-122.2907857,,40.98243,0.1,259.89587,1596754753447
Fix,GT,37.4606196,-122.2907162,,41.07705,0.1,257.2427,1596754754447
Fix,GT,37.4602551,-122.2906247,,41.220924,0.1,254.2716,1596754755447
Fix,GT,37.4598932,-122.290508,,41.482468,0.1,250.97345,1596754756447
Fix,GT,37.4595341,-122.2903663,,41.91478,0.1,248.67252,1596754757447
Fix,GT,37.4591757,-122.2902067,,42.333717,0.1,246.8509,1596754758447
Fix,GT,37.4588186,-122.2900303,,42.666386,0.1,244.62222,1596754759447
Fix,GT,37.4584649,-122.2898337,,42.986237,0.1,241.76602,1596754760447
Fix,GT,37.4581176,-122.2896108,,43.321598,0.1,238.19821,1596754761447
Fix,GT,37.4577793,-122.2893603,,43.65429,0.1,235.34009,1596754762447
Fix,GT,37.4574479,-122.289089,,43.986717,0.1,233.0941,1596754763447
Fix,GT,37.4571232,-122.2887989,,44.273537,0.1,230.4467,1596754764447
Fix,GT,37.4568085,-122.2884876,,44.465134,0.1,227.69038,1596754765447
Fix,GT,37.4565048,-122.2881568,,44.568363,0.1,224.88533,1596754766447
Fix,GT,37.4562141,-122.2878068,,44.650986,0.1,221.9521,1596754767447
Fix,GT,37.4559369,-122.2874393,,44.694527,0.1,219.56622,1596754768447
Fix,GT,37.4556704,-122.2870596,,44.709175,0.1,218.07928,1596754769447
Fix,GT,37.4554105,-122.286673,,44.7126,0.1,217.17448,1596754770447
Fix,GT,37.4551541,-122.2862829,,44.713223,0.1,216.75189,1596754771447
Fix,GT,37.454899,-122.2858917,,44.72452,0.1,216.74385,1596754772447
Fix,GT,37.454644,-122.2855002,,44.772427,0.1,216.803,1596754773447
Fix,GT,37.4543884,-122.2851082,,44.861584,0.1,216.8609,1596754774447
Fix,GT,37.4541317,-122.2847157,,44.97091,0.1,216.94691,1596754775447
Fix,GT,37.4538742,-122.284323,,45.001606,0.1,217.02122,1596754776447
Fix,GT,37.4536162,-122.2839311,,44.94198,0.1,217.20464,1596754777447
Fix,GT,37.4533582,-122.2835409,,44.756424,0.1,217.34148,1596754778447
Fix,GT,37.4531015,-122.2831539,,44.23371,0.1,217.24379,1596754779447
Fix,GT,37.4528494,-122.2827721,,43.47946,0.1,217.02808,1596754780447
Fix,GT,37.4526028,-122.2823954,,42.773533,0.1,216.92828,1596754781447
Fix,GT,37.45236,-122.2820247,,42.154533,0.1,217.03212,1596754782447
Fix,GT,37.4521201,-122.2816595,,41.588562,0.1,217.16464,1596754783447
Fix,GT,37.4518826,-122.2812992,,41.20404,0.1,217.21811,1596754784447
Fix,GT,37.4516461,-122.280941,,41.131897,0.1,217.12587,1596754785447
Fix,GT,37.4514102,-122.2805821,,41.182915,0.1,217.062,1596754786447
Fix,GT,37.4511739,-122.2802232,,41.201115,0.1,217.35062,1596754787447
Fix,GT,37.4509355,-122.2798667,,41.18817,0.1,217.95508,1596754788447
Fix,GT,37.4506943,-122.2795131,,41.227127,0.1,218.38136,1596754789447
Fix,GT,37.4504512,-122.27916,,41.34736,0.1,218.30693,1596754790447
Fix,GT,37.4502085,-122.2788045,,41.398018,0.1,217.87741,1596754791447
Fix,GT,37.4499681,-122.278448,,41.214584,0.1,217.631,1596754792447
Fix,GT,37.4497302,-122.2780919,,41.056316,0.1,217.43279,1596754793447
Fix,GT,37.4494933,-122.277734,,41.321766,0.1,217.1405,1596754794447
Fix,GT,37.4492545,-122.277372,,41.87379,0.1,217.35371,1596754795447
Fix,GT,37.4490106,-122.2770078,,42.321182,0.1,218.00577,1596754796447
Fix,GT,37.4487618,-122.2766441,,42.526756,0.1,218.4913,1596754797447
Fix,GT,37.4485098,-122.2762804,,42.782784,0.1,218.60645,1596754798447
Fix,GT,37.4482555,-122.2759139,,43.201553,0.1,218.61807,1596754799447
Fix,GT,37.4479991,-122.2755439,,43.51873,0.1,218.60962,1596754800447
Fix,GT,37.4477414,-122.2751721,,43.64764,0.1,218.71648,1596754801447
Fix,GT,37.4474823,-122.2748004,,43.799904,0.1,218.88902,1596754802447
Fix,GT,37.4472208,-122.2744278,,44.101665,0.1,219.04286,1596754803447
Fix,GT,37.4469566,-122.2740528,,44.426704,0.1,219.13402,1596754804447
Fix,GT,37.4466908,-122.273676,,44.59143,0.1,219.07697,1596754805447
Fix,GT,37.446425,-122.2732974,,44.647232,0.1,218.83034,1596754806447
Fix,GT,37.4461607,-122.2729172,,44.54268,0.1,218.42152,1596754807447
Fix,GT,37.4459009,-122.2725353,,44.203987,0.1,217.43405,1596754808447
Fix,GT,37.4456494,-122.2721496,,43.889526,0.1,216.04686,1596754809447
Fix,GT,37.4454079,-122.2717572,,43.68593,0.1,214.22096,1596754810447
Fix,GT,37.4451783,-122.2713567,,43.393547,0.1,211.7953,1596754811447
Fix,GT,37.444965,-122.2709469,,42.998257,0.1,209.01164,1596754812447
Fix,GT,37.44477,-122.2705286,,42.506737,0.1,206.40106,1596754813447
Fix,GT,37.444591,-122.2701062,,41.98842,0.1,204.36531,1596754814447
Fix,GT,37.4444259,-122.2696808,,41.641624,0.1,202.34195,1596754815447
Fix,GT,37.4442745,-122.2692501,,41.49111,0.1,200.10855,1596754816447
Fix,GT,37.4441364,-122.2688137,,41.409775,0.1,197.78362,1596754817447
Fix,GT,37.4440132,-122.2683711,,41.34727,0.1,195.35536,1596754818447
Fix,GT,37.4439053,-122.267923,,41.3005,0.1,193.04433,1596754819447
Fix,GT,37.4438117,-122.2674704,,41.284546,0.1,190.96667,1596754820447
Fix,GT,37.4437311,-122.267014,,41.279854,0.1,188.92082,1596754821447
Fix,GT,37.443664,-122.2665545,,41.208057,0.1,186.67462,1596754822447
Fix,GT,37.443611,-122.2660931,,41.142944,0.1,184.52174,1596754823447
Fix,GT,37.4435719,-122.2656299,,41.128036,0.1,182.40094,1596754824447
Fix,GT,37.4435465,-122.2651657,,41.03259,0.1,180.21536,1596754825447
Fix,GT,37.4435352,-122.2647021,,40.86877,0.1,178.08862,1596754826447
Fix,GT,37.4435378,-122.2642404,,40.67724,0.1,175.88293,1596754827447
Fix,GT,37.4435551,-122.2637809,,40.54783,0.1,173.53412,1596754828447
Fix,GT,37.4435864,-122.2633238,,40.506912,0.1,171.61829,1596754829447
Fix,GT,37.4436285,-122.2628687,,40.429733,0.1,170.29108,1596754830447
Fix,GT,37.4436764,-122.2624167,,40.17562,0.1,169.79138,1596754831447
Fix,GT,37.4437249,-122.2619694,,39.743996,0.1,170.03308,1596754832447
Fix,GT,37.4437719,-122.2615267,,39.286446,0.1,169.99927,1596754833447
Fix,GT,37.4438191,-122.2610891,,38.84518,0.1,169.81177,1596754834447
Fix,GT,37.4438662,-122.2606567,,38.400864,0.1,169.96667,1596754835447
Fix,GT,37.4439112,-122.2602292,,37.94054,0.1,170.354,1596754836447
Fix,GT,37.4439532,-122.2598065,,37.503284,0.1,170.9621,1596754837447
Fix,GT,37.4439895,-122.2593881,,37.11551,0.1,172.49365,1596754838447
Fix,GT,37.4440143,-122.2589733,,36.755867,0.1,174.90845,1596754839447
Fix,GT,37.4440246,-122.2585613,,36.45803,0.1,177.44757,1596754840447
Fix,GT,37.4440207,-122.258152,,36.210358,0.1,179.89691,1596754841447
Fix,GT,37.444003,-122.2577462,,35.98339,0.1,182.32668,1596754842447
Fix,GT,37.443972,-122.2573439,,35.734875,0.1,184.59093,1596754843447
Fix,GT,37.4439291,-122.2569469,,35.366272,0.1,186.78479,1596754844447
Fix,GT,37.4438746,-122.2565568,,34.984943,0.1,189.2035,1596754845447
Fix,GT,37.4438077,-122.2561735,,34.650467,0.1,191.5316,1596754846447
Fix,GT,37.4437304,-122.2557974,,34.2864,0.1,193.29948,1596754847447
Fix,GT,37.4436447,-122.2554277,,34.109303,0.1,195.05943,1596754848447
Fix,GT,37.4435494,-122.2550622,,34.129627,0.1,197.01512,1596754849447
Fix,GT,37.4434448,-122.2547002,,34.175724,0.1,198.54936,1596754850447
Fix,GT,37.4433326,-122.2543401,,34.480362,0.1,200.11772,1596754851447
Fix,GT,37.4432085,-122.2539809,,35.14943,0.1,202.84404,1596754852447
Fix,GT,37.4430669,-122.2536229,,35.854965,0.1,205.83743,1596754853447
Fix,GT,37.4429087,-122.2532676,,36.39778,0.1,208.48793,1596754854447
Fix,GT,37.4427351,-122.2529176,,36.826256,0.1,211.07362,1596754855447
Fix,GT,37.4425472,-122.2525734,,37.2759,0.1,213.53464,1596754856447
Fix,GT,37.442346,-122.2522341,,37.76438,0.1,215.58998,1596754857447
Fix,GT,37.4421326,-122.2519,,38.179367,0.1,217.84053,1596754858447
Fix,GT,37.4419063,-122.2515749,,38.450317,0.1,220.16089,1596754859447
Fix,GT,37.4416691,-122.251257,,38.7291,0.1,221.41692,1596754860447
Fix,GT,37.4414261,-122.2509405,,39.095856,0.1,221.77824,1596754861447
Fix,GT,37.4411797,-122.2506217,,39.46151,0.1,221.76399,1596754862447
Fix,GT,37.4409318,-122.2503,,39.68376,0.1,221.60828,1596754863447
Fix,GT,37.4406836,-122.2499768,,39.715443,0.1,221.74341,1596754864447
Fix,GT,37.4404338,-122.2496559,,39.772476,0.1,222.41927,1596754865447
Fix,GT,37.4401797,-122.2493377,,40.027847,0.1,223.04688,1596754866447
Fix,GT,37.4399217,-122.2490194,,40.298164,0.1,223.09692,1596754867447
Fix,GT,37.4396624,-122.248699,,40.510406,0.1,223.03694,1596754868447
Fix,GT,37.4394015,-122.248377,,40.807556,0.1,223.25195,1596754869447
Fix,GT,37.4391368,-122.2480539,,41.246117,0.1,223.73291,1596754870447
Fix,GT,37.4388668,-122.2477299,,41.742832,0.1,224.14647,1596754871447
Fix,GT,37.4385926,-122.2474036,,42.14905,0.1,224.13866,1596754872447
Fix,GT,37.4383164,-122.2470744,,42.433647,0.1,224.02766,1596754873447
Fix,GT,37.4380389,-122.2467426,,42.662495,0.1,224.04126,1596754874447
Fix,GT,37.4377601,-122.2464092,,42.84646,0.1,224.03615,1596754875447
Fix,GT,37.4374801,-122.2460745,,43.018574,0.1,224.0344,1596754876447
Fix,GT,37.4371989,-122.2457384,,43.22101,0.1,223.97159,1596754877447
Fix,GT,37.4369165,-122.2454002,,43.44458,0.1,223.90324,1596754878447
Fix,GT,37.436633,-122.2450601,,43.643032,0.1,223.93834,1596754879447
Fix,GT,37.4363485,-122.2447192,,43.68058,0.1,224.0033,1596754880447
Fix,GT,37.4360641,-122.2443795,,43.488953,0.1,224.08228,1596754881447
Fix,GT,37.4357809,-122.2440428,,43.124416,0.1,224.23625,1596754882447
Fix,GT,37.4354999,-122.24371,,42.6855,0.1,224.37408,1596754883447
Fix,GT,37.4352211,-122.2433809,,42.33412,0.1,224.34245,1596754884447
Fix,GT,37.434944,-122.2430534,,42.193623,0.1,224.11487,1596754885447
Fix,GT,37.4346682,-122.2427256,,42.18943,0.1,223.9782,1596754886447
Fix,GT,37.4343927,-122.2423969,,42.19323,0.1,223.95285,1596754887447
Fix,GT,37.4341174,-122.2420687,,42.123287,0.1,224.05634,1596754888447
Fix,GT,37.4338424,-122.2417425,,41.900665,0.1,224.21286,1596754889447
Fix,GT,37.4335693,-122.2414188,,41.515465,0.1,224.12682,1596754890447
Fix,GT,37.4332993,-122.2410975,,41.121323,0.1,223.97667,1596754891447
Fix,GT,37.4330322,-122.2407787,,40.718994,0.1,224.0209,1596754892447
Fix,GT,37.4327679,-122.2404635,,40.21368,0.1,224.0463,1596754893447
Fix,GT,37.4325079,-122.2401514,,39.62028,0.1,223.59135,1596754894447
Fix,GT,37.4322547,-122.2398404,,39.005497,0.1,222.74382,1596754895447
Fix,GT,37.4320084,-122.2395301,,38.48159,0.1,222.24614,1596754896447
Fix,GT,37.4317666,-122.2392218,,38.08084,0.1,222.10497,1596754897447
Fix,GT,37.4315272,-122.2389157,,37.846535,0.1,222.02295,1596754898447
Fix,GT,37.4312894,-122.2386101,,37.70414,0.1,221.70398,1596754899447
Fix,GT,37.4310546,-122.2383041,,37.39488,0.1,221.21173,1596754900447
Fix,GT,37.4308244,-122.2379988,,36.933365,0.1,220.62607,1596754901447
Fix,GT,37.4305999,-122.2376946,,36.367416,0.1,219.99928,1596754902447
Fix,GT,37.4303815,-122.2373929,,35.73683,0.1,219.61006,1596754903447
Fix,GT,37.4301677,-122.2370955,,35.201946,0.1,219.72462,1596754904447
Fix,GT,37.4299556,-122.2368029,,34.869812,0.1,220.10284,1596754905447
Fix,GT,37.4297432,-122.2365149,,34.686016,0.1,220.79175,1596754906447
Fix,GT,37.4295281,-122.23623,,34.856747,0.1,221.39313,1596754907447
Fix,GT,37.4293085,-122.235943,,35.623653,0.1,221.36447,1596754908447
Fix,GT,37.4290843,-122.235647,,36.63696,0.1,220.91956,1596754909447
Fix,GT,37.4288561,-122.2353411,,37.41233,0.1,220.45657,1596754910447
Fix,GT,37.4286257,-122.2350279,,37.988655,0.1,220.14319,1596754911447
Fix,GT,37.4283933,-122.2347092,,38.462566,0.1,219.98788,1596754912447
Fix,GT,37.4281585,-122.2343861,,38.85914,0.1,219.91542,1596754913447
Fix,GT,37.4279224,-122.2340604,,39.048393,0.1,219.96329,1596754914447
Fix,GT,37.4276852,-122.2337348,,39.01554,0.1,220.17104,1596754915447
Fix,GT,37.4274478,-122.2334102,,38.939407,0.1,220.13463,1596754916447
Fix,GT,37.4272116,-122.2330855,,38.85435,0.1,219.86226,1596754917447
Fix,GT,37.4269767,-122.2327596,,38.928017,0.1,219.70403,1596754918447
Fix,GT,37.4267409,-122.2324321,,39.213707,0.1,219.891,1596754919447
Fix,GT,37.4265018,-122.232104,,39.540134,0.1,220.48094,1596754920447
Fix,GT,37.4262574,-122.2317769,,39.91114,0.1,221.16162,1596754921447
Fix,GT,37.4260078,-122.2314489,,40.337837,0.1,221.45001,1596754922447
Fix,GT,37.4257554,-122.2311184,,40.612137,0.1,221.32907,1596754923447
Fix,GT,37.4255027,-122.2307855,,40.73255,0.1,221.10677,1596754924447
Fix,GT,37.4252499,-122.2304505,,40.874775,0.1,220.89899,1596754925447
Fix,GT,37.4249975,-122.2301124,,41.029,0.1,220.29854,1596754926447
Fix,GT,37.4247478,-122.2297693,,41.093277,0.1,219.47949,1596754927447
Fix,GT,37.4245018,-122.2294217,,41.11743,0.1,218.85085,1596754928447
Fix,GT,37.4242578,-122.2290719,,41.108013,0.1,218.54076,1596754929447
Fix,GT,37.424015,-122.2287217,,40.99462,0.1,218.48148,1596754930447
Fix,GT,37.4237735,-122.2283726,,40.780457,0.1,218.41002,1596754931447
Fix,GT,37.4235339,-122.2280256,,40.383747,0.1,218.35051,1596754932447
Fix,GT,37.4232976,-122.2276836,,39.695812,0.1,218.49702,1596754933447
Fix,GT,37.4230648,-122.227348,,39.09577,0.1,218.52449,1596754934447
Fix,GT,37.4228345,-122.2270152,,38.90764,0.1,218.35663,1596754935447
Fix,GT,37.4226052,-122.2266822,,38.944595,0.1,218.3551,1596754936447
Fix,GT,37.4223757,-122.2263493,,38.952873,0.1,218.45474,1596754937447
Fix,GT,37.4221457,-122.2260166,,38.994305,0.1,218.47913,1596754938447
Fix,GT,37.421915,-122.2256837,,39.064644,0.1,218.61067,1596754939447
Fix,GT,37.4216834,-122.2253514,,39.07058,0.1,218.79677,1596754940447
Fix,GT,37.4214512,-122.2250195,,39.05844,0.1,218.77571,1596754941447
Fix,GT,37.4212198,-122.2246877,,38.896416,0.1,218.63847,1596754942447
Fix,GT,37.4209904,-122.2243576,,38.60106,0.1,218.53683,1596754943447
Fix,GT,37.420763,-122.2240286,,38.45118,0.1,218.34746,1596754944447
Fix,GT,37.4205384,-122.2236996,,38.063713,0.1,217.84352,1596754945447
Fix,GT,37.4203214,-122.2233712,,37.25804,0.1,216.28717,1596754946447
Fix,GT,37.4201181,-122.223041,,36.465767,0.1,213.777,1596754947447
Fix,GT,37.4199302,-122.2227061,,35.850613,0.1,211.04199,1596754948447
Fix,GT,37.4197573,-122.222366,,35.338875,0.1,208.43947,1596754949447
Fix,GT,37.4195999,-122.2220212,,34.724487,0.1,205.89339,1596754950447
Fix,GT,37.4194593,-122.2216756,,33.645508,0.1,202.91699,1596754951447
Fix,GT,37.4193371,-122.2213347,,32.416412,0.1,200.25706,1596754952447
Fix,GT,37.419231,-122.2209968,,31.781082,0.1,197.42555,1596754953447
Fix,GT,37.4191404,-122.2206557,,31.731382,0.1,194.35506,1596754954447
Fix,GT,37.4190632,-122.2203067,,32.334526,0.1,191.96022,1596754955447
Fix,GT,37.4189948,-122.2199444,,33.400547,0.1,190.01833,1596754956447
Fix,GT,37.418933,-122.2195685,,34.26727,0.1,188.41994,1596754957447
Fix,GT,37.418876,-122.2191846,,34.767673,0.1,187.87494,1596754958447
Fix,GT,37.4188189,-122.2187958,,35.237247,0.1,188.16364,1596754959447
Fix,GT,37.4187592,-122.2184022,,35.678818,0.1,188.29102,1596754960447
Fix,GT,37.4186991,-122.2180041,,35.915344,0.1,188.1631,1596754961447
Fix,GT,37.4186394,-122.2176056,,35.7587,0.1,188.15814,1596754962447
Fix,GT,37.4185802,-122.2172099,,35.502438,0.1,188.16495,1596754963447
Fix,GT,37.4185214,-122.2168163,,35.388428,0.1,188.13412,1596754964447
Fix,GT,37.4184625,-122.2164252,,35.070335,0.1,188.41145,1596754965447
Fix,GT,37.4184013,-122.21604,,34.556118,0.1,189.58655,1596754966447
Fix,GT,37.4183324,-122.2156627,,34.2433,0.1,191.7559,1596754967447
Fix,GT,37.418251,-122.2152911,,34.371178,0.1,194.38596,1596754968447
Fix,GT,37.4181555,-122.2149218,,34.681274,0.1,197.17143,1596754969447
Fix,GT,37.4180451,-122.2145563,,34.783066,0.1,200.05725,1596754970447
Fix,GT,37.4179206,-122.2141968,,34.833427,0.1,202.56572,1596754971447
Fix,GT,37.4177835,-122.2138442,,34.916054,0.1,205.10724,1596754972447
Fix,GT,37.4176328,-122.2134994,,35.053917,0.1,207.92073,1596754973447
Fix,GT,37.417468,-122.2131624,,35.22647,0.1,210.69182,1596754974447
Fix,GT,37.4172894,-122.2128335,,35.4545,0.1,213.26253,1596754975447
Fix,GT,37.4170983,-122.2125127,,35.630722,0.1,215.69936,1596754976447
Fix,GT,37.4168959,-122.2122015,,35.733486,0.1,218.12155,1596754977447
Fix,GT,37.4166824,-122.2119009,,35.834198,0.1,220.79773,1596754978447
Fix,GT,37.4164573,-122.2116127,,35.89842,0.1,223.65762,1596754979447
Fix,GT,37.4162206,-122.2113378,,35.959724,0.1,226.2722,1596754980447
Fix,GT,37.4159745,-122.2110751,,35.97368,0.1,228.09944,1596754981447
Fix,GT,37.4157234,-122.2108189,,35.943245,0.1,228.53809,1596754982447
Fix,GT,37.415472,-122.2105626,,35.94324,0.1,228.4023,1596754983447
Fix,GT,37.4152219,-122.2103057,,35.77475,0.1,228.15092,1596754984447
Fix,GT,37.4149748,-122.2100488,,35.441345,0.1,227.71274,1596754985447
Fix,GT,37.4147316,-122.2097907,,35.223316,0.1,226.77031,1596754986447
Fix,GT,37.4144936,-122.2095264,,35.213535,0.1,224.74344,1596754987447
Fix,GT,37.4142635,-122.2092495,,35.3904,0.1,222.23071,1596754988447
Fix,GT,37.4140423,-122.2089582,,35.597034,0.1,219.50223,1596754989447
Fix,GT,37.4138312,-122.2086518,,35.87691,0.1,216.57936,1596754990447
Fix,GT,37.4136304,-122.2083298,,36.260136,0.1,214.0775,1596754991447
Fix,GT,37.4134388,-122.2079944,,36.58932,0.1,211.70003,1596754992447
Fix,GT,37.4132574,-122.2076457,,36.877483,0.1,208.8242,1596754993447
Fix,GT,37.4130902,-122.207282,,37.163376,0.1,205.33737,1596754994447
Fix,GT,37.4129388,-122.2069052,,37.345524,0.1,202.75288,1596754995447
Fix,GT,37.4127988,-122.2065202,,37.42169,0.1,200.90811,1596754996447
Fix,GT,37.4126681,-122.2061291,,37.532852,0.1,199.2232,1596754997447
Fix,GT,37.4125437,-122.205734,,37.638954,0.1,198.99869,1596754998447
Fix,GT,37.4124185,-122.2053385,,37.781754,0.1,199.46706,1596754999447
Fix,GT,37.4122912,-122.2049409,,38.093033,0.1,199.33961,1596755000447
Fix,GT,37.4121635,-122.2045393,,38.42257,0.1,199.20723,1596755001447
Fix,GT,37.4120353,-122.2041346,,38.67752,0.1,199.27406,1596755002447
Fix,GT,37.4119057,-122.2037278,,38.895172,0.1,199.50058,1596755003447
Fix,GT,37.411774,-122.2033198,,39.051086,0.1,199.76218,1596755004447
Fix,GT,37.4116411,-122.2029107,,39.161774,0.1,199.65811,1596755005447
Fix,GT,37.4115088,-122.2025,,39.244102,0.1,199.43195,1596755006447
Fix,GT,37.4113775,-122.2020881,,39.27121,0.1,199.38562,1596755007447
Fix,GT,37.4112463,-122.2016769,,39.151077,0.1,199.4158,1596755008447
Fix,GT,37.4111153,-122.2012678,,38.884308,0.1,199.47455,1596755009447
Fix,GT,37.4109853,-122.2008619,,38.590042,0.1,199.44016,1596755010447
Fix,GT,37.4108564,-122.2004583,,38.37693,0.1,199.3297,1596755011447
Fix,GT,37.4107283,-122.2000562,,38.296036,0.1,199.2582,1596755012447
Fix,GT,37.4106011,-122.1996541,,38.304638,0.1,199.13705,1596755013447
Fix,GT,37.4104745,-122.1992516,,38.2739,0.1,199.01733,1596755014447
Fix,GT,37.4103482,-122.1988504,,38.122665,0.1,199.28236,1596755015447
Fix,GT,37.4102207,-122.1984517,,37.971397,0.1,199.4776,1596755016447
Fix,GT,37.4100936,-122.198054,,37.90647,0.1,199.20721,1596755017447
Fix,GT,37.4099676,-122.1976561,,37.882515,0.1,199.17485,1596755018447
Fix,GT,37.4098417,-122.1972587,,37.83943,0.1,199.22649,1596755019447
Fix,GT,37.4097157,-122.1968617,,37.811733,0.1,199.2662,1596755020447
Fix,GT,37.4095891,-122.1964652,,37.831154,0.1,199.42935,1596755021447
Fix,GT,37.4094622,-122.1960682,,37.891518,0.1,199.28537,1596755022447
Fix,GT,37.4093361,-122.19567,,37.971264,0.1,199.2272,1596755023447
Fix,GT,37.4092094,-122.1952713,,38.022377,0.1,199.49219,1596755024447
Fix,GT,37.4090807,-122.1948726,,38.181965,0.1,199.65382,1596755025447
Fix,GT,37.408951,-122.1944714,,38.457787,0.1,199.546,1596755026447
Fix,GT,37.4088213,-122.1940672,,38.64006,0.1,199.39726,1596755027447
Fix,GT,37.4086918,-122.193662,,38.631042,0.1,199.45618,1596755028447
Fix,GT,37.4085619,-122.1932587,,38.377487,0.1,199.68195,1596755029447
Fix,GT,37.4084318,-122.1928596,,37.986374,0.1,200.11778,1596755030447
Fix,GT,37.408299,-122.1924675,,37.587715,0.1,201.39442,1596755031447
Fix,GT,37.4081588,-122.1920846,,37.19142,0.1,203.47766,1596755032447
Fix,GT,37.4080083,-122.191713,,36.88143,0.1,206.11607,1596755033447
Fix,GT,37.4078449,-122.1913531,,36.738716,0.1,208.66695,1596755034447
Fix,GT,37.4076699,-122.1910027,,36.709335,0.1,210.7527,1596755035447
Fix,GT,37.407485,-122.1906601,,36.741676,0.1,212.8063,1596755036447
Fix,GT,37.4072903,-122.1903257,,36.788055,0.1,214.99916,1596755037447
Fix,GT,37.4070844,-122.1900015,,36.865173,0.1,217.5793,1596755038447
Fix,GT,37.4068662,-122.1896887,,37.0225,0.1,220.27148,1596755039447
Fix,GT,37.4066358,-122.1893864,,37.24002,0.1,222.59909,1596755040447
Fix,GT,37.4063948,-122.1890934,,37.453392,0.1,224.6437,1596755041447
Fix,GT,37.4061439,-122.1888113,,37.624275,0.1,227.12804,1596755042447
Fix,GT,37.4058824,-122.1885418,,37.71245,0.1,229.31293,1596755043447
Fix,GT,37.4056136,-122.1882819,,37.726517,0.1,230.48103,1596755044447
Fix,GT,37.4053422,-122.1880265,,37.594322,0.1,230.72272,1596755045447
Fix,GT,37.4050719,-122.1877733,,37.308052,0.1,230.82251,1596755046447
Fix,GT,37.4048033,-122.1875225,,37.064056,0.1,230.9565,1596755047447
Fix,GT,37.4045364,-122.1872738,,36.732502,0.1,230.86925,1596755048447
Fix,GT,37.4042729,-122.1870279,,36.173653,0.1,230.94826,1596755049447
Fix,GT,37.4040133,-122.1867863,,35.610676,0.1,231.07951,1596755050447
Fix,GT,37.4037573,-122.1865483,,35.122124,0.1,231.01721,1596755051447
Fix,GT,37.4035053,-122.1863125,,34.667477,0.1,230.58398,1596755052447
Fix,GT,37.4032581,-122.186077,,34.19977,0.1,230.03325,1596755053447
Fix,GT,37.4030156,-122.1858427,,33.721992,0.1,229.75023,1596755054447
Fix,GT,37.4027777,-122.1856094,,33.283424,0.1,229.14487,1596755055447
Fix,GT,37.4025443,-122.1853755,,33.004097,0.1,228.53445,1596755056447
Fix,GT,37.4023134,-122.1851407,,32.990482,0.1,228.46304,1596755057447
Fix,GT,37.4020819,-122.1849058,,33.098804,0.1,228.58147,1596755058447
Fix,GT,37.4018494,-122.1846705,,33.201897,0.1,228.55693,1596755059447
Fix,GT,37.4016163,-122.1844343,,33.304832,0.1,228.49377,1596755060447
Fix,GT,37.4013829,-122.1841972,,33.376537,0.1,228.41216,1596755061447
Fix,GT,37.4011493,-122.1839592,,33.436234,0.1,228.43462,1596755062447
Fix,GT,37.400915,-122.1837209,,33.53862,0.1,228.51874,1596755063447
Fix,GT,37.4006795,-122.1834817,,33.779873,0.1,228.42194,1596755064447
Fix,GT,37.4004424,-122.1832398,,34.070442,0.1,228.3652,1596755065447
Fix,GT,37.4002034,-122.1829963,,34.25151,0.1,228.4887,1596755066447
Fix,GT,37.3999637,-122.1827537,,34.080524,0.1,228.79715,1596755067447
Fix,GT,37.3997255,-122.1825154,,33.581802,0.1,229.04196,1596755068447
Fix,GT,37.3994899,-122.1822806,,33.263245,0.1,228.79805,1596755069447
Fix,GT,37.3992562,-122.1820447,,33.35365,0.1,228.34715,1596755070447
Fix,GT,37.3990226,-122.1818059,,33.495472,0.1,228.19225,1596755071447
Fix,GT,37.398789,-122.1815665,,33.467346,0.1,228.29472,1596755072447
Fix,GT,37.3985554,-122.1813286,,33.45013,0.1,228.50024,1596755073447
Fix,GT,37.3983209,-122.1810906,,33.568954,0.1,228.497,1596755074447
Fix,GT,37.3980856,-122.1808518,,33.583153,0.1,228.49611,1596755075447
Fix,GT,37.3978513,-122.1806143,,33.2789,0.1,228.58862,1596755076447
Fix,GT,37.3976188,-122.1803791,,33.14458,0.1,228.50897,1596755077447
Fix,GT,37.3973865,-122.1801428,,33.28676,0.1,228.31053,1596755078447
Fix,GT,37.3971539,-122.1799046,,33.376392,0.1,228.2511,1596755079447
Fix,GT,37.3969208,-122.1796655,,33.510124,0.1,228.15973,1596755080447
Fix,GT,37.3966871,-122.1794249,,33.62047,0.1,228.15341,1596755081447
Fix,GT,37.3964529,-122.1791841,,33.652424,0.1,228.39539,1596755082447
Fix,GT,37.3962177,-122.1789443,,33.64604,0.1,228.49933,1596755083447
Fix,GT,37.3959826,-122.1787052,,33.529064,0.1,228.48802,1596755084447
Fix,GT,37.3957486,-122.1784675,,33.34604,0.1,228.6245,1596755085447
Fix,GT,37.3955151,-122.178231,,33.336666,0.1,228.56462,1596755086447
Fix,GT,37.3952819,-122.1779937,,33.351856,0.1,228.42122,1596755087447
Fix,GT,37.3950492,-122.1777557,,33.323654,0.1,228.34882,1596755088447
Fix,GT,37.3948164,-122.1775166,,33.51818,0.1,228.12912,1596755089447
Fix,GT,37.3945827,-122.177273,,33.927315,0.1,227.38249,1596755090447
Fix,GT,37.3943494,-122.1770201,,34.373394,0.1,225.66182,1596755091447
Fix,GT,37.3941209,-122.1767537,,34.639675,0.1,223.09874,1596755092447
Fix,GT,37.3939014,-122.1764732,,34.704453,0.1,220.27333,1596755093447
Fix,GT,37.3936933,-122.1761792,,34.683147,0.1,217.49414,1596755094447
Fix,GT,37.3934965,-122.1758735,,34.67838,0.1,214.83455,1596755095447
Fix,GT,37.3933111,-122.1755568,,34.676517,0.1,212.13751,1596755096447
Fix,GT,37.3931378,-122.1752295,,34.682636,0.1,209.42816,1596755097447
Fix,GT,37.3929773,-122.174892,,34.682556,0.1,206.74263,1596755098447
Fix,GT,37.392829,-122.1745458,,34.725597,0.1,204.20753,1596755099447
Fix,GT,37.3926928,-122.1741911,,34.766464,0.1,201.57794,1596755100447
Fix,GT,37.3925703,-122.1738278,,34.89906,0.1,198.69215,1596755101447
Fix,GT,37.3924621,-122.1734543,,35.24291,0.1,195.7665,1596755102447
Fix,GT,37.3923673,-122.1730715,,35.445793,0.1,193.35335,1596755103447
Fix,GT,37.3922846,-122.1726839,,35.41336,0.1,191.15755,1596755104447
Fix,GT,37.3922149,-122.1722926,,35.357536,0.1,188.3915,1596755105447
Fix,GT,37.3921603,-122.1718983,,35.30433,0.1,185.78632,1596755106447
Fix,GT,37.3921185,-122.1715025,,35.250305,0.1,183.85591,1596755107447
Fix,GT,37.3920865,-122.1711067,,35.120235,0.1,182.44269,1596755108447
Fix,GT,37.392061,-122.170713,,34.7648,0.1,181.89252,1596755109447
Fix,GT,37.3920371,-122.1703232,,34.41328,0.1,182.00983,1596755110447
Fix,GT,37.3920133,-122.1699365,,34.2982,0.1,181.93092,1596755111447
Fix,GT,37.3919898,-122.1695508,,34.266243,0.1,182.22577,1596755112447
Fix,GT,37.3919619,-122.1691652,,34.510635,0.1,183.83652,1596755113447
Fix,GT,37.3919219,-122.1687771,,35.16656,0.1,186.84149,1596755114447
Fix,GT,37.3918636,-122.1683845,,35.90162,0.1,190.31403,1596755115447
Fix,GT,37.3917849,-122.1679903,,36.382816,0.1,193.89644,1596755116447
Fix,GT,37.3916861,-122.167599,,36.58697,0.1,197.24474,1596755117447
Fix,GT,37.3915693,-122.1672144,,36.593292,0.1,200.33229,1596755118447
Fix,GT,37.391436,-122.1668395,,36.459976,0.1,203.66727,1596755119447
Fix,GT,37.3912856,-122.1664763,,36.407063,0.1,207.21684,1596755120447
Fix,GT,37.3911175,-122.1661258,,36.35444,0.1,210.73743,1596755121447
Fix,GT,37.3909339,-122.1657893,,36.16574,0.1,213.58823,1596755122447
Fix,GT,37.39074,-122.1654639,,35.884903,0.1,215.08754,1596755123447
Fix,GT,37.3905437,-122.165145,,35.461597,0.1,215.28789,1596755124447
Fix,GT,37.3903499,-122.1648299,,35.030354,0.1,215.21758,1596755125447
Fix,GT,37.3901585,-122.1645166,,34.84423,0.1,214.80704,1596755126447
Fix,GT,37.3899717,-122.1641992,,34.85475,0.1,212.74666,1596755127447
Fix,GT,37.3897959,-122.1638714,,34.903164,0.1,209.93733,1596755128447
Fix,GT,37.3896325,-122.1635334,,34.917477,0.1,207.47987,1596755129447
Fix,GT,37.3894807,-122.1631875,,34.798775,0.1,205.06694,1596755130447
Fix,GT,37.3893411,-122.1628351,,34.709328,0.1,202.58229,1596755131447
Fix,GT,37.3892142,-122.1624751,,34.805267,0.1,199.73433,1596755132447
Fix,GT,37.3891013,-122.1621059,,34.98752,0.1,196.94342,1596755133447
Fix,GT,37.3890013,-122.1617283,,35.259293,0.1,194.4536,1596755134447
Fix,GT,37.3889141,-122.1613433,,35.38604,0.1,191.9904,1596755135447
Fix,GT,37.38884,-122.160955,,35.073944,0.1,189.75128,1596755136447
Fix,GT,37.3887775,-122.1605678,,34.809235,0.1,188.16429,1596755137447
Fix,GT,37.3887211,-122.1601807,,34.834816,0.1,187.52393,1596755138447
Fix,GT,37.3886668,-122.1597937,,34.63842,0.1,187.38968,1596755139447
Fix,GT,37.3886136,-122.1594107,,34.237316,0.1,187.38786,1596755140447
Fix,GT,37.3885605,-122.1590305,,34.176704,0.1,187.53113,1596755141447
Fix,GT,37.3885063,-122.1586506,,34.19096,0.1,187.91989,1596755142447
Fix,GT,37.3884504,-122.1582726,,33.89432,0.1,188.25198,1596755143447
Fix,GT,37.3883931,-122.157899,,33.510647,0.1,188.72925,1596755144447
Fix,GT,37.3883315,-122.1575309,,33.294064,0.1,190.31882,1596755145447
Fix,GT,37.3882599,-122.1571672,,33.389927,0.1,193.0469,1596755146447
Fix,GT,37.3881731,-122.1568067,,33.6243,0.1,196.41655,1596755147447
Fix,GT,37.3880688,-122.1564518,,33.692192,0.1,199.89485,1596755148447
Fix,GT,37.387948,-122.1561053,,33.6019,0.1,203.10892,1596755149447
Fix,GT,37.3878124,-122.1557671,,33.786774,0.1,206.03008,1596755150447
Fix,GT,37.3876615,-122.1554352,,34.217094,0.1,209.33116,1596755151447
Fix,GT,37.3874934,-122.1551114,,34.527252,0.1,212.7208,1596755152447
Fix,GT,37.3873093,-122.1547982,,34.659157,0.1,215.88678,1596755153447
Fix,GT,37.3871113,-122.1544979,,34.686905,0.1,219.29991,1596755154447
Fix,GT,37.3868991,-122.1542133,,34.646408,0.1,222.84525,1596755155447
Fix,GT,37.3866739,-122.1539459,,34.565224,0.1,226.25183,1596755156447
Fix,GT,37.386437,-122.1536951,,34.567383,0.1,229.23131,1596755157447
Fix,GT,37.3861901,-122.1534596,,34.559,0.1,231.77054,1596755158447
Fix,GT,37.3859358,-122.1532393,,34.334976,0.1,234.56296,1596755159447
Fix,GT,37.3856749,-122.153038,,34.094337,0.1,238.25665,1596755160447
Fix,GT,37.3854054,-122.1528605,,33.937912,0.1,242.12154,1596755161447
Fix,GT,37.3851278,-122.1527056,,33.90865,0.1,245.4438,1596755162447
Fix,GT,37.3848436,-122.1525703,,33.902817,0.1,248.45172,1596755163447
Fix,GT,37.3845549,-122.1524539,,33.671803,0.1,251.3316,1596755164447
Fix,GT,37.3842646,-122.1523564,,33.31234,0.1,254.02637,1596755165447
Fix,GT,37.3839737,-122.152276,,33.091995,0.1,256.32794,1596755166447
Fix,GT,37.3836812,-122.1522074,,33.101994,0.1,257.51645,1596755167447
Fix,GT,37.3833873,-122.1521434,,33.0878,0.1,257.63458,1596755168447
Fix,GT,37.3830946,-122.1520798,,32.823227,0.1,257.67004,1596755169447
Fix,GT,37.3828044,-122.1520171,,32.55829,0.1,257.70703,1596755170447
Fix,GT,37.382516,-122.1519548,,32.460083,0.1,257.6384,1596755171447
Fix,GT,37.3822275,-122.1518918,,32.58943,0.1,257.51392,1596755172447
Fix,GT,37.3819372,-122.1518277,,32.865807,0.1,257.4299,1596755173447
Fix,GT,37.3816443,-122.151763,,33.13535,0.1,257.4881,1596755174447
Fix,GT,37.3813499,-122.1516981,,33.19958,0.1,257.5396,1596755175447
Fix,GT,37.3810555,-122.1516322,,33.1743,0.1,257.1151,1596755176447
Fix,GT,37.3807611,-122.1515611,,33.333344,0.1,256.0571,1596755177447
Fix,GT,37.3804661,-122.1514806,,33.557583,0.1,254.4353,1596755178447
Fix,GT,37.3801708,-122.1513884,,33.821747,0.1,252.51642,1596755179447
Fix,GT,37.3798759,-122.1512824,,34.033237,0.1,250.12936,1596755180447
Fix,GT,37.3795837,-122.1511586,,34.164066,0.1,246.94495,1596755181447
Fix,GT,37.3792963,-122.1510138,,34.35453,0.1,243.89156,1596755182447
Fix,GT,37.3790137,-122.1508506,,34.47423,0.1,241.41495,1596755183447
Fix,GT,37.3787367,-122.1506724,,34.441395,0.1,238.89578,1596755184447
Fix,GT,37.3784666,-122.1504792,,34.379158,0.1,236.31306,1596755185447
Fix,GT,37.3782043,-122.1502718,,34.255707,0.1,233.85335,1596755186447
Fix,GT,37.3779503,-122.1500514,,34.11233,0.1,231.45862,1596755187447
Fix,GT,37.377705,-122.1498187,,33.9125,0.1,228.94081,1596755188447
Fix,GT,37.37747,-122.1495757,,33.531265,0.1,226.85628,1596755189447
Fix,GT,37.3772437,-122.1493269,,33.23314,0.1,225.66841,1596755190447
Fix,GT,37.3770215,-122.1490764,,33.152122,0.1,225.28676,1596755191447
Fix,GT,37.3767997,-122.148825,,33.2619,0.1,225.32216,1596755192447
Fix,GT,37.3765763,-122.148572,,33.601933,0.1,225.35962,1596755193447
Fix,GT,37.3763501,-122.1483159,,33.975494,0.1,225.2625,1596755194447
Fix,GT,37.3761231,-122.1480576,,34.03428,0.1,225.19165,1596755195447
Fix,GT,37.3758966,-122.1477997,,33.89119,0.1,225.19856,1596755196447
Fix,GT,37.3756711,-122.1475428,,33.778114,0.1,225.12459,1596755197447
Fix,GT,37.3754463,-122.1472856,,33.82569,0.1,225.05908,1596755198447
Fix,GT,37.3752212,-122.1470283,,33.76474,0.1,225.19827,1596755199447
Fix,GT,37.3749971,-122.146774,,33.34278,0.1,225.47691,1596755200447
Fix,GT,37.3747753,-122.1465244,,32.850597,0.1,225.6664,1596755201447
Fix,GT,37.3745563,-122.1462786,,32.444,0.1,225.72939,1596755202447
Fix,GT,37.3743389,-122.1460358,,32.267918,0.1,225.97081,1596755203447
Fix,GT,37.3741207,-122.1457963,,32.253338,0.1,226.78355,1596755204447
Fix,GT,37.3738992,-122.1455607,,32.33071,0.1,227.65955,1596755205447
Fix,GT,37.3736742,-122.1453291,,32.413452,0.1,228.75551,1596755206447
Fix,GT,37.3734454,-122.1451027,,32.387325,0.1,229.81424,1596755207447
Fix,GT,37.373214,-122.1448803,,32.390537,0.1,230.21922,1596755208447
Fix,GT,37.372981,-122.1446603,,32.403885,0.1,230.87186,1596755209447
Fix,GT,37.3727462,-122.1444439,,32.385498,0.1,231.5365,1596755210447
Fix,GT,37.37251,-122.1442302,,32.333614,0.1,231.87666,1596755211447
Fix,GT,37.3722734,-122.1440183,,32.28625,0.1,231.93018,1596755212447
Fix,GT,37.3720367,-122.143806,,32.328045,0.1,231.77963,1596755213447
Fix,GT,37.3718004,-122.1435929,,32.27736,0.1,231.75046,1596755214447
Fix,GT,37.3715646,-122.1433805,,32.23399,0.1,231.8445,1596755215447
Fix,GT,37.3713286,-122.1431687,,32.231197,0.1,231.83931,1596755216447
Fix,GT,37.371093,-122.1429568,,32.17862,0.1,231.81706,1596755217447
Fix,GT,37.3708575,-122.1427446,,32.25778,0.1,231.80884,1596755218447
