MessageType,Provider,LatitudeDegrees,LongitudeDegrees,AltitudeMeters,SpeedMps,AccuracyMeters,BearingDegrees,UnixTimeMillis
Fix,GT,37.3179092,-121.9485205,,0.003605584,0.1,1.1175842,1607640759999
Fix,GT,37.3179092,-121.9485205,,0.0031623002,0.1,1.1170349,1607640760999
Fix,GT,37.3179092,-121.9485205,,0.0020000595,0.1,1.1164551,1607640761999
Fix,GT,37.3179092,-121.9485205,,0.0028283847,0.1,1.1160278,1607640762999
Fix,GT,37.3179092,-121.9485205,,0.0060825967,0.1,1.1144714,1607640763999
Fix,GT,37.3179092,-121.9485204,,0.004472218,0.1,1.1153564,1607640764999
Fix,GT,37.3179092,-121.9485204,,0.0130379675,0.1,1.1139526,1607640765999
Fix,GT,37.3179093,-121.9485202,,0.016031066,0.1,1.1141357,1607640766999
Fix,GT,37.3179093,-121.94852,,0.027165588,0.1,1.1133118,1607640767999
Fix,GT,37.3179093,-121.9485196,,0.036013436,0.1,1.1129761,1607640768999
Fix,GT,37.3179093,-121.9485191,,0.045010652,0.1,1.1105957,1607640769999
Fix,GT,37.3179092,-121.948519,,0.06420182,0.1,0.078948975,1607640770999
Fix,GT,37.3179073,-121.9485205,,0.33191702,0.1,356.8117,1607640771999
Fix,GT,37.3179029,-121.9485194,,0.6380479,0.1,359.92944,1607640772999
Fix,GT,37.317897,-121.9485153,,0.8429065,0.1,8.870453,1607640773999
Fix,GT,37.3178887,-121.9485114,,0.9969154,0.1,21.009125,1607640774999
Fix,GT,37.3178789,-121.9485095,,0.93152094,0.1,34.29605,1607640775999
Fix,GT,37.31787,-121.94851,,0.6124116,0.1,45.482056,1607640776999
Fix,GT,37.3178666,-121.9485106,,0.094366334,0.1,48.60266,1607640777999
Fix,GT,37.3178652,-121.9485093,,0.24983199,0.1,49.15271,1607640778999
Fix,GT,37.3178666,-121.9485015,,0.9745731,0.1,55.47162,1607640779999
Fix,GT,37.317871,-121.9484822,,2.027742,0.1,69.931274,1607640780999
Fix,GT,37.3178748,-121.9484486,,3.4591484,0.1,87.546936,1607640781999
Fix,GT,37.3178724,-121.9484004,,4.893382,0.1,95.483826,1607640782999
Fix,GT,37.3178645,-121.9483414,,5.3305726,0.1,96.05719,1607640783999
Fix,GT,37.3178566,-121.9482832,,5.038819,0.1,93.69849,1607640784999
Fix,GT,37.317852,-121.9482312,,4.033528,0.1,90.66431,1607640785999
Fix,GT,37.3178499,-121.9481944,,2.4367783,0.1,89.207886,1607640786999
Fix,GT,37.3178458,-121.9481751,,1.1225977,0.1,88.7908,1607640787999
Fix,GT,37.3178434,-121.9481604,,1.5321816,0.1,88.31799,1607640788999
Fix,GT,37.317823,-121.9481391,,2.2334278,0.1,92.5285,1607640789999
Fix,GT,37.3177803,-121.9481101,,2.507833,0.1,116.969025,1607640790999
Fix,GT,37.317729,-121.9480831,,3.8492587,0.1,150.11029,1607640791999
Fix,GT,37.3177252,-121.9480716,,5.1584387,0.1,176.48486,1607640792999
Fix,GT,37.3176769,-121.9480575,,5.190644,0.1,180.16302,1607640793999
Fix,GT,37.3176312,-121.9480475,,5.6110477,0.1,179.3942,1607640794999
Fix,GT,37.3175842,-121.9480421,,5.6284475,0.1,178.01093,1607640795999
Fix,GT,37.3175414,-121.948045,,4.4944115,0.1,177.1106,1607640796999
Fix,GT,37.3175072,-121.9480508,,3.9589493,0.1,176.8565,1607640797999
Fix,GT,37.3174854,-121.9480682,,3.981039,0.1,177.21844,1607640798999
Fix,GT,37.3174517,-121.9480786,,5.1096992,0.1,177.90106,1607640799999
Fix,GT,37.3174061,-121.9480875,,6.062041,0.1,179.28583,1607640800999
Fix,GT,37.3173578,-121.9480965,,5.851533,0.1,180.41626,1607640801999
Fix,GT,37.3173118,-121.9481011,,4.603776,0.1,178.83119,1607640802999
Fix,GT,37.3172837,-121.9481053,,2.6144176,0.1,177.26599,1607640803999
Fix,GT,37.3172743,-121.9481105,,1.7114006,0.1,176.78186,1607640804999
Fix,GT,37.3172694,-121.9481134,,2.1660285,0.1,175.79297,1607640805999
Fix,GT,37.3172523,-121.948123,,2.496017,0.1,191.16974,1607640806999
Fix,GT,37.3172352,-121.9481476,,2.717597,0.1,221.37282,1607640807999
Fix,GT,37.3172287,-121.948186,,3.8043344,0.1,252.76163,1607640808999
Fix,GT,37.3172292,-121.9482408,,5.7918134,0.1,270.67328,1607640809999
Fix,GT,37.317235,-121.9483193,,8.074109,0.1,275.16666,1607640810999
Fix,GT,37.3172412,-121.9484218,,10.105082,0.1,273.9001,1607640811999
Fix,GT,37.3172469,-121.9485436,,11.532827,0.1,273.3081,1607640812999
Fix,GT,37.3172528,-121.9486791,,12.439737,0.1,273.03696,1607640813999
Fix,GT,37.3172586,-121.9488209,,12.555265,0.1,272.9547,1607640814999
Fix,GT,37.3172646,-121.9489605,,12.209985,0.1,273.28894,1607640815999
Fix,GT,37.3172719,-121.9490959,,11.864089,0.1,274.13586,1607640816999
Fix,GT,37.3172791,-121.9492277,,11.560729,0.1,273.91946,1607640817999
Fix,GT,37.3172862,-121.9493564,,11.316093,0.1,274.02295,1607640818999
Fix,GT,37.3172928,-121.9494817,,10.836721,0.1,273.82428,1607640819999
Fix,GT,37.3172988,-121.9495978,,9.712373,0.1,273.88928,1607640820999
Fix,GT,37.317304,-121.9496969,,7.820273,0.1,273.96344,1607640821999
Fix,GT,37.3173084,-121.9497749,,6.081226,0.1,273.98325,1607640822999
Fix,GT,37.3173115,-121.9498334,,4.288042,0.1,273.79272,1607640823999
Fix,GT,37.3173134,-121.9498724,,2.6803327,0.1,273.82028,1607640824999
Fix,GT,37.3173145,-121.9498947,,1.2927577,0.1,273.69843,1607640825999
Fix,GT,37.3173147,-121.9499009,,0.07538901,0.1,273.68033,1607640826999
Fix,GT,37.3173147,-121.9499009,,0.0031660155,0.1,273.68164,1607640827999
Fix,GT,37.3173147,-121.9499009,,0.0042425846,0.1,273.67953,1607640828999
Fix,GT,37.3173147,-121.9499009,,0.0036055844,0.1,273.6781,1607640829999
Fix,GT,37.3173147,-121.9499009,,0.0031623007,0.1,273.67752,1607640830999
Fix,GT,37.3173147,-121.9499009,,0.002236116,0.1,273.67682,1607640831999
Fix,GT,37.3173147,-121.9499008,,0.002236068,0.1,273.67923,1607640832999
Fix,GT,37.3173147,-121.9499008,,0.0020000124,0.1,273.67892,1607640833999
Fix,GT,37.3173147,-121.9499008,,0.002,0.1,273.67816,1607640834999
Fix,GT,37.3173147,-121.9499009,,0.002,0.1,273.67755,1607640835999
Fix,GT,37.3173147,-121.9499009,,0.0022360557,0.1,273.67682,1607640836999
Fix,GT,37.3173147,-121.9499009,,0.0028283964,0.1,273.6759,1607640837999
Fix,GT,37.3173147,-121.9499009,,0.003605511,0.1,273.67523,1607640838999
Fix,GT,37.3173147,-121.9499009,,0.0036055513,0.1,273.67426,1607640839999
Fix,GT,37.3173147,-121.9499009,,0.0042426074,0.1,273.67358,1607640840999
Fix,GT,37.3173147,-121.9499009,,0.0036055844,0.1,273.67285,1607640841999
Fix,GT,37.3173147,-121.9499009,,0.0042426074,0.1,273.67252,1607640842999
Fix,GT,37.3173147,-121.9499009,,0.0042426405,0.1,273.67188,1607640843999
Fix,GT,37.3173147,-121.9499009,,0.0042426405,0.1,273.67047,1607640844999
Fix,GT,37.3173147,-121.9499008,,0.0042426405,0.1,273.66998,1607640845999
Fix,GT,37.3173147,-121.9499008,,0.0042426405,0.1,273.66953,1607640846999
Fix,GT,37.3173147,-121.9499008,,0.0042426405,0.1,273.669,1607640847999
Fix,GT,37.3173147,-121.9499008,,0.0042426405,0.1,273.66833,1607640848999
Fix,GT,37.3173147,-121.9499008,,0.0042426405,0.1,273.66745,1607640849999
Fix,GT,37.3173147,-121.9499008,,0.0036055844,0.1,273.6668,1607640850999
Fix,GT,37.3173146,-121.9499008,,0.0036055513,0.1,273.66608,1607640851999
Fix,GT,37.3173146,-121.9499008,,0.0036055513,0.1,273.66553,1607640852999
Fix,GT,37.3173146,-121.9499008,,0.0028284676,0.1,273.66486,1607640853999
Fix,GT,37.3173146,-121.9499008,,0.0036055108,0.1,273.66437,1607640854999
Fix,GT,37.3173146,-121.9499008,,0.0028284676,0.1,273.6637,1607640855999
Fix,GT,37.3173146,-121.9499008,,0.0028284271,0.1,273.6628,1607640856999
Fix,GT,37.3173146,-121.9499008,,0.0028284271,0.1,273.6623,1607640857999
Fix,GT,37.3173146,-121.9499008,,0.0014142873,0.1,273.6614,1607640858999
Fix,GT,37.3173146,-121.9499008,,0.0014142136,0.1,273.66083,1607640859999
Fix,GT,37.3173146,-121.9499008,,0.0028283533,0.1,273.65997,1607640860999
Fix,GT,37.3173146,-121.9499008,,0.002236099,0.1,273.65915,1607640861999
Fix,GT,37.3173146,-121.9499008,,0.002236068,0.1,273.65845,1607640862999
Fix,GT,37.3173147,-121.9499008,,0.0010000645,0.1,273.65762,1607640863999
Fix,GT,37.3173147,-121.9499008,,0.0014141919,0.1,273.6568,1607640864999
Fix,GT,37.3173147,-121.9499008,,0.0014142136,0.1,273.65622,1607640865999
Fix,GT,37.3173147,-121.9499008,,0.0010000216,0.1,273.65558,1607640866999
Fix,GT,37.3173147,-121.9499008,,0.001414192,0.1,273.65494,1607640867999
Fix,GT,37.3173147,-121.9499008,,0.0010000216,0.1,273.65414,1607640868999
Fix,GT,37.3173147,-121.9499008,,5.221367e-08,0.1,273.65344,1607640869999
Fix,GT,37.3173147,-121.9499009,,0.0,0.1,273.65265,1607640870999
Fix,GT,37.3173147,-121.9499009,,0.0,0.1,273.65186,1607640871999
Fix,GT,37.3173147,-121.9499009,,0.0,0.1,273.65118,1607640872999
Fix,GT,37.3173148,-121.9499009,,0.0,0.1,273.65045,1607640873999
Fix,GT,37.3173148,-121.9499009,,0.0,0.1,273.64966,1607640874999
Fix,GT,37.3173148,-121.9499009,,0.0,0.1,273.64886,1607640875999
Fix,GT,37.3173148,-121.9499009,,0.0009999477,0.1,273.6482,1607640876999
Fix,GT,37.3173148,-121.9499009,,0.0014141919,0.1,273.64728,1607640877999
Fix,GT,37.3173148,-121.9499009,,0.0014142136,0.1,273.6466,1607640878999
Fix,GT,37.3173148,-121.9499009,,0.0010000217,0.1,273.64587,1607640879999
Fix,GT,37.3173148,-121.9499009,,0.0014141919,0.1,273.64545,1607640880999
Fix,GT,37.3173148,-121.9499009,,0.0014142136,0.1,273.64465,1607640881999
Fix,GT,37.3173148,-121.9499009,,0.0014142136,0.1,273.6438,1607640882999
Fix,GT,37.3173148,-121.9499009,,0.0014142136,0.1,273.64325,1607640883999
Fix,GT,37.3173148,-121.9499009,,0.0014142136,0.1,273.6427,1607640884999
Fix,GT,37.3173148,-121.9499009,,0.0014142136,0.1,273.6421,1607640885999
Fix,GT,37.3173148,-121.9499009,,0.0014142136,0.1,273.64136,1607640886999
Fix,GT,37.3173148,-121.9499009,,0.0014142136,0.1,273.64062,1607640887999
Fix,GT,37.3173148,-121.9499009,,0.0014142136,0.1,273.64005,1607640888999
Fix,GT,37.3173148,-121.9499009,,0.0014142136,0.1,273.63928,1607640889999
Fix,GT,37.3173148,-121.9499009,,0.0014142136,0.1,273.6386,1607640890999
Fix,GT,37.3173148,-121.9499009,,0.0014142136,0.1,273.63803,1607640891999
Fix,GT,37.3173148,-121.9499009,,0.0014142136,0.1,273.63733,1607640892999
Fix,GT,37.3173148,-121.9499009,,0.0014142136,0.1,273.6365,1607640893999
Fix,GT,37.3173148,-121.9499009,,0.0022360247,0.1,273.63574,1607640894999
Fix,GT,37.3173148,-121.9499009,,0.0014142568,0.1,273.63513,1607640895999
Fix,GT,37.3173148,-121.9499009,,0.0014142136,0.1,273.63446,1607640896999
Fix,GT,37.3173148,-121.9499009,,0.0014142136,0.1,273.63385,1607640897999
Fix,GT,37.3173148,-121.9499009,,0.0010000218,0.1,273.63306,1607640898999
Fix,GT,37.3173148,-121.9499009,,0.0014141918,0.1,273.63245,1607640899999
Fix,GT,37.3173148,-121.9499009,,0.0010000218,0.1,273.6319,1607640900999
Fix,GT,37.3173148,-121.9499009,,0.0014141918,0.1,273.6313,1607640901999
Fix,GT,37.3173148,-121.9499009,,0.0010000218,0.1,273.6306,1607640902999
Fix,GT,37.3173148,-121.9499009,,0.001,0.1,273.63007,1607640903999
Fix,GT,37.3173148,-121.9499009,,0.001,0.1,273.62933,1607640904999
Fix,GT,37.3173148,-121.9499009,,0.001,0.1,273.62872,1607640905999
Fix,GT,37.3173148,-121.9499009,,0.001,0.1,273.628,1607640906999
Fix,GT,37.3173148,-121.9499009,,0.001,0.1,273.62747,1607640907999
Fix,GT,37.3173148,-121.9499009,,5.269051e-08,0.1,273.62677,1607640908999
Fix,GT,37.3173148,-121.9499009,,0.0009999473,0.1,273.62585,1607640909999
Fix,GT,37.3173148,-121.9499009,,0.001,0.1,273.62534,1607640910999
Fix,GT,37.3173148,-121.9499009,,0.0019999475,0.1,273.6248,1607640911999
Fix,GT,37.3173147,-121.9499009,,0.0036054666,0.1,273.62427,1607640912999
Fix,GT,37.3173147,-121.9499008,,0.0042426065,0.1,273.62354,1607640913999
Fix,GT,37.3173147,-121.9499024,,0.539806,0.1,273.6117,1607640914999
Fix,GT,37.3173156,-121.9499227,,3.329985,0.1,273.29453,1607640915999
Fix,GT,37.3173166,-121.9499779,,6.3759146,0.1,271.55878,1607640916999
Fix,GT,37.3173144,-121.9500649,,9.295433,0.1,267.98767,1607640917999
Fix,GT,37.3173075,-121.9501858,,12.293319,0.1,265.79865,1607640918999
Fix,GT,37.3172969,-121.9503405,,15.114546,0.1,265.06757,1607640919999
Fix,GT,37.3172842,-121.9505223,,17.313034,0.1,264.97528,1607640920999
Fix,GT,37.3172698,-121.9507291,,19.538982,0.1,265.05295,1607640921999
Fix,GT,37.3172531,-121.9509611,,21.741955,0.1,264.79312,1607640922999
Fix,GT,37.3172342,-121.9512159,,23.527636,0.1,264.57306,1607640923999
Fix,GT,37.317212,-121.9514891,,25.186499,0.1,263.80228,1607640924999
Fix,GT,37.3171852,-121.9517805,,26.720503,0.1,263.08234,1607640925999
Fix,GT,37.3171536,-121.9520855,,27.80825,0.1,262.28708,1607640926999
Fix,GT,37.3171185,-121.9524009,,28.671797,0.1,261.83844,1607640927999
Fix,GT,37.3170797,-121.9527253,,29.491568,0.1,261.08176,1607640928999
Fix,GT,37.3170358,-121.9530575,,30.210577,0.1,260.35828,1607640929999
Fix,GT,37.3169899,-121.9533954,,30.334013,0.1,260.41406,1607640930999
Fix,GT,37.316945,-121.9537308,,29.929716,0.1,260.57755,1607640931999
Fix,GT,37.316903,-121.9540618,,29.481026,0.1,261.2471,1607640932999
Fix,GT,37.3168635,-121.954389,,29.211172,0.1,261.52762,1607640933999
Fix,GT,37.3168253,-121.9547144,,29.096676,0.1,261.7233,1607640934999
Fix,GT,37.3167881,-121.9550391,,29.083609,0.1,262.03748,1607640935999
Fix,GT,37.3167537,-121.9553652,,29.237604,0.1,262.954,1607640936999
Fix,GT,37.3167237,-121.9556949,,29.551384,0.1,264.05124,1607640937999
Fix,GT,37.3166986,-121.9560288,,29.91998,0.1,264.78174,1607640938999
Fix,GT,37.3166741,-121.9563672,,30.287252,0.1,264.90833,1607640939999
Fix,GT,37.3166511,-121.9567096,,30.579964,0.1,265.54205,1607640940999
Fix,GT,37.3166319,-121.9570542,,30.60533,0.1,266.29767,1607640941999
Fix,GT,37.3166163,-121.9573989,,30.59424,0.1,267.0963,1607640942999
Fix,GT,37.3166038,-121.9577438,,30.61241,0.1,267.80078,1607640943999
Fix,GT,37.3165961,-121.9580895,,30.663866,0.1,268.8708,1607640944999
Fix,GT,37.316593,-121.9584361,,30.752419,0.1,269.7049,1607640945999
Fix,GT,37.3165932,-121.9587837,,30.850374,0.1,270.41083,1607640946999
Fix,GT,37.316597,-121.9591322,,30.921196,0.1,271.00226,1607640947999
Fix,GT,37.3166028,-121.9594818,,31.048716,0.1,271.06754,1607640948999
Fix,GT,37.3166089,-121.9598326,,31.167646,0.1,271.13083,1607640949999
Fix,GT,37.3166146,-121.9601846,,31.263775,0.1,271.14435,1607640950999
Fix,GT,37.31662,-121.9605376,,31.329172,0.1,271.09763,1607640951999
Fix,GT,37.3166255,-121.9608912,,31.367737,0.1,271.0014,1607640952999
Fix,GT,37.3166303,-121.9612448,,31.323639,0.1,271.07642,1607640953999
Fix,GT,37.3166363,-121.9615975,,31.173935,0.1,271.31476,1607640954999
Fix,GT,37.3166424,-121.9619485,,30.985786,0.1,271.19305,1607640955999
Fix,GT,37.3166481,-121.9622948,,30.426996,0.1,271.18027,1607640956999
Fix,GT,37.3166535,-121.9626347,,29.844648,0.1,271.04813,1607640957999
Fix,GT,37.316657,-121.9629681,,29.3077,0.1,270.57715,1607640958999
Fix,GT,37.3166598,-121.9632964,,28.931915,0.1,270.71954,1607640959999
Fix,GT,37.3166628,-121.9636211,,28.662043,0.1,270.6098,1607640960999
Fix,GT,37.3166634,-121.9639435,,28.505081,0.1,269.79187,1607640961999
Fix,GT,37.3166602,-121.9642641,,28.366129,0.1,268.85077,1607640962999
Fix,GT,37.3166528,-121.9645833,,28.275967,0.1,268.08084,1607640963999
Fix,GT,37.3166432,-121.9649016,,28.199425,0.1,267.7657,1607640964999
Fix,GT,37.3166327,-121.9652197,,28.280458,0.1,267.5838,1607640965999
Fix,GT,37.3166219,-121.9655394,,28.379503,0.1,267.56586,1607640966999
Fix,GT,37.3166122,-121.9658586,,28.235168,0.1,267.83344,1607640967999
Fix,GT,37.316602,-121.9661759,,28.063955,0.1,267.56973,1607640968999
Fix,GT,37.3165915,-121.9664914,,27.92636,0.1,267.59598,1607640969999
Fix,GT,37.3165804,-121.9668056,,27.82228,0.1,267.35168,1607640970999
Fix,GT,37.316569,-121.9671189,,27.804884,0.1,267.40057,1607640971999
Fix,GT,37.316558,-121.9674317,,27.70641,0.1,267.44614,1607640972999
Fix,GT,37.3165472,-121.9677426,,27.478533,0.1,267.44925,1607640973999
Fix,GT,37.3165362,-121.9680507,,27.17952,0.1,267.51688,1607640974999
Fix,GT,37.3165285,-121.9683556,,26.827093,0.1,268.7899,1607640975999
Fix,GT,37.3165273,-121.9686564,,26.453457,0.1,270.58835,1607640976999
Fix,GT,37.3165349,-121.968953,,26.094461,0.1,272.771,1607640977999
Fix,GT,37.3165477,-121.9692448,,25.681688,0.1,273.26306,1607640978999
Fix,GT,37.3165609,-121.9695277,,24.403828,0.1,273.46796,1607640979999
Fix,GT,37.316573,-121.9697929,,22.637167,0.1,272.6035,1607640980999
Fix,GT,37.3165816,-121.9700397,,21.25702,0.1,272.1668,1607640981999
Fix,GT,37.3165881,-121.9702736,,20.283468,0.1,271.7786,1607640982999
Fix,GT,37.3165943,-121.9704999,,19.909332,0.1,271.9787,1607640983999
Fix,GT,37.3166019,-121.9707227,,19.615322,0.1,272.67358,1607640984999
Fix,GT,37.3166123,-121.9709421,,19.340958,0.1,273.8449,1607640985999
Fix,GT,37.3166274,-121.9711583,,19.090256,0.1,275.4834,1607640986999
Fix,GT,37.3166471,-121.9713711,,18.836565,0.1,277.1439,1607640987999
Fix,GT,37.3166706,-121.9715804,,18.592783,0.1,278.3546,1607640988999
Fix,GT,37.3166972,-121.9717867,,18.40234,0.1,279.47803,1607640989999
Fix,GT,37.316727,-121.9719903,,18.239653,0.1,280.8454,1607640990999
Fix,GT,37.3167634,-121.972191,,18.165304,0.1,284.04776,1607640991999
Fix,GT,37.3168103,-121.9723874,,18.071384,0.1,288.05322,1607640992999
Fix,GT,37.3168672,-121.9725787,,18.009878,0.1,291.5166,1607640993999
Fix,GT,37.3169325,-121.9727665,,18.285877,0.1,294.3875,1607640994999
Fix,GT,37.3170044,-121.972955,,18.549929,0.1,295.99582,1607640995999
Fix,GT,37.3170788,-121.9731405,,18.189213,0.1,296.9545,1607640996999
Fix,GT,37.3171518,-121.9733208,,17.594095,0.1,296.797,1607640997999
Fix,GT,37.3172202,-121.9734907,,15.971502,0.1,296.91785,1607640998999
Fix,GT,37.3172813,-121.9736408,,13.985908,0.1,296.92072,1607640999999
Fix,GT,37.3173346,-121.9737741,,12.48232,0.1,296.7055,1607641000999
Fix,GT,37.317381,-121.9738939,,11.207742,0.1,296.68533,1607641001999
Fix,GT,37.3174224,-121.9739995,,9.590011,0.1,297.09354,1607641002999
Fix,GT,37.3174632,-121.9740832,,7.5150204,0.1,300.28818,1607641003999
Fix,GT,37.3175005,-121.974149,,6.773373,0.1,305.23022,1607641004999
Fix,GT,37.3175417,-121.9742034,,6.161727,0.1,314.2382,1607641005999
Fix,GT,37.3175879,-121.9742417,,5.670697,0.1,326.65417,1607641006999
Fix,GT,37.3176358,-121.9742623,,5.18261,0.1,340.3211,1607641007999
Fix,GT,37.3176785,-121.9742752,,4.3502173,0.1,345.2255,1607641008999
Fix,GT,37.3177102,-121.9742868,,3.0786383,0.1,344.37134,1607641009999
Fix,GT,37.3177326,-121.9742948,,2.2252753,0.1,343.46506,1607641010999
Fix,GT,37.31775,-121.9743014,,1.9449905,0.1,343.03696,1607641011999
Fix,GT,37.3177675,-121.9743078,,2.1115367,0.1,343.02393,1607641012999
Fix,GT,37.3177863,-121.974314,,2.0927212,0.1,344.14084,1607641013999
Fix,GT,37.3178051,-121.9743176,,2.1095397,0.1,347.82388,1607641014999
Fix,GT,37.3178259,-121.97432,,2.5068989,0.1,351.49774,1607641015999
Fix,GT,37.3178552,-121.974321,,4.0362277,0.1,356.19962,1607641016999
Fix,GT,37.3179009,-121.9743175,,5.988908,0.1,3.2013855,1607641017999
Fix,GT,37.3179629,-121.9742954,,7.836675,0.1,17.586273,1607641018999
Fix,GT,37.3180316,-121.9742513,,8.8575115,0.1,28.420013,1607641019999
Fix,GT,37.3180989,-121.9741965,,8.717567,0.1,32.98004,1607641020999
Fix,GT,37.3181604,-121.9741446,,7.602411,0.1,33.906708,1607641021999
Fix,GT,37.3182106,-121.9741019,,5.768344,0.1,33.772827,1607641022999
Fix,GT,37.3182475,-121.9740781,,3.7965262,0.1,25.419983,1607641023999
Fix,GT,37.3182748,-121.9740885,,3.0897741,0.1,351.79895,1607641024999
Fix,GT,37.3182879,-121.9741217,,3.5079293,0.1,310.06332,1607641025999
Fix,GT,37.3182786,-121.9741624,,4.045122,0.1,263.77615,1607641026999
Fix,GT,37.3182444,-121.9741942,,5.9011045,0.1,221.49173,1607641027999
Fix,GT,37.3181873,-121.9742275,,8.303271,0.1,206.26645,1607641028999
Fix,GT,37.3181118,-121.9742775,,10.641256,0.1,208.91449,1607641029999
Fix,GT,37.3180211,-121.9743444,,12.565725,0.1,210.5391,1607641030999
Fix,GT,37.3179157,-121.9744199,,14.480854,0.1,209.52037,1607641031999
Fix,GT,37.3177953,-121.9745054,,16.125473,0.1,210.31921,1607641032999
Fix,GT,37.317668,-121.9746027,,16.677689,0.1,211.9726,1607641033999
Fix,GT,37.317542,-121.9747024,,16.420275,0.1,212.42598,1607641034999
Fix,GT,37.3174188,-121.9748012,,16.005365,0.1,212.87253,1607641035999
Fix,GT,37.3173008,-121.9748975,,14.915993,0.1,213.30313,1607641036999
Fix,GT,37.317198,-121.9749829,,12.3921385,0.1,213.73126,1607641037999
Fix,GT,37.3171152,-121.9750525,,9.881333,0.1,213.88057,1607641038999
Fix,GT,37.3170501,-121.9751069,,7.43756,0.1,213.70436,1607641039999
Fix,GT,37.3170035,-121.975146,,5.0376534,0.1,213.71408,1607641040999
Fix,GT,37.3169734,-121.9751711,,3.1236467,0.1,213.54257,1607641041999
Fix,GT,37.3169567,-121.9751849,,1.3413488,0.1,213.43773,1607641042999
Fix,GT,37.3169511,-121.9751896,,0.16311306,0.1,213.40788,1607641043999
Fix,GT,37.3169511,-121.9751897,,0.007008474,0.1,213.40866,1607641044999
Fix,GT,37.3169511,-121.9751898,,0.0036057357,0.1,213.40677,1607641045999
Fix,GT,37.3169512,-121.9751898,,0.0022361425,0.1,213.40494,1607641046999
Fix,GT,37.3169512,-121.9751898,,0.002236068,0.1,213.40393,1607641047999
Fix,GT,37.3169512,-121.9751898,,0.0049998495,0.1,213.40314,1607641048999
Fix,GT,37.3169513,-121.9751898,,0.008485092,0.1,213.40245,1607641049999
Fix,GT,37.3169514,-121.9751897,,0.013453354,0.1,213.4016,1607641050999
Fix,GT,37.3169515,-121.9751895,,0.019999644,0.1,213.40073,1607641051999
Fix,GT,37.3169516,-121.9751894,,0.026400412,0.1,213.40015,1607641052999
Fix,GT,37.3169518,-121.9751891,,0.034999534,0.1,213.39949,1607641053999
Fix,GT,37.3169517,-121.975189,,0.2505576,0.1,213.39241,1607641054999
Fix,GT,37.3169433,-121.9751955,,2.3827045,0.1,213.15273,1607641055999
Fix,GT,37.3169157,-121.9752163,,4.749934,0.1,211.63612,1607641056999
Fix,GT,37.3168688,-121.9752425,,6.748024,0.1,203.0902,1607641057999
Fix,GT,37.3168053,-121.9752533,,7.6159015,0.1,184.23845,1607641058999
Fix,GT,37.3167413,-121.975229,,7.6461763,0.1,157.82535,1607641059999
Fix,GT,37.3166944,-121.9751697,,7.756793,0.1,130.02725,1607641060999
Fix,GT,37.3166639,-121.9750854,,9.215726,0.1,112.70984,1607641061999
Fix,GT,37.316635,-121.9749705,,12.14069,0.1,106.581665,1607641062999
Fix,GT,37.3166036,-121.9748242,,14.699956,0.1,105.045044,1607641063999
Fix,GT,37.3165688,-121.9746549,,16.248575,0.1,104.59973,1607641064999
Fix,GT,37.3165324,-121.9744734,,16.889938,0.1,104.032776,1607641065999
Fix,GT,37.3164955,-121.9742848,,17.551123,0.1,104.05182,1607641066999
Fix,GT,37.3164568,-121.974089,,18.19429,0.1,104.0885,1607641067999
Fix,GT,37.3164168,-121.9738868,,18.724321,0.1,103.97037,1607641068999
Fix,GT,37.3163761,-121.9736787,,19.319313,0.1,104.0,1607641069999
Fix,GT,37.3163352,-121.9734622,,20.036285,0.1,102.99457,1607641070999
Fix,GT,37.3162979,-121.9732415,,19.987394,0.1,101.40668,1607641071999
Fix,GT,37.3162666,-121.9730187,,20.187944,0.1,99.06354,1607641072999
Fix,GT,37.3162451,-121.972791,,20.564219,0.1,95.36078,1607641073999
Fix,GT,37.3162323,-121.9725575,,20.983444,0.1,93.53439,1607641074999
Fix,GT,37.316222,-121.9723186,,21.422573,0.1,93.4021,1607641075999
Fix,GT,37.3162096,-121.9720746,,21.938745,0.1,94.01434,1607641076999
Fix,GT,37.3161959,-121.9718248,,22.44952,0.1,94.1824,1607641077999
Fix,GT,37.3161804,-121.9715691,,23.03574,0.1,94.727905,1607641078999
Fix,GT,37.3161635,-121.9713065,,23.67968,0.1,94.617065,1607641079999
Fix,GT,37.316148,-121.9710362,,24.3857,0.1,93.88196,1607641080999
Fix,GT,37.3161346,-121.9707572,,25.186567,0.1,93.21643,1607641081999
Fix,GT,37.3161258,-121.9704686,,26.04855,0.1,91.52487,1607641082999
Fix,GT,37.3161236,-121.9701698,,26.957975,0.1,89.792145,1607641083999
Fix,GT,37.3161285,-121.969861,,27.834993,0.1,88.35013,1607641084999
Fix,GT,37.3161375,-121.9695423,,28.64636,0.1,87.87799,1607641085999
Fix,GT,37.3161469,-121.9692171,,29.048399,0.1,87.905426,1607641086999
Fix,GT,37.3161568,-121.9688868,,29.542631,0.1,87.838745,1607641087999
Fix,GT,37.316167,-121.9685509,,30.060015,0.1,87.80615,1607641088999
Fix,GT,37.3161779,-121.9682089,,30.62657,0.1,87.621704,1607641089999
Fix,GT,37.3161898,-121.9678609,,31.13378,0.1,87.56833,1607641090999
Fix,GT,37.3162014,-121.9675073,,31.589834,0.1,87.73892,1607641091999
Fix,GT,37.3162126,-121.9671496,,31.79867,0.1,87.795715,1607641092999
Fix,GT,37.3162239,-121.9667908,,31.8803,0.1,87.763336,1607641093999
Fix,GT,37.3162353,-121.9664316,,31.805258,0.1,87.74539,1607641094999
Fix,GT,37.3162464,-121.9660737,,31.696075,0.1,87.77826,1607641095999
Fix,GT,37.3162573,-121.9657167,,31.663404,0.1,87.90036,1607641096999
Fix,GT,37.3162679,-121.9653601,,31.538864,0.1,87.925995,1607641097999
Fix,GT,37.3162779,-121.9650068,,31.138689,0.1,88.00806,1607641098999
Fix,GT,37.3162878,-121.9646578,,30.758419,0.1,87.95947,1607641099999
Fix,GT,37.3162972,-121.9643133,,30.350878,0.1,88.643616,1607641100999
Fix,GT,37.316302,-121.9639725,,30.13036,0.1,89.48413,1607641101999
Fix,GT,37.3163031,-121.963632,,30.248158,0.1,90.19211,1607641102999
Fix,GT,37.3163008,-121.963289,,30.580399,0.1,90.84781,1607641103999
Fix,GT,37.3162966,-121.9629417,,30.950716,0.1,90.98157,1607641104999
Fix,GT,37.3162911,-121.9625915,,31.126032,0.1,91.242035,1607641105999
Fix,GT,37.3162853,-121.962241,,31.029205,0.1,91.071045,1607641106999
Fix,GT,37.3162809,-121.9618906,,31.114292,0.1,90.93906,1607641107999
Fix,GT,37.316277,-121.9615388,,31.270397,0.1,90.76813,1607641108999
Fix,GT,37.3162733,-121.9611852,,31.398909,0.1,90.83383,1607641109999
Fix,GT,37.3162692,-121.9608318,,31.278116,0.1,90.842285,1607641110999
Fix,GT,37.3162648,-121.9604793,,31.203173,0.1,90.98624,1607641111999
Fix,GT,37.3162595,-121.9601289,,30.911999,0.1,91.17734,1607641112999
Fix,GT,37.3162544,-121.9597822,,30.54774,0.1,91.07361,1607641113999
Fix,GT,37.3162497,-121.9594397,,30.21629,0.1,91.0206,1607641114999
Fix,GT,37.3162454,-121.9590991,,30.2167,0.1,90.92471,1607641115999
Fix,GT,37.3162428,-121.9587574,,30.397121,0.1,90.171265,1607641116999
Fix,GT,37.3162446,-121.9584133,,30.648102,0.1,89.28461,1607641117999
Fix,GT,37.3162498,-121.9580661,,30.882034,0.1,88.70029,1607641118999
Fix,GT,37.3162575,-121.9577192,,30.611605,0.1,88.23813,1607641119999
Fix,GT,37.316268,-121.9573763,,30.225359,0.1,87.37839,1607641120999
Fix,GT,37.3162827,-121.957038,,29.85607,0.1,86.631744,1607641121999
Fix,GT,37.3162999,-121.956704,,29.488152,0.1,86.09271,1607641122999
Fix,GT,37.3163198,-121.9563744,,29.126925,0.1,85.313416,1607641123999
Fix,GT,37.3163428,-121.9560488,,28.831314,0.1,84.802185,1607641124999
Fix,GT,37.3163666,-121.9557266,,28.530182,0.1,84.81421,1607641125999
Fix,GT,37.3163896,-121.9554078,,28.220285,0.1,84.84735,1607641126999
Fix,GT,37.3164108,-121.9550925,,27.855204,0.1,85.696625,1607641127999
Fix,GT,37.3164265,-121.9547808,,27.480726,0.1,87.1033,1607641128999
Fix,GT,37.3164357,-121.9544729,,27.120953,0.1,88.58005,1607641129999
Fix,GT,37.3164406,-121.9541689,,26.7925,0.1,88.790344,1607641130999
Fix,GT,37.3164454,-121.9538683,,26.483707,0.1,88.67334,1607641131999
Fix,GT,37.3164519,-121.9535747,,25.343075,0.1,88.29068,1607641132999
Fix,GT,37.3164577,-121.9533005,,23.1844,0.1,88.52936,1607641133999
Fix,GT,37.3164628,-121.9530524,,20.86642,0.1,88.65985,1607641134999
Fix,GT,37.3164666,-121.9528279,,18.950693,0.1,88.66141,1607641135999
Fix,GT,37.3164703,-121.9526217,,17.894245,0.1,88.635254,1607641136999
Fix,GT,37.3164734,-121.9524221,,17.525656,0.1,88.96997,1607641137999
Fix,GT,37.3164764,-121.9522264,,17.180334,0.1,88.5625,1607641138999
Fix,GT,37.3164808,-121.9520357,,16.503326,0.1,88.15201,1607641139999
Fix,GT,37.3164846,-121.9518598,,14.466743,0.1,88.5564,1607641140999
Fix,GT,37.3164846,-121.9517098,,12.066709,0.1,91.4884,1607641141999
Fix,GT,37.3164675,-121.9515887,,9.711266,0.1,106.38843,1607641142999
Fix,GT,37.3164229,-121.9514996,,8.895983,0.1,129.41031,1607641143999
Fix,GT,37.3163542,-121.9514477,,8.646893,0.1,155.81738,1607641144999
Fix,GT,37.3162781,-121.9514248,,8.458379,0.1,167.39014,1607641145999
Fix,GT,37.3162116,-121.9513907,,7.774545,0.1,152.56915,1607641146999
Fix,GT,37.3161666,-121.951331,,7.2445354,0.1,128.57587,1607641147999
Fix,GT,37.3161419,-121.9512589,,6.9948545,0.1,109.693115,1607641148999
Fix,GT,37.316137,-121.9511808,,7.317065,0.1,92.47342,1607641149999
Fix,GT,37.3161368,-121.9510931,,8.284136,0.1,90.70422,1607641150999
Fix,GT,37.3161352,-121.9509972,,8.531007,0.1,91.474976,1607641151999
Fix,GT,37.316134,-121.9509019,,8.369839,0.1,91.43976,1607641152999
Fix,GT,37.3161314,-121.9508088,,7.9926157,0.1,92.36841,1607641153999
Fix,GT,37.3161284,-121.9507252,,6.718351,0.1,92.813324,1607641154999
Fix,GT,37.316127,-121.9506591,,5.031275,0.1,91.60791,1607641155999
Fix,GT,37.3161256,-121.9506115,,3.470267,0.1,92.36853,1607641156999
Fix,GT,37.3161245,-121.9505803,,2.056754,0.1,92.65686,1607641157999
Fix,GT,37.3161241,-121.9505652,,0.73660576,0.1,92.72919,1607641158999
Fix,GT,37.316124,-121.9505622,,0.016803082,0.1,92.72516,1607641159999
Fix,GT,37.316124,-121.9505621,,0.005000654,0.1,92.72458,1607641160999
Fix,GT,37.3161241,-121.9505621,,0.0040000556,0.1,92.72357,1607641161999
Fix,GT,37.3161241,-121.9505621,,0.0036055732,0.1,92.72354,1607641162999
Fix,GT,37.3161241,-121.9505621,,0.0022361442,0.1,92.7229,1607641163999
Fix,GT,37.3161241,-121.9505621,,0.0010000687,0.1,92.72229,1607641164999
Fix,GT,37.3161241,-121.9505621,,0.001,0.1,92.721436,1607641165999
Fix,GT,37.3161241,-121.9505621,,0.001,0.1,92.720795,1607641166999
Fix,GT,37.3161241,-121.9505621,,5.567074e-08,0.1,92.71973,1607641167999
Fix,GT,37.3161241,-121.9505621,,0.0,0.1,92.71887,1607641168999
Fix,GT,37.3161241,-121.9505621,,0.0,0.1,92.71811,1607641169999
Fix,GT,37.3161241,-121.9505621,,0.0,0.1,92.71741,1607641170999
Fix,GT,37.3161241,-121.9505621,,0.0014141347,0.1,92.71655,1607641171999
Fix,GT,37.3161241,-121.9505621,,0.0010000231,0.1,92.71582,1607641172999
Fix,GT,37.3161241,-121.9505621,,0.0014141905,0.1,92.714905,1607641173999
Fix,GT,37.3161241,-121.9505621,,0.0010000231,0.1,92.71405,1607641174999
Fix,GT,37.3161241,-121.9505621,,5.5730347e-08,0.1,92.71387,1607641175999
Fix,GT,37.3161241,-121.9505621,,0.0009999443,0.1,92.71289,1607641176999
Fix,GT,37.3161241,-121.9505621,,5.578995e-08,0.1,92.71216,1607641177999
Fix,GT,37.3161241,-121.9505621,,0.0014141346,0.1,92.71112,1607641178999
Fix,GT,37.3161241,-121.9505621,,0.0010000232,0.1,92.71051,1607641179999
Fix,GT,37.3161241,-121.9505621,,5.578995e-08,0.1,92.709656,1607641180999
Fix,GT,37.3161241,-121.9505621,,0.0009999443,0.1,92.7088,1607641181999
Fix,GT,37.3161241,-121.9505621,,0.0014141905,0.1,92.70798,1607641182999
Fix,GT,37.3161241,-121.9505621,,0.0010000231,0.1,92.70645,1607641183999
Fix,GT,37.3161241,-121.9505621,,5.5849554e-08,0.1,92.70581,1607641184999
Fix,GT,37.3161241,-121.9505621,,0.0009999442,0.1,92.70523,1607641185999
Fix,GT,37.3161241,-121.9505621,,0.0014141905,0.1,92.70468,1607641186999
Fix,GT,37.3161241,-121.9505621,,0.0010000231,0.1,92.70407,1607641187999
Fix,GT,37.3161241,-121.9505621,,0.0014141904,0.1,92.703156,1607641188999
Fix,GT,37.3161241,-121.9505621,,0.0014142136,0.1,92.70227,1607641189999
Fix,GT,37.3161241,-121.9505621,,7.906749e-08,0.1,92.70166,1607641190999
Fix,GT,37.3161241,-121.9505621,,0.0009999442,0.1,92.70053,1607641191999
Fix,GT,37.3161241,-121.9505621,,0.0014141904,0.1,92.700165,1607641192999
Fix,GT,37.3161241,-121.9505621,,0.0010000233,0.1,92.69928,1607641193999
Fix,GT,37.3161241,-121.9505621,,0.001,0.1,92.69879,1607641194999
Fix,GT,37.3161241,-121.9505621,,0.001,0.1,92.69739,1607641195999
Fix,GT,37.3161241,-121.9505621,,5.602837e-08,0.1,92.696655,1607641196999
Fix,GT,37.3161241,-121.9505621,,0.000999944,0.1,92.69595,1607641197999
Fix,GT,37.3161241,-121.9505621,,0.001,0.1,92.69556,1607641198999
Fix,GT,37.3161241,-121.9505621,,0.0014141904,0.1,92.69443,1607641199999
Fix,GT,37.3161241,-121.9505621,,0.0014142136,0.1,92.6933,1607641200999
Fix,GT,37.3161241,-121.9505621,,0.0010000232,0.1,92.692474,1607641201999
Fix,GT,37.3161241,-121.9505621,,0.001,0.1,92.69156,1607641202999
Fix,GT,37.3161241,-121.9505621,,5.6087973e-08,0.1,92.69098,1607641203999
Fix,GT,37.3161241,-121.9505621,,0.0009999439,0.1,92.69034,1607641204999
Fix,GT,37.3161241,-121.9505621,,0.0014141903,0.1,92.68945,1607641205999
Fix,GT,37.3161241,-121.9505621,,0.0014142136,0.1,92.68854,1607641206999
Fix,GT,37.3161241,-121.9505621,,0.0014142136,0.1,92.687744,1607641207999
Fix,GT,37.3161241,-121.9505621,,0.0010000233,0.1,92.68704,1607641208999
Fix,GT,37.3161241,-121.9505621,,0.001,0.1,92.68646,1607641209999
Fix,GT,37.3161241,-121.9505621,,0.001,0.1,92.68591,1607641210999
Fix,GT,37.3161241,-121.9505621,,0.001,0.1,92.68521,1607641211999
Fix,GT,37.3161241,-121.9505621,,0.0014141903,0.1,92.684265,1607641212999
Fix,GT,37.3161241,-121.9505621,,0.0022360217,0.1,92.68353,1607641213999
Fix,GT,37.3161241,-121.9505621,,0.002236068,0.1,92.682556,1607641214999
Fix,GT,37.3161241,-121.9505621,,0.0028283936,0.1,92.68176,1607641215999
Fix,GT,37.3161241,-121.9505621,,0.0028284271,0.1,92.68085,1607641216999
Fix,GT,37.3161241,-121.9505621,,0.0036055078,0.1,92.68033,1607641217999
Fix,GT,37.3161241,-121.9505621,,0.0044720876,0.1,92.67981,1607641218999
Fix,GT,37.3161241,-121.9505621,,0.004472136,0.1,92.6788,1607641219999
Fix,GT,37.3161241,-121.9505621,,0.004472136,0.1,92.67801,1607641220999
Fix,GT,37.3161241,-121.9505621,,0.004472136,0.1,92.67743,1607641221999
Fix,GT,37.3161241,-121.9505621,,0.004123125,0.1,92.67673,1607641222999
Fix,GT,37.3161241,-121.9505621,,0.0031623316,0.1,92.6759,1607641223999
Fix,GT,37.3161241,-121.950562,,0.0010001218,0.1,92.67508,1607641224999
Fix,GT,37.316124,-121.950562,,0.0019999437,0.1,92.674255,1607641225999
Fix,GT,37.316124,-121.950562,,0.0042425143,0.1,92.67331,1607641226999
Fix,GT,37.3161241,-121.950562,,0.009999676,0.1,92.673065,1607641227999
Fix,GT,37.3161241,-121.9505605,,0.45416105,0.1,92.66504,1607641228999
Fix,GT,37.3161238,-121.9505514,,1.1287436,0.1,92.63687,1607641229999
Fix,GT,37.3161234,-121.9505359,,1.5851872,0.1,92.59509,1607641230999
Fix,GT,37.3161228,-121.9505151,,2.2727835,0.1,92.64038,1607641231999
Fix,GT,37.3161212,-121.9504814,,3.8578506,0.1,93.523834,1607641232999
Fix,GT,37.316119,-121.9504274,,5.8063383,0.1,93.00781,1607641233999
Fix,GT,37.31612,-121.9503499,,7.6467857,0.1,88.0047,1607641234999
Fix,GT,37.3161315,-121.9502647,,7.739791,0.1,78.00293,1607641235999
Fix,GT,37.3161596,-121.9501922,,6.706859,0.1,60.916718,1607641236999
Fix,GT,37.3161992,-121.9501428,,6.0524487,0.1,43.129425,1607641237999
Fix,GT,37.3162463,-121.9501187,,5.6494284,0.1,18.773376,1607641238999
Fix,GT,37.3162984,-121.9501183,,6.3648257,0.1,1.5135498,1607641239999
Fix,GT,37.3163609,-121.9501196,,7.5595803,0.1,359.68964,1607641240999
Fix,GT,37.3164339,-121.9501207,,8.535507,0.1,359.87524,1607641241999
Fix,GT,37.3165109,-121.9501215,,8.511221,0.1,359.83676,1607641242999
Fix,GT,37.316587,-121.9501229,,8.337859,0.1,359.45407,1607641243999
Fix,GT,37.3166594,-121.950124,,7.598432,0.1,359.5863,1607641244999
Fix,GT,37.3167221,-121.9501247,,6.2342854,0.1,359.8136,1607641245999
Fix,GT,37.3167711,-121.9501249,,4.626264,0.1,359.9002,1607641246999
Fix,GT,37.3168059,-121.9501253,,3.1831799,0.1,359.7683,1607641247999
Fix,GT,37.3168303,-121.9501255,,2.2481098,0.1,359.83093,1607641248999
Fix,GT,37.3168451,-121.9501255,,0.95808613,0.1,359.87228,1607641249999
Fix,GT,37.3168481,-121.9501255,,0.01905317,0.1,359.8766,1607641250999
Fix,GT,37.3168482,-121.9501255,,0.0022370173,0.1,359.87796,1607641251999
Fix,GT,37.3168482,-121.9501255,,0.002236068,0.1,359.8754,1607641252999
Fix,GT,37.3168482,-121.9501254,,0.0028283936,0.1,359.87463,1607641253999
Fix,GT,37.3168482,-121.9501254,,0.0031622588,0.1,359.8741,1607641254999
Fix,GT,37.3168482,-121.9501254,,0.0031622776,0.1,359.87354,1607641255999
Fix,GT,37.3168482,-121.9501253,,0.0030000093,0.1,359.87286,1607641256999
Fix,GT,37.3168482,-121.9501253,,0.003,0.1,359.87222,1607641257999
Fix,GT,37.3168482,-121.9501253,,0.0039999434,0.1,359.87097,1607641258999
Fix,GT,37.3168482,-121.9501253,,0.0030000568,0.1,359.87042,1607641259999
Fix,GT,37.3168482,-121.9501253,,0.0022361113,0.1,359.87003,1607641260999
Fix,GT,37.3168482,-121.9501253,,0.002236068,0.1,359.86932,1607641261999
Fix,GT,37.3168482,-121.9501253,,0.003162225,0.1,359.86868,1607641262999
Fix,GT,37.3168482,-121.9501253,,0.0022361206,0.1,359.8679,1607641263999
Fix,GT,37.3168482,-121.9501253,,0.002236068,0.1,359.86722,1607641264999
Fix,GT,37.3168482,-121.9501253,,0.0020000136,0.1,359.86664,1607641265999
Fix,GT,37.3168482,-121.9501253,,0.002,0.1,359.86612,1607641266999
Fix,GT,37.3168482,-121.9501253,,0.0022360545,0.1,359.86554,1607641267999
Fix,GT,37.3168482,-121.9501253,,0.0020000136,0.1,359.86472,1607641268999
Fix,GT,37.3168482,-121.9501253,,0.002,0.1,359.86417,1607641269999
Fix,GT,37.3168482,-121.9501253,,0.0022360545,0.1,359.8636,1607641270999
Fix,GT,37.3168482,-121.9501253,,0.0020000136,0.1,359.86285,1607641271999
Fix,GT,37.3168482,-121.9501253,,0.0022360545,0.1,359.86206,1607641272999
Fix,GT,37.3168482,-121.9501253,,0.003162225,0.1,359.8615,1607641273999
Fix,GT,37.3168482,-121.9501253,,0.0031622776,0.1,359.86087,1607641274999
Fix,GT,37.3168482,-121.9501253,,0.0036055262,0.1,359.8602,1607641275999
Fix,GT,37.3168482,-121.9501253,,0.0036055513,0.1,359.8596,1607641276999
Fix,GT,37.3168482,-121.9501253,,0.0049999207,0.1,359.8586,1607641277999
Fix,GT,37.3168482,-121.9501253,,0.0042426833,0.1,359.8579,1607641278999
Fix,GT,37.3168482,-121.9501253,,0.004472123,0.1,359.8573,1607641279999
Fix,GT,37.3168482,-121.9501252,,0.0042426535,0.1,359.8568,1607641280999
Fix,GT,37.3168483,-121.9501252,,0.0049999566,0.1,359.85608,1607641281999
Fix,GT,37.3168483,-121.9501252,,0.005,0.1,359.85516,1607641282999
Fix,GT,37.3168485,-121.9501251,,0.0980406,0.1,359.85657,1607641283999
Fix,GT,37.3168498,-121.9501251,,0.15500966,0.1,359.85547,1607641284999
Fix,GT,37.316852,-121.950125,,0.2700101,0.1,359.85638,1607641285999
Fix,GT,37.3168543,-121.950125,,0.22501147,0.1,359.85345,1607641286999
Fix,GT,37.316856,-121.9501251,,0.14601819,0.1,359.84836,1607641287999
Fix,GT,37.3168569,-121.950125,,0.05801364,0.1,359.84763,1607641288999
Fix,GT,37.3168579,-121.950125,,0.26898983,0.1,359.84662,1607641289999
Fix,GT,37.3168618,-121.9501251,,0.5689864,0.1,359.83884,1607641290999
Fix,GT,37.3168691,-121.9501251,,1.1219903,0.1,359.81152,1607641291999
Fix,GT,37.316882,-121.9501253,,1.8079884,0.1,359.62958,1607641292999
Fix,GT,37.3169039,-121.9501252,,3.2579174,0.1,0.21560669,1607641293999
Fix,GT,37.3169425,-121.9501247,,5.236176,0.1,0.61239624,1607641294999
Fix,GT,37.3169968,-121.950124,,6.4651814,0.1,0.6424866,1607641295999
Fix,GT,37.3170554,-121.9501231,,6.437511,0.1,0.95144653,1607641296999
Fix,GT,37.317112,-121.9501225,,6.1541734,0.1,0.58236694,1607641297999
Fix,GT,37.3171659,-121.9501267,,5.918077,0.1,355.1367,1607641298999
Fix,GT,37.3172154,-121.9501521,,6.4499288,0.1,334.9397,1607641299999
Fix,GT,37.3172573,-121.950206,,7.2668195,0.1,310.64462,1607641300999
Fix,GT,37.3172786,-121.9502846,,7.9726553,0.1,283.77002,1607641301999
Fix,GT,37.3172757,-121.9503795,,9.208072,0.1,265.75443,1607641302999
Fix,GT,37.3172649,-121.9504914,,10.938695,0.1,263.54056,1607641303999
Fix,GT,37.3172525,-121.9506253,,12.96708,0.1,263.852,1607641304999
Fix,GT,37.3172386,-121.9507818,,15.410526,0.1,264.01282,1607641305999
Fix,GT,37.3172225,-121.9509698,,17.392477,0.1,264.15027,1607641306999
Fix,GT,37.3172062,-121.9511658,,17.470503,0.1,264.22638,1607641307999
Fix,GT,37.3171894,-121.9513634,,17.954224,0.1,263.90472,1607641308999
Fix,GT,37.3171712,-121.9515713,,19.30446,0.1,263.76926,1607641309999
Fix,GT,37.3171503,-121.9517955,,20.940445,0.1,263.2185,1607641310999
Fix,GT,37.3171249,-121.9520422,,23.16606,0.1,262.4273,1607641311999
Fix,GT,37.3170945,-121.9523136,,25.450504,0.1,261.8383,1607641312999
Fix,GT,37.3170591,-121.9526109,,27.838572,0.1,261.4729,1607641313999
Fix,GT,37.3170202,-121.9529343,,30.124271,0.1,261.68835,1607641314999
Fix,GT,37.3169804,-121.9532827,,32.160316,0.1,262.09814,1607641315999
Fix,GT,37.3169414,-121.9536448,,32.299778,0.1,262.51044,1607641316999
Fix,GT,37.3169036,-121.9540044,,31.940294,0.1,262.37027,1607641317999
Fix,GT,37.3168647,-121.9543586,,31.463726,0.1,262.08118,1607641318999
Fix,GT,37.3168265,-121.9547077,,31.005922,0.1,262.10953,1607641319999
Fix,GT,37.3167881,-121.9550517,,30.582361,0.1,262.16928,1607641320999
Fix,GT,37.3167523,-121.9553915,,30.158201,0.1,262.9355,1607641321999
Fix,GT,37.316722,-121.9557277,,29.783916,0.1,263.91333,1607641322999
Fix,GT,37.3166942,-121.9560597,,29.42661,0.1,263.83124,1607641323999
Fix,GT,37.3166639,-121.9563874,,29.066467,0.1,263.16187,1607641324999
Fix,GT,37.3166339,-121.9567111,,28.715342,0.1,263.65686,1607641325999
Fix,GT,37.316608,-121.9570317,,28.422176,0.1,265.01776,1607641326999
Fix,GT,37.3165892,-121.9573504,,28.215593,0.1,266.52026,1607641327999
Fix,GT,37.3165763,-121.9576679,,28.14789,0.1,267.56317,1607641328999
Fix,GT,37.3165675,-121.9579852,,28.090536,0.1,268.32385,1607641329999
Fix,GT,37.3165618,-121.9583005,,27.82862,0.1,269.12814,1607641330999
Fix,GT,37.3165598,-121.9586139,,27.774168,0.1,269.8492,1607641331999
Fix,GT,37.3165603,-121.9589279,,27.957327,0.1,270.39203,1607641332999
Fix,GT,37.3165633,-121.9592454,,28.33508,0.1,271.0544,1607641333999
Fix,GT,37.3165685,-121.9595675,,28.793537,0.1,271.12653,1607641334999
Fix,GT,37.3165744,-121.9598953,,29.337286,0.1,271.44763,1607641335999
Fix,GT,37.3165808,-121.960229,,29.878107,0.1,271.22717,1607641336999
Fix,GT,37.3165865,-121.9605702,,30.57779,0.1,271.13705,1607641337999
Fix,GT,37.3165922,-121.9609186,,31.172352,0.1,271.0723,1607641338999
Fix,GT,37.3165975,-121.961273,,31.59792,0.1,271.01022,1607641339999
Fix,GT,37.3166027,-121.9616305,,31.717081,0.1,271.02826,1607641340999
Fix,GT,37.3166081,-121.9619886,,31.638302,0.1,271.08743,1607641341999
Fix,GT,37.3166136,-121.9623428,,31.122087,0.1,271.06656,1607641342999
Fix,GT,37.3166185,-121.9626909,,30.562437,0.1,271.05872,1607641343999
Fix,GT,37.3166231,-121.9630327,,30.03485,0.1,270.9866,1607641344999
Fix,GT,37.316628,-121.9633693,,29.588404,0.1,270.90005,1607641345999
Fix,GT,37.31663,-121.9637005,,29.165058,0.1,270.03418,1607641346999
Fix,GT,37.3166282,-121.964027,,28.80673,0.1,269.34686,1607641347999
Fix,GT,37.3166233,-121.9643495,,28.497692,0.1,268.52448,1607641348999
Fix,GT,37.3166154,-121.9646691,,28.22349,0.1,268.0221,1607641349999
Fix,GT,37.3166055,-121.9649868,,28.227886,0.1,267.60052,1607641350999
Fix,GT,37.316595,-121.9653073,,28.701504,0.1,267.75568,1607641351999
Fix,GT,37.3165852,-121.9656341,,29.221676,0.1,267.87225,1607641352999
Fix,GT,37.3165756,-121.9659637,,29.274559,0.1,267.7638,1607641353999
Fix,GT,37.3165646,-121.9662961,,29.861155,0.1,267.4409,1607641354999
Fix,GT,37.3165514,-121.9666383,,30.884161,0.1,267.1405,1607641355999
Fix,GT,37.3165387,-121.9669921,,31.885515,0.1,267.45938,1607641356999
Fix,GT,37.3165267,-121.9673563,,32.57145,0.1,268.01056,1607641357999
Fix,GT,37.3165198,-121.967723,,32.38915,0.1,269.4849,1607641358999
Fix,GT,37.3165204,-121.9680868,,32.070007,0.1,270.4791,1607641359999
Fix,GT,37.3165235,-121.9684466,,31.676338,0.1,270.73904,1607641360999
Fix,GT,37.3165298,-121.9688017,,31.256344,0.1,271.85007,1607641361999
Fix,GT,37.3165422,-121.9691517,,30.837507,0.1,273.0654,1607641362999
Fix,GT,37.3165588,-121.9694968,,30.43411,0.1,273.64395,1607641363999
Fix,GT,37.3165749,-121.9698373,,30.04464,0.1,272.51523,1607641364999
Fix,GT,37.3165866,-121.9701739,,29.674828,0.1,271.8974,1607641365999
Fix,GT,37.3165957,-121.9705062,,29.244064,0.1,272.03174,1607641366999
Fix,GT,37.3166081,-121.9708302,,28.30047,0.1,273.56467,1607641367999
Fix,GT,37.3166292,-121.9711468,,28.028143,0.1,275.54453,1607641368999
Fix,GT,37.3166587,-121.9714594,,27.751291,0.1,277.68286,1607641369999
Fix,GT,37.3166969,-121.9717675,,27.448622,0.1,279.59796,1607641370999
Fix,GT,37.3167436,-121.9720667,,26.584229,0.1,282.7934,1607641371999
Fix,GT,37.3168058,-121.9723556,,26.431053,0.1,287.14575,1607641372999
Fix,GT,37.3168861,-121.972636,,26.302649,0.1,291.89417,1607641373999
Fix,GT,37.3169828,-121.9729056,,26.020845,0.1,295.7656,1607641374999
Fix,GT,37.3170884,-121.9731652,,25.573603,0.1,297.4338,1607641375999
Fix,GT,37.3171932,-121.9734177,,24.79317,0.1,297.1736,1607641376999
Fix,GT,37.317291,-121.9736581,,22.625912,0.1,296.63617,1607641377999
Fix,GT,37.317375,-121.9738686,,19.00829,0.1,296.22293,1607641378999
Fix,GT,37.3174439,-121.974039,,14.801438,0.1,297.80423,1607641379999
Fix,GT,37.3175083,-121.9741601,,10.971428,0.1,308.7115,1607641380999
Fix,GT,37.3175755,-121.9742328,,8.706321,0.1,323.536,1607641381999
Fix,GT,37.3176393,-121.9742701,,6.707924,0.1,338.50885,1607641382999
Fix,GT,37.3176896,-121.9742834,,4.442868,0.1,348.15164,1607641383999
Fix,GT,37.3177187,-121.9742901,,2.1738958,0.1,348.801,1607641384999
Fix,GT,37.3177305,-121.9742928,,0.6565248,0.1,348.96756,1607641385999
Fix,GT,37.317733,-121.9742932,,0.03260925,0.1,348.94513,1607641386999
Fix,GT,37.3177333,-121.9742932,,0.030463215,0.1,348.94254,1607641387999
Fix,GT,37.3177335,-121.9742931,,0.025495386,0.1,348.94315,1607641388999
Fix,GT,37.3177336,-121.9742931,,0.01802819,0.1,348.93924,1607641389999
Fix,GT,37.3177339,-121.9742931,,0.039203357,0.1,348.92322,1607641390999
Fix,GT,37.3177346,-121.9742932,,0.14985016,0.1,348.83636,1607641391999
Fix,GT,37.3177363,-121.9742939,,0.2916114,0.1,348.40118,1607641392999
Fix,GT,37.3177403,-121.9742961,,0.7118414,0.1,345.8064,1607641393999
Fix,GT,37.317747,-121.9743017,,1.1100047,0.1,339.3032,1607641394999
Fix,GT,37.3177561,-121.9743122,,1.717341,0.1,329.166,1607641395999
Fix,GT,37.3177664,-121.9743301,,2.311599,0.1,314.42627,1607641396999
Fix,GT,37.3177787,-121.9743561,,3.1214514,0.1,304.50937,1607641397999
Fix,GT,37.3178004,-121.9743854,,3.782066,0.1,312.6763,1607641398999
Fix,GT,37.3178348,-121.9743992,,3.4803386,0.1,340.02853,1607641399999
Fix,GT,37.3178651,-121.9743944,,2.818958,0.1,2.2205505,1607641400999
Fix,GT,37.317887,-121.9743806,,2.175023,0.1,19.37091,1607641401999
Fix,GT,37.3178993,-121.9743679,,0.9686403,0.1,29.572784,1607641402999
Fix,GT,37.3179019,-121.9743651,,0.08085398,0.1,30.514526,1607641403999
Fix,GT,37.3179021,-121.9743645,,0.048848562,0.1,30.514313,1607641404999
Fix,GT,37.3179023,-121.9743641,,0.041146528,0.1,30.51123,1607641405999
Fix,GT,37.3179025,-121.9743637,,0.034482267,0.1,30.509857,1607641406999
Fix,GT,37.3179027,-121.9743634,,0.028302303,0.1,30.508728,1607641407999
Fix,GT,37.3179028,-121.9743632,,0.021633698,0.1,30.50772,1607641408999
Fix,GT,37.317903,-121.974363,,0.016401526,0.1,30.506683,1607641409999
Fix,GT,37.3179031,-121.9743629,,0.011402046,0.1,30.50531,1607641410999
Fix,GT,37.3179032,-121.9743628,,0.008062452,0.1,30.504395,1607641411999
Fix,GT,37.3179033,-121.9743628,,0.0044723456,0.1,30.50296,1607641412999
Fix,GT,37.3179033,-121.9743627,,0.001414392,0.1,30.501953,1607641413999
Fix,GT,37.3179034,-121.9743627,,0.0041229473,0.1,30.500977,1607641414999
Fix,GT,37.3179034,-121.9743626,,0.008245971,0.1,30.499908,1607641415999
Fix,GT,37.3179034,-121.9743626,,0.0114015695,0.1,30.498535,1607641416999
Fix,GT,37.3179034,-121.9743626,,0.011045381,0.1,30.500946,1607641417999
Fix,GT,37.3179056,-121.974361,,0.67618966,0.1,30.613434,1607641418999
Fix,GT,37.3179136,-121.9743549,,1.3676617,0.1,30.603607,1607641419999
Fix,GT,37.3179274,-121.974344,,2.2419667,0.1,31.356781,1607641420999
Fix,GT,37.3179476,-121.9743274,,3.1599193,0.1,32.73346,1607641421999
Fix,GT,37.3179759,-121.9743032,,4.3929305,0.1,33.755127,1607641422999
Fix,GT,37.318014,-121.9742707,,5.846918,0.1,34.028473,1607641423999
Fix,GT,37.3180624,-121.9742297,,6.829476,0.1,33.850525,1607641424999
Fix,GT,37.3181133,-121.9741861,,6.813,0.1,34.2164,1607641425999
Fix,GT,37.3181634,-121.9741422,,6.709433,0.1,34.903503,1607641426999
Fix,GT,37.3182105,-121.9741003,,5.8370066,0.1,34.837494,1607641427999
Fix,GT,37.3182496,-121.974076,,4.125038,0.1,23.180145,1607641428999
Fix,GT,37.318279,-121.9740894,,3.3144298,0.1,344.77466,1607641429999
Fix,GT,37.3182905,-121.9741251,,3.4654143,0.1,302.41412,1607641430999
Fix,GT,37.3182784,-121.9741642,,3.889097,0.1,257.4568,1607641431999
Fix,GT,37.3182454,-121.9741928,,5.184232,0.1,220.48174,1607641432999
Fix,GT,37.3181968,-121.9742208,,6.8963046,0.1,206.58893,1607641433999
Fix,GT,37.3181314,-121.9742625,,9.403923,0.1,207.81236,1607641434999
Fix,GT,37.3180488,-121.9743233,,11.804661,0.1,211.75993,1607641435999
Fix,GT,37.3179515,-121.9744015,,13.704096,0.1,212.6223,1607641436999
Fix,GT,37.3178386,-121.9744884,,15.733013,0.1,211.1393,1607641437999
Fix,GT,37.3177143,-121.9745798,,16.059797,0.1,210.3288,1607641438999
Fix,GT,37.3175901,-121.9746711,,15.878496,0.1,210.86295,1607641439999
Fix,GT,37.3174691,-121.9747643,,15.6161375,0.1,212.19188,1607641440999
Fix,GT,37.3173523,-121.9748581,,15.174813,0.1,212.98764,1607641441999
Fix,GT,37.3172426,-121.9749478,,13.644472,0.1,213.34459,1607641442999
Fix,GT,37.3171486,-121.975026,,11.385915,0.1,213.81845,1607641443999
Fix,GT,37.3170723,-121.9750902,,9.0600815,0.1,213.79416,1607641444999
Fix,GT,37.3170139,-121.9751388,,6.423616,0.1,213.59451,1607641445999
Fix,GT,37.3169752,-121.9751711,,3.9643097,0.1,213.77684,1607641446999
Fix,GT,37.3169535,-121.9751894,,1.9332546,0.1,213.7614,1607641447999
Fix,GT,37.3169461,-121.9751956,,0.07231048,0.1,213.61807,1607641448999
Fix,GT,37.3169462,-121.9751956,,0.0076195686,0.1,213.62094,1607641449999
Fix,GT,37.3169462,-121.9751957,,0.0030002713,0.1,213.61687,1607641450999
Fix,GT,37.3169462,-121.9751957,,0.003,0.1,213.61542,1607641451999
Fix,GT,37.3169462,-121.9751958,,0.002236113,0.1,213.61461,1607641452999
Fix,GT,37.3169462,-121.9751958,,0.002236068,0.1,213.61359,1607641453999
Fix,GT,37.3169462,-121.9751959,,0.002999955,0.1,213.61269,1607641454999
Fix,GT,37.3169461,-121.9751959,,0.0039999415,0.1,213.61145,1607641455999
Fix,GT,37.3169461,-121.9751959,,0.005098955,0.1,213.6106,1607641456999
Fix,GT,37.3169461,-121.975196,,0.007615625,0.1,213.60995,1607641457999
Fix,GT,37.3169462,-121.975196,,0.009433874,0.1,213.609,1607641458999
Fix,GT,37.3169462,-121.975196,,0.012206392,0.1,213.60799,1607641459999
Fix,GT,37.3169462,-121.975196,,0.016400972,0.1,213.60675,1607641460999
Fix,GT,37.3169463,-121.975196,,0.02061528,0.1,213.6059,1607641461999
Fix,GT,37.3169464,-121.975196,,0.026400417,0.1,213.60495,1607641462999
Fix,GT,37.3169465,-121.9751958,,0.03201529,0.1,213.60417,1607641463999
Fix,GT,37.3169466,-121.9751957,,0.039824158,0.1,213.60321,1607641464999
Fix,GT,37.3169468,-121.9751954,,0.04763356,0.1,213.60205,1607641465999
Fix,GT,37.3169469,-121.9751951,,0.10071926,0.1,213.60402,1607641466999
Fix,GT,37.3169413,-121.9751996,,1.7997068,0.1,213.6133,1607641467999
Fix,GT,37.3169193,-121.9752173,,3.7230418,0.1,213.10252,1607641468999
Fix,GT,37.3168851,-121.975239,,4.9035,0.1,207.23155,1607641469999
Fix,GT,37.3168352,-121.9752554,,6.7178707,0.1,193.36896,1607641470999
Fix,GT,37.3167736,-121.9752462,,7.1838613,0.1,169.18813,1607641471999
Fix,GT,37.3167199,-121.9752007,,7.827739,0.1,141.75192,1607641472999
Fix,GT,37.3166789,-121.9751208,,9.4119425,0.1,119.048096,1607641473999
Fix,GT,37.3166463,-121.9750133,,11.022059,0.1,109.86661,1607641474999
Fix,GT,37.316617,-121.9748868,,12.33252,0.1,105.532166,1607641475999
Fix,GT,37.3165881,-121.9747459,,13.528328,0.1,104.38937,1607641476999
Fix,GT,37.3165574,-121.9745914,,14.78018,0.1,104.05426,1607641477999
Fix,GT,37.3165243,-121.9744219,,16.190794,0.1,103.81738,1607641478999
Fix,GT,37.3164877,-121.9742372,,17.543844,0.1,104.39331,1607641479999
Fix,GT,37.3164473,-121.9740384,,18.700502,0.1,104.35333,1607641480999
Fix,GT,37.3164055,-121.9738304,,19.255602,0.1,104.26587,1607641481999
Fix,GT,37.3163631,-121.9736172,,19.748816,0.1,104.04123,1607641482999
Fix,GT,37.3163214,-121.9733975,,20.332,0.1,103.128296,1607641483999
Fix,GT,37.3162839,-121.9731695,,20.987476,0.1,100.54956,1607641484999
Fix,GT,37.3162561,-121.9729329,,21.51405,0.1,96.97223,1607641485999
Fix,GT,37.3162387,-121.9726862,,22.496162,0.1,94.372345,1607641486999
Fix,GT,37.316225,-121.9724278,,23.363367,0.1,93.59906,1607641487999
Fix,GT,37.316213,-121.9721603,,24.133265,0.1,93.12244,1607641488999
Fix,GT,37.3162007,-121.9718885,,24.020489,0.1,93.94232,1607641489999
Fix,GT,37.3161852,-121.97162,,23.695745,0.1,94.50659,1607641490999
Fix,GT,37.3161696,-121.9713551,,23.420507,0.1,93.86444,1607641491999
Fix,GT,37.3161594,-121.9710926,,23.218637,0.1,92.06183,1607641492999
Fix,GT,37.3161549,-121.9708301,,23.48307,0.1,90.78143,1607641493999
Fix,GT,37.316154,-121.9705616,,24.120974,0.1,90.19382,1607641494999
Fix,GT,37.3161542,-121.9702859,,24.756083,0.1,89.888336,1607641495999
Fix,GT,37.3161573,-121.9700032,,25.407333,0.1,88.68979,1607641496999
Fix,GT,37.3161648,-121.969716,,25.46419,0.1,88.04736,1607641497999
Fix,GT,37.3161729,-121.9694296,,25.332436,0.1,88.01297,1607641498999
Fix,GT,37.3161809,-121.9691438,,25.406406,0.1,87.984436,1607641499999
Fix,GT,37.3161899,-121.9688563,,25.6101,0.1,87.63562,1607641500999
Fix,GT,37.3161995,-121.9685663,,25.847101,0.1,87.70459,1607641501999
Fix,GT,37.3162084,-121.9682741,,25.991816,0.1,87.91611,1607641502999
Fix,GT,37.3162176,-121.9679802,,26.153381,0.1,87.617584,1607641503999
Fix,GT,37.3162279,-121.9676849,,26.155987,0.1,87.5889,1607641504999
Fix,GT,37.3162374,-121.9673921,,25.78828,0.1,87.75952,1607641505999
Fix,GT,37.3162464,-121.9671039,,25.32486,0.1,87.73682,1607641506999
Fix,GT,37.3162551,-121.9668213,,24.817465,0.1,87.91681,1607641507999
Fix,GT,37.3162633,-121.9665444,,24.306095,0.1,87.8186,1607641508999
Fix,GT,37.3162719,-121.9662732,,23.81404,0.1,87.7146,1607641509999
Fix,GT,37.3162803,-121.9660069,,23.456533,0.1,87.831665,1607641510999
Fix,GT,37.3162886,-121.9657436,,23.267485,0.1,87.74936,1607641511999
Fix,GT,37.3162968,-121.9654821,,23.124279,0.1,87.74185,1607641512999
Fix,GT,37.3163055,-121.9652222,,22.98661,0.1,87.60248,1607641513999
Fix,GT,37.3163139,-121.9649645,,22.704746,0.1,87.91913,1607641514999
Fix,GT,37.3163208,-121.9647103,,22.395758,0.1,88.15283,1607641515999
Fix,GT,37.3163276,-121.964459,,22.243448,0.1,88.05951,1607641516999
Fix,GT,37.3163335,-121.964207,,22.442225,0.1,88.559296,1607641517999
Fix,GT,37.3163375,-121.9639523,,22.736465,0.1,89.25427,1607641518999
Fix,GT,37.3163384,-121.9636935,,23.131012,0.1,90.181274,1607641519999
Fix,GT,37.3163368,-121.9634296,,23.657331,0.1,90.660034,1607641520999
Fix,GT,37.3163334,-121.9631588,,24.32571,0.1,91.08435,1607641521999
Fix,GT,37.3163293,-121.9628821,,24.599884,0.1,91.16815,1607641522999
Fix,GT,37.316325,-121.962605,,24.532131,0.1,90.95322,1607641523999
Fix,GT,37.3163216,-121.962329,,24.40995,0.1,90.957275,1607641524999
Fix,GT,37.3163176,-121.9620541,,24.333565,0.1,91.03598,1607641525999
Fix,GT,37.3163137,-121.9617799,,24.276443,0.1,91.22043,1607641526999
Fix,GT,37.3163091,-121.9615062,,24.24794,0.1,90.97888,1607641527999
Fix,GT,37.3163059,-121.9612323,,24.333586,0.1,90.86691,1607641528999
Fix,GT,37.3163025,-121.960958,,24.27804,0.1,90.8963,1607641529999
Fix,GT,37.3162989,-121.9606849,,24.15098,0.1,91.003235,1607641530999
Fix,GT,37.3162951,-121.9604134,,23.973166,0.1,90.88281,1607641531999
Fix,GT,37.3162924,-121.9601441,,23.800951,0.1,90.803894,1607641532999
Fix,GT,37.316289,-121.9598766,,23.606089,0.1,90.95441,1607641533999
Fix,GT,37.3162857,-121.959612,,23.334045,0.1,90.96036,1607641534999
Fix,GT,37.3162823,-121.9593485,,23.468021,0.1,91.0188,1607641535999
Fix,GT,37.3162763,-121.9590808,,24.01164,0.1,92.16727,1607641536999
Fix,GT,37.3162659,-121.9588041,,25.14981,0.1,93.033295,1607641537999
Fix,GT,37.3162548,-121.9585139,,26.345156,0.1,92.307526,1607641538999
Fix,GT,37.3162497,-121.9582118,,27.143682,0.1,90.24332,1607641539999
Fix,GT,37.3162525,-121.957902,,27.782312,0.1,88.727356,1607641540999
Fix,GT,37.3162604,-121.9575855,,28.38295,0.1,87.90488,1607641541999
Fix,GT,37.3162718,-121.9572622,,28.921688,0.1,87.15231,1607641542999
Fix,GT,37.3162863,-121.9569373,,28.723917,0.1,86.50116,1607641543999
Fix,GT,37.3163044,-121.9566161,,28.375349,0.1,85.51346,1607641544999
Fix,GT,37.3163259,-121.9562989,,28.055225,0.1,84.88849,1607641545999
Fix,GT,37.3163491,-121.9559856,,27.767387,0.1,84.605225,1607641546999
Fix,GT,37.3163727,-121.9556755,,27.46163,0.1,84.49228,1607641547999
Fix,GT,37.316395,-121.9553686,,27.159407,0.1,85.09769,1607641548999
Fix,GT,37.3164142,-121.9550651,,26.79404,0.1,85.98047,1607641549999
Fix,GT,37.3164276,-121.9547653,,26.46807,0.1,87.72183,1607641550999
Fix,GT,37.3164344,-121.9544662,,26.609312,0.1,88.75256,1607641551999
Fix,GT,37.3164393,-121.954166,,26.53408,0.1,88.80173,1607641552999
Fix,GT,37.3164441,-121.9538681,,26.241312,0.1,88.75894,1607641553999
Fix,GT,37.3164493,-121.9535744,,25.832157,0.1,88.57156,1607641554999
Fix,GT,37.3164552,-121.9532855,,25.386555,0.1,88.39502,1607641555999
Fix,GT,37.3164618,-121.953002,,24.924831,0.1,88.15961,1607641556999
Fix,GT,37.3164678,-121.9527233,,24.462929,0.1,88.605804,1607641557999
Fix,GT,37.3164722,-121.9524525,,23.350365,0.1,88.863525,1607641558999
Fix,GT,37.316476,-121.9522015,,21.018538,0.1,88.652466,1607641559999
Fix,GT,37.3164805,-121.95198,,18.324965,0.1,88.14633,1607641560999
Fix,GT,37.3164845,-121.9517899,,15.2645,0.1,88.95792,1607641561999
Fix,GT,37.3164766,-121.951636,,11.9858,0.1,98.855896,1607641562999
Fix,GT,37.3164386,-121.9515226,,9.797838,0.1,120.71973,1607641563999
Fix,GT,37.3163758,-121.9514559,,8.26632,0.1,147.5672,1607641564999
Fix,GT,37.3163068,-121.9514314,,7.418996,0.1,167.51001,1607641565999
Fix,GT,37.3162438,-121.9514137,,6.986631,0.1,165.31403,1607641566999
Fix,GT,37.3161925,-121.9513755,,6.586292,0.1,145.88678,1607641567999
Fix,GT,37.3161557,-121.9513206,,6.445255,0.1,126.85776,1607641568999
Fix,GT,37.3161393,-121.951255,,6.062716,0.1,105.17932,1607641569999
Fix,GT,37.3161373,-121.9511863,,6.4484653,0.1,92.295685,1607641570999
Fix,GT,37.3161367,-121.9511098,,7.1473837,0.1,90.744934,1607641571999
Fix,GT,37.3161366,-121.9510281,,7.2639937,0.1,90.39044,1607641572999
Fix,GT,37.3161361,-121.950947,,6.9773293,0.1,90.79175,1607641573999
Fix,GT,37.3161348,-121.9508733,,5.971995,0.1,91.76587,1607641574999
Fix,GT,37.3161328,-121.9508144,,4.4745917,0.1,92.71051,1607641575999
Fix,GT,37.3161313,-121.9507731,,2.8738163,0.1,92.859436,1607641576999
Fix,GT,37.3161305,-121.9507469,,1.8459288,0.1,92.78006,1607641577999
Fix,GT,37.31613,-121.9507324,,0.66446924,0.1,92.72662,1607641578999
Fix,GT,37.31613,-121.9507304,,0.01208079,0.1,92.715485,1607641579999
Fix,GT,37.3161301,-121.9507303,,0.008944458,0.1,92.712585,1607641580999
Fix,GT,37.3161302,-121.9507303,,0.006708338,0.1,92.70996,1607641581999
Fix,GT,37.3161302,-121.9507303,,0.0050001023,0.1,92.70996,1607641582999
Fix,GT,37.3161302,-121.9507302,,0.0044721677,0.1,92.7088,1607641583999
Fix,GT,37.3161302,-121.9507302,,0.0041231266,0.1,92.707794,1607641584999
Fix,GT,37.3161302,-121.9507302,,0.0041231057,0.1,92.70657,1607641585999
Fix,GT,37.3161302,-121.9507302,,0.0040000076,0.1,92.70566,1607641586999
Fix,GT,37.3161302,-121.9507302,,0.00300006,0.1,92.70474,1607641587999
Fix,GT,37.3161302,-121.9507301,,0.0022361139,0.1,92.70355,1607641588999
Fix,GT,37.3161302,-121.9507301,,0.001414263,0.1,92.70239,1607641589999
Fix,GT,37.3161302,-121.9507301,,0.001999965,0.1,92.701294,1607641590999
Fix,GT,37.3161302,-121.9507301,,0.0036054547,0.1,92.700195,1607641591999
Fix,GT,37.3161302,-121.9507301,,0.006402956,0.1,92.69919,1607641592999
Fix,GT,37.3161302,-121.9507294,,0.3061143,0.1,92.69098,1607641593999
Fix,GT,37.3161299,-121.9507188,,1.7713755,0.1,92.60391,1607641594999
Fix,GT,37.3161286,-121.950686,,4.0314865,0.1,92.94238,1607641595999
Fix,GT,37.3161262,-121.9506291,,5.7469425,0.1,93.23303,1607641596999
Fix,GT,37.3161234,-121.9505612,,6.399017,0.1,92.92926,1607641597999
Fix,GT,37.3161209,-121.950483,,7.487323,0.1,92.33011,1607641598999
Fix,GT,37.3161191,-121.9503958,,7.798199,0.1,91.53967,1607641599999
Fix,GT,37.316122,-121.9503093,,7.6115894,0.1,85.27765,1607641600999
Fix,GT,37.3161397,-121.9502301,,7.254459,0.1,71.93704,1607641601999
Fix,GT,37.3161733,-121.9501641,,6.9316063,0.1,53.82596,1607641602999
Fix,GT,37.3162236,-121.950124,,6.687381,0.1,27.851593,1607641603999
Fix,GT,37.3162828,-121.9501165,,7.075076,0.1,3.6349487,1607641604999
Fix,GT,37.3163527,-121.9501189,,8.745764,0.1,359.65213,1607641605999
Fix,GT,37.3164455,-121.9501216,,11.763839,0.1,359.48465,1607641606999
Fix,GT,37.3165637,-121.9501235,,14.389523,0.1,359.6655,1607641607999
Fix,GT,37.3166967,-121.9501246,,14.875113,0.1,359.99258,1607641608999
Fix,GT,37.3168283,-121.9501252,,13.803314,0.1,359.91837,1607641609999
Fix,GT,37.3169393,-121.9501253,,10.728195,0.1,0.14233398,1607641610999
Fix,GT,37.3170207,-121.9501254,,7.3192096,0.1,0.20983887,1607641611999
Fix,GT,37.3170715,-121.9501252,,4.111196,0.1,0.3678589,1607641612999
Fix,GT,37.3170987,-121.9501253,,2.2131228,0.1,0.08135986,1607641613999
Fix,GT,37.3171119,-121.9501256,,0.67314065,0.1,359.71548,1607641614999
Fix,GT,37.3171131,-121.9501257,,0.0022766513,0.1,359.68835,1607641615999
Fix,GT,37.3171131,-121.9501257,,0.0049998327,0.1,359.68954,1607641616999
