MessageType,Provider,LatitudeDegrees,LongitudeDegrees,AltitudeMeters,SpeedMps,AccuracyMeters,BearingDegrees,UnixTimeMillis
Fix,GT,37.6296279,-122.4224854,,0.003069781,0.1,242.50717,1596500444430
Fix,GT,37.6296279,-122.4224854,,0.0035754428,0.1,242.50694,1596500445430
Fix,GT,37.6296279,-122.4224854,,0.0040701693,0.1,242.50708,1596500446430
Fix,GT,37.6296279,-122.4224854,,0.004052937,0.1,242.50717,1596500447430
Fix,GT,37.6296279,-122.4224854,,0.0040701693,0.1,242.50739,1596500448430
Fix,GT,37.6296279,-122.4224854,,0.0035699906,0.1,242.50735,1596500449430
Fix,GT,37.6296279,-122.4224854,,0.003,0.1,242.50714,1596500450430
Fix,GT,37.6296279,-122.4224854,,0.0034300096,0.1,242.50696,1596500451430
Fix,GT,37.6296279,-122.4224854,,0.004472589,0.1,242.50687,1596500452430
Fix,GT,37.6296279,-122.4224854,,0.005522038,0.1,242.50687,1596500453430
Fix,GT,37.6296279,-122.4224854,,0.005659743,0.1,242.5069,1596500454430
Fix,GT,37.6296279,-122.4224854,,0.005099019,0.1,242.507,1596500455430
Fix,GT,37.6296279,-122.4224854,,0.005099019,0.1,242.50702,1596500456430
Fix,GT,37.6296279,-122.4224854,,0.0048294533,0.1,242.50697,1596500457430
Fix,GT,37.6296279,-122.4224854,,0.0048647467,0.1,242.50674,1596500458430
Fix,GT,37.6296279,-122.4224854,,0.006200009,0.1,242.50656,1596500459430
Fix,GT,37.6296279,-122.4224854,,0.00634222,0.1,242.50641,1596500460430
Fix,GT,37.629628,-122.4224853,,0.00505644,0.1,242.50613,1596500461430
Fix,GT,37.629628,-122.4224853,,0.0055695716,0.1,242.50624,1596500462430
Fix,GT,37.629628,-122.4224853,,0.0068797907,0.1,242.50623,1596500463430
Fix,GT,37.629628,-122.4224852,,0.0060609556,0.1,242.50595,1596500464430
Fix,GT,37.629628,-122.4224852,,0.0057468098,0.1,242.50641,1596500465430
Fix,GT,37.6296278,-122.4224857,,0.13671476,0.1,242.48714,1596500466430
Fix,GT,37.629626,-122.4224888,,0.6772828,0.1,241.31589,1596500467430
Fix,GT,37.62962,-122.4225001,,1.8394592,0.1,239.27655,1596500468430
Fix,GT,37.6296075,-122.4225249,,3.3409538,0.1,238.3495,1596500469430
Fix,GT,37.6295879,-122.422564,,4.803702,0.1,237.72801,1596500470430
Fix,GT,37.6295608,-122.4226165,,6.266183,0.1,237.04523,1596500471430
Fix,GT,37.6295265,-122.4226817,,7.364172,0.1,236.4513,1596500472430
Fix,GT,37.6294875,-122.4227543,,7.9754105,0.1,235.84885,1596500473430
Fix,GT,37.6294467,-122.4228318,,8.369286,0.1,237.0384,1596500474430
Fix,GT,37.6294081,-122.4229153,,8.635679,0.1,241.14299,1596500475430
Fix,GT,37.6293736,-122.4230047,,8.874616,0.1,244.97868,1596500476430
Fix,GT,37.6293411,-122.4230978,,9.055814,0.1,246.64987,1596500477430
Fix,GT,37.6293084,-122.4231928,,9.241903,0.1,246.57652,1596500478430
Fix,GT,37.629274,-122.4232897,,9.500713,0.1,245.884,1596500479430
Fix,GT,37.6292379,-122.4233879,,9.510005,0.1,245.00032,1596500480430
Fix,GT,37.6292018,-122.4234836,,9.136775,0.1,244.75648,1596500481430
Fix,GT,37.6291675,-122.4235751,,8.738121,0.1,244.99782,1596500482430
Fix,GT,37.6291343,-122.4236625,,8.330888,0.1,244.28992,1596500483430
Fix,GT,37.6291013,-122.4237427,,7.613,0.1,241.54112,1596500484430
Fix,GT,37.6290652,-122.4238094,,6.766087,0.1,232.57751,1596500485430
Fix,GT,37.6290216,-122.4238537,,6.0464606,0.1,214.01617,1596500486430
Fix,GT,37.628973,-122.4238681,,5.5424795,0.1,189.15097,1596500487430
Fix,GT,37.6289276,-122.4238527,,5.4142056,0.1,161.67828,1596500488430
Fix,GT,37.6288938,-122.4238106,,5.6960945,0.1,132.17969,1596500489430
Fix,GT,37.6288796,-122.4237479,,6.40536,0.1,103.07367,1596500490430
Fix,GT,37.6288873,-122.4236721,,7.4896975,0.1,80.16635,1596500491430
Fix,GT,37.6289129,-122.4235872,,8.669903,0.1,67.461365,1596500492430
Fix,GT,37.6289497,-122.4234942,,9.617451,0.1,63.042053,1596500493430
Fix,GT,37.6289909,-122.4233944,,10.234047,0.1,62.91223,1596500494430
Fix,GT,37.6290342,-122.4232885,,10.741917,0.1,63.089417,1596500495430
Fix,GT,37.629079,-122.4231785,,11.051759,0.1,63.067413,1596500496430
Fix,GT,37.6291247,-122.423066,,11.238279,0.1,63.164337,1596500497430
Fix,GT,37.6291708,-122.422951,,11.444872,0.1,63.49112,1596500498430
Fix,GT,37.6292172,-122.422834,,11.565057,0.1,63.90042,1596500499430
Fix,GT,37.6292627,-122.4227169,,11.3673725,0.1,64.25784,1596500500430
Fix,GT,37.6293061,-122.4226045,,10.6312275,0.1,64.26538,1596500501430
Fix,GT,37.6293461,-122.4225023,,9.483502,0.1,63.872894,1596500502430
Fix,GT,37.629382,-122.4224118,,8.487059,0.1,63.569824,1596500503430
Fix,GT,37.629415,-122.4223291,,8.0020895,0.1,63.61029,1596500504430
Fix,GT,37.6294467,-122.4222486,,7.866168,0.1,63.97354,1596500505430
Fix,GT,37.6294773,-122.4221697,,7.5905485,0.1,64.56213,1596500506430
Fix,GT,37.6295057,-122.4220946,,7.0292253,0.1,65.03882,1596500507430
Fix,GT,37.6295292,-122.4220263,,5.9914412,0.1,68.164,1596500508430
Fix,GT,37.6295393,-122.4219652,,5.05744,0.1,82.13724,1596500509430
Fix,GT,37.6295272,-122.421912,,4.9777193,0.1,108.69403,1596500510430
Fix,GT,37.6294937,-122.4218688,,5.8193827,0.1,134.98407,1596500511430
Fix,GT,37.6294436,-122.4218305,,7.1171923,0.1,149.29266,1596500512430
Fix,GT,37.6293826,-122.4217913,,7.861411,0.1,153.99536,1596500513430
Fix,GT,37.6293176,-122.4217556,,7.7473583,0.1,157.89636,1596500514430
Fix,GT,37.6292556,-122.4217263,,6.93452,0.1,159.71759,1596500515430
Fix,GT,37.6292025,-122.4217003,,5.64715,0.1,158.44354,1596500516430
Fix,GT,37.6291612,-122.4216779,,4.2962084,0.1,155.97803,1596500517430
Fix,GT,37.6291316,-122.4216566,,3.5005856,0.1,150.04636,1596500518430
Fix,GT,37.6291077,-122.4216322,,3.5402467,0.1,141.89432,1596500519430
Fix,GT,37.6290848,-122.4215979,,4.425758,0.1,130.77762,1596500520430
Fix,GT,37.629069,-122.4215458,,5.677889,0.1,110.39038,1596500521430
Fix,GT,37.6290699,-122.4214754,,7.2190495,0.1,87.26221,1596500522430
Fix,GT,37.6290909,-122.4213891,,8.985921,0.1,71.034,1596500523430
Fix,GT,37.6291272,-122.421288,,10.639612,0.1,65.00104,1596500524430
Fix,GT,37.6291727,-122.4211715,,12.244602,0.1,63.86734,1596500525430
Fix,GT,37.6292251,-122.4210406,,13.576103,0.1,63.34268,1596500526430
Fix,GT,37.6292825,-122.4208994,,14.2611065,0.1,63.102997,1596500527430
Fix,GT,37.6293413,-122.4207554,,14.157536,0.1,63.102936,1596500528430
Fix,GT,37.6293977,-122.4206164,,13.239672,0.1,63.217834,1596500529430
Fix,GT,37.6294484,-122.4204905,,11.585678,0.1,63.332275,1596500530430
Fix,GT,37.6294917,-122.4203837,,9.537804,0.1,63.109467,1596500531430
Fix,GT,37.6295265,-122.4202993,,7.297838,0.1,62.765686,1596500532430
Fix,GT,37.6295534,-122.4202334,,5.9215393,0.1,63.09262,1596500533430
Fix,GT,37.6295779,-122.4201722,,6.3041487,0.1,63.504578,1596500534430
Fix,GT,37.6296061,-122.4201,,8.047197,0.1,64.237335,1596500535430
Fix,GT,37.6296413,-122.420006,,10.219736,0.1,65.111694,1596500536430
Fix,GT,37.6296837,-122.419892,,11.86834,0.1,64.96484,1596500537430
Fix,GT,37.6297335,-122.4197645,,13.156475,0.1,63.52182,1596500538430
Fix,GT,37.6297914,-122.4196283,,14.101906,0.1,61.21173,1596500539430
Fix,GT,37.6298589,-122.4194875,,14.928674,0.1,57.731995,1596500540430
Fix,GT,37.6299378,-122.4193469,,15.479332,0.1,53.223022,1596500541430
Fix,GT,37.6300272,-122.419211,,15.661926,0.1,49.114532,1596500542430
Fix,GT,37.6301214,-122.4190806,,15.455488,0.1,47.625793,1596500543430
Fix,GT,37.6302134,-122.4189524,,14.984115,0.1,48.723206,1596500544430
Fix,GT,37.6302991,-122.4188256,,14.343224,0.1,50.413757,1596500545430
Fix,GT,37.6303789,-122.4187046,,13.314478,0.1,50.394257,1596500546430
Fix,GT,37.6304521,-122.4185948,,11.920568,0.1,50.237366,1596500547430
Fix,GT,37.630515,-122.4184973,,10.166919,0.1,52.05298,1596500548430
Fix,GT,37.6305634,-122.4184137,,8.044596,0.1,55.698242,1596500549430
Fix,GT,37.6305962,-122.418347,,5.757483,0.1,59.540466,1596500550430
Fix,GT,37.6306164,-122.4183016,,3.4253182,0.1,61.083344,1596500551430
Fix,GT,37.6306267,-122.4182781,,1.4028008,0.1,61.265747,1596500552430
Fix,GT,37.6306299,-122.4182709,,0.25893006,0.1,61.30417,1596500553430
Fix,GT,37.6306302,-122.4182703,,0.0033364014,0.1,61.319916,1596500554430
Fix,GT,37.6306302,-122.4182703,,0.001,0.1,61.319885,1596500555430
Fix,GT,37.6306302,-122.4182703,,0.001,0.1,61.319824,1596500556430
Fix,GT,37.6306302,-122.4182703,,0.001,0.1,61.319824,1596500557430
Fix,GT,37.6306302,-122.4182703,,0.001,0.1,61.319794,1596500558430
Fix,GT,37.6306302,-122.4182703,,0.001,0.1,61.319885,1596500559430
Fix,GT,37.6306302,-122.4182703,,0.001,0.1,61.319824,1596500560430
Fix,GT,37.6306302,-122.4182703,,0.001,0.1,61.319794,1596500561430
Fix,GT,37.6306302,-122.4182703,,0.001,0.1,61.319824,1596500562430
Fix,GT,37.6306303,-122.4182704,,0.0015315213,0.1,61.319733,1596500563430
Fix,GT,37.6306303,-122.4182704,,0.0021345564,0.1,61.31955,1596500564430
Fix,GT,37.6306303,-122.4182704,,0.0015699903,0.1,61.319336,1596500565430
Fix,GT,37.6306303,-122.4182704,,0.0011781158,0.1,61.319336,1596500566430
Fix,GT,37.6306303,-122.4182704,,0.001767619,0.1,61.319427,1596500567430
Fix,GT,37.6306303,-122.4182704,,0.0024907882,0.1,61.31955,1596500568430
Fix,GT,37.6306303,-122.4182704,,0.002573707,0.1,61.319366,1596500569430
Fix,GT,37.6306303,-122.4182704,,0.0017045469,0.1,61.319275,1596500570430
Fix,GT,37.6306303,-122.4182704,,0.001,0.1,61.319366,1596500571430
Fix,GT,37.6306303,-122.4182704,,0.001,0.1,61.319458,1596500572430
Fix,GT,37.6306303,-122.4182704,,0.001,0.1,61.31955,1596500573430
Fix,GT,37.6306303,-122.4182704,,0.0015315213,0.1,61.31967,1596500574430
Fix,GT,37.6306303,-122.4182704,,0.0024907882,0.1,61.319702,1596500575430
Fix,GT,37.6306303,-122.4182704,,0.002573707,0.1,61.31967,1596500576430
Fix,GT,37.6306303,-122.4182704,,0.0025645662,0.1,61.31967,1596500577430
Fix,GT,37.6306303,-122.4182704,,0.0025699902,0.1,61.319794,1596500578430
Fix,GT,37.6306303,-122.4182704,,0.0015699903,0.1,61.319916,1596500579430
Fix,GT,37.6306303,-122.4182704,,0.0011781158,0.1,61.319916,1596500580430
Fix,GT,37.6306303,-122.4182704,,0.0012360977,0.1,61.31958,1596500581430
Fix,GT,37.6306303,-122.4182704,,0.0018600195,0.1,61.319275,1596500582430
Fix,GT,37.6306303,-122.4182704,,0.0026715018,0.1,61.319366,1596500583430
Fix,GT,37.6306303,-122.4182704,,0.0018826626,0.1,61.319336,1596500584430
Fix,GT,37.6306303,-122.4182704,,0.0012360977,0.1,61.319366,1596500585430
Fix,GT,37.6306303,-122.4182704,,0.001,0.1,61.319183,1596500586430
Fix,GT,37.6306303,-122.4182704,,0.0011781158,0.1,61.31906,1596500587430
Fix,GT,37.6306303,-122.4182704,,0.0014142136,0.1,61.31891,1596500588430
Fix,GT,37.6306303,-122.4182704,,0.001767619,0.1,61.31888,1596500589430
Fix,GT,37.6306303,-122.4182704,,0.002236068,0.1,61.31906,1596500590430
Fix,GT,37.6306303,-122.4182704,,0.002236068,0.1,61.31906,1596500591430
Fix,GT,37.6306303,-122.4182704,,0.0021345564,0.1,61.31897,1596500592430
Fix,GT,37.6306303,-122.4182704,,0.0017481062,0.1,61.31909,1596500593430
Fix,GT,37.6306303,-122.4182704,,0.0012360977,0.1,61.31891,1596500594430
Fix,GT,37.6306303,-122.4182704,,0.001,0.1,61.318787,1596500595430
Fix,GT,37.6306303,-122.4182704,,0.0011781158,0.1,61.318573,1596500596430
Fix,GT,37.6306303,-122.4182704,,0.0014142136,0.1,61.318634,1596500597430
Fix,GT,37.6306303,-122.4182704,,0.0014142136,0.1,61.31906,1596500598430
Fix,GT,37.6306303,-122.4182704,,0.001767619,0.1,61.318726,1596500599430
Fix,GT,37.6306303,-122.4182704,,0.0012745371,0.1,61.31833,1596500600430
Fix,GT,37.6306303,-122.4182704,,0.00043000974,0.1,61.317993,1596500601430
Fix,GT,37.6306303,-122.4182704,,0.0005699903,0.1,61.317627,1596500602430
Fix,GT,37.6306303,-122.4182704,,0.0,0.1,61.317627,1596500603430
Fix,GT,37.6306303,-122.4182704,,0.0,0.1,61.317932,1596500604430
Fix,GT,37.6306303,-122.4182704,,0.00043000974,0.1,61.31848,1596500605430
Fix,GT,37.6306303,-122.4182704,,0.001,0.1,61.318726,1596500606430
Fix,GT,37.6306303,-122.4182704,,0.0011781158,0.1,61.3183,1596500607430
Fix,GT,37.6306303,-122.4182704,,0.0012360977,0.1,61.318146,1596500608430
Fix,GT,37.6306303,-122.4182704,,0.0011781158,0.1,61.318115,1596500609430
Fix,GT,37.6306303,-122.4182704,,0.0012360977,0.1,61.31787,1596500610430
Fix,GT,37.6306303,-122.4182704,,0.001,0.1,61.317993,1596500611430
Fix,GT,37.6306303,-122.4182704,,0.0005699903,0.1,61.318024,1596500612430
Fix,GT,37.6306303,-122.4182704,,0.0004300097,0.1,61.317688,1596500613430
Fix,GT,37.6306303,-122.4182704,,0.0011781158,0.1,61.317566,1596500614430
Fix,GT,37.6306303,-122.4182704,,0.0014142136,0.1,61.31775,1596500615430
Fix,GT,37.6306303,-122.4182704,,0.000806088,0.1,61.318176,1596500616430
Fix,GT,37.6306303,-122.4182704,,0.0004300097,0.1,61.31787,1596500617430
Fix,GT,37.6306303,-122.4182704,,0.0014300097,0.1,61.31714,1596500618430
Fix,GT,37.6306303,-122.4182704,,0.0015699903,0.1,61.31729,1596500619430
Fix,GT,37.6306303,-122.4182704,,0.001,0.1,61.31787,1596500620430
Fix,GT,37.6306303,-122.4182704,,0.0011781158,0.1,61.318146,1596500621430
Fix,GT,37.6306303,-122.4182704,,0.0016661074,0.1,61.318085,1596500622430
Fix,GT,37.6306303,-122.4182704,,0.0017481062,0.1,61.31775,1596500623430
Fix,GT,37.6306303,-122.4182704,,0.0012360978,0.1,61.317627,1596500624430
Fix,GT,37.6306303,-122.4182704,,0.00056999037,0.1,61.317657,1596500625430
Fix,GT,37.6306303,-122.4182704,,0.00060812547,0.1,61.317627,1596500626430
Fix,GT,37.6306303,-122.4182704,,0.0014142136,0.1,61.317505,1596500627430
Fix,GT,37.6306303,-122.4182704,,0.0008060881,0.1,61.317383,1596500628430
Fix,GT,37.6306303,-122.4182704,,0.00060812547,0.1,61.31732,1596500629430
Fix,GT,37.6306303,-122.4182704,,0.0017676189,0.1,61.31714,1596500630430
Fix,GT,37.6306303,-122.4182704,,0.002236068,0.1,61.31659,1596500631430
Fix,GT,37.6306303,-122.4182704,,0.0021345564,0.1,61.31659,1596500632430
Fix,GT,37.6306303,-122.4182704,,0.002,0.1,61.316803,1596500633430
Fix,GT,37.6306303,-122.4182704,,0.0021015117,0.1,61.316803,1596500634430
Fix,GT,37.6306303,-122.4182704,,0.001704547,0.1,61.316895,1596500635430
Fix,GT,37.6306303,-122.4182704,,0.00056999037,0.1,61.316925,1596500636430
Fix,GT,37.6306304,-122.4182705,,0.0,0.1,61.316956,1596500637430
Fix,GT,37.6306304,-122.4182705,,0.00043000965,0.1,61.31717,1596500638430
Fix,GT,37.6306304,-122.4182705,,0.001,0.1,61.317413,1596500639430
Fix,GT,37.6306304,-122.4182705,,0.001,0.1,61.317535,1596500640430
Fix,GT,37.6306304,-122.4182705,,0.001,0.1,61.31787,1596500641430
Fix,GT,37.6306304,-122.4182705,,0.001,0.1,61.317566,1596500642430
Fix,GT,37.6306304,-122.4182705,,0.0011781158,0.1,61.316803,1596500643430
Fix,GT,37.6306304,-122.4182705,,0.0014142136,0.1,61.31656,1596500644430
Fix,GT,37.6306304,-122.4182705,,0.0012360978,0.1,61.316254,1596500645430
Fix,GT,37.6306304,-122.4182705,,0.0011781158,0.1,61.3161,1596500646430
Fix,GT,37.6306304,-122.4182705,,0.0017676189,0.1,61.315857,1596500647430
Fix,GT,37.6306304,-122.4182705,,0.002236068,0.1,61.3161,1596500648430
Fix,GT,37.6306304,-122.4182705,,0.002634347,0.1,61.31613,1596500649430
Fix,GT,37.6306304,-122.4182704,,0.0670124,0.1,61.319427,1596500650430
Fix,GT,37.6306321,-122.4182663,,0.99152416,0.1,61.360504,1596500651430
Fix,GT,37.6306403,-122.4182467,,3.1268692,0.1,61.889862,1596500652430
Fix,GT,37.6306581,-122.4182035,,5.413398,0.1,62.776245,1596500653430
Fix,GT,37.6306838,-122.4181398,,7.144082,0.1,63.247437,1596500654430
Fix,GT,37.630716,-122.4180628,,8.152746,0.1,61.81711,1596500655430
Fix,GT,37.6307584,-122.4179846,,8.577436,0.1,52.91504,1596500656430
Fix,GT,37.6308152,-122.4179225,,8.443917,0.1,35.67404,1596500657430
Fix,GT,37.6308836,-122.4178884,,8.475277,0.1,16.579346,1596500658430
Fix,GT,37.6309612,-122.4178825,,9.189253,0.1,359.76935,1596500659430
Fix,GT,37.6310469,-122.4179001,,10.190193,0.1,348.23953,1596500660430
Fix,GT,37.6311371,-122.4179346,,10.778622,0.1,341.57617,1596500661430
Fix,GT,37.6312286,-122.4179796,,10.991863,0.1,338.06512,1596500662430
Fix,GT,37.631319,-122.4180285,,10.766957,0.1,336.55447,1596500663430
Fix,GT,37.6314048,-122.4180767,,10.023356,0.1,335.9732,1596500664430
Fix,GT,37.6314817,-122.4181206,,8.684762,0.1,335.86133,1596500665430
Fix,GT,37.6315467,-122.4181576,,7.091728,0.1,335.8045,1596500666430
Fix,GT,37.6315971,-122.4181863,,5.0668774,0.1,335.91,1596500667430
Fix,GT,37.6316299,-122.4182048,,3.0180154,0.1,336.07498,1596500668430
Fix,GT,37.6316486,-122.4182153,,1.7866592,0.1,336.11652,1596500669430
Fix,GT,37.6316611,-122.4182223,,1.2403631,0.1,336.12778,1596500670430
Fix,GT,37.631669,-122.4182268,,0.6124539,0.1,336.1339,1596500671430
Fix,GT,37.6316715,-122.4182282,,0.03590899,0.1,336.13992,1596500672430
Fix,GT,37.6316716,-122.4182282,,0.0039317114,0.1,336.14435,1596500673430
Fix,GT,37.6316716,-122.4182282,,0.002022339,0.1,336.1438,1596500674430
Fix,GT,37.6316716,-122.4182282,,0.0020421857,0.1,336.14285,1596500675430
Fix,GT,37.6316716,-122.4182282,,0.0014300097,0.1,336.14243,1596500676430
Fix,GT,37.6316716,-122.4182282,,0.0015699903,0.1,336.14236,1596500677430
Fix,GT,37.6316716,-122.4182282,,0.0005699903,0.1,336.14252,1596500678430
Fix,GT,37.6316716,-122.4182282,,0.0,0.1,336.14243,1596500679430
Fix,GT,37.6316716,-122.4182282,,0.00043000974,0.1,336.14233,1596500680430
Fix,GT,37.6316716,-122.4182282,,0.001,0.1,336.14206,1596500681430
Fix,GT,37.6316716,-122.4182282,,0.0011781158,0.1,336.14185,1596500682430
Fix,GT,37.6316716,-122.4182282,,0.000806088,0.1,336.14227,1596500683430
Fix,GT,37.6316716,-122.4182282,,0.0,0.1,336.14264,1596500684430
Fix,GT,37.6316716,-122.4182282,,0.0006081256,0.1,336.14258,1596500685430
Fix,GT,37.6316716,-122.4182282,,0.0016661074,0.1,336.14224,1596500686430
Fix,GT,37.6316716,-122.4182282,,0.0015699903,0.1,336.14233,1596500687430
Fix,GT,37.6316716,-122.4182282,,0.001,0.1,336.14246,1596500688430
Fix,GT,37.6316716,-122.4182282,,0.001,0.1,336.14233,1596500689430
Fix,GT,37.6316716,-122.4182282,,0.0011781158,0.1,336.14218,1596500690430
Fix,GT,37.6316716,-122.4182282,,0.0014142136,0.1,336.14206,1596500691430
Fix,GT,37.6316716,-122.4182282,,0.0014142136,0.1,336.14194,1596500692430
Fix,GT,37.6316716,-122.4182283,,0.0012360977,0.1,336.1419,1596500693430
Fix,GT,37.6316719,-122.4182284,,0.1493664,0.1,336.14618,1596500694430
Fix,GT,37.6316754,-122.4182304,,0.804867,0.1,336.04938,1596500695430
Fix,GT,37.6316873,-122.4182374,,2.1541064,0.1,335.6393,1596500696430
Fix,GT,37.6317121,-122.4182521,,3.9707453,0.1,335.1669,1596500697430
Fix,GT,37.6317534,-122.4182766,,6.1957016,0.1,335.05215,1596500698430
Fix,GT,37.6318142,-122.4183121,,8.681061,0.1,335.41757,1596500699430
Fix,GT,37.6318941,-122.4183575,,10.683786,0.1,336.06903,1596500700430
Fix,GT,37.6319886,-122.41841,,12.098694,0.1,336.48752,1596500701430
Fix,GT,37.6320922,-122.4184666,,12.797194,0.1,337.0173,1596500702430
Fix,GT,37.632199,-122.4185212,,12.67589,0.1,339.05902,1596500703430
Fix,GT,37.632306,-122.4185662,,12.361488,0.1,343.40454,1596500704430
Fix,GT,37.6324127,-122.4185981,,11.975392,0.1,349.37677,1596500705430
Fix,GT,37.6325177,-122.4186109,,11.435751,0.1,358.70886,1596500706430
Fix,GT,37.6326165,-122.418595,,10.809522,0.1,13.088623,1596500707430
Fix,GT,37.6327025,-122.4185467,,10.418961,0.1,30.110321,1596500708430
Fix,GT,37.6327739,-122.4184699,,10.7911415,0.1,45.07367,1596500709430
Fix,GT,37.6328375,-122.4183686,,12.180157,0.1,53.70349,1596500710430
Fix,GT,37.632904,-122.4182457,,14.041563,0.1,56.359467,1596500711430
Fix,GT,37.6329781,-122.4181054,,15.661693,0.1,56.665558,1596500712430
Fix,GT,37.6330594,-122.417951,,17.021416,0.1,56.702667,1596500713430
Fix,GT,37.6331472,-122.4177852,,18.201096,0.1,56.365814,1596500714430
Fix,GT,37.6332417,-122.4176092,,19.315073,0.1,56.04016,1596500715430
Fix,GT,37.6333423,-122.417422,,20.557878,0.1,56.422882,1596500716430
Fix,GT,37.6334459,-122.4172205,,21.76833,0.1,58.359894,1596500717430
Fix,GT,37.6335471,-122.417001,,22.970245,0.1,61.56653,1596500718430
Fix,GT,37.6336434,-122.4167628,,24.21672,0.1,64.606445,1596500719430
Fix,GT,37.6337352,-122.4165065,,25.378033,0.1,67.21387,1596500720430
Fix,GT,37.6338207,-122.4162341,,26.256638,0.1,70.03491,1596500721430
Fix,GT,37.6338981,-122.4159492,,26.86639,0.1,72.728,1596500722430
Fix,GT,37.6339656,-122.4156543,,27.305439,0.1,75.61481,1596500723430
Fix,GT,37.6340219,-122.4153508,,27.747982,0.1,78.63214,1596500724430
Fix,GT,37.6340655,-122.4150383,,28.27039,0.1,81.980255,1596500725430
Fix,GT,37.6340947,-122.4147172,,28.784855,0.1,85.34091,1596500726430
Fix,GT,37.6341102,-122.4143897,,29.120789,0.1,88.181,1596500727430
Fix,GT,37.6341136,-122.4140587,,29.210907,0.1,90.83624,1596500728430
Fix,GT,37.6341055,-122.4137291,,28.918919,0.1,93.25073,1596500729430
Fix,GT,37.6340877,-122.4134063,,28.02636,0.1,95.29779,1596500730430
Fix,GT,37.634062,-122.413099,,26.585403,0.1,97.254395,1596500731430
Fix,GT,37.6340313,-122.4128072,,25.426413,0.1,98.103546,1596500732430
Fix,GT,37.6339991,-122.4125254,,24.842978,0.1,98.625824,1596500733430
Fix,GT,37.6339654,-122.4122491,,24.597729,0.1,99.2016,1596500734430
Fix,GT,37.6339294,-122.4119736,,24.695568,0.1,99.7699,1596500735430
Fix,GT,37.6338912,-122.4116967,,24.91967,0.1,100.29068,1596500736430
Fix,GT,37.633851,-122.4114177,,25.094349,0.1,100.5665,1596500737430
Fix,GT,37.6338102,-122.4111372,,25.189203,0.1,100.53058,1596500738430
Fix,GT,37.6337694,-122.4108568,,25.079836,0.1,100.529785,1596500739430
Fix,GT,37.6337295,-122.4105782,,24.856071,0.1,100.24286,1596500740430
Fix,GT,37.6336919,-122.4103017,,24.681625,0.1,99.59595,1596500741430
Fix,GT,37.6336567,-122.4100257,,24.684895,0.1,98.88678,1596500742430
Fix,GT,37.6336249,-122.4097478,,24.967327,0.1,97.59393,1596500743430
Fix,GT,37.6335994,-122.4094641,,25.493034,0.1,95.36655,1596500744430
Fix,GT,37.6335841,-122.4091728,,26.10302,0.1,92.39572,1596500745430
Fix,GT,37.633581,-122.408874,,26.716549,0.1,89.37671,1596500746430
Fix,GT,37.63359,-122.4085687,,27.211647,0.1,86.61493,1596500747430
Fix,GT,37.6336103,-122.4082601,,27.44691,0.1,84.14761,1596500748430
Fix,GT,37.6336397,-122.4079519,,27.376091,0.1,82.402954,1596500749430
Fix,GT,37.6336748,-122.4076456,,27.249922,0.1,81.43161,1596500750430
Fix,GT,37.6337125,-122.4073411,,27.155712,0.1,81.11667,1596500751430
Fix,GT,37.6337505,-122.4070376,,27.056643,0.1,81.33914,1596500752430
Fix,GT,37.6337853,-122.4067351,,26.894953,0.1,82.730194,1596500753430
Fix,GT,37.6338117,-122.4064324,,26.91017,0.1,85.4108,1596500754430
Fix,GT,37.6338242,-122.4061269,,27.199532,0.1,89.39368,1596500755430
Fix,GT,37.6338158,-122.4058178,,27.436277,0.1,95.14972,1596500756430
Fix,GT,37.6337813,-122.4055098,,27.543333,0.1,101.543945,1596500757430
Fix,GT,37.6337196,-122.4052084,,27.434908,0.1,107.9675,1596500758430
Fix,GT,37.6336323,-122.4049197,,27.114237,0.1,114.24579,1596500759430
Fix,GT,37.6335228,-122.4046482,,26.63441,0.1,120.25989,1596500760430
Fix,GT,37.6333935,-122.4043976,,26.152536,0.1,126.433136,1596500761430
Fix,GT,37.6332457,-122.4041699,,25.776268,0.1,132.58038,1596500762430
Fix,GT,37.6330819,-122.4039656,,25.541983,0.1,138.30359,1596500763430
Fix,GT,37.6329035,-122.4037835,,25.565687,0.1,143.9497,1596500764430
Fix,GT,37.6327115,-122.4036235,,25.597725,0.1,149.49194,1596500765430
Fix,GT,37.6325089,-122.4034874,,25.457443,0.1,154.90637,1596500766430
Fix,GT,37.6322974,-122.4033771,,25.44442,0.1,160.62671,1596500767430
Fix,GT,37.6320769,-122.4032943,,25.778858,0.1,166.5697,1596500768430
Fix,GT,37.6318468,-122.403238,,26.230684,0.1,171.55933,1596500769430
Fix,GT,37.6316113,-122.4031994,,26.449686,0.1,173.7392,1596500770430
Fix,GT,37.6313739,-122.4031658,,26.632502,0.1,173.81384,1596500771430
Fix,GT,37.631134,-122.4031313,,27.049772,0.1,173.70312,1596500772430
Fix,GT,37.6308894,-122.4030959,,27.558998,0.1,173.65668,1596500773430
Fix,GT,37.630641,-122.4030599,,27.912775,0.1,173.63245,1596500774430
Fix,GT,37.6303896,-122.4030241,,28.300245,0.1,173.83563,1596500775430
Fix,GT,37.6301337,-122.4029885,,28.831127,0.1,174.01904,1596500776430
Fix,GT,37.6298738,-122.4029534,,29.122906,0.1,174.22974,1596500777430
Fix,GT,37.6296127,-122.4029195,,29.155594,0.1,174.36304,1596500778430
Fix,GT,37.6293508,-122.4028858,,29.287865,0.1,174.3471,1596500779430
Fix,GT,37.6290877,-122.4028513,,29.395828,0.1,174.16223,1596500780430
Fix,GT,37.6288245,-122.4028153,,29.335209,0.1,173.86981,1596500781430
Fix,GT,37.6285625,-122.4027773,,29.231678,0.1,173.30194,1596500782430
Fix,GT,37.6283015,-122.4027347,,29.215473,0.1,172.15088,1596500783430
Fix,GT,37.6280407,-122.4026839,,29.392632,0.1,170.59467,1596500784430
Fix,GT,37.6277789,-122.4026247,,29.664951,0.1,169.3418,1596500785430
Fix,GT,37.6275156,-122.4025589,,29.93282,0.1,168.42749,1596500786430
Fix,GT,37.6272502,-122.4024868,,30.34357,0.1,167.42896,1596500787430
Fix,GT,37.6269827,-122.4024073,,30.619968,0.1,166.18762,1596500788430
Fix,GT,37.6267156,-122.4023194,,30.68393,0.1,164.64117,1596500789430
Fix,GT,37.6264506,-122.4022214,,30.609415,0.1,162.75043,1596500790430
Fix,GT,37.6261893,-122.4021133,,30.500803,0.1,161.23834,1596500791430
Fix,GT,37.6259295,-122.4019992,,30.63179,0.1,160.64612,1596500792430
Fix,GT,37.6256687,-122.4018834,,30.699856,0.1,160.90326,1596500793430
Fix,GT,37.6254082,-122.401771,,30.374977,0.1,162.0672,1596500794430
Fix,GT,37.6251486,-122.4016673,,30.095081,0.1,163.33057,1596500795430
Fix,GT,37.624889,-122.4015703,,30.05811,0.1,163.828,1596500796430
Fix,GT,37.6246294,-122.4014722,,30.091316,0.1,162.94977,1596500797430
Fix,GT,37.6243712,-122.4013699,,29.940804,0.1,162.48456,1596500798430
Fix,GT,37.624115,-122.4012669,,29.792542,0.1,162.5304,1596500799430
Fix,GT,37.6238592,-122.4011651,,29.804304,0.1,162.80908,1596500800430
Fix,GT,37.6236027,-122.4010642,,29.859684,0.1,162.693,1596500801430
Fix,GT,37.623346,-122.4009603,,29.991726,0.1,161.836,1596500802430
Fix,GT,37.6230888,-122.400853,,30.191174,0.1,162.16187,1596500803430
Fix,GT,37.6228282,-122.4007499,,30.490852,0.1,163.49622,1596500804430
Fix,GT,37.6225638,-122.4006517,,30.774727,0.1,163.63379,1596500805430
Fix,GT,37.6222973,-122.40055,,31.049948,0.1,162.8424,1596500806430
Fix,GT,37.6220288,-122.4004452,,31.361378,0.1,163.22272,1596500807430
Fix,GT,37.6217567,-122.4003424,,31.783463,0.1,163.60876,1596500808430
Fix,GT,37.6214805,-122.4002365,,32.37347,0.1,162.95929,1596500809430
Fix,GT,37.6211979,-122.4001268,,33.306736,0.1,163.35034,1596500810430
Fix,GT,37.6209043,-122.4000187,,34.629547,0.1,164.13452,1596500811430
Fix,GT,37.6205983,-122.3999102,,35.9089,0.1,164.65979,1596500812430
Fix,GT,37.6202809,-122.3998018,,37.08164,0.1,165.3659,1596500813430
Fix,GT,37.6199535,-122.3996928,,38.004158,0.1,165.3341,1596500814430
Fix,GT,37.6196209,-122.3995806,,38.317074,0.1,165.19635,1596500815430
Fix,GT,37.6192888,-122.3994672,,38.113583,0.1,165.1109,1596500816430
Fix,GT,37.6189575,-122.3993542,,38.129757,0.1,165.04889,1596500817430
Fix,GT,37.6186253,-122.3992419,,38.148613,0.1,165.28308,1596500818430
Fix,GT,37.618294,-122.3991316,,37.89341,0.1,165.43646,1596500819430
Fix,GT,37.6179653,-122.3990224,,37.560055,0.1,165.43518,1596500820430
Fix,GT,37.6176394,-122.3989143,,37.261425,0.1,165.5459,1596500821430
Fix,GT,37.6173164,-122.3988079,,36.855675,0.1,165.52051,1596500822430
Fix,GT,37.6169975,-122.3987015,,36.405533,0.1,165.14758,1596500823430
Fix,GT,37.6166831,-122.3985931,,35.983017,0.1,164.30115,1596500824430
Fix,GT,37.6163741,-122.3984781,,35.569733,0.1,162.59442,1596500825430
Fix,GT,37.6160724,-122.3983507,,35.121468,0.1,160.30261,1596500826430
Fix,GT,37.6157784,-122.3982105,,34.696938,0.1,158.1737,1596500827430
Fix,GT,37.6154922,-122.3980599,,34.18421,0.1,156.4925,1596500828430
Fix,GT,37.6152145,-122.3979008,,33.57497,0.1,154.55182,1596500829430
Fix,GT,37.614946,-122.3977326,,33.067574,0.1,152.6294,1596500830430
Fix,GT,37.6146851,-122.3975568,,32.713432,0.1,151.2995,1596500831430
Fix,GT,37.6144291,-122.3973758,,32.53231,0.1,150.14148,1596500832430
Fix,GT,37.614177,-122.3971881,,32.53654,0.1,148.75006,1596500833430
Fix,GT,37.613928,-122.3969913,,32.780968,0.1,146.98685,1596500834430
Fix,GT,37.6136817,-122.3967832,,33.13951,0.1,145.297,1596500835430
Fix,GT,37.6134379,-122.3965645,,33.35129,0.1,143.73248,1596500836430
Fix,GT,37.6131979,-122.396336,,33.465668,0.1,142.04626,1596500837430
Fix,GT,37.6129629,-122.3960987,,33.46646,0.1,140.5593,1596500838430
Fix,GT,37.6127329,-122.3958532,,33.570988,0.1,138.99512,1596500839430
Fix,GT,37.6125067,-122.3955987,,33.849472,0.1,137.50455,1596500840430
Fix,GT,37.6122841,-122.3953348,,34.09086,0.1,135.97198,1596500841430
Fix,GT,37.6120662,-122.3950621,,34.136597,0.1,134.43164,1596500842430
Fix,GT,37.6118543,-122.3947826,,34.026188,0.1,132.89252,1596500843430
Fix,GT,37.6116496,-122.3944965,,33.98543,0.1,131.20734,1596500844430
Fix,GT,37.6114511,-122.3942027,,34.11065,0.1,129.71857,1596500845430
Fix,GT,37.6112565,-122.3939025,,34.250267,0.1,129.02496,1596500846430
Fix,GT,37.6110626,-122.3935998,,34.37276,0.1,128.99243,1596500847430
Fix,GT,37.6108683,-122.3932969,,34.33681,0.1,128.99738,1596500848430
Fix,GT,37.610676,-122.3929958,,33.82921,0.1,128.88153,1596500849430
Fix,GT,37.6104874,-122.3926992,,33.187904,0.1,128.74261,1596500850430
Fix,GT,37.6103025,-122.3924069,,32.768166,0.1,128.66193,1596500851430
Fix,GT,37.6101194,-122.3921179,,32.534523,0.1,128.82999,1596500852430
Fix,GT,37.609936,-122.3918297,,32.69031,0.1,128.86884,1596500853430
Fix,GT,37.6097509,-122.3915389,,33.10602,0.1,128.84076,1596500854430
Fix,GT,37.6095631,-122.3912447,,33.444054,0.1,128.98816,1596500855430
Fix,GT,37.6093731,-122.3909488,,33.705307,0.1,129.26685,1596500856430
Fix,GT,37.6091802,-122.3906516,,34.059776,0.1,129.56287,1596500857430
Fix,GT,37.6089843,-122.3903516,,34.442,0.1,129.62149,1596500858430
Fix,GT,37.6087864,-122.3900486,,34.759083,0.1,129.6239,1596500859430
Fix,GT,37.6085867,-122.3897434,,35.02113,0.1,129.63779,1596500860430
Fix,GT,37.6083862,-122.3894366,,35.037136,0.1,129.62808,1596500861430
Fix,GT,37.6081862,-122.3891307,,34.871918,0.1,129.66605,1596500862430
Fix,GT,37.6079873,-122.3888265,,34.660896,0.1,129.62091,1596500863430
Fix,GT,37.6077898,-122.3885242,,34.411934,0.1,129.58063,1596500864430
Fix,GT,37.6075939,-122.3882236,,34.22977,0.1,129.48917,1596500865430
Fix,GT,37.6073992,-122.3879241,,34.0763,0.1,129.50952,1596500866430
Fix,GT,37.6072049,-122.387626,,33.982986,0.1,129.60065,1596500867430
Fix,GT,37.6070105,-122.3873285,,34.007755,0.1,129.6366,1596500868430
Fix,GT,37.6068154,-122.3870306,,34.13614,0.1,129.70929,1596500869430
Fix,GT,37.6066192,-122.3867315,,34.34974,0.1,129.71176,1596500870430
Fix,GT,37.6064216,-122.38643,,34.633087,0.1,129.63391,1596500871430
Fix,GT,37.606223,-122.3861255,,34.896454,0.1,129.48383,1596500872430
Fix,GT,37.6060235,-122.3858188,,35.03129,0.1,129.5275,1596500873430
Fix,GT,37.6058231,-122.3855123,,35.007248,0.1,129.74304,1596500874430
Fix,GT,37.6056225,-122.3852065,,34.956566,0.1,129.64471,1596500875430
Fix,GT,37.6054231,-122.3849012,,34.77053,0.1,129.53986,1596500876430
Fix,GT,37.6052252,-122.3845979,,34.542885,0.1,129.64954,1596500877430
Fix,GT,37.6050275,-122.3842958,,34.572914,0.1,129.5863,1596500878430
Fix,GT,37.6048301,-122.383992,,34.69465,0.1,129.33844,1596500879430
Fix,GT,37.6046327,-122.3836864,,34.829613,0.1,129.24194,1596500880430
Fix,GT,37.6044348,-122.3833792,,34.929962,0.1,129.04883,1596500881430
Fix,GT,37.6042378,-122.3830713,,34.797295,0.1,128.953,1596500882430
Fix,GT,37.6040418,-122.3827647,,34.7059,0.1,128.93747,1596500883430
Fix,GT,37.6038456,-122.3824574,,34.900017,0.1,128.92761,1596500884430
Fix,GT,37.6036472,-122.38215,,34.89522,0.1,129.56268,1596500885430
Fix,GT,37.6034471,-122.381847,,34.670017,0.1,130.11276,1596500886430
Fix,GT,37.6032472,-122.381546,,34.6104,0.1,129.80164,1596500887430
Fix,GT,37.6030487,-122.3812438,,34.56476,0.1,129.57184,1596500888430
Fix,GT,37.602851,-122.3809425,,34.43145,0.1,129.70053,1596500889430
Fix,GT,37.6026527,-122.3806419,,34.60551,0.1,129.84155,1596500890430
Fix,GT,37.602453,-122.3803382,,34.98485,0.1,129.5802,1596500891430
Fix,GT,37.6022523,-122.3800306,,35.22818,0.1,129.40228,1596500892430
Fix,GT,37.6020514,-122.3797222,,35.13038,0.1,129.48364,1596500893430
Fix,GT,37.6018515,-122.3794163,,34.759354,0.1,129.57037,1596500894430
Fix,GT,37.6016542,-122.3791138,,34.315964,0.1,129.4433,1596500895430
Fix,GT,37.6014597,-122.378815,,33.888115,0.1,129.45673,1596500896430
Fix,GT,37.601267,-122.3785193,,33.652466,0.1,129.48401,1596500897430
Fix,GT,37.6010747,-122.3782244,,33.7778,0.1,129.46112,1596500898430
Fix,GT,37.6008807,-122.3779271,,34.158703,0.1,129.61362,1596500899430
Fix,GT,37.6006835,-122.3776258,,34.733055,0.1,129.6662,1596500900430
Fix,GT,37.6004829,-122.37732,,35.2138,0.1,129.59137,1596500901430
Fix,GT,37.600281,-122.3770119,,35.187927,0.1,129.81586,1596500902430
Fix,GT,37.6000774,-122.3767072,,35.117317,0.1,130.60071,1596500903430
Fix,GT,37.5998698,-122.3764052,,35.438282,0.1,131.31226,1596500904430
Fix,GT,37.5996588,-122.3761013,,35.78981,0.1,131.02478,1596500905430
Fix,GT,37.5994491,-122.3757921,,35.923717,0.1,130.16623,1596500906430
Fix,GT,37.5992429,-122.3754797,,35.69082,0.1,129.58942,1596500907430
Fix,GT,37.5990408,-122.3751685,,35.250664,0.1,129.24976,1596500908430
Fix,GT,37.5988422,-122.3748601,,34.86338,0.1,129.1972,1596500909430
Fix,GT,37.598645,-122.3745545,,34.664856,0.1,129.17352,1596500910430
Fix,GT,37.5984488,-122.3742483,,34.827423,0.1,128.85468,1596500911430
Fix,GT,37.598252,-122.3739387,,35.10327,0.1,128.84256,1596500912430
Fix,GT,37.5980538,-122.373629,,35.043552,0.1,129.14478,1596500913430
Fix,GT,37.5978565,-122.3733216,,34.680428,0.1,129.11487,1596500914430
Fix,GT,37.5976614,-122.3730176,,34.319855,0.1,129.16876,1596500915430
Fix,GT,37.5974676,-122.372717,,34.01278,0.1,129.38788,1596500916430
Fix,GT,37.5972746,-122.3724205,,33.617683,0.1,129.61542,1596500917430
Fix,GT,37.5970835,-122.3721287,,33.137043,0.1,129.72052,1596500918430
Fix,GT,37.596895,-122.3718414,,32.66649,0.1,129.71094,1596500919430
Fix,GT,37.5967094,-122.3715575,,32.251015,0.1,129.40698,1596500920430
Fix,GT,37.596528,-122.3712746,,31.912184,0.1,128.6726,1596500921430
Fix,GT,37.5963516,-122.3709916,,31.583942,0.1,127.997314,1596500922430
Fix,GT,37.5961783,-122.3707104,,31.27657,0.1,128.04291,1596500923430
Fix,GT,37.5960051,-122.3704325,,31.108818,0.1,128.59491,1596500924430
Fix,GT,37.5958298,-122.3701579,,31.04608,0.1,129.25153,1596500925430
Fix,GT,37.5956532,-122.3698862,,30.879599,0.1,129.66391,1596500926430
Fix,GT,37.5954767,-122.369617,,30.790546,0.1,129.60495,1596500927430
Fix,GT,37.5953007,-122.3693465,,30.976402,0.1,129.3215,1596500928430
Fix,GT,37.5951239,-122.3690728,,31.291561,0.1,129.30664,1596500929430
Fix,GT,37.594945,-122.3687967,,31.61856,0.1,129.39703,1596500930430
Fix,GT,37.5947641,-122.3685183,,31.828838,0.1,129.51431,1596500931430
Fix,GT,37.5945818,-122.3682397,,31.847431,0.1,129.78052,1596500932430
Fix,GT,37.5943988,-122.3679621,,31.833591,0.1,129.8978,1596500933430
Fix,GT,37.5942152,-122.3676833,,32.14213,0.1,129.70425,1596500934430
Fix,GT,37.5940306,-122.3674015,,32.270554,0.1,129.70294,1596500935430
Fix,GT,37.5938464,-122.3671201,,32.032715,0.1,129.63568,1596500936430
Fix,GT,37.5936644,-122.366841,,31.720201,0.1,129.46606,1596500937430
Fix,GT,37.5934847,-122.3665643,,31.361574,0.1,129.46326,1596500938430
Fix,GT,37.5933066,-122.3662913,,30.970955,0.1,129.60715,1596500939430
Fix,GT,37.5931302,-122.3660216,,30.748367,0.1,129.56473,1596500940430
Fix,GT,37.5929547,-122.3657523,,30.785831,0.1,129.45914,1596500941430
Fix,GT,37.5927789,-122.3654813,,30.990532,0.1,129.41797,1596500942430
Fix,GT,37.592601,-122.3652081,,31.413868,0.1,129.66382,1596500943430
Fix,GT,37.5924188,-122.3649316,,32.0138,0.1,129.97195,1596500944430
Fix,GT,37.5922328,-122.3646499,,32.65112,0.1,129.78168,1596500945430
Fix,GT,37.5920438,-122.364362,,33.234974,0.1,129.66003,1596500946430
Fix,GT,37.5918525,-122.3640697,,33.539185,0.1,129.61859,1596500947430
Fix,GT,37.5916604,-122.3637756,,33.643623,0.1,129.56458,1596500948430
Fix,GT,37.5914676,-122.3634804,,33.870514,0.1,129.63483,1596500949430
Fix,GT,37.5912727,-122.3631831,,34.19755,0.1,129.79532,1596500950430
Fix,GT,37.5910752,-122.3628829,,34.56462,0.1,129.80145,1596500951430
Fix,GT,37.5908756,-122.36258,,34.883118,0.1,129.87927,1596500952430
Fix,GT,37.5906743,-122.3622744,,35.198605,0.1,129.76636,1596500953430
Fix,GT,37.5904716,-122.3619657,,35.491127,0.1,129.71466,1596500954430
Fix,GT,37.5902678,-122.3616543,,35.696255,0.1,129.53479,1596500955430
Fix,GT,37.5900642,-122.3613403,,35.811733,0.1,129.22534,1596500956430
Fix,GT,37.5898613,-122.3610255,,35.704174,0.1,129.24088,1596500957430
Fix,GT,37.5896597,-122.3607122,,35.487495,0.1,128.98373,1596500958430
Fix,GT,37.5894612,-122.3603981,,35.427643,0.1,128.00458,1596500959430
Fix,GT,37.5892677,-122.3600786,,35.528496,0.1,126.65808,1596500960430
Fix,GT,37.5890805,-122.3597516,,35.66381,0.1,124.97015,1596500961430
Fix,GT,37.5889018,-122.359416,,35.692883,0.1,122.71744,1596500962430
Fix,GT,37.5887339,-122.3590713,,35.72645,0.1,120.45465,1596500963430
Fix,GT,37.5885746,-122.3587201,,35.682354,0.1,119.35516,1596500964430
Fix,GT,37.5884195,-122.3583668,,35.57352,0.1,118.405,1596500965430
Fix,GT,37.5882714,-122.3580104,,35.508358,0.1,116.65811,1596500966430
Fix,GT,37.5881332,-122.3576479,,35.56347,0.1,114.476654,1596500967430
Fix,GT,37.5880055,-122.3572781,,35.670937,0.1,112.4404,1596500968430
Fix,GT,37.5878875,-122.3569019,,35.79329,0.1,110.67566,1596500969430
Fix,GT,37.587778,-122.3565204,,35.862648,0.1,109.04898,1596500970430
Fix,GT,37.5876764,-122.356135,,35.84684,0.1,107.54846,1596500971430
Fix,GT,37.5875835,-122.3557468,,35.7468,0.1,105.8938,1596500972430
Fix,GT,37.5875004,-122.355357,,35.541054,0.1,104.16986,1596500973430
Fix,GT,37.5874275,-122.3549667,,35.31096,0.1,102.30255,1596500974430
Fix,GT,37.587365,-122.3545761,,35.089123,0.1,100.571594,1596500975430
Fix,GT,37.5873117,-122.3541855,,34.951653,0.1,99.04346,1596500976430
Fix,GT,37.5872673,-122.353794,,34.976955,0.1,97.33609,1596500977430
Fix,GT,37.587232,-122.3533998,,35.127693,0.1,95.59088,1596500978430
Fix,GT,37.5872063,-122.3530021,,35.35803,0.1,93.93375,1596500979430
Fix,GT,37.5871889,-122.3526008,,35.671295,0.1,92.55661,1596500980430
Fix,GT,37.5871776,-122.3521951,,36.033974,0.1,91.88751,1596500981430
Fix,GT,37.5871677,-122.3517856,,36.319946,0.1,92.08511,1596500982430
Fix,GT,37.5871564,-122.3513742,,36.35865,0.1,92.29462,1596500983430
Fix,GT,37.5871453,-122.350964,,36.07886,0.1,92.09134,1596500984430
Fix,GT,37.587135,-122.3505586,,35.574566,0.1,91.989624,1596500985430
Fix,GT,37.5871253,-122.3501591,,35.036266,0.1,91.85986,1596500986430
Fix,GT,37.5871164,-122.3497651,,34.597893,0.1,91.85489,1596500987430
Fix,GT,37.5871072,-122.3493759,,34.206963,0.1,92.01361,1596500988430
Fix,GT,37.5870976,-122.34899,,34.05048,0.1,91.942505,1596500989430
Fix,GT,37.5870885,-122.348604,,34.199165,0.1,91.88464,1596500990430
Fix,GT,37.5870789,-122.3482153,,34.526405,0.1,92.06116,1596500991430
Fix,GT,37.5870681,-122.3478233,,34.71558,0.1,92.25,1596500992430
Fix,GT,37.5870568,-122.3474314,,34.488033,0.1,92.28528,1596500993430
Fix,GT,37.5870457,-122.3470433,,34.104122,0.1,92.256165,1596500994430
Fix,GT,37.5870348,-122.3466598,,33.6905,0.1,92.282684,1596500995430
Fix,GT,37.5870235,-122.3462808,,33.309875,0.1,92.442505,1596500996430
Fix,GT,37.5870117,-122.3459054,,33.096714,0.1,92.377686,1596500997430
Fix,GT,37.5870012,-122.345531,,33.11686,0.1,91.99396,1596500998430
Fix,GT,37.5869925,-122.3451556,,33.210583,0.1,91.79956,1596500999430
Fix,GT,37.5869838,-122.3447794,,33.258026,0.1,91.87796,1596501000430
Fix,GT,37.5869749,-122.3444027,,33.321594,0.1,91.877014,1596501001430
Fix,GT,37.5869662,-122.3440248,,33.454697,0.1,91.82718,1596501002430
Fix,GT,37.5869575,-122.3436444,,33.800137,0.1,91.915375,1596501003430
Fix,GT,37.586948,-122.3432593,,34.272636,0.1,92.02261,1596501004430
Fix,GT,37.5869377,-122.3428694,,34.621098,0.1,92.14676,1596501005430
Fix,GT,37.5869271,-122.342476,,34.929478,0.1,92.170044,1596501006430
Fix,GT,37.5869164,-122.3420791,,35.213245,0.1,92.106995,1596501007430
Fix,GT,37.5869059,-122.3416792,,35.45843,0.1,92.02774,1596501008430
Fix,GT,37.5868957,-122.341277,,35.58354,0.1,91.98947,1596501009430
Fix,GT,37.5868853,-122.3408745,,35.50946,0.1,92.06415,1596501010430
Fix,GT,37.586875,-122.3404738,,35.302628,0.1,91.961914,1596501011430
Fix,GT,37.5868656,-122.3400752,,35.17947,0.1,91.836975,1596501012430
Fix,GT,37.5868562,-122.3396769,,35.244637,0.1,91.98276,1596501013430
Fix,GT,37.5868459,-122.3392772,,35.390743,0.1,92.118774,1596501014430
Fix,GT,37.586835,-122.3388759,,35.560326,0.1,92.14221,1596501015430
Fix,GT,37.5868242,-122.3384724,,35.75234,0.1,92.11914,1596501016430
Fix,GT,37.5868133,-122.3380668,,35.926952,0.1,92.181854,1596501017430
Fix,GT,37.586802,-122.3376591,,36.160156,0.1,92.15085,1596501018430
Fix,GT,37.5867911,-122.3372483,,36.42456,0.1,92.06177,1596501019430
Fix,GT,37.5867802,-122.3368351,,36.577534,0.1,92.13571,1596501020430
Fix,GT,37.5867689,-122.3364206,,36.67884,0.1,92.206116,1596501021430
Fix,GT,37.5867573,-122.3360055,,36.650555,0.1,92.16193,1596501022430
Fix,GT,37.5867463,-122.3355922,,36.390503,0.1,92.01248,1596501023430
Fix,GT,37.5867363,-122.3351818,,36.150177,0.1,91.83331,1596501024430
Fix,GT,37.5867265,-122.3347738,,35.965275,0.1,92.1192,1596501025430
Fix,GT,37.5867136,-122.3343678,,35.825844,0.1,93.13147,1596501026430
Fix,GT,37.5866932,-122.3339636,,35.693115,0.1,94.95267,1596501027430
Fix,GT,37.5866608,-122.3335627,,35.507504,0.1,97.43201,1596501028430
Fix,GT,37.5866137,-122.3331659,,35.357353,0.1,100.331696,1596501029430
Fix,GT,37.5865499,-122.3327744,,35.251705,0.1,103.547424,1596501030430
Fix,GT,37.5864684,-122.3323893,,35.18735,0.1,107.00177,1596501031430
Fix,GT,37.5863689,-122.3320118,,35.091187,0.1,110.430664,1596501032430
Fix,GT,37.586252,-122.3316434,,34.99124,0.1,113.96051,1596501033430
Fix,GT,37.5861173,-122.3312857,,34.954014,0.1,117.56827,1596501034430
Fix,GT,37.5859653,-122.3309391,,34.972782,0.1,121.043,1596501035430
Fix,GT,37.5857965,-122.3306045,,35.026497,0.1,124.58777,1596501036430
Fix,GT,37.5856115,-122.3302827,,35.120014,0.1,127.95984,1596501037430
Fix,GT,37.5854115,-122.3299744,,35.142075,0.1,131.2782,1596501038430
Fix,GT,37.5851984,-122.3296808,,35.04987,0.1,134.2836,1596501039430
Fix,GT,37.5849748,-122.3294022,,34.854195,0.1,136.91461,1596501040430
Fix,GT,37.5847436,-122.3291367,,34.681812,0.1,138.74835,1596501041430
Fix,GT,37.5845085,-122.3288788,,34.58738,0.1,139.34055,1596501042430
Fix,GT,37.5842729,-122.3286227,,34.5628,0.1,139.29532,1596501043430
Fix,GT,37.5840374,-122.3283658,,34.671204,0.1,139.11649,1596501044430
Fix,GT,37.5838011,-122.3281073,,34.9137,0.1,139.2182,1596501045430
Fix,GT,37.5835623,-122.3278472,,35.23239,0.1,139.2771,1596501046430
Fix,GT,37.5833212,-122.3275848,,35.568497,0.1,139.23444,1596501047430
Fix,GT,37.5830778,-122.3273196,,35.913197,0.1,139.29385,1596501048430
Fix,GT,37.5828319,-122.3270528,,36.168518,0.1,139.41257,1596501049430
Fix,GT,37.5825852,-122.326785,,36.183826,0.1,139.25177,1596501050430
Fix,GT,37.5823394,-122.3265169,,36.059345,0.1,139.19595,1596501051430
Fix,GT,37.5820942,-122.3262499,,35.97153,0.1,139.33215,1596501052430
Fix,GT,37.5818494,-122.3259838,,35.903946,0.1,139.3772,1596501053430
Fix,GT,37.5816042,-122.3257182,,35.959335,0.1,139.4607,1596501054430
Fix,GT,37.5813582,-122.3254518,,36.109383,0.1,139.3244,1596501055430
Fix,GT,37.5811117,-122.3251839,,36.24259,0.1,139.36523,1596501056430
Fix,GT,37.5808641,-122.3249155,,36.3415,0.1,139.46149,1596501057430
Fix,GT,37.5806161,-122.3246465,,36.37411,0.1,139.35956,1596501058430
Fix,GT,37.5803681,-122.3243768,,36.4558,0.1,139.27094,1596501059430
Fix,GT,37.58012,-122.3241049,,36.599434,0.1,139.00067,1596501060430
Fix,GT,37.5798712,-122.3238314,,36.791344,0.1,139.1626,1596501061430
Fix,GT,37.5796194,-122.3235576,,37.142265,0.1,139.53668,1596501062430
Fix,GT,37.5793645,-122.3232821,,37.472763,0.1,139.4986,1596501063430
Fix,GT,37.579108,-122.3230048,,37.64316,0.1,139.55707,1596501064430
Fix,GT,37.57885,-122.322727,,37.741726,0.1,139.66003,1596501065430
Fix,GT,37.5785915,-122.3224488,,37.818687,0.1,139.56702,1596501066430
Fix,GT,37.5783328,-122.3221698,,37.82748,0.1,139.53952,1596501067430
Fix,GT,37.5780749,-122.3218914,,37.59577,0.1,139.49182,1596501068430
Fix,GT,37.5778193,-122.3216143,,37.331264,0.1,139.3808,1596501069430
Fix,GT,37.5775657,-122.321339,,37.07571,0.1,139.4306,1596501070430
Fix,GT,37.5773138,-122.3210655,,36.824413,0.1,139.31042,1596501071430
Fix,GT,37.577064,-122.3207935,,36.52914,0.1,139.31909,1596501072430
Fix,GT,37.5768169,-122.3205249,,35.96547,0.1,139.32553,1596501073430
Fix,GT,37.5765743,-122.3202611,,35.282665,0.1,139.3576,1596501074430
Fix,GT,37.5763353,-122.3200022,,34.762352,0.1,139.47028,1596501075430
Fix,GT,37.5760996,-122.3197472,,34.275547,0.1,139.41745,1596501076430
Fix,GT,37.5758682,-122.3194956,,33.664192,0.1,139.27545,1596501077430
Fix,GT,37.5756415,-122.3192488,,32.933426,0.1,139.35916,1596501078430
Fix,GT,37.5754192,-122.319007,,32.364883,0.1,139.23926,1596501079430
Fix,GT,37.5752009,-122.318768,,31.906635,0.1,139.13452,1596501080430
Fix,GT,37.5749853,-122.3185329,,31.481209,0.1,139.41223,1596501081430
Fix,GT,37.5747719,-122.3183017,,31.081554,0.1,139.41876,1596501082430
Fix,GT,37.5745615,-122.3180729,,30.699074,0.1,139.24515,1596501083430
Fix,GT,37.5743536,-122.3178467,,30.344498,0.1,139.32867,1596501084430
Fix,GT,37.5741479,-122.3176235,,29.998096,0.1,139.40439,1596501085430
Fix,GT,37.5739444,-122.3174025,,29.725399,0.1,139.28339,1596501086430
Fix,GT,37.5737429,-122.317183,,29.499771,0.1,139.26978,1596501087430
Fix,GT,37.5735427,-122.3169652,,29.312635,0.1,139.31033,1596501088430
Fix,GT,37.5733431,-122.3167475,,29.441479,0.1,139.17258,1596501089430
Fix,GT,37.5731418,-122.3165276,,29.787338,0.1,139.20718,1596501090430
Fix,GT,37.5729381,-122.3163058,,30.028446,0.1,139.39365,1596501091430
Fix,GT,37.5727322,-122.316083,,30.270329,0.1,139.51782,1596501092430
Fix,GT,37.5725245,-122.3158585,,30.5406,0.1,139.45782,1596501093430
Fix,GT,37.5723155,-122.3156315,,30.806843,0.1,139.24286,1596501094430
Fix,GT,37.5721054,-122.3154012,,31.10576,0.1,139.00934,1596501095430
Fix,GT,37.5718932,-122.3151683,,31.444054,0.1,139.0877,1596501096430
Fix,GT,37.571678,-122.3149334,,31.837917,0.1,139.29218,1596501097430
Fix,GT,37.5714593,-122.3146958,,32.340668,0.1,139.42062,1596501098430
Fix,GT,37.5712365,-122.314455,,32.912296,0.1,139.40384,1596501099430
Fix,GT,37.5710105,-122.3142093,,33.388145,0.1,139.09814,1596501100430
Fix,GT,37.5707826,-122.3139594,,33.72723,0.1,138.97974,1596501101430
Fix,GT,37.570553,-122.3137072,,33.972527,0.1,138.90958,1596501102430
Fix,GT,37.5703218,-122.3134535,,34.192932,0.1,139.09152,1596501103430
Fix,GT,37.5700884,-122.3131989,,34.38958,0.1,139.30542,1596501104430
Fix,GT,37.5698529,-122.3129444,,34.550804,0.1,139.56671,1596501105430
Fix,GT,37.5696155,-122.3126895,,34.792717,0.1,139.62476,1596501106430
Fix,GT,37.5693762,-122.3124321,,35.15469,0.1,139.58173,1596501107430
Fix,GT,37.5691346,-122.3121714,,35.55192,0.1,139.47247,1596501108430
Fix,GT,37.5688906,-122.3119073,,35.90808,0.1,139.50461,1596501109430
Fix,GT,37.5686442,-122.3116415,,36.17178,0.1,139.65576,1596501110430
Fix,GT,37.5683957,-122.3113747,,36.378113,0.1,139.59763,1596501111430
Fix,GT,37.5681464,-122.3111063,,36.47649,0.1,139.47028,1596501112430
Fix,GT,37.5678974,-122.3108369,,36.463192,0.1,139.4458,1596501113430
Fix,GT,37.5676486,-122.3105674,,36.450348,0.1,139.38654,1596501114430
Fix,GT,37.5673999,-122.3102971,,36.555744,0.1,139.24438,1596501115430
Fix,GT,37.567151,-122.3100248,,36.71229,0.1,139.07794,1596501116430
Fix,GT,37.5669013,-122.3097512,,36.828125,0.1,139.16537,1596501117430
Fix,GT,37.5666503,-122.3094781,,36.87834,0.1,139.48462,1596501118430
Fix,GT,37.5663985,-122.3092067,,36.722954,0.1,139.63663,1596501119430
Fix,GT,37.5661482,-122.3089379,,36.365936,0.1,139.66623,1596501120430
Fix,GT,37.5659002,-122.3086714,,36.11055,0.1,139.5534,1596501121430
Fix,GT,37.565654,-122.3084049,,36.055786,0.1,139.28906,1596501122430
Fix,GT,37.565409,-122.3081371,,36.046482,0.1,139.07254,1596501123430
Fix,GT,37.5651642,-122.3078688,,36.03784,0.1,139.14795,1596501124430
Fix,GT,37.5649189,-122.3076012,,36.133198,0.1,139.31006,1596501125430
Fix,GT,37.5646722,-122.3073325,,36.37039,0.1,139.23273,1596501126430
Fix,GT,37.5644239,-122.3070609,,36.703407,0.1,139.14148,1596501127430
Fix,GT,37.5641733,-122.3067874,,36.986393,0.1,139.3649,1596501128430
Fix,GT,37.5639198,-122.3065137,,37.210823,0.1,139.61694,1596501129430
Fix,GT,37.5636646,-122.3062392,,37.309807,0.1,139.57932,1596501130430
Fix,GT,37.5634102,-122.3059645,,37.093807,0.1,139.43817,1596501131430
Fix,GT,37.5631585,-122.3056915,,36.728653,0.1,139.32874,1596501132430
Fix,GT,37.562909,-122.3054197,,36.61672,0.1,139.2475,1596501133430
Fix,GT,37.5626595,-122.305148,,36.667942,0.1,139.36572,1596501134430
Fix,GT,37.5624091,-122.3048772,,36.646008,0.1,139.49377,1596501135430
Fix,GT,37.5621597,-122.3046064,,36.504612,0.1,139.23358,1596501136430
Fix,GT,37.5619124,-122.3043367,,36.183212,0.1,139.27081,1596501137430
Fix,GT,37.5616661,-122.3040698,,36.086872,0.1,139.50644,1596501138430
Fix,GT,37.5614188,-122.3038025,,36.394123,0.1,139.38406,1596501139430
Fix,GT,37.5611693,-122.3035318,,36.772476,0.1,139.3982,1596501140430
Fix,GT,37.5609165,-122.3032602,,37.03305,0.1,139.98135,1596501141430
Fix,GT,37.56066,-122.3029903,,37.204636,0.1,140.62659,1596501142430
Fix,GT,37.5604001,-122.3027232,,37.30918,0.1,141.28821,1596501143430
Fix,GT,37.5601376,-122.3024602,,37.20194,0.1,142.12982,1596501144430
Fix,GT,37.5598736,-122.3022031,,36.917603,0.1,142.83148,1596501145430
Fix,GT,37.5596102,-122.3019521,,36.471283,0.1,143.28497,1596501146430
Fix,GT,37.5593482,-122.3017072,,36.033,0.1,143.79391,1596501147430
Fix,GT,37.5590871,-122.3014678,,35.752083,0.1,144.263,1596501148430
Fix,GT,37.5588264,-122.3012318,,35.623356,0.1,144.52469,1596501149430
Fix,GT,37.5585656,-122.3009972,,35.57798,0.1,144.81763,1596501150430
Fix,GT,37.5583038,-122.300765,,35.568935,0.1,145.0835,1596501151430
Fix,GT,37.5580413,-122.3005335,,35.627083,0.1,145.02936,1596501152430
Fix,GT,37.5577785,-122.3003015,,35.655136,0.1,145.0976,1596501153430
Fix,GT,37.5575162,-122.3000701,,35.44291,0.1,145.13666,1596501154430
Fix,GT,37.5572566,-122.2998411,,34.887135,0.1,145.00119,1596501155430
Fix,GT,37.557004,-122.2996158,,33.780144,0.1,144.58658,1596501156430
Fix,GT,37.556763,-122.2993966,,32.16443,0.1,143.9892,1596501157430
Fix,GT,37.5565369,-122.2991873,,30.152517,0.1,143.62787,1596501158430
Fix,GT,37.5563261,-122.2989904,,28.171621,0.1,143.44339,1596501159430
Fix,GT,37.556129,-122.2988053,,26.559616,0.1,143.44751,1596501160430
Fix,GT,37.5559426,-122.2986306,,25.219448,0.1,143.5112,1596501161430
Fix,GT,37.5557635,-122.2984635,,24.395836,0.1,143.69952,1596501162430
Fix,GT,37.5555878,-122.2983014,,24.044983,0.1,144.09503,1596501163430
Fix,GT,37.5554137,-122.2981415,,23.856472,0.1,143.82523,1596501164430
Fix,GT,37.5552411,-122.2979802,,24.002934,0.1,143.45813,1596501165430
Fix,GT,37.555066,-122.2978157,,24.558271,0.1,143.43451,1596501166430
Fix,GT,37.5548865,-122.2976478,,25.079475,0.1,143.59784,1596501167430
Fix,GT,37.5547042,-122.2974777,,25.267555,0.1,143.53595,1596501168430
Fix,GT,37.5545223,-122.2973063,,25.150562,0.1,143.06186,1596501169430
Fix,GT,37.5543436,-122.2971345,,24.814045,0.1,142.52594,1596501170430
Fix,GT,37.5541685,-122.2969633,,24.447586,0.1,142.18958,1596501171430
Fix,GT,37.553996,-122.2967937,,24.182247,0.1,142.156,1596501172430
Fix,GT,37.5538244,-122.2966254,,24.159918,0.1,142.27454,1596501173430
Fix,GT,37.5536517,-122.2964571,,24.329134,0.1,142.50659,1596501174430
Fix,GT,37.5534773,-122.2962897,,24.365873,0.1,143.06085,1596501175430
Fix,GT,37.5533014,-122.2961241,,24.466347,0.1,143.46954,1596501176430
Fix,GT,37.5531233,-122.2959575,,24.866581,0.1,143.50812,1596501177430
Fix,GT,37.5529412,-122.2957878,,25.473347,0.1,143.6932,1596501178430
Fix,GT,37.552755,-122.2956156,,25.786388,0.1,143.97672,1596501179430
Fix,GT,37.5525681,-122.2954436,,25.580898,0.1,143.97455,1596501180430
Fix,GT,37.552384,-122.2952737,,25.088697,0.1,143.78735,1596501181430
Fix,GT,37.5522042,-122.2951069,,24.50362,0.1,143.73029,1596501182430
Fix,GT,37.552028,-122.294944,,24.102413,0.1,143.9422,1596501183430
Fix,GT,37.551854,-122.294784,,23.789986,0.1,144.00104,1596501184430
Fix,GT,37.5516823,-122.2946259,,23.427935,0.1,143.84454,1596501185430
Fix,GT,37.5515144,-122.2944699,,22.89471,0.1,143.60864,1596501186430
Fix,GT,37.5513507,-122.2943171,,22.403122,0.1,143.54062,1596501187430
Fix,GT,37.5511897,-122.2941667,,22.179861,0.1,143.4815,1596501188430
Fix,GT,37.5510298,-122.2940165,,22.206303,0.1,143.31796,1596501189430
Fix,GT,37.550869,-122.2938645,,22.519295,0.1,143.11096,1596501190430
Fix,GT,37.5507058,-122.2937088,,22.996193,0.1,142.8872,1596501191430
Fix,GT,37.5505388,-122.2935492,,23.616405,0.1,143.02618,1596501192430
Fix,GT,37.5503657,-122.2933863,,24.399069,0.1,143.53818,1596501193430
Fix,GT,37.5501871,-122.2932203,,24.883572,0.1,143.75183,1596501194430
Fix,GT,37.5500062,-122.2930525,,25.005802,0.1,143.75885,1596501195430
Fix,GT,37.5498242,-122.2928838,,25.195812,0.1,143.81323,1596501196430
Fix,GT,37.549641,-122.2927146,,25.231903,0.1,143.83759,1596501197430
Fix,GT,37.5494588,-122.2925457,,25.101065,0.1,143.59045,1596501198430
Fix,GT,37.5492775,-122.2923744,,25.340958,0.1,143.06445,1596501199430
Fix,GT,37.5490938,-122.2921994,,25.877647,0.1,143.01883,1596501200430
Fix,GT,37.5489059,-122.2920219,,26.323006,0.1,143.35046,1596501201430
Fix,GT,37.5487139,-122.2918427,,26.79279,0.1,143.60248,1596501202430
Fix,GT,37.5485185,-122.2916605,,27.22894,0.1,143.62628,1596501203430
Fix,GT,37.5483198,-122.2914765,,27.513744,0.1,143.91345,1596501204430
Fix,GT,37.5481191,-122.291292,,27.6814,0.1,143.95392,1596501205430
Fix,GT,37.5479177,-122.2911058,,27.849361,0.1,143.76804,1596501206430
Fix,GT,37.5477151,-122.2909177,,28.072987,0.1,143.73547,1596501207430
Fix,GT,37.5475105,-122.2907285,,28.317059,0.1,143.85156,1596501208430
Fix,GT,37.5473038,-122.2905376,,28.654575,0.1,143.8482,1596501209430
Fix,GT,37.5470944,-122.2903442,,29.036987,0.1,143.86087,1596501210430
Fix,GT,37.5468826,-122.2901488,,29.286526,0.1,143.90707,1596501211430
Fix,GT,37.5466693,-122.2899522,,29.40237,0.1,143.87607,1596501212430
Fix,GT,37.5464561,-122.289755,,29.349794,0.1,143.7749,1596501213430
Fix,GT,37.546244,-122.2895577,,29.27171,0.1,143.55945,1596501214430
Fix,GT,37.5460321,-122.2893589,,29.47842,0.1,143.27289,1596501215430
Fix,GT,37.5458189,-122.2891576,,29.685078,0.1,143.32419,1596501216430
Fix,GT,37.5456046,-122.2889571,,29.625797,0.1,143.63861,1596501217430
Fix,GT,37.5453909,-122.2887583,,29.422878,0.1,143.69641,1596501218430
Fix,GT,37.5451777,-122.2885602,,29.472681,0.1,143.69305,1596501219430
Fix,GT,37.5449629,-122.2883609,,29.796333,0.1,143.75461,1596501220430
Fix,GT,37.5447454,-122.2881604,,30.062513,0.1,143.96051,1596501221430
Fix,GT,37.5445258,-122.2879597,,30.207325,0.1,144.2197,1596501222430
Fix,GT,37.5443052,-122.2877583,,30.333912,0.1,144.0091,1596501223430
Fix,GT,37.5440847,-122.2875542,,30.545116,0.1,143.58755,1596501224430
Fix,GT,37.5438624,-122.2873461,,30.996141,0.1,143.47086,1596501225430
Fix,GT,37.5436369,-122.287135,,31.43079,0.1,143.55762,1596501226430
Fix,GT,37.5434085,-122.2869218,,31.743454,0.1,143.58704,1596501227430
Fix,GT,37.5431778,-122.2867068,,32.013985,0.1,143.784,1596501228430
Fix,GT,37.5429441,-122.2864911,,32.35132,0.1,143.96759,1596501229430
Fix,GT,37.5427075,-122.2862742,,32.715816,0.1,144.1134,1596501230430
Fix,GT,37.5424678,-122.286055,,33.10383,0.1,144.14697,1596501231430
Fix,GT,37.5422251,-122.2858331,,33.497963,0.1,144.08759,1596501232430
Fix,GT,37.5419803,-122.2856083,,33.82764,0.1,143.89288,1596501233430
Fix,GT,37.541734,-122.2853804,,34.089413,0.1,143.74445,1596501234430
Fix,GT,37.5414857,-122.2851507,,34.368744,0.1,143.87476,1596501235430
Fix,GT,37.541235,-122.2849201,,34.61544,0.1,144.0517,1596501236430
Fix,GT,37.540982,-122.2846885,,34.857803,0.1,144.17627,1596501237430
Fix,GT,37.5407266,-122.2844556,,35.162453,0.1,144.29138,1596501238430
Fix,GT,37.5404693,-122.2842212,,35.371098,0.1,144.1384,1596501239430
Fix,GT,37.5402115,-122.2839852,,35.423813,0.1,144.00778,1596501240430
Fix,GT,37.539954,-122.2837485,,35.438667,0.1,143.95056,1596501241430
Fix,GT,37.5396964,-122.2835108,,35.530262,0.1,143.77448,1596501242430
Fix,GT,37.5394386,-122.2832712,,35.616856,0.1,143.5214,1596501243430
Fix,GT,37.5391813,-122.2830307,,35.58967,0.1,143.59814,1596501244430
Fix,GT,37.5389237,-122.2827915,,35.528397,0.1,143.83936,1596501245430
Fix,GT,37.5386657,-122.2825539,,35.48156,0.1,143.91351,1596501246430
Fix,GT,37.538408,-122.2823167,,35.411236,0.1,143.96588,1596501247430
Fix,GT,37.5381515,-122.2820804,,35.17723,0.1,143.87347,1596501248430
Fix,GT,37.537898,-122.2818455,,34.72901,0.1,143.70248,1596501249430
Fix,GT,37.5376483,-122.2816136,,34.231518,0.1,143.70526,1596501250430
Fix,GT,37.5374019,-122.2813848,,33.83378,0.1,143.73563,1596501251430
Fix,GT,37.5371574,-122.2811585,,33.56733,0.1,143.8486,1596501252430
Fix,GT,37.5369143,-122.2809349,,33.328728,0.1,144.13922,1596501253430
Fix,GT,37.5366714,-122.2807147,,33.18983,0.1,144.73969,1596501254430
Fix,GT,37.536426,-122.2804986,,33.408493,0.1,145.43408,1596501255430
Fix,GT,37.5361768,-122.2802818,,33.952217,0.1,145.30109,1596501256430
Fix,GT,37.5359246,-122.2800586,,34.63103,0.1,144.63928,1596501257430
Fix,GT,37.5356684,-122.2798276,,35.398563,0.1,144.3052,1596501258430
Fix,GT,37.5354077,-122.2795901,,36.028214,0.1,144.2114,1596501259430
Fix,GT,37.5351429,-122.2793502,,36.430656,0.1,144.66956,1596501260430
Fix,GT,37.5348738,-122.2791116,,36.694767,0.1,145.19885,1596501261430
Fix,GT,37.5346025,-122.2788728,,36.849255,0.1,144.96869,1596501262430
Fix,GT,37.5343317,-122.2786308,,36.931767,0.1,144.43866,1596501263430
Fix,GT,37.5340617,-122.2783857,,37.013927,0.1,144.13171,1596501264430
Fix,GT,37.5337918,-122.2781386,,37.08819,0.1,144.02292,1596501265430
Fix,GT,37.533522,-122.2778903,,37.153122,0.1,143.86035,1596501266430
Fix,GT,37.533252,-122.2776414,,37.182,0.1,143.98315,1596501267430
Fix,GT,37.5329807,-122.2773942,,37.22982,0.1,144.5151,1596501268430
Fix,GT,37.5327075,-122.2771496,,37.241493,0.1,144.86777,1596501269430
Fix,GT,37.5324337,-122.276906,,37.241554,0.1,144.91995,1596501270430
Fix,GT,37.5321603,-122.2766618,,37.220222,0.1,144.72656,1596501271430
Fix,GT,37.5318878,-122.2764169,,37.206024,0.1,144.36096,1596501272430
Fix,GT,37.5316165,-122.2761692,,37.248344,0.1,143.81659,1596501273430
Fix,GT,37.5313473,-122.275917,,37.30239,0.1,142.94464,1596501274430
Fix,GT,37.531081,-122.2756596,,37.305977,0.1,142.09235,1596501275430
Fix,GT,37.5308179,-122.2753973,,37.28665,0.1,141.28217,1596501276430
Fix,GT,37.5305577,-122.27513,,37.36244,0.1,140.41489,1596501277430
Fix,GT,37.5302991,-122.2748578,,37.517113,0.1,139.81467,1596501278430
Fix,GT,37.5300422,-122.2745811,,37.607437,0.1,139.15314,1596501279430
Fix,GT,37.5297875,-122.2743005,,37.59497,0.1,138.5737,1596501280430
Fix,GT,37.5295352,-122.2740175,,37.516975,0.1,138.05914,1596501281430
Fix,GT,37.5292852,-122.2737324,,37.424767,0.1,137.77045,1596501282430
Fix,GT,37.5290362,-122.2734472,,37.385353,0.1,137.83374,1596501283430
Fix,GT,37.5287873,-122.2731617,,37.46456,0.1,137.74469,1596501284430
Fix,GT,37.5285378,-122.2728747,,37.638626,0.1,137.6771,1596501285430
Fix,GT,37.5282871,-122.2725871,,37.746082,0.1,137.84802,1596501286430
Fix,GT,37.5280355,-122.2722993,,37.82348,0.1,137.89645,1596501287430
Fix,GT,37.5277828,-122.2720113,,37.9299,0.1,137.95255,1596501288430
Fix,GT,37.5275292,-122.2717227,,38.031967,0.1,137.98975,1596501289430
Fix,GT,37.5272751,-122.2714334,,38.112755,0.1,137.95117,1596501290430
Fix,GT,37.5270206,-122.271143,,38.226593,0.1,137.85052,1596501291430
Fix,GT,37.5267654,-122.2708512,,38.396427,0.1,137.81122,1596501292430
Fix,GT,37.5265091,-122.2705581,,38.559776,0.1,137.92365,1596501293430
Fix,GT,37.5262511,-122.2702644,,38.7234,0.1,138.10318,1596501294430
Fix,GT,37.5259911,-122.2699712,,38.828457,0.1,138.47989,1596501295430
Fix,GT,37.5257293,-122.2696794,,38.877266,0.1,138.66956,1596501296430
Fix,GT,37.525467,-122.2693877,,38.920135,0.1,138.61789,1596501297430
Fix,GT,37.5252045,-122.2690954,,38.96482,0.1,138.60907,1596501298430
Fix,GT,37.5249418,-122.2688023,,39.043785,0.1,138.49164,1596501299430
Fix,GT,37.5246793,-122.2685075,,39.14662,0.1,138.27478,1596501300430
Fix,GT,37.5244167,-122.268211,,39.23981,0.1,138.13702,1596501301430
Fix,GT,37.524154,-122.2679133,,39.295597,0.1,138.10718,1596501302430
Fix,GT,37.5238916,-122.2676158,,39.17755,0.1,138.19485,1596501303430
Fix,GT,37.5236299,-122.2673204,,38.957565,0.1,138.3153,1596501304430
Fix,GT,37.5233689,-122.2670258,,38.966812,0.1,138.15445,1596501305430
