MessageType,Provider,LatitudeDegrees,LongitudeDegrees,AltitudeMeters,SpeedMps,AccuracyMeters,BearingDegrees,UnixTimeMillis
Fix,GT,37.6295167,-122.422774,,0.0030716811,0.1,245.48795,1595628928441
Fix,GT,37.6295167,-122.422774,,0.0023901265,0.1,245.48834,1595628929441
Fix,GT,37.6295167,-122.422774,,0.0014142136,0.1,245.48901,1595628930441
Fix,GT,37.6295167,-122.422774,,0.0017772415,0.1,245.48956,1595628931441
Fix,GT,37.6295167,-122.422774,,0.0016900746,0.1,245.49004,1595628932441
Fix,GT,37.6295167,-122.422774,,0.001,0.1,245.49039,1595628933441
Fix,GT,37.6295167,-122.422774,,0.0009999999,0.1,245.49069,1595628934441
Fix,GT,37.6295167,-122.422774,,0.000558282,0.1,245.49094,1595628935441
Fix,GT,37.6295167,-122.422774,,0.0006246835,0.1,245.49124,1595628936441
Fix,GT,37.6295167,-122.422774,,0.001231248,0.1,245.49133,1595628937441
Fix,GT,37.6295167,-122.422774,,0.0011829657,0.1,245.49112,1595628938441
Fix,GT,37.6295167,-122.422774,,0.0014142136,0.1,245.491,1595628939441
Fix,GT,37.6295167,-122.422774,,0.0014142136,0.1,245.49088,1595628940441
Fix,GT,37.6295167,-122.422774,,0.001231248,0.1,245.4908,1595628941441
Fix,GT,37.6295167,-122.422774,,0.0011829655,0.1,245.49094,1595628942441
Fix,GT,37.6295167,-122.422774,,0.001231248,0.1,245.49086,1595628943441
Fix,GT,37.6295167,-122.422774,,0.001,0.1,245.49063,1595628944441
Fix,GT,37.6295167,-122.422774,,0.0015459933,0.1,245.4907,1595628945441
Fix,GT,37.6295167,-122.422774,,0.0016900749,0.1,245.49156,1595628946441
Fix,GT,37.6295167,-122.422774,,0.0005582823,0.1,245.4927,1595628947441
Fix,GT,37.6295167,-122.422774,,0.00062468316,0.1,245.49368,1595628948441
Fix,GT,37.6295167,-122.422774,,0.0012312481,0.1,245.49362,1595628949441
Fix,GT,37.6295167,-122.422774,,0.00055828237,0.1,245.49324,1595628950441
Fix,GT,37.6295167,-122.422774,,0.0006246831,0.1,245.49318,1595628951441
Fix,GT,37.6295167,-122.422774,,0.0017772412,0.1,245.49387,1595628952441
Fix,GT,37.6295167,-122.422774,,0.0021317927,0.1,245.49426,1595628953441
Fix,GT,37.6295167,-122.422774,,0.0015582824,0.1,245.49423,1595628954441
Fix,GT,37.6295167,-122.422774,,0.0019551162,0.1,245.49461,1595628955441
Fix,GT,37.6295167,-122.422774,,0.0026488793,0.1,245.4951,1595628956441
Fix,GT,37.6295167,-122.422774,,0.0021042754,0.1,245.49542,1595628957441
Fix,GT,37.6295167,-122.422774,,0.0021317927,0.1,245.49548,1595628958441
Fix,GT,37.6295167,-122.422774,,0.0015582826,0.1,245.49591,1595628959441
Fix,GT,37.6295167,-122.422774,,0.00055828254,0.1,245.49628,1595628960441
Fix,GT,37.6295167,-122.422774,,0.00062468287,0.1,245.49612,1595628961441
Fix,GT,37.6295167,-122.422774,,0.0012312483,0.1,245.49634,1595628962441
Fix,GT,37.6295167,-122.422774,,0.001,0.1,245.49625,1595628963441
Fix,GT,37.6295167,-122.422774,,0.0010000002,0.1,245.49672,1595628964441
Fix,GT,37.6295167,-122.422774,,0.00055828266,0.1,245.49747,1595628965441
Fix,GT,37.6295167,-122.422774,,0.00088343484,0.1,245.49796,1595628966441
Fix,GT,37.6295167,-122.422774,,0.0011165653,0.1,245.4979,1595628967441
Fix,GT,37.6295167,-122.422774,,0.0006246827,0.1,245.49765,1595628968441
Fix,GT,37.6295167,-122.422774,,0.0014142136,0.1,245.49776,1595628969441
Fix,GT,37.6295167,-122.422774,,0.0014142136,0.1,245.4982,1595628970441
Fix,GT,37.6295167,-122.422774,,0.0007895309,0.1,245.4989,1595628971441
Fix,GT,37.6295167,-122.4227741,,0.00044171733,0.1,245.49973,1595628972441
Fix,GT,37.6295167,-122.4227741,,0.001,0.1,245.5001,1595628973441
Fix,GT,37.6295167,-122.4227741,,0.0011829652,0.1,245.50061,1595628974441
Fix,GT,37.6295167,-122.4227741,,0.0017772408,0.1,245.50116,1595628975441
Fix,GT,37.6295167,-122.4227741,,0.0016900754,0.1,245.50162,1595628976441
Fix,GT,37.6295167,-122.4227741,,0.0011829652,0.1,245.50183,1595628977441
Fix,GT,37.6295167,-122.4227741,,0.0014142136,0.1,245.50197,1595628978441
Fix,GT,37.6295167,-122.4227741,,0.00078953116,0.1,245.50235,1595628979441
Fix,GT,37.6295167,-122.4227741,,0.0012493648,0.1,245.50284,1595628980441
Fix,GT,37.6295167,-122.4227741,,0.002566772,0.1,245.50317,1595628981441
Fix,GT,37.6295167,-122.4227741,,0.0016900755,0.1,245.50308,1595628982441
Fix,GT,37.6295167,-122.4227741,,0.0015459924,0.1,245.50314,1595628983441
Fix,GT,37.6295167,-122.4227741,,0.0012483584,0.1,245.50302,1595628984441
Fix,GT,37.6295167,-122.4227741,,0.0012493646,0.1,245.5022,1595628985441
Fix,GT,37.6295167,-122.4227741,,0.0038313866,0.1,245.50217,1595628986441
Fix,GT,37.6295167,-122.4227741,,0.004171847,0.1,245.50299,1595628987441
Fix,GT,37.6295167,-122.4227741,,0.002662558,0.1,245.5033,1595628988441
Fix,GT,37.6295167,-122.4227741,,0.002236068,0.1,245.50339,1595628989441
Fix,GT,37.6295167,-122.4227741,,0.0018730409,0.1,245.5032,1595628990441
Fix,GT,37.6295167,-122.4227741,,0.0012312485,0.1,245.50317,1595628991441
Fix,GT,37.6295167,-122.4227741,,0.001,0.1,245.50333,1595628992441
Fix,GT,37.6295167,-122.4227741,,0.001,0.1,245.50345,1595628993441
Fix,GT,37.6295167,-122.4227741,,0.0011829652,0.1,245.50385,1595628994441
Fix,GT,37.6295167,-122.4227741,,0.0016729654,0.1,245.50427,1595628995441
Fix,GT,37.6295167,-122.4227741,,0.002,0.1,245.50447,1595628996441
Fix,GT,37.6295167,-122.4227741,,0.0017412483,0.1,245.50443,1595628997441
Fix,GT,37.6295167,-122.4227741,,0.0012312485,0.1,245.50432,1595628998441
Fix,GT,37.6295167,-122.4227741,,0.001,0.1,245.50449,1595628999441
Fix,GT,37.6295167,-122.4227741,,0.0019551143,0.1,245.50473,1595629000441
Fix,GT,37.6295167,-122.4227741,,0.00264888,0.1,245.50504,1595629001441
Fix,GT,37.6295167,-122.4227741,,0.0021042752,0.1,245.50557,1595629002441
Fix,GT,37.6295167,-122.4227741,,0.001690076,0.1,245.50616,1595629003441
Fix,GT,37.6295167,-122.4227741,,0.0005582833,0.1,245.5064,1595629004441
Fix,GT,37.6295167,-122.4227741,,0.00044171672,0.1,245.50626,1595629005441
Fix,GT,37.6295167,-122.4227741,,0.001,0.1,245.50627,1595629006441
Fix,GT,37.6295167,-122.4227741,,0.001182965,0.1,245.50668,1595629007441
Fix,GT,37.6295167,-122.4227741,,0.0012312485,0.1,245.50735,1595629008441
Fix,GT,37.6295167,-122.4227741,,0.001,0.1,245.50758,1595629009441
Fix,GT,37.6295167,-122.4227741,,0.0014417167,0.1,245.50793,1595629010441
Fix,GT,37.6295167,-122.4227741,,0.0021042752,0.1,245.50885,1595629011441
Fix,GT,37.6295167,-122.4227741,,0.0012483598,0.1,245.50839,1595629012441
Fix,GT,37.6295167,-122.4227741,,0.00088343315,0.1,245.508,1595629013441
Fix,GT,37.6295167,-122.4227741,,0.002,0.1,245.50793,1595629014441
Fix,GT,37.6295167,-122.4227741,,0.0017412484,0.1,245.50728,1595629015441
Fix,GT,37.6295166,-122.4227741,,0.0023821637,0.1,245.50839,1595629016441
Fix,GT,37.6295166,-122.422774,,0.0033380692,0.1,245.51077,1595629017441
Fix,GT,37.6295166,-122.422774,,0.0025582837,0.1,245.51102,1595629018441
Fix,GT,37.6295166,-122.422774,,0.002937811,0.1,245.51164,1595629019441
Fix,GT,37.6295166,-122.422774,,0.0027435787,0.1,245.51263,1595629020441
Fix,GT,37.6295166,-122.422774,,0.0018076461,0.1,245.5126,1595629021441
Fix,GT,37.6295166,-122.422774,,0.00334593,0.1,245.51288,1595629022441
Fix,GT,37.6295166,-122.422774,,0.0031165674,0.1,245.5135,1595629023441
Fix,GT,37.6295166,-122.422774,,0.00236593,0.1,245.51372,1595629024441
Fix,GT,37.6295166,-122.422774,,0.0025667725,0.1,245.51407,1595629025441
Fix,GT,37.6295166,-122.422774,,0.002131793,0.1,245.51428,1595629026441
Fix,GT,37.6295166,-122.422774,,0.0015582837,0.1,245.514,1595629027441
Fix,GT,37.6295166,-122.422774,,0.001,0.1,245.514,1595629028441
Fix,GT,37.6295166,-122.422774,,0.001,0.1,245.51416,1595629029441
Fix,GT,37.6295166,-122.422774,,0.0005582838,0.1,245.51407,1595629030441
Fix,GT,37.6295166,-122.422774,,0.0013968293,0.1,245.51479,1595629031441
Fix,GT,37.6295166,-122.422774,,0.0035323133,0.1,245.51553,1595629032441
Fix,GT,37.6295166,-122.422774,,0.0044854544,0.1,245.51529,1595629033441
Fix,GT,37.6295166,-122.422774,,0.0040960624,0.1,245.51552,1595629034441
Fix,GT,37.6295166,-122.422774,,0.0025667725,0.1,245.51553,1595629035441
Fix,GT,37.6295166,-122.422774,,0.0018730417,0.1,245.51413,1595629036441
Fix,GT,37.6295166,-122.422774,,0.0026107747,0.1,245.51295,1595629037441
Fix,GT,37.6295166,-122.4227739,,0.0058630924,0.1,245.51172,1595629038441
Fix,GT,37.6295166,-122.422774,,0.004942745,0.1,245.51097,1595629039441
Fix,GT,37.6295166,-122.422774,,0.0009999999,0.1,245.51118,1595629040441
Fix,GT,37.6295166,-122.422774,,0.0009999999,0.1,245.51175,1595629041441
Fix,GT,37.6295166,-122.422774,,0.0011829648,0.1,245.512,1595629042441
Fix,GT,37.6295166,-122.422774,,0.0012312488,0.1,245.51178,1595629043441
Fix,GT,37.6295166,-122.422774,,0.001441716,0.1,245.5122,1595629044441
Fix,GT,37.6295166,-122.422774,,0.001558284,0.1,245.51256,1595629045441
Fix,GT,37.6295166,-122.422774,,0.00055828405,0.1,245.51282,1595629046441
Fix,GT,37.6295165,-122.422774,,0.0018212415,0.1,245.51428,1595629047441
Fix,GT,37.6295163,-122.4227743,,0.122019924,0.1,245.48145,1595629048441
Fix,GT,37.6295149,-122.4227769,,0.501233,0.1,244.52559,1595629049441
Fix,GT,37.62951,-122.4227838,,1.1297917,0.1,241.10196,1595629050441
Fix,GT,37.6295004,-122.422796,,1.8177457,0.1,235.4115,1595629051441
Fix,GT,37.6294863,-122.4228126,,2.4379368,0.1,229.718,1595629052441
Fix,GT,37.6294678,-122.4228338,,3.1213472,0.1,226.24406,1595629053441
Fix,GT,37.629445,-122.4228613,,3.9108324,0.1,225.8032,1595629054441
Fix,GT,37.6294197,-122.4228984,,4.726658,0.1,230.29582,1595629055441
Fix,GT,37.629395,-122.4229469,,5.4669857,0.1,238.12672,1595629056441
Fix,GT,37.6293708,-122.4230054,,6.1534843,0.1,243.37735,1595629057441
Fix,GT,37.6293467,-122.4230702,,6.383874,0.1,246.20683,1595629058441
Fix,GT,37.6293242,-122.4231349,,6.0359306,0.1,247.92685,1595629059441
Fix,GT,37.6293035,-122.4231961,,5.736819,0.1,248.44812,1595629060441
Fix,GT,37.6292831,-122.4232561,,5.785799,0.1,248.32152,1595629061441
Fix,GT,37.6292621,-122.4233173,,5.931159,0.1,247.96228,1595629062441
Fix,GT,37.6292402,-122.4233787,,5.9261465,0.1,247.40495,1595629063441
Fix,GT,37.6292178,-122.4234396,,5.906949,0.1,246.78937,1595629064441
Fix,GT,37.6291951,-122.4235009,,6.042055,0.1,246.50989,1595629065441
Fix,GT,37.6291718,-122.4235638,,6.2199335,0.1,246.33614,1595629066441
Fix,GT,37.6291478,-122.4236279,,6.2464724,0.1,246.1269,1595629067441
Fix,GT,37.629124,-122.4236906,,5.9793224,0.1,245.90976,1595629068441
Fix,GT,37.6291015,-122.4237486,,5.385622,0.1,245.18112,1595629069441
Fix,GT,37.6290798,-122.4237985,,4.706326,0.1,242.11319,1595629070441
Fix,GT,37.6290553,-122.4238381,,4.204415,0.1,233.57385,1595629071441
Fix,GT,37.6290251,-122.423865,,4.0336905,0.1,218.49667,1595629072441
Fix,GT,37.6289891,-122.4238771,,4.175176,0.1,199.56506,1595629073441
Fix,GT,37.6289506,-122.4238735,,4.2857823,0.1,179.9047,1595629074441
Fix,GT,37.6289145,-122.4238531,,4.4090905,0.1,159.60431,1595629075441
Fix,GT,37.6288866,-122.4238153,,4.653022,0.1,136.52399,1595629076441
Fix,GT,37.6288737,-122.4237631,,4.967782,0.1,110.63501,1595629077441
Fix,GT,37.6288786,-122.4237051,,5.300219,0.1,86.52777,1595629078441
Fix,GT,37.6288968,-122.4236472,,5.662466,0.1,70.727234,1595629079441
Fix,GT,37.6289206,-122.423588,,6.033497,0.1,65.079865,1595629080441
Fix,GT,37.6289461,-122.4235256,,6.3863716,0.1,64.413605,1595629081441
Fix,GT,37.6289729,-122.423459,,6.8084297,0.1,64.46329,1595629082441
Fix,GT,37.6290016,-122.4233878,,7.3077216,0.1,64.585175,1595629083441
Fix,GT,37.6290322,-122.4233111,,7.8271437,0.1,64.74219,1595629084441
Fix,GT,37.6290645,-122.4232291,,8.267142,0.1,65.222015,1595629085441
Fix,GT,37.6290974,-122.4231432,,8.545103,0.1,65.76306,1595629086441
Fix,GT,37.6291308,-122.4230552,,8.598487,0.1,65.84616,1595629087441
Fix,GT,37.629164,-122.422968,,8.409801,0.1,65.811646,1595629088441
Fix,GT,37.6291967,-122.4228826,,8.364625,0.1,65.62402,1595629089441
Fix,GT,37.6292299,-122.4227967,,8.499136,0.1,65.38583,1595629090441
Fix,GT,37.6292643,-122.4227097,,8.654065,0.1,64.97305,1595629091441
Fix,GT,37.6293001,-122.4226213,,8.855059,0.1,64.390625,1595629092441
Fix,GT,37.6293371,-122.4225314,,8.998168,0.1,64.12445,1595629093441
Fix,GT,37.6293743,-122.4224401,,9.035613,0.1,64.30936,1595629094441
Fix,GT,37.6294109,-122.4223496,,8.886255,0.1,64.56421,1595629095441
Fix,GT,37.6294465,-122.4222612,,8.608219,0.1,64.34097,1595629096441
Fix,GT,37.6294815,-122.4221764,,8.160075,0.1,63.85721,1595629097441
Fix,GT,37.6295131,-122.4220987,,7.1814814,0.1,64.8165,1595629098441
Fix,GT,37.629535,-122.4220289,,6.1469297,0.1,72.02371,1595629099441
Fix,GT,37.6295389,-122.4219643,,5.5872536,0.1,89.23764,1595629100441
Fix,GT,37.6295215,-122.421907,,5.5760555,0.1,113.13489,1595629101441
Fix,GT,37.6294838,-122.4218618,,6.2683043,0.1,137.45789,1595629102441
Fix,GT,37.6294295,-122.4218258,,7.424506,0.1,153.31885,1595629103441
Fix,GT,37.629364,-122.4217909,,8.246738,0.1,158.41425,1595629104441
Fix,GT,37.6292961,-122.4217553,,7.961542,0.1,158.8841,1595629105441
Fix,GT,37.6292353,-122.4217213,,6.7823725,0.1,156.82117,1595629106441
Fix,GT,37.6291863,-122.4216885,,5.4556327,0.1,152.62244,1595629107441
Fix,GT,37.6291496,-122.4216592,,4.07334,0.1,149.24323,1595629108441
Fix,GT,37.6291231,-122.4216371,,3.0286112,0.1,148.32294,1595629109441
Fix,GT,37.629103,-122.4216184,,2.622456,0.1,145.77435,1595629110441
Fix,GT,37.6290848,-122.4215952,,3.1537492,0.1,138.9241,1595629111441
Fix,GT,37.6290671,-122.4215595,,4.2331657,0.1,126.77658,1595629112441
Fix,GT,37.6290561,-122.4215066,,5.36541,0.1,107.81448,1595629113441
Fix,GT,37.6290619,-122.4214402,,6.493076,0.1,85.42474,1595629114441
Fix,GT,37.6290861,-122.4213657,,7.7479525,0.1,68.792114,1595629115441
Fix,GT,37.6291217,-122.4212818,,9.016223,0.1,63.34601,1595629116441
Fix,GT,37.6291627,-122.421186,,10.176241,0.1,63.33777,1595629117441
Fix,GT,37.6292071,-122.4210794,,10.997065,0.1,63.843353,1595629118441
Fix,GT,37.6292548,-122.4209669,,11.444479,0.1,63.244965,1595629119441
Fix,GT,37.6293037,-122.4208512,,11.674784,0.1,63.672455,1595629120441
Fix,GT,37.6293516,-122.4207327,,11.765404,0.1,64.89743,1595629121441
Fix,GT,37.6293983,-122.4206135,,11.618785,0.1,65.052734,1595629122441
Fix,GT,37.6294439,-122.4204994,,10.76661,0.1,64.46991,1595629123441
Fix,GT,37.629485,-122.4203985,,9.11904,0.1,64.20618,1595629124441
Fix,GT,37.6295187,-122.4203163,,7.151885,0.1,64.23944,1595629125441
Fix,GT,37.6295438,-122.4202549,,5.037111,0.1,64.31262,1595629126441
Fix,GT,37.6295602,-122.4202147,,3.109383,0.1,64.371796,1595629127441
Fix,GT,37.6295711,-122.4201878,,2.4970565,0.1,64.40326,1595629128441
Fix,GT,37.6295837,-122.4201568,,3.8491015,0.1,64.43158,1595629129441
Fix,GT,37.6296036,-122.4201066,,6.1330743,0.1,65.00165,1595629130441
Fix,GT,37.6296311,-122.420033,,8.09765,0.1,66.31021,1595629131441
Fix,GT,37.6296643,-122.4199416,,9.560105,0.1,66.77762,1595629132441
Fix,GT,37.6297035,-122.4198371,,10.836285,0.1,66.04074,1595629133441
Fix,GT,37.6297492,-122.4197216,,11.910793,0.1,64.50586,1595629134441
Fix,GT,37.6298029,-122.4195985,,12.839608,0.1,61.746704,1595629135441
Fix,GT,37.6298659,-122.4194714,,13.611395,0.1,58.384003,1595629136441
Fix,GT,37.6299385,-122.419343,,14.163727,0.1,54.631104,1595629137441
Fix,GT,37.6300198,-122.4192174,,14.351233,0.1,51.141235,1595629138441
Fix,GT,37.6301056,-122.4190961,,14.279068,0.1,49.18628,1595629139441
Fix,GT,37.6301921,-122.4189781,,14.0303135,0.1,48.604187,1595629140441
Fix,GT,37.6302764,-122.4188647,,13.348702,0.1,48.14972,1595629141441
Fix,GT,37.6303559,-122.4187587,,12.367103,0.1,48.154663,1595629142441
Fix,GT,37.6304284,-122.418659,,11.510117,0.1,49.835327,1595629143441
Fix,GT,37.6304909,-122.4185607,,10.688677,0.1,54.36371,1595629144441
Fix,GT,37.6305407,-122.4184652,,9.428439,0.1,59.421356,1595629145441
Fix,GT,37.6305787,-122.4183813,,7.5738373,0.1,62.200012,1595629146441
Fix,GT,37.6306063,-122.4183165,,5.3962984,0.1,63.48059,1595629147441
Fix,GT,37.6306242,-122.4182732,,3.2766602,0.1,63.924896,1595629148441
Fix,GT,37.6306342,-122.4182493,,1.5634221,0.1,64.034,1595629149441
Fix,GT,37.6306381,-122.4182399,,0.4684389,0.1,64.06781,1595629150441
Fix,GT,37.6306387,-122.4182384,,0.03643533,0.1,64.07059,1595629151441
Fix,GT,37.6306396,-122.4182362,,0.45307696,0.1,64.07797,1595629152441
Fix,GT,37.6306437,-122.4182263,,1.5477076,0.1,64.09625,1595629153441
Fix,GT,37.6306527,-122.4182042,,2.8716793,0.1,64.14322,1595629154441
Fix,GT,37.6306672,-122.4181685,,4.291601,0.1,64.278656,1595629155441
Fix,GT,37.6306879,-122.4181172,,5.8627405,0.1,64.50238,1595629156441
Fix,GT,37.6307153,-122.4180514,,7.1270285,0.1,63.529144,1595629157441
Fix,GT,37.6307528,-122.4179808,,7.752241,0.1,55.97586,1595629158441
Fix,GT,37.6308045,-122.4179221,,7.7672424,0.1,40.020233,1595629159441
Fix,GT,37.6308681,-122.4178882,,7.7630205,0.1,21.066986,1595629160441
Fix,GT,37.6309393,-122.4178811,,8.274599,0.1,3.74057,1595629161441
Fix,GT,37.6310159,-122.4178938,,8.8858,0.1,352.46826,1595629162441
Fix,GT,37.631095,-122.4179186,,9.121906,0.1,346.2553,1595629163441
Fix,GT,37.6311722,-122.4179515,,8.945923,0.1,341.79437,1595629164441
Fix,GT,37.6312458,-122.4179887,,8.664648,0.1,339.08762,1595629165441
Fix,GT,37.6313163,-122.4180273,,8.394886,0.1,337.68268,1595629166441
Fix,GT,37.631383,-122.4180653,,7.864673,0.1,337.041,1595629167441
Fix,GT,37.6314442,-122.4181002,,7.0102897,0.1,337.33215,1595629168441
Fix,GT,37.6314977,-122.4181297,,5.8649845,0.1,337.74323,1595629169441
Fix,GT,37.6315396,-122.4181525,,4.2541256,0.1,337.9677,1595629170441
Fix,GT,37.6315682,-122.418168,,2.759433,0.1,338.00226,1595629171441
Fix,GT,37.6315866,-122.4181779,,1.8147725,0.1,338.0051,1595629172441
Fix,GT,37.6315991,-122.4181848,,1.2662966,0.1,338.00204,1595629173441
Fix,GT,37.6316079,-122.4181895,,0.83401394,0.1,338.00107,1595629174441
Fix,GT,37.6316129,-122.4181922,,0.37391865,0.1,337.99942,1595629175441
Fix,GT,37.6316146,-122.4181931,,0.05630765,0.1,338.00253,1595629176441
Fix,GT,37.6316147,-122.4181931,,0.004107178,0.1,338.0058,1595629177441
Fix,GT,37.6316147,-122.4181931,,0.0028103187,0.1,338.00476,1595629178441
Fix,GT,37.6316147,-122.4181931,,0.0014417146,0.1,338.005,1595629179441
Fix,GT,37.6316147,-122.4181931,,0.0017412496,0.1,338.00574,1595629180441
Fix,GT,37.6316147,-122.4181931,,0.0014142136,0.1,338.00632,1595629181441
Fix,GT,37.6316147,-122.4181931,,0.0014142136,0.1,338.00696,1595629182441
Fix,GT,37.6316147,-122.4181931,,0.0007895348,0.1,338.00696,1595629183441
Fix,GT,37.6316147,-122.4181931,,0.0009877039,0.1,338.00717,1595629184441
Fix,GT,37.6316147,-122.4181931,,0.0026451882,0.1,338.00815,1595629185441
Fix,GT,37.6316147,-122.4181931,,0.0027531574,0.1,338.00888,1595629186441
Fix,GT,37.6316147,-122.4181931,,0.0016900788,0.1,338.00928,1595629187441
Fix,GT,37.6316147,-122.4181931,,0.0014417146,0.1,338.00952,1595629188441
Fix,GT,37.6316147,-122.4181931,,0.0023659284,0.1,338.00992,1595629189441
Fix,GT,37.6316147,-122.4181931,,0.0028284271,0.1,338.01062,1595629190441
Fix,GT,37.6316147,-122.4181931,,0.0029758937,0.1,338.01126,1595629191441
Fix,GT,37.6316146,-122.4181931,,0.0030905975,0.1,338.01147,1595629192441
Fix,GT,37.6316148,-122.4181932,,0.12098113,0.1,338.01486,1595629193441
Fix,GT,37.6316178,-122.4181949,,0.69182456,0.1,338.0239,1595629194441
Fix,GT,37.6316272,-122.4182,,1.6336294,0.1,338.02777,1595629195441
Fix,GT,37.6316456,-122.41821,,2.842932,0.1,338.01624,1595629196441
Fix,GT,37.6316756,-122.4182265,,4.4389124,0.1,337.89462,1595629197441
Fix,GT,37.6317196,-122.4182509,,6.2207,0.1,337.65335,1595629198441
Fix,GT,37.631778,-122.4182836,,7.845731,0.1,337.40683,1595629199441
Fix,GT,37.6318471,-122.4183225,,8.860456,0.1,337.26196,1595629200441
Fix,GT,37.6319232,-122.4183652,,9.586098,0.1,337.47934,1595629201441
Fix,GT,37.6320048,-122.41841,,10.116598,0.1,337.9123,1595629202441
Fix,GT,37.6320894,-122.4184559,,10.309434,0.1,338.07242,1595629203441
Fix,GT,37.6321749,-122.4185021,,10.336437,0.1,338.2291,1595629204441
Fix,GT,37.632262,-122.4185446,,10.459643,0.1,341.19086,1595629205441
Fix,GT,37.6323532,-122.4185773,,10.5965805,0.1,347.2431,1595629206441
Fix,GT,37.6324473,-122.4185977,,10.50889,0.1,353.6014,1595629207441
Fix,GT,37.6325396,-122.4186017,,10.048177,0.1,1.8628845,1595629208441
Fix,GT,37.6326262,-122.4185844,,9.600063,0.1,14.116089,1595629209441
Fix,GT,37.6327028,-122.4185407,,9.415575,0.1,30.14914,1595629210441
Fix,GT,37.6327682,-122.4184711,,9.998947,0.1,44.292053,1595629211441
Fix,GT,37.6328298,-122.4183793,,11.43512,0.1,52.469055,1595629212441
Fix,GT,37.6328944,-122.4182675,,12.944685,0.1,56.132812,1595629213441
Fix,GT,37.6329637,-122.4181414,,14.035048,0.1,56.808746,1595629214441
Fix,GT,37.633037,-122.4180057,,14.904728,0.1,57.304443,1595629215441
Fix,GT,37.6331136,-122.4178612,,15.828419,0.1,57.87915,1595629216441
Fix,GT,37.6331938,-122.4177063,,16.777544,0.1,58.630493,1595629217441
Fix,GT,37.6332768,-122.4175415,,17.662952,0.1,59.279266,1595629218441
Fix,GT,37.6333635,-122.4173671,,18.655186,0.1,59.425995,1595629219441
Fix,GT,37.6334544,-122.4171825,,19.68668,0.1,59.82437,1595629220441
Fix,GT,37.6335469,-122.4169861,,20.604105,0.1,61.74121,1595629221441
Fix,GT,37.6336354,-122.4167754,,21.471897,0.1,64.92551,1595629222441
Fix,GT,37.6337178,-122.41655,,22.35804,0.1,67.84198,1595629223441
Fix,GT,37.6337953,-122.4163122,,23.049593,0.1,70.12964,1595629224441
Fix,GT,37.6338672,-122.4160639,,23.632483,0.1,72.452515,1595629225441
Fix,GT,37.633932,-122.4158053,,24.259432,0.1,75.06299,1595629226441
Fix,GT,37.633989,-122.4155365,,24.87898,0.1,77.65799,1595629227441
Fix,GT,37.6340368,-122.4152578,,25.450176,0.1,80.566284,1595629228441
Fix,GT,37.634074,-122.41497,,26.042057,0.1,83.51599,1595629229441
Fix,GT,37.6340997,-122.4146739,,26.568142,0.1,86.487,1595629230441
Fix,GT,37.6341138,-122.4143705,,27.123928,0.1,89.38635,1595629231441
Fix,GT,37.6341162,-122.4140603,,27.62209,0.1,92.0116,1595629232441
Fix,GT,37.634108,-122.4137461,,27.891304,0.1,94.313416,1595629233441
Fix,GT,37.6340902,-122.41343,,28.059446,0.1,96.597046,1595629234441
Fix,GT,37.6340628,-122.4131128,,28.26986,0.1,98.53198,1595629235441
Fix,GT,37.6340284,-122.412795,,28.336414,0.1,99.54471,1595629236441
Fix,GT,37.6339911,-122.4124782,,28.173359,0.1,100.10739,1595629237441
Fix,GT,37.6339515,-122.412164,,27.996956,0.1,100.71332,1595629238441
Fix,GT,37.6339099,-122.4118521,,27.842255,0.1,101.237915,1595629239441
Fix,GT,37.6338666,-122.4115423,,27.688282,0.1,101.44446,1595629240441
Fix,GT,37.6338233,-122.4112341,,27.538086,0.1,101.45978,1595629241441
Fix,GT,37.6337805,-122.4109274,,27.43829,0.1,101.3114,1595629242441
Fix,GT,37.6337386,-122.4106208,,27.519543,0.1,101.08124,1595629243441
Fix,GT,37.6336975,-122.4103114,,27.90763,0.1,100.829254,1595629244441
Fix,GT,37.6336573,-122.4099961,,28.439585,0.1,100.21393,1595629245441
Fix,GT,37.6336211,-122.4096755,,28.688232,0.1,98.65512,1595629246441
Fix,GT,37.633594,-122.4093522,,28.715897,0.1,96.19354,1595629247441
Fix,GT,37.6335794,-122.4090266,,28.930557,0.1,93.12683,1595629248441
Fix,GT,37.6335798,-122.4086971,,29.280964,0.1,89.615234,1595629249441
Fix,GT,37.6335961,-122.4083645,,29.563894,0.1,86.382355,1595629250441
Fix,GT,37.6336252,-122.408031,,29.643192,0.1,84.10126,1595629251441
Fix,GT,37.6336618,-122.4076985,,29.61509,0.1,83.01642,1595629252441
Fix,GT,37.6337018,-122.4073675,,29.438599,0.1,82.51898,1595629253441
Fix,GT,37.6337422,-122.4070403,,28.999798,0.1,82.615295,1595629254441
Fix,GT,37.6337798,-122.4067183,,28.50672,0.1,83.49115,1595629255441
Fix,GT,37.633809,-122.4063994,,28.178032,0.1,86.23395,1595629256441
Fix,GT,37.6338208,-122.4060829,,27.86702,0.1,91.34247,1595629257441
Fix,GT,37.6338077,-122.4057693,,27.73531,0.1,97.33484,1595629258441
Fix,GT,37.6337676,-122.4054595,,27.820984,0.1,103.63043,1595629259441
Fix,GT,37.6337008,-122.405156,,27.852043,0.1,109.77869,1595629260441
Fix,GT,37.6336089,-122.4048642,,27.649025,0.1,115.990906,1595629261441
Fix,GT,37.633493,-122.4045898,,27.320263,0.1,122.47095,1595629262441
Fix,GT,37.6333546,-122.4043368,,27.049862,0.1,128.95557,1595629263441
Fix,GT,37.6331959,-122.4041056,,27.024479,0.1,135.02686,1595629264441
Fix,GT,37.6330184,-122.4038953,,27.215473,0.1,140.84454,1595629265441
Fix,GT,37.6328233,-122.4037087,,27.340286,0.1,147.25494,1595629266441
Fix,GT,37.6326118,-122.4035507,,27.436094,0.1,153.76599,1595629267441
Fix,GT,37.6323863,-122.4034217,,27.657604,0.1,159.7868,1595629268441
Fix,GT,37.6321493,-122.4033228,,27.931408,0.1,165.91602,1595629269441
Fix,GT,37.631903,-122.4032539,,28.170109,0.1,171.31677,1595629270441
Fix,GT,37.6316511,-122.4032088,,28.3844,0.1,174.57703,1595629271441
Fix,GT,37.6313959,-122.4031739,,28.607403,0.1,175.30725,1595629272441
Fix,GT,37.6311386,-122.4031386,,28.831467,0.1,174.9798,1595629273441
Fix,GT,37.6308799,-122.4031018,,28.968094,0.1,174.86847,1595629274441
Fix,GT,37.6306203,-122.4030643,,29.062057,0.1,174.79926,1595629275441
Fix,GT,37.6303595,-122.4030271,,29.15876,0.1,174.9862,1595629276441
Fix,GT,37.6300985,-122.402991,,29.023956,0.1,175.20068,1595629277441
Fix,GT,37.6298402,-122.4029563,,28.655396,0.1,175.33606,1595629278441
Fix,GT,37.6295851,-122.4029221,,28.318844,0.1,175.28363,1595629279441
Fix,GT,37.6293323,-122.4028882,,28.161472,0.1,175.3031,1595629280441
Fix,GT,37.62908,-122.4028541,,28.19889,0.1,175.20844,1595629281441
Fix,GT,37.6288269,-122.4028185,,28.390675,0.1,174.74792,1595629282441
Fix,GT,37.6285723,-122.4027789,,28.521212,0.1,173.9552,1595629283441
Fix,GT,37.6283179,-122.402735,,28.436485,0.1,173.20337,1595629284441
Fix,GT,37.6280655,-122.4026865,,28.264122,0.1,172.2752,1595629285441
Fix,GT,37.6278151,-122.402633,,28.127136,0.1,171.20166,1595629286441
Fix,GT,37.6275665,-122.4025739,,28.045685,0.1,170.1701,1595629287441
Fix,GT,37.6273194,-122.4025095,,27.980461,0.1,169.14093,1595629288441
Fix,GT,37.6270735,-122.4024396,,28.009842,0.1,168.10187,1595629289441
Fix,GT,37.6268281,-122.4023635,,28.090096,0.1,166.92706,1595629290441
Fix,GT,37.6265839,-122.4022806,,28.034191,0.1,165.57312,1595629291441
Fix,GT,37.6263427,-122.40219,,27.825565,0.1,163.76288,1595629292441
Fix,GT,37.6261065,-122.4020889,,27.604671,0.1,161.31824,1595629293441
Fix,GT,37.6258745,-122.401979,,27.416258,0.1,160.39941,1595629294441
Fix,GT,37.6256431,-122.4018715,,27.377323,0.1,161.93536,1595629295441
Fix,GT,37.6254087,-122.4017732,,27.498783,0.1,163.90454,1595629296441
Fix,GT,37.6251714,-122.4016839,,27.449883,0.1,165.29523,1595629297441
Fix,GT,37.6249346,-122.4015987,,27.220287,0.1,165.25385,1595629298441
Fix,GT,37.6246997,-122.4015124,,27.178034,0.1,164.7539,1595629299441
Fix,GT,37.6244645,-122.4014227,,27.39029,0.1,164.20618,1595629300441
Fix,GT,37.6242279,-122.4013291,,27.710247,0.1,163.50781,1595629301441
Fix,GT,37.6239893,-122.401231,,28.088058,0.1,163.05487,1595629302441
Fix,GT,37.6237474,-122.4011311,,28.42235,0.1,163.33588,1595629303441
Fix,GT,37.623503,-122.4010333,,28.490292,0.1,164.10913,1595629304441
Fix,GT,37.6232576,-122.4009394,,28.476757,0.1,164.80347,1595629305441
Fix,GT,37.6230104,-122.400849,,28.70411,0.1,165.44427,1595629306441
Fix,GT,37.6227598,-122.4007596,,29.104832,0.1,165.39764,1595629307441
Fix,GT,37.6225065,-122.4006675,,29.407265,0.1,164.90503,1595629308441
Fix,GT,37.6222516,-122.4005726,,29.571615,0.1,164.83392,1595629309441
Fix,GT,37.6219952,-122.4004778,,29.736507,0.1,165.11267,1595629310441
Fix,GT,37.6217367,-122.4003848,,29.958323,0.1,165.68616,1595629311441
Fix,GT,37.6214756,-122.4002942,,30.1055,0.1,166.13226,1595629312441
Fix,GT,37.6212138,-122.4002054,,30.074663,0.1,166.33167,1595629313441
Fix,GT,37.620952,-122.4001171,,30.134037,0.1,166.31738,1595629314441
Fix,GT,37.6206892,-122.4000283,,30.270378,0.1,166.25421,1595629315441
Fix,GT,37.6204256,-122.3999386,,30.365513,0.1,166.15173,1595629316441
Fix,GT,37.6201605,-122.3998484,,30.642931,0.1,166.27722,1595629317441
Fix,GT,37.6198918,-122.3997581,,31.050941,0.1,166.4201,1595629318441
Fix,GT,37.6196203,-122.3996666,,31.312878,0.1,166.22119,1595629319441
Fix,GT,37.6193476,-122.3995736,,31.400364,0.1,166.13977,1595629320441
Fix,GT,37.6190748,-122.3994802,,31.325075,0.1,166.20331,1595629321441
Fix,GT,37.6188033,-122.3993879,,31.108372,0.1,166.30438,1595629322441
Fix,GT,37.6185335,-122.3992972,,30.90836,0.1,166.47833,1595629323441
Fix,GT,37.6182645,-122.3992077,,30.89069,0.1,166.5506,1595629324441
Fix,GT,37.6179951,-122.3991184,,30.925087,0.1,166.54315,1595629325441
Fix,GT,37.6177264,-122.3990288,,30.70785,0.1,166.44818,1595629326441
Fix,GT,37.6174609,-122.3989386,,30.380013,0.1,166.01294,1595629327441
Fix,GT,37.6171975,-122.3988451,,30.419437,0.1,165.12354,1595629328441
Fix,GT,37.616934,-122.3987459,,30.62107,0.1,164.318,1595629329441
Fix,GT,37.6166702,-122.3986426,,30.683846,0.1,163.87555,1595629330441
Fix,GT,37.6164063,-122.3985365,,30.836746,0.1,163.14447,1595629331441
Fix,GT,37.6161422,-122.3984239,,31.041817,0.1,161.94849,1595629332441
Fix,GT,37.6158787,-122.3983031,,31.257336,0.1,160.66882,1595629333441
Fix,GT,37.6156154,-122.3981734,,31.520569,0.1,159.14197,1595629334441
Fix,GT,37.6153532,-122.3980332,,31.741512,0.1,157.33728,1595629335441
Fix,GT,37.6150933,-122.3978811,,31.924244,0.1,155.40308,1595629336441
Fix,GT,37.6148358,-122.3977172,,32.15562,0.1,153.63818,1595629337441
Fix,GT,37.6145803,-122.3975431,,32.361748,0.1,152.10425,1595629338441
Fix,GT,37.6143268,-122.3973599,,32.51043,0.1,150.7829,1595629339441
Fix,GT,37.614076,-122.3971693,,32.47432,0.1,149.47736,1595629340441
Fix,GT,37.6138302,-122.3969723,,32.25076,0.1,148.01935,1595629341441
Fix,GT,37.613591,-122.3967681,,31.937845,0.1,146.30624,1595629342441
Fix,GT,37.6133593,-122.3965569,,31.607992,0.1,144.47375,1595629343441
Fix,GT,37.6131346,-122.3963385,,31.465988,0.1,142.77325,1595629344441
Fix,GT,37.6129148,-122.3961123,,31.604595,0.1,141.23056,1595629345441
Fix,GT,37.6126987,-122.3958773,,31.828926,0.1,139.73468,1595629346441
Fix,GT,37.6124858,-122.3956343,,31.989126,0.1,138.4432,1595629347441
Fix,GT,37.6122765,-122.3953844,,32.09223,0.1,137.12811,1595629348441
Fix,GT,37.6120711,-122.3951274,,32.23357,0.1,135.80408,1595629349441
Fix,GT,37.6118696,-122.3948637,,32.320065,0.1,134.54071,1595629350441
Fix,GT,37.6116726,-122.3945945,,32.266388,0.1,133.24966,1595629351441
Fix,GT,37.611482,-122.3943207,,31.920567,0.1,131.74377,1595629352441
Fix,GT,37.6112995,-122.3940448,,31.447239,0.1,130.44699,1595629353441
Fix,GT,37.6111226,-122.3937686,,31.19097,0.1,130.02402,1595629354441
Fix,GT,37.6109471,-122.3934937,,31.059742,0.1,130.0976,1595629355441
Fix,GT,37.6107722,-122.3932203,,30.851227,0.1,130.12094,1595629356441
Fix,GT,37.6105994,-122.3929492,,30.427431,0.1,129.92172,1595629357441
Fix,GT,37.6104305,-122.3926817,,29.860126,0.1,129.60321,1595629358441
Fix,GT,37.6102655,-122.3924178,,29.510614,0.1,129.3357,1595629359441
Fix,GT,37.6101018,-122.3921547,,29.538498,0.1,129.52374,1595629360441
Fix,GT,37.6099349,-122.3918905,,30.100388,0.1,130.14087,1595629361441
Fix,GT,37.6097619,-122.3916222,,30.88071,0.1,130.53741,1595629362441
Fix,GT,37.6095846,-122.3913495,,31.251797,0.1,130.65082,1595629363441
Fix,GT,37.6094056,-122.3910755,,31.331436,0.1,130.76474,1595629364441
Fix,GT,37.6092264,-122.3908018,,31.223454,0.1,130.77643,1595629365441
Fix,GT,37.6090487,-122.3905292,,30.979677,0.1,130.57788,1595629366441
Fix,GT,37.6088731,-122.3902584,,30.739824,0.1,130.44977,1595629367441
Fix,GT,37.6086988,-122.3899889,,30.616962,0.1,130.4483,1595629368441
Fix,GT,37.6085246,-122.3897198,,30.68663,0.1,130.51816,1595629369441
Fix,GT,37.6083496,-122.3894504,,30.744486,0.1,130.64246,1595629370441
Fix,GT,37.6081742,-122.3891817,,30.597733,0.1,130.76111,1595629371441
Fix,GT,37.6079995,-122.3889147,,30.503208,0.1,130.81381,1595629372441
Fix,GT,37.6078243,-122.3886472,,30.724415,0.1,130.77676,1595629373441
Fix,GT,37.6076477,-122.388377,,30.991064,0.1,130.71802,1595629374441
Fix,GT,37.6074707,-122.3881052,,31.042751,0.1,130.61206,1595629375441
Fix,GT,37.6072937,-122.387833,,31.004087,0.1,130.6305,1595629376441
Fix,GT,37.6071165,-122.387562,,30.921638,0.1,130.91281,1595629377441
Fix,GT,37.6069393,-122.387293,,30.775665,0.1,130.9786,1595629378441
Fix,GT,37.6067628,-122.3870243,,30.749462,0.1,130.81714,1595629379441
Fix,GT,37.6065864,-122.3867549,,30.879383,0.1,130.78342,1595629380441
Fix,GT,37.6064091,-122.3864845,,30.985859,0.1,130.86392,1595629381441
Fix,GT,37.6062314,-122.3862139,,30.980413,0.1,130.77777,1595629382441
Fix,GT,37.6060543,-122.3859424,,31.060242,0.1,130.58533,1595629383441
Fix,GT,37.6058768,-122.3856694,,31.223412,0.1,130.64642,1595629384441
Fix,GT,37.6056978,-122.3853952,,31.408201,0.1,130.81427,1595629385441
Fix,GT,37.6055173,-122.3851192,,31.674736,0.1,130.77524,1595629386441
Fix,GT,37.6053361,-122.3848418,,31.664879,0.1,130.74808,1595629387441
Fix,GT,37.6051558,-122.3845662,,31.3634,0.1,130.82788,1595629388441
Fix,GT,37.6049772,-122.3842935,,31.008366,0.1,130.80975,1595629389441
Fix,GT,37.6048007,-122.3840237,,30.704426,0.1,130.80475,1595629390441
Fix,GT,37.6046253,-122.3837552,,30.723698,0.1,130.63055,1595629391441
Fix,GT,37.6044497,-122.3834845,,30.98834,0.1,130.39801,1595629392441
Fix,GT,37.6042734,-122.3832108,,31.182106,0.1,130.29639,1595629393441
Fix,GT,37.6040965,-122.3829353,,31.34888,0.1,130.2168,1595629394441
Fix,GT,37.6039188,-122.382658,,31.509933,0.1,130.2492,1595629395441
Fix,GT,37.6037399,-122.3823805,,31.504406,0.1,130.49048,1595629396441
Fix,GT,37.6035609,-122.3821056,,31.228683,0.1,130.86084,1595629397441
Fix,GT,37.6033821,-122.3818344,,31.00452,0.1,131.02954,1595629398441
Fix,GT,37.6032039,-122.381564,,31.01699,0.1,130.92365,1595629399441
Fix,GT,37.6030259,-122.3812929,,31.037764,0.1,130.75555,1595629400441
Fix,GT,37.6028494,-122.381024,,30.25304,0.1,131.07068,1595629401441
Fix,GT,37.6026779,-122.3807667,,28.889345,0.1,131.82947,1595629402441
Fix,GT,37.6025101,-122.3805226,,28.428743,0.1,132.48114,1595629403441
Fix,GT,37.6023396,-122.3802766,,29.303396,0.1,132.18591,1595629404441
Fix,GT,37.6021642,-122.3800178,,30.721802,0.1,131.34052,1595629405441
Fix,GT,37.6019838,-122.3797455,,31.819344,0.1,130.9497,1595629406441
Fix,GT,37.6017997,-122.3794644,,32.394478,0.1,130.72815,1595629407441
Fix,GT,37.6016144,-122.3791801,,32.482147,0.1,130.6525,1595629408441
Fix,GT,37.6014296,-122.3788965,,32.228207,0.1,130.68298,1595629409441
Fix,GT,37.6012463,-122.3786159,,31.844177,0.1,130.77966,1595629410441
Fix,GT,37.6010651,-122.3783392,,31.397793,0.1,130.74115,1595629411441
Fix,GT,37.6008877,-122.3780651,,31.018597,0.1,130.15546,1595629412441
Fix,GT,37.6007147,-122.3777903,,30.96207,0.1,129.26947,1595629413441
Fix,GT,37.6005439,-122.377512,,31.135218,0.1,128.88599,1595629414441
Fix,GT,37.6003725,-122.3772326,,31.113853,0.1,129.22778,1595629415441
Fix,GT,37.6001991,-122.3769553,,31.244629,0.1,129.88312,1595629416441
Fix,GT,37.6000215,-122.3766779,,31.695847,0.1,130.406,1595629417441
Fix,GT,37.5998401,-122.3763976,,32.04252,0.1,130.44946,1595629418441
Fix,GT,37.5996592,-122.3761147,,31.972898,0.1,129.68857,1595629419441
Fix,GT,37.5994831,-122.3758306,,31.644707,0.1,128.87897,1595629420441
Fix,GT,37.5993103,-122.3755481,,31.291836,0.1,129.08621,1595629421441
Fix,GT,37.5991373,-122.3752699,,31.130867,0.1,129.67426,1595629422441
Fix,GT,37.5989626,-122.3749926,,31.450615,0.1,129.6698,1595629423441
Fix,GT,37.5987855,-122.3747114,,31.937477,0.1,129.78497,1595629424441
Fix,GT,37.5986051,-122.3744273,,32.2231,0.1,130.20123,1595629425441
Fix,GT,37.5984218,-122.3741425,,32.47613,0.1,130.4259,1595629426441
Fix,GT,37.598237,-122.3738568,,32.49874,0.1,130.4766,1595629427441
Fix,GT,37.5980531,-122.3735724,,32.23204,0.1,130.39948,1595629428441
Fix,GT,37.597871,-122.3732898,,31.993502,0.1,130.419,1595629429441
Fix,GT,37.5976898,-122.3730094,,31.79398,0.1,130.61975,1595629430441
Fix,GT,37.5975091,-122.3727317,,31.562347,0.1,130.60876,1595629431441
Fix,GT,37.5973296,-122.3724553,,31.504759,0.1,130.54132,1595629432441
Fix,GT,37.5971497,-122.3721781,,31.680555,0.1,130.60419,1595629433441
Fix,GT,37.5969686,-122.3718992,,31.906155,0.1,130.58347,1595629434441
Fix,GT,37.5967859,-122.3716182,,32.154835,0.1,130.60791,1595629435441
Fix,GT,37.5966019,-122.3713355,,32.22664,0.1,130.73999,1595629436441
Fix,GT,37.5964182,-122.3710548,,31.885216,0.1,130.84756,1595629437441
Fix,GT,37.5962374,-122.3707786,,31.304993,0.1,130.80548,1595629438441
Fix,GT,37.5960598,-122.3705075,,30.706306,0.1,130.88339,1595629439441
Fix,GT,37.5958849,-122.3702414,,30.267036,0.1,131.00961,1595629440441
Fix,GT,37.5957132,-122.3699806,,29.522081,0.1,130.94586,1595629441441
Fix,GT,37.5955479,-122.3697285,,28.152725,0.1,130.82986,1595629442441
Fix,GT,37.5953913,-122.3694895,,26.575912,0.1,130.87915,1595629443441
Fix,GT,37.5952425,-122.369263,,25.43637,0.1,130.97583,1595629444441
Fix,GT,37.5950981,-122.3690435,,24.869043,0.1,130.91797,1595629445441
Fix,GT,37.5949568,-122.3688278,,24.482098,0.1,130.69525,1595629446441
Fix,GT,37.5948182,-122.368615,,24.08671,0.1,130.70331,1595629447441
Fix,GT,37.5946815,-122.368406,,23.72868,0.1,130.86661,1595629448441
Fix,GT,37.5945462,-122.3681997,,23.532946,0.1,130.76266,1595629449441
Fix,GT,37.5944121,-122.3679929,,23.667297,0.1,130.39233,1595629450441
Fix,GT,37.5942769,-122.3677823,,24.157692,0.1,130.263,1595629451441
Fix,GT,37.5941373,-122.3675662,,25.029837,0.1,130.58453,1595629452441
Fix,GT,37.5939911,-122.3673421,,26.143303,0.1,130.76263,1595629453441
Fix,GT,37.5938392,-122.367109,,27.029224,0.1,130.69357,1595629454441
Fix,GT,37.5936834,-122.3668692,,27.643005,0.1,130.66476,1595629455441
Fix,GT,37.5935242,-122.3666253,,28.081268,0.1,130.863,1595629456441
Fix,GT,37.5933622,-122.3663787,,28.421267,0.1,130.97443,1595629457441
Fix,GT,37.5931979,-122.3661287,,28.826664,0.1,130.88824,1595629458441
Fix,GT,37.5930318,-122.3658751,,29.180424,0.1,130.8034,1595629459441
Fix,GT,37.592864,-122.3656183,,29.476555,0.1,130.73224,1595629460441
Fix,GT,37.5926955,-122.3653596,,29.564297,0.1,130.66254,1595629461441
Fix,GT,37.5925263,-122.3651007,,29.635923,0.1,130.96216,1595629462441
Fix,GT,37.5923548,-122.3648416,,29.926472,0.1,131.18494,1595629463441
Fix,GT,37.5921813,-122.3645787,,30.422966,0.1,130.92044,1595629464441
Fix,GT,37.5920055,-122.3643103,,31.003208,0.1,130.78143,1595629465441
Fix,GT,37.5918264,-122.3640365,,31.605598,0.1,130.83594,1595629466441
Fix,GT,37.5916438,-122.3637579,,32.115097,0.1,130.85846,1595629467441
Fix,GT,37.5914589,-122.3634751,,32.530132,0.1,130.77386,1595629468441
Fix,GT,37.5912717,-122.3631884,,33.0013,0.1,130.82108,1595629469441
Fix,GT,37.5910811,-122.3628979,,33.51516,0.1,131.00308,1595629470441
Fix,GT,37.5908867,-122.3626035,,34.046074,0.1,131.15247,1595629471441
Fix,GT,37.5906889,-122.3623047,,34.569904,0.1,131.09381,1595629472441
Fix,GT,37.590489,-122.3620012,,34.962536,0.1,130.9035,1595629473441
Fix,GT,37.5902882,-122.3616946,,35.15741,0.1,130.80981,1595629474441
Fix,GT,37.590087,-122.361387,,35.13327,0.1,130.7644,1595629475441
Fix,GT,37.5898867,-122.3610798,,35.03444,0.1,130.56897,1595629476441
Fix,GT,37.5896884,-122.3607709,,35.089348,0.1,130.00446,1595629477441
Fix,GT,37.5894929,-122.3604589,,34.98464,0.1,129.15768,1595629478441
Fix,GT,37.5893029,-122.3601446,,34.766388,0.1,127.9115,1595629479441
Fix,GT,37.5891198,-122.3598252,,34.838398,0.1,126.32623,1595629480441
Fix,GT,37.5889431,-122.3594974,,35.05768,0.1,124.60968,1595629481441
Fix,GT,37.5887744,-122.3591618,,35.083595,0.1,122.651794,1595629482441
Fix,GT,37.5886154,-122.3588199,,34.86386,0.1,120.78058,1595629483441
Fix,GT,37.5884652,-122.358475,,34.578682,0.1,119.52789,1595629484441
Fix,GT,37.5883209,-122.3581296,,34.380238,0.1,118.52142,1595629485441
Fix,GT,37.588183,-122.3577816,,34.318882,0.1,117.043,1595629486441
Fix,GT,37.5880536,-122.3574283,,34.424995,0.1,114.91998,1595629487441
Fix,GT,37.5879346,-122.3570675,,34.57623,0.1,112.66229,1595629488441
Fix,GT,37.5878254,-122.3567011,,34.494843,0.1,111.19562,1595629489441
Fix,GT,37.5877237,-122.3563343,,34.123398,0.1,109.92255,1595629490441
Fix,GT,37.5876304,-122.3559686,,33.719795,0.1,108.1637,1595629491441
Fix,GT,37.5875471,-122.3556043,,33.243275,0.1,106.48642,1595629492441
Fix,GT,37.5874735,-122.3552428,,32.721107,0.1,104.925446,1595629493441
Fix,GT,37.5874084,-122.3548839,,32.32307,0.1,103.40845,1595629494441
Fix,GT,37.5873515,-122.354527,,32.00511,0.1,101.819885,1595629495441
Fix,GT,37.5873032,-122.3541703,,31.990398,0.1,100.143616,1595629496441
Fix,GT,37.5872627,-122.353809,,32.491177,0.1,98.60602,1595629497441
Fix,GT,37.5872291,-122.3534395,,33.186573,0.1,97.05655,1595629498441
Fix,GT,37.5872035,-122.353062,,33.70831,0.1,95.31308,1595629499441
Fix,GT,37.5871861,-122.3526792,,34.011154,0.1,93.938416,1595629500441
Fix,GT,37.5871742,-122.3522939,,34.055042,0.1,93.069336,1595629501441
Fix,GT,37.587166,-122.3519088,,33.996307,0.1,92.750824,1595629502441
Fix,GT,37.587158,-122.3515235,,34.120575,0.1,93.084595,1595629503441
Fix,GT,37.587148,-122.3511359,,34.388027,0.1,93.20291,1595629504441
Fix,GT,37.587138,-122.3507454,,34.59616,0.1,93.04666,1595629505441
Fix,GT,37.5871285,-122.3503535,,34.65657,0.1,93.11856,1595629506441
Fix,GT,37.5871186,-122.3499615,,34.59987,0.1,93.183655,1595629507441
Fix,GT,37.5871086,-122.3495702,,34.556244,0.1,93.17319,1595629508441
Fix,GT,37.5870987,-122.3491794,,34.489815,0.1,93.1633,1595629509441
Fix,GT,37.5870888,-122.34879,,34.339264,0.1,93.25391,1595629510441
Fix,GT,37.5870781,-122.3484029,,34.068634,0.1,93.37741,1595629511441
Fix,GT,37.5870672,-122.3480191,,33.751575,0.1,93.365845,1595629512441
Fix,GT,37.587057,-122.3476383,,33.587452,0.1,93.21091,1595629513441
Fix,GT,37.5870474,-122.3472581,,33.64828,0.1,93.09726,1595629514441
Fix,GT,37.587038,-122.3468765,,33.805645,0.1,93.16235,1595629515441
Fix,GT,37.5870279,-122.3464931,,33.965263,0.1,93.28839,1595629516441
Fix,GT,37.5870173,-122.3461079,,34.135956,0.1,93.345764,1595629517441
Fix,GT,37.5870067,-122.3457205,,34.31565,0.1,93.26318,1595629518441
Fix,GT,37.5869963,-122.3453317,,34.43718,0.1,93.1709,1595629519441
Fix,GT,37.5869863,-122.3449413,,34.586937,0.1,93.11835,1595629520441
Fix,GT,37.5869765,-122.3445497,,34.610184,0.1,93.17221,1595629521441
Fix,GT,37.5869663,-122.3441585,,34.534763,0.1,93.22952,1595629522441
Fix,GT,37.586956,-122.3437675,,34.59242,0.1,93.09845,1595629523441
Fix,GT,37.5869466,-122.343375,,34.794533,0.1,93.01819,1595629524441
Fix,GT,37.5869369,-122.3429802,,34.973915,0.1,93.18695,1595629525441
Fix,GT,37.5869262,-122.3425834,,35.09619,0.1,93.33194,1595629526441
Fix,GT,37.586915,-122.3421868,,34.948734,0.1,93.38806,1595629527441
Fix,GT,37.586904,-122.3417937,,34.5399,0.1,93.24744,1595629528441
Fix,GT,37.5868939,-122.3414054,,34.11724,0.1,93.065216,1595629529441
Fix,GT,37.5868848,-122.3410207,,33.928413,0.1,93.026184,1595629530441
Fix,GT,37.5868759,-122.340636,,34.055912,0.1,92.95917,1595629531441
Fix,GT,37.5868666,-122.3402502,,34.06498,0.1,93.15039,1595629532441
Fix,GT,37.5868558,-122.3398665,,33.75119,0.1,93.51489,1595629533441
Fix,GT,37.5868441,-122.3394874,,33.18725,0.1,93.545746,1595629534441
Fix,GT,37.5868331,-122.3391166,,32.335316,0.1,93.394165,1595629535441
Fix,GT,37.5868228,-122.338755,,31.687164,0.1,93.330505,1595629536441
Fix,GT,37.5868133,-122.3383988,,31.294888,0.1,93.24704,1595629537441
Fix,GT,37.5868042,-122.3380467,,30.953121,0.1,93.172455,1595629538441
Fix,GT,37.5867954,-122.3376979,,30.688372,0.1,93.168335,1595629539441
Fix,GT,37.5867865,-122.337352,,30.450016,0.1,93.190216,1595629540441
Fix,GT,37.5867778,-122.337008,,30.377195,0.1,93.132416,1595629541441
Fix,GT,37.5867694,-122.3366632,,30.611275,0.1,92.994995,1595629542441
Fix,GT,37.5867615,-122.336315,,30.937426,0.1,92.94165,1595629543441
Fix,GT,37.5867534,-122.3359629,,31.286934,0.1,93.07828,1595629544441
Fix,GT,37.5867445,-122.3356062,,31.770813,0.1,93.14746,1595629545441
Fix,GT,37.5867351,-122.335244,,32.250683,0.1,93.24304,1595629546441
Fix,GT,37.586725,-122.3348767,,32.648415,0.1,93.450195,1595629547441
Fix,GT,37.5867135,-122.3345053,,32.975433,0.1,93.71887,1595629548441
Fix,GT,37.5866983,-122.3341319,,33.016014,0.1,94.90985,1595629549441
Fix,GT,37.5866745,-122.3337606,,32.820072,0.1,97.16571,1595629550441
Fix,GT,37.5866386,-122.3333918,,32.92161,0.1,99.60089,1595629551441
Fix,GT,37.5865889,-122.3330238,,33.042034,0.1,102.41852,1595629552441
Fix,GT,37.5865238,-122.3326599,,32.870163,0.1,105.65137,1595629553441
Fix,GT,37.5864434,-122.3323026,,32.802734,0.1,108.815765,1595629554441
Fix,GT,37.5863474,-122.3319515,,32.797054,0.1,111.96103,1595629555441
Fix,GT,37.5862363,-122.3316091,,32.48106,0.1,115.247955,1595629556441
Fix,GT,37.5861117,-122.3312797,,31.916435,0.1,118.550415,1595629557441
Fix,GT,37.5859748,-122.3309658,,31.398478,0.1,121.77576,1595629558441
Fix,GT,37.5858266,-122.3306668,,30.850843,0.1,124.75113,1595629559441
Fix,GT,37.5856692,-122.3303832,,30.284325,0.1,127.629395,1595629560441
Fix,GT,37.5855036,-122.3301142,,29.85027,0.1,130.47205,1595629561441
Fix,GT,37.5853301,-122.329859,,29.465378,0.1,133.31949,1595629562441
Fix,GT,37.5851492,-122.3296181,,29.08016,0.1,136.14655,1595629563441
Fix,GT,37.5849614,-122.3293912,,28.828098,0.1,138.54721,1595629564441
Fix,GT,37.5847681,-122.3291734,,28.902336,0.1,140.0202,1595629565441
Fix,GT,37.5845707,-122.3289569,,29.280163,0.1,140.26465,1595629566441
Fix,GT,37.5843705,-122.3287364,,29.783987,0.1,140.04745,1595629567441
Fix,GT,37.5841678,-122.3285134,,29.963295,0.1,140.29474,1595629568441
Fix,GT,37.5839643,-122.3282918,,29.836758,0.1,140.59369,1595629569441
Fix,GT,37.5837605,-122.3280699,,30.128044,0.1,140.3176,1595629570441
Fix,GT,37.5835536,-122.3278433,,30.798283,0.1,140.27698,1595629571441
Fix,GT,37.5833418,-122.3276119,,31.49255,0.1,140.41812,1595629572441
Fix,GT,37.5831251,-122.3273762,,32.081657,0.1,140.5191,1595629573441
Fix,GT,37.582905,-122.3271374,,32.432556,0.1,140.61096,1595629574441
Fix,GT,37.5826832,-122.3268975,,32.558674,0.1,140.68396,1595629575441
Fix,GT,37.5824607,-122.326657,,32.57844,0.1,140.64557,1595629576441
Fix,GT,37.582238,-122.3264156,,32.70998,0.1,140.48291,1595629577441
Fix,GT,37.5820149,-122.3261724,,32.890644,0.1,140.41568,1595629578441
Fix,GT,37.5817897,-122.3259274,,33.204308,0.1,140.47809,1595629579441
Fix,GT,37.5815622,-122.32568,,33.57099,0.1,140.49045,1595629580441
Fix,GT,37.5813332,-122.3254311,,33.592575,0.1,140.57373,1595629581441
Fix,GT,37.5811051,-122.3251837,,33.29017,0.1,140.54181,1595629582441
Fix,GT,37.5808792,-122.3249373,,33.17804,0.1,140.2425,1595629583441
Fix,GT,37.5806529,-122.3246889,,33.57714,0.1,140.23804,1595629584441
Fix,GT,37.5804223,-122.3244367,,34.289314,0.1,140.46735,1595629585441
Fix,GT,37.5801863,-122.3241802,,34.950794,0.1,140.55524,1595629586441
Fix,GT,37.5799465,-122.32392,,35.317966,0.1,140.58691,1595629587441
Fix,GT,37.5797051,-122.3236591,,35.29406,0.1,140.81091,1595629588441
Fix,GT,37.5794641,-122.3233999,,35.09724,0.1,140.77643,1595629589441
Fix,GT,37.5792253,-122.3231423,,34.75805,0.1,140.61774,1595629590441
Fix,GT,37.5789897,-122.3228872,,34.237495,0.1,140.63263,1595629591441
Fix,GT,37.5787582,-122.3226371,,33.541325,0.1,140.65448,1595629592441
Fix,GT,37.5785316,-122.3223918,,32.913887,0.1,140.612,1595629593441
Fix,GT,37.5783079,-122.3221491,,32.753983,0.1,140.52628,1595629594441
Fix,GT,37.5780841,-122.3219061,,32.939632,0.1,140.5357,1595629595441
Fix,GT,37.5778587,-122.3216614,,33.110046,0.1,140.60596,1595629596441
Fix,GT,37.5776329,-122.3214175,,32.951225,0.1,140.74289,1595629597441
Fix,GT,37.5774087,-122.3211759,,32.60359,0.1,140.66547,1595629598441
Fix,GT,37.5771872,-122.3209355,,32.41584,0.1,140.37506,1595629599441
Fix,GT,37.5769664,-122.3206941,,32.603245,0.1,140.2522,1595629600441
Fix,GT,37.5767448,-122.3204513,,32.528114,0.1,140.34299,1595629601441
Fix,GT,37.5765254,-122.3202125,,31.753273,0.1,140.58936,1595629602441
Fix,GT,37.5763115,-122.3199809,,30.983253,0.1,140.49948,1595629603441
Fix,GT,37.5761028,-122.319753,,30.47467,0.1,140.2425,1595629604441
Fix,GT,37.5758973,-122.3195272,,30.165539,0.1,140.24237,1595629605441
Fix,GT,37.5756923,-122.3193031,,30.219252,0.1,140.42395,1595629606441
Fix,GT,37.5754855,-122.3190782,,30.470287,0.1,140.53162,1595629607441
Fix,GT,37.5752769,-122.3188517,,30.692585,0.1,140.4892,1595629608441
Fix,GT,37.5750667,-122.3186226,,31.156801,0.1,140.37573,1595629609441
Fix,GT,37.5748522,-122.3183885,,31.92749,0.1,140.37094,1595629610441
Fix,GT,37.5746322,-122.3181489,,32.709126,0.1,140.50543,1595629611441
Fix,GT,37.5744073,-122.3179052,,33.19025,0.1,140.7406,1595629612441
Fix,GT,37.5741792,-122.3176596,,33.4495,0.1,140.77814,1595629613441
Fix,GT,37.5739505,-122.3174133,,33.387733,0.1,140.74976,1595629614441
Fix,GT,37.5737229,-122.3171678,,33.2106,0.1,140.62909,1595629615441
Fix,GT,37.5734968,-122.3169222,,33.158394,0.1,140.38742,1595629616441
Fix,GT,37.5732716,-122.3166761,,33.01287,0.1,140.36249,1595629617441
Fix,GT,37.5730481,-122.3164326,,32.68334,0.1,140.50568,1595629618441
Fix,GT,37.5728255,-122.3161912,,32.67215,0.1,140.55814,1595629619441
Fix,GT,37.5726019,-122.3159485,,32.93685,0.1,140.46399,1595629620441
Fix,GT,37.572377,-122.3157037,,33.069595,0.1,140.53412,1595629621441
Fix,GT,37.5721516,-122.3154596,,32.98052,0.1,140.68817,1595629622441
Fix,GT,37.571927,-122.3152162,,32.882553,0.1,140.5014,1595629623441
Fix,GT,37.5717034,-122.3149716,,32.97127,0.1,140.31506,1595629624441
Fix,GT,37.5714791,-122.3147265,,32.995514,0.1,140.52206,1595629625441
Fix,GT,37.5712541,-122.3144823,,33.003315,0.1,140.66104,1595629626441
Fix,GT,37.5710283,-122.3142381,,33.156185,0.1,140.65302,1595629627441
Fix,GT,37.5708013,-122.3139922,,33.367157,0.1,140.53595,1595629628441
Fix,GT,37.5705737,-122.313744,,33.52117,0.1,140.3338,1595629629441
Fix,GT,37.5703451,-122.3134939,,33.78681,0.1,140.24622,1595629630441
Fix,GT,37.5701146,-122.313242,,34.06057,0.1,140.41083,1595629631441
Fix,GT,37.5698814,-122.3129885,,34.33722,0.1,140.57239,1595629632441
Fix,GT,37.5696463,-122.3127337,,34.58004,0.1,140.51999,1595629633441
Fix,GT,37.5694103,-122.3124771,,34.711857,0.1,140.4798,1595629634441
Fix,GT,37.5691741,-122.31222,,34.633537,0.1,140.55002,1595629635441
Fix,GT,37.5689387,-122.3119649,,34.347504,0.1,140.67627,1595629636441
Fix,GT,37.5687049,-122.3117131,,34.005936,0.1,140.82837,1595629637441
Fix,GT,37.5684731,-122.311464,,33.758926,0.1,140.75775,1595629638441
Fix,GT,37.5682427,-122.311215,,33.71248,0.1,140.5686,1595629639441
Fix,GT,37.5680128,-122.3109655,,33.73112,0.1,140.56119,1595629640441
Fix,GT,37.5677831,-122.3107167,,33.585487,0.1,140.64832,1595629641441
Fix,GT,37.5675546,-122.3104694,,33.320557,0.1,140.65964,1595629642441
Fix,GT,37.5673278,-122.3102239,,33.182495,0.1,140.55945,1595629643441
Fix,GT,37.5671009,-122.3099773,,33.487877,0.1,140.44073,1595629644441
Fix,GT,37.5668706,-122.3097264,,34.231976,0.1,140.42438,1595629645441
Fix,GT,37.5666352,-122.3094698,,34.968834,0.1,140.38269,1595629646441
Fix,GT,37.566396,-122.3092084,,35.387947,0.1,140.38055,1595629647441
Fix,GT,37.5661539,-122.3089447,,35.73333,0.1,140.4784,1595629648441
Fix,GT,37.5659089,-122.3086794,,36.092804,0.1,140.67078,1595629649441
Fix,GT,37.5656605,-122.3084116,,36.595123,0.1,140.73535,1595629650441
Fix,GT,37.5654085,-122.3081394,,37.232746,0.1,140.61636,1595629651441
Fix,GT,37.5651521,-122.3078609,,37.968643,0.1,140.4917,1595629652441
Fix,GT,37.5648917,-122.3075771,,38.525986,0.1,140.42288,1595629653441
Fix,GT,37.5646285,-122.3072905,,38.703613,0.1,140.46445,1595629654441
Fix,GT,37.564365,-122.307004,,38.605556,0.1,140.57944,1595629655441
Fix,GT,37.5641021,-122.3067191,,38.49282,0.1,140.69421,1595629656441
Fix,GT,37.5638391,-122.3064353,,38.4552,0.1,140.75934,1595629657441
Fix,GT,37.5635766,-122.3061525,,38.295067,0.1,140.73724,1595629658441
Fix,GT,37.5633156,-122.3058702,,38.170128,0.1,140.50256,1595629659441
Fix,GT,37.5630557,-122.3055862,,38.340088,0.1,140.26672,1595629660441
Fix,GT,37.5627949,-122.3053002,,38.54502,0.1,140.24243,1595629661441
Fix,GT,37.5625325,-122.3050129,,38.758793,0.1,140.36774,1595629662441
Fix,GT,37.5622681,-122.3047245,,38.96149,0.1,140.51147,1595629663441
Fix,GT,37.5620017,-122.3044356,,39.18139,0.1,140.63068,1595629664441
Fix,GT,37.5617329,-122.3041457,,39.428387,0.1,140.77182,1595629665441
Fix,GT,37.5614628,-122.3038551,,39.480827,0.1,140.78699,1595629666441
Fix,GT,37.561193,-122.3035644,,39.41386,0.1,140.72525,1595629667441
Fix,GT,37.560924,-122.3032749,,39.21879,0.1,140.94421,1595629668441
Fix,GT,37.5606554,-122.3029896,,38.833885,0.1,141.50757,1595629669441
Fix,GT,37.5603864,-122.3027112,,38.563976,0.1,142.37762,1595629670441
Fix,GT,37.5601154,-122.302439,,38.46325,0.1,143.22327,1595629671441
Fix,GT,37.5598423,-122.3021721,,38.34642,0.1,143.91736,1595629672441
Fix,GT,37.5595676,-122.3019108,,38.107216,0.1,144.70679,1595629673441
Fix,GT,37.5592918,-122.3016557,,37.914253,0.1,145.32214,1595629674441
Fix,GT,37.5590155,-122.3014052,,37.718742,0.1,145.73846,1595629675441
Fix,GT,37.55874,-122.3011583,,37.347126,0.1,145.98022,1595629676441
Fix,GT,37.5584678,-122.3009153,,36.74507,0.1,146.05017,1595629677441
Fix,GT,37.5581993,-122.3006768,,36.21685,0.1,146.32574,1595629678441
Fix,GT,37.5579336,-122.3004436,,35.74576,0.1,146.66046,1595629679441
Fix,GT,37.5576708,-122.3002147,,35.28216,0.1,146.61487,1595629680441
Fix,GT,37.5574114,-122.2999873,,34.9198,0.1,146.4508,1595629681441
Fix,GT,37.5571542,-122.2997627,,34.592575,0.1,146.82312,1595629682441
Fix,GT,37.5568978,-122.2995428,,34.38704,0.1,147.10553,1595629683441
Fix,GT,37.5566422,-122.2993219,,34.5681,0.1,146.49103,1595629684441
Fix,GT,37.556387,-122.299096,,34.7145,0.1,145.95856,1595629685441
Fix,GT,37.556134,-122.2988676,,34.421112,0.1,145.4469,1595629686441
Fix,GT,37.5558851,-122.2986391,,34.041214,0.1,145.00784,1595629687441
Fix,GT,37.5556399,-122.2984116,,33.659798,0.1,144.9649,1595629688441
Fix,GT,37.5553969,-122.2981865,,33.334724,0.1,144.9631,1595629689441
Fix,GT,37.5551568,-122.2979633,,32.96288,0.1,144.83737,1595629690441
Fix,GT,37.55492,-122.297742,,32.55478,0.1,144.64642,1595629691441
Fix,GT,37.5546867,-122.2975222,,32.241367,0.1,144.33331,1595629692441
Fix,GT,37.5544558,-122.2973015,,32.25524,0.1,143.85535,1595629693441
Fix,GT,37.5542256,-122.2970775,,32.367348,0.1,143.55112,1595629694441
Fix,GT,37.5539959,-122.296853,,32.173164,0.1,143.55548,1595629695441
Fix,GT,37.5537677,-122.2966307,,31.939707,0.1,143.58478,1595629696441
Fix,GT,37.5535404,-122.2964099,,31.852396,0.1,143.74402,1595629697441
Fix,GT,37.5533125,-122.296191,,31.842659,0.1,144.21765,1595629698441
Fix,GT,37.5530836,-122.2959752,,31.691277,0.1,144.68103,1595629699441
Fix,GT,37.5528554,-122.295763,,31.26615,0.1,145.11224,1595629700441
Fix,GT,37.55263,-122.2955562,,30.698532,0.1,145.38956,1595629701441
Fix,GT,37.5524081,-122.2953536,,30.251753,0.1,145.37411,1595629702441
Fix,GT,37.552189,-122.2951523,,30.061054,0.1,144.9964,1595629703441
Fix,GT,37.5519717,-122.2949498,,30.022396,0.1,144.61676,1595629704441
Fix,GT,37.5517557,-122.2947469,,29.816158,0.1,144.68475,1595629705441
Fix,GT,37.5515414,-122.2945468,,29.470615,0.1,144.79105,1595629706441
Fix,GT,37.5513296,-122.2943491,,29.11655,0.1,144.76141,1595629707441
Fix,GT,37.5511204,-122.2941538,,28.751293,0.1,144.77649,1595629708441
Fix,GT,37.5509137,-122.293961,,28.40731,0.1,144.77332,1595629709441
Fix,GT,37.5507095,-122.2937703,,28.09025,0.1,144.73193,1595629710441
Fix,GT,37.5505076,-122.2935813,,27.77267,0.1,144.69687,1595629711441
Fix,GT,37.5503079,-122.2933948,,27.461466,0.1,144.7868,1595629712441
Fix,GT,37.5501103,-122.2932108,,27.14661,0.1,144.84692,1595629713441
Fix,GT,37.5499151,-122.2930288,,26.818722,0.1,144.682,1595629714441
Fix,GT,37.5497227,-122.2928476,,26.617584,0.1,144.35559,1595629715441
Fix,GT,37.5495309,-122.2926648,,26.915337,0.1,144.02759,1595629716441
Fix,GT,37.549336,-122.2924781,,27.522297,0.1,144.04083,1595629717441
Fix,GT,37.5491366,-122.2922882,,27.998978,0.1,144.34787,1595629718441
Fix,GT,37.5489331,-122.2920965,,28.385376,0.1,144.69562,1595629719441
Fix,GT,37.5487272,-122.2919051,,28.408623,0.1,145.03247,1595629720441
Fix,GT,37.5485215,-122.2917159,,28.233147,0.1,145.25012,1595629721441
Fix,GT,37.5483155,-122.2915269,,28.496948,0.1,145.24924,1595629722441
Fix,GT,37.5481056,-122.2913339,,29.316423,0.1,145.10461,1595629723441
Fix,GT,37.5478903,-122.2911354,,29.955276,0.1,145.16739,1595629724441
Fix,GT,37.5476725,-122.2909351,,29.822182,0.1,145.20438,1595629725441
Fix,GT,37.5474571,-122.2907368,,29.406937,0.1,145.09967,1595629726441
Fix,GT,37.5472444,-122.2905409,,29.206348,0.1,145.2572,1595629727441
Fix,GT,37.547031,-122.2903467,,29.43771,0.1,145.72223,1595629728441
Fix,GT,37.5468116,-122.2901508,,30.39497,0.1,146.19873,1595629729441
Fix,GT,37.5465826,-122.2899488,,31.745832,0.1,146.25885,1595629730441
Fix,GT,37.5463439,-122.2897367,,33.17772,0.1,145.8045,1595629731441
Fix,GT,37.5460976,-122.2895136,,34.105118,0.1,145.35025,1595629732441
Fix,GT,37.5458503,-122.2892863,,33.820904,0.1,145.00278,1595629733441
Fix,GT,37.5456077,-122.2890607,,33.22377,0.1,144.82074,1595629734441
Fix,GT,37.5453686,-122.2888373,,32.976845,0.1,144.77301,1595629735441
Fix,GT,37.5451303,-122.2886156,,32.849644,0.1,144.92853,1595629736441
Fix,GT,37.5448932,-122.288396,,32.520653,0.1,145.0419,1595629737441
Fix,GT,37.5446585,-122.2881792,,32.177364,0.1,145.08636,1595629738441
Fix,GT,37.5444255,-122.2879647,,31.979,0.1,145.13092,1595629739441
Fix,GT,37.5441922,-122.2877493,,32.40261,0.1,144.9397,1595629740441
Fix,GT,37.5439542,-122.2875276,,33.442284,0.1,144.6677,1595629741441
Fix,GT,37.5437094,-122.2872963,,34.523674,0.1,144.11499,1595629742441
Fix,GT,37.54346,-122.2870551,,35.291588,0.1,143.5827,1595629743441
Fix,GT,37.543208,-122.2868089,,35.462326,0.1,143.62253,1595629744441
Fix,GT,37.5429556,-122.2865648,,35.177486,0.1,144.05359,1595629745441
Fix,GT,37.5427042,-122.2863262,,34.76643,0.1,144.57938,1595629746441
Fix,GT,37.542454,-122.2860926,,34.497974,0.1,144.97882,1595629747441
Fix,GT,37.5422034,-122.2858606,,34.75948,0.1,145.00858,1595629748441
Fix,GT,37.5419493,-122.2856256,,35.326653,0.1,145.07336,1595629749441
Fix,GT,37.5416918,-122.2853889,,35.416748,0.1,145.37079,1595629750441
Fix,GT,37.5414346,-122.2851543,,35.142628,0.1,145.47302,1595629751441
Fix,GT,37.5411792,-122.2849213,,34.858883,0.1,145.28854,1595629752441
Fix,GT,37.5409269,-122.284688,,34.752625,0.1,144.65143,1595629753441
Fix,GT,37.5406761,-122.2844493,,35.16865,0.1,143.80328,1595629754441
Fix,GT,37.5404243,-122.2842045,,35.486027,0.1,143.67395,1595629755441
Fix,GT,37.5401716,-122.2839605,,35.233696,0.1,144.17181,1595629756441
Fix,GT,37.5399193,-122.2837222,,34.85222,0.1,144.75107,1595629757441
Fix,GT,37.5396681,-122.2834885,,34.562714,0.1,144.99414,1595629758441
Fix,GT,37.539418,-122.2832575,,34.34686,0.1,145.15631,1595629759441
Fix,GT,37.5391692,-122.2830291,,34.03793,0.1,145.28278,1595629760441
Fix,GT,37.5389229,-122.2828033,,33.670555,0.1,145.26123,1595629761441
Fix,GT,37.5386793,-122.2825797,,33.288277,0.1,145.18372,1595629762441
Fix,GT,37.5384389,-122.2823581,,32.9171,0.1,145.05347,1595629763441
Fix,GT,37.5382015,-122.282138,,32.577534,0.1,144.90897,1595629764441
Fix,GT,37.537967,-122.2819195,,32.26793,0.1,144.76233,1595629765441
Fix,GT,37.5377346,-122.281702,,32.06138,0.1,144.66562,1595629766441
Fix,GT,37.5375036,-122.2814856,,31.937134,0.1,144.66565,1595629767441
Fix,GT,37.537273,-122.28127,,31.910095,0.1,144.84967,1595629768441
Fix,GT,37.5370416,-122.2810548,,32.0024,0.1,145.04977,1595629769441
Fix,GT,37.5368093,-122.2808398,,32.060173,0.1,145.0758,1595629770441
Fix,GT,37.5365763,-122.2806248,,32.172104,0.1,145.06976,1595629771441
Fix,GT,37.536342,-122.2804083,,32.38821,0.1,145.04169,1595629772441
Fix,GT,37.5361064,-122.2801906,,32.513428,0.1,145.11523,1595629773441
Fix,GT,37.5358701,-122.2799726,,32.552994,0.1,145.11493,1595629774441
Fix,GT,37.5356334,-122.2797544,,32.628357,0.1,145.10596,1595629775441
Fix,GT,37.5353959,-122.2795357,,32.75306,0.1,145.22983,1595629776441
Fix,GT,37.5351568,-122.2793157,,33.03901,0.1,145.13327,1595629777441
Fix,GT,37.5349162,-122.2790932,,33.260597,0.1,144.94983,1595629778441
Fix,GT,37.534675,-122.2788694,,33.30912,0.1,144.99554,1595629779441
Fix,GT,37.5344334,-122.2786456,,33.320488,0.1,145.03525,1595629780441
Fix,GT,37.5341919,-122.2784221,,33.268044,0.1,145.0075,1595629781441
Fix,GT,37.5339516,-122.2781998,,32.93778,0.1,145.0509,1595629782441
Fix,GT,37.5337142,-122.2779804,,32.46599,0.1,145.0935,1595629783441
Fix,GT,37.5334802,-122.2777644,,31.945938,0.1,145.09119,1595629784441
Fix,GT,37.5332507,-122.2775524,,31.294865,0.1,145.02917,1595629785441
Fix,GT,37.5330275,-122.2773451,,30.31549,0.1,144.91132,1595629786441
Fix,GT,37.5328123,-122.2771441,,29.20411,0.1,144.77228,1595629787441
Fix,GT,37.5326032,-122.2769489,,28.706354,0.1,144.85117,1595629788441
