MessageType,Provider,LatitudeDegrees,LongitudeDegrees,AltitudeMeters,SpeedMps,AccuracyMeters,BearingDegrees,UnixTimeMillis
Fix,GT,37.4243456,-122.0918665,,0.003,0.1,76.52295,1590084561437
Fix,GT,37.4243456,-122.0918665,,0.0029249485,0.1,76.5231,1590084562437
Fix,GT,37.4243456,-122.0918665,,0.0025693101,0.1,76.5228,1590084563437
Fix,GT,37.4243456,-122.0918665,,0.0016953717,0.1,76.52258,1590084564437
Fix,GT,37.4243456,-122.0918665,,0.0017998134,0.1,76.52258,1590084565437
Fix,GT,37.4243456,-122.0918665,,0.002974464,0.1,76.52197,1590084566437
Fix,GT,37.4243456,-122.0918665,,0.0022164276,0.1,76.52127,1590084567437
Fix,GT,37.4243456,-122.0918665,,0.0014374324,0.1,76.52081,1590084568437
Fix,GT,37.4243456,-122.0918665,,0.0017437582,0.1,76.52048,1590084569437
Fix,GT,37.4243456,-122.0918665,,0.0014142136,0.1,76.51999,1590084570437
Fix,GT,37.4243456,-122.0918665,,0.0021788727,0.1,76.519745,1590084571437
Fix,GT,37.4243456,-122.0918665,,0.0026538603,0.1,76.51996,1590084572437
Fix,GT,37.4243456,-122.0918665,,0.0015625681,0.1,76.52008,1590084573437
Fix,GT,37.4243456,-122.0918665,,0.001,0.1,76.51984,1590084574437
Fix,GT,37.4243456,-122.0918665,,0.001,0.1,76.51892,1590084575437
Fix,GT,37.4243456,-122.0918665,,0.001,0.1,76.5181,1590084576437
Fix,GT,37.4243456,-122.0918665,,0.0011811901,0.1,76.517914,1590084577437
Fix,GT,37.4243456,-122.0918665,,0.0014142136,0.1,76.518036,1590084578437
Fix,GT,37.4243456,-122.0918665,,0.0017737187,0.1,76.51752,1590084579437
Fix,GT,37.4243456,-122.0918665,,0.0021328044,0.1,76.516846,1590084580437
Fix,GT,37.4243456,-122.0918665,,0.0021032635,0.1,76.51657,1590084581437
Fix,GT,37.4243456,-122.0918665,,0.0025702359,0.1,76.51611,1590084582437
Fix,GT,37.4243456,-122.0918665,,0.0023063272,0.1,76.5159,1590084583437
Fix,GT,37.4243456,-122.0918665,,0.0012330236,0.1,76.51544,1590084584437
Fix,GT,37.4243456,-122.0918665,,0.001,0.1,76.51544,1590084585437
Fix,GT,37.4243456,-122.0918665,,0.00118119,0.1,76.51517,1590084586437
Fix,GT,37.4243456,-122.0918665,,0.0012330236,0.1,76.51459,1590084587437
Fix,GT,37.4243456,-122.0918665,,0.0005625689,0.1,76.51462,1590084588437
Fix,GT,37.4243456,-122.0918665,,0.00043743115,0.1,76.51428,1590084589437
Fix,GT,37.4243456,-122.0918665,,0.00056256895,0.1,76.51349,1590084590437
Fix,GT,37.4243456,-122.0918665,,0.0015771801,0.1,76.51276,1590084591437
Fix,GT,37.4243456,-122.0918665,,0.003006497,0.1,76.51294,1590084592437
Fix,GT,37.4243456,-122.0918665,,0.0032141935,0.1,76.51315,1590084593437
Fix,GT,37.4243456,-122.0918665,,0.0038991633,0.1,76.51285,1590084594437
Fix,GT,37.4243456,-122.0918665,,0.0035825735,0.1,76.512665,1590084595437
Fix,GT,37.4243456,-122.0918665,,0.0036318246,0.1,76.512054,1590084596437
Fix,GT,37.4243456,-122.0918665,,0.0023063282,0.1,76.51141,1590084597437
Fix,GT,37.4243456,-122.0918665,,0.0012330238,0.1,76.510376,1590084598437
Fix,GT,37.4243456,-122.0918665,,0.001,0.1,76.50949,1590084599437
Fix,GT,37.4243456,-122.0918665,,0.0011811897,0.1,76.50934,1590084600437
Fix,GT,37.4243456,-122.0918665,,0.0012330238,0.1,76.5094,1590084601437
Fix,GT,37.4243456,-122.0918665,,0.001,0.1,76.50897,1590084602437
Fix,GT,37.4243456,-122.0918665,,0.0018748613,0.1,76.50888,1590084603437
Fix,GT,37.4243456,-122.0918665,,0.0026658326,0.1,76.50864,1590084604437
Fix,GT,37.4243456,-122.0918665,,0.002236068,0.1,76.50818,1590084605437
Fix,GT,37.4243456,-122.0918665,,0.002835122,0.1,76.50769,1590084606437
Fix,GT,37.4243456,-122.0918665,,0.0030064976,0.1,76.507385,1590084607437
Fix,GT,37.4243456,-122.0918665,,0.0016953743,0.1,76.506836,1590084608437
Fix,GT,37.4243456,-122.0918665,,0.0011811897,0.1,76.506226,1590084609437
Fix,GT,37.4243456,-122.0918665,,0.0012330239,0.1,76.506134,1590084610437
Fix,GT,37.4243456,-122.0918665,,0.0015406937,0.1,76.50595,1590084611437
Fix,GT,37.4243456,-122.0918665,,0.0024951838,0.1,76.50568,1590084612437
Fix,GT,37.4243456,-122.0918665,,0.0028284271,0.1,76.50519,1590084613437
Fix,GT,37.4243456,-122.0918665,,0.002466048,0.1,76.50479,1590084614437
Fix,GT,37.4243456,-122.0918665,,0.0017437594,0.1,76.50464,1590084615437
Fix,GT,37.4243456,-122.0918665,,0.0017737176,0.1,76.50427,1590084616437
Fix,GT,37.4243456,-122.0918665,,0.0016953744,0.1,76.50403,1590084617437
Fix,GT,37.4243456,-122.0918665,,0.001,0.1,76.50372,1590084618437
Fix,GT,37.4243456,-122.0918665,,0.0015406935,0.1,76.50348,1590084619437
Fix,GT,37.4243456,-122.0918665,,0.0018765642,0.1,76.503204,1590084620437
Fix,GT,37.4243456,-122.0918665,,0.0017737173,0.1,76.50247,1590084621437
Fix,GT,37.4243456,-122.0918665,,0.0016953746,0.1,76.50214,1590084622437
Fix,GT,37.4243456,-122.0918665,,0.001,0.1,76.50226,1590084623437
Fix,GT,37.4243456,-122.0918665,,0.00056256994,0.1,76.50198,1590084624437
Fix,GT,37.4243456,-122.0918665,,0.0,0.1,76.501526,1590084625437
Fix,GT,37.4243456,-122.0918665,,0.0,0.1,76.501465,1590084626437
Fix,GT,37.4243456,-122.0918665,,0.00043743005,0.1,76.50168,1590084627437
Fix,GT,37.4243456,-122.0918665,,0.0015406932,0.1,76.50171,1590084628437
Fix,GT,37.4243456,-122.0918665,,0.0022360678,0.1,76.501465,1590084629437
Fix,GT,37.4243456,-122.0918665,,0.0021328048,0.1,76.5011,1590084630437
Fix,GT,37.4243456,-122.0918665,,0.002,0.1,76.50073,1590084631437
Fix,GT,37.4243456,-122.0918665,,0.002,0.1,76.50058,1590084632437
Fix,GT,37.4243456,-122.0918665,,0.002103263,0.1,76.5004,1590084633437
Fix,GT,37.4243456,-122.0918665,,0.0016953748,0.1,76.50003,1590084634437
Fix,GT,37.4243456,-122.0918665,,0.0011811894,0.1,76.499756,1590084635437
Fix,GT,37.4243456,-122.0918665,,0.0012330243,0.1,76.49957,1590084636437
Fix,GT,37.4243456,-122.0918665,,0.0011811894,0.1,76.4993,1590084637437
Fix,GT,37.4243456,-122.0918665,,0.0012330243,0.1,76.49893,1590084638437
Fix,GT,37.4243456,-122.0918665,,0.001,0.1,76.498535,1590084639437
Fix,GT,37.4243456,-122.0918665,,0.001,0.1,76.497925,1590084640437
Fix,GT,37.4243456,-122.0918665,,0.001,0.1,76.497314,1590084641437
Fix,GT,37.4243456,-122.0918665,,0.001540693,0.1,76.49707,1590084642437
Fix,GT,37.4243456,-122.0918665,,0.0016953751,0.1,76.49722,1590084643437
Fix,GT,37.4243456,-122.0918665,,0.001,0.1,76.497314,1590084644437
Fix,GT,37.4243456,-122.0918665,,0.001,0.1,76.497314,1590084645437
Fix,GT,37.4243456,-122.0918665,,0.0011811893,0.1,76.497406,1590084646437
Fix,GT,37.4243456,-122.0918665,,0.0012330243,0.1,76.49744,1590084647437
Fix,GT,37.4243456,-122.0918665,,0.0011811894,0.1,76.497314,1590084648437
Fix,GT,37.4243456,-122.0918665,,0.0017737171,0.1,76.49722,1590084649437
Fix,GT,37.4243456,-122.0918665,,0.0016953752,0.1,76.4971,1590084650437
Fix,GT,37.4243456,-122.0918665,,0.001,0.1,76.49664,1590084651437
Fix,GT,37.4243456,-122.0918665,,0.001,0.1,76.49631,1590084652437
Fix,GT,37.4243456,-122.0918665,,0.00056257035,0.1,76.4964,1590084653437
Fix,GT,37.4243456,-122.0918665,,0.00043742967,0.1,76.49606,1590084654437
Fix,GT,37.4243456,-122.0918665,,0.0014374297,0.1,76.495514,1590084655437
Fix,GT,37.4243456,-122.0918665,,0.0015625705,0.1,76.49548,1590084656437
Fix,GT,37.4243456,-122.0918665,,0.0011811892,0.1,76.49521,1590084657437
Fix,GT,37.4243456,-122.0918665,,0.0017737171,0.1,76.494934,1590084658437
Fix,GT,37.4243456,-122.0918665,,0.0018765645,0.1,76.49478,1590084659437
Fix,GT,37.4243456,-122.0918665,,0.0014142136,0.1,76.49451,1590084660437
Fix,GT,37.4243456,-122.0918665,,0.002599163,0.1,76.49393,1590084661437
Fix,GT,37.4243456,-122.0918665,,0.003556775,0.1,76.49368,1590084662437
Fix,GT,37.4243456,-122.0918665,,0.0025693118,0.1,76.49344,1590084663437
Fix,GT,37.4243456,-122.0918665,,0.0024951836,0.1,76.49286,1590084664437
Fix,GT,37.4243456,-122.0918665,,0.0025693118,0.1,76.49246,1590084665437
Fix,GT,37.4243456,-122.0918665,,0.0016953754,0.1,76.49225,1590084666437
Fix,GT,37.4243456,-122.0918665,,0.0015406928,0.1,76.49191,1590084667437
Fix,GT,37.4243456,-122.0918665,,0.0026412194,0.1,76.491516,1590084668437
Fix,GT,37.4243456,-122.0918665,,0.0031622776,0.1,76.49094,1590084669437
Fix,GT,37.4243456,-122.0918665,,0.0033561788,0.1,76.49011,1590084670437
Fix,GT,37.4243456,-122.0918665,,0.0032656142,0.1,76.48944,1590084671437
Fix,GT,37.4243456,-122.0918665,,0.0025693118,0.1,76.48938,1590084672437
Fix,GT,37.4243456,-122.0918665,,0.0022360678,0.1,76.48895,1590084673437
Fix,GT,37.4243456,-122.0918665,,0.0022360678,0.1,76.48859,1590084674437
Fix,GT,37.4243456,-122.0918665,,0.0016953753,0.1,76.48859,1590084675437
Fix,GT,37.4243456,-122.0918665,,0.0019458442,0.1,76.48822,1590084676437
Fix,GT,37.4243456,-122.0918665,,0.002757126,0.1,76.48779,1590084677437
Fix,GT,37.4243456,-122.0918665,,0.0026412194,0.1,76.48724,1590084678437
Fix,GT,37.4243456,-122.0918665,,0.0023976227,0.1,76.486694,1590084679437
Fix,GT,37.4243456,-122.0918665,,0.0017737169,0.1,76.48663,1590084680437
Fix,GT,37.4243456,-122.0918665,,0.0016953753,0.1,76.48639,1590084681437
Fix,GT,37.4243456,-122.0918665,,0.0019458442,0.1,76.48572,1590084682437
Fix,GT,37.4243456,-122.0918665,,0.002757126,0.1,76.48517,1590084683437
Fix,GT,37.4243456,-122.0918665,,0.0016953753,0.1,76.48483,1590084684437
Fix,GT,37.4243456,-122.0918665,,0.0014374296,0.1,76.484406,1590084685437
Fix,GT,37.4243456,-122.0918665,,0.0011251412,0.1,76.4837,1590084686437
Fix,GT,37.4243456,-122.0918665,,0.000978122,0.1,76.4834,1590084687437
Fix,GT,37.4243456,-122.0918665,,0.0022360678,0.1,76.48367,1590084688437
Fix,GT,37.4243456,-122.0918665,,0.0024951831,0.1,76.48364,1590084689437
Fix,GT,37.4243456,-122.0918665,,0.0029744632,0.1,76.48337,1590084690437
Fix,GT,37.4243456,-122.0918665,,0.0033561788,0.1,76.48312,1590084691437
Fix,GT,37.4243456,-122.0918665,,0.0026469957,0.1,76.48279,1590084692437
Fix,GT,37.4243456,-122.0918665,,0.0012330243,0.1,76.48233,1590084693437
Fix,GT,37.4243456,-122.0918665,,0.0011811892,0.1,76.48193,1590084694437
Fix,GT,37.4243456,-122.0918665,,0.0012330243,0.1,76.48169,1590084695437
Fix,GT,37.4243456,-122.0918665,,0.0011811892,0.1,76.48117,1590084696437
Fix,GT,37.4243456,-122.0918665,,0.0012330243,0.1,76.480896,1590084697437
Fix,GT,37.4243456,-122.0918665,,0.0015406925,0.1,76.480896,1590084698437
Fix,GT,37.4243456,-122.0918665,,0.0016953754,0.1,76.48053,1590084699437
Fix,GT,37.4243456,-122.0918665,,0.0011811892,0.1,76.479706,1590084700437
Fix,GT,37.4243456,-122.0918665,,0.0016704538,0.1,76.47876,1590084701437
Fix,GT,37.4243456,-122.0918665,,0.0019999999,0.1,76.478546,1590084702437
Fix,GT,37.4243456,-122.0918665,,0.002103263,0.1,76.47876,1590084703437
Fix,GT,37.4243456,-122.0918665,,0.0016953754,0.1,76.478516,1590084704437
Fix,GT,37.4243456,-122.0918665,,0.00056257047,0.1,76.47797,1590084705437
Fix,GT,37.4243456,-122.0918665,,0.0006186188,0.1,76.47766,1590084706437
Fix,GT,37.4243456,-122.0918665,,0.001773717,0.1,76.4772,1590084707437
Fix,GT,37.4243456,-122.0918665,,0.002236068,0.1,76.476715,1590084708437
Fix,GT,37.4243456,-122.0918665,,0.0025702345,0.1,76.476105,1590084709437
Fix,GT,37.4243456,-122.0918665,,0.002125141,0.1,76.47604,1590084710437
Fix,GT,37.4243456,-122.0918665,,0.001,0.1,76.47577,1590084711437
Fix,GT,37.4243456,-122.0918665,,0.001,0.1,76.47513,1590084712437
Fix,GT,37.4243456,-122.0918665,,0.001,0.1,76.47452,1590084713437
Fix,GT,37.4243456,-122.0918665,,0.001,0.1,76.474,1590084714437
Fix,GT,37.4243456,-122.0918665,,0.0015406928,0.1,76.47357,1590084715437
Fix,GT,37.4243456,-122.0918665,,0.0026412196,0.1,76.47333,1590084716437
Fix,GT,37.4243456,-122.0918665,,0.0023976227,0.1,76.473175,1590084717437
Fix,GT,37.4243456,-122.0918665,,0.0014142136,0.1,76.47272,1590084718437
Fix,GT,37.4243456,-122.0918665,,0.0017737171,0.1,76.47235,1590084719437
Fix,GT,37.4243456,-122.0918665,,0.002236068,0.1,76.47217,1590084720437
Fix,GT,37.4243456,-122.0918665,,0.0018765645,0.1,76.471344,1590084721437
Fix,GT,37.4243456,-122.0918665,,0.0020328325,0.1,76.47073,1590084722437
Fix,GT,37.4243456,-122.0918665,,0.0025693118,0.1,76.47064,1590084723437
Fix,GT,37.4243456,-122.0918665,,0.0012579456,0.1,76.470184,1590084724437
Fix,GT,37.4243456,-122.0918665,,0.00043742967,0.1,76.46942,1590084725437
Fix,GT,37.4243456,-122.0918665,,0.0018748592,0.1,76.46912,1590084726437
Fix,GT,37.4243456,-122.0918665,,0.003,0.1,76.46884,1590084727437
Fix,GT,37.4243456,-122.0918665,,0.0026658336,0.1,76.46863,1590084728437
Fix,GT,37.4243456,-122.0918665,,0.0018765645,0.1,76.46854,1590084729437
Fix,GT,37.4243456,-122.0918665,,0.0014142136,0.1,76.46832,1590084730437
Fix,GT,37.4243456,-122.0918665,,0.0014142136,0.1,76.46771,1590084731437
Fix,GT,37.4243456,-122.0918665,,0.0017737171,0.1,76.4671,1590084732437
Fix,GT,37.4243456,-122.0918665,,0.0021328048,0.1,76.46643,1590084733437
Fix,GT,37.4243456,-122.0918665,,0.0015625705,0.1,76.46539,1590084734437
Fix,GT,37.4243456,-122.0918665,,0.001,0.1,76.464966,1590084735437
Fix,GT,37.4243456,-122.0918665,,0.0017998083,0.1,76.46478,1590084736437
Fix,GT,37.4243456,-122.0918665,,0.0022098082,0.1,76.46411,1590084737437
Fix,GT,37.4243456,-122.0918665,,0.0016704539,0.1,76.46344,1590084738437
Fix,GT,37.4243456,-122.0918665,,0.0015625705,0.1,76.46332,1590084739437
Fix,GT,37.4243456,-122.0918665,,0.001540693,0.1,76.46301,1590084740437
Fix,GT,37.4243456,-122.0918665,,0.0025702347,0.1,76.4624,1590084741437
Fix,GT,37.4243456,-122.0918665,,0.0032648863,0.1,76.46179,1590084742437
Fix,GT,37.4243456,-122.0918665,,0.0034116502,0.1,76.46149,1590084743437
Fix,GT,37.4243456,-122.0918665,,0.0023976224,0.1,76.461,1590084744437
Fix,GT,37.4243456,-122.0918665,,0.0014142136,0.1,76.46063,1590084745437
Fix,GT,37.4243456,-122.0918665,,0.00079559453,0.1,76.46039,1590084746437
Fix,GT,37.4243456,-122.0918665,,0.0009781226,0.1,76.459595,1590084747437
Fix,GT,37.4243456,-122.0918665,,0.0018765645,0.1,76.45917,1590084748437
Fix,GT,37.4243456,-122.0918665,,0.00079559453,0.1,76.45883,1590084749437
Fix,GT,37.4243456,-122.0918665,,0.0,0.1,76.45868,1590084750437
Fix,GT,37.4243456,-122.0918665,,0.0013122893,0.1,76.45859,1590084751437
Fix,GT,37.4243456,-122.0918665,,0.0026658336,0.1,76.458496,1590084752437
Fix,GT,37.4243456,-122.0918665,,0.0021328048,0.1,76.45813,1590084753437
Fix,GT,37.4243456,-122.0918665,,0.0015625702,0.1,76.45801,1590084754437
Fix,GT,37.4243456,-122.0918665,,0.001,0.1,76.45801,1590084755437
Fix,GT,37.4243456,-122.0918665,,0.0011811893,0.1,76.45752,1590084756437
Fix,GT,37.4243456,-122.0918665,,0.0021078838,0.1,76.45697,1590084757437
Fix,GT,37.4243456,-122.0918665,,0.003070985,0.1,76.45676,1590084758437
Fix,GT,37.4243456,-122.0918665,,0.0023976224,0.1,76.45648,1590084759437
Fix,GT,37.4243456,-122.0918665,,0.0014142136,0.1,76.456116,1590084760437
Fix,GT,37.4243456,-122.0918665,,0.0014142136,0.1,76.45563,1590084761437
Fix,GT,37.4243456,-122.0918665,,0.0017737171,0.1,76.454865,1590084762437
Fix,GT,37.4243456,-122.0918665,,0.0024951836,0.1,76.45456,1590084763437
Fix,GT,37.4243456,-122.0918665,,0.0028284271,0.1,76.4541,1590084764437
Fix,GT,37.4243456,-122.0918665,,0.0025693115,0.1,76.4534,1590084765437
Fix,GT,37.4243456,-122.0918665,,0.0026412196,0.1,76.45276,1590084766437
Fix,GT,37.4243456,-122.0918665,,0.0023976224,0.1,76.45212,1590084767437
Fix,GT,37.4243456,-122.0918665,,0.0017737171,0.1,76.45163,1590084768437
Fix,GT,37.4243456,-122.0918665,,0.002236068,0.1,76.451324,1590084769437
Fix,GT,37.4243456,-122.0918665,,0.0018765645,0.1,76.45148,1590084770437
Fix,GT,37.4243456,-122.0918665,,0.0012330243,0.1,76.451355,1590084771437
Fix,GT,37.4243456,-122.0918665,,0.001,0.1,76.4509,1590084772437
Fix,GT,37.4243456,-122.0918665,,0.0014374298,0.1,76.450745,1590084773437
Fix,GT,37.4243456,-122.0918665,,0.002,0.1,76.45065,1590084774437
Fix,GT,37.4243456,-122.0918665,,0.0021032633,0.1,76.45059,1590084775437
Fix,GT,37.4243456,-122.0918665,,0.0026412199,0.1,76.45044,1590084776437
Fix,GT,37.4243456,-122.0918665,,0.002216433,0.1,76.45029,1590084777437
Fix,GT,37.4243456,-122.0918665,,0.0014374299,0.1,76.450134,1590084778437
Fix,GT,37.4243456,-122.0918665,,0.00243743,0.1,76.45026,1590084779437
Fix,GT,37.4243456,-122.0918665,,0.0021251405,0.1,76.44995,1590084780437
Fix,GT,37.4243456,-122.0918665,,0.001,0.1,76.449066,1590084781437
Fix,GT,37.4243456,-122.0918665,,0.002139746,0.1,76.44821,1590084782437
Fix,GT,37.4243456,-122.0918665,,0.0034116504,0.1,76.44751,1590084783437
Fix,GT,37.4243456,-122.0918665,,0.0031622779,0.1,76.447205,1590084784437
Fix,GT,37.4243456,-122.0918665,,0.0030912927,0.1,76.447205,1590084785437
Fix,GT,37.4243456,-122.0918665,,0.0026658336,0.1,76.44696,1590084786437
Fix,GT,37.4243456,-122.0918665,,0.0018765645,0.1,76.4469,1590084787437
Fix,GT,37.4243456,-122.0918665,,0.0014142136,0.1,76.446594,1590084788437
Fix,GT,37.4243456,-122.0918665,,0.0007955944,0.1,76.44595,1590084789437
Fix,GT,37.4243456,-122.0918665,,0.00043742984,0.1,76.446014,1590084790437
Fix,GT,37.4243456,-122.0918665,,0.001540693,0.1,76.446075,1590084791437
Fix,GT,37.4243456,-122.0918665,,0.0025702347,0.1,76.44595,1590084792437
Fix,GT,37.4243456,-122.0918665,,0.0016877105,0.1,76.44571,1590084793437
Fix,GT,37.4243456,-122.0918665,,0.0006186192,0.1,76.445496,1590084794437
Fix,GT,37.4243456,-122.0918665,,0.0017737173,0.1,76.44519,1590084795437
Fix,GT,37.4243456,-122.0918665,,0.002835121,0.1,76.44473,1590084796437
Fix,GT,37.4243456,-122.0918665,,0.0036055516,0.1,76.44449,1590084797437
Fix,GT,37.4243456,-122.0918665,,0.0029032354,0.1,76.44412,1590084798437
Fix,GT,37.4243456,-122.0918665,,0.0017437595,0.1,76.44412,1590084799437
Fix,GT,37.4243456,-122.0918665,,0.0017737173,0.1,76.444214,1590084800437
Fix,GT,37.4243456,-122.0918665,,0.001695375,0.1,76.443665,1590084801437
Fix,GT,37.4243456,-122.0918665,,0.002139746,0.1,76.44321,1590084802437
Fix,GT,37.4243456,-122.0918665,,0.0029032354,0.1,76.44275,1590084803437
Fix,GT,37.4243456,-122.0918665,,0.002103263,0.1,76.44205,1590084804437
Fix,GT,37.4243456,-122.0918665,,0.0021328048,0.1,76.44174,1590084805437
Fix,GT,37.4243456,-122.0918665,,0.0027023163,0.1,76.44174,1590084806437
Fix,GT,37.4243456,-122.0918665,,0.0036055516,0.1,76.44116,1590084807437
Fix,GT,37.4243456,-122.0918665,,0.003265614,0.1,76.44055,1590084808437
Fix,GT,37.4243456,-122.0918665,,0.0022098077,0.1,76.440765,1590084809437
Fix,GT,37.4243456,-122.0918665,,0.001670454,0.1,76.44061,1590084810437
Fix,GT,37.4243456,-122.0918665,,0.002,0.1,76.44028,1590084811437
Fix,GT,37.4243456,-122.0918665,,0.0015625701,0.1,76.440155,1590084812437
Fix,GT,37.4243456,-122.0918665,,0.001,0.1,76.43994,1590084813437
Fix,GT,37.4243456,-122.0918665,,0.001540693,0.1,76.43985,1590084814437
Fix,GT,37.4243456,-122.0918665,,0.001257945,0.1,76.439575,1590084815437
Fix,GT,37.4243456,-122.0918665,,0.0,0.1,76.43927,1590084816437
Fix,GT,37.4243456,-122.0918665,,0.000978123,0.1,76.43915,1590084817437
Fix,GT,37.4243456,-122.0918665,,0.001695375,0.1,76.438934,1590084818437
Fix,GT,37.4243456,-122.0918665,,0.0015406932,0.1,76.43866,1590084819437
Fix,GT,37.4243456,-122.0918665,,0.0024951836,0.1,76.43848,1590084820437
Fix,GT,37.4243456,-122.0918665,,0.0024660483,0.1,76.43848,1590084821437
Fix,GT,37.4243456,-122.0918665,,0.0030813864,0.1,76.43829,1590084822437
Fix,GT,37.4243456,-122.0918665,,0.0042656097,0.1,76.43747,1590084823437
Fix,GT,37.4243456,-122.0918665,,0.003487519,0.1,76.43692,1590084824437
Fix,GT,37.4243456,-122.0918665,,0.0029744634,0.1,76.43683,1590084825437
Fix,GT,37.4243456,-122.0918665,,0.0035825726,0.1,76.43649,1590084826437
Fix,GT,37.4243456,-122.0918665,,0.003702811,0.1,76.43616,1590084827437
Fix,GT,37.4243456,-122.0918665,,0.0026538626,0.1,76.43628,1590084828437
Fix,GT,37.4243456,-122.0918665,,0.0015625701,0.1,76.43634,1590084829437
Fix,GT,37.4243456,-122.0918665,,0.0011811894,0.1,76.43646,1590084830437
Fix,GT,37.4243456,-122.0918665,,0.0014142136,0.1,76.436035,1590084831437
Fix,GT,37.4243456,-122.0918665,,0.0014142136,0.1,76.43506,1590084832437
Fix,GT,37.4243456,-122.0918665,,0.0014142136,0.1,76.434326,1590084833437
Fix,GT,37.4243456,-122.0918665,,0.0016704542,0.1,76.43396,1590084834437
Fix,GT,37.4243456,-122.0918665,,0.0025084151,0.1,76.433624,1590084835437
Fix,GT,37.4243456,-122.0918665,,0.0061751194,0.1,76.43393,1590084836437
Fix,GT,37.4243456,-122.0918665,,0.007610005,0.1,76.43396,1590084837437
Fix,GT,37.4243456,-122.0918665,,0.0052824398,0.1,76.43289,1590084838437
Fix,GT,37.4243456,-122.0918665,,0.005514251,0.1,76.432434,1590084839437
Fix,GT,37.4243456,-122.0918665,,0.005066523,0.1,76.431244,1590084840437
Fix,GT,37.4243456,-122.0918665,,0.004857495,0.1,76.42963,1590084841437
Fix,GT,37.4243456,-122.0918665,,0.0032656137,0.1,76.42908,1590084842437
Fix,GT,37.4243456,-122.0918665,,0.0028284271,0.1,76.42923,1590084843437
Fix,GT,37.4243456,-122.0918665,,0.0029744632,0.1,76.429565,1590084844437
Fix,GT,37.4243456,-122.0918665,,0.0033561788,0.1,76.429565,1590084845437
Fix,GT,37.4243456,-122.0918665,,0.003831945,0.1,76.42917,1590084846437
Fix,GT,37.4243456,-122.0918665,,0.0045066853,0.1,76.428894,1590084847437
Fix,GT,37.4243456,-122.0918665,,0.005,0.1,76.428925,1590084848437
Fix,GT,37.4243456,-122.0918665,,0.0051684827,0.1,76.42883,1590084849437
Fix,GT,37.4243456,-122.0918665,,0.005216682,0.1,76.42862,1590084850437
Fix,GT,37.4243456,-122.0918665,,0.005,0.1,76.42822,1590084851437
Fix,GT,37.4243456,-122.0918665,,0.004769096,0.1,76.42807,1590084852437
Fix,GT,37.4243456,-122.0918665,,0.004472136,0.1,76.42798,1590084853437
Fix,GT,37.4243456,-122.0918665,,0.005450259,0.1,76.427734,1590084854437
Fix,GT,37.4243456,-122.0918665,,0.005960984,0.1,76.42703,1590084855437
Fix,GT,37.4243456,-122.0918665,,0.00461642,0.1,76.42621,1590084856437
Fix,GT,37.4243456,-122.0918665,,0.0045499997,0.1,76.425934,1590084857437
Fix,GT,37.4243456,-122.0918665,,0.0055293385,0.1,76.42587,1590084858437
Fix,GT,37.4243456,-122.0918665,,0.0056524435,0.1,76.42575,1590084859437
Fix,GT,37.4243456,-122.0918665,,0.005055705,0.1,76.42551,1590084860437
Fix,GT,37.4243456,-122.0918665,,0.005043314,0.1,76.42514,1590084861437
Fix,GT,37.4243456,-122.0918665,,0.005669474,0.1,76.424835,1590084862437
Fix,GT,37.4243456,-122.0918665,,0.0060766833,0.1,76.42511,1590084863437
Fix,GT,37.4243456,-122.0918665,,0.0050382344,0.1,76.42587,1590084864437
Fix,GT,37.4243456,-122.0918665,,0.00486126,0.1,76.426025,1590084865437
Fix,GT,37.4243456,-122.0918665,,0.0057330094,0.1,76.42578,1590084866437
Fix,GT,37.4243456,-122.0918665,,0.005467469,0.1,76.4259,1590084867437
Fix,GT,37.4243456,-122.0918665,,0.005,0.1,76.425476,1590084868437
Fix,GT,37.4243456,-122.0918665,,0.00456257,0.1,76.424835,1590084869437
Fix,GT,37.4243456,-122.0918665,,0.0038274564,0.1,76.42462,1590084870437
Fix,GT,37.4243456,-122.0918665,,0.004215525,0.1,76.42441,1590084871437
Fix,GT,37.4243456,-122.0918665,,0.004668708,0.1,76.42383,1590084872437
Fix,GT,37.4243456,-122.0918665,,0.0043430286,0.1,76.423096,1590084873437
Fix,GT,37.4243456,-122.0918665,,0.005066523,0.1,76.42255,1590084874437
Fix,GT,37.4243456,-122.0918665,,0.0056359516,0.1,76.42291,1590084875437
Fix,GT,37.4243456,-122.0918665,,0.0046067084,0.1,76.423065,1590084876437
Fix,GT,37.4243456,-122.0918665,,0.0036055516,0.1,76.42261,1590084877437
Fix,GT,37.4243456,-122.0918665,,0.0036055516,0.1,76.42258,1590084878437
Fix,GT,37.4243456,-122.0918665,,0.0037780954,0.1,76.42264,1590084879437
Fix,GT,37.4243456,-122.0918665,,0.004,0.1,76.42255,1590084880437
Fix,GT,37.4243456,-122.0918665,,0.004,0.1,76.422485,1590084881437
Fix,GT,37.4243456,-122.0918665,,0.0036335553,0.1,76.42236,1590084882437
Fix,GT,37.4243456,-122.0918665,,0.0031622779,0.1,76.42963,1590084883437
Fix,GT,37.4243456,-122.0918665,,0.0049635414,0.1,76.43555,1590084884437
Fix,GT,37.4243458,-122.0918664,,0.091778204,0.1,76.15051,1590084885437
Fix,GT,37.4243473,-122.0918641,,0.4641343,0.1,73.608734,1590084886437
Fix,GT,37.4243522,-122.0918577,,1.0892272,0.1,65.657196,1590084887437
Fix,GT,37.4243623,-122.0918474,,1.9686408,0.1,53.01114,1590084888437
Fix,GT,37.4243812,-122.0918319,,3.3405552,0.1,40.38141,1590084889437
Fix,GT,37.4244125,-122.0918083,,4.8118773,0.1,32.58249,1590084890437
Fix,GT,37.4244545,-122.0917787,,5.865184,0.1,28.927795,1590084891437
Fix,GT,37.4245045,-122.0917488,,6.4278803,0.1,24.836914,1590084892437
Fix,GT,37.4245583,-122.0917209,,6.445966,0.1,21.864838,1590084893437
Fix,GT,37.4246103,-122.0916952,,5.835457,0.1,21.352142,1590084894437
Fix,GT,37.4246534,-122.0916734,,4.3619967,0.1,21.819519,1590084895437
Fix,GT,37.4246836,-122.0916566,,2.997065,0.1,23.744019,1590084896437
Fix,GT,37.4247047,-122.0916386,,2.6612306,0.1,33.114716,1590084897437
Fix,GT,37.4247183,-122.0916104,,2.9372916,0.1,54.57541,1590084898437
Fix,GT,37.4247207,-122.091568,,4.2353363,0.1,81.57672,1590084899437
Fix,GT,37.4247107,-122.0915091,,6.044482,0.1,101.285095,1590084900437
Fix,GT,37.4246907,-122.0914338,,7.8537626,0.1,108.83212,1590084901437
Fix,GT,37.4246622,-122.0913419,,9.510628,0.1,112.18454,1590084902437
Fix,GT,37.424623,-122.0912372,,10.853304,0.1,116.55521,1590084903437
Fix,GT,37.4245732,-122.0911257,,11.638937,0.1,120.65933,1590084904437
Fix,GT,37.4245161,-122.0910124,,12.035894,0.1,123.22238,1590084905437
Fix,GT,37.4244532,-122.090899,,12.288033,0.1,125.88483,1590084906437
Fix,GT,37.4243852,-122.090789,,12.229795,0.1,128.9888,1590084907437
Fix,GT,37.4243135,-122.0906857,,11.979231,0.1,132.12161,1590084908437
Fix,GT,37.4242397,-122.0905891,,11.698302,0.1,134.6665,1590084909437
Fix,GT,37.4241649,-122.0904987,,11.281017,0.1,136.91446,1590084910437
Fix,GT,37.4240903,-122.0904183,,10.372104,0.1,141.00061,1590084911437
Fix,GT,37.424019,-122.0903568,,8.6547,0.1,148.52887,1590084912437
Fix,GT,37.4239573,-122.0903203,,6.342494,0.1,157.96082,1590084913437
Fix,GT,37.4239121,-122.0903047,,3.8885407,0.1,166.38916,1590084914437
Fix,GT,37.4238859,-122.0903001,,2.0957665,0.1,171.61163,1590084915437
Fix,GT,37.4238691,-122.0903002,,1.9571528,0.1,176.86041,1590084916437
Fix,GT,37.4238467,-122.0903069,,3.135643,0.1,188.15672,1590084917437
Fix,GT,37.4238154,-122.090329,,4.511886,0.1,207.39056,1590084918437
Fix,GT,37.4237834,-122.0903734,,5.8041935,0.1,228.4149,1590084919437
Fix,GT,37.423753,-122.0904388,,7.447567,0.1,240.44786,1590084920437
Fix,GT,37.4237194,-122.0905225,,9.06172,0.1,243.6961,1590084921437
Fix,GT,37.4236823,-122.0906224,,10.392115,0.1,245.32623,1590084922437
Fix,GT,37.4236408,-122.0907342,,11.368576,0.1,244.2231,1590084923437
Fix,GT,37.4235918,-122.0908504,,11.914249,0.1,240.3736,1590084924437
Fix,GT,37.4235331,-122.090965,,12.313503,0.1,235.22672,1590084925437
Fix,GT,37.4234638,-122.0910757,,12.724855,0.1,229.57169,1590084926437
Fix,GT,37.423384,-122.0911809,,13.083731,0.1,224.37917,1590084927437
Fix,GT,37.4232961,-122.0912801,,13.208754,0.1,220.25723,1590084928437
Fix,GT,37.4232035,-122.0913719,,13.036535,0.1,216.78761,1590084929437
Fix,GT,37.4231091,-122.0914557,,12.643189,0.1,214.42151,1590084930437
Fix,GT,37.423018,-122.0915363,,12.095325,0.1,216.08931,1590084931437
Fix,GT,37.4229364,-122.0916229,,11.661501,0.1,222.73125,1590084932437
Fix,GT,37.4228664,-122.0917203,,11.594946,0.1,230.44409,1590084933437
Fix,GT,37.4228057,-122.0918294,,11.954588,0.1,236.73755,1590084934437
Fix,GT,37.4227513,-122.0919501,,12.535848,0.1,241.99991,1590084935437
Fix,GT,37.4227018,-122.0920816,,13.203793,0.1,245.18208,1590084936437
Fix,GT,37.4226519,-122.0922223,,13.999792,0.1,245.85526,1590084937437
Fix,GT,37.4225996,-122.0923702,,14.568686,0.1,245.61359,1590084938437
Fix,GT,37.4225452,-122.0925211,,14.654577,0.1,245.2481,1590084939437
Fix,GT,37.4224913,-122.0926707,,14.387977,0.1,245.8162,1590084940437
Fix,GT,37.4224416,-122.0928192,,14.129831,0.1,247.88145,1590084941437
Fix,GT,37.4223968,-122.0929679,,14.012291,0.1,249.69449,1590084942437
Fix,GT,37.4223551,-122.0931162,,13.76595,0.1,250.93948,1590084943437
Fix,GT,37.42232,-122.0932635,,13.388584,0.1,255.10287,1590084944437
Fix,GT,37.4222999,-122.0934122,,13.37499,0.1,263.76825,1590084945437
Fix,GT,37.4223021,-122.0935653,,13.780046,0.1,275.0292,1590084946437
Fix,GT,37.4223304,-122.0937205,,14.378573,0.1,286.9168,1590084947437
Fix,GT,37.4223835,-122.0938723,,14.918667,0.1,296.828,1590084948437
Fix,GT,37.4224549,-122.0940193,,15.538763,0.1,303.12573,1590084949437
Fix,GT,37.4225388,-122.0941668,,16.60989,0.1,306.37338,1590084950437
Fix,GT,37.4226343,-122.094322,,18.081844,0.1,308.07834,1590084951437
Fix,GT,37.4227411,-122.0944871,,19.508814,0.1,309.2224,1590084952437
Fix,GT,37.4228574,-122.0946615,,20.654373,0.1,309.94073,1590084953437
Fix,GT,37.4229804,-122.0948427,,21.401806,0.1,310.4028,1590084954437
Fix,GT,37.4231079,-122.095028,,21.90356,0.1,310.67932,1590084955437
Fix,GT,37.4232382,-122.0952168,,22.308823,0.1,310.67944,1590084956437
Fix,GT,37.4233715,-122.095409,,22.755156,0.1,311.02036,1590084957437
Fix,GT,37.4235091,-122.0956035,,23.234755,0.1,311.74875,1590084958437
Fix,GT,37.4236507,-122.0957995,,23.567268,0.1,312.1245,1590084959437
Fix,GT,37.4237944,-122.095997,,23.814281,0.1,312.14288,1590084960437
Fix,GT,37.42394,-122.0961973,,24.162907,0.1,312.15427,1590084961437
Fix,GT,37.4240871,-122.0964008,,24.49467,0.1,311.74478,1590084962437
Fix,GT,37.4242348,-122.0966093,,24.885134,0.1,311.16873,1590084963437
Fix,GT,37.4243846,-122.096822,,25.368282,0.1,311.4197,1590084964437
Fix,GT,37.4245395,-122.0970369,,25.877274,0.1,312.418,1590084965437
Fix,GT,37.424701,-122.0972521,,26.398983,0.1,313.6605,1590084966437
Fix,GT,37.4248695,-122.0974667,,26.892357,0.1,314.8672,1590084967437
Fix,GT,37.425044,-122.0976812,,27.318851,0.1,315.73276,1590084968437
Fix,GT,37.4252228,-122.0978959,,27.634468,0.1,316.3133,1590084969437
Fix,GT,37.4254053,-122.0981104,,27.846909,0.1,317.00412,1590084970437
Fix,GT,37.4255912,-122.0983233,,28.034826,0.1,317.88242,1590084971437
Fix,GT,37.4257811,-122.0985341,,28.22234,0.1,318.7212,1590084972437
Fix,GT,37.4259747,-122.0987425,,28.395489,0.1,319.64435,1590084973437
Fix,GT,37.4261719,-122.0989486,,28.568705,0.1,320.35516,1590084974437
Fix,GT,37.4263716,-122.0991536,,28.701214,0.1,320.63132,1590084975437
Fix,GT,37.4265722,-122.0993587,,28.732306,0.1,320.53543,1590084976437
Fix,GT,37.4267718,-122.0995649,,28.70197,0.1,320.14548,1590084977437
Fix,GT,37.4269703,-122.0997728,,28.686035,0.1,319.8173,1590084978437
Fix,GT,37.4271678,-122.0999813,,28.66254,0.1,319.69394,1590084979437
Fix,GT,37.427365,-122.1001902,,28.640446,0.1,319.58276,1590084980437
Fix,GT,37.4275619,-122.1003996,,28.672,0.1,319.48996,1590084981437
Fix,GT,37.4277589,-122.1006092,,28.694199,0.1,319.58975,1590084982437
Fix,GT,37.4279565,-122.1008185,,28.713562,0.1,319.66608,1590084983437
Fix,GT,37.4281545,-122.1010276,,28.733837,0.1,319.76062,1590084984437
Fix,GT,37.4283529,-122.1012364,,28.765726,0.1,319.87204,1590084985437
Fix,GT,37.4285519,-122.1014449,,28.785217,0.1,320.0151,1590084986437
Fix,GT,37.4287512,-122.1016528,,28.775532,0.1,320.06488,1590084987437
Fix,GT,37.42895,-122.1018613,,28.750189,0.1,319.79034,1590084988437
Fix,GT,37.429148,-122.1020706,,28.755226,0.1,319.6439,1590084989437
Fix,GT,37.4293463,-122.1022801,,28.802006,0.1,319.79486,1590084990437
Fix,GT,37.4295451,-122.1024893,,28.794468,0.1,319.8821,1590084991437
Fix,GT,37.4297434,-122.1026974,,28.591045,0.1,319.92844,1590084992437
Fix,GT,37.4299404,-122.102904,,28.43853,0.1,319.94092,1590084993437
Fix,GT,37.4301372,-122.1031106,,28.601524,0.1,319.89917,1590084994437
Fix,GT,37.4303356,-122.103319,,28.860773,0.1,319.90094,1590084995437
Fix,GT,37.4305358,-122.1035293,,29.099842,0.1,319.9145,1590084996437
Fix,GT,37.4307376,-122.1037413,,29.318993,0.1,319.88983,1590084997437
Fix,GT,37.4309406,-122.1039552,,29.510746,0.1,319.76825,1590084998437
Fix,GT,37.4311443,-122.1041706,,29.656162,0.1,319.71936,1590084999437
Fix,GT,37.431349,-122.1043871,,29.787178,0.1,319.6948,1590085000437
Fix,GT,37.4315543,-122.1046049,,29.906551,0.1,319.51294,1590085001437
Fix,GT,37.4317602,-122.104824,,30.047665,0.1,319.60123,1590085002437
Fix,GT,37.431968,-122.1050432,,30.235348,0.1,319.97983,1590085003437
Fix,GT,37.432178,-122.1052625,,30.446457,0.1,320.1462,1590085004437
Fix,GT,37.4323899,-122.105483,,30.66607,0.1,320.21124,1590085005437
Fix,GT,37.4326033,-122.105705,,30.893238,0.1,320.15277,1590085006437
Fix,GT,37.4328182,-122.1059291,,31.162018,0.1,320.00745,1590085007437
Fix,GT,37.4330348,-122.1061556,,31.403328,0.1,319.96368,1590085008437
Fix,GT,37.4332517,-122.1063832,,31.356562,0.1,319.9212,1590085009437
Fix,GT,37.4334672,-122.1066095,,30.996372,0.1,319.87506,1590085010437
Fix,GT,37.4336796,-122.106833,,30.538355,0.1,319.84988,1590085011437
Fix,GT,37.4338886,-122.1070532,,30.030779,0.1,319.8007,1590085012437
Fix,GT,37.4340939,-122.1072696,,29.455318,0.1,319.80756,1590085013437
Fix,GT,37.4342948,-122.1074808,,28.768564,0.1,319.9098,1590085014437
Fix,GT,37.4344911,-122.1076866,,28.06392,0.1,319.9682,1590085015437
Fix,GT,37.4346827,-122.1078873,,27.31292,0.1,319.9845,1590085016437
Fix,GT,37.434869,-122.1080821,,26.574287,0.1,320.1326,1590085017437
Fix,GT,37.4350514,-122.1082719,,26.104176,0.1,320.13516,1590085018437
Fix,GT,37.4352305,-122.1084595,,25.690731,0.1,319.7386,1590085019437
Fix,GT,37.4354052,-122.1086463,,25.294283,0.1,318.98035,1590085020437
Fix,GT,37.4355768,-122.1088342,,25.360909,0.1,318.58167,1590085021437
Fix,GT,37.4357504,-122.1090247,,25.8348,0.1,318.72928,1590085022437
Fix,GT,37.4359278,-122.1092179,,26.33078,0.1,318.99408,1590085023437
Fix,GT,37.436109,-122.1094141,,26.806318,0.1,319.0764,1590085024437
Fix,GT,37.4362935,-122.1096136,,27.263071,0.1,319.12692,1590085025437
Fix,GT,37.4364816,-122.1098158,,27.715578,0.1,319.39255,1590085026437
Fix,GT,37.4366735,-122.11002,,28.14544,0.1,319.70255,1590085027437
Fix,GT,37.436869,-122.110226,,28.530193,0.1,319.90335,1590085028437
Fix,GT,37.4370674,-122.1104341,,28.88099,0.1,320.0794,1590085029437
Fix,GT,37.4372688,-122.110644,,29.239178,0.1,320.17694,1590085030437
Fix,GT,37.4374728,-122.1108563,,29.585154,0.1,320.1337,1590085031437
Fix,GT,37.4376788,-122.1110712,,29.883839,0.1,320.0393,1590085032437
Fix,GT,37.4378863,-122.1112887,,30.140923,0.1,319.9053,1590085033437
Fix,GT,37.4380951,-122.1115085,,30.35534,0.1,319.77243,1590085034437
Fix,GT,37.4383047,-122.1117302,,30.520363,0.1,319.62836,1590085035437
Fix,GT,37.4385151,-122.1119536,,30.676945,0.1,319.62692,1590085036437
Fix,GT,37.4387268,-122.112178,,30.842747,0.1,319.72525,1590085037437
Fix,GT,37.4389401,-122.1124028,,30.995384,0.1,319.89227,1590085038437
Fix,GT,37.4391549,-122.1126278,,31.127964,0.1,320.08804,1590085039437
Fix,GT,37.4393709,-122.1128531,,31.233528,0.1,320.0945,1590085040437
Fix,GT,37.4395876,-122.1130792,,31.327627,0.1,320.07693,1590085041437
Fix,GT,37.4398049,-122.1133061,,31.424675,0.1,320.02606,1590085042437
Fix,GT,37.4400224,-122.1135344,,31.544325,0.1,319.84106,1590085043437
Fix,GT,37.4402396,-122.1137642,,31.517193,0.1,319.56934,1590085044437
Fix,GT,37.4404557,-122.1139939,,31.341604,0.1,319.5932,1590085045437
Fix,GT,37.4406716,-122.1142218,,31.34215,0.1,320.03702,1590085046437
Fix,GT,37.4408892,-122.1144489,,31.476246,0.1,320.2334,1590085047437
Fix,GT,37.4411079,-122.1146767,,31.650768,0.1,320.11142,1590085048437
Fix,GT,37.4413274,-122.1149066,,31.831352,0.1,319.91156,1590085049437
Fix,GT,37.4415477,-122.1151386,,31.990612,0.1,319.8132,1590085050437
Fix,GT,37.441769,-122.1153714,,32.121094,0.1,319.90564,1590085051437
Fix,GT,37.4419913,-122.1156049,,32.2384,0.1,319.99646,1590085052437
Fix,GT,37.4422144,-122.1158392,,32.357353,0.1,319.906,1590085053437
Fix,GT,37.4424382,-122.1160746,,32.48131,0.1,319.85263,1590085054437
Fix,GT,37.4426626,-122.1163114,,32.59887,0.1,319.7796,1590085055437
Fix,GT,37.4428878,-122.116549,,32.723385,0.1,319.8591,1590085056437
Fix,GT,37.4431142,-122.1167871,,32.854507,0.1,319.9846,1590085057437
Fix,GT,37.4433419,-122.1170255,,32.961945,0.1,320.06985,1590085058437
Fix,GT,37.4435704,-122.117264,,33.01454,0.1,320.15448,1590085059437
Fix,GT,37.4437992,-122.1175024,,33.00519,0.1,320.09732,1590085060437
Fix,GT,37.4440274,-122.1177414,,32.98543,0.1,319.8487,1590085061437
Fix,GT,37.4442546,-122.1179816,,32.985676,0.1,319.65967,1590085062437
Fix,GT,37.4444817,-122.1182227,,33.052315,0.1,319.69174,1590085063437
Fix,GT,37.4447099,-122.1184637,,33.164276,0.1,319.88452,1590085064437
Fix,GT,37.4449393,-122.1187045,,33.246387,0.1,320.02377,1590085065437
Fix,GT,37.4451694,-122.1189454,,33.289642,0.1,320.03345,1590085066437
Fix,GT,37.4453997,-122.1191864,,33.251476,0.1,319.99103,1590085067437
Fix,GT,37.4456291,-122.1194272,,33.13966,0.1,319.92163,1590085068437
Fix,GT,37.4458575,-122.1196675,,33.0443,0.1,319.8134,1590085069437
Fix,GT,37.4460847,-122.1199077,,32.96584,0.1,319.7239,1590085070437
Fix,GT,37.4463118,-122.1201472,,32.87173,0.1,319.92505,1590085071437
Fix,GT,37.4465387,-122.1203842,,32.61898,0.1,320.18964,1590085072437
Fix,GT,37.4467637,-122.1206183,,32.279957,0.1,320.15735,1590085073437
Fix,GT,37.4469863,-122.1208506,,32.021477,0.1,320.0302,1590085074437
Fix,GT,37.4472069,-122.1210818,,31.787012,0.1,319.89328,1590085075437
Fix,GT,37.4474258,-122.1213121,,31.601454,0.1,319.81396,1590085076437
Fix,GT,37.447643,-122.1215411,,31.37487,0.1,319.80774,1590085077437
Fix,GT,37.4478583,-122.121768,,31.029545,0.1,319.87515,1590085078437
Fix,GT,37.4480712,-122.1219915,,30.578432,0.1,320.02362,1590085079437
Fix,GT,37.448281,-122.1222111,,30.095833,0.1,320.02936,1590085080437
Fix,GT,37.4484875,-122.1224276,,29.637344,0.1,319.94983,1590085081437
Fix,GT,37.4486911,-122.122641,,29.261757,0.1,319.9636,1590085082437
Fix,GT,37.4488926,-122.122852,,28.9931,0.1,320.00366,1590085083437
Fix,GT,37.4490924,-122.123061,,28.757816,0.1,320.01395,1590085084437
Fix,GT,37.4492903,-122.1232683,,28.484556,0.1,319.96017,1590085085437
Fix,GT,37.449486,-122.1234741,,28.190336,0.1,319.84302,1590085086437
Fix,GT,37.4496795,-122.1236781,,27.930382,0.1,319.78442,1590085087437
Fix,GT,37.4498714,-122.1238808,,27.806767,0.1,319.77005,1590085088437
Fix,GT,37.4500634,-122.1240833,,27.912983,0.1,319.87512,1590085089437
Fix,GT,37.4502571,-122.1242868,,28.16846,0.1,320.07425,1590085090437
Fix,GT,37.4504523,-122.1244925,,28.420292,0.1,319.66043,1590085091437
Fix,GT,37.4506469,-122.1247032,,28.67995,0.1,318.52823,1590085092437
Fix,GT,37.4508403,-122.1249204,,28.945438,0.1,317.7101,1590085093437
Fix,GT,37.4510335,-122.125142,,29.176102,0.1,317.24783,1590085094437
Fix,GT,37.4512258,-122.1253675,,29.262932,0.1,316.23,1590085095437
Fix,GT,37.4514139,-122.1255983,,29.130066,0.1,314.70566,1590085096437
Fix,GT,37.4515956,-122.1258337,,28.868103,0.1,313.19705,1590085097437
Fix,GT,37.4517709,-122.1260719,,28.494759,0.1,312.04886,1590085098437
Fix,GT,37.4519404,-122.1263105,,28.089378,0.1,311.154,1590085099437
Fix,GT,37.4521048,-122.1265494,,27.821423,0.1,310.22714,1590085100437
Fix,GT,37.4522649,-122.1267903,,27.748398,0.1,309.26672,1590085101437
Fix,GT,37.452422,-122.127034,,27.722065,0.1,308.37057,1590085102437
Fix,GT,37.4525754,-122.1272798,,27.507103,0.1,307.49048,1590085103437
Fix,GT,37.4527239,-122.1275262,,27.161755,0.1,306.54562,1590085104437
Fix,GT,37.4528684,-122.1277728,,27.03073,0.1,305.9502,1590085105437
Fix,GT,37.4530121,-122.1280201,,27.176064,0.1,306.1453,1590085106437
Fix,GT,37.4531583,-122.1282682,,27.395735,0.1,306.4754,1590085107437
Fix,GT,37.4533057,-122.1285173,,27.455128,0.1,306.4022,1590085108437
Fix,GT,37.4534523,-122.128766,,27.259666,0.1,306.29413,1590085109437
Fix,GT,37.4535978,-122.1290125,,27.043486,0.1,306.33838,1590085110437
Fix,GT,37.4537423,-122.1292579,,26.945621,0.1,306.23007,1590085111437
Fix,GT,37.4538861,-122.1295031,,26.941826,0.1,306.0791,1590085112437
Fix,GT,37.45403,-122.1297491,,27.062798,0.1,306.1231,1590085113437
Fix,GT,37.4541748,-122.1299962,,27.181293,0.1,306.09512,1590085114437
Fix,GT,37.4543195,-122.1302444,,27.20272,0.1,305.87848,1590085115437
Fix,GT,37.4544639,-122.1304937,,27.352493,0.1,305.895,1590085116437
Fix,GT,37.45461,-122.1307452,,27.696709,0.1,305.97833,1590085117437
Fix,GT,37.4547579,-122.1309994,,27.966358,0.1,305.8761,1590085118437
Fix,GT,37.4549064,-122.1312561,,28.120075,0.1,305.7485,1590085119437
Fix,GT,37.4550554,-122.1315138,,28.21769,0.1,305.91843,1590085120437
Fix,GT,37.4552061,-122.1317714,,28.32619,0.1,306.31702,1590085121437
Fix,GT,37.4553586,-122.1320292,,28.50326,0.1,306.55246,1590085122437
Fix,GT,37.455513,-122.1322883,,28.738216,0.1,306.65588,1590085123437
Fix,GT,37.4556686,-122.1325493,,28.910961,0.1,306.60648,1590085124437
Fix,GT,37.4558246,-122.1328114,,28.96387,0.1,306.52036,1590085125437
Fix,GT,37.4559804,-122.1330741,,28.976402,0.1,306.42834,1590085126437
Fix,GT,37.456136,-122.1333373,,28.99692,0.1,306.3511,1590085127437
Fix,GT,37.4562914,-122.1336007,,28.972328,0.1,306.2782,1590085128437
Fix,GT,37.4564461,-122.1338634,,28.795267,0.1,306.2164,1590085129437
Fix,GT,37.4565991,-122.1341242,,28.507492,0.1,306.15515,1590085130437
Fix,GT,37.456751,-122.1343823,,28.285303,0.1,306.2614,1590085131437
Fix,GT,37.4569024,-122.134639,,28.257248,0.1,306.37708,1590085132437
Fix,GT,37.457054,-122.134896,,28.302025,0.1,306.36282,1590085133437
Fix,GT,37.4572056,-122.1351531,,28.286823,0.1,306.23212,1590085134437
Fix,GT,37.4573565,-122.1354108,,28.310349,0.1,306.08575,1590085135437
Fix,GT,37.4575074,-122.135669,,28.337248,0.1,306.14984,1590085136437
Fix,GT,37.4576586,-122.1359266,,28.216932,0.1,306.2412,1590085137437
Fix,GT,37.4578087,-122.1361819,,27.899754,0.1,306.25934,1590085138437
Fix,GT,37.4579573,-122.1364337,,27.542324,0.1,306.4167,1590085139437
Fix,GT,37.4581046,-122.1366825,,27.327047,0.1,306.44687,1590085140437
Fix,GT,37.458251,-122.13693,,27.208347,0.1,306.42838,1590085141437
Fix,GT,37.4583967,-122.137176,,27.01799,0.1,306.4687,1590085142437
Fix,GT,37.4585413,-122.1374201,,26.80577,0.1,306.41473,1590085143437
Fix,GT,37.4586846,-122.1376629,,26.670334,0.1,306.35583,1590085144437
Fix,GT,37.4588275,-122.1379051,,26.655602,0.1,306.3446,1590085145437
Fix,GT,37.4589703,-122.1381474,,26.668613,0.1,306.2705,1590085146437
Fix,GT,37.459113,-122.1383902,,26.697027,0.1,306.20584,1590085147437
Fix,GT,37.4592556,-122.1386334,,26.725079,0.1,306.16663,1590085148437
Fix,GT,37.4593982,-122.1388766,,26.692554,0.1,306.1692,1590085149437
Fix,GT,37.4595404,-122.1391193,,26.594227,0.1,306.10638,1590085150437
Fix,GT,37.4596817,-122.1393612,,26.470385,0.1,306.05936,1590085151437
Fix,GT,37.4598225,-122.1396018,,26.33714,0.1,306.19922,1590085152437
Fix,GT,37.4599632,-122.1398409,,26.261778,0.1,306.37598,1590085153437
Fix,GT,37.4601042,-122.1400793,,26.276203,0.1,306.42197,1590085154437
Fix,GT,37.4602452,-122.1403183,,26.374485,0.1,306.26077,1590085155437
Fix,GT,37.4603863,-122.1405589,,26.48573,0.1,306.14392,1590085156437
Fix,GT,37.4605278,-122.1408005,,26.543007,0.1,306.12564,1590085157437
Fix,GT,37.4606693,-122.1410421,,26.48304,0.1,306.14066,1590085158437
Fix,GT,37.4608102,-122.1412829,,26.358456,0.1,306.06836,1590085159437
Fix,GT,37.4609502,-122.1415231,,26.29432,0.1,305.987,1590085160437
Fix,GT,37.4610902,-122.1417632,,26.363676,0.1,306.05566,1590085161437
Fix,GT,37.4612315,-122.1420043,,26.582941,0.1,306.2528,1590085162437
Fix,GT,37.4613745,-122.1422472,,26.847858,0.1,306.35696,1590085163437
Fix,GT,37.4615191,-122.1424924,,27.121357,0.1,306.3216,1590085164437
Fix,GT,37.4616648,-122.1427404,,27.384766,0.1,306.20273,1590085165437
Fix,GT,37.4618113,-122.1429912,,27.639183,0.1,306.07272,1590085166437
Fix,GT,37.4619589,-122.1432444,,27.848236,0.1,305.9962,1590085167437
Fix,GT,37.4621068,-122.1434993,,27.883821,0.1,305.73227,1590085168437
Fix,GT,37.4622531,-122.1437542,,27.680481,0.1,305.47992,1590085169437
Fix,GT,37.462398,-122.1440069,,27.4086,0.1,305.70004,1590085170437
Fix,GT,37.4625427,-122.1442565,,27.178822,0.1,306.0242,1590085171437
Fix,GT,37.462687,-122.1445028,,26.883224,0.1,306.20377,1590085172437
Fix,GT,37.4628298,-122.1447458,,26.540565,0.1,306.24768,1590085173437
Fix,GT,37.4629711,-122.1449861,,26.313753,0.1,306.19525,1590085174437
Fix,GT,37.4631116,-122.1452257,,26.378487,0.1,306.16287,1590085175437
Fix,GT,37.4632528,-122.1454666,,26.536795,0.1,306.1539,1590085176437
Fix,GT,37.463395,-122.1457086,,26.61467,0.1,306.23932,1590085177437
Fix,GT,37.4635377,-122.1459503,,26.588146,0.1,306.3886,1590085178437
Fix,GT,37.4636799,-122.146191,,26.402876,0.1,306.29785,1590085179437
Fix,GT,37.4638202,-122.1464304,,26.20039,0.1,306.05362,1590085180437
Fix,GT,37.4639589,-122.1466685,,26.0386,0.1,305.94614,1590085181437
Fix,GT,37.4640976,-122.1469065,,26.130169,0.1,306.13977,1590085182437
Fix,GT,37.4642381,-122.1471455,,26.380383,0.1,306.38947,1590085183437
Fix,GT,37.4643797,-122.1473854,,26.441639,0.1,306.36496,1590085184437
Fix,GT,37.4645213,-122.1476261,,26.510815,0.1,306.23083,1590085185437
Fix,GT,37.4646635,-122.1478685,,26.730606,0.1,306.18994,1590085186437
Fix,GT,37.4648064,-122.1481127,,26.813307,0.1,306.0813,1590085187437
Fix,GT,37.4649487,-122.148357,,26.699043,0.1,305.94766,1590085188437
Fix,GT,37.4650898,-122.1485999,,26.49275,0.1,305.9642,1590085189437
Fix,GT,37.4652305,-122.1488411,,26.428356,0.1,306.1795,1590085190437
Fix,GT,37.4653723,-122.149082,,26.556751,0.1,306.3285,1590085191437
Fix,GT,37.465515,-122.1493243,,26.748318,0.1,306.22983,1590085192437
Fix,GT,37.465658,-122.1495687,,26.881573,0.1,306.0447,1590085193437
Fix,GT,37.4658009,-122.149814,,26.798683,0.1,305.96802,1590085194437
Fix,GT,37.465943,-122.1500578,,26.642208,0.1,306.14407,1590085195437
Fix,GT,37.4660854,-122.1502998,,26.58833,0.1,306.41223,1590085196437
Fix,GT,37.4662281,-122.1505412,,26.611073,0.1,306.3832,1590085197437
Fix,GT,37.4663704,-122.1507834,,26.633541,0.1,306.06522,1590085198437
Fix,GT,37.4665118,-122.1510272,,26.693235,0.1,305.66876,1590085199437
Fix,GT,37.4666523,-122.1512736,,26.96989,0.1,305.2796,1590085200437
Fix,GT,37.4667938,-122.1515241,,27.361576,0.1,305.09924,1590085201437
Fix,GT,37.4669369,-122.1517788,,27.742828,0.1,304.95126,1590085202437
Fix,GT,37.4670819,-122.1520379,,28.279778,0.1,304.977,1590085203437
Fix,GT,37.467231,-122.1523021,,29.020874,0.1,305.33768,1590085204437
Fix,GT,37.4673854,-122.1525715,,29.600204,0.1,305.77075,1590085205437
Fix,GT,37.4675432,-122.1528436,,29.87621,0.1,306.02795,1590085206437
Fix,GT,37.4677027,-122.1531168,,30.07314,0.1,306.16895,1590085207437
Fix,GT,37.4678641,-122.1533913,,30.265509,0.1,306.36475,1590085208437
Fix,GT,37.4680268,-122.153667,,30.372944,0.1,306.39655,1590085209437
Fix,GT,37.4681892,-122.1539429,,30.304157,0.1,306.26154,1590085210437
Fix,GT,37.468351,-122.1542178,,30.199087,0.1,306.40814,1590085211437
Fix,GT,37.4685133,-122.1544917,,30.17083,0.1,306.5548,1590085212437
Fix,GT,37.4686753,-122.1547645,,30.003489,0.1,306.51572,1590085213437
Fix,GT,37.468836,-122.1550357,,29.810936,0.1,306.50345,1590085214437
Fix,GT,37.4689963,-122.1553062,,29.854898,0.1,306.44247,1590085215437
Fix,GT,37.4691568,-122.1555781,,30.010475,0.1,306.23795,1590085216437
Fix,GT,37.4693169,-122.1558518,,30.05938,0.1,305.98608,1590085217437
Fix,GT,37.469476,-122.1561264,,29.956387,0.1,305.74463,1590085218437
Fix,GT,37.4696333,-122.1564002,,29.774464,0.1,305.65762,1590085219437
Fix,GT,37.4697903,-122.1566728,,29.760002,0.1,305.83347,1590085220437
Fix,GT,37.4699486,-122.1569454,,29.933922,0.1,306.06335,1590085221437
Fix,GT,37.4701085,-122.157219,,30.084435,0.1,306.20648,1590085222437
Fix,GT,37.4702696,-122.1574934,,30.212658,0.1,306.2824,1590085223437
Fix,GT,37.4704316,-122.157769,,30.398685,0.1,306.32266,1590085224437
Fix,GT,37.4705942,-122.1580456,,30.370409,0.1,306.23505,1590085225437
Fix,GT,37.4707554,-122.1583208,,30.04972,0.1,306.1367,1590085226437
Fix,GT,37.4709153,-122.1585933,,29.83894,0.1,306.3161,1590085227437
Fix,GT,37.4710749,-122.1588643,,29.786842,0.1,306.35425,1590085228437
Fix,GT,37.4712342,-122.1591352,,29.78224,0.1,306.19745,1590085229437
Fix,GT,37.4713929,-122.1594066,,29.811014,0.1,306.1521,1590085230437
Fix,GT,37.4715523,-122.1596785,,29.876705,0.1,306.18216,1590085231437
Fix,GT,37.4717117,-122.1599512,,29.941868,0.1,306.06665,1590085232437
Fix,GT,37.471871,-122.1602246,,29.975866,0.1,305.9971,1590085233437
Fix,GT,37.4720308,-122.1604982,,30.047537,0.1,306.22156,1590085234437
Fix,GT,37.472192,-122.160772,,30.187267,0.1,306.33557,1590085235437
Fix,GT,37.4723538,-122.1610473,,30.320353,0.1,306.18213,1590085236437
Fix,GT,37.4725157,-122.1613241,,30.444603,0.1,306.12537,1590085237437
Fix,GT,37.4726786,-122.1616019,,30.562855,0.1,306.29004,1590085238437
Fix,GT,37.4728427,-122.1618803,,30.694702,0.1,306.41135,1590085239437
Fix,GT,37.4730079,-122.1621598,,30.863544,0.1,306.39868,1590085240437
Fix,GT,37.4731737,-122.162441,,31.02388,0.1,306.26324,1590085241437
Fix,GT,37.4733394,-122.1627244,,31.174198,0.1,306.08765,1590085242437
Fix,GT,37.4735054,-122.1630096,,31.333828,0.1,305.99945,1590085243437
Fix,GT,37.4736725,-122.1632961,,31.470387,0.1,306.07166,1590085244437
Fix,GT,37.4738408,-122.1635834,,31.589598,0.1,306.2301,1590085245437
Fix,GT,37.4740098,-122.1638716,,31.713923,0.1,306.2349,1590085246437
Fix,GT,37.4741791,-122.1641609,,31.72633,0.1,306.06628,1590085247437
Fix,GT,37.4743471,-122.1644497,,31.468922,0.1,305.8902,1590085248437
Fix,GT,37.4745131,-122.1647358,,31.169487,0.1,306.0001,1590085249437
Fix,GT,37.4746789,-122.1650196,,31.114136,0.1,306.3447,1590085250437
Fix,GT,37.4748462,-122.1653022,,31.176613,0.1,306.57568,1590085251437
Fix,GT,37.4750144,-122.1655851,,31.254944,0.1,306.5607,1590085252437
Fix,GT,37.4751827,-122.165869,,31.333742,0.1,306.4533,1590085253437
Fix,GT,37.475351,-122.166154,,31.424658,0.1,306.41858,1590085254437
Fix,GT,37.4755196,-122.1664401,,31.509838,0.1,306.32748,1590085255437
Fix,GT,37.4756882,-122.1667271,,31.576794,0.1,306.2526,1590085256437
Fix,GT,37.4758572,-122.1670147,,31.638618,0.1,306.24207,1590085257437
Fix,GT,37.476026,-122.1673033,,31.693434,0.1,306.15598,1590085258437
Fix,GT,37.4761951,-122.1675919,,31.619225,0.1,306.28394,1590085259437
Fix,GT,37.4763642,-122.1678774,,31.22388,0.1,306.7069,1590085260437
Fix,GT,37.4765328,-122.1681567,,30.785921,0.1,307.30835,1590085261437
Fix,GT,37.4767016,-122.1684317,,30.687975,0.1,307.5628,1590085262437
Fix,GT,37.4768706,-122.1687072,,30.824478,0.1,307.32892,1590085263437
Fix,GT,37.4770387,-122.1689858,,31.007196,0.1,306.7193,1590085264437
Fix,GT,37.4772054,-122.1692683,,31.203907,0.1,306.1216,1590085265437
Fix,GT,37.4773717,-122.1695539,,31.354273,0.1,305.91394,1590085266437
Fix,GT,37.4775376,-122.1698412,,31.341908,0.1,305.7476,1590085267437
Fix,GT,37.4777022,-122.1701282,,31.217587,0.1,305.58704,1590085268437
Fix,GT,37.4778665,-122.1704145,,31.225864,0.1,305.76553,1590085269437
Fix,GT,37.4780323,-122.1707012,,31.459028,0.1,306.0181,1590085270437
Fix,GT,37.4782006,-122.1709893,,31.72654,0.1,306.20975,1590085271437
Fix,GT,37.478371,-122.1712792,,31.984245,0.1,306.34778,1590085272437
Fix,GT,37.4785429,-122.1715711,,32.244244,0.1,306.40228,1590085273437
Fix,GT,37.4787165,-122.1718652,,32.504684,0.1,306.48642,1590085274437
Fix,GT,37.4788918,-122.1721611,,32.728935,0.1,306.6365,1590085275437
Fix,GT,37.479069,-122.172458,,32.879684,0.1,306.85458,1590085276437
Fix,GT,37.4792476,-122.1727552,,32.954258,0.1,307.09915,1590085277437
Fix,GT,37.4794272,-122.1730518,,32.969967,0.1,307.22687,1590085278437
Fix,GT,37.4796069,-122.1733485,,32.978817,0.1,307.09238,1590085279437
Fix,GT,37.4797859,-122.1736464,,33.080433,0.1,306.6804,1590085280437
Fix,GT,37.4799641,-122.1739476,,33.26918,0.1,306.28394,1590085281437
Fix,GT,37.480142,-122.1742517,,33.486053,0.1,306.174,1590085282437
Fix,GT,37.4803213,-122.1745579,,33.734066,0.1,306.19504,1590085283437
Fix,GT,37.4805014,-122.1748666,,33.929207,0.1,306.1112,1590085284437
Fix,GT,37.4806816,-122.1751766,,33.877857,0.1,306.01324,1590085285437
Fix,GT,37.4808609,-122.1754848,,33.545704,0.1,306.136,1590085286437
Fix,GT,37.4810392,-122.1757891,,33.289185,0.1,306.2997,1590085287437
Fix,GT,37.4812169,-122.1760923,,33.290344,0.1,306.18173,1590085288437
Fix,GT,37.4813938,-122.1763967,,33.34847,0.1,305.96997,1590085289437
Fix,GT,37.48157,-122.1767019,,33.304436,0.1,305.71625,1590085290437
Fix,GT,37.4817444,-122.1770073,,33.179,0.1,305.40863,1590085291437
Fix,GT,37.4819168,-122.1773134,,33.138977,0.1,304.95822,1590085292437
Fix,GT,37.4820866,-122.1776217,,33.149055,0.1,304.10062,1590085293437
Fix,GT,37.482252,-122.1779334,,33.10192,0.1,302.95886,1590085294437
Fix,GT,37.482412,-122.178248,,32.949554,0.1,301.87463,1590085295437
Fix,GT,37.4825666,-122.1785646,,32.7634,0.1,300.8641,1590085296437
Fix,GT,37.4827157,-122.178883,,32.571934,0.1,299.78796,1590085297437
Fix,GT,37.4828591,-122.179203,,32.390976,0.1,298.5879,1590085298437
Fix,GT,37.4829966,-122.1795252,,32.2879,0.1,297.48517,1590085299437
Fix,GT,37.4831294,-122.1798496,,32.27259,0.1,296.7032,1590085300437
Fix,GT,37.483259,-122.1801764,,32.292854,0.1,296.01852,1590085301437
Fix,GT,37.4833859,-122.1805051,,32.358738,0.1,295.49777,1590085302437
Fix,GT,37.4835103,-122.180836,,32.386585,0.1,294.8345,1590085303437
Fix,GT,37.4836306,-122.1811689,,32.311874,0.1,293.77313,1590085304437
Fix,GT,37.4837459,-122.1815033,,32.198517,0.1,292.85446,1590085305437
Fix,GT,37.4838571,-122.1818388,,32.101685,0.1,292.1727,1590085306437
Fix,GT,37.4839655,-122.1821748,,32.02451,0.1,291.71832,1590085307437
Fix,GT,37.484072,-122.1825109,,31.957619,0.1,291.336,1590085308437
Fix,GT,37.4841762,-122.1828473,,31.900826,0.1,290.85202,1590085309437
Fix,GT,37.4842775,-122.1831844,,31.864113,0.1,290.27185,1590085310437
Fix,GT,37.4843759,-122.1835228,,31.890015,0.1,289.5006,1590085311437
Fix,GT,37.4844706,-122.1838635,,31.96872,0.1,288.70193,1590085312437
Fix,GT,37.4845624,-122.1842066,,32.06653,0.1,288.1266,1590085313437
Fix,GT,37.4846519,-122.1845519,,32.17062,0.1,287.60498,1590085314437
Fix,GT,37.4847389,-122.1848996,,32.276394,0.1,286.94446,1590085315437
Fix,GT,37.4848227,-122.1852495,,32.369347,0.1,286.2516,1590085316437
Fix,GT,37.4849033,-122.1856016,,32.447067,0.1,285.65268,1590085317437
Fix,GT,37.484982,-122.1859552,,32.510834,0.1,285.2921,1590085318437
Fix,GT,37.4850589,-122.1863099,,32.4958,0.1,284.8884,1590085319437
Fix,GT,37.4851331,-122.1866648,,32.428463,0.1,284.23856,1590085320437
Fix,GT,37.4852038,-122.1870203,,32.408638,0.1,283.46332,1590085321437
Fix,GT,37.4852705,-122.1873769,,32.418354,0.1,282.64227,1590085322437
Fix,GT,37.4853333,-122.1877351,,32.481377,0.1,281.89746,1590085323437
Fix,GT,37.4853929,-122.1880951,,32.583508,0.1,281.29117,1590085324437
Fix,GT,37.4854497,-122.1884571,,32.70495,0.1,280.69794,1590085325437
Fix,GT,37.4855039,-122.1888214,,32.83995,0.1,280.11316,1590085326437
Fix,GT,37.4855551,-122.1891878,,32.965847,0.1,279.50497,1590085327437
Fix,GT,37.4856038,-122.189556,,33.05639,0.1,279.03094,1590085328437
Fix,GT,37.4856507,-122.1899253,,33.0874,0.1,278.7298,1590085329437
Fix,GT,37.4856966,-122.1902947,,33.020714,0.1,278.6454,1590085330437
Fix,GT,37.4857422,-122.1906629,,32.892597,0.1,278.6536,1590085331437
Fix,GT,37.4857876,-122.1910296,,32.76102,0.1,278.63467,1590085332437
Fix,GT,37.4858326,-122.1913949,,32.590424,0.1,278.6181,1590085333437
Fix,GT,37.4858774,-122.1917579,,32.375965,0.1,278.5883,1590085334437
Fix,GT,37.4859216,-122.1921183,,32.123665,0.1,278.51276,1590085335437
Fix,GT,37.4859651,-122.1924761,,31.920269,0.1,278.45593,1590085336437
Fix,GT,37.4860085,-122.1928324,,31.869345,0.1,278.56863,1590085337437
Fix,GT,37.4860528,-122.1931887,,31.926651,0.1,278.7673,1590085338437
Fix,GT,37.4860976,-122.193546,,32.04824,0.1,278.74344,1590085339437
Fix,GT,37.4861425,-122.1939048,,32.203976,0.1,278.77686,1590085340437
Fix,GT,37.4861879,-122.1942652,,32.325245,0.1,278.8151,1590085341437
Fix,GT,37.486233,-122.1946259,,32.223625,0.1,278.5962,1590085342437
Fix,GT,37.4862766,-122.1949848,,32.015884,0.1,278.46255,1590085343437
Fix,GT,37.48632,-122.1953424,,31.983227,0.1,278.62482,1590085344437
Fix,GT,37.4863645,-122.1956998,,32.00615,0.1,278.69928,1590085345437
Fix,GT,37.4864089,-122.1960574,,32.020893,0.1,278.64557,1590085346437
Fix,GT,37.486453,-122.1964152,,32.026085,0.1,278.6305,1590085347437
Fix,GT,37.4864974,-122.196773,,32.03556,0.1,278.69724,1590085348437
Fix,GT,37.486542,-122.1971309,,32.04364,0.1,278.75076,1590085349437
Fix,GT,37.486587,-122.1974888,,32.03701,0.1,278.78036,1590085350437
Fix,GT,37.486632,-122.1978467,,32.048756,0.1,278.78186,1590085351437
Fix,GT,37.4866769,-122.1982048,,32.06662,0.1,278.68625,1590085352437
Fix,GT,37.4867212,-122.1985632,,32.07841,0.1,278.6244,1590085353437
Fix,GT,37.4867655,-122.1989217,,32.100647,0.1,278.63803,1590085354437
Fix,GT,37.48681,-122.1992804,,32.120575,0.1,278.676,1590085355437
Fix,GT,37.4868545,-122.1996393,,32.12792,0.1,278.6311,1590085356437
Fix,GT,37.4868986,-122.1999979,,32.016575,0.1,278.51453,1590085357437
Fix,GT,37.4869419,-122.2003542,,31.71084,0.1,278.50308,1590085358437
Fix,GT,37.4869851,-122.2007068,,31.424421,0.1,278.72903,1590085359437
Fix,GT,37.4870289,-122.2010571,,31.309475,0.1,278.84387,1590085360437
Fix,GT,37.487073,-122.2014068,,31.329094,0.1,278.81412,1590085361437
Fix,GT,37.4871172,-122.2017569,,31.354317,0.1,278.8302,1590085362437
Fix,GT,37.4871613,-122.2021071,,31.333065,0.1,278.80884,1590085363437
Fix,GT,37.4872052,-122.2024568,,31.290466,0.1,278.74316,1590085364437
Fix,GT,37.4872487,-122.2028062,,31.257774,0.1,278.65765,1590085365437
Fix,GT,37.4872918,-122.2031554,,31.230392,0.1,278.56168,1590085366437
Fix,GT,37.4873344,-122.203504,,31.12099,0.1,278.46625,1590085367437
Fix,GT,37.4873764,-122.2038504,,30.815472,0.1,278.4105,1590085368437
Fix,GT,37.4874177,-122.2041927,,30.397604,0.1,278.451,1590085369437
Fix,GT,37.487459,-122.20453,,29.96432,0.1,278.61838,1590085370437
Fix,GT,37.4875006,-122.2048622,,29.512573,0.1,278.80795,1590085371437
Fix,GT,37.4875421,-122.2051892,,29.06107,0.1,278.86206,1590085372437
Fix,GT,37.4875829,-122.2055115,,28.69685,0.1,278.841,1590085373437
Fix,GT,37.4876232,-122.2058305,,28.45031,0.1,278.76575,1590085374437
Fix,GT,37.4876632,-122.2061468,,28.17656,0.1,278.81088,1590085375437
Fix,GT,37.4877031,-122.2064596,,27.83572,0.1,278.9367,1590085376437
Fix,GT,37.4877427,-122.2067688,,27.563602,0.1,279.03937,1590085377437
Fix,GT,37.4877834,-122.2070755,,27.458637,0.1,279.53214,1590085378437
Fix,GT,37.4878266,-122.2073815,,27.52349,0.1,280.20486,1590085379437
Fix,GT,37.4878728,-122.2076884,,27.709198,0.1,280.85895,1590085380437
Fix,GT,37.4879221,-122.2079964,,27.809784,0.1,281.5233,1590085381437
Fix,GT,37.4879741,-122.2083036,,27.72499,0.1,282.09033,1590085382437
Fix,GT,37.4880281,-122.2086093,,27.686752,0.1,282.53754,1590085383437
Fix,GT,37.488084,-122.2089153,,27.882406,0.1,282.8803,1590085384437
Fix,GT,37.488142,-122.209224,,28.210396,0.1,283.36307,1590085385437
Fix,GT,37.488203,-122.2095353,,28.460835,0.1,283.99466,1590085386437
Fix,GT,37.4882671,-122.2098476,,28.534937,0.1,284.5915,1590085387437
Fix,GT,37.488334,-122.210159,,28.495539,0.1,285.23596,1590085388437
Fix,GT,37.4884034,-122.2104691,,28.453007,0.1,285.83664,1590085389437
Fix,GT,37.4884754,-122.2107776,,28.370163,0.1,286.48837,1590085390437
Fix,GT,37.4885497,-122.2110832,,28.118912,0.1,287.17398,1590085391437
Fix,GT,37.4886259,-122.2113845,,27.806871,0.1,287.722,1590085392437
Fix,GT,37.4887036,-122.2116824,,27.682354,0.1,288.18475,1590085393437
Fix,GT,37.4887833,-122.2119791,,27.72683,0.1,288.6911,1590085394437
Fix,GT,37.4888654,-122.2122757,,27.798744,0.1,289.26422,1590085395437
Fix,GT,37.48895,-122.2125723,,27.8764,0.1,289.86475,1590085396437
Fix,GT,37.4890376,-122.2128682,,27.982185,0.1,290.61517,1590085397437
Fix,GT,37.489129,-122.2131642,,28.163513,0.1,291.4345,1590085398437
Fix,GT,37.4892241,-122.2134607,,28.35107,0.1,292.14703,1590085399437
Fix,GT,37.4893223,-122.2137578,,28.526539,0.1,292.61078,1590085400437
Fix,GT,37.4894225,-122.2140559,,28.680866,0.1,292.81036,1590085401437
Fix,GT,37.489524,-122.214354,,28.607777,0.1,293.09088,1590085402437
Fix,GT,37.4896262,-122.2146492,,28.301315,0.1,293.6481,1590085403437
Fix,GT,37.4897302,-122.2149397,,28.021387,0.1,294.4704,1590085404437
Fix,GT,37.4898364,-122.2152257,,27.786491,0.1,295.20618,1590085405437
Fix,GT,37.4899443,-122.2155079,,27.572975,0.1,295.79633,1590085406437
Fix,GT,37.4900545,-122.2157874,,27.599152,0.1,296.50757,1590085407437
Fix,GT,37.4901678,-122.2160671,,27.911491,0.1,297.13177,1590085408437
Fix,GT,37.490285,-122.2163484,,28.204166,0.1,297.77246,1590085409437
Fix,GT,37.4904056,-122.2166302,,28.333,0.1,298.40628,1590085410437
Fix,GT,37.4905283,-122.2169114,,28.367085,0.1,298.78183,1590085411437
Fix,GT,37.4906523,-122.2171921,,28.378502,0.1,298.92325,1590085412437
Fix,GT,37.4907764,-122.2174721,,28.249577,0.1,298.9046,1590085413437
Fix,GT,37.4908993,-122.2177499,,27.968334,0.1,298.8435,1590085414437
Fix,GT,37.4910212,-122.2180255,,27.855541,0.1,298.94446,1590085415437
Fix,GT,37.4911439,-122.2183014,,28.058022,0.1,299.11188,1590085416437
