MessageType,Provider,LatitudeDegrees,LongitudeDegrees,AltitudeMeters,SpeedMps,AccuracyMeters,BearingDegrees,UnixTimeMillis
Fix,GT,37.3178899,-121.9483664,,0.050039984,0.1,89.77582,1607638643999
Fix,GT,37.3178899,-121.9483664,,0.050039984,0.1,89.77536,1607638644999
Fix,GT,37.3178899,-121.9483664,,0.04909176,0.1,89.7749,1607638645999
Fix,GT,37.3178899,-121.9483664,,0.04809367,0.1,89.77438,1607638646999
Fix,GT,37.3178899,-121.9483664,,0.047095656,0.1,89.77414,1607638647999
Fix,GT,37.3178899,-121.9483664,,0.04904078,0.1,89.773926,1607638648999
Fix,GT,37.3178899,-121.9483664,,0.049091753,0.1,89.77536,1607638649999
Fix,GT,37.3178898,-121.9483664,,0.047095668,0.1,89.77084,1607638650999
Fix,GT,37.3178898,-121.9483664,,0.046097733,0.1,89.77228,1607638651999
Fix,GT,37.3178898,-121.9483664,,0.043185677,0.1,89.772,1607638652999
Fix,GT,37.3178898,-121.9483664,,0.043104526,0.1,89.77164,1607638653999
Fix,GT,37.3178898,-121.9483664,,0.051156547,0.1,89.77075,1607638654999
Fix,GT,37.3178898,-121.9483664,,0.0581377,0.1,89.77051,1607638655999
Fix,GT,37.3178898,-121.9483664,,0.06618905,0.1,89.7702,1607638656999
Fix,GT,37.3178893,-121.9483664,,0.07516639,0.1,89.7699,1607638657999
Fix,GT,37.3178839,-121.948366,,0.084148586,0.1,89.76935,1607638658999
Fix,GT,37.3178834,-121.9483659,,0.096187204,0.1,89.76904,1607638659999
Fix,GT,37.3178829,-121.9483659,,0.111161895,0.1,89.76874,1607638660999
Fix,GT,37.3178825,-121.9483658,,0.1381301,0.1,89.76868,1607638661999
Fix,GT,37.317881,-121.9483657,,0.1611984,0.1,89.76938,1607638662999
Fix,GT,37.3178793,-121.9483655,,0.17718053,0.1,89.7684,1607638663999
Fix,GT,37.3178773,-121.9483654,,0.18204391,0.1,89.76776,1607638664999
Fix,GT,37.3178752,-121.9483653,,0.18500267,0.1,89.76654,1607638665999
Fix,GT,37.3178727,-121.948365,,0.20200974,0.1,89.76782,1607638666999
Fix,GT,37.3178722,-121.9483649,,0.22826493,0.1,89.76593,1607638667999
Fix,GT,37.3178718,-121.9483649,,0.25470936,0.1,89.76514,1607638668999
Fix,GT,37.3178714,-121.9483649,,0.27841133,0.1,89.76495,1607638669999
Fix,GT,37.3178707,-121.9483648,,0.29783365,0.1,89.76483,1607638670999
Fix,GT,37.3178662,-121.9483655,,0.2667905,0.1,89.762085,1607638671999
Fix,GT,37.3178637,-121.9483616,,0.6790318,0.1,89.76666,1607638672999
Fix,GT,37.3178614,-121.9483452,,1.2421508,0.1,92.26453,1607638673999
Fix,GT,37.317857,-121.9483217,,1.9697398,0.1,100.03461,1607638674999
Fix,GT,37.3178501,-121.9482873,,2.9599802,0.1,111.797424,1607638675999
Fix,GT,37.31785,-121.9482454,,3.7867234,0.1,114.7742,1607638676999
Fix,GT,37.3178632,-121.9482041,,3.6171482,0.1,108.39801,1607638677999
Fix,GT,37.3178767,-121.9481775,,2.3179574,0.1,103.16406,1607638678999
Fix,GT,37.3178871,-121.9481649,,2.0155416,0.1,99.26041,1607638679999
Fix,GT,37.3178967,-121.9481516,,2.3966894,0.1,97.59265,1607638680999
Fix,GT,37.3178863,-121.948126,,2.2873397,0.1,113.581116,1607638681999
Fix,GT,37.3178461,-121.9481078,,2.3626826,0.1,144.34216,1607638682999
Fix,GT,37.3178026,-121.9481142,,2.5774913,0.1,168.08423,1607638683999
Fix,GT,37.3177735,-121.9481228,,2.674741,0.1,178.74536,1607638684999
Fix,GT,37.3177557,-121.9481236,,3.1640172,0.1,180.56439,1607638685999
Fix,GT,37.317734,-121.9481203,,3.766083,0.1,180.41,1607638686999
Fix,GT,37.3177047,-121.9481145,,4.1050024,0.1,181.16422,1607638687999
Fix,GT,37.3176336,-121.9481128,,4.0990825,0.1,181.62572,1607638688999
Fix,GT,37.3175895,-121.9481123,,4.08011,0.1,180.38596,1607638689999
Fix,GT,37.3175499,-121.9481111,,3.9679554,0.1,178.96893,1607638690999
Fix,GT,37.3175121,-121.9481105,,4.034788,0.1,178.63428,1607638691999
Fix,GT,37.3174711,-121.94811,,4.694934,0.1,178.77911,1607638692999
Fix,GT,37.3174267,-121.9481104,,4.8713794,0.1,179.91284,1607638693999
Fix,GT,37.317383,-121.9481127,,4.6767273,0.1,181.42773,1607638694999
Fix,GT,37.317342,-121.948115,,4.100068,0.1,181.35931,1607638695999
Fix,GT,37.31731,-121.9481172,,2.7951415,0.1,181.0759,1607638696999
Fix,GT,37.3172894,-121.9481187,,1.555233,0.1,180.78233,1607638697999
Fix,GT,37.3172774,-121.9481201,,1.4514923,0.1,180.68565,1607638698999
Fix,GT,37.3172586,-121.9481245,,2.4751647,0.1,187.11365,1607638699999
Fix,GT,37.3172388,-121.9481467,,3.0627685,0.1,215.91599,1607638700999
Fix,GT,37.3172265,-121.9481882,,4.2087774,0.1,247.57684,1607638701999
Fix,GT,37.3172239,-121.948248,,6.1947103,0.1,267.28195,1607638702999
Fix,GT,37.3172264,-121.948329,,8.107698,0.1,273.45734,1607638703999
Fix,GT,37.3172323,-121.94843,,9.733307,0.1,274.4455,1607638704999
Fix,GT,37.3172389,-121.9485479,,11.245484,0.1,273.9657,1607638705999
Fix,GT,37.3172455,-121.9486816,,12.312903,0.1,273.12787,1607638706999
Fix,GT,37.317252,-121.9488202,,12.276446,0.1,273.71878,1607638707999
Fix,GT,37.3172605,-121.9489601,,12.577156,0.1,274.445,1607638708999
Fix,GT,37.3172696,-121.9491009,,12.410631,0.1,274.3573,1607638709999
Fix,GT,37.3172776,-121.9492391,,12.149913,0.1,273.9229,1607638710999
Fix,GT,37.3172848,-121.9493745,,11.916685,0.1,273.89145,1607638711999
Fix,GT,37.3172917,-121.9495049,,10.988321,0.1,273.55646,1607638712999
Fix,GT,37.3172969,-121.9496188,,9.232019,0.1,273.45813,1607638713999
Fix,GT,37.3173022,-121.9497125,,7.379737,0.1,274.0291,1607638714999
Fix,GT,37.3173062,-121.9497858,,5.726709,0.1,273.86737,1607638715999
Fix,GT,37.3173093,-121.9498406,,4.057067,0.1,273.87167,1607638716999
Fix,GT,37.3173111,-121.9498784,,2.6171384,0.1,273.56854,1607638717999
Fix,GT,37.3173119,-121.9498995,,1.1382357,0.1,273.17203,1607638718999
Fix,GT,37.317312,-121.9499041,,0.07170759,0.1,273.0907,1607638719999
Fix,GT,37.3173119,-121.9499041,,0.05961559,0.1,273.08975,1607638720999
Fix,GT,37.317312,-121.9499041,,0.052354656,0.1,273.08475,1607638721999
Fix,GT,37.3173121,-121.9499041,,0.04720176,0.1,273.08215,1607638722999
Fix,GT,37.3173121,-121.9499042,,0.041012276,0.1,273.08026,1607638723999
Fix,GT,37.3173122,-121.9499042,,0.034669954,0.1,273.07877,1607638724999
Fix,GT,37.3173122,-121.9499042,,0.028792437,0.1,273.0774,1607638725999
Fix,GT,37.3173122,-121.9499042,,0.024331108,0.1,273.07632,1607638726999
Fix,GT,37.3173122,-121.9499042,,0.02009981,0.1,273.07544,1607638727999
Fix,GT,37.3173122,-121.9499042,,0.021999974,0.1,273.07477,1607638728999
Fix,GT,37.3173122,-121.9499042,,0.018110823,0.1,273.07428,1607638729999
Fix,GT,37.3173121,-121.9499042,,0.014142189,0.1,273.07358,1607638730999
Fix,GT,37.3173121,-121.9499042,,0.00921961,0.1,273.07275,1607638731999
Fix,GT,37.3173121,-121.9499042,,0.008246224,0.1,273.07217,1607638732999
Fix,GT,37.3173121,-121.9499042,,0.0072801234,0.1,273.07166,1607638733999
Fix,GT,37.3173121,-121.9499043,,0.008246198,0.1,273.07104,1607638734999
Fix,GT,37.3173121,-121.9499043,,0.008246211,0.1,273.0707,1607638735999
Fix,GT,37.3173121,-121.9499043,,0.00921953,0.1,273.0705,1607638736999
Fix,GT,37.3173121,-121.9499043,,0.009055387,0.1,273.06998,1607638737999
Fix,GT,37.3173121,-121.9499043,,0.010198023,0.1,273.06946,1607638738999
Fix,GT,37.3173121,-121.9499043,,0.011180326,0.1,273.06897,1607638739999
Fix,GT,37.3173121,-121.9499043,,0.010049892,0.1,273.06866,1607638740999
Fix,GT,37.3173121,-121.9499043,,0.010049876,0.1,273.06854,1607638741999
Fix,GT,37.3173121,-121.9499043,,0.011045346,0.1,273.0683,1607638742999
Fix,GT,37.3173121,-121.9499044,,0.01004989,0.1,273.06818,1607638743999
Fix,GT,37.3173121,-121.9499044,,0.0090000145,0.1,273.06796,1607638744999
Fix,GT,37.3173121,-121.9499045,,0.009055384,0.1,273.06778,1607638745999
Fix,GT,37.3173121,-121.9499046,,0.009000001,0.1,273.0674,1607638746999
Fix,GT,37.3173121,-121.9499047,,0.008000014,0.1,273.06616,1607638747999
Fix,GT,37.3173121,-121.9499047,,0.007071081,0.1,273.06595,1607638748999
Fix,GT,37.3173121,-121.949905,,0.0022361383,0.1,273.0484,1607638749999
Fix,GT,37.3173121,-121.9499042,,3.265361e-08,0.1,273.1751,1607638750999
Fix,GT,37.3173121,-121.9499042,,0.0009999855,0.1,273.17453,1607638751999
Fix,GT,37.3173121,-121.9499042,,1.4662743e-08,0.1,273.1739,1607638752999
Fix,GT,37.3173121,-121.9499042,,0.0,0.1,273.17307,1607638753999
Fix,GT,37.3173121,-121.9499042,,0.002236035,0.1,273.15512,1607638754999
Fix,GT,37.3173121,-121.9499042,,0.003162264,0.1,273.1666,1607638755999
Fix,GT,37.3173121,-121.9499042,,0.009055298,0.1,273.1661,1607638756999
Fix,GT,37.3173121,-121.9499042,,0.017029267,0.1,273.1653,1607638757999
Fix,GT,37.3173121,-121.9499042,,0.017,0.1,273.16458,1607638758999
Fix,GT,37.3173121,-121.9499042,,0.016031234,0.1,273.16382,1607638759999
Fix,GT,37.3173121,-121.9499042,,0.0140357,0.1,273.1632,1607638760999
Fix,GT,37.3173121,-121.9499042,,0.01303842,0.1,273.16266,1607638761999
Fix,GT,37.3173121,-121.9499042,,0.013000001,0.1,273.16202,1607638762999
Fix,GT,37.3173121,-121.9499042,,0.014999969,0.1,273.1614,1607638763999
Fix,GT,37.3173121,-121.9499042,,0.015999984,0.1,273.16077,1607638764999
Fix,GT,37.3173121,-121.9499042,,0.01799997,0.1,273.16022,1607638765999
Fix,GT,37.3173121,-121.9499042,,0.01999997,0.1,273.15976,1607638766999
Fix,GT,37.3173121,-121.9499042,,0.023021683,0.1,273.15912,1607638767999
Fix,GT,37.3173121,-121.9499042,,0.02402081,0.1,273.1585,1607638768999
Fix,GT,37.3173121,-121.9499042,,0.03206231,0.1,273.1578,1607638769999
Fix,GT,37.3173121,-121.9499042,,0.043046314,0.1,273.1583,1607638770999
Fix,GT,37.3173121,-121.9499042,,0.043185644,0.1,273.15747,1607638771999
Fix,GT,37.3173121,-121.9499042,,0.041303784,0.1,273.15656,1607638772999
Fix,GT,37.3173121,-121.9499042,,0.037336368,0.1,273.15588,1607638773999
Fix,GT,37.3173121,-121.9499042,,0.03733631,0.1,273.15527,1607638774999
Fix,GT,37.3173121,-121.9499042,,0.036221556,0.1,273.15472,1607638775999
Fix,GT,37.3173121,-121.9499042,,0.036124784,0.1,273.15402,1607638776999
Fix,GT,37.3173121,-121.9499042,,0.03512835,0.1,273.15344,1607638777999
Fix,GT,37.3173121,-121.9499042,,0.03206249,0.1,273.1528,1607638778999
Fix,GT,37.3173121,-121.9499042,,0.041048605,0.1,273.1522,1607638779999
Fix,GT,37.3173121,-121.9499042,,0.04799989,0.1,273.15164,1607638780999
Fix,GT,37.3173121,-121.9499042,,0.047010653,0.1,273.151,1607638781999
Fix,GT,37.3173121,-121.9499042,,0.046043478,0.1,273.1502,1607638782999
Fix,GT,37.3173121,-121.9499042,,0.045099903,0.1,273.14966,1607638783999
Fix,GT,37.3173121,-121.9499042,,0.045099888,0.1,273.149,1607638784999
Fix,GT,37.3173121,-121.9499042,,0.045099888,0.1,273.1485,1607638785999
Fix,GT,37.3173121,-121.9499042,,0.045099888,0.1,273.14786,1607638786999
Fix,GT,37.3173121,-121.9499042,,0.046097703,0.1,273.14725,1607638787999
Fix,GT,37.3173121,-121.9499042,,0.046097722,0.1,273.1465,1607638788999
Fix,GT,37.3173121,-121.9499042,,0.045099903,0.1,273.1458,1607638789999
Fix,GT,37.3173121,-121.9499042,,0.045099888,0.1,273.1453,1607638790999
Fix,GT,37.3173121,-121.9499042,,0.045044422,0.1,273.14465,1607638791999
Fix,GT,37.3173121,-121.9499042,,0.044045445,0.1,273.14398,1607638792999
Fix,GT,37.3173121,-121.9499042,,0.04210704,0.1,273.1433,1607638793999
Fix,GT,37.3173121,-121.9499042,,0.039051298,0.1,273.14255,1607638794999
Fix,GT,37.3173121,-121.9499042,,0.03605556,0.1,273.142,1607638795999
Fix,GT,37.3173121,-121.9499042,,0.031064533,0.1,273.14136,1607638796999
Fix,GT,37.3173121,-121.9499042,,0.029068917,0.1,273.1408,1607638797999
Fix,GT,37.3173121,-121.9499042,,0.030066576,0.1,273.1401,1607638798999
Fix,GT,37.3173121,-121.9499042,,0.030016663,0.1,273.13934,1607638799999
Fix,GT,37.3173121,-121.9499042,,0.033015095,0.1,273.13882,1607638800999
Fix,GT,37.3173121,-121.9499042,,0.03501425,0.1,273.1383,1607638801999
Fix,GT,37.3173121,-121.9499042,,0.043999843,0.1,273.1377,1607638802999
Fix,GT,37.3173121,-121.9499042,,0.042000033,0.1,273.13696,1607638803999
Fix,GT,37.3173121,-121.9499042,,0.038000066,0.1,273.13638,1607638804999
Fix,GT,37.3173121,-121.9499042,,0.038,0.1,273.1357,1607638805999
Fix,GT,37.3173121,-121.9499042,,0.03601392,0.1,273.135,1607638806999
Fix,GT,37.3173121,-121.9499042,,0.030016769,0.1,273.13446,1607638807999
Fix,GT,37.3173121,-121.9499042,,0.021023953,0.1,273.13397,1607638808999
Fix,GT,37.3173121,-121.9499042,,0.014142255,0.1,273.13345,1607638809999
Fix,GT,37.3173121,-121.9499042,,0.009486914,0.1,273.1328,1607638810999
Fix,GT,37.3173121,-121.9499042,,0.005831016,0.1,273.13196,1607638811999
Fix,GT,37.3173121,-121.9499042,,0.0053851726,0.1,273.13113,1607638812999
Fix,GT,37.3173121,-121.9499041,,0.0059999893,0.1,273.1305,1607638813999
Fix,GT,37.317312,-121.9499041,,0.015524006,0.1,273.1305,1607638814999
Fix,GT,37.3173119,-121.9499089,,1.126588,0.1,273.0846,1607638815999
Fix,GT,37.317299,-121.9499322,,3.3111725,0.1,273.04492,1607638816999
Fix,GT,37.3172646,-121.9499732,,5.247941,0.1,271.40118,1607638817999
Fix,GT,37.3172124,-121.9500307,,7.6930737,0.1,268.53104,1607638818999
Fix,GT,37.3173092,-121.9501554,,10.063651,0.1,267.14938,1607638819999
Fix,GT,37.3173022,-121.9502811,,12.238147,0.1,265.6297,1607638820999
Fix,GT,37.3172916,-121.9504297,,14.257459,0.1,264.70996,1607638821999
Fix,GT,37.3172782,-121.9506003,,16.10964,0.1,264.24945,1607638822999
Fix,GT,37.3172633,-121.9507922,,17.839403,0.1,264.5775,1607638823999
Fix,GT,37.3172488,-121.950999,,19.243753,0.1,264.70633,1607638824999
Fix,GT,37.3172309,-121.9512238,,20.71209,0.1,264.71387,1607638825999
Fix,GT,37.3172122,-121.9514648,,22.190498,0.1,264.24792,1607638826999
Fix,GT,37.3171902,-121.9517206,,23.392582,0.1,263.5835,1607638827999
Fix,GT,37.3171638,-121.9519894,,24.603014,0.1,262.64496,1607638828999
Fix,GT,37.3171339,-121.9522677,,25.055206,0.1,262.19754,1607638829999
Fix,GT,37.3171026,-121.9525484,,25.23777,0.1,261.82544,1607638830999
Fix,GT,37.3170682,-121.9528309,,25.42534,0.1,260.78857,1607638831999
Fix,GT,37.3170297,-121.9531149,,25.677687,0.1,260.10934,1607638832999
Fix,GT,37.3169895,-121.9534027,,26.092247,0.1,260.00983,1607638833999
Fix,GT,37.3169486,-121.953695,,26.49658,0.1,260.28583,1607638834999
Fix,GT,37.3169102,-121.9539912,,26.675856,0.1,261.23184,1607638835999
Fix,GT,37.3168742,-121.9542889,,26.688562,0.1,261.53113,1607638836999
Fix,GT,37.3168397,-121.9545868,,26.709686,0.1,261.7942,1607638837999
Fix,GT,37.3168057,-121.9548854,,26.752113,0.1,261.92322,1607638838999
Fix,GT,37.316773,-121.9551843,,26.696617,0.1,262.5187,1607638839999
Fix,GT,37.3167434,-121.9554831,,26.676384,0.1,263.45312,1607638840999
Fix,GT,37.316718,-121.9557832,,26.822542,0.1,264.411,1607638841999
Fix,GT,37.3166955,-121.9560859,,27.091612,0.1,264.67572,1607638842999
Fix,GT,37.3166734,-121.9563922,,27.354483,0.1,265.0127,1607638843999
Fix,GT,37.3166529,-121.9566989,,27.182339,0.1,265.38626,1607638844999
Fix,GT,37.3166348,-121.9570043,,27.131739,0.1,265.99622,1607638845999
Fix,GT,37.3166195,-121.95731,,27.1577,0.1,266.7542,1607638846999
Fix,GT,37.3166076,-121.9576163,,27.189617,0.1,267.69876,1607638847999
Fix,GT,37.3165999,-121.9579233,,27.251804,0.1,268.57608,1607638848999
Fix,GT,37.3165951,-121.9582311,,27.316135,0.1,269.11392,1607638849999
Fix,GT,37.3165926,-121.9585395,,27.35899,0.1,269.54462,1607638850999
Fix,GT,37.3165926,-121.9588478,,27.422064,0.1,270.18298,1607638851999
Fix,GT,37.3165961,-121.9591565,,27.503416,0.1,271.05618,1607638852999
Fix,GT,37.3166022,-121.9594666,,27.583895,0.1,271.329,1607638853999
Fix,GT,37.3166083,-121.959778,,27.63948,0.1,271.20724,1607638854999
Fix,GT,37.3166126,-121.9600918,,27.730297,0.1,271.16333,1607638855999
Fix,GT,37.3166167,-121.9604056,,27.809011,0.1,271.01044,1607638856999
Fix,GT,37.3166213,-121.9607195,,27.881426,0.1,271.0713,1607638857999
Fix,GT,37.3166263,-121.9610343,,27.945976,0.1,271.13232,1607638858999
Fix,GT,37.3166311,-121.9613495,,27.947025,0.1,271.01712,1607638859999
Fix,GT,37.3166361,-121.9616645,,27.917477,0.1,271.1551,1607638860999
Fix,GT,37.3166411,-121.9619798,,28.016825,0.1,271.11377,1607638861999
Fix,GT,37.3166459,-121.9622962,,28.062647,0.1,271.10532,1607638862999
Fix,GT,37.316651,-121.9626121,,27.951612,0.1,271.12042,1607638863999
Fix,GT,37.3166557,-121.9629248,,27.501469,0.1,271.11282,1607638864999
Fix,GT,37.3166596,-121.9632323,,27.026224,0.1,270.7349,1607638865999
Fix,GT,37.3166621,-121.9635344,,26.527758,0.1,270.38898,1607638866999
Fix,GT,37.3166625,-121.9638314,,26.11313,0.1,269.85806,1607638867999
Fix,GT,37.3166603,-121.9641238,,25.746857,0.1,269.10938,1607638868999
Fix,GT,37.3166551,-121.9644125,,25.510254,0.1,268.38126,1607638869999
Fix,GT,37.3166474,-121.9646997,,25.443817,0.1,267.84937,1607638870999
Fix,GT,37.3166383,-121.9649868,,25.55566,0.1,267.56644,1607638871999
Fix,GT,37.3166285,-121.9652767,,25.909157,0.1,267.703,1607638872999
Fix,GT,37.3166194,-121.9655712,,26.334759,0.1,267.82562,1607638873999
Fix,GT,37.3166101,-121.9658701,,26.658487,0.1,267.55417,1607638874999
Fix,GT,37.3166,-121.9661705,,26.607706,0.1,267.6018,1607638875999
Fix,GT,37.3165902,-121.9664698,,26.503262,0.1,267.62738,1607638876999
Fix,GT,37.3165803,-121.9667687,,26.617111,0.1,267.58344,1607638877999
Fix,GT,37.3165699,-121.9670706,,26.9375,0.1,267.35254,1607638878999
Fix,GT,37.3165586,-121.9673757,,27.13253,0.1,267.2218,1607638879999
Fix,GT,37.3165479,-121.9676808,,26.97202,0.1,267.4824,1607638880999
Fix,GT,37.3165382,-121.9679833,,26.708649,0.1,267.5507,1607638881999
Fix,GT,37.3165296,-121.9682825,,26.376932,0.1,268.12964,1607638882999
Fix,GT,37.3165264,-121.9685782,,26.011017,0.1,270.16095,1607638883999
Fix,GT,37.3165321,-121.9688697,,25.642904,0.1,272.34995,1607638884999
Fix,GT,37.3165442,-121.9691571,,25.36459,0.1,273.42593,1607638885999
Fix,GT,37.3165586,-121.9694409,,25.097914,0.1,273.37903,1607638886999
Fix,GT,37.316571,-121.9697226,,24.90729,0.1,272.54138,1607638887999
Fix,GT,37.3165806,-121.9700018,,24.617113,0.1,272.07913,1607638888999
Fix,GT,37.3165883,-121.9702775,,24.286825,0.1,271.55716,1607638889999
Fix,GT,37.3165955,-121.9705497,,23.974833,0.1,271.78204,1607638890999
Fix,GT,37.316605,-121.9708182,,23.661846,0.1,272.76538,1607638891999
Fix,GT,37.3166205,-121.9710826,,23.340122,0.1,275.00238,1607638892999
Fix,GT,37.316644,-121.9713429,,23.10411,0.1,277.0047,1607638893999
Fix,GT,37.3166734,-121.9715996,,22.849257,0.1,278.4837,1607638894999
Fix,GT,37.316708,-121.9718527,,22.64055,0.1,280.28882,1607638895999
Fix,GT,37.3167507,-121.9721014,,22.448805,0.1,283.29965,1607638896999
Fix,GT,37.316805,-121.9723447,,22.328503,0.1,286.9352,1607638897999
Fix,GT,37.316872,-121.9725818,,22.22584,0.1,290.93298,1607638898999
Fix,GT,37.3169492,-121.9728122,,22.002274,0.1,293.81415,1607638899999
Fix,GT,37.3170346,-121.9730347,,21.69975,0.1,296.46423,1607638900999
Fix,GT,37.3171279,-121.9732503,,21.196579,0.1,296.87918,1607638901999
Fix,GT,37.3172537,-121.973441,,20.585083,0.1,296.65866,1607638902999
Fix,GT,37.3174011,-121.9736088,,18.8769,0.1,296.24554,1607638903999
Fix,GT,37.3176336,-121.9737215,,15.879289,0.1,295.6795,1607638904999
Fix,GT,37.3174184,-121.973976,,12.212492,0.1,296.8854,1607638905999
Fix,GT,37.3174654,-121.9740817,,9.426995,0.1,299.5301,1607638906999
Fix,GT,37.3175102,-121.974161,,7.8978744,0.1,307.5499,1607638907999
Fix,GT,37.3175623,-121.9742197,,7.616328,0.1,320.9456,1607638908999
Fix,GT,37.317623,-121.97426,,7.471926,0.1,334.9336,1607638909999
Fix,GT,37.3176899,-121.9742777,,7.553825,0.1,351.51477,1607638910999
Fix,GT,37.3177584,-121.9742757,,7.5522323,0.1,2.1365967,1607638911999
Fix,GT,37.3178257,-121.9742698,,7.4003277,0.1,3.3640442,1607638912999
Fix,GT,37.3178948,-121.9742636,,7.896804,0.1,4.1819763,1607638913999
Fix,GT,37.3179654,-121.9742549,,7.9358563,0.1,6.408386,1607638914999
Fix,GT,37.3180346,-121.9742344,,7.664396,0.1,15.267639,1607638915999
Fix,GT,37.3180937,-121.974203,,6.0962305,0.1,24.674164,1607638916999
Fix,GT,37.3181318,-121.9741716,,3.8790116,0.1,31.673859,1607638917999
Fix,GT,37.318154,-121.9741511,,2.3995936,0.1,33.412598,1607638918999
Fix,GT,37.3181664,-121.97414,,1.0796299,0.1,33.479004,1607638919999
Fix,GT,37.3181691,-121.9741374,,0.02343307,0.1,33.478516,1607638920999
Fix,GT,37.3181691,-121.9741377,,0.022825437,0.1,33.490234,1607638921999
Fix,GT,37.3181694,-121.974138,,0.018439187,0.1,33.492004,1607638922999
Fix,GT,37.3181699,-121.9741382,,0.017029418,0.1,33.49347,1607638923999
Fix,GT,37.3181703,-121.9741383,,0.015000045,0.1,33.49167,1607638924999
Fix,GT,37.3181706,-121.9741383,,0.012727973,0.1,33.490875,1607638925999
Fix,GT,37.3181709,-121.9741383,,0.009899559,0.1,33.48941,1607638926999
Fix,GT,37.3181711,-121.9741383,,0.008062298,0.1,33.488556,1607638927999
Fix,GT,37.3181713,-121.9741383,,0.005385225,0.1,33.487396,1607638928999
Fix,GT,37.3181714,-121.9741383,,0.005099026,0.1,33.485962,1607638929999
Fix,GT,37.3181714,-121.9741383,,0.0064030946,0.1,33.48462,1607638930999
Fix,GT,37.3181714,-121.9741383,,0.007211084,0.1,33.483368,1607638931999
Fix,GT,37.3181715,-121.9741383,,0.008062238,0.1,33.48221,1607638932999
Fix,GT,37.3181715,-121.9741382,,0.009848817,0.1,33.480988,1607638933999
Fix,GT,37.3181715,-121.9741382,,0.010440294,0.1,33.47998,1607638934999
Fix,GT,37.3181714,-121.9741382,,0.011704671,0.1,33.47879,1607638935999
Fix,GT,37.3181714,-121.9741382,,0.0117047,0.1,33.47754,1607638936999
Fix,GT,37.3181713,-121.9741382,,0.012649089,0.1,33.47638,1607638937999
Fix,GT,37.3181712,-121.9741382,,0.011704722,0.1,33.47464,1607638938999
Fix,GT,37.3181711,-121.9741381,,0.010198073,0.1,33.474335,1607638939999
Fix,GT,37.3181711,-121.9741381,,0.010440301,0.1,33.47278,1607638940999
Fix,GT,37.318171,-121.974138,,0.009486855,0.1,33.471222,1607638941999
Fix,GT,37.318171,-121.974138,,0.008544025,0.1,33.46985,1607638942999
Fix,GT,37.3181709,-121.974138,,0.007615795,0.1,33.468445,1607638943999
Fix,GT,37.3181709,-121.9741379,,0.005385217,0.1,33.467285,1607638944999
Fix,GT,37.3181709,-121.9741379,,0.0053851646,0.1,33.466064,1607638945999
Fix,GT,37.3181709,-121.9741378,,0.003605593,0.1,33.464935,1607638946999
Fix,GT,37.3181709,-121.9741378,,0.0028284455,0.1,33.4635,1607638947999
Fix,GT,37.3181709,-121.9741378,,0.0028284271,0.1,33.461975,1607638948999
Fix,GT,37.3181709,-121.9741377,,0.002236082,0.1,33.46051,1607638949999
Fix,GT,37.3181709,-121.9741377,,0.0020000057,0.1,33.45923,1607638950999
Fix,GT,37.3181709,-121.9741377,,0.011401531,0.1,33.458984,1607638951999
Fix,GT,37.318171,-121.9741376,,0.0041232784,0.1,33.462677,1607638952999
Fix,GT,37.318171,-121.9741376,,0.0030000266,0.1,33.461,1607638953999
Fix,GT,37.318171,-121.9741376,,0.004472101,0.1,33.459198,1607638954999
Fix,GT,37.318171,-121.9741376,,0.0050990046,0.1,33.4581,1607638955999
Fix,GT,37.318171,-121.9741376,,0.0070710205,0.1,33.45691,1607638956999
Fix,GT,37.3181709,-121.9741376,,0.0067082127,0.1,33.45517,1607638957999
Fix,GT,37.3181708,-121.9741376,,0.009433916,0.1,33.453674,1607638958999
Fix,GT,37.3181716,-121.974137,,0.46984956,0.1,33.453735,1607638959999
Fix,GT,37.3181791,-121.9741304,,1.5952927,0.1,33.96814,1607638960999
Fix,GT,37.318196,-121.9741154,,3.024053,0.1,34.769897,1607638961999
Fix,GT,37.3182234,-121.9740911,,4.1750083,0.1,35.221344,1607638962999
Fix,GT,37.3182572,-121.9740766,,4.1122575,0.1,17.543457,1607638963999
Fix,GT,37.318283,-121.9741028,,3.7570543,0.1,331.4604,1607638964999
Fix,GT,37.3182849,-121.9741465,,4.080312,0.1,283.3503,1607638965999
Fix,GT,37.3182577,-121.9741843,,5.5261793,0.1,234.5409,1607638966999
Fix,GT,37.318208,-121.9742189,,7.628893,0.1,210.06938,1607638967999
Fix,GT,37.3181399,-121.9742605,,9.43829,0.1,205.62587,1607638968999
Fix,GT,37.3180573,-121.9743093,,10.919353,0.1,205.51778,1607638969999
Fix,GT,37.3179647,-121.9743681,,11.786337,0.1,207.79874,1607638970999
Fix,GT,37.3178726,-121.9744329,,11.605081,0.1,209.85461,1607638971999
Fix,GT,37.3177842,-121.9745001,,11.320116,0.1,211.79845,1607638972999
Fix,GT,37.3176995,-121.9745684,,11.024754,0.1,212.77211,1607638973999
Fix,GT,37.3176174,-121.9746357,,10.760475,0.1,213.00096,1607638974999
Fix,GT,37.3175372,-121.9747016,,10.560649,0.1,213.25839,1607638975999
Fix,GT,37.3174588,-121.9747672,,10.389544,0.1,213.57858,1607638976999
Fix,GT,37.3173794,-121.9748332,,10.819173,0.1,213.48016,1607638977999
Fix,GT,37.3172958,-121.9749034,,11.551721,0.1,213.92517,1607638978999
Fix,GT,37.3172071,-121.9749783,,12.165867,0.1,213.99281,1607638979999
Fix,GT,37.3171156,-121.9750554,,12.183041,0.1,214.13551,1607638980999
Fix,GT,37.3170262,-121.9751319,,11.803953,0.1,214.46086,1607638981999
Fix,GT,37.3169411,-121.9752016,,10.590755,0.1,212.31682,1607638982999
Fix,GT,37.3168629,-121.9752484,,9.146062,0.1,201.03021,1607638983999
Fix,GT,37.3167853,-121.9752527,,8.6523075,0.1,175.8207,1607638984999
Fix,GT,37.3167188,-121.975212,,8.398818,0.1,147.5752,1607638985999
Fix,GT,37.3166758,-121.9751367,,8.63703,0.1,120.751434,1607638986999
Fix,GT,37.316649,-121.9750423,,9.344532,0.1,108.23059,1607638987999
Fix,GT,37.3166254,-121.9749374,,10.050244,0.1,105.93103,1607638988999
Fix,GT,37.316601,-121.9748222,,11.281881,0.1,104.81329,1607638989999
Fix,GT,37.3165751,-121.9746906,,12.771403,0.1,103.82657,1607638990999
Fix,GT,37.3165467,-121.9745447,,13.72587,0.1,103.98041,1607638991999
Fix,GT,37.3165159,-121.9743902,,14.61932,0.1,104.06134,1607638992999
Fix,GT,37.3164823,-121.9742234,,15.836108,0.1,104.43854,1607638993999
Fix,GT,37.3164452,-121.974044,,17.041092,0.1,104.57492,1607638994999
Fix,GT,37.3164059,-121.9738514,,18.155235,0.1,104.16696,1607638995999
Fix,GT,37.3163665,-121.9736483,,18.793026,0.1,103.46912,1607638996999
Fix,GT,37.3163278,-121.97344,,19.098545,0.1,102.782166,1607638997999
Fix,GT,37.3162923,-121.9732276,,19.431396,0.1,101.164795,1607638998999
Fix,GT,37.316263,-121.9730116,,19.369806,0.1,98.58002,1607638999999
Fix,GT,37.3162418,-121.9727963,,19.144684,0.1,95.9751,1607639000999
Fix,GT,37.3162277,-121.9725824,,19.021837,0.1,94.172,1607639001999
Fix,GT,37.316217,-121.9723672,,19.20544,0.1,93.35251,1607639002999
Fix,GT,37.3162075,-121.9721501,,19.340658,0.1,93.06299,1607639003999
Fix,GT,37.3161975,-121.9719319,,19.386147,0.1,93.54062,1607639004999
Fix,GT,37.3161859,-121.9717133,,19.43727,0.1,94.055115,1607639005999
Fix,GT,37.3161729,-121.9714941,,19.561533,0.1,94.54114,1607639006999
Fix,GT,37.3161588,-121.9712719,,20.0036,0.1,94.54834,1607639007999
Fix,GT,37.3161453,-121.9710422,,20.87976,0.1,93.86301,1607639008999
Fix,GT,37.3161343,-121.9708014,,21.89877,0.1,92.82257,1607639009999
Fix,GT,37.3161266,-121.9705502,,22.55629,0.1,91.819824,1607639010999
Fix,GT,37.3161222,-121.9702936,,22.986134,0.1,90.74753,1607639011999
Fix,GT,37.3161232,-121.9700326,,23.331217,0.1,88.97861,1607639012999
Fix,GT,37.3161296,-121.9697675,,23.731459,0.1,87.880585,1607639013999
Fix,GT,37.3161376,-121.9694973,,24.208612,0.1,87.838165,1607639014999
Fix,GT,37.3161457,-121.9692218,,24.62768,0.1,87.912994,1607639015999
Fix,GT,37.3161538,-121.9689426,,24.890093,0.1,87.73981,1607639016999
Fix,GT,37.3161628,-121.9686604,,25.184174,0.1,87.668304,1607639017999
Fix,GT,37.3161715,-121.9683748,,25.494528,0.1,87.79498,1607639018999
Fix,GT,37.3161803,-121.9680857,,25.767881,0.1,87.8053,1607639019999
Fix,GT,37.3161882,-121.9677923,,26.406189,0.1,88.12659,1607639020999
Fix,GT,37.3161964,-121.9674886,,27.461752,0.1,87.781555,1607639021999
Fix,GT,37.3162067,-121.9671773,,27.50623,0.1,87.488525,1607639022999
Fix,GT,37.3162163,-121.9668702,,26.950693,0.1,87.89108,1607639023999
Fix,GT,37.3162256,-121.9665701,,26.298826,0.1,87.67288,1607639024999
Fix,GT,37.3162349,-121.9662772,,25.66539,0.1,87.64334,1607639025999
Fix,GT,37.3162441,-121.9659905,,25.216612,0.1,87.65976,1607639026999
Fix,GT,37.3162531,-121.9657089,,24.718008,0.1,87.63846,1607639027999
Fix,GT,37.3162619,-121.9654331,,24.225868,0.1,87.63309,1607639028999
Fix,GT,37.3162705,-121.9651623,,23.802237,0.1,87.54965,1607639029999
Fix,GT,37.31628,-121.9648966,,23.367634,0.1,87.20117,1607639030999
Fix,GT,37.3162887,-121.9646355,,22.958603,0.1,87.908295,1607639031999
Fix,GT,37.3162946,-121.964379,,22.541674,0.1,88.68213,1607639032999
Fix,GT,37.3162983,-121.9641258,,22.337875,0.1,88.92392,1607639033999
Fix,GT,37.3163017,-121.9638751,,22.12196,0.1,89.19571,1607639034999
Fix,GT,37.3163028,-121.9636269,,21.864166,0.1,90.04184,1607639035999
Fix,GT,37.3163002,-121.9633824,,21.426329,0.1,91.11063,1607639036999
Fix,GT,37.3162965,-121.9631442,,20.82182,0.1,91.002045,1607639037999
Fix,GT,37.3162935,-121.9629132,,20.126925,0.1,90.69574,1607639038999
Fix,GT,37.3162908,-121.9626893,,19.667883,0.1,90.85474,1607639039999
Fix,GT,37.3162876,-121.9624682,,19.539122,0.1,90.895935,1607639040999
Fix,GT,37.3162848,-121.9622474,,19.677298,0.1,90.75842,1607639041999
Fix,GT,37.3162827,-121.9620229,,20.196459,0.1,90.7431,1607639042999
Fix,GT,37.316279,-121.9617908,,20.990364,0.1,91.1124,1607639043999
Fix,GT,37.3162752,-121.9615491,,21.860142,0.1,90.74405,1607639044999
Fix,GT,37.3162721,-121.9612977,,22.703613,0.1,90.72861,1607639045999
Fix,GT,37.3162699,-121.9610371,,23.486963,0.1,90.43396,1607639046999
Fix,GT,37.3162677,-121.9607682,,24.079767,0.1,90.62781,1607639047999
Fix,GT,37.3162647,-121.9604971,,23.954002,0.1,90.84784,1607639048999
Fix,GT,37.316261,-121.9602283,,23.753952,0.1,90.97357,1607639049999
Fix,GT,37.316257,-121.9599605,,23.731153,0.1,90.96472,1607639050999
Fix,GT,37.3162539,-121.9596928,,23.753807,0.1,90.62424,1607639051999
Fix,GT,37.3162513,-121.9594241,,23.888634,0.1,90.91177,1607639052999
Fix,GT,37.3162476,-121.9591538,,24.032242,0.1,90.904175,1607639053999
Fix,GT,37.3162447,-121.9588834,,23.850422,0.1,90.568665,1607639054999
Fix,GT,37.3162435,-121.958616,,23.55103,0.1,90.00699,1607639055999
Fix,GT,37.3162446,-121.9583506,,23.567883,0.1,89.386566,1607639056999
Fix,GT,37.316248,-121.958084,,23.701538,0.1,88.78064,1607639057999
Fix,GT,37.3162532,-121.9578173,,23.55162,0.1,88.42084,1607639058999
Fix,GT,37.3162606,-121.9575534,,23.25608,0.1,87.530914,1607639059999
Fix,GT,37.3162707,-121.9572921,,23.270685,0.1,86.950745,1607639060999
Fix,GT,37.3162834,-121.957027,,23.90696,0.1,86.30585,1607639061999
Fix,GT,37.3162985,-121.9567539,,24.573557,0.1,85.73999,1607639062999
Fix,GT,37.3163161,-121.9564758,,24.877035,0.1,85.26605,1607639063999
Fix,GT,37.3163354,-121.9561927,,25.523018,0.1,84.92255,1607639064999
Fix,GT,37.316356,-121.9559035,,25.95613,0.1,84.95706,1607639065999
Fix,GT,37.3163768,-121.9556106,,26.053164,0.1,84.8616,1607639066999
Fix,GT,37.3163979,-121.9553193,,25.78305,0.1,84.79935,1607639067999
Fix,GT,37.3164155,-121.955031,,25.523623,0.1,86.163086,1607639068999
Fix,GT,37.3164284,-121.9547421,,25.783836,0.1,87.17117,1607639069999
Fix,GT,37.316437,-121.9544501,,25.91117,0.1,88.31848,1607639070999
Fix,GT,37.3164421,-121.9541591,,25.652018,0.1,88.75403,1607639071999
Fix,GT,37.3164452,-121.953871,,25.341408,0.1,88.65097,1607639072999
Fix,GT,37.3164499,-121.9535873,,24.94155,0.1,88.5484,1607639073999
Fix,GT,37.3164547,-121.9533084,,24.513546,0.1,88.45322,1607639074999
Fix,GT,37.3164606,-121.9530346,,24.066648,0.1,88.164856,1607639075999
Fix,GT,37.3164663,-121.9527655,,23.631817,0.1,88.23187,1607639076999
Fix,GT,37.3164714,-121.9525024,,22.888094,0.1,88.5101,1607639077999
Fix,GT,37.3164755,-121.9522559,,20.51987,0.1,88.59161,1607639078999
Fix,GT,37.3164785,-121.9520407,,17.673817,0.1,88.74011,1607639079999
Fix,GT,37.3164808,-121.9518574,,14.904947,0.1,88.64493,1607639080999
Fix,GT,37.3164808,-121.9517046,,12.075858,0.1,91.09009,1607639081999
Fix,GT,37.3164626,-121.9515865,,9.340261,0.1,106.707245,1607639082999
Fix,GT,37.3164236,-121.9515027,,7.765045,0.1,125.56824,1607639083999
Fix,GT,37.3163721,-121.9514544,,6.2875614,0.1,147.37762,1607639084999
Fix,GT,37.3163236,-121.9514354,,4.6995606,0.1,163.50726,1607639085999
Fix,GT,37.3162893,-121.9514274,,2.9682965,0.1,168.37549,1607639086999
Fix,GT,37.3162711,-121.9514236,,1.0929936,0.1,168.84973,1607639087999
Fix,GT,37.3162683,-121.9514233,,0.06833769,0.1,168.8739,1607639088999
Fix,GT,37.3162678,-121.9514235,,0.056613058,0.1,168.8706,1607639089999
Fix,GT,37.3162675,-121.9514237,,0.04776007,0.1,168.86993,1607639090999
Fix,GT,37.3162673,-121.9514238,,0.040162392,0.1,168.86914,1607639091999
Fix,GT,37.3162673,-121.9514238,,0.032573216,0.1,168.86841,1607639092999
Fix,GT,37.3162673,-121.9514238,,0.025298433,0.1,168.86755,1607639093999
Fix,GT,37.3162673,-121.9514238,,0.020880742,0.1,168.86713,1607639094999
Fix,GT,37.3162673,-121.9514238,,0.015811536,0.1,168.8667,1607639095999
Fix,GT,37.3162673,-121.9514238,,0.011401882,0.1,168.86609,1607639096999
Fix,GT,37.3162673,-121.9514238,,0.00728023,0.1,168.86536,1607639097999
Fix,GT,37.3162673,-121.9514238,,0.0041231983,0.1,168.86469,1607639098999
Fix,GT,37.3162673,-121.9514238,,0.0010000915,0.1,168.86377,1607639099999
Fix,GT,37.3162673,-121.9514238,,0.004472034,0.1,168.86328,1607639100999
Fix,GT,37.3162673,-121.9514238,,0.007615681,0.1,168.86273,1607639101999
Fix,GT,37.3162673,-121.9514238,,0.010770236,0.1,168.86188,1607639102999
Fix,GT,37.3162674,-121.9514238,,0.013601388,0.1,168.86096,1607639103999
Fix,GT,37.3162675,-121.9514237,,0.018438946,0.1,168.86029,1607639104999
Fix,GT,37.3162677,-121.9514236,,0.024999807,0.1,168.85962,1607639105999
Fix,GT,37.316268,-121.9514235,,0.031320732,0.1,168.85913,1607639106999
Fix,GT,37.3162684,-121.9514233,,0.03889708,0.1,168.85858,1607639107999
Fix,GT,37.3162688,-121.9514231,,0.04808299,0.1,168.85773,1607639108999
Fix,GT,37.3162682,-121.9514225,,0.4327334,0.1,168.87,1607639109999
Fix,GT,37.3162568,-121.951419,,2.3641815,0.1,168.5055,1607639110999
Fix,GT,37.3162296,-121.9514059,,4.159974,0.1,160.55383,1607639111999
Fix,GT,37.3161941,-121.9513743,,5.7671237,0.1,144.56647,1607639112999
Fix,GT,37.3161589,-121.9513179,,6.8667903,0.1,124.92261,1607639113999
Fix,GT,37.316138,-121.9512463,,6.7567873,0.1,107.55734,1607639114999
Fix,GT,37.3161355,-121.9511703,,7.1757555,0.1,90.854706,1607639115999
Fix,GT,37.3161364,-121.9510833,,8.349092,0.1,90.349915,1607639116999
Fix,GT,37.3161355,-121.950976,,10.769986,0.1,91.22296,1607639117999
Fix,GT,37.3161325,-121.9508454,,11.890104,0.1,92.299805,1607639118999
Fix,GT,37.3161287,-121.9507118,,11.773508,0.1,92.04019,1607639119999
Fix,GT,37.3161251,-121.9505804,,11.540507,0.1,92.38843,1607639120999
Fix,GT,37.3161211,-121.9504535,,10.633256,0.1,92.53824,1607639121999
Fix,GT,37.3161205,-121.9503442,,8.904419,0.1,88.26526,1607639122999
Fix,GT,37.3161332,-121.9502504,,8.185185,0.1,77.250305,1607639123999
Fix,GT,37.3161655,-121.9501747,,7.389327,0.1,57.29242,1607639124999
Fix,GT,37.3162166,-121.9501268,,7.1953073,0.1,31.493378,1607639125999
Fix,GT,37.3162798,-121.9501124,,7.50116,0.1,6.306305,1607639126999
Fix,GT,37.3163501,-121.9501143,,8.2223835,0.1,359.39526,1607639127999
Fix,GT,37.3164278,-121.9501171,,9.008024,0.1,358.90765,1607639128999
Fix,GT,37.3165095,-121.9501193,,9.04781,0.1,359.29376,1607639129999
Fix,GT,37.3165904,-121.9501211,,8.941619,0.1,359.29767,1607639130999
Fix,GT,37.316669,-121.9501229,,8.414959,0.1,359.61072,1607639131999
Fix,GT,37.3167406,-121.9501234,,7.2982564,0.1,359.9324,1607639132999
Fix,GT,37.3167982,-121.9501237,,5.45115,0.1,0.09866333,1607639133999
Fix,GT,37.3168377,-121.950124,,3.3781412,0.1,0.09591675,1607639134999
Fix,GT,37.3168605,-121.950124,,1.80811,0.1,0.26330566,1607639135999
Fix,GT,37.3168702,-121.9501241,,0.35521463,0.1,0.3267517,1607639136999
Fix,GT,37.3168706,-121.9501242,,0.008954838,0.1,0.33087158,1607639137999
Fix,GT,37.3168706,-121.9501242,,0.0064032017,0.1,0.3283081,1607639138999
Fix,GT,37.3168706,-121.9501242,,0.0031623768,0.1,0.32681274,1607639139999
Fix,GT,37.3168706,-121.9501242,,0.003000005,0.1,0.32565308,1607639140999
Fix,GT,37.3168706,-121.9501242,,0.0031622727,0.1,0.32458496,1607639141999
Fix,GT,37.3168706,-121.9501242,,0.004472096,0.1,0.3234253,1607639142999
Fix,GT,37.3168706,-121.9501242,,0.0042426474,0.1,0.32250977,1607639143999
Fix,GT,37.3168706,-121.9501242,,0.0049999766,0.1,0.32138062,1607639144999
Fix,GT,37.3168706,-121.9501242,,0.006403081,0.1,0.32034302,1607639145999
Fix,GT,37.3168706,-121.9501242,,0.0064031244,0.1,0.31918335,1607639146999
Fix,GT,37.3168705,-121.9501242,,0.0064031244,0.1,0.3183899,1607639147999
Fix,GT,37.3168714,-121.9501241,,0.28307804,0.1,0.32400513,1607639148999
Fix,GT,37.3168758,-121.950124,,0.63505286,0.1,0.32138062,1607639149999
Fix,GT,37.3168814,-121.9501239,,0.5620343,0.1,0.31756592,1607639150999
Fix,GT,37.3168857,-121.9501239,,0.37807053,0.1,0.31469727,1607639151999
Fix,GT,37.3168882,-121.9501238,,0.14712955,0.1,0.30999756,1607639152999
Fix,GT,37.3168886,-121.9501238,,0.0063289274,0.1,0.3093567,1607639153999
Fix,GT,37.3168886,-121.9501238,,0.006403122,0.1,0.3078308,1607639154999
Fix,GT,37.3168886,-121.9501238,,0.0064031244,0.1,0.30670166,1607639155999
Fix,GT,37.3168886,-121.9501238,,0.0064031244,0.1,0.30548096,1607639156999
Fix,GT,37.3168886,-121.9501238,,0.0050000437,0.1,0.30471802,1607639157999
Fix,GT,37.3168886,-121.9501238,,0.0056568338,0.1,0.30392456,1607639158999
Fix,GT,37.3168886,-121.9501238,,0.0050000204,0.1,0.30303955,1607639159999
Fix,GT,37.3168886,-121.9501238,,0.005,0.1,0.30212402,1607639160999
Fix,GT,37.3168886,-121.9501238,,0.0044721523,0.1,0.3012085,1607639161999
Fix,GT,37.3168886,-121.9501238,,0.005385136,0.1,0.30029297,1607639162999
Fix,GT,37.3168886,-121.9501238,,0.0053851646,0.1,0.29885864,1607639163999
Fix,GT,37.3168886,-121.9501238,,0.004472165,0.1,0.2977295,1607639164999
Fix,GT,37.3168886,-121.9501238,,0.004472136,0.1,0.29675293,1607639165999
Fix,GT,37.3168886,-121.9501238,,0.004472136,0.1,0.2958374,1607639166999
Fix,GT,37.3168886,-121.9501238,,0.004472136,0.1,0.2949829,1607639167999
Fix,GT,37.3168886,-121.9501238,,0.004472136,0.1,0.29400635,1607639168999
Fix,GT,37.3168886,-121.9501238,,0.004472136,0.1,0.2930298,1607639169999
Fix,GT,37.3168886,-121.9501238,,0.0053851358,0.1,0.291687,1607639170999
Fix,GT,37.3168886,-121.9501238,,0.0053851646,0.1,0.29067993,1607639171999
Fix,GT,37.3168886,-121.9501238,,0.0053851646,0.1,0.28970337,1607639172999
Fix,GT,37.3168886,-121.9501238,,0.0058309375,0.1,0.28878784,1607639173999
Fix,GT,37.3168886,-121.9501238,,0.0064031063,0.1,0.28799438,1607639174999
Fix,GT,37.3168886,-121.9501238,,0.007071046,0.1,0.28689575,1607639175999
Fix,GT,37.3168886,-121.9501238,,0.010295528,0.1,0.2848816,1607639176999
Fix,GT,37.3168886,-121.9501238,,0.01029563,0.1,0.2838745,1607639177999
Fix,GT,37.3168886,-121.9501238,,0.012529893,0.1,0.28302002,1607639178999
Fix,GT,37.3168885,-121.9501238,,0.013928344,0.1,0.28207397,1607639179999
Fix,GT,37.3168885,-121.9501238,,0.013928388,0.1,0.28207397,1607639180999
Fix,GT,37.3168911,-121.9501237,,0.69300425,0.1,0.28051758,1607639181999
Fix,GT,37.3169005,-121.9501237,,1.324004,0.1,0.26776123,1607639182999
Fix,GT,37.3169138,-121.9501237,,1.638001,0.1,0.25546265,1607639183999
Fix,GT,37.3169298,-121.9501238,,1.9649918,0.1,0.19369507,1607639184999
Fix,GT,37.3169516,-121.9501239,,2.900984,0.1,0.14157104,1607639185999
Fix,GT,37.3169841,-121.9501239,,4.360954,0.1,0.06604004,1607639186999
Fix,GT,37.3170308,-121.9501241,,5.7569933,0.1,0.046081543,1607639187999
Fix,GT,37.3170832,-121.9501244,,5.7700377,0.1,0.10549927,1607639188999
Fix,GT,37.3171349,-121.950127,,5.904926,0.1,356.88647,1607639189999
Fix,GT,37.3171874,-121.950143,,6.1131477,0.1,344.00208,1607639190999
Fix,GT,37.3172325,-121.9501792,,6.145739,0.1,325.11102,1607639191999
Fix,GT,37.3172669,-121.9502358,,6.811308,0.1,304.52,1607639192999
Fix,GT,37.3172841,-121.9503135,,7.776086,0.1,281.2475,1607639193999
Fix,GT,37.3172798,-121.9504064,,8.8932905,0.1,264.80353,1607639194999
Fix,GT,37.3172696,-121.9505145,,10.600947,0.1,263.88196,1607639195999
Fix,GT,37.3172581,-121.9506443,,12.450332,0.1,264.00397,1607639196999
Fix,GT,37.317245,-121.9507921,,13.863316,0.1,263.8414,1607639197999
Fix,GT,37.31723,-121.9509538,,15.015147,0.1,263.64423,1607639198999
Fix,GT,37.3172143,-121.9511283,,16.052074,0.1,263.86755,1607639199999
Fix,GT,37.3171985,-121.9513119,,16.575668,0.1,264.1604,1607639200999
Fix,GT,37.3171825,-121.9514995,,16.902002,0.1,263.8042,1607639201999
Fix,GT,37.3171651,-121.9516917,,17.420706,0.1,263.73102,1607639202999
Fix,GT,37.3171458,-121.9518908,,18.084997,0.1,262.8288,1607639203999
Fix,GT,37.3171239,-121.9520928,,18.014637,0.1,262.21866,1607639204999
Fix,GT,37.3171013,-121.9522929,,17.831284,0.1,261.84003,1607639205999
Fix,GT,37.3170782,-121.9524909,,17.624289,0.1,261.76953,1607639206999
Fix,GT,37.3170556,-121.952688,,17.722641,0.1,262.01263,1607639207999
Fix,GT,37.3170331,-121.9528878,,18.085806,0.1,262.0862,1607639208999
Fix,GT,37.3170099,-121.9530933,,18.762638,0.1,261.95532,1607639209999
Fix,GT,37.3169855,-121.9533077,,19.638588,0.1,261.85367,1607639210999
Fix,GT,37.3169592,-121.9535321,,20.59079,0.1,261.72275,1607639211999
Fix,GT,37.3169323,-121.9537673,,21.53126,0.1,261.89832,1607639212999
Fix,GT,37.3169043,-121.9540124,,22.303802,0.1,261.75897,1607639213999
Fix,GT,37.3168752,-121.9542644,,22.783257,0.1,261.943,1607639214999
Fix,GT,37.3168472,-121.9545192,,22.704012,0.1,262.3465,1607639215999
Fix,GT,37.31682,-121.9547716,,22.459644,0.1,262.08942,1607639216999
Fix,GT,37.3167924,-121.9550213,,22.206812,0.1,262.25525,1607639217999
Fix,GT,37.316766,-121.9552681,,21.923828,0.1,262.51724,1607639218999
Fix,GT,37.3167414,-121.9555118,,21.653654,0.1,263.12628,1607639219999
Fix,GT,37.31672,-121.9557545,,21.639513,0.1,263.88242,1607639220999
Fix,GT,37.3166969,-121.9559977,,21.87297,0.1,262.65826,1607639221999
Fix,GT,37.3166704,-121.9562457,,22.643457,0.1,262.04926,1607639222999
Fix,GT,37.3166425,-121.9565042,,23.579311,0.1,262.91675,1607639223999
Fix,GT,37.3166192,-121.9567742,,24.547148,0.1,264.36768,1607639224999
Fix,GT,37.3166009,-121.9570557,,25.478415,0.1,266.08838,1607639225999
Fix,GT,37.3165874,-121.957348,,26.40884,0.1,267.02588,1607639226999
Fix,GT,37.3165765,-121.9576507,,27.319485,0.1,267.71204,1607639227999
Fix,GT,37.3165679,-121.9579639,,28.189636,0.1,268.2994,1607639228999
Fix,GT,37.3165622,-121.9582853,,28.805285,0.1,269.0366,1607639229999
Fix,GT,37.3165596,-121.9586134,,29.32129,0.1,269.8581,1607639230999
Fix,GT,37.3165609,-121.9589471,,29.815336,0.1,270.6785,1607639231999
Fix,GT,37.3165656,-121.9592862,,30.314823,0.1,271.18137,1607639232999
Fix,GT,37.3165713,-121.9596309,,30.792887,0.1,271.10156,1607639233999
Fix,GT,37.3165772,-121.9599806,,31.17342,0.1,271.32574,1607639234999
Fix,GT,37.316584,-121.9603334,,31.394691,0.1,271.26736,1607639235999
Fix,GT,37.3165898,-121.9606885,,31.57226,0.1,271.08786,1607639236999
Fix,GT,37.3165953,-121.9610451,,31.64106,0.1,270.88974,1607639237999
Fix,GT,37.3165997,-121.9614019,,31.635143,0.1,270.8972,1607639238999
Fix,GT,37.3166047,-121.9617586,,31.603737,0.1,271.0734,1607639239999
Fix,GT,37.3166105,-121.9621146,,31.501566,0.1,271.13956,1607639240999
Fix,GT,37.316616,-121.962469,,31.354841,0.1,271.04144,1607639241999
Fix,GT,37.3166206,-121.962822,,31.204323,0.1,270.8647,1607639242999
Fix,GT,37.3166256,-121.9631715,,30.775587,0.1,271.2095,1607639243999
Fix,GT,37.3166297,-121.9635161,,30.357447,0.1,270.48306,1607639244999
Fix,GT,37.3166299,-121.9638573,,30.127293,0.1,269.60657,1607639245999
Fix,GT,37.3166263,-121.9641953,,29.80819,0.1,268.9685,1607639246999
Fix,GT,37.3166191,-121.9645298,,29.569563,0.1,268.07944,1607639247999
Fix,GT,37.3166091,-121.9648625,,29.468374,0.1,267.78207,1607639248999
Fix,GT,37.316599,-121.9651947,,29.488672,0.1,267.8545,1607639249999
Fix,GT,37.316589,-121.9655277,,29.57975,0.1,267.71088,1607639250999
Fix,GT,37.3165782,-121.9658617,,29.679752,0.1,267.62143,1607639251999
Fix,GT,37.3165672,-121.9661964,,29.667892,0.1,267.6333,1607639252999
Fix,GT,37.3165565,-121.9665303,,29.592546,0.1,267.56604,1607639253999
Fix,GT,37.3165449,-121.9668639,,29.583912,0.1,267.30933,1607639254999
Fix,GT,37.3165323,-121.9671968,,29.47357,0.1,267.19012,1607639255999
Fix,GT,37.3165203,-121.9675281,,29.310886,0.1,267.54996,1607639256999
Fix,GT,37.3165121,-121.9678575,,29.082302,0.1,268.93774,1607639257999
Fix,GT,37.3165118,-121.9681841,,28.781546,0.1,270.88828,1607639258999
Fix,GT,37.3165185,-121.9685069,,28.41603,0.1,271.95007,1607639259999
Fix,GT,37.316529,-121.9688251,,28.04098,0.1,272.67853,1607639260999
Fix,GT,37.3165425,-121.9691388,,27.654222,0.1,273.3819,1607639261999
Fix,GT,37.3165579,-121.969448,,27.274126,0.1,273.47943,1607639262999
Fix,GT,37.3165711,-121.9697529,,26.894573,0.1,272.6541,1607639263999
Fix,GT,37.3165816,-121.970054,,26.53983,0.1,272.20538,1607639264999
Fix,GT,37.3165894,-121.9703512,,26.18964,0.1,271.5407,1607639265999
Fix,GT,37.3165977,-121.9706447,,25.84401,0.1,272.6748,1607639266999
Fix,GT,37.3166129,-121.9709338,,25.50721,0.1,274.44366,1607639267999
Fix,GT,37.3166351,-121.9712188,,25.210648,0.1,276.05917,1607639268999
Fix,GT,37.3166625,-121.9714996,,24.89146,0.1,277.5255,1607639269999
Fix,GT,37.3166949,-121.9717716,,23.611223,0.1,279.0984,1607639270999
Fix,GT,37.3167329,-121.9720255,,22.498888,0.1,281.71896,1607639271999
Fix,GT,37.3167823,-121.9722705,,22.284838,0.1,286.13187,1607639272999
Fix,GT,37.3168477,-121.9725097,,22.520803,0.1,290.52692,1607639273999
Fix,GT,37.3169257,-121.9727448,,22.504255,0.1,293.94437,1607639274999
Fix,GT,37.3170131,-121.9729728,,22.295845,0.1,296.51846,1607639275999
Fix,GT,37.3171035,-121.973195,,21.865578,0.1,297.08774,1607639276999
Fix,GT,37.3171911,-121.9734121,,21.261011,0.1,296.4651,1607639277999
Fix,GT,37.3172752,-121.9736225,,20.265562,0.1,296.48547,1607639278999
Fix,GT,37.3173532,-121.9738183,,18.532593,0.1,296.33902,1607639279999
Fix,GT,37.3174229,-121.9739916,,15.631992,0.1,297.04282,1607639280999
Fix,GT,37.3174899,-121.9741266,,12.493008,0.1,304.98782,1607639281999
Fix,GT,37.3175625,-121.9742176,,10.188936,0.1,320.13885,1607639282999
Fix,GT,37.3176383,-121.974267,,8.484843,0.1,336.99307,1607639283999
Fix,GT,37.3177082,-121.9742829,,7.3899446,0.1,351.50043,1607639284999
Fix,GT,37.3177747,-121.9742871,,7.3230844,0.1,357.33762,1607639285999
Fix,GT,37.3178424,-121.9742859,,7.697938,0.1,0.6927185,1607639286999
Fix,GT,37.3179133,-121.9742819,,7.846442,0.1,2.827423,1607639287999
Fix,GT,37.3179827,-121.9742662,,7.6820345,0.1,12.504791,1607639288999
Fix,GT,37.3180473,-121.9742334,,7.597132,0.1,23.766907,1607639289999
Fix,GT,37.3181071,-121.9741914,,7.442965,0.1,30.003754,1607639290999
Fix,GT,37.3181594,-121.9741492,,6.1206117,0.1,32.899628,1607639291999
Fix,GT,37.3181972,-121.9741163,,3.8507316,0.1,34.352966,1607639292999
Fix,GT,37.3182175,-121.9740985,,1.7299796,0.1,34.4953,1607639293999
Fix,GT,37.3182232,-121.9740932,,0.07223842,0.1,34.523743,1607639294999
Fix,GT,37.3182231,-121.9740929,,0.02602084,0.1,34.525604,1607639295999
Fix,GT,37.3182231,-121.9740927,,0.017464548,0.1,34.521606,1607639296999
Fix,GT,37.3182231,-121.9740926,,0.011704902,0.1,34.520416,1607639297999
Fix,GT,37.318223,-121.9740926,,0.008485394,0.1,34.519257,1607639298999
Fix,GT,37.3182229,-121.9740926,,0.0076158037,0.1,34.518402,1607639299999
Fix,GT,37.3182229,-121.9740926,,0.0070000216,0.1,34.51715,1607639300999
Fix,GT,37.3182228,-121.9740927,,0.00806222,0.1,34.516113,1607639301999
Fix,GT,37.3182228,-121.9740927,,0.0072801374,0.1,34.514862,1607639302999
Fix,GT,37.3182227,-121.9740928,,0.0063245893,0.1,34.51367,1607639303999
Fix,GT,37.3182227,-121.9740928,,0.0053851977,0.1,34.512665,1607639304999
Fix,GT,37.3182226,-121.9740929,,0.0041231504,0.1,34.51184,1607639305999
Fix,GT,37.3182226,-121.9740929,,0.0030000398,0.1,34.510803,1607639306999
Fix,GT,37.3182226,-121.9740929,,0.003,0.1,34.509552,1607639307999
Fix,GT,37.3182226,-121.9740929,,0.0020000355,0.1,34.50885,1607639308999
Fix,GT,37.3182226,-121.9740929,,0.002,0.1,34.508423,1607639309999
Fix,GT,37.3182226,-121.9740929,,0.002,0.1,34.50714,1607639310999
Fix,GT,37.3182226,-121.9740929,,0.002,0.1,34.506287,1607639311999
Fix,GT,37.3182226,-121.9740929,,0.0029999644,0.1,34.505432,1607639312999
Fix,GT,37.3182226,-121.9740929,,0.0020000357,0.1,34.504456,1607639313999
Fix,GT,37.3182226,-121.9740929,,0.0029999646,0.1,34.5036,1607639314999
Fix,GT,37.3182226,-121.9740929,,0.003,0.1,34.502747,1607639315999
Fix,GT,37.3182226,-121.9740929,,0.0031622718,0.1,34.50186,1607639316999
Fix,GT,37.3182226,-121.9740929,,0.0030000058,0.1,34.500763,1607639317999
Fix,GT,37.3182226,-121.9740929,,0.0031622718,0.1,34.499817,1607639318999
Fix,GT,37.3182226,-121.9740929,,0.0031622776,0.1,34.4989,1607639319999
Fix,GT,37.3182226,-121.9740929,,0.0030000058,0.1,34.49823,1607639320999
Fix,GT,37.3182226,-121.9740929,,0.003,0.1,34.497223,1607639321999
Fix,GT,37.3182226,-121.9740929,,0.0031622718,0.1,34.497467,1607639322999
Fix,GT,37.3182226,-121.9740929,,0.0031622776,0.1,34.496857,1607639323999
Fix,GT,37.3182226,-121.974093,,0.0031622776,0.1,34.495544,1607639324999
Fix,GT,37.3182226,-121.974093,,0.0030000058,0.1,34.49463,1607639325999
Fix,GT,37.3182226,-121.974093,,0.003,0.1,34.493713,1607639326999
Fix,GT,37.3182226,-121.974093,,0.002000036,0.1,34.49301,1607639327999
Fix,GT,37.3182226,-121.974093,,0.0029999642,0.1,34.492218,1607639328999
Fix,GT,37.3182226,-121.974093,,0.003,0.1,34.490936,1607639329999
Fix,GT,37.3182226,-121.974093,,0.003,0.1,34.49008,1607639330999
Fix,GT,37.3182226,-121.974093,,0.003,0.1,34.488953,1607639331999
Fix,GT,37.3182226,-121.974093,,0.003,0.1,34.48816,1607639332999
Fix,GT,37.3182226,-121.974093,,0.003,0.1,34.487213,1607639333999
Fix,GT,37.3182226,-121.974093,,0.003,0.1,34.48645,1607639334999
Fix,GT,37.3182226,-121.974093,,0.003,0.1,34.485382,1607639335999
Fix,GT,37.3182226,-121.974093,,0.0031622716,0.1,34.48419,1607639336999
Fix,GT,37.3182226,-121.974093,,0.0031622776,0.1,34.483154,1607639337999
Fix,GT,37.3182226,-121.974093,,0.0030000058,0.1,34.482178,1607639338999
Fix,GT,37.3182226,-121.974093,,0.003,0.1,34.4812,1607639339999
Fix,GT,37.3182226,-121.974093,,0.003,0.1,34.48001,1607639340999
Fix,GT,37.3182226,-121.974093,,0.0031622718,0.1,34.477966,1607639341999
Fix,GT,37.3182226,-121.974093,,0.0020000422,0.1,34.477478,1607639342999
Fix,GT,37.3182226,-121.974093,,0.0031622355,0.1,34.476593,1607639343999
Fix,GT,37.3182226,-121.974093,,0.0030000058,0.1,34.47589,1607639344999
Fix,GT,37.3182226,-121.974093,,0.0022360957,0.1,34.47464,1607639345999
Fix,GT,37.3182226,-121.974093,,0.0029999723,0.1,34.473145,1607639346999
Fix,GT,37.3182226,-121.974093,,0.003,0.1,34.472992,1607639347999
Fix,GT,37.3182226,-121.974093,,0.003,0.1,34.472076,1607639348999
Fix,GT,37.3182226,-121.974093,,0.0020000364,0.1,34.470062,1607639349999
Fix,GT,37.3182226,-121.974093,,0.0022360594,0.1,34.468628,1607639350999
Fix,GT,37.3182226,-121.974093,,0.002999972,0.1,34.467285,1607639351999
Fix,GT,37.3182226,-121.974093,,0.003,0.1,34.466278,1607639352999
Fix,GT,37.3182226,-121.974093,,0.003,0.1,34.46524,1607639353999
Fix,GT,37.3182226,-121.974093,,0.003,0.1,34.463867,1607639354999
Fix,GT,37.3182226,-121.974093,,0.0041230647,0.1,34.462524,1607639355999
Fix,GT,37.3182226,-121.974093,,0.0031623128,0.1,34.461395,1607639356999
Fix,GT,37.3182226,-121.974093,,0.0031622776,0.1,34.460205,1607639357999
Fix,GT,37.3182226,-121.974093,,0.0031622776,0.1,34.45883,1607639358999
Fix,GT,37.3182226,-121.974093,,0.0041230703,0.1,34.45761,1607639359999
Fix,GT,37.3182226,-121.974093,,0.0031623128,0.1,34.4563,1607639360999
Fix,GT,37.3182226,-121.974093,,0.0031622776,0.1,34.454742,1607639361999
Fix,GT,37.3182226,-121.974093,,0.0031622776,0.1,34.453796,1607639362999
Fix,GT,37.3182226,-121.974093,,0.0031622776,0.1,34.452576,1607639363999
Fix,GT,37.3182226,-121.974093,,0.0031622776,0.1,34.451233,1607639364999
Fix,GT,37.3182226,-121.974093,,0.0041230703,0.1,34.449585,1607639365999
Fix,GT,37.3182226,-121.974093,,0.003162313,0.1,34.447998,1607639366999
Fix,GT,37.3182226,-121.974093,,0.003605535,0.1,34.446075,1607639367999
Fix,GT,37.3182226,-121.974093,,0.0036055513,0.1,34.444183,1607639368999
Fix,GT,37.3182226,-121.974093,,0.0036055513,0.1,34.44214,1607639369999
Fix,GT,37.3182226,-121.974093,,0.0028284558,0.1,34.43988,1607639370999
Fix,GT,37.3182226,-121.974093,,0.0036055227,0.1,34.437805,1607639371999
Fix,GT,37.3182226,-121.974093,,0.0028284558,0.1,34.435425,1607639372999
Fix,GT,37.3182226,-121.974093,,0.0022360901,0.1,34.433197,1607639373999
Fix,GT,37.3182226,-121.974093,,0.002236068,0.1,34.43097,1607639374999
Fix,GT,37.3182225,-121.974093,,0.002000009,0.1,34.428925,1607639375999
Fix,GT,37.3182225,-121.9740931,,0.0022360592,0.1,34.426514,1607639376999
Fix,GT,37.3182225,-121.9740931,,0.002236068,0.1,34.424164,1607639377999
Fix,GT,37.3182225,-121.9740931,,0.0014142441,0.1,34.421783,1607639378999
Fix,GT,37.3182225,-121.9740931,,0.0022360375,0.1,34.41925,1607639379999
Fix,GT,37.3182225,-121.9740931,,0.002000009,0.1,34.41693,1607639380999
Fix,GT,37.3182225,-121.9740931,,0.002,0.1,34.414642,1607639381999
Fix,GT,37.3182225,-121.9740931,,0.0031622343,0.1,34.411987,1607639382999
Fix,GT,37.3182226,-121.9740931,,0.0036055348,0.1,34.409454,1607639383999
Fix,GT,37.3182226,-121.9740931,,0.002236119,0.1,34.40677,1607639384999
Fix,GT,37.3182226,-121.9740931,,0.0020000087,0.1,34.404236,1607639385999
Fix,GT,37.3182226,-121.9740931,,0.0022360594,0.1,34.401978,1607639386999
Fix,GT,37.3182226,-121.974093,,0.002236068,0.1,34.39908,1607639387999
Fix,GT,37.3182226,-121.974093,,0.005385047,0.1,34.396423,1607639388999
Fix,GT,37.3182226,-121.974093,,0.007999903,0.1,34.393494,1607639389999
Fix,GT,37.3182225,-121.9740931,,0.0121653695,0.1,34.39087,1607639390999
Fix,GT,37.3182225,-121.9740931,,0.01746405,0.1,34.38803,1607639391999
Fix,GT,37.3182224,-121.9740932,,0.023769492,0.1,34.385437,1607639392999
Fix,GT,37.3182222,-121.9740932,,0.031320635,0.1,34.38263,1607639393999
Fix,GT,37.3182221,-121.9740933,,0.039849397,0.1,34.3797,1607639394999
Fix,GT,37.3182218,-121.9740934,,0.05059604,0.1,34.37668,1607639395999
Fix,GT,37.3182215,-121.9740936,,0.06074499,0.1,34.37375,1607639396999
Fix,GT,37.3182223,-121.9740927,,0.55102605,0.1,34.363617,1607639397999
Fix,GT,37.3182331,-121.9740839,,2.3685772,0.1,33.338165,1607639398999
Fix,GT,37.3182585,-121.9740757,,3.3434336,0.1,18.020721,1607639399999
Fix,GT,37.3182832,-121.9740941,,3.2957337,0.1,339.53827,1607639400999
Fix,GT,37.3182914,-121.9741323,,3.61755,0.1,295.74097,1607639401999
Fix,GT,37.3182748,-121.9741705,,4.253713,0.1,249.66344,1607639402999
Fix,GT,37.3182368,-121.9742017,,6.0855985,0.1,215.9501,1607639403999
Fix,GT,37.3181803,-121.974237,,8.040166,0.1,207.66617,1607639404999
Fix,GT,37.3181091,-121.974283,,9.61711,0.1,207.48785,1607639405999
Fix,GT,37.318026,-121.9743362,,11.156778,0.1,207.05138,1607639406999
Fix,GT,37.3179338,-121.974396,,11.618762,0.1,207.98709,1607639407999
Fix,GT,37.317843,-121.974459,,11.260939,0.1,209.75246,1607639408999
Fix,GT,37.3177616,-121.9745201,,9.616692,0.1,211.67413,1607639409999
Fix,GT,37.3176966,-121.9745724,,7.462027,0.1,212.94783,1607639410999
Fix,GT,37.3176484,-121.9746116,,5.369726,0.1,212.80386,1607639411999
Fix,GT,37.3176131,-121.9746402,,4.12903,0.1,212.92203,1607639412999
Fix,GT,37.3175852,-121.9746633,,3.4297233,0.1,213.015,1607639413999
Fix,GT,37.3175607,-121.9746836,,3.1024659,0.1,213.24959,1607639414999
Fix,GT,37.3175377,-121.9747028,,3.0930386,0.1,213.37323,1607639415999
Fix,GT,37.317514,-121.9747227,,3.3551204,0.1,213.31195,1607639416999
Fix,GT,37.317486,-121.974746,,4.171878,0.1,213.20403,1607639417999
Fix,GT,37.3174512,-121.9747745,,5.157986,0.1,212.96608,1607639418999
Fix,GT,37.3174057,-121.9748118,,7.0047946,0.1,213.02103,1607639419999
Fix,GT,37.3173461,-121.9748615,,8.815782,0.1,213.56769,1607639420999
Fix,GT,37.3172788,-121.9749182,,9.0857525,0.1,213.84421,1607639421999
Fix,GT,37.3172099,-121.9749761,,9.315392,0.1,213.72511,1607639422999
Fix,GT,37.3171408,-121.9750341,,9.126049,0.1,213.84602,1607639423999
Fix,GT,37.3170748,-121.9750894,,8.400418,0.1,213.67577,1607639424999
Fix,GT,37.3170175,-121.9751374,,6.7338805,0.1,213.78464,1607639425999
Fix,GT,37.3169751,-121.9751726,,4.5131345,0.1,213.40233,1607639426999
Fix,GT,37.3169491,-121.9751936,,2.3089063,0.1,212.62233,1607639427999
Fix,GT,37.3169382,-121.9752023,,0.5902928,0.1,212.39378,1607639428999
Fix,GT,37.3169375,-121.9752029,,0.0054075792,0.1,212.38031,1607639429999
Fix,GT,37.3169376,-121.9752029,,0.010049697,0.1,212.3801,1607639430999
Fix,GT,37.3169377,-121.9752029,,0.0063246978,0.1,212.37671,1607639431999
Fix,GT,37.3169377,-121.975203,,0.00412319,0.1,212.37544,1607639432999
Fix,GT,37.3169377,-121.9752029,,0.0022361404,0.1,212.37404,1607639433999
Fix,GT,37.3169377,-121.9752029,,0.002236068,0.1,212.37291,1607639434999
Fix,GT,37.3169377,-121.9752029,,0.0014142451,0.1,212.37157,1607639435999
Fix,GT,37.3169377,-121.9752029,,5.4369433e-08,0.1,212.3701,1607639436999
Fix,GT,37.3169377,-121.9752029,,0.0009999616,0.1,212.36847,1607639437999
Fix,GT,37.3169377,-121.9752029,,3.8504602e-08,0.1,212.36736,1607639438999
Fix,GT,37.3169377,-121.9752029,,0.0009999615,0.1,212.36594,1607639439999
Fix,GT,37.3169377,-121.9752029,,3.8504602e-08,0.1,212.36449,1607639440999
Fix,GT,37.3169377,-121.9752029,,0.0,0.1,212.36288,1607639441999
Fix,GT,37.3169377,-121.9752029,,0.0009999615,0.1,212.36147,1607639442999
Fix,GT,37.3169377,-121.9752029,,0.001,0.1,212.36002,1607639443999
Fix,GT,37.3169377,-121.9752029,,0.001,0.1,212.35841,1607639444999
Fix,GT,37.3169377,-121.9752029,,0.0014141975,0.1,212.35718,1607639445999
Fix,GT,37.3169377,-121.9752029,,0.0014142136,0.1,212.35577,1607639446999
Fix,GT,37.3169377,-121.975203,,0.0014142136,0.1,212.3541,1607639447999
Fix,GT,37.3169377,-121.975203,,0.0028283722,0.1,212.35268,1607639448999
Fix,GT,37.3169377,-121.975203,,0.0028284271,0.1,212.35124,1607639449999
Fix,GT,37.3169377,-121.975203,,0.0028284271,0.1,212.34998,1607639450999
Fix,GT,37.3169377,-121.975203,,0.0022360908,0.1,212.34859,1607639451999
Fix,GT,37.3169377,-121.9752031,,0.0028284043,0.1,212.34708,1607639452999
Fix,GT,37.3169377,-121.9752031,,0.0022360908,0.1,212.34552,1607639453999
Fix,GT,37.3169377,-121.9752031,,0.001000048,0.1,212.34398,1607639454999
Fix,GT,37.3169377,-121.9752031,,0.0014141975,0.1,212.34259,1607639455999
Fix,GT,37.3169377,-121.9752031,,0.0022360361,0.1,212.34096,1607639456999
Fix,GT,37.3169377,-121.9752031,,0.0044720494,0.1,212.3395,1607639457999
Fix,GT,37.3169377,-121.9752031,,0.0078101195,0.1,212.33794,1607639458999
Fix,GT,37.3169377,-121.9752031,,0.01204143,0.1,212.33655,1607639459999
Fix,GT,37.3169377,-121.9752031,,0.017691586,0.1,212.3352,1607639460999
Fix,GT,37.3169378,-121.975203,,0.02475856,0.1,212.33359,1607639461999
Fix,GT,37.3169378,-121.9752028,,0.03324121,0.1,212.33221,1607639462999
Fix,GT,37.3169379,-121.9752026,,0.060206924,0.1,212.33183,1607639463999
Fix,GT,37.3169362,-121.9752037,,0.7283289,0.1,212.28487,1607639464999
Fix,GT,37.3169238,-121.975213,,2.3679903,0.1,211.80122,1607639465999
Fix,GT,37.3168974,-121.9752305,,4.4609437,0.1,208.76062,1607639466999
Fix,GT,37.3168514,-121.9752501,,6.5770583,0.1,198.15762,1607639467999
Fix,GT,37.316791,-121.9752524,,6.929988,0.1,178.28813,1607639468999
Fix,GT,37.3167343,-121.975222,,7.293566,0.1,153.01892,1607639469999
Fix,GT,37.3166884,-121.9751583,,8.469883,0.1,127.87875,1607639470999
Fix,GT,37.3166553,-121.9750621,,10.428202,0.1,110.56067,1607639471999
Fix,GT,37.3166269,-121.9749392,,12.332868,0.1,105.95792,1607639472999
Fix,GT,37.3165961,-121.9747941,,14.299666,0.1,104.7641,1607639473999
Fix,GT,37.3165623,-121.9746269,,16.308502,0.1,104.12714,1607639474999
Fix,GT,37.3165253,-121.9744373,,18.298622,0.1,103.91052,1607639475999
Fix,GT,37.3164836,-121.9742265,,19.9582,0.1,104.06186,1607639476999
Fix,GT,37.3164396,-121.9740076,,20.01052,0.1,104.3273,1607639477999
Fix,GT,37.3163955,-121.9737896,,19.839647,0.1,104.35968,1607639478999
Fix,GT,37.3163526,-121.9735742,,19.532862,0.1,103.92505,1607639479999
Fix,GT,37.3163135,-121.9733619,,19.126253,0.1,102.39148,1607639480999
Fix,GT,37.3162808,-121.9731523,,18.769587,0.1,100.19858,1607639481999
Fix,GT,37.3162554,-121.9729454,,18.399403,0.1,97.67224,1607639482999
Fix,GT,37.3162394,-121.972741,,18.056128,0.1,94.59686,1607639483999
Fix,GT,37.3162288,-121.9725394,,17.838232,0.1,93.37555,1607639484999
Fix,GT,37.3162207,-121.9723374,,18.098204,0.1,93.10907,1607639485999
Fix,GT,37.3162115,-121.972131,,18.554985,0.1,93.33096,1607639486999
Fix,GT,37.3162006,-121.9719199,,18.947931,0.1,94.22229,1607639487999
Fix,GT,37.3161879,-121.9717039,,19.459406,0.1,94.24271,1607639488999
Fix,GT,37.3161741,-121.9714827,,19.69547,0.1,94.58667,1607639489999
Fix,GT,37.3161618,-121.9712604,,19.93618,0.1,93.21768,1607639490999
Fix,GT,37.3161555,-121.9710314,,20.87221,0.1,91.45346,1607639491999
Fix,GT,37.3161525,-121.9707881,,22.296972,0.1,90.54355,1607639492999
Fix,GT,37.3161522,-121.9705283,,23.754026,0.1,89.87134,1607639493999
Fix,GT,37.3161531,-121.9702525,,25.108196,0.1,89.67859,1607639494999
Fix,GT,37.3161567,-121.9699624,,26.391544,0.1,88.68533,1607639495999
Fix,GT,37.316164,-121.9696567,,27.872103,0.1,87.96405,1607639496999
Fix,GT,37.3161747,-121.9693339,,29.290428,0.1,87.314514,1607639497999
