MessageType,Provider,LatitudeDegrees,LongitudeDegrees,AltitudeMeters,SpeedMps,AccuracyMeters,BearingDegrees,UnixTimeMillis
Fix,GT,37.6296238,-122.4224947,,0.009879542,0.1,64.07434,1594250774447
Fix,GT,37.6296239,-122.4224946,,0.01024523,0.1,64.074585,1594250775447
Fix,GT,37.629624,-122.4224945,,0.0097839795,0.1,64.0748,1594250776447
Fix,GT,37.6296241,-122.4224944,,0.009377857,0.1,64.07446,1594250777447
Fix,GT,37.6296241,-122.4224944,,0.011179916,0.1,64.074524,1594250778447
Fix,GT,37.6296241,-122.4224944,,0.010862699,0.1,64.0748,1594250779447
Fix,GT,37.6296241,-122.4224944,,0.010737095,0.1,64.07449,1594250780447
Fix,GT,37.6296241,-122.4224944,,0.011401754,0.1,64.074585,1594250781447
Fix,GT,37.6296241,-122.4224944,,0.0113026,0.1,64.07477,1594250782447
Fix,GT,37.6296241,-122.4224944,,0.011279495,0.1,64.07495,1594250783447
Fix,GT,37.6296241,-122.4224944,,0.011401754,0.1,64.07495,1594250784447
Fix,GT,37.6296241,-122.4224944,,0.011401754,0.1,64.07477,1594250785447
Fix,GT,37.6296241,-122.4224944,,0.010971192,0.1,64.07474,1594250786447
Fix,GT,37.6296241,-122.4224944,,0.010440307,0.1,64.074646,1594250787447
Fix,GT,37.6296241,-122.4224944,,0.010771714,0.1,64.074585,1594250788447
Fix,GT,37.6296241,-122.4224944,,0.010740439,0.1,64.074615,1594250789447
Fix,GT,37.6296241,-122.4224944,,0.010306533,0.1,64.074646,1594250790447
Fix,GT,37.6296241,-122.4224944,,0.010331813,0.1,64.074646,1594250791447
Fix,GT,37.6296241,-122.4224945,,0.010306533,0.1,64.074646,1594250792447
Fix,GT,37.6296241,-122.4224945,,0.009591091,0.1,64.07471,1594250793447
Fix,GT,37.6296241,-122.4224945,,0.008966228,0.1,64.07498,1594250794447
Fix,GT,37.6296241,-122.4224945,,0.008931249,0.1,64.07492,1594250795447
Fix,GT,37.6296241,-122.4224945,,0.008379571,0.1,64.07471,1594250796447
Fix,GT,37.6296241,-122.4224945,,0.008128317,0.1,64.07474,1594250797447
Fix,GT,37.6296241,-122.4224945,,0.007209339,0.1,64.0748,1594250798447
Fix,GT,37.6296241,-122.4224945,,0.006571581,0.1,64.07468,1594250799447
Fix,GT,37.6296241,-122.4224945,,0.00614689,0.1,64.07443,1594250800447
Fix,GT,37.6296241,-122.4224945,,0.0056313165,0.1,64.07428,1594250801447
Fix,GT,37.6296241,-122.4224946,,0.0052570216,0.1,64.07437,1594250802447
Fix,GT,37.6296241,-122.4224946,,0.005539566,0.1,64.07443,1594250803447
Fix,GT,37.6296241,-122.4224946,,0.0063628517,0.1,64.07446,1594250804447
Fix,GT,37.629624,-122.4224946,,0.007832849,0.1,64.074585,1594250805447
Fix,GT,37.629624,-122.4224947,,0.010483334,0.1,64.07471,1594250806447
Fix,GT,37.629624,-122.4224947,,0.013870036,0.1,64.075195,1594250807447
Fix,GT,37.6296239,-122.4224946,,0.017161041,0.1,64.07477,1594250808447
Fix,GT,37.6296238,-122.4224946,,0.019765481,0.1,64.073975,1594250809447
Fix,GT,37.6296237,-122.4224944,,0.028332055,0.1,64.078094,1594250810447
Fix,GT,37.6296235,-122.4224942,,0.033380967,0.1,64.08374,1594250811447
Fix,GT,37.6296235,-122.4224932,,0.34712124,0.1,64.08893,1594250812447
Fix,GT,37.629626,-122.4224854,,1.3363745,0.1,64.5235,1594250813447
Fix,GT,37.6296325,-122.4224645,,2.6098986,0.1,66.30313,1594250814447
Fix,GT,37.6296422,-122.4224302,,3.8145552,0.1,68.89737,1594250815447
Fix,GT,37.6296545,-122.4223824,,5.0428433,0.1,71.04837,1594250816447
Fix,GT,37.6296694,-122.4223223,,5.979828,0.1,72.21655,1594250817447
Fix,GT,37.6296857,-122.4222558,,6.213756,0.1,72.15503,1594250818447
Fix,GT,37.6297013,-122.4221892,,6.024287,0.1,73.74182,1594250819447
Fix,GT,37.6297105,-122.4221236,,5.7248487,0.1,81.67993,1594250820447
Fix,GT,37.6297044,-122.4220611,,5.504686,0.1,100.14282,1594250821447
Fix,GT,37.6296775,-122.4220105,,5.4788094,0.1,126.6687,1594250822447
Fix,GT,37.6296354,-122.4219798,,5.455406,0.1,153.07349,1594250823447
Fix,GT,37.6295876,-122.4219763,,5.3543653,0.1,180.48541,1594250824447
Fix,GT,37.629546,-122.422002,,5.295305,0.1,210.41048,1594250825447
Fix,GT,37.6295164,-122.4220503,,5.7699833,0.1,234.47687,1594250826447
Fix,GT,37.6294919,-122.422113,,6.6061573,0.1,244.97104,1594250827447
Fix,GT,37.629465,-122.4221845,,7.285569,0.1,245.20842,1594250828447
Fix,GT,37.6294348,-122.4222605,,7.6844006,0.1,243.85645,1594250829447
Fix,GT,37.629403,-122.4223391,,7.8506827,0.1,243.52179,1594250830447
Fix,GT,37.6293714,-122.4224192,,7.9045997,0.1,244.0598,1594250831447
Fix,GT,37.6293401,-122.422499,,7.755618,0.1,244.02502,1594250832447
Fix,GT,37.6293101,-122.4225758,,7.27009,0.1,244.39235,1594250833447
Fix,GT,37.6292851,-122.422647,,6.3476377,0.1,247.76526,1594250834447
Fix,GT,37.6292719,-122.4227108,,5.217147,0.1,259.07462,1594250835447
Fix,GT,37.6292777,-122.4227631,,4.356914,0.1,282.36862,1594250836447
Fix,GT,37.6293015,-122.4227989,,4.1782594,0.1,310.1223,1594250837447
Fix,GT,37.6293336,-122.4228249,,4.356705,0.1,324.9665,1594250838447
Fix,GT,37.6293633,-122.4228567,,4.36209,0.1,317.78183,1594250839447
Fix,GT,37.6293805,-122.4229001,,4.3980803,0.1,295.71558,1594250840447
Fix,GT,37.6293818,-122.4229515,,4.9191666,0.1,272.016,1594250841447
Fix,GT,37.6293703,-122.4230103,,5.9322467,0.1,256.20715,1594250842447
Fix,GT,37.6293506,-122.4230789,,6.971256,0.1,249.7984,1594250843447
Fix,GT,37.6293248,-122.4231562,,7.7936273,0.1,246.7828,1594250844447
Fix,GT,37.6292944,-122.4232399,,8.439457,0.1,245.15741,1594250845447
Fix,GT,37.6292605,-122.4233291,,8.984239,0.1,244.1937,1594250846447
Fix,GT,37.6292245,-122.4234219,,9.1799,0.1,243.82321,1594250847447
Fix,GT,37.6291888,-122.4235146,,8.958719,0.1,244.08554,1594250848447
Fix,GT,37.629155,-122.4236039,,8.455835,0.1,244.38307,1594250849447
Fix,GT,37.6291232,-122.4236875,,7.8870115,0.1,243.71579,1594250850447
Fix,GT,37.629091,-122.4237628,,7.228983,0.1,239.56152,1594250851447
Fix,GT,37.6290545,-122.423825,,6.512501,0.1,229.51225,1594250852447
Fix,GT,37.6290102,-122.4238655,,5.892944,0.1,210.5724,1594250853447
Fix,GT,37.6289617,-122.4238755,,5.4176044,0.1,184.14035,1594250854447
Fix,GT,37.6289182,-122.4238547,,5.320555,0.1,155.71118,1594250855447
Fix,GT,37.6288884,-122.4238083,,5.556575,0.1,126.18396,1594250856447
Fix,GT,37.6288799,-122.4237455,,6.0647764,0.1,97.41705,1594250857447
Fix,GT,37.6288927,-122.4236756,,6.903985,0.1,75.48157,1594250858447
Fix,GT,37.6289203,-122.4236002,,7.8646793,0.1,64.73569,1594250859447
Fix,GT,37.6289561,-122.4235187,,8.556752,0.1,61.148834,1594250860447
Fix,GT,37.6289954,-122.4234333,,8.839561,0.1,60.187378,1594250861447
Fix,GT,37.6290354,-122.4233459,,9.00156,0.1,60.843903,1594250862447
Fix,GT,37.6290745,-122.4232558,,9.121691,0.1,62.030823,1594250863447
Fix,GT,37.6291125,-122.4231638,,9.188592,0.1,63.168274,1594250864447
Fix,GT,37.6291493,-122.4230708,,9.057699,0.1,64.166016,1594250865447
Fix,GT,37.6291829,-122.4229809,,8.289813,0.1,65.48532,1594250866447
Fix,GT,37.6292105,-122.4229018,,6.834922,0.1,66.27582,1594250867447
Fix,GT,37.6292356,-122.4228426,,5.2216916,0.1,58.84192,1594250868447
Fix,GT,37.6292667,-122.4228098,,4.301436,0.1,36.30081,1594250869447
Fix,GT,37.6293044,-122.4228038,,4.4441023,0.1,7.5356445,1594250870447
Fix,GT,37.629344,-122.4228154,,4.653024,0.1,347.81927,1594250871447
Fix,GT,37.6293828,-122.4228291,,4.247495,0.1,345.77182,1594250872447
Fix,GT,37.62942,-122.4228282,,4.0921783,0.1,2.5242615,1594250873447
Fix,GT,37.6294538,-122.4228033,,4.744027,0.1,29.778625,1594250874447
Fix,GT,37.6294831,-122.4227552,,6.0328245,0.1,52.418243,1594250875447
Fix,GT,37.6295114,-122.4226872,,7.4672794,0.1,62.63614,1594250876447
Fix,GT,37.6295421,-122.4226046,,8.545171,0.1,64.93866,1594250877447
Fix,GT,37.6295753,-122.4225135,,9.066406,0.1,65.16962,1594250878447
Fix,GT,37.6296091,-122.4224194,,9.1503105,0.1,65.38574,1594250879447
Fix,GT,37.629642,-122.4223261,,8.842868,0.1,65.82825,1594250880447
Fix,GT,37.6296721,-122.4222378,,8.082878,0.1,66.65515,1594250881447
Fix,GT,37.6296959,-122.4221576,,6.9910264,0.1,70.89505,1594250882447
Fix,GT,37.6297048,-122.4220869,,5.800537,0.1,85.068115,1594250883447
Fix,GT,37.6296917,-122.4220288,,5.20967,0.1,110.05994,1594250884447
Fix,GT,37.6296587,-122.4219888,,5.2638106,0.1,139.48358,1594250885447
Fix,GT,37.6296135,-122.4219731,,5.367987,0.1,167.77875,1594250886447
Fix,GT,37.6295664,-122.421986,,5.481537,0.1,196.36067,1594250887447
Fix,GT,37.6295299,-122.4220272,,5.7620783,0.1,225.78824,1594250888447
Fix,GT,37.6295043,-122.4220871,,6.4274006,0.1,243.58234,1594250889447
Fix,GT,37.6294794,-122.4221581,,7.233515,0.1,246.52008,1594250890447
Fix,GT,37.6294508,-122.4222359,,7.840568,0.1,245.61081,1594250891447
Fix,GT,37.6294196,-122.4223178,,8.152052,0.1,244.52716,1594250892447
Fix,GT,37.6293867,-122.4224008,,8.1922865,0.1,243.45111,1594250893447
Fix,GT,37.6293529,-122.4224822,,7.9929476,0.1,242.40628,1594250894447
Fix,GT,37.6293196,-122.42256,,7.5571203,0.1,241.61368,1594250895447
Fix,GT,37.6292898,-122.4226328,,6.8169026,0.1,243.72816,1594250896447
Fix,GT,37.6292717,-122.4226999,,5.7069654,0.1,255.18875,1594250897447
Fix,GT,37.6292742,-122.4227569,,4.6294885,0.1,277.78186,1594250898447
Fix,GT,37.6292949,-122.4227985,,4.1669116,0.1,303.29517,1594250899447
Fix,GT,37.6293258,-122.4228257,,4.234643,0.1,325.059,1594250900447
Fix,GT,37.6293637,-122.4228396,,4.5754147,0.1,344.4322,1594250901447
Fix,GT,37.6294065,-122.4228359,,5.0264215,0.1,5.5532227,1594250902447
Fix,GT,37.6294492,-122.4228109,,5.5199122,0.1,27.347443,1594250903447
Fix,GT,37.6294878,-122.4227676,,5.989092,0.1,43.887543,1594250904447
Fix,GT,37.6295221,-122.4227127,,6.2553988,0.1,53.632507,1594250905447
Fix,GT,37.6295525,-122.4226527,,6.264333,0.1,58.88159,1594250906447
Fix,GT,37.6295798,-122.422592,,5.9559855,0.1,61.65219,1594250907447
Fix,GT,37.6296037,-122.4225358,,5.2033525,0.1,62.872192,1594250908447
Fix,GT,37.6296227,-122.4224896,,3.8936162,0.1,63.53955,1594250909447
Fix,GT,37.6296357,-122.4224583,,2.3558002,0.1,63.819458,1594250910447
Fix,GT,37.6296426,-122.4224417,,1.0202308,0.1,63.97751,1594250911447
Fix,GT,37.6296452,-122.4224363,,0.22500058,0.1,64.01114,1594250912447
Fix,GT,37.6296458,-122.4224358,,0.04039495,0.1,64.01959,1594250913447
Fix,GT,37.6296462,-122.4224359,,0.03435009,0.1,64.01935,1594250914447
Fix,GT,37.6296464,-122.4224359,,0.028402269,0.1,64.02054,1594250915447
Fix,GT,37.6296465,-122.4224359,,0.023476813,0.1,64.020966,1594250916447
Fix,GT,37.6296465,-122.4224359,,0.020061634,0.1,64.021454,1594250917447
Fix,GT,37.6296465,-122.4224359,,0.01670203,0.1,64.02161,1594250918447
Fix,GT,37.6296467,-122.4224359,,0.013281444,0.1,64.02167,1594250919447
Fix,GT,37.6296469,-122.4224359,,0.009873573,0.1,64.02167,1594250920447
Fix,GT,37.629647,-122.4224358,,0.006816484,0.1,64.02167,1594250921447
Fix,GT,37.6296471,-122.4224358,,0.00545883,0.1,64.02161,1594250922447
Fix,GT,37.6296471,-122.4224358,,0.0040275133,0.1,64.02167,1594250923447
Fix,GT,37.6296471,-122.4224358,,0.0025631534,0.1,64.02161,1594250924447
Fix,GT,37.6296471,-122.4224358,,0.002236068,0.1,64.02167,1594250925447
Fix,GT,37.6296471,-122.4224358,,0.0021303506,0.1,64.02185,1594250926447
Fix,GT,37.6296471,-122.4224358,,0.0015521743,0.1,64.02185,1594250927447
Fix,GT,37.6296471,-122.4224358,,0.0005521742,0.1,64.02185,1594250928447
Fix,GT,37.6296471,-122.4224358,,0.0,0.1,64.02191,1594250929447
Fix,GT,37.6296471,-122.4224358,,0.00044782585,0.1,64.022,1594250930447
Fix,GT,37.6296471,-122.4224358,,0.0005521742,0.1,64.022095,1594250931447
Fix,GT,37.6296471,-122.4224358,,0.00044782585,0.1,64.022064,1594250932447
Fix,GT,37.6296471,-122.4224358,,0.0005521742,0.1,64.02197,1594250933447
Fix,GT,37.6296471,-122.4224358,,0.0,0.1,64.022064,1594250934447
Fix,GT,37.6296471,-122.4224358,,0.0,0.1,64.02225,1594250935447
Fix,GT,37.6296471,-122.4224358,,0.0,0.1,64.02222,1594250936447
Fix,GT,37.6296471,-122.4224358,,0.00044782582,0.1,64.02234,1594250937447
Fix,GT,37.6296471,-122.4224358,,0.001,0.1,64.02237,1594250938447
Fix,GT,37.6296471,-122.4224358,,0.001,0.1,64.0224,1594250939447
Fix,GT,37.6296471,-122.4224358,,0.0011854955,0.1,64.02249,1594250940447
Fix,GT,37.6296471,-122.4224358,,0.0012287181,0.1,64.022675,1594250941447
Fix,GT,37.6296471,-122.4224358,,0.001,0.1,64.02295,1594250942447
Fix,GT,37.6296471,-122.4224358,,0.001,0.1,64.02307,1594250943447
Fix,GT,37.6296471,-122.4224358,,0.0011854955,0.1,64.0231,1594250944447
Fix,GT,37.6296471,-122.4224358,,0.00078089227,0.1,64.0231,1594250945447
Fix,GT,37.6296471,-122.4224358,,0.0,0.1,64.02307,1594250946447
Fix,GT,37.6296471,-122.4224358,,0.00044782582,0.1,64.02316,1594250947447
Fix,GT,37.6296471,-122.4224358,,0.001,0.1,64.023224,1594250948447
Fix,GT,37.6296471,-122.4224358,,0.0005521742,0.1,64.023254,1594250949447
Fix,GT,37.6296471,-122.4224358,,0.00044782582,0.1,64.023224,1594250950447
Fix,GT,37.6296471,-122.4224358,,0.001,0.1,64.0231,1594250951447
Fix,GT,37.6296471,-122.4224358,,0.001,0.1,64.02304,1594250952447
Fix,GT,37.6296471,-122.4224358,,0.0005521742,0.1,64.02316,1594250953447
Fix,GT,37.6296471,-122.4224358,,0.00044782582,0.1,64.023224,1594250954447
Fix,GT,37.6296471,-122.4224358,,0.0011854956,0.1,64.02319,1594250955447
Fix,GT,37.6296471,-122.4224358,,0.0014142136,0.1,64.02319,1594250956447
Fix,GT,37.6296471,-122.4224358,,0.0014142136,0.1,64.023315,1594250957447
Fix,GT,37.6296471,-122.4224358,,0.0012287181,0.1,64.02344,1594250958447
Fix,GT,37.6296471,-122.4224358,,0.0005521742,0.1,64.02341,1594250959447
Fix,GT,37.6296471,-122.4224358,,0.0,0.1,64.02341,1594250960447
Fix,GT,37.6296471,-122.4224358,,0.00044782585,0.1,64.0235,1594250961447
Fix,GT,37.6296471,-122.4224358,,0.0011854955,0.1,64.02356,1594250962447
Fix,GT,37.6296471,-122.4224358,,0.00078089227,0.1,64.0235,1594250963447
Fix,GT,37.6296471,-122.4224358,,0.0,0.1,64.02338,1594250964447
Fix,GT,37.6296471,-122.4224358,,0.0,0.1,64.02338,1594250965447
Fix,GT,37.6296471,-122.4224358,,0.0,0.1,64.02338,1594250966447
Fix,GT,37.6296471,-122.4224358,,0.0,0.1,64.02338,1594250967447
Fix,GT,37.6296471,-122.4224358,,0.0006333213,0.1,64.02338,1594250968447
Fix,GT,37.6296471,-122.4224358,,0.00078089227,0.1,64.0235,1594250969447
Fix,GT,37.6296471,-122.4224358,,0.0,0.1,64.02356,1594250970447
Fix,GT,37.6296471,-122.4224358,,0.0,0.1,64.02359,1594250971447
Fix,GT,37.6296471,-122.4224358,,0.00044782582,0.1,64.02362,1594250972447
Fix,GT,37.6296471,-122.4224358,,0.0005521742,0.1,64.02362,1594250973447
Fix,GT,37.6296471,-122.4224358,,0.0,0.1,64.02359,1594250974447
Fix,GT,37.6296471,-122.4224358,,0.0,0.1,64.02353,1594250975447
Fix,GT,37.6296471,-122.4224358,,0.0006333213,0.1,64.02353,1594250976447
Fix,GT,37.6296471,-122.4224358,,0.0014142136,0.1,64.02362,1594250977447
Fix,GT,37.6296471,-122.4224358,,0.0012287181,0.1,64.02368,1594250978447
Fix,GT,37.6296471,-122.4224358,,0.001,0.1,64.02371,1594250979447
Fix,GT,37.6296471,-122.4224358,,0.0005521742,0.1,64.02362,1594250980447
Fix,GT,37.6296471,-122.4224358,,0.0,0.1,64.02359,1594250981447
Fix,GT,37.6296471,-122.4224358,,0.00044782582,0.1,64.02362,1594250982447
Fix,GT,37.6296471,-122.4224358,,0.001,0.1,64.02374,1594250983447
Fix,GT,37.6296471,-122.4224358,,0.001,0.1,64.02374,1594250984447
Fix,GT,37.6296471,-122.4224358,,0.001,0.1,64.023705,1594250985447
Fix,GT,37.6296471,-122.4224358,,0.0015535431,0.1,64.0238,1594250986447
Fix,GT,37.6296471,-122.4224358,,0.002849358,0.1,64.02396,1594250987447
Fix,GT,37.6296471,-122.4224358,,0.0039936304,0.1,64.02402,1594250988447
Fix,GT,37.6296471,-122.4224358,,0.004472136,0.1,64.02405,1594250989447
Fix,GT,37.6296471,-122.4224358,,0.0048810137,0.1,64.02417,1594250990447
Fix,GT,37.6296471,-122.4224358,,0.0053851646,0.1,64.02423,1594250991447
Fix,GT,37.6296471,-122.4224358,,0.0055847997,0.1,64.02417,1594250992447
Fix,GT,37.6296471,-122.4224358,,0.005631317,0.1,64.02426,1594250993447
Fix,GT,37.6296471,-122.4224358,,0.0053851646,0.1,64.02435,1594250994447
Fix,GT,37.6296471,-122.4224358,,0.004588208,0.1,64.02435,1594250995447
Fix,GT,37.6296471,-122.4224358,,0.0036055513,0.1,64.02429,1594250996447
Fix,GT,37.6296471,-122.4224358,,0.0038908562,0.1,64.02429,1594250997447
Fix,GT,37.6296471,-122.4224358,,0.0036093192,0.1,64.02435,1594250998447
Fix,GT,37.6296471,-122.4224358,,0.002195106,0.1,64.024414,1594250999447
Fix,GT,37.6296471,-122.4224358,,0.00078089227,0.1,64.024414,1594251000447
Fix,GT,37.6296471,-122.4224358,,0.00089565164,0.1,64.024475,1594251001447
Fix,GT,37.6296471,-122.4224358,,0.0024478259,0.1,64.024475,1594251002447
Fix,GT,37.629647,-122.4224358,,0.003,0.1,64.024475,1594251003447
Fix,GT,37.629647,-122.4224358,,0.003072672,0.1,64.024536,1594251004447
Fix,GT,37.629647,-122.4224358,,0.0031622776,0.1,64.02463,1594251005447
Fix,GT,37.6296469,-122.4224358,,0.003360787,0.1,64.02466,1594251006447
Fix,GT,37.6296469,-122.4224358,,0.0029922612,0.1,64.024506,1594251007447
Fix,GT,37.6296469,-122.4224358,,0.001234699,0.1,64.024475,1594251008447
Fix,GT,37.6296469,-122.4224358,,0.0008956515,0.1,64.02463,1594251009447
Fix,GT,37.6296469,-122.4224358,,0.003387821,0.1,64.024506,1594251010447
Fix,GT,37.6296469,-122.4224358,,0.00466198,0.1,64.024445,1594251011447
Fix,GT,37.6296469,-122.4224358,,0.005108971,0.1,64.02457,1594251012447
Fix,GT,37.6296469,-122.4224358,,0.0059038717,0.1,64.0246,1594251013447
Fix,GT,37.6296469,-122.4224358,,0.005805848,0.1,64.024506,1594251014447
Fix,GT,37.6296469,-122.4224358,,0.0063245553,0.1,64.02457,1594251015447
Fix,GT,37.6296469,-122.4224358,,0.0057757287,0.1,64.0246,1594251016447
Fix,GT,37.6296469,-122.4224358,,0.0050990195,0.1,64.02469,1594251017447
Fix,GT,37.6296469,-122.4224358,,0.0050990195,0.1,64.02487,1594251018447
Fix,GT,37.6296469,-122.4224358,,0.0050990195,0.1,64.02493,1594251019447
Fix,GT,37.6296469,-122.4224358,,0.0046068504,0.1,64.025055,1594251020447
Fix,GT,37.6296469,-122.4224358,,0.004,0.1,64.02515,1594251021447
Fix,GT,37.6296469,-122.4224358,,0.0035521742,0.1,64.025116,1594251022447
Fix,GT,37.6296469,-122.4224358,,0.003,0.1,64.025085,1594251023447
Fix,GT,37.6296469,-122.4224358,,0.003,0.1,64.025055,1594251024447
Fix,GT,37.6296469,-122.4224358,,0.0035029557,0.1,64.025055,1594251025447
Fix,GT,37.6296469,-122.4224358,,0.0042794105,0.1,64.02551,1594251026447
Fix,GT,37.6296469,-122.4224358,,0.0042607016,0.1,64.02542,1594251027447
Fix,GT,37.629647,-122.4224358,,0.005819184,0.1,64.02484,1594251028447
Fix,GT,37.629647,-122.4224358,,0.007618377,0.1,64.02527,1594251029447
Fix,GT,37.629647,-122.4224358,,0.0070710676,0.1,64.02545,1594251030447
Fix,GT,37.629647,-122.4224358,,0.0070710676,0.1,64.02521,1594251031447
Fix,GT,37.629647,-122.4224358,,0.006628479,0.1,64.025055,1594251032447
Fix,GT,37.629647,-122.4224358,,0.0060827625,0.1,64.024994,1594251033447
Fix,GT,37.629647,-122.4224358,,0.005642217,0.1,64.025085,1594251034447
Fix,GT,37.629647,-122.4224358,,0.0052271625,0.1,64.02536,1594251035447
Fix,GT,37.6296471,-122.4224358,,0.0061401553,0.1,64.02545,1594251036447
Fix,GT,37.6296472,-122.4224358,,0.0070710676,0.1,64.025604,1594251037447
Fix,GT,37.6296472,-122.4224358,,0.0085799,0.1,64.025635,1594251038447
Fix,GT,37.6296472,-122.4224356,,0.016825348,0.1,64.030914,1594251039447
Fix,GT,37.6296473,-122.4224354,,0.022193395,0.1,64.03821,1594251040447
Fix,GT,37.6296482,-122.4224328,,0.477214,0.1,64.28586,1594251041447
Fix,GT,37.6296512,-122.4224232,,1.32531,0.1,65.6402,1594251042447
Fix,GT,37.6296564,-122.422406,,1.8545132,0.1,67.65448,1594251043447
Fix,GT,37.6296624,-122.4223843,,2.2008033,0.1,69.24005,1594251044447
Fix,GT,37.6296695,-122.4223569,,2.8865242,0.1,71.09711,1594251045447
Fix,GT,37.6296779,-122.4223191,,4.030489,0.1,73.474,1594251046447
Fix,GT,37.6296882,-122.4222691,,5.01682,0.1,75.02988,1594251047447
Fix,GT,37.6297003,-122.4222101,,5.62377,0.1,75.32178,1594251048447
Fix,GT,37.6297106,-122.4221465,,5.7018547,0.1,79.28131,1594251049447
Fix,GT,37.6297112,-122.4220832,,5.408848,0.1,92.24426,1594251050447
Fix,GT,37.6296949,-122.4220282,,5.1010857,0.1,113.92645,1594251051447
Fix,GT,37.6296632,-122.4219896,,4.8355217,0.1,138.4491,1594251052447
Fix,GT,37.629625,-122.4219657,,4.686967,0.1,154.50482,1594251053447
Fix,GT,37.6295842,-122.4219446,,5.1466355,0.1,157.78876,1594251054447
Fix,GT,37.6295384,-122.4219172,,6.1369257,0.1,155.05762,1594251055447
Fix,GT,37.6294857,-122.4218809,,7.1312304,0.1,151.24689,1594251056447
Fix,GT,37.629428,-122.4218369,,7.77533,0.1,148.77747,1594251057447
Fix,GT,37.6293674,-122.4217906,,7.9502583,0.1,149.47043,1594251058447
Fix,GT,37.6293069,-122.4217488,,7.352948,0.1,152.45581,1594251059447
Fix,GT,37.6292514,-122.4217144,,6.3796706,0.1,154.56665,1594251060447
Fix,GT,37.6292042,-122.4216853,,5.3597984,0.1,153.6958,1594251061447
Fix,GT,37.629167,-122.4216589,,4.1730027,0.1,149.81604,1594251062447
Fix,GT,37.629141,-122.4216363,,2.8714929,0.1,145.50732,1594251063447
Fix,GT,37.6291256,-122.4216213,,1.3639946,0.1,143.19647,1594251064447
Fix,GT,37.6291198,-122.4216155,,0.34119293,0.1,142.5075,1594251065447
Fix,GT,37.6291188,-122.4216145,,0.078214675,0.1,142.34738,1594251066447
Fix,GT,37.629118,-122.4216141,,0.16826867,0.1,142.22458,1594251067447
Fix,GT,37.6291164,-122.4216128,,0.21788289,0.1,141.9942,1594251068447
Fix,GT,37.6291151,-122.4216116,,0.16811371,0.1,141.76215,1594251069447
Fix,GT,37.6291139,-122.4216106,,0.26893523,0.1,141.53937,1594251070447
Fix,GT,37.6291104,-122.4216068,,0.887185,0.1,140.271,1594251071447
Fix,GT,37.6291015,-122.4215942,,2.0381303,0.1,135.4159,1594251072447
Fix,GT,37.6290892,-122.4215694,,3.1343994,0.1,125.21106,1594251073447
Fix,GT,37.6290793,-122.4215315,,4.0306253,0.1,110.20889,1594251074447
Fix,GT,37.6290776,-122.4214798,,5.265723,0.1,92.57675,1594251075447
Fix,GT,37.629089,-122.4214136,,6.839529,0.1,76.93033,1594251076447
Fix,GT,37.6291137,-122.4213342,,8.259844,0.1,68.0246,1594251077447
Fix,GT,37.6291477,-122.4212436,,9.411503,0.1,64.806946,1594251078447
Fix,GT,37.6291873,-122.4211431,,10.342866,0.1,63.68506,1594251079447
Fix,GT,37.6292311,-122.4210346,,11.066111,0.1,63.20529,1594251080447
Fix,GT,37.6292778,-122.4209211,,11.409059,0.1,62.78601,1594251081447
Fix,GT,37.6293254,-122.4208065,,11.375683,0.1,62.595245,1594251082447
Fix,GT,37.6293726,-122.4206933,,11.156363,0.1,62.683502,1594251083447
Fix,GT,37.6294177,-122.4205836,,10.556059,0.1,62.939545,1594251084447
Fix,GT,37.6294588,-122.4204819,,9.524969,0.1,63.46463,1594251085447
Fix,GT,37.6294942,-122.4203919,,8.144397,0.1,63.73227,1594251086447
Fix,GT,37.6295242,-122.4203175,,6.5353985,0.1,63.07242,1594251087447
Fix,GT,37.6295478,-122.4202608,,4.7780566,0.1,62.39862,1594251088447
Fix,GT,37.629564,-122.4202222,,3.0025418,0.1,62.293884,1594251089447
Fix,GT,37.6295737,-122.4201991,,1.6975758,0.1,62.327393,1594251090447
Fix,GT,37.6295789,-122.4201867,,0.7990963,0.1,62.333984,1594251091447
Fix,GT,37.6295808,-122.4201823,,0.20578966,0.1,62.322845,1594251092447
Fix,GT,37.629581,-122.4201818,,0.0035029557,0.1,62.32242,1594251093447
Fix,GT,37.629581,-122.4201818,,0.003543315,0.1,62.322174,1594251094447
Fix,GT,37.6295811,-122.4201816,,0.127353,0.1,62.324127,1594251095447
Fix,GT,37.6295834,-122.4201766,,1.118798,0.1,62.19995,1594251096447
Fix,GT,37.6295922,-122.4201557,,3.1565251,0.1,62.04837,1594251097447
Fix,GT,37.6296102,-122.420113,,5.4027085,0.1,62.234436,1594251098447
Fix,GT,37.6296368,-122.4200478,,7.58916,0.1,62.980103,1594251099447
Fix,GT,37.6296708,-122.419962,,9.2338085,0.1,63.787903,1594251100447
Fix,GT,37.6297098,-122.4198626,,10.320864,0.1,63.91736,1594251101447
Fix,GT,37.6297534,-122.4197525,,11.386425,0.1,63.470825,1594251102447
Fix,GT,37.6298026,-122.4196331,,12.337206,0.1,62.2117,1594251103447
Fix,GT,37.6298593,-122.4195076,,13.1058235,0.1,59.29489,1594251104447
Fix,GT,37.629926,-122.4193815,,13.671617,0.1,54.767273,1594251105447
Fix,GT,37.6300023,-122.419258,,13.945129,0.1,50.914764,1594251106447
Fix,GT,37.6300845,-122.4191385,,13.914646,0.1,48.35843,1594251107447
Fix,GT,37.6301695,-122.4190239,,13.718748,0.1,46.488464,1594251108447
Fix,GT,37.6302543,-122.4189142,,13.258415,0.1,45.71176,1594251109447
Fix,GT,37.6303359,-122.4188095,,12.619264,0.1,45.812683,1594251110447
Fix,GT,37.6304126,-122.4187088,,11.997127,0.1,46.888275,1594251111447
Fix,GT,37.6304829,-122.4186106,,11.306747,0.1,49.119568,1594251112447
Fix,GT,37.6305444,-122.4185149,,10.378147,0.1,52.54547,1594251113447
Fix,GT,37.6305948,-122.4184246,,8.993002,0.1,56.438293,1594251114447
Fix,GT,37.6306332,-122.418346,,7.2745724,0.1,59.274597,1594251115447
Fix,GT,37.6306616,-122.4182833,,5.4671936,0.1,60.90213,1594251116447
Fix,GT,37.6306813,-122.4182375,,3.7766542,0.1,61.986115,1594251117447
Fix,GT,37.6306946,-122.4182051,,2.7788424,0.1,62.58255,1594251118447
Fix,GT,37.630705,-122.4181796,,2.314389,0.1,63.074066,1594251119447
Fix,GT,37.6307132,-122.4181589,,1.7034321,0.1,63.346924,1594251120447
Fix,GT,37.6307186,-122.4181455,,0.9843055,0.1,63.47638,1594251121447
Fix,GT,37.6307219,-122.4181378,,0.6136229,0.1,63.577393,1594251122447
Fix,GT,37.6307243,-122.4181318,,0.5652425,0.1,63.660767,1594251123447
Fix,GT,37.6307266,-122.4181264,,0.46676546,0.1,63.653534,1594251124447
Fix,GT,37.6307285,-122.4181222,,0.37870112,0.1,63.553894,1594251125447
Fix,GT,37.6307298,-122.4181189,,0.259452,0.1,63.46353,1594251126447
Fix,GT,37.6307306,-122.4181172,,0.080544785,0.1,63.411713,1594251127447
Fix,GT,37.6307307,-122.418117,,0.0041519236,0.1,63.40869,1594251128447
Fix,GT,37.6307308,-122.4181169,,0.0028356463,0.1,63.407593,1594251129447
Fix,GT,37.6307309,-122.4181169,,0.004818285,0.1,63.406708,1594251130447
Fix,GT,37.6307309,-122.4181168,,0.004315831,0.1,63.4068,1594251131447
Fix,GT,37.6307309,-122.4181168,,0.0041231057,0.1,63.406647,1594251132447
Fix,GT,37.6307309,-122.4181168,,0.004067976,0.1,63.406372,1594251133447
Fix,GT,37.6307309,-122.4181168,,0.0035521742,0.1,63.406494,1594251134447
Fix,GT,37.6307309,-122.4181168,,0.0021043485,0.1,63.4068,1594251135447
Fix,GT,37.6307309,-122.4181168,,0.001,0.1,63.40689,1594251136447
Fix,GT,37.6307309,-122.4181168,,0.0005521743,0.1,63.406616,1594251137447
Fix,GT,37.6307309,-122.4181168,,0.0,0.1,63.406647,1594251138447
Fix,GT,37.6307309,-122.4181168,,0.00063332124,0.1,63.406616,1594251139447
Fix,GT,37.6307309,-122.4181168,,0.0016765438,0.1,63.406677,1594251140447
Fix,GT,37.6307309,-122.4181168,,0.0015521743,0.1,63.407104,1594251141447
Fix,GT,37.6307309,-122.4181168,,0.0019683237,0.1,63.407166,1594251142447
Fix,GT,37.6307309,-122.4181168,,0.0031622776,0.1,63.406677,1594251143447
Fix,GT,37.6307309,-122.4181168,,0.0030896054,0.1,63.406555,1594251144447
Fix,GT,37.6307309,-122.4181168,,0.003072672,0.1,63.406525,1594251145447
Fix,GT,37.6307309,-122.4181168,,0.003360787,0.1,63.40634,1594251146447
Fix,GT,37.6307309,-122.4181168,,0.00333437,0.1,63.406372,1594251147447
Fix,GT,37.6307309,-122.4181168,,0.0035029557,0.1,63.406708,1594251148447
Fix,GT,37.6307309,-122.4181168,,0.0041231057,0.1,63.40692,1594251149447
Fix,GT,37.6307309,-122.4181168,,0.0041231057,0.1,63.40674,1594251150447
Fix,GT,37.6307309,-122.4181168,,0.0036201505,0.1,63.406616,1594251151447
Fix,GT,37.6307309,-122.4181168,,0.0026578917,0.1,63.406494,1594251152447
Fix,GT,37.6307309,-122.4181168,,0.0021303508,0.1,63.406555,1594251153447
Fix,GT,37.6307309,-122.4181168,,0.0015521744,0.1,63.406677,1594251154447
Fix,GT,37.6307309,-122.4181168,,0.001,0.1,63.406433,1594251155447
Fix,GT,37.6307309,-122.4181168,,0.0011854955,0.1,63.40634,1594251156447
Fix,GT,37.6307309,-122.4181168,,0.00078089244,0.1,63.406372,1594251157447
Fix,GT,37.6307309,-122.4181168,,0.00044782573,0.1,63.406494,1594251158447
Fix,GT,37.6307309,-122.4181168,,0.0014478258,0.1,63.406555,1594251159447
Fix,GT,37.6307309,-122.4181168,,0.002,0.1,63.406464,1594251160447
Fix,GT,37.6307309,-122.4181168,,0.002520498,0.1,63.406433,1594251161447
Fix,GT,37.6307309,-122.4181168,,0.0030896058,0.1,63.406494,1594251162447
Fix,GT,37.6307309,-122.4181168,,0.003,0.1,63.406586,1594251163447
Fix,GT,37.6307308,-122.4181168,,0.003,0.1,63.406616,1594251164447
Fix,GT,37.6307307,-122.4181169,,0.0035029557,0.1,63.406586,1594251165447
Fix,GT,37.6307307,-122.4181169,,0.0041231057,0.1,63.406616,1594251166447
Fix,GT,37.6307307,-122.4181169,,0.0041231057,0.1,63.406525,1594251167447
Fix,GT,37.6307307,-122.4181169,,0.0041231057,0.1,63.406403,1594251168447
Fix,GT,37.6307307,-122.4181169,,0.0041231057,0.1,63.406372,1594251169447
Fix,GT,37.6307307,-122.4181169,,0.0036928225,0.1,63.406464,1594251170447
Fix,GT,37.6307307,-122.4181169,,0.0035374314,0.1,63.406586,1594251171447
Fix,GT,37.6307307,-122.4181169,,0.004,0.1,63.406433,1594251172447
Fix,GT,37.6307307,-122.4181169,,0.0040551303,0.1,63.40628,1594251173447
Fix,GT,37.6307307,-122.4181169,,0.004067976,0.1,63.40628,1594251174447
Fix,GT,37.6307307,-122.4181169,,0.004,0.1,63.406433,1594251175447
Fix,GT,37.6307307,-122.4181169,,0.004,0.1,63.406433,1594251176447
Fix,GT,37.6307307,-122.4181169,,0.004,0.1,63.406403,1594251177447
Fix,GT,37.6307307,-122.4181169,,0.0035521747,0.1,63.406403,1594251178447
Fix,GT,37.6307307,-122.4181169,,0.0035029557,0.1,63.406464,1594251179447
Fix,GT,37.6307307,-122.4181169,,0.004067976,0.1,63.40634,1594251180447
Fix,GT,37.6307307,-122.4181169,,0.0040551303,0.1,63.406128,1594251181447
Fix,GT,37.6307307,-122.4181169,,0.0036201505,0.1,63.406128,1594251182447
Fix,GT,37.6307307,-122.4181169,,0.003447826,0.1,63.40619,1594251183447
Fix,GT,37.6307307,-122.4181169,,0.0036248467,0.1,63.40631,1594251184447
Fix,GT,37.6307307,-122.4181169,,0.0035925612,0.1,63.40631,1594251185447
Fix,GT,37.6307307,-122.4181169,,0.0041231057,0.1,63.40619,1594251186447
Fix,GT,37.6307307,-122.4181169,,0.004067976,0.1,63.40628,1594251187447
Fix,GT,37.6307307,-122.4181169,,0.0038233558,0.1,63.406464,1594251188447
Fix,GT,37.6307307,-122.4181169,,0.0039936304,0.1,63.40634,1594251189447
Fix,GT,37.6307307,-122.4181169,,0.004084057,0.1,63.40631,1594251190447
Fix,GT,37.6307307,-122.4181169,,0.0042300215,0.1,63.406403,1594251191447
Fix,GT,37.6307307,-122.4181169,,0.004763609,0.1,63.406372,1594251192447
Fix,GT,37.6307303,-122.4181169,,0.004708527,0.1,63.406525,1594251193447
Fix,GT,37.6307296,-122.418117,,0.005,0.1,63.406647,1594251194447
Fix,GT,37.6307295,-122.4181171,,0.004177021,0.1,63.40683,1594251195447
Fix,GT,37.6307295,-122.4181171,,0.003646092,0.1,63.407623,1594251196447
Fix,GT,37.6307295,-122.4181171,,0.003957336,0.1,63.40802,1594251197447
Fix,GT,37.6307295,-122.4181171,,0.0039936304,0.1,63.407867,1594251198447
Fix,GT,37.6307295,-122.4181171,,0.0043693623,0.1,63.407867,1594251199447
Fix,GT,37.6307295,-122.4181171,,0.0042426405,0.1,63.407837,1594251200447
Fix,GT,37.6307295,-122.4181171,,0.0045818053,0.1,63.407715,1594251201447
Fix,GT,37.6307295,-122.4181171,,0.005,0.1,63.407684,1594251202447
Fix,GT,37.6307295,-122.4181171,,0.005,0.1,63.407684,1594251203447
Fix,GT,37.6307295,-122.4181171,,0.005,0.1,63.407715,1594251204447
Fix,GT,37.6307295,-122.4181171,,0.0052941563,0.1,63.407654,1594251205447
Fix,GT,37.6307295,-122.4181171,,0.00573482,0.1,63.407837,1594251206447
Fix,GT,37.6307295,-122.4181171,,0.005830952,0.1,63.408234,1594251207447
Fix,GT,37.6307295,-122.4181171,,0.0052224393,0.1,63.408447,1594251208447
Fix,GT,37.6307295,-122.4181171,,0.0048810137,0.1,63.408417,1594251209447
Fix,GT,37.6307295,-122.4181171,,0.0055847997,0.1,63.40811,1594251210447
Fix,GT,37.6307295,-122.4181171,,0.0057529863,0.1,63.407776,1594251211447
Fix,GT,37.6307295,-122.4181171,,0.005362698,0.1,63.407654,1594251212447
Fix,GT,37.6307295,-122.4181171,,0.005372121,0.1,63.407684,1594251213447
Fix,GT,37.6307295,-122.4181171,,0.005830952,0.1,63.407867,1594251214447
Fix,GT,37.6307295,-122.4181171,,0.005830952,0.1,63.40796,1594251215447
Fix,GT,37.6307295,-122.4181171,,0.006223808,0.1,63.407806,1594251216447
Fix,GT,37.6307295,-122.4181171,,0.0069334144,0.1,63.407776,1594251217447
Fix,GT,37.6307295,-122.4181171,,0.0072111026,0.1,63.407623,1594251218447
Fix,GT,37.6307295,-122.4181171,,0.0068492694,0.1,63.407593,1594251219447
Fix,GT,37.6307295,-122.4181171,,0.0067649577,0.1,63.407776,1594251220447
Fix,GT,37.6307295,-122.4181171,,0.0073923245,0.1,63.407623,1594251221447
Fix,GT,37.6307295,-122.4181171,,0.007615773,0.1,63.40744,1594251222447
Fix,GT,37.6307295,-122.4181171,,0.008453682,0.1,63.40744,1594251223447
Fix,GT,37.6307295,-122.4181171,,0.00924386,0.1,63.407593,1594251224447
Fix,GT,37.6307295,-122.4181171,,0.009163577,0.1,63.407654,1594251225447
Fix,GT,37.6307295,-122.4181171,,0.010216045,0.1,63.40753,1594251226447
Fix,GT,37.6307295,-122.4181171,,0.01118034,0.1,63.40748,1594251227447
Fix,GT,37.6307295,-122.4181171,,0.011995231,0.1,63.40738,1594251228447
Fix,GT,37.6307295,-122.4181171,,0.013415756,0.1,63.40735,1594251229447
Fix,GT,37.6307295,-122.4181171,,0.01470048,0.1,63.407562,1594251230447
Fix,GT,37.6307295,-122.4181171,,0.016295344,0.1,63.407654,1594251231447
Fix,GT,37.6307295,-122.4181171,,0.018049657,0.1,63.407623,1594251232447
Fix,GT,37.6307296,-122.4181171,,0.02023651,0.1,63.407806,1594251233447
Fix,GT,37.6307295,-122.4181171,,0.023872107,0.1,63.40799,1594251234447
Fix,GT,37.6307294,-122.4181173,,0.028436478,0.1,63.40805,1594251235447
Fix,GT,37.6307292,-122.4181174,,0.03241636,0.1,63.40808,1594251236447
Fix,GT,37.630729,-122.4181176,,0.03731532,0.1,63.40802,1594251237447
Fix,GT,37.6307288,-122.4181178,,0.04253503,0.1,63.40811,1594251238447
Fix,GT,37.6307285,-122.4181179,,0.15531494,0.1,63.403442,1594251239447
Fix,GT,37.6307305,-122.4181125,,1.1952932,0.1,63.31604,1594251240447
Fix,GT,37.6307394,-122.4180901,,3.3953934,0.1,62.890778,1594251241447
Fix,GT,37.6307588,-122.4180464,,5.5052986,0.1,60.17682,1594251242447
Fix,GT,37.630793,-122.417993,,6.6074915,0.1,48.746765,1594251243447
Fix,GT,37.6308442,-122.4179512,,7.1506834,0.1,28.341248,1594251244447
Fix,GT,37.6309092,-122.4179344,,7.8756514,0.1,7.7089844,1594251245447
Fix,GT,37.6309828,-122.4179428,,8.81019,0.1,351.90457,1594251246447
Fix,GT,37.6310655,-122.4179705,,10.3900585,0.1,344.1901,1594251247447
Fix,GT,37.6311611,-122.4180095,,11.775747,0.1,342.14145,1594251248447
Fix,GT,37.6312633,-122.418053,,11.880363,0.1,341.44153,1594251249447
Fix,GT,37.6313609,-122.4180942,,10.8573,0.1,342.01788,1594251250447
Fix,GT,37.6314475,-122.4181295,,9.4002905,0.1,342.06964,1594251251447
Fix,GT,37.6315212,-122.4181613,,7.9418697,0.1,340.5055,1594251252447
Fix,GT,37.6315817,-122.4181902,,6.3779488,0.1,339.01602,1594251253447
Fix,GT,37.6316284,-122.4182138,,4.7801805,0.1,338.1075,1594251254447
Fix,GT,37.6316633,-122.4182322,,3.646841,0.1,337.39987,1594251255447
Fix,GT,37.6316905,-122.4182469,,2.8548756,0.1,336.93143,1594251256447
Fix,GT,37.6317101,-122.4182578,,1.9167695,0.1,336.71683,1594251257447
Fix,GT,37.6317223,-122.4182645,,1.0981688,0.1,336.62833,1594251258447
Fix,GT,37.6317286,-122.418268,,0.4841596,0.1,336.5902,1594251259447
Fix,GT,37.6317308,-122.4182691,,0.16904561,0.1,336.5819,1594251260447
Fix,GT,37.6317323,-122.41827,,0.276645,0.1,336.5763,1594251261447
Fix,GT,37.6317357,-122.4182718,,0.5301928,0.1,336.55377,1594251262447
Fix,GT,37.6317407,-122.4182745,,0.61004907,0.1,336.51807,1594251263447
Fix,GT,37.6317447,-122.4182768,,0.32122794,0.1,336.48553,1594251264447
Fix,GT,37.6317461,-122.4182775,,0.036849473,0.1,336.47556,1594251265447
Fix,GT,37.6317461,-122.4182775,,0.0015535429,0.1,336.47638,1594251266447
Fix,GT,37.6317461,-122.4182775,,0.001682525,0.1,336.47543,1594251267447
Fix,GT,37.6317461,-122.4182775,,0.001,0.1,336.4753,1594251268447
Fix,GT,37.6317461,-122.4182775,,0.0011854954,0.1,336.47525,1594251269447
Fix,GT,37.6317461,-122.4182775,,0.0016765438,0.1,336.47504,1594251270447
Fix,GT,37.6317461,-122.4182775,,0.0023709908,0.1,336.47513,1594251271447
Fix,GT,37.6317461,-122.4182775,,0.0028284271,0.1,336.47498,1594251272447
Fix,GT,37.6317461,-122.4182775,,0.002977934,0.1,336.47488,1594251273447
Fix,GT,37.6317461,-122.4182775,,0.0030896056,0.1,336.47552,1594251274447
Fix,GT,37.631746,-122.4182775,,0.0035029557,0.1,336.47562,1594251275447
Fix,GT,37.631746,-122.4182775,,0.004067976,0.1,336.4752,1594251276447
Fix,GT,37.631746,-122.4182775,,0.0031043487,0.1,336.4747,1594251277447
Fix,GT,37.631746,-122.4182775,,0.0021057173,0.1,336.4748,1594251278447
Fix,GT,37.631746,-122.4182776,,0.065948226,0.1,336.47784,1594251279447
Fix,GT,37.6317492,-122.4182794,,0.8355527,0.1,336.46695,1594251280447
Fix,GT,37.6317638,-122.4182875,,2.8139658,0.1,336.44873,1594251281447
Fix,GT,37.6317971,-122.4183059,,5.235648,0.1,336.35507,1594251282447
Fix,GT,37.63185,-122.4183355,,7.4635963,0.1,336.0653,1594251283447
Fix,GT,37.6319186,-122.4183744,,9.124588,0.1,335.7807,1594251284447
Fix,GT,37.6319985,-122.4184195,,10.324722,0.1,335.99103,1594251285447
Fix,GT,37.6320889,-122.4184693,,11.522714,0.1,336.65985,1594251286447
Fix,GT,37.632188,-122.4185197,,12.132948,0.1,338.89587,1594251287447
Fix,GT,37.6322923,-122.418563,,12.198199,0.1,343.39755,1594251288447
Fix,GT,37.632399,-122.4185945,,12.059017,0.1,348.83182,1594251289447
Fix,GT,37.6325039,-122.4186111,,11.392492,0.1,355.9748,1594251290447
Fix,GT,37.6326013,-122.4186059,,10.4314785,0.1,7.6075745,1594251291447
Fix,GT,37.6326868,-122.4185704,,10.040385,0.1,24.829926,1594251292447
Fix,GT,37.6327601,-122.4185004,,10.861968,0.1,42.40735,1594251293447
Fix,GT,37.6328272,-122.4183995,,12.542005,0.1,52.77353,1594251294447
Fix,GT,37.6328983,-122.4182735,,14.769186,0.1,55.43335,1594251295447
Fix,GT,37.6329796,-122.4181238,,17.137573,0.1,56.100098,1594251296447
Fix,GT,37.6330697,-122.417955,,18.66882,0.1,56.507904,1594251297447
Fix,GT,37.6331657,-122.4177726,,19.926136,0.1,56.81656,1594251298447
Fix,GT,37.6332671,-122.4175783,,21.140812,0.1,56.973633,1594251299447
Fix,GT,37.6333741,-122.4173713,,22.40925,0.1,57.428223,1594251300447
Fix,GT,37.6334832,-122.4171498,,23.563345,0.1,59.390015,1594251301447
Fix,GT,37.6335888,-122.4169117,,24.508888,0.1,62.426117,1594251302447
Fix,GT,37.6336873,-122.4166582,,25.299969,0.1,65.5397,1594251303447
Fix,GT,37.6337782,-122.4163903,,26.180996,0.1,68.26694,1594251304447
Fix,GT,37.6338624,-122.4161075,,27.111197,0.1,70.82782,1594251305447
Fix,GT,37.6339379,-122.4158107,,27.908922,0.1,74.15909,1594251306447
Fix,GT,37.6340011,-122.4155011,,28.513039,0.1,77.238464,1594251307447
Fix,GT,37.6340524,-122.4151821,,28.981838,0.1,80.22519,1594251308447
Fix,GT,37.6340903,-122.4148544,,29.544739,0.1,83.57922,1594251309447
Fix,GT,37.6341134,-122.4145177,,30.115475,0.1,86.84659,1594251310447
Fix,GT,37.6341222,-122.4141751,,30.360622,0.1,89.822266,1594251311447
Fix,GT,37.6341169,-122.4138316,,30.310146,0.1,92.68857,1594251312447
Fix,GT,37.6340995,-122.4134888,,30.392033,0.1,94.92325,1594251313447
Fix,GT,37.6340719,-122.4131451,,30.570774,0.1,96.96167,1594251314447
Fix,GT,37.634036,-122.4128013,,30.645779,0.1,98.2305,1594251315447
Fix,GT,37.6339962,-122.4124577,,30.666618,0.1,98.67621,1594251316447
Fix,GT,37.6339538,-122.4121138,,30.768719,0.1,99.21982,1594251317447
Fix,GT,37.6339089,-122.4117693,,30.791725,0.1,99.73404,1594251318447
Fix,GT,37.6338618,-122.4114261,,30.691032,0.1,100.16135,1594251319447
Fix,GT,37.6338133,-122.4110832,,30.82189,0.1,100.28116,1594251320447
Fix,GT,37.6337646,-122.4107377,,31.124855,0.1,100.17621,1594251321447
Fix,GT,37.6337165,-122.4103889,,31.370705,0.1,99.8913,1594251322447
Fix,GT,37.6336703,-122.4100375,,31.465418,0.1,99.05521,1594251323447
Fix,GT,37.6336308,-122.4096849,,31.445229,0.1,97.14349,1594251324447
Fix,GT,37.633603,-122.4093304,,31.572105,0.1,94.390656,1594251325447
Fix,GT,37.6335893,-122.4089714,,31.9675,0.1,91.380035,1594251326447
Fix,GT,37.6335917,-122.4086068,,32.423878,0.1,87.87244,1594251327447
Fix,GT,37.6336118,-122.4082395,,32.555664,0.1,84.362,1594251328447
Fix,GT,37.633647,-122.4078743,,32.38443,0.1,82.05444,1594251329447
Fix,GT,37.6336903,-122.4075134,,31.987759,0.1,81.07297,1594251330447
Fix,GT,37.6337355,-122.4071591,,31.355377,0.1,80.94751,1594251331447
Fix,GT,37.6337782,-122.4068116,,30.810242,0.1,81.719574,1594251332447
Fix,GT,37.6338138,-122.4064673,,30.465366,0.1,83.98578,1594251333447
Fix,GT,37.6338326,-122.4061255,,30.10456,0.1,88.77048,1594251334447
Fix,GT,37.6338239,-122.4057878,,29.684662,0.1,95.48517,1594251335447
Fix,GT,37.6337837,-122.4054585,,29.267181,0.1,102.48712,1594251336447
Fix,GT,37.6337131,-122.405142,,28.933681,0.1,109.23166,1594251337447
Fix,GT,37.6336143,-122.4048401,,28.844551,0.1,115.91794,1594251338447
Fix,GT,37.6334882,-122.4045554,,28.763287,0.1,122.65814,1594251339447
Fix,GT,37.6333376,-122.4042925,,28.55418,0.1,129.10736,1594251340447
Fix,GT,37.633166,-122.4040532,,28.482445,0.1,135.3479,1594251341447
Fix,GT,37.632975,-122.4038391,,28.400864,0.1,141.64941,1594251342447
Fix,GT,37.6327667,-122.4036533,,28.442879,0.1,148.12613,1594251343447
Fix,GT,37.6325417,-122.4034983,,28.63594,0.1,154.81409,1594251344447
Fix,GT,37.6323028,-122.403376,,28.714094,0.1,161.3086,1594251345447
Fix,GT,37.6320543,-122.4032867,,28.723167,0.1,167.12988,1594251346447
Fix,GT,37.6317995,-122.4032258,,28.918764,0.1,171.57635,1594251347447
Fix,GT,37.6315393,-122.403185,,29.331379,0.1,174.2508,1594251348447
Fix,GT,37.631275,-122.4031516,,29.61987,0.1,174.63562,1594251349447
Fix,GT,37.6310091,-122.4031157,,29.695023,0.1,173.83789,1594251350447
Fix,GT,37.6307437,-122.4030777,,29.60542,0.1,173.52979,1594251351447
Fix,GT,37.63048,-122.4030401,,29.298904,0.1,173.82635,1594251352447
Fix,GT,37.6302192,-122.4030047,,28.99097,0.1,173.94287,1594251353447
Fix,GT,37.6299598,-122.4029684,,29.046701,0.1,173.55298,1594251354447
Fix,GT,37.629698,-122.4029299,,29.587803,0.1,173.47601,1594251355447
Fix,GT,37.6294299,-122.4028915,,30.355412,0.1,173.75232,1594251356447
Fix,GT,37.629153,-122.4028524,,31.450027,0.1,173.61035,1594251357447
Fix,GT,37.6288658,-122.40281,,32.574554,0.1,173.22186,1594251358447
Fix,GT,37.6285716,-122.4027638,,33.09861,0.1,172.70404,1594251359447
Fix,GT,37.6282747,-122.4027128,,33.522,0.1,171.84094,1594251360447
Fix,GT,37.6279739,-122.4026541,,34.079742,0.1,170.76978,1594251361447
Fix,GT,37.6276694,-122.4025869,,34.475243,0.1,169.49438,1594251362447
Fix,GT,37.6273645,-122.4025099,,34.557056,0.1,167.92352,1594251363447
Fix,GT,37.6270609,-122.4024224,,34.5961,0.1,166.37634,1594251364447
Fix,GT,37.6267595,-122.402325,,34.464565,0.1,164.88593,1594251365447
Fix,GT,37.6264627,-122.4022175,,34.090492,0.1,163.04266,1594251366447
Fix,GT,37.6261723,-122.4020998,,33.665688,0.1,161.64758,1594251367447
Fix,GT,37.6258872,-122.4019776,,33.22453,0.1,161.11438,1594251368447
Fix,GT,37.625606,-122.4018557,,32.798622,0.1,161.3247,1594251369447
Fix,GT,37.6253274,-122.4017396,,32.37757,0.1,162.45496,1594251370447
Fix,GT,37.6250507,-122.4016317,,31.955845,0.1,163.22955,1594251371447
Fix,GT,37.6247765,-122.4015273,,31.632294,0.1,163.41064,1594251372447
Fix,GT,37.6245042,-122.4014248,,31.488525,0.1,163.63788,1594251373447
Fix,GT,37.6242323,-122.4013239,,31.470776,0.1,163.76703,1594251374447
Fix,GT,37.62396,-122.4012239,,31.5056,0.1,163.9361,1594251375447
Fix,GT,37.6236873,-122.4011247,,31.500778,0.1,164.04797,1594251376447
Fix,GT,37.6234149,-122.4010264,,31.362885,0.1,164.14893,1594251377447
Fix,GT,37.6231443,-122.400929,,31.063856,0.1,164.23535,1594251378447
Fix,GT,37.6228765,-122.4008336,,30.727207,0.1,164.52332,1594251379447
Fix,GT,37.6226108,-122.4007415,,30.487152,0.1,165.02985,1594251380447
Fix,GT,37.6223462,-122.4006522,,30.314377,0.1,165.1438,1594251381447
Fix,GT,37.6220833,-122.4005633,,30.131596,0.1,164.99048,1594251382447
Fix,GT,37.6218219,-122.4004741,,29.997673,0.1,164.948,1594251383447
Fix,GT,37.6215613,-122.4003851,,29.984604,0.1,164.95856,1594251384447
Fix,GT,37.6213003,-122.400296,,30.042849,0.1,164.88123,1594251385447
Fix,GT,37.6210388,-122.4002069,,30.087017,0.1,165.03052,1594251386447
Fix,GT,37.6207768,-122.4001188,,30.117155,0.1,165.33972,1594251387447
Fix,GT,37.6205141,-122.4000317,,30.186382,0.1,165.34149,1594251388447
Fix,GT,37.6202508,-122.399944,,30.274975,0.1,165.20758,1594251389447
Fix,GT,37.619987,-122.3998552,,30.313396,0.1,165.1322,1594251390447
Fix,GT,37.6197235,-122.3997666,,30.198174,0.1,165.16357,1594251391447
Fix,GT,37.6194618,-122.3996786,,29.896517,0.1,165.10815,1594251392447
Fix,GT,37.6192034,-122.3995914,,29.528797,0.1,165.0877,1594251393447
Fix,GT,37.6189475,-122.3995047,,29.349277,0.1,165.04071,1594251394447
Fix,GT,37.618692,-122.3994179,,29.387299,0.1,164.96204,1594251395447
Fix,GT,37.6184364,-122.3993313,,29.323906,0.1,165.1546,1594251396447
Fix,GT,37.6181823,-122.3992462,,29.016064,0.1,165.37311,1594251397447
Fix,GT,37.6179315,-122.3991633,,28.527258,0.1,165.48901,1594251398447
Fix,GT,37.6176851,-122.3990823,,27.996456,0.1,165.46893,1594251399447
Fix,GT,37.6174432,-122.3990019,,27.545849,0.1,165.1217,1594251400447
Fix,GT,37.6172054,-122.3989209,,27.206444,0.1,164.96906,1594251401447
Fix,GT,37.6169696,-122.3988403,,27.039885,0.1,165.01654,1594251402447
Fix,GT,37.6167351,-122.39876,,26.847319,0.1,164.71368,1594251403447
Fix,GT,37.6165039,-122.3986772,,26.49128,0.1,163.70874,1594251404447
Fix,GT,37.6162773,-122.3985896,,26.16285,0.1,162.47528,1594251405447
Fix,GT,37.6160544,-122.3984971,,25.965405,0.1,161.42712,1594251406447
Fix,GT,37.6158348,-122.3984003,,25.602947,0.1,160.22961,1594251407447
Fix,GT,37.6156221,-122.398299,,24.898232,0.1,158.4776,1594251408447
Fix,GT,37.6154176,-122.398192,,24.389095,0.1,156.62604,1594251409447
Fix,GT,37.6152173,-122.3980784,,24.475264,0.1,155.159,1594251410447
Fix,GT,37.6150158,-122.3979566,,25.253923,0.1,153.85175,1594251411447
Fix,GT,37.6148087,-122.3978241,,26.364885,0.1,152.47668,1594251412447
Fix,GT,37.6145964,-122.3976799,,27.12653,0.1,151.10504,1594251413447
Fix,GT,37.614382,-122.397526,,27.644459,0.1,149.76294,1594251414447
Fix,GT,37.6141673,-122.3973626,,28.03834,0.1,148.12567,1594251415447
Fix,GT,37.6139541,-122.3971888,,28.386738,0.1,146.15854,1594251416447
Fix,GT,37.6137429,-122.3970048,,28.678503,0.1,144.68451,1594251417447
Fix,GT,37.6135332,-122.3968141,,28.794716,0.1,143.76678,1594251418447
Fix,GT,37.6133248,-122.3966177,,29.030464,0.1,142.68594,1594251419447
Fix,GT,37.613118,-122.3964142,,29.267769,0.1,141.48761,1594251420447
Fix,GT,37.612913,-122.3962033,,29.624048,0.1,140.20578,1594251421447
Fix,GT,37.6127089,-122.3959833,,30.016275,0.1,138.89398,1594251422447
Fix,GT,37.612507,-122.3957558,,30.075981,0.1,137.59525,1594251423447
Fix,GT,37.61231,-122.3955228,,29.9633,0.1,136.08304,1594251424447
Fix,GT,37.6121195,-122.3952831,,29.841385,0.1,134.06702,1594251425447
Fix,GT,37.6119366,-122.3950362,,29.852324,0.1,132.14215,1594251426447
Fix,GT,37.6117577,-122.3947813,,30.19912,0.1,131.09146,1594251427447
Fix,GT,37.6115802,-122.3945206,,30.365932,0.1,130.22467,1594251428447
Fix,GT,37.6114061,-122.3942569,,30.155115,0.1,129.34915,1594251429447
Fix,GT,37.6112363,-122.3939922,,29.911629,0.1,128.78937,1594251430447
Fix,GT,37.6110689,-122.3937278,,29.775005,0.1,128.6716,1594251431447
Fix,GT,37.6109019,-122.3934639,,29.773277,0.1,128.75958,1594251432447
Fix,GT,37.6107342,-122.3932001,,29.895939,0.1,128.77228,1594251433447
Fix,GT,37.6105654,-122.3929347,,30.102913,0.1,128.78693,1594251434447
Fix,GT,37.6103955,-122.3926679,,30.223038,0.1,128.83743,1594251435447
Fix,GT,37.6102255,-122.3924001,,30.268875,0.1,128.71387,1594251436447
Fix,GT,37.6100557,-122.3921316,,30.27137,0.1,128.57922,1594251437447
Fix,GT,37.6098863,-122.3918638,,30.09723,0.1,128.81873,1594251438447
Fix,GT,37.6097172,-122.3915998,,29.78547,0.1,129.17346,1594251439447
Fix,GT,37.609549,-122.3913393,,29.450562,0.1,129.23502,1594251440447
Fix,GT,37.6093825,-122.3910817,,29.190125,0.1,129.30884,1594251441447
Fix,GT,37.6092166,-122.3908265,,29.056395,0.1,129.47275,1594251442447
Fix,GT,37.6090504,-122.3905717,,29.166145,0.1,129.46375,1594251443447
Fix,GT,37.608883,-122.3903141,,29.600296,0.1,129.33234,1594251444447
Fix,GT,37.6087131,-122.3900521,,30.044209,0.1,129.28894,1594251445447
Fix,GT,37.6085413,-122.3897873,,30.280535,0.1,129.40448,1594251446447
Fix,GT,37.6083676,-122.3895216,,30.465641,0.1,129.57251,1594251447447
Fix,GT,37.6081923,-122.389254,,30.752445,0.1,129.58084,1594251448447
Fix,GT,37.6080154,-122.3889839,,31.028393,0.1,129.60327,1594251449447
Fix,GT,37.607837,-122.388712,,31.180634,0.1,129.61139,1594251450447
Fix,GT,37.6076586,-122.3884397,,31.08326,0.1,129.59332,1594251451447
Fix,GT,37.6074813,-122.3881689,,30.848557,0.1,129.60132,1594251452447
Fix,GT,37.6073053,-122.3879004,,30.577099,0.1,129.62354,1594251453447
Fix,GT,37.6071309,-122.3876347,,30.246431,0.1,129.7366,1594251454447
Fix,GT,37.6069583,-122.3873726,,29.779686,0.1,129.68085,1594251455447
Fix,GT,37.60679,-122.3871152,,28.997528,0.1,129.38245,1594251456447
Fix,GT,37.6066275,-122.3868645,,28.144815,0.1,129.20416,1594251457447
Fix,GT,37.6064696,-122.3866203,,27.451378,0.1,129.27808,1594251458447
Fix,GT,37.6063152,-122.3863823,,26.772514,0.1,129.34991,1594251459447
Fix,GT,37.6061645,-122.3861504,,26.097298,0.1,129.33212,1594251460447
Fix,GT,37.6060177,-122.3859245,,25.394953,0.1,129.40112,1594251461447
Fix,GT,37.6058749,-122.3857056,,24.604252,0.1,129.51862,1594251462447
Fix,GT,37.6057362,-122.3854937,,23.922264,0.1,129.62012,1594251463447
Fix,GT,37.6056002,-122.3852866,,23.542667,0.1,129.65698,1594251464447
Fix,GT,37.6054661,-122.3850822,,23.231339,0.1,129.60153,1594251465447
Fix,GT,37.6053341,-122.3848804,,22.912409,0.1,129.45667,1594251466447
Fix,GT,37.6052043,-122.3846807,,22.649319,0.1,129.28748,1594251467447
Fix,GT,37.6050759,-122.3844823,,22.52401,0.1,129.27505,1594251468447
Fix,GT,37.6049479,-122.3842848,,22.426958,0.1,129.4104,1594251469447
Fix,GT,37.6048206,-122.38409,,22.055927,0.1,129.56793,1594251470447
Fix,GT,37.6046962,-122.3839002,,21.37632,0.1,129.6355,1594251471447
Fix,GT,37.6045758,-122.3837169,,20.62532,0.1,129.68396,1594251472447
Fix,GT,37.6044599,-122.3835406,,19.71183,0.1,129.49277,1594251473447
Fix,GT,37.604351,-122.3833725,,18.518917,0.1,129.11157,1594251474447
Fix,GT,37.604249,-122.3832133,,17.688347,0.1,128.91833,1594251475447
Fix,GT,37.6041504,-122.3830589,,17.298628,0.1,128.90598,1594251476447
Fix,GT,37.6040537,-122.3829075,,17.011574,0.1,128.98987,1594251477447
Fix,GT,37.6039577,-122.3827578,,17.000235,0.1,129.04211,1594251478447
Fix,GT,37.6038607,-122.3826066,,17.354992,0.1,129.06589,1594251479447
Fix,GT,37.6037607,-122.3824513,,17.934103,0.1,129.19232,1594251480447
Fix,GT,37.6036571,-122.382291,,18.514362,0.1,129.29224,1594251481447
Fix,GT,37.6035504,-122.3821267,,18.920822,0.1,129.40265,1594251482447
Fix,GT,37.6034411,-122.3819594,,19.310575,0.1,129.51825,1594251483447
Fix,GT,37.6033298,-122.3817888,,19.63677,0.1,129.55127,1594251484447
Fix,GT,37.6032165,-122.3816163,,19.837822,0.1,129.77557,1594251485447
Fix,GT,37.6031021,-122.3814428,,19.943672,0.1,129.76959,1594251486447
Fix,GT,37.6029878,-122.3812687,,19.899565,0.1,129.72845,1594251487447
Fix,GT,37.6028738,-122.3810957,,19.769268,0.1,129.78833,1594251488447
Fix,GT,37.6027602,-122.3809235,,19.69707,0.1,129.83331,1594251489447
Fix,GT,37.6026471,-122.3807521,,19.623146,0.1,129.74603,1594251490447
Fix,GT,37.6025356,-122.3805818,,19.311901,0.1,129.54614,1594251491447
Fix,GT,37.6024265,-122.3804145,,18.854534,0.1,129.54309,1594251492447
Fix,GT,37.6023202,-122.3802516,,18.354845,0.1,129.51184,1594251493447
Fix,GT,37.602217,-122.3800928,,17.87698,0.1,129.32556,1594251494447
Fix,GT,37.6021168,-122.3799369,,17.539513,0.1,129.00183,1594251495447
Fix,GT,37.6020184,-122.379783,,17.350393,0.1,129.03583,1594251496447
Fix,GT,37.6019199,-122.3796309,,17.262001,0.1,129.45041,1594251497447
Fix,GT,37.601822,-122.37948,,17.075733,0.1,129.33499,1594251498447
Fix,GT,37.6017259,-122.3793313,,16.74089,0.1,129.13586,1594251499447
Fix,GT,37.601632,-122.3791857,,16.43176,0.1,129.2403,1594251500447
Fix,GT,37.6015391,-122.3790418,,16.281734,0.1,129.12979,1594251501447
Fix,GT,37.6014473,-122.3788986,,16.175474,0.1,129.07663,1594251502447
Fix,GT,37.6013558,-122.3787572,,16.016195,0.1,129.43796,1594251503447
Fix,GT,37.6012645,-122.378618,,15.832792,0.1,129.81534,1594251504447
Fix,GT,37.6011743,-122.3784813,,15.478336,0.1,129.75928,1594251505447
Fix,GT,37.6010867,-122.3783482,,15.002508,0.1,129.76862,1594251506447
Fix,GT,37.6010016,-122.3782191,,14.613914,0.1,129.8534,1594251507447
Fix,GT,37.6009184,-122.3780932,,14.31407,0.1,129.94049,1594251508447
Fix,GT,37.6008364,-122.3779697,,14.131353,0.1,129.8847,1594251509447
Fix,GT,37.6007553,-122.3778461,,14.19273,0.1,129.51788,1594251510447
Fix,GT,37.6006734,-122.3777203,,14.528734,0.1,129.45862,1594251511447
Fix,GT,37.6005892,-122.3775914,,14.917568,0.1,129.54858,1594251512447
Fix,GT,37.6005029,-122.3774593,,15.283313,0.1,129.4786,1594251513447
Fix,GT,37.6004148,-122.377324,,15.515757,0.1,129.43384,1594251514447
Fix,GT,37.6003265,-122.3771886,,15.311102,0.1,129.59106,1594251515447
Fix,GT,37.6002404,-122.3770571,,14.77984,0.1,129.66559,1594251516447
Fix,GT,37.6001572,-122.3769303,,14.32539,0.1,129.65594,1594251517447
Fix,GT,37.6000759,-122.3768064,,14.048014,0.1,129.63641,1594251518447
Fix,GT,37.5999956,-122.3766838,,14.052603,0.1,129.54132,1594251519447
Fix,GT,37.5999143,-122.3765588,,14.560511,0.1,129.307,1594251520447
Fix,GT,37.5998292,-122.3764272,,15.452898,0.1,129.20511,1594251521447
Fix,GT,37.5997386,-122.3762871,,16.39561,0.1,129.32828,1594251522447
Fix,GT,37.5996431,-122.3761401,,17.087769,0.1,129.36035,1594251523447
Fix,GT,37.5995441,-122.3759878,,17.58929,0.1,129.32394,1594251524447
Fix,GT,37.5994433,-122.3758324,,17.760841,0.1,129.3728,1594251525447
Fix,GT,37.5993422,-122.375677,,17.68933,0.1,129.40527,1594251526447
Fix,GT,37.5992414,-122.3755217,,17.750498,0.1,129.1629,1594251527447
Fix,GT,37.5991401,-122.3753639,,18.089985,0.1,129.00693,1594251528447
Fix,GT,37.5990363,-122.3752024,,18.573643,0.1,129.11261,1594251529447
Fix,GT,37.5989294,-122.3750367,,19.152683,0.1,129.26807,1594251530447
Fix,GT,37.5988187,-122.3748658,,19.757029,0.1,129.35425,1594251531447
Fix,GT,37.5987048,-122.3746908,,20.151903,0.1,129.50006,1594251532447
Fix,GT,37.5985887,-122.374513,,20.441978,0.1,129.5086,1594251533447
Fix,GT,37.5984717,-122.3743329,,20.584959,0.1,129.41083,1594251534447
Fix,GT,37.5983543,-122.3741521,,20.655361,0.1,129.31836,1594251535447
Fix,GT,37.5982367,-122.3739703,,20.718925,0.1,129.195,1594251536447
Fix,GT,37.5981194,-122.373788,,20.659035,0.1,129.07367,1594251537447
Fix,GT,37.598003,-122.3736062,,20.583012,0.1,128.93866,1594251538447
Fix,GT,37.5978867,-122.3734243,,20.652718,0.1,128.94922,1594251539447
Fix,GT,37.5977695,-122.3732415,,20.781408,0.1,129.09393,1594251540447
Fix,GT,37.5976517,-122.373058,,20.884422,0.1,129.04483,1594251541447
Fix,GT,37.597533,-122.372873,,21.118172,0.1,129.05511,1594251542447
Fix,GT,37.5974123,-122.3726857,,21.47016,0.1,129.1878,1594251543447
Fix,GT,37.5972896,-122.3724951,,21.810884,0.1,129.10129,1594251544447
Fix,GT,37.5971653,-122.3723022,,22.00182,0.1,129.25656,1594251545447
Fix,GT,37.5970396,-122.372109,,22.056465,0.1,129.59418,1594251546447
Fix,GT,37.5969127,-122.3719162,,22.149544,0.1,129.90857,1594251547447
Fix,GT,37.5967843,-122.3717236,,22.207527,0.1,130.12943,1594251548447
Fix,GT,37.5966561,-122.3715309,,22.157236,0.1,129.91287,1594251549447
Fix,GT,37.5965292,-122.371338,,22.041552,0.1,129.62054,1594251550447
Fix,GT,37.5964037,-122.3711457,,21.93083,0.1,129.41827,1594251551447
Fix,GT,37.5962787,-122.3709523,,22.16312,0.1,129.0628,1594251552447
Fix,GT,37.5961523,-122.3707546,,22.633228,0.1,128.87439,1594251553447
Fix,GT,37.5960236,-122.3705532,,22.946732,0.1,128.97552,1594251554447
Fix,GT,37.5958925,-122.3703503,,23.231705,0.1,129.35666,1594251555447
Fix,GT,37.5957586,-122.3701454,,23.61199,0.1,129.71786,1594251556447
Fix,GT,37.595622,-122.3699382,,23.868557,0.1,129.86774,1594251557447
Fix,GT,37.5954843,-122.36973,,23.91739,0.1,129.88507,1594251558447
Fix,GT,37.5953471,-122.3695212,,23.94053,0.1,129.5397,1594251559447
Fix,GT,37.5952103,-122.3693107,,24.072247,0.1,129.32901,1594251560447
Fix,GT,37.5950728,-122.3690987,,24.24759,0.1,129.38394,1594251561447
Fix,GT,37.5949339,-122.3688858,,24.387579,0.1,129.52405,1594251562447
Fix,GT,37.5947941,-122.3686724,,24.425903,0.1,129.71063,1594251563447
Fix,GT,37.5946538,-122.3684592,,24.427979,0.1,129.64459,1594251564447
Fix,GT,37.5945142,-122.368246,,24.330704,0.1,129.4679,1594251565447
Fix,GT,37.594376,-122.3680338,,24.086128,0.1,129.4917,1594251566447
Fix,GT,37.5942391,-122.3678241,,23.815216,0.1,129.55206,1594251567447
Fix,GT,37.5941036,-122.367617,,23.53801,0.1,129.56262,1594251568447
Fix,GT,37.5939698,-122.3674122,,23.26634,0.1,129.52167,1594251569447
Fix,GT,37.5938375,-122.3672097,,23.003006,0.1,129.58392,1594251570447
Fix,GT,37.5937063,-122.3670101,,22.732613,0.1,129.78775,1594251571447
Fix,GT,37.5935762,-122.3668133,,22.454977,0.1,129.92334,1594251572447
Fix,GT,37.5934472,-122.3666188,,22.316174,0.1,129.91443,1594251573447
Fix,GT,37.5933185,-122.3664236,,22.519745,0.1,129.66974,1594251574447
Fix,GT,37.5931886,-122.3662246,,22.957272,0.1,129.28473,1594251575447
Fix,GT,37.5930575,-122.3660217,,23.141644,0.1,129.14655,1594251576447
Fix,GT,37.5929266,-122.365819,,22.913805,0.1,129.27734,1594251577447
Fix,GT,37.5927973,-122.3656192,,22.56497,0.1,129.19617,1594251578447
Fix,GT,37.5926706,-122.3654222,,22.192505,0.1,128.98462,1594251579447
Fix,GT,37.5925457,-122.3652282,,21.889606,0.1,129.26611,1594251580447
Fix,GT,37.5924211,-122.3650377,,21.70718,0.1,129.81134,1594251581447
Fix,GT,37.5922956,-122.3648486,,21.882233,0.1,130.0434,1594251582447
Fix,GT,37.5921676,-122.3646561,,22.44605,0.1,129.99356,1594251583447
Fix,GT,37.5920362,-122.364458,,23.068329,0.1,130.01422,1594251584447
Fix,GT,37.5919014,-122.3642555,,23.562262,0.1,130.0769,1594251585447
Fix,GT,37.5917639,-122.3640494,,23.920002,0.1,130.08405,1594251586447
Fix,GT,37.5916249,-122.3638402,,24.217003,0.1,129.91718,1594251587447
Fix,GT,37.5914846,-122.3636276,,24.610466,0.1,129.7334,1594251588447
Fix,GT,37.591342,-122.3634101,,25.175774,0.1,129.50616,1594251589447
Fix,GT,37.5911969,-122.3631874,,25.634382,0.1,129.45953,1594251590447
Fix,GT,37.5910493,-122.362962,,25.928791,0.1,129.75967,1594251591447
Fix,GT,37.590899,-122.3627346,,26.313938,0.1,129.91992,1594251592447
Fix,GT,37.590746,-122.3625035,,26.797653,0.1,129.82944,1594251593447
Fix,GT,37.5905907,-122.3622681,,27.160965,0.1,129.7526,1594251594447
Fix,GT,37.5904346,-122.3620305,,27.217722,0.1,129.67468,1594251595447
Fix,GT,37.5902793,-122.3617933,,26.999546,0.1,129.4606,1594251596447
Fix,GT,37.5901264,-122.3615578,,26.698032,0.1,129.25684,1594251597447
Fix,GT,37.5899756,-122.3613243,,26.402729,0.1,129.11215,1594251598447
Fix,GT,37.5898272,-122.3610928,,26.118755,0.1,128.93982,1594251599447
Fix,GT,37.5896809,-122.3608626,,25.94263,0.1,128.59045,1594251600447
Fix,GT,37.5895366,-122.3606321,,25.889023,0.1,128.091,1594251601447
Fix,GT,37.5893939,-122.3604001,,25.907814,0.1,127.56845,1594251602447
Fix,GT,37.589253,-122.3601656,,25.98251,0.1,126.82318,1594251603447
Fix,GT,37.5891151,-122.359928,,25.98327,0.1,125.66022,1594251604447
Fix,GT,37.5889817,-122.3596866,,25.938236,0.1,124.24042,1594251605447
Fix,GT,37.5888533,-122.3594412,,25.95242,0.1,122.609314,1594251606447
Fix,GT,37.5887309,-122.3591907,,25.993683,0.1,120.84735,1594251607447
Fix,GT,37.5886134,-122.3589357,,26.071018,0.1,119.63367,1594251608447
Fix,GT,37.5884987,-122.3586777,,26.107199,0.1,119.064514,1594251609447
Fix,GT,37.5883863,-122.3584185,,26.049183,0.1,118.37085,1594251610447
Fix,GT,37.5882771,-122.3581575,,26.024023,0.1,117.41452,1594251611447
Fix,GT,37.5881722,-122.3578943,,25.956081,0.1,116.08081,1594251612447
Fix,GT,37.5880731,-122.3576289,,25.840847,0.1,114.56201,1594251613447
Fix,GT,37.5879793,-122.357362,,25.714525,0.1,113.38391,1594251614447
Fix,GT,37.58789,-122.3570939,,25.650585,0.1,112.24054,1594251615447
Fix,GT,37.5878058,-122.3568231,,25.74968,0.1,110.68118,1594251616447
Fix,GT,37.5877272,-122.3565474,,25.973545,0.1,109.11459,1594251617447
Fix,GT,37.5876535,-122.3562672,,26.134224,0.1,107.84985,1594251618447
Fix,GT,37.5875836,-122.3559843,,26.191746,0.1,106.94333,1594251619447
Fix,GT,37.5875172,-122.3556996,,26.192808,0.1,105.93164,1594251620447
Fix,GT,37.5874556,-122.355414,,26.090668,0.1,104.69974,1594251621447
Fix,GT,37.5873995,-122.3551282,,25.91196,0.1,103.29346,1594251622447
Fix,GT,37.5873497,-122.3548426,,25.733978,0.1,101.752106,1594251623447
Fix,GT,37.5873058,-122.3545577,,25.531788,0.1,100.45624,1594251624447
Fix,GT,37.5872675,-122.3542737,,25.385735,0.1,99.08655,1594251625447
Fix,GT,37.5872343,-122.3539894,,25.405043,0.1,97.99924,1594251626447
Fix,GT,37.5872049,-122.3537033,,25.558025,0.1,97.03143,1594251627447
Fix,GT,37.5871794,-122.3534149,,25.68718,0.1,95.90839,1594251628447
Fix,GT,37.5871588,-122.3531248,,25.763752,0.1,94.57239,1594251629447
Fix,GT,37.587144,-122.352833,,25.895378,0.1,93.07959,1594251630447
Fix,GT,37.5871342,-122.3525394,,26.028397,0.1,92.07019,1594251631447
