MessageType,Provider,LatitudeDegrees,LongitudeDegrees,AltitudeMeters,SpeedMps,AccuracyMeters,BearingDegrees,UnixTimeMillis
Fix,GT,37.5252221,-122.3533969,,0.002236068,0.1,228.16666,1596754353446
Fix,GT,37.5252221,-122.3533969,,0.0018690905,0.1,228.16661,1596754354446
Fix,GT,37.5252221,-122.3533969,,0.002194766,0.1,228.1664,1596754355446
Fix,GT,37.5252221,-122.3533969,,0.0031622779,0.1,228.16653,1596754356446
Fix,GT,37.5252221,-122.3533969,,0.0031622779,0.1,228.16676,1596754357446
Fix,GT,37.5252221,-122.3533969,,0.00336021,0.1,228.16695,1596754358446
Fix,GT,37.5252221,-122.3533969,,0.004819651,0.1,228.16731,1596754359446
Fix,GT,37.5252221,-122.3533969,,0.006751233,0.1,228.16777,1596754360446
Fix,GT,37.5252221,-122.3533969,,0.006026283,0.1,228.16791,1596754361446
Fix,GT,37.5252221,-122.3533969,,0.0040851855,0.1,228.16771,1596754362446
Fix,GT,37.5252221,-122.3533969,,0.0036055513,0.1,228.16771,1596754363446
Fix,GT,37.5252221,-122.3533969,,0.0036055516,0.1,228.17108,1596754364446
Fix,GT,37.5252221,-122.3533969,,0.0029940445,0.1,228.171,1596754365446
Fix,GT,37.5252221,-122.3533969,,0.0030786754,0.1,228.1678,1596754366446
Fix,GT,37.5252221,-122.3533969,,0.0041231057,0.1,228.16899,1596754367446
Fix,GT,37.5252221,-122.3533969,,0.004686645,0.1,228.16818,1596754368446
Fix,GT,37.5252221,-122.3533969,,0.0052131796,0.1,228.16948,1596754369446
Fix,GT,37.5252221,-122.353397,,0.0041069523,0.1,228.16656,1596754370446
Fix,GT,37.525222,-122.353397,,0.0060581784,0.1,228.16292,1596754371446
Fix,GT,37.525222,-122.353397,,0.010383125,0.1,228.16386,1596754372446
Fix,GT,37.525222,-122.353397,,0.010600854,0.1,228.16422,1596754373446
Fix,GT,37.525222,-122.353397,,0.010939226,0.1,228.16444,1596754374446
Fix,GT,37.525222,-122.353397,,0.012041595,0.1,228.16476,1596754375446
Fix,GT,37.525222,-122.353397,,0.012931997,0.1,228.16508,1596754376446
Fix,GT,37.525222,-122.353397,,0.01452554,0.1,228.16545,1596754377446
Fix,GT,37.525222,-122.353397,,0.014768862,0.1,228.16579,1596754378446
Fix,GT,37.525222,-122.353397,,0.01462243,0.1,228.16573,1596754379446
Fix,GT,37.525222,-122.353397,,0.015059274,0.1,228.16565,1596754380446
Fix,GT,37.525222,-122.353397,,0.015206115,0.1,228.16595,1596754381446
Fix,GT,37.525222,-122.353397,,0.015104612,0.1,228.16609,1596754382446
Fix,GT,37.525222,-122.353397,,0.0144473715,0.1,228.16614,1596754383446
Fix,GT,37.5252219,-122.353397,,0.013303958,0.1,228.16666,1596754384446
Fix,GT,37.5252218,-122.353397,,0.012026191,0.1,228.16626,1596754385446
Fix,GT,37.5252217,-122.3533969,,0.012301344,0.1,228.16687,1596754386446
Fix,GT,37.5252216,-122.3533968,,0.012857858,0.1,228.16924,1596754387446
Fix,GT,37.5252215,-122.3533966,,0.012806709,0.1,228.17093,1596754388446
Fix,GT,37.5252215,-122.3533964,,0.015326293,0.1,228.17029,1596754389446
Fix,GT,37.5252215,-122.3533962,,0.023334343,0.1,228.16818,1596754390446
Fix,GT,37.5252215,-122.353396,,0.0351623,0.1,228.16899,1596754391446
Fix,GT,37.525221,-122.3533948,,0.27107668,0.1,228.06134,1596754392446
Fix,GT,37.5252165,-122.3533894,,1.101927,0.1,226.85898,1596754393446
Fix,GT,37.5252045,-122.3533748,,2.4539404,0.1,224.39507,1596754394446
Fix,GT,37.5251839,-122.3533483,,3.87747,0.1,222.36198,1596754395446
Fix,GT,37.5251555,-122.3533106,,5.1609664,0.1,221.4438,1596754396446
Fix,GT,37.52512,-122.3532631,,6.331948,0.1,221.51941,1596754397446
Fix,GT,37.525078,-122.3532075,,7.1832175,0.1,222.00768,1596754398446
Fix,GT,37.5250312,-122.3531475,,7.6353664,0.1,223.0223,1596754399446
Fix,GT,37.5249824,-122.3530883,,7.6046133,0.1,225.24507,1596754400446
Fix,GT,37.5249337,-122.3530342,,7.0505514,0.1,228.1592,1596754401446
Fix,GT,37.5248875,-122.3529877,,6.253682,0.1,230.53763,1596754402446
Fix,GT,37.5248454,-122.3529483,,5.4818187,0.1,231.82655,1596754403446
Fix,GT,37.5248067,-122.3529143,,4.634349,0.1,233.61298,1596754404446
Fix,GT,37.5247755,-122.3528891,,3.4279773,0.1,236.67046,1596754405446
Fix,GT,37.5247561,-122.3528757,,2.674636,0.1,242.55487,1596754406446
Fix,GT,37.5247415,-122.3528687,,2.7990808,0.1,253.6008,1596754407446
Fix,GT,37.5247261,-122.3528663,,3.2705805,0.1,270.21182,1596754408446
Fix,GT,37.5247059,-122.3528707,,3.9011536,0.1,289.0471,1596754409446
Fix,GT,37.5246768,-122.3528887,,4.826847,0.1,302.25302,1596754410446
Fix,GT,37.5246387,-122.3529226,,5.852516,0.1,308.66205,1596754411446
Fix,GT,37.5245946,-122.3529684,,6.620566,0.1,313.05154,1596754412446
Fix,GT,37.5245485,-122.3530239,,7.1745706,0.1,315.34473,1596754413446
Fix,GT,37.5244999,-122.353087,,7.98787,0.1,314.71323,1596754414446
Fix,GT,37.5244451,-122.3531557,,8.806952,0.1,313.35538,1596754415446
Fix,GT,37.5243854,-122.3532281,,9.181244,0.1,312.2223,1596754416446
Fix,GT,37.5243234,-122.3533015,,9.309974,0.1,311.23334,1596754417446
Fix,GT,37.5242612,-122.3533743,,9.265741,0.1,310.21692,1596754418446
Fix,GT,37.5242012,-122.3534455,,9.113041,0.1,309.52655,1596754419446
Fix,GT,37.5241432,-122.3535154,,9.074099,0.1,308.38092,1596754420446
Fix,GT,37.5240828,-122.3535845,,9.382397,0.1,305.924,1596754421446
Fix,GT,37.5240132,-122.353651,,9.900535,0.1,301.6386,1596754422446
Fix,GT,37.523932,-122.3537109,,10.321061,0.1,295.68903,1596754423446
Fix,GT,37.5238447,-122.3537623,,10.711178,0.1,290.50916,1596754424446
Fix,GT,37.5237561,-122.3538074,,10.904763,0.1,288.2458,1596754425446
Fix,GT,37.5236692,-122.3538496,,10.653326,0.1,288.12366,1596754426446
Fix,GT,37.523584,-122.3538917,,10.505791,0.1,289.6941,1596754427446
Fix,GT,37.5234999,-122.353938,,10.594465,0.1,294.40488,1596754428446
Fix,GT,37.5234196,-122.3539955,,10.673695,0.1,302.71906,1596754429446
Fix,GT,37.5233449,-122.3540689,,10.665226,0.1,312.74222,1596754430446
Fix,GT,37.5232798,-122.3541579,,10.530046,0.1,322.74225,1596754431446
Fix,GT,37.5232313,-122.354256,,10.285076,0.1,334.04865,1596754432446
Fix,GT,37.5232059,-122.3543569,,10.327646,0.1,345.92215,1596754433446
Fix,GT,37.5231974,-122.3544656,,10.626458,0.1,353.75677,1596754434446
Fix,GT,37.5231934,-122.3545857,,10.791502,0.1,356.06024,1596754435446
Fix,GT,37.5231917,-122.3547074,,10.791319,0.1,356.69455,1596754436446
Fix,GT,37.5231903,-122.354829,,10.532628,0.1,356.5282,1596754437446
Fix,GT,37.5231882,-122.354948,,10.374552,0.1,355.59482,1596754438446
Fix,GT,37.5231855,-122.3550657,,10.632463,0.1,354.6888,1596754439446
Fix,GT,37.5231818,-122.3551873,,10.919054,0.1,354.30997,1596754440446
Fix,GT,37.5231773,-122.3553118,,11.124123,0.1,354.13486,1596754441446
Fix,GT,37.5231725,-122.3554386,,11.294047,0.1,354.0054,1596754442446
Fix,GT,37.5231677,-122.3555672,,11.53508,0.1,354.37576,1596754443446
Fix,GT,37.5231639,-122.3556991,,11.921745,0.1,355.10635,1596754444446
Fix,GT,37.5231611,-122.3558359,,12.296385,0.1,355.37158,1596754445446
Fix,GT,37.5231578,-122.3559759,,12.439888,0.1,355.08963,1596754446446
Fix,GT,37.523154,-122.3561151,,12.103594,0.1,354.78778,1596754447446
Fix,GT,37.5231501,-122.356247,,11.190861,0.1,354.95145,1596754448446
Fix,GT,37.5231468,-122.3563677,,10.134516,0.1,355.15356,1596754449446
Fix,GT,37.5231435,-122.3564756,,8.886725,0.1,355.15558,1596754450446
Fix,GT,37.5231407,-122.3565683,,7.4340696,0.1,355.28864,1596754451446
Fix,GT,37.5231387,-122.3566438,,5.8106813,0.1,355.51422,1596754452446
Fix,GT,37.5231373,-122.3566995,,4.077378,0.1,355.52228,1596754453446
Fix,GT,37.5231362,-122.3567374,,2.7476292,0.1,355.43893,1596754454446
Fix,GT,37.5231356,-122.3567626,,1.7353177,0.1,355.3443,1596754455446
Fix,GT,37.5231352,-122.3567774,,1.0684967,0.1,355.29282,1596754456446
Fix,GT,37.5231348,-122.35679,,1.4408389,0.1,354.65796,1596754457446
Fix,GT,37.5231314,-122.3568177,,2.9693146,0.1,346.90552,1596754458446
Fix,GT,37.5231149,-122.3568664,,4.642267,0.1,326.48715,1596754459446
Fix,GT,37.5230747,-122.3569165,,5.8702316,0.1,300.89166,1596754460446
Fix,GT,37.5230133,-122.3569475,,7.0854917,0.1,279.64923,1596754461446
Fix,GT,37.5229377,-122.3569538,,8.441056,0.1,263.6204,1596754462446
Fix,GT,37.5228534,-122.356935,,9.552052,0.1,252.14862,1596754463446
Fix,GT,37.522767,-122.3568977,,10.14816,0.1,247.54295,1596754464446
Fix,GT,37.5226817,-122.3568539,,10.330975,0.1,246.9942,1596754465446
Fix,GT,37.5226009,-122.3568109,,10.255569,0.1,248.54755,1596754466446
Fix,GT,37.5225296,-122.3567747,,9.7432,0.1,250.8576,1596754467446
Fix,GT,37.5224455,-122.3567507,,8.846494,0.1,251.37271,1596754468446
Fix,GT,37.5223535,-122.3567267,,7.977062,0.1,245.19179,1596754469446
Fix,GT,37.5222874,-122.3566798,,7.6926527,0.1,227.99745,1596754470446
Fix,GT,37.5222376,-122.3566058,,7.9971657,0.1,207.27914,1596754471446
Fix,GT,37.522208,-122.3565133,,8.573046,0.1,193.22353,1596754472446
Fix,GT,37.5221899,-122.3564126,,9.367045,0.1,189.78812,1596754473446
Fix,GT,37.5221695,-122.3563078,,10.179452,0.1,194.67429,1596754474446
Fix,GT,37.5221366,-122.3562019,,10.996008,0.1,205.0271,1596754475446
Fix,GT,37.522083,-122.3560995,,12.0869465,0.1,217.69498,1596754476446
Fix,GT,37.5220039,-122.3560041,,13.67137,0.1,229.87474,1596754477446
Fix,GT,37.5218972,-122.3559165,,15.505136,0.1,238.16422,1596754478446
Fix,GT,37.5217674,-122.3558311,,17.278812,0.1,240.86092,1596754479446
Fix,GT,37.5216215,-122.3557398,,18.862823,0.1,241.03412,1596754480446
Fix,GT,37.521464,-122.3556403,,20.234577,0.1,240.59659,1596754481446
Fix,GT,37.5212967,-122.3555325,,21.507717,0.1,240.40735,1596754482446
Fix,GT,37.5211188,-122.3554185,,22.837162,0.1,240.78723,1596754483446
Fix,GT,37.5209337,-122.355302,,23.906837,0.1,240.05835,1596754484446
Fix,GT,37.5207431,-122.3551837,,24.586538,0.1,238.84738,1596754485446
Fix,GT,37.5205438,-122.355061,,25.147793,0.1,238.72357,1596754486446
Fix,GT,37.5203386,-122.3549334,,25.857464,0.1,238.67155,1596754487446
Fix,GT,37.5201277,-122.3548034,,26.772442,0.1,238.2758,1596754488446
Fix,GT,37.5199124,-122.3546639,,27.636154,0.1,237.40651,1596754489446
Fix,GT,37.5196935,-122.354507,,28.280737,0.1,236.58011,1596754490446
Fix,GT,37.5194715,-122.3543417,,28.785723,0.1,236.0061,1596754491446
Fix,GT,37.5192461,-122.35417,,29.201256,0.1,235.55399,1596754492446
Fix,GT,37.5190174,-122.353993,,29.522135,0.1,234.88608,1596754493446
Fix,GT,37.5187866,-122.3538104,,29.822006,0.1,233.92282,1596754494446
Fix,GT,37.5185552,-122.3536206,,30.225323,0.1,232.62631,1596754495446
Fix,GT,37.5183248,-122.3534234,,30.641193,0.1,230.9395,1596754496446
Fix,GT,37.5180976,-122.3532185,,31.056084,0.1,229.33162,1596754497446
Fix,GT,37.5178723,-122.3530064,,31.503922,0.1,228.37589,1596754498446
Fix,GT,37.5176471,-122.3527871,,32.01098,0.1,227.66551,1596754499446
Fix,GT,37.5174223,-122.3525605,,32.52272,0.1,226.89044,1596754500446
Fix,GT,37.5171977,-122.3523275,,32.914574,0.1,226.18236,1596754501446
Fix,GT,37.5169727,-122.3520898,,33.200462,0.1,225.71402,1596754502446
Fix,GT,37.5167466,-122.3518484,,33.427414,0.1,225.4845,1596754503446
Fix,GT,37.5165186,-122.351604,,33.61199,0.1,225.39085,1596754504446
Fix,GT,37.5162878,-122.351358,,33.681805,0.1,225.4585,1596754505446
Fix,GT,37.516054,-122.351111,,33.848175,0.1,225.5534,1596754506446
Fix,GT,37.5158177,-122.350861,,34.210182,0.1,225.7874,1596754507446
Fix,GT,37.5155797,-122.3506066,,34.547276,0.1,225.94504,1596754508446
Fix,GT,37.5153406,-122.3503491,,34.757507,0.1,225.95218,1596754509446
Fix,GT,37.5151011,-122.3500899,,34.907715,0.1,225.9863,1596754510446
Fix,GT,37.5148612,-122.3498302,,34.96367,0.1,226.04031,1596754511446
Fix,GT,37.5146215,-122.3495717,,34.826263,0.1,226.01599,1596754512446
Fix,GT,37.5143817,-122.3493158,,34.68376,0.1,225.98972,1596754513446
Fix,GT,37.5141422,-122.3490664,,34.710888,0.1,226.1168,1596754514446
Fix,GT,37.5139045,-122.3488171,,34.820442,0.1,226.3619,1596754515446
Fix,GT,37.5136679,-122.3485586,,34.867573,0.1,226.54276,1596754516446
Fix,GT,37.5134313,-122.3482991,,34.904293,0.1,226.51193,1596754517446
Fix,GT,37.5131943,-122.3480384,,35.01364,0.1,226.15886,1596754518446
Fix,GT,37.5129578,-122.3477745,,35.19131,0.1,225.73172,1596754519446
Fix,GT,37.5127218,-122.3475068,,35.37258,0.1,225.17819,1596754520446
Fix,GT,37.5124868,-122.3472343,,35.572216,0.1,224.45277,1596754521446
Fix,GT,37.5122536,-122.3469561,,35.87089,0.1,223.64342,1596754522446
Fix,GT,37.5120212,-122.3466719,,36.209587,0.1,222.96461,1596754523446
Fix,GT,37.51179,-122.3463827,,36.448826,0.1,222.38295,1596754524446
Fix,GT,37.5115602,-122.3460882,,36.69887,0.1,221.6953,1596754525446
Fix,GT,37.5113295,-122.3457883,,36.926697,0.1,220.98119,1596754526446
Fix,GT,37.5111008,-122.3454831,,37.039856,0.1,220.26953,1596754527446
Fix,GT,37.5108746,-122.345174,,37.07711,0.1,219.59618,1596754528446
Fix,GT,37.510651,-122.3448614,,37.075844,0.1,218.84763,1596754529446
Fix,GT,37.5104307,-122.3445454,,37.046356,0.1,218.1413,1596754530446
Fix,GT,37.5102134,-122.3442269,,36.982033,0.1,217.70888,1596754531446
Fix,GT,37.5099984,-122.3439079,,36.780296,0.1,217.13487,1596754532446
Fix,GT,37.5097882,-122.3435875,,36.526176,0.1,216.08849,1596754533446
Fix,GT,37.5095839,-122.3432636,,36.420273,0.1,215.38097,1596754534446
Fix,GT,37.5093827,-122.3429382,,36.40238,0.1,215.08159,1596754535446
Fix,GT,37.5091821,-122.3426118,,36.456,0.1,214.8588,1596754536446
Fix,GT,37.5089821,-122.3422842,,36.566944,0.1,214.8235,1596754537446
Fix,GT,37.5087816,-122.3419553,,36.680607,0.1,214.80583,1596754538446
Fix,GT,37.5085807,-122.3416253,,36.7663,0.1,214.72238,1596754539446
Fix,GT,37.5083801,-122.3412941,,36.783607,0.1,214.51321,1596754540446
Fix,GT,37.5081805,-122.340962,,36.74452,0.1,214.39749,1596754541446
Fix,GT,37.5079813,-122.3406302,,36.718376,0.1,214.4981,1596754542446
Fix,GT,37.5077805,-122.3402992,,36.784927,0.1,214.88374,1596754543446
Fix,GT,37.5075774,-122.3399689,,36.948105,0.1,215.23494,1596754544446
Fix,GT,37.507373,-122.3396375,,37.135403,0.1,215.18631,1596754545446
Fix,GT,37.507168,-122.3393041,,37.298965,0.1,215.14961,1596754546446
Fix,GT,37.506962,-122.3389693,,37.419907,0.1,215.20175,1596754547446
Fix,GT,37.5067558,-122.3386336,,37.39431,0.1,215.06642,1596754548446
Fix,GT,37.506551,-122.3382982,,37.242115,0.1,214.90602,1596754549446
Fix,GT,37.5063475,-122.3379637,,37.087555,0.1,214.91597,1596754550446
Fix,GT,37.506145,-122.3376305,,36.896744,0.1,214.83424,1596754551446
Fix,GT,37.5059442,-122.3372985,,36.725975,0.1,214.74275,1596754552446
Fix,GT,37.5057444,-122.3369679,,36.603157,0.1,214.90424,1596754553446
Fix,GT,37.505544,-122.3366405,,36.446995,0.1,215.46889,1596754554446
Fix,GT,37.5053419,-122.3363169,,36.268097,0.1,215.9544,1596754555446
Fix,GT,37.5051391,-122.335997,,36.020958,0.1,216.37105,1596754556446
Fix,GT,37.5049358,-122.3356825,,35.630608,0.1,216.99866,1596754557446
Fix,GT,37.5047323,-122.3353746,,35.136017,0.1,217.44847,1596754558446
Fix,GT,37.5045299,-122.3350731,,34.632957,0.1,217.9685,1596754559446
Fix,GT,37.504328,-122.3347787,,34.157394,0.1,218.62811,1596754560446
Fix,GT,37.5041262,-122.3344898,,33.880474,0.1,218.90048,1596754561446
Fix,GT,37.5039245,-122.3342021,,33.895214,0.1,218.72139,1596754562446
Fix,GT,37.5037235,-122.3339128,,33.96728,0.1,218.48135,1596754563446
Fix,GT,37.5035224,-122.333623,,34.009872,0.1,218.62303,1596754564446
Fix,GT,37.5033203,-122.3333338,,34.053314,0.1,218.93752,1596754565446
Fix,GT,37.5031172,-122.333045,,34.10258,0.1,218.96419,1596754566446
Fix,GT,37.5029139,-122.3327554,,34.17054,0.1,218.86368,1596754567446
Fix,GT,37.502711,-122.3324646,,34.153736,0.1,218.63374,1596754568446
Fix,GT,37.5025096,-122.3321727,,34.110687,0.1,218.2466,1596754569446
Fix,GT,37.5023103,-122.3318788,,34.0951,0.1,217.4611,1596754570446
Fix,GT,37.5021153,-122.3315805,,34.013336,0.1,216.03926,1596754571446
Fix,GT,37.5019278,-122.3312762,,33.879227,0.1,214.30516,1596754572446
Fix,GT,37.5017484,-122.330966,,33.766636,0.1,212.37164,1596754573446
Fix,GT,37.5015787,-122.3306485,,33.660027,0.1,210.1577,1596754574446
Fix,GT,37.5014193,-122.3303238,,33.588665,0.1,207.84229,1596754575446
Fix,GT,37.5012705,-122.3299918,,33.5643,0.1,205.58273,1596754576446
Fix,GT,37.5011322,-122.329653,,33.513145,0.1,203.51794,1596754577446
Fix,GT,37.5010029,-122.3293089,,33.49695,0.1,201.64226,1596754578446
Fix,GT,37.5008836,-122.3289596,,33.52482,0.1,199.73045,1596754579446
Fix,GT,37.5007741,-122.3286055,,33.50792,0.1,197.80939,1596754580446
Fix,GT,37.5006734,-122.3282473,,33.50555,0.1,195.82457,1596754581446
Fix,GT,37.5005834,-122.3278843,,33.521114,0.1,193.37361,1596754582446
Fix,GT,37.5005068,-122.3275168,,33.536835,0.1,190.8908,1596754583446
Fix,GT,37.5004416,-122.3271454,,33.59506,0.1,188.75487,1596754584446
Fix,GT,37.5003853,-122.3267708,,33.760437,0.1,186.71136,1596754585446
Fix,GT,37.5003394,-122.3263917,,34.0289,0.1,184.77425,1596754586446
Fix,GT,37.5003034,-122.3260069,,34.348007,0.1,182.75143,1596754587446
Fix,GT,37.5002785,-122.3256169,,34.672882,0.1,180.45004,1596754588446
Fix,GT,37.500266,-122.3252219,,34.96906,0.1,178.41064,1596754589446
Fix,GT,37.5002629,-122.3248228,,35.33267,0.1,177.3352,1596754590446
Fix,GT,37.5002626,-122.3244203,,35.773407,0.1,177.40387,1596754591446
Fix,GT,37.5002613,-122.3240142,,36.1063,0.1,177.89941,1596754592446
Fix,GT,37.500258,-122.3236056,,36.19438,0.1,178.24615,1596754593446
Fix,GT,37.5002525,-122.3231974,,36.03959,0.1,178.75952,1596754594446
Fix,GT,37.5002428,-122.3227914,,35.916336,0.1,179.92352,1596754595446
Fix,GT,37.5002247,-122.3223868,,35.943626,0.1,181.96602,1596754596446
Fix,GT,37.5001934,-122.3219836,,35.979782,0.1,184.65633,1596754597446
Fix,GT,37.5001473,-122.3215816,,36.046707,0.1,186.83165,1596754598446
Fix,GT,37.5000903,-122.3211809,,36.089714,0.1,188.47267,1596754599446
Fix,GT,37.5000241,-122.3207823,,36.046562,0.1,190.17436,1596754600446
Fix,GT,37.4999494,-122.3203872,,35.875153,0.1,191.75468,1596754601446
Fix,GT,37.499866,-122.3199977,,35.627007,0.1,193.5725,1596754602446
Fix,GT,37.4997728,-122.3196141,,35.51417,0.1,195.6815,1596754603446
Fix,GT,37.499668,-122.3192359,,35.485947,0.1,198.10954,1596754604446
Fix,GT,37.4995511,-122.3188639,,35.42811,0.1,200.27933,1596754605446
Fix,GT,37.4994239,-122.3184985,,35.189793,0.1,202.18387,1596754606446
Fix,GT,37.4992884,-122.3181427,,34.714073,0.1,204.0706,1596754607446
Fix,GT,37.4991458,-122.317796,,34.450302,0.1,205.50716,1596754608446
Fix,GT,37.4989971,-122.3174545,,34.56906,0.1,206.97346,1596754609446
Fix,GT,37.4988405,-122.317116,,34.80341,0.1,208.68903,1596754610446
Fix,GT,37.4986746,-122.3167814,,35.047047,0.1,210.42178,1596754611446
Fix,GT,37.4985003,-122.3164501,,35.281246,0.1,211.71805,1596754612446
Fix,GT,37.4983198,-122.31612,,35.592113,0.1,212.4379,1596754613446
Fix,GT,37.4981347,-122.3157883,,36.01233,0.1,212.59207,1596754614446
Fix,GT,37.4979469,-122.3154525,,36.439423,0.1,212.44286,1596754615446
Fix,GT,37.4977585,-122.3151129,,36.63454,0.1,212.04785,1596754616446
Fix,GT,37.4975719,-122.3147696,,36.707184,0.1,211.30617,1596754617446
Fix,GT,37.4973887,-122.3144221,,36.875053,0.1,210.78099,1596754618446
Fix,GT,37.4972068,-122.3140727,,36.99371,0.1,210.92853,1596754619446
Fix,GT,37.4970243,-122.3137228,,36.981056,0.1,210.42729,1596754620446
Fix,GT,37.4968455,-122.3133693,,36.946083,0.1,208.97058,1596754621446
Fix,GT,37.4966742,-122.31301,,36.992195,0.1,207.59433,1596754622446
Fix,GT,37.4965092,-122.3126458,,37.031403,0.1,206.38712,1596754623446
Fix,GT,37.4963495,-122.3122774,,37.076515,0.1,205.23706,1596754624446
Fix,GT,37.4961952,-122.3119042,,37.159416,0.1,203.93571,1596754625446
Fix,GT,37.4960478,-122.3115256,,37.258816,0.1,202.35075,1596754626446
Fix,GT,37.4959086,-122.3111411,,37.32449,0.1,200.66743,1596754627446
Fix,GT,37.495778,-122.3107513,,37.326675,0.1,199.20793,1596754628446
Fix,GT,37.4956555,-122.3103578,,37.229427,0.1,197.8134,1596754629446
Fix,GT,37.4955405,-122.3099621,,37.08296,0.1,196.54028,1596754630446
Fix,GT,37.495432,-122.3095646,,37.048218,0.1,195.61023,1596754631446
Fix,GT,37.4953277,-122.3091654,,37.141296,0.1,195.00385,1596754632446
Fix,GT,37.4952261,-122.3087646,,37.205723,0.1,194.53255,1596754633446
Fix,GT,37.4951269,-122.308363,,37.237,0.1,194.24997,1596754634446
Fix,GT,37.495029,-122.3079609,,37.26908,0.1,194.20393,1596754635446
Fix,GT,37.4949314,-122.3075591,,37.177948,0.1,194.25447,1596754636446
Fix,GT,37.4948339,-122.3071588,,36.94632,0.1,194.25461,1596754637446
Fix,GT,37.4947374,-122.3067602,,36.749237,0.1,194.05145,1596754638446
Fix,GT,37.4946426,-122.3063629,,36.595062,0.1,194.08406,1596754639446
Fix,GT,37.4945467,-122.305968,,36.46124,0.1,194.6607,1596754640446
Fix,GT,37.4944471,-122.3055766,,36.321198,0.1,195.87299,1596754641446
Fix,GT,37.4943397,-122.3051907,,36.19223,0.1,197.84212,1596754642446
Fix,GT,37.4942208,-122.3048114,,36.10895,0.1,200.21306,1596754643446
Fix,GT,37.4940897,-122.3044394,,36.103233,0.1,202.61818,1596754644446
Fix,GT,37.4939468,-122.3040738,,36.131115,0.1,204.75914,1596754645446
Fix,GT,37.4937932,-122.3037151,,36.089066,0.1,206.96533,1596754646446
Fix,GT,37.4936293,-122.3033642,,36.070923,0.1,209.1624,1596754647446
Fix,GT,37.4934543,-122.3030226,,36.042618,0.1,211.8311,1596754648446
Fix,GT,37.4932666,-122.3026924,,36.041443,0.1,214.6648,1596754649446
Fix,GT,37.4930677,-122.302372,,36.110413,0.1,216.61713,1596754650446
Fix,GT,37.4928601,-122.302059,,36.273357,0.1,218.59657,1596754651446
Fix,GT,37.4926426,-122.301755,,36.421173,0.1,220.92961,1596754652446
Fix,GT,37.4924141,-122.3014611,,36.55626,0.1,223.16376,1596754653446
Fix,GT,37.4921721,-122.3011766,,36.766754,0.1,225.34938,1596754654446
Fix,GT,37.4919192,-122.3009027,,37.017586,0.1,227.84387,1596754655446
Fix,GT,37.4916582,-122.3006417,,37.361786,0.1,230.6198,1596754656446
Fix,GT,37.4913848,-122.300394,,37.761333,0.1,233.16602,1596754657446
Fix,GT,37.491101,-122.3001587,,38.053864,0.1,235.4424,1596754658446
Fix,GT,37.4908074,-122.2999369,,38.294235,0.1,237.47615,1596754659446
Fix,GT,37.4905048,-122.2997278,,38.43965,0.1,239.91428,1596754660446
Fix,GT,37.4901953,-122.2995343,,38.31977,0.1,242.19485,1596754661446
Fix,GT,37.4898808,-122.2993576,,38.193832,0.1,244.18707,1596754662446
Fix,GT,37.489562,-122.2991959,,38.284973,0.1,246.54343,1596754663446
Fix,GT,37.4892379,-122.2990518,,38.325897,0.1,249.0923,1596754664446
Fix,GT,37.4889095,-122.2989261,,38.209045,0.1,251.62631,1596754665446
Fix,GT,37.4885781,-122.298817,,38.0041,0.1,254.0458,1596754666446
Fix,GT,37.4882454,-122.2987242,,37.914608,0.1,256.13388,1596754667446
Fix,GT,37.4879116,-122.2986499,,37.948975,0.1,258.6018,1596754668446
Fix,GT,37.4875749,-122.298595,,37.93622,0.1,261.47067,1596754669446
Fix,GT,37.4872361,-122.2985609,,37.770813,0.1,263.85513,1596754670446
Fix,GT,37.4868984,-122.2985444,,37.48485,0.1,266.10568,1596754671446
Fix,GT,37.4865632,-122.298545,,37.25804,0.1,268.5151,1596754672446
Fix,GT,37.4862294,-122.2985623,,37.12886,0.1,270.74463,1596754673446
Fix,GT,37.4858966,-122.2985952,,37.04869,0.1,272.8058,1596754674446
Fix,GT,37.4855645,-122.2986415,,36.947636,0.1,274.25598,1596754675446
Fix,GT,37.4852339,-122.2986948,,36.847107,0.1,274.7533,1596754676446
Fix,GT,37.4849046,-122.2987488,,36.776936,0.1,274.71814,1596754677446
Fix,GT,37.4845762,-122.2988017,,36.727127,0.1,274.60837,1596754678446
Fix,GT,37.4842485,-122.2988544,,36.697067,0.1,274.58145,1596754679446
Fix,GT,37.4839211,-122.298907,,36.655243,0.1,274.48932,1596754680446
Fix,GT,37.4835944,-122.2989593,,36.57948,0.1,274.47864,1596754681446
Fix,GT,37.4832686,-122.2990124,,36.52587,0.1,274.68106,1596754682446
Fix,GT,37.4829433,-122.2990671,,36.48858,0.1,274.81183,1596754683446
Fix,GT,37.4826184,-122.2991219,,36.442245,0.1,274.63812,1596754684446
Fix,GT,37.4822933,-122.2991756,,36.525787,0.1,274.43402,1596754685446
Fix,GT,37.4819668,-122.2992272,,36.703636,0.1,274.12567,1596754686446
Fix,GT,37.4816387,-122.299277,,36.8022,0.1,274.06177,1596754687446
Fix,GT,37.4813099,-122.2993277,,36.846436,0.1,274.40417,1596754688446
Fix,GT,37.4809812,-122.2993804,,36.72673,0.1,274.6515,1596754689446
Fix,GT,37.4806543,-122.2994347,,36.39838,0.1,274.85577,1596754690446
Fix,GT,37.48033,-122.2994895,,36.136314,0.1,274.77515,1596754691446
Fix,GT,37.480007,-122.2995424,,36.00631,0.1,274.4086,1596754692446
Fix,GT,37.4796844,-122.2995915,,35.903233,0.1,273.63916,1596754693446
Fix,GT,37.4793627,-122.2996327,,35.688908,0.1,272.12537,1596754694446
Fix,GT,37.4790426,-122.2996613,,35.434235,0.1,270.06516,1596754695446
Fix,GT,37.478724,-122.2996746,,35.28621,0.1,267.77213,1596754696446
Fix,GT,37.4784067,-122.2996717,,35.169624,0.1,265.4903,1596754697446
Fix,GT,37.4780888,-122.2996541,,35.14287,0.1,263.13733,1596754698446
Fix,GT,37.4777696,-122.2996205,,35.045074,0.1,261.0224,1596754699446
Fix,GT,37.4774546,-122.2995721,,34.740585,0.1,259.22107,1596754700446
Fix,GT,37.477146,-122.29951,,34.44633,0.1,256.88812,1596754701446
Fix,GT,37.4768415,-122.2994312,,34.404938,0.1,254.19833,1596754702446
Fix,GT,37.4765405,-122.2993336,,34.666073,0.1,251.27365,1596754703446
Fix,GT,37.4762406,-122.2992179,,35.012825,0.1,248.40675,1596754704446
Fix,GT,37.4759403,-122.2990848,,35.42465,0.1,246.28134,1596754705446
Fix,GT,37.4756397,-122.2989375,,35.800644,0.1,244.5951,1596754706446
Fix,GT,37.4753385,-122.298779,,36.063396,0.1,242.74068,1596754707446
Fix,GT,37.4750401,-122.2986077,,36.339424,0.1,240.84564,1596754708446
Fix,GT,37.474745,-122.2984223,,36.613914,0.1,238.92738,1596754709446
Fix,GT,37.4744543,-122.2982228,,36.77554,0.1,236.85947,1596754710446
Fix,GT,37.4741691,-122.298009,,36.897285,0.1,234.85252,1596754711446
Fix,GT,37.4738897,-122.2977804,,37.015053,0.1,232.41827,1596754712446
Fix,GT,37.4736188,-122.2975342,,37.085083,0.1,229.73053,1596754713446
Fix,GT,37.4733568,-122.2972719,,37.19742,0.1,227.81624,1596754714446
Fix,GT,37.4730988,-122.2970002,,37.4556,0.1,227.11491,1596754715446
Fix,GT,37.4728406,-122.2967231,,37.806656,0.1,226.84474,1596754716446
Fix,GT,37.472581,-122.2964432,,38.06289,0.1,226.91953,1596754717446
Fix,GT,37.4723199,-122.2961629,,38.151424,0.1,227.13411,1596754718446
Fix,GT,37.4720577,-122.2958832,,38.185623,0.1,227.21428,1596754719446
Fix,GT,37.4717952,-122.2956027,,38.31903,0.1,227.04117,1596754720446
Fix,GT,37.4715325,-122.2953199,,38.507767,0.1,226.81389,1596754721446
Fix,GT,37.4712691,-122.2950342,,38.720177,0.1,226.56686,1596754722446
Fix,GT,37.4710054,-122.2947453,,38.98031,0.1,226.38394,1596754723446
Fix,GT,37.4707401,-122.2944546,,39.202126,0.1,226.77663,1596754724446
Fix,GT,37.4704711,-122.2941669,,39.35234,0.1,227.78392,1596754725446
Fix,GT,37.4701966,-122.2938847,,39.51699,0.1,228.99464,1596754726446
Fix,GT,37.469916,-122.2936085,,39.725616,0.1,230.46344,1596754727446
Fix,GT,37.4696282,-122.2933431,,39.757053,0.1,232.85493,1596754728446
Fix,GT,37.4693315,-122.2930943,,39.663948,0.1,235.25969,1596754729446
Fix,GT,37.4690278,-122.2928603,,39.663498,0.1,237.10587,1596754730446
Fix,GT,37.4687179,-122.292638,,39.754364,0.1,238.76588,1596754731446
Fix,GT,37.468402,-122.2924265,,39.881756,0.1,240.29413,1596754732446
Fix,GT,37.4680807,-122.2922253,,40.033493,0.1,242.10391,1596754733446
Fix,GT,37.4677533,-122.2920363,,40.200447,0.1,244.12994,1596754734446
Fix,GT,37.4674189,-122.2918626,,40.336372,0.1,246.39288,1596754735446
Fix,GT,37.4670786,-122.291705,,40.36835,0.1,248.30411,1596754736446
Fix,GT,37.4667348,-122.2915613,,40.247925,0.1,250.12775,1596754737446
Fix,GT,37.466389,-122.2914319,,40.03784,0.1,252.13503,1596754738446
Fix,GT,37.466042,-122.2913194,,39.76908,0.1,254.35828,1596754739446
Fix,GT,37.4656937,-122.2912235,,39.617058,0.1,256.21634,1596754740446
Fix,GT,37.4653435,-122.2911414,,39.66075,0.1,257.92984,1596754741446
Fix,GT,37.4649904,-122.2910723,,39.886635,0.1,259.76517,1596754742446
Fix,GT,37.4646332,-122.2910167,,40.16675,0.1,261.52005,1596754743446
Fix,GT,37.464273,-122.2909754,,40.274704,0.1,263.49667,1596754744446
Fix,GT,37.4639114,-122.2909496,,40.287476,0.1,265.19873,1596754745446
Fix,GT,37.4635488,-122.2909343,,40.321373,0.1,265.93744,1596754746446
Fix,GT,37.4631854,-122.2909223,,40.392044,0.1,266.01312,1596754747446
Fix,GT,37.4628211,-122.2909101,,40.47395,0.1,265.98727,1596754748446
Fix,GT,37.4624563,-122.2908982,,40.559944,0.1,266.07806,1596754749446
Fix,GT,37.4620904,-122.290886,,40.649254,0.1,265.7016,1596754750446
Fix,GT,37.4617233,-122.2908676,,40.772827,0.1,264.24527,1596754751446
Fix,GT,37.4613555,-122.2908358,,40.902237,0.1,262.17047,1596754752446
Fix,GT,37.4609879,-122.2907862,,40.98239,0.1,259.89807,1596754753446
Fix,GT,37.4606215,-122.2907168,,41.076935,0.1,257.24463,1596754754446
Fix,GT,37.460257,-122.2906254,,41.22081,0.1,254.27438,1596754755446
Fix,GT,37.459895,-122.2905088,,41.48215,0.1,250.97574,1596754756446
Fix,GT,37.4595359,-122.2903672,,41.91442,0.1,248.67368,1596754757446
Fix,GT,37.4591775,-122.2902076,,42.333435,0.1,246.85263,1596754758446
Fix,GT,37.4588204,-122.2900314,,42.666157,0.1,244.62396,1596754759446
Fix,GT,37.4584665,-122.2898349,,42.98597,0.1,241.76883,1596754760446
Fix,GT,37.4581192,-122.2896121,,43.32135,0.1,238.20096,1596754761446
Fix,GT,37.4577809,-122.2893616,,43.654015,0.1,235.34169,1596754762446
Fix,GT,37.4574494,-122.2890905,,43.986473,0.1,233.09604,1596754763446
Fix,GT,37.4571247,-122.2888004,,44.273335,0.1,230.44891,1596754764446
Fix,GT,37.4568098,-122.2884892,,44.465054,0.1,227.69244,1596754765446
Fix,GT,37.4565061,-122.2881585,,44.568283,0.1,224.88766,1596754766446
Fix,GT,37.4562154,-122.2878086,,44.65094,0.1,221.95432,1596754767446
Fix,GT,37.4559381,-122.2874411,,44.694504,0.1,219.56763,1596754768446
Fix,GT,37.4556716,-122.2870615,,44.709175,0.1,218.08012,1596754769446
Fix,GT,37.4554117,-122.2866749,,44.712593,0.1,217.17502,1596754770446
Fix,GT,37.4551553,-122.2862849,,44.71323,0.1,216.75197,1596754771446
Fix,GT,37.4549002,-122.2858937,,44.724495,0.1,216.74377,1596754772446
Fix,GT,37.4546452,-122.2855021,,44.772377,0.1,216.803,1596754773446
Fix,GT,37.4543895,-122.2851101,,44.861496,0.1,216.86081,1596754774446
Fix,GT,37.4541328,-122.2847176,,44.970833,0.1,216.94688,1596754775446
Fix,GT,37.4538754,-122.2843249,,45.001648,0.1,217.02113,1596754776446
Fix,GT,37.4536174,-122.283933,,44.94203,0.1,217.20444,1596754777446
Fix,GT,37.4533594,-122.2835428,,44.756683,0.1,217.34149,1596754778446
Fix,GT,37.4531026,-122.2831559,,44.234303,0.1,217.24394,1596754779446
Fix,GT,37.4528506,-122.282774,,43.48004,0.1,217.02827,1596754780446
Fix,GT,37.4526038,-122.2823973,,42.77404,0.1,216.92822,1596754781446
Fix,GT,37.4523612,-122.2820265,,42.15498,0.1,217.03201,1596754782446
Fix,GT,37.4521212,-122.2816614,,41.588993,0.1,217.16454,1596754783446
Fix,GT,37.4518837,-122.281301,,41.204178,0.1,217.21814,1596754784446
Fix,GT,37.4516473,-122.2809429,,41.13185,0.1,217.12598,1596754785446
Fix,GT,37.4514114,-122.280584,,41.182877,0.1,217.06197,1596754786446
Fix,GT,37.4511751,-122.2802251,,41.201126,0.1,217.35016,1596754787446
Fix,GT,37.4509367,-122.2798686,,41.18818,0.1,217.95459,1596754788446
Fix,GT,37.4506955,-122.279515,,41.227043,0.1,218.38123,1596754789446
Fix,GT,37.4504524,-122.2791618,,41.34725,0.1,218.30724,1596754790446
Fix,GT,37.4502097,-122.2788064,,41.398064,0.1,217.87778,1596754791446
Fix,GT,37.4499692,-122.2784498,,41.21485,0.1,217.63097,1596754792446
Fix,GT,37.4497314,-122.2780937,,41.056267,0.1,217.43317,1596754793446
Fix,GT,37.4494945,-122.2777359,,41.32137,0.1,217.14055,1596754794446
Fix,GT,37.4492557,-122.2773739,,41.87332,0.1,217.35329,1596754795446
Fix,GT,37.4490118,-122.2770096,,42.320984,0.1,218.00517,1596754796446
Fix,GT,37.448763,-122.2766458,,42.52665,0.1,218.49121,1596754797446
Fix,GT,37.448511,-122.2762823,,42.78247,0.1,218.60637,1596754798446
Fix,GT,37.4482567,-122.2759158,,43.201202,0.1,218.61815,1596754799446
Fix,GT,37.4480003,-122.2755458,,43.51861,0.1,218.60954,1596754800446
Fix,GT,37.4477426,-122.275174,,43.647568,0.1,218.71638,1596754801446
Fix,GT,37.4474835,-122.2748023,,43.79973,0.1,218.88884,1596754802446
Fix,GT,37.447222,-122.2744295,,44.101357,0.1,219.04283,1596754803446
Fix,GT,37.4469578,-122.2740547,,44.42652,0.1,219.1339,1596754804446
Fix,GT,37.446692,-122.2736778,,44.591373,0.1,219.07721,1596754805446
Fix,GT,37.4464262,-122.2732993,,44.647205,0.1,218.83044,1596754806446
Fix,GT,37.4461619,-122.2729191,,44.54289,0.1,218.4221,1596754807446
Fix,GT,37.4459021,-122.2725372,,44.20432,0.1,217.43506,1596754808446
Fix,GT,37.4456505,-122.2721516,,43.889668,0.1,216.04802,1596754809446
Fix,GT,37.4454089,-122.2717592,,43.68611,0.1,214.22272,1596754810446
Fix,GT,37.4451793,-122.2713587,,43.39383,0.1,211.79738,1596754811446
Fix,GT,37.444966,-122.2709489,,42.998596,0.1,209.01395,1596754812446
Fix,GT,37.4447709,-122.2705307,,42.507175,0.1,206.40279,1596754813446
Fix,GT,37.4445918,-122.2701084,,41.988785,0.1,204.36674,1596754814446
Fix,GT,37.4444266,-122.2696829,,41.641777,0.1,202.34372,1596754815446
Fix,GT,37.4442751,-122.2692523,,41.491188,0.1,200.11026,1596754816446
Fix,GT,37.444137,-122.2688159,,41.409832,0.1,197.78555,1596754817446
Fix,GT,37.4440137,-122.2683733,,41.347313,0.1,195.35721,1596754818446
Fix,GT,37.4439057,-122.2679253,,41.30052,0.1,193.04608,1596754819446
Fix,GT,37.443812,-122.2674728,,41.28454,0.1,190.96812,1596754820446
Fix,GT,37.4437315,-122.2670164,,41.27987,0.1,188.9226,1596754821446
Fix,GT,37.4436642,-122.2665569,,41.20816,0.1,186.67636,1596754822446
Fix,GT,37.4436112,-122.2660954,,41.142937,0.1,184.52336,1596754823446
Fix,GT,37.4435719,-122.2656323,,41.128082,0.1,182.40263,1596754824446
Fix,GT,37.4435465,-122.265168,,41.0327,0.1,180.21709,1596754825446
Fix,GT,37.4435351,-122.2647044,,40.86892,0.1,178.09021,1596754826446
Fix,GT,37.4435377,-122.2642427,,40.677395,0.1,175.88483,1596754827446
Fix,GT,37.4435548,-122.2637832,,40.547867,0.1,173.53589,1596754828446
Fix,GT,37.4435862,-122.2633261,,40.506935,0.1,171.61938,1596754829446
Fix,GT,37.4436281,-122.2628711,,40.42984,0.1,170.29199,1596754830446
Fix,GT,37.443676,-122.262419,,40.175938,0.1,169.79114,1596754831446
Fix,GT,37.4437246,-122.2619718,,39.74436,0.1,170.03296,1596754832446
Fix,GT,37.4437715,-122.2615289,,39.286797,0.1,169.99951,1596754833446
Fix,GT,37.4438188,-122.2610913,,38.84552,0.1,169.81183,1596754834446
Fix,GT,37.4438658,-122.260659,,38.401215,0.1,169.96631,1596754835446
Fix,GT,37.4439109,-122.2602315,,37.94091,0.1,170.35376,1596754836446
Fix,GT,37.443953,-122.2598088,,37.50359,0.1,170.96136,1596754837446
Fix,GT,37.4439892,-122.2593905,,37.115807,0.1,172.49194,1596754838446
Fix,GT,37.4440141,-122.2589757,,36.756126,0.1,174.90637,1596754839446
Fix,GT,37.4440245,-122.2585636,,36.45823,0.1,177.44568,1596754840446
Fix,GT,37.4440207,-122.2581545,,36.210545,0.1,179.89496,1596754841446
Fix,GT,37.4440031,-122.2577485,,35.98356,0.1,182.32486,1596754842446
Fix,GT,37.4439723,-122.2573463,,35.735107,0.1,184.5892,1596754843446
Fix,GT,37.4439294,-122.2569492,,35.36663,0.1,186.78308,1596754844446
Fix,GT,37.4438749,-122.2565591,,34.985172,0.1,189.20139,1596754845446
Fix,GT,37.4438082,-122.2561758,,34.650772,0.1,191.53014,1596754846446
Fix,GT,37.4437308,-122.2557997,,34.28666,0.1,193.2982,1596754847446
Fix,GT,37.4436451,-122.2554299,,34.10929,0.1,195.05794,1596754848446
Fix,GT,37.44355,-122.2550644,,34.12961,0.1,197.01353,1596754849446
Fix,GT,37.4434454,-122.2547024,,34.17567,0.1,198.54865,1596754850446
Fix,GT,37.4433332,-122.2543423,,34.479897,0.1,200.11588,1596754851446
Fix,GT,37.4432092,-122.2539831,,35.14883,0.1,202.84155,1596754852446
Fix,GT,37.4430678,-122.2536249,,35.85447,0.1,205.83527,1596754853446
Fix,GT,37.4429096,-122.2532697,,36.397446,0.1,208.48595,1596754854446
Fix,GT,37.4427362,-122.2529196,,36.82592,0.1,211.07153,1596754855446
Fix,GT,37.4425483,-122.2525754,,37.275536,0.1,213.53291,1596754856446
Fix,GT,37.442347,-122.252236,,37.76399,0.1,215.58852,1596754857446
Fix,GT,37.4421338,-122.2519019,,38.179123,0.1,217.83841,1596754858446
Fix,GT,37.4419074,-122.2515768,,38.450138,0.1,220.15945,1596754859446
Fix,GT,37.4416704,-122.2512588,,38.728836,0.1,221.41647,1596754860446
Fix,GT,37.4414274,-122.2509422,,39.09554,0.1,221.77815,1596754861446
Fix,GT,37.441181,-122.2506236,,39.46126,0.1,221.76413,1596754862446
Fix,GT,37.4409331,-122.2503018,,39.68368,0.1,221.60837,1596754863446
Fix,GT,37.4406849,-122.2499786,,39.715485,0.1,221.74306,1596754864446
Fix,GT,37.4404351,-122.2496576,,39.772324,0.1,222.41853,1596754865446
Fix,GT,37.440181,-122.2493394,,40.027588,0.1,223.04669,1596754866446
Fix,GT,37.439923,-122.2490211,,40.29801,0.1,223.09706,1596754867446
Fix,GT,37.4396638,-122.2487008,,40.510223,0.1,223.03688,1596754868446
Fix,GT,37.4394027,-122.2483787,,40.80726,0.1,223.25166,1596754869446
Fix,GT,37.4391381,-122.2480557,,41.245712,0.1,223.73244,1596754870446
Fix,GT,37.4388681,-122.2477316,,41.742455,0.1,224.14632,1596754871446
Fix,GT,37.4385939,-122.2474053,,42.148804,0.1,224.13884,1596754872446
Fix,GT,37.4383177,-122.2470761,,42.433456,0.1,224.02762,1596754873446
Fix,GT,37.4380402,-122.2467444,,42.66233,0.1,224.04129,1596754874446
Fix,GT,37.4377614,-122.2464109,,42.84634,0.1,224.03613,1596754875446
Fix,GT,37.4374814,-122.2460762,,43.018417,0.1,224.03441,1596754876446
Fix,GT,37.4372002,-122.2457401,,43.220844,0.1,223.97166,1596754877446
Fix,GT,37.4369178,-122.2454019,,43.44439,0.1,223.90327,1596754878446
Fix,GT,37.4366344,-122.2450617,,43.64292,0.1,223.93826,1596754879446
Fix,GT,37.4363498,-122.2447209,,43.68065,0.1,224.0033,1596754880446
Fix,GT,37.4360654,-122.2443813,,43.489197,0.1,224.08214,1596754881446
Fix,GT,37.4357822,-122.2440445,,43.12475,0.1,224.23615,1596754882446
Fix,GT,37.4355013,-122.2437117,,42.685852,0.1,224.37396,1596754883446
Fix,GT,37.4352225,-122.2433826,,42.334297,0.1,224.34264,1596754884446
Fix,GT,37.4349453,-122.2430552,,42.19365,0.1,224.11502,1596754885446
Fix,GT,37.4346695,-122.2427272,,42.1894,0.1,223.97824,1596754886446
Fix,GT,37.434394,-122.2423986,,42.193256,0.1,223.95284,1596754887446
Fix,GT,37.4341187,-122.2420704,,42.123375,0.1,224.05617,1596754888446
Fix,GT,37.4338437,-122.2417442,,41.900944,0.1,224.21278,1596754889446
Fix,GT,37.4335706,-122.2414205,,41.515797,0.1,224.12704,1596754890446
Fix,GT,37.4333006,-122.2410991,,41.121605,0.1,223.97665,1596754891446
Fix,GT,37.4330335,-122.2407805,,40.719353,0.1,224.02086,1596754892446
Fix,GT,37.4327692,-122.2404652,,40.214127,0.1,224.04631,1596754893446
Fix,GT,37.4325093,-122.2401532,,39.620773,0.1,223.59213,1596754894446
Fix,GT,37.432256,-122.2398422,,39.005966,0.1,222.74434,1596754895446
Fix,GT,37.4320096,-122.2395318,,38.481926,0.1,222.24637,1596754896446
Fix,GT,37.4317679,-122.2392236,,38.081123,0.1,222.10492,1596754897446
Fix,GT,37.4315285,-122.2389175,,37.846592,0.1,222.02315,1596754898446
Fix,GT,37.4312907,-122.2386119,,37.70432,0.1,221.7043,1596754899446
Fix,GT,37.4310558,-122.2383058,,37.395203,0.1,221.2122,1596754900446
Fix,GT,37.4308257,-122.2380005,,36.933777,0.1,220.62651,1596754901446
Fix,GT,37.4306011,-122.2376964,,36.367897,0.1,219.99983,1596754902446
Fix,GT,37.4303827,-122.2373947,,35.737343,0.1,219.61006,1596754903446
Fix,GT,37.4301689,-122.2370973,,35.20225,0.1,219.72443,1596754904446
Fix,GT,37.4299567,-122.2368046,,34.870018,0.1,220.10243,1596754905446
Fix,GT,37.4297444,-122.2365166,,34.686085,0.1,220.79105,1596754906446
Fix,GT,37.4295293,-122.2362317,,34.85636,0.1,221.39293,1596754907446
Fix,GT,37.4293098,-122.2359447,,35.62278,0.1,221.36475,1596754908446
Fix,GT,37.4290855,-122.2356488,,36.63626,0.1,220.91998,1596754909446
Fix,GT,37.4288573,-122.235343,,37.41184,0.1,220.45685,1596754910446
Fix,GT,37.4286269,-122.2350298,,37.988255,0.1,220.14339,1596754911446
Fix,GT,37.4283944,-122.234711,,38.462234,0.1,219.98792,1596754912446
Fix,GT,37.4281598,-122.234388,,38.858856,0.1,219.91553,1596754913446
Fix,GT,37.4279236,-122.2340623,,39.048412,0.1,219.96307,1596754914446
Fix,GT,37.4276864,-122.2337367,,39.01558,0.1,220.17093,1596754915446
Fix,GT,37.427449,-122.2334121,,38.939495,0.1,220.13481,1596754916446
Fix,GT,37.4272129,-122.2330872,,38.854393,0.1,219.8625,1596754917446
Fix,GT,37.4269779,-122.2327615,,38.927834,0.1,219.704,1596754918446
Fix,GT,37.4267422,-122.232434,,39.213432,0.1,219.8907,1596754919446
Fix,GT,37.426503,-122.2321059,,39.539906,0.1,220.48027,1596754920446
Fix,GT,37.4262586,-122.2317786,,39.910774,0.1,221.16125,1596754921446
Fix,GT,37.426009,-122.2314507,,40.33754,0.1,221.44997,1596754922446
Fix,GT,37.4257567,-122.2311202,,40.612022,0.1,221.32935,1596754923446
Fix,GT,37.4255039,-122.2307873,,40.73248,0.1,221.10681,1596754924446
Fix,GT,37.4252512,-122.2304522,,40.87461,0.1,220.89929,1596754925446
Fix,GT,37.4249988,-122.2301141,,41.02893,0.1,220.29922,1596754926446
Fix,GT,37.424749,-122.2297712,,41.093254,0.1,219.4801,1596754927446
Fix,GT,37.424503,-122.2294236,,41.11742,0.1,218.8512,1596754928446
Fix,GT,37.424259,-122.2290737,,41.10804,0.1,218.54085,1596754929446
Fix,GT,37.4240162,-122.2287236,,40.99479,0.1,218.48146,1596754930446
Fix,GT,37.4237746,-122.2283745,,40.78063,0.1,218.41017,1596754931446
Fix,GT,37.4235351,-122.2280275,,40.38423,0.1,218.35043,1596754932446
Fix,GT,37.4232988,-122.2276854,,39.69642,0.1,218.49687,1596754933446
Fix,GT,37.423066,-122.2273497,,39.096073,0.1,218.52463,1596754934446
Fix,GT,37.4228357,-122.2270171,,38.9076,0.1,218.35674,1596754935446
Fix,GT,37.4226064,-122.2266841,,38.94458,0.1,218.35497,1596754936446
Fix,GT,37.4223769,-122.2263512,,38.95288,0.1,218.45473,1596754937446
Fix,GT,37.4221469,-122.2260185,,38.994225,0.1,218.47911,1596754938446
Fix,GT,37.4219162,-122.2256856,,39.064613,0.1,218.61047,1596754939446
Fix,GT,37.4216846,-122.2253531,,39.070602,0.1,218.79668,1596754940446
Fix,GT,37.4214524,-122.2250213,,39.058437,0.1,218.77585,1596754941446
Fix,GT,37.421221,-122.2246896,,38.896706,0.1,218.63853,1596754942446
Fix,GT,37.4209916,-122.2243594,,38.60121,0.1,218.53693,1596754943446
Fix,GT,37.4207642,-122.2240305,,38.45125,0.1,218.34767,1596754944446
Fix,GT,37.4205396,-122.2237015,,38.06431,0.1,217.84413,1596754945446
Fix,GT,37.4203225,-122.2233732,,37.258724,0.1,216.28914,1596754946446
Fix,GT,37.4201192,-122.223043,,36.46632,0.1,213.77898,1596754947446
Fix,GT,37.4199312,-122.222708,,35.851013,0.1,211.04436,1596754948446
Fix,GT,37.4197582,-122.222368,,35.339283,0.1,208.44113,1596754949446
Fix,GT,37.4196007,-122.2220234,,34.725067,0.1,205.89581,1596754950446
Fix,GT,37.41946,-122.2216778,,33.646687,0.1,202.91922,1596754951446
Fix,GT,37.4193378,-122.2213369,,32.417114,0.1,200.25899,1596754952446
Fix,GT,37.4192316,-122.220999,,31.781334,0.1,197.42815,1596754953446
Fix,GT,37.4191409,-122.220658,,31.731163,0.1,194.35724,1596754954446
Fix,GT,37.4190636,-122.220309,,32.33374,0.1,191.96173,1596754955446
Fix,GT,37.4189952,-122.2199466,,33.399647,0.1,190.01987,1596754956446
Fix,GT,37.4189333,-122.2195708,,34.266857,0.1,188.42084,1596754957446
Fix,GT,37.4188763,-122.2191869,,34.767303,0.1,187.87479,1596754958446
Fix,GT,37.4188191,-122.2187981,,35.236877,0.1,188.16331,1596754959446
Fix,GT,37.4187595,-122.2184046,,35.678497,0.1,188.29118,1596754960446
Fix,GT,37.4186994,-122.2180064,,35.91533,0.1,188.1631,1596754961446
Fix,GT,37.4186396,-122.2176079,,35.759,0.1,188.15813,1596754962446
Fix,GT,37.4185804,-122.2172122,,35.50252,0.1,188.16493,1596754963446
Fix,GT,37.4185216,-122.2168186,,35.388527,0.1,188.13419,1596754964446
Fix,GT,37.4184628,-122.2164275,,35.070778,0.1,188.41089,1596754965446
Fix,GT,37.4184017,-122.2160423,,34.55648,0.1,189.58519,1596754966446
Fix,GT,37.4183327,-122.215665,,34.24341,0.1,191.75378,1596754967446
Fix,GT,37.4182515,-122.2152933,,34.370823,0.1,194.38394,1596754968446
Fix,GT,37.4181561,-122.214924,,34.681168,0.1,197.169,1596754969446
Fix,GT,37.4180457,-122.2145585,,34.78302,0.1,200.05518,1596754970446
Fix,GT,37.4179213,-122.2141989,,34.833397,0.1,202.56387,1596754971446
Fix,GT,37.4177843,-122.2138463,,34.91595,0.1,205.10504,1596754972446
Fix,GT,37.4176336,-122.2135014,,35.053802,0.1,207.91849,1596754973446
Fix,GT,37.4174689,-122.2131645,,35.226307,0.1,210.6897,1596754974446
Fix,GT,37.4172905,-122.2128353,,35.454304,0.1,213.26062,1596754975446
Fix,GT,37.4170994,-122.2125145,,35.630653,0.1,215.69743,1596754976446
Fix,GT,37.4168971,-122.2122033,,35.733387,0.1,218.11966,1596754977446
Fix,GT,37.4166836,-122.2119027,,35.834145,0.1,220.79533,1596754978446
Fix,GT,37.4164585,-122.2116143,,35.898376,0.1,223.65555,1596754979446
Fix,GT,37.416222,-122.2113394,,35.959667,0.1,226.27019,1596754980446
Fix,GT,37.4159759,-122.2110766,,35.973724,0.1,228.09872,1596754981446
Fix,GT,37.4157248,-122.2108204,,35.943237,0.1,228.53821,1596754982446
Fix,GT,37.4154734,-122.2105641,,35.943245,0.1,228.40239,1596754983446
Fix,GT,37.4152233,-122.2103072,,35.775043,0.1,228.15125,1596754984446
Fix,GT,37.4149761,-122.2100504,,35.441574,0.1,227.71312,1596754985446
Fix,GT,37.4147329,-122.2097923,,35.22342,0.1,226.7715,1596754986446
Fix,GT,37.4144949,-122.209528,,35.213425,0.1,224.74553,1596754987446
Fix,GT,37.4142646,-122.2092512,,35.39022,0.1,222.23254,1596754988446
Fix,GT,37.4140435,-122.2089599,,35.596886,0.1,219.50476,1596754989446
Fix,GT,37.4138322,-122.2086537,,35.876602,0.1,216.58138,1596754990446
Fix,GT,37.4136315,-122.2083318,,36.259846,0.1,214.0794,1596754991446
Fix,GT,37.4134397,-122.2079964,,36.589104,0.1,211.70184,1596754992446
Fix,GT,37.4132583,-122.2076477,,36.877247,0.1,208.82701,1596754993446
Fix,GT,37.413091,-122.2072841,,37.163162,0.1,205.34004,1596754994446
Fix,GT,37.4129395,-122.2069073,,37.345467,0.1,202.75414,1596754995446
Fix,GT,37.4127995,-122.2065224,,37.421627,0.1,200.90982,1596754996446
Fix,GT,37.4126687,-122.2061313,,37.532738,0.1,199.22408,1596754997446
Fix,GT,37.4125444,-122.2057363,,37.63891,0.1,198.99802,1596754998446
Fix,GT,37.4124191,-122.2053408,,37.781555,0.1,199.46706,1596754999446
Fix,GT,37.4122918,-122.2049431,,38.09273,0.1,199.33983,1596755000446
Fix,GT,37.4121641,-122.2045415,,38.422363,0.1,199.20718,1596755001446
Fix,GT,37.4120359,-122.2041368,,38.677322,0.1,199.27399,1596755002446
Fix,GT,37.4119063,-122.20373,,38.895035,0.1,199.50026,1596755003446
Fix,GT,37.4117747,-122.203322,,39.050987,0.1,199.7621,1596755004446
Fix,GT,37.4116418,-122.2029129,,39.161705,0.1,199.65839,1596755005446
Fix,GT,37.4115094,-122.2025022,,39.244045,0.1,199.432,1596755006446
Fix,GT,37.4113781,-122.2020903,,39.271233,0.1,199.38564,1596755007446
Fix,GT,37.4112469,-122.2016791,,39.151264,0.1,199.41574,1596755008446
Fix,GT,37.4111159,-122.20127,,38.884552,0.1,199.47452,1596755009446
Fix,GT,37.4109859,-122.2008641,,38.59026,0.1,199.44025,1596755010446
Fix,GT,37.410857,-122.2004605,,38.377037,0.1,199.32977,1596755011446
Fix,GT,37.4107289,-122.2000584,,38.29605,0.1,199.25822,1596755012446
Fix,GT,37.4106017,-122.1996563,,38.304604,0.1,199.13724,1596755013446
Fix,GT,37.4104752,-122.1992538,,38.27399,0.1,199.01732,1596755014446
Fix,GT,37.4103488,-122.1988526,,38.122818,0.1,199.2819,1596755015446
Fix,GT,37.4102213,-122.1984539,,37.971474,0.1,199.47783,1596755016446
Fix,GT,37.4100942,-122.1980562,,37.906487,0.1,199.20743,1596755017446
Fix,GT,37.4099682,-122.1976583,,37.882538,0.1,199.17465,1596755018446
Fix,GT,37.4098423,-122.1972609,,37.839478,0.1,199.22664,1596755019446
Fix,GT,37.4097163,-122.1968639,,37.81172,0.1,199.26595,1596755020446
Fix,GT,37.4095897,-122.1964674,,37.83113,0.1,199.42938,1596755021446
Fix,GT,37.4094628,-122.1960704,,37.89144,0.1,199.28558,1596755022446
Fix,GT,37.4093367,-122.1956722,,37.97122,0.1,199.22704,1596755023446
Fix,GT,37.40921,-122.1952736,,38.02234,0.1,199.49191,1596755024446
Fix,GT,37.4090814,-122.1948748,,38.181725,0.1,199.65387,1596755025446
Fix,GT,37.4089516,-122.1944736,,38.457596,0.1,199.54614,1596755026446
Fix,GT,37.4088219,-122.1940694,,38.63998,0.1,199.39737,1596755027446
Fix,GT,37.4086924,-122.1936643,,38.631165,0.1,199.45595,1596755028446
Fix,GT,37.4085626,-122.1932609,,38.37779,0.1,199.68184,1596755029446
Fix,GT,37.4084324,-122.1928618,,37.986687,0.1,200.11714,1596755030446
Fix,GT,37.4082997,-122.1924697,,37.588024,0.1,201.39296,1596755031446
Fix,GT,37.4081595,-122.1920868,,37.191734,0.1,203.4758,1596755032446
Fix,GT,37.4080092,-122.1917152,,36.88159,0.1,206.11372,1596755033446
Fix,GT,37.4078458,-122.1913552,,36.738773,0.1,208.66536,1596755034446
Fix,GT,37.4076709,-122.1910046,,36.70932,0.1,210.75098,1596755035446
Fix,GT,37.407486,-122.1906621,,36.741642,0.1,212.8048,1596755036446
Fix,GT,37.4072914,-122.1903276,,36.788017,0.1,214.99715,1596755037446
Fix,GT,37.4070856,-122.1900034,,36.86509,0.1,217.57724,1596755038446
Fix,GT,37.4068674,-122.1896904,,37.02233,0.1,220.26929,1596755039446
Fix,GT,37.4066371,-122.1893881,,37.239853,0.1,222.59772,1596755040446
Fix,GT,37.4063962,-122.1890952,,37.45323,0.1,224.64182,1596755041446
Fix,GT,37.4061453,-122.1888129,,37.624176,0.1,227.126,1596755042446
Fix,GT,37.4058838,-122.1885433,,37.712418,0.1,229.31158,1596755043446
Fix,GT,37.4056151,-122.1882833,,37.726532,0.1,230.48062,1596755044446
Fix,GT,37.4053436,-122.188028,,37.594536,0.1,230.72278,1596755045446
Fix,GT,37.4050734,-122.1877747,,37.30829,0.1,230.82225,1596755046446
Fix,GT,37.4048047,-122.187524,,37.064194,0.1,230.95659,1596755047446
Fix,GT,37.4045379,-122.1872753,,36.732918,0.1,230.86931,1596755048446
Fix,GT,37.4042743,-122.1870294,,36.174126,0.1,230.94806,1596755049446
Fix,GT,37.4040148,-122.1867877,,35.611084,0.1,231.07954,1596755050446
Fix,GT,37.4037587,-122.1865498,,35.12248,0.1,231.0173,1596755051446
Fix,GT,37.4035067,-122.186314,,34.667835,0.1,230.58464,1596755052446
Fix,GT,37.4032595,-122.1860785,,34.200157,0.1,230.03342,1596755053446
Fix,GT,37.403017,-122.1858442,,33.722363,0.1,229.75053,1596755054446
Fix,GT,37.4027791,-122.1856109,,33.283737,0.1,229.14555,1596755055446
Fix,GT,37.4025457,-122.1853769,,33.0042,0.1,228.53468,1596755056446
Fix,GT,37.4023148,-122.1851422,,32.990376,0.1,228.46289,1596755057446
Fix,GT,37.4020833,-122.1849074,,33.09874,0.1,228.58145,1596755058446
Fix,GT,37.4018508,-122.184672,,33.20179,0.1,228.55699,1596755059446
Fix,GT,37.4016177,-122.1844358,,33.304787,0.1,228.4938,1596755060446
Fix,GT,37.4013842,-122.1841987,,33.376472,0.1,228.41226,1596755061446
Fix,GT,37.4011506,-122.1839607,,33.436214,0.1,228.43445,1596755062446
Fix,GT,37.4009164,-122.1837224,,33.538467,0.1,228.5188,1596755063446
Fix,GT,37.4006809,-122.1834832,,33.779633,0.1,228.42204,1596755064446
Fix,GT,37.4004437,-122.1832414,,34.07022,0.1,228.36519,1596755065446
Fix,GT,37.4002048,-122.1829978,,34.251457,0.1,228.4885,1596755066446
Fix,GT,37.3999651,-122.1827552,,34.080887,0.1,228.79686,1596755067446
Fix,GT,37.3997269,-122.1825169,,33.582233,0.1,229.0419,1596755068446
Fix,GT,37.3994913,-122.1822821,,33.26328,0.1,228.79855,1596755069446
Fix,GT,37.3992575,-122.1820463,,33.35345,0.1,228.34732,1596755070446
Fix,GT,37.399024,-122.1818074,,33.495464,0.1,228.19232,1596755071446
Fix,GT,37.3987904,-122.1815681,,33.4674,0.1,228.29446,1596755072446
Fix,GT,37.3985568,-122.1813301,,33.45009,0.1,228.5002,1596755073446
Fix,GT,37.3983223,-122.1810921,,33.56879,0.1,228.49704,1596755074446
Fix,GT,37.398087,-122.1808533,,33.583332,0.1,228.49605,1596755075446
Fix,GT,37.3978527,-122.1806158,,33.27922,0.1,228.58853,1596755076446
Fix,GT,37.3976202,-122.1803806,,33.144424,0.1,228.50922,1596755077446
Fix,GT,37.3973879,-122.1801444,,33.286705,0.1,228.3106,1596755078446
Fix,GT,37.3971553,-122.1799062,,33.376305,0.1,228.25114,1596755079446
Fix,GT,37.3969221,-122.179667,,33.510002,0.1,228.15984,1596755080446
Fix,GT,37.3966885,-122.1794264,,33.620422,0.1,228.15327,1596755081446
Fix,GT,37.3964543,-122.1791856,,33.65242,0.1,228.39513,1596755082446
Fix,GT,37.396219,-122.1789458,,33.646057,0.1,228.49948,1596755083446
Fix,GT,37.395984,-122.1787067,,33.529247,0.1,228.48787,1596755084446
Fix,GT,37.3957499,-122.1784691,,33.34613,0.1,228.62447,1596755085446
Fix,GT,37.3955165,-122.1782325,,33.336563,0.1,228.56477,1596755086446
Fix,GT,37.3952833,-122.1779952,,33.35196,0.1,228.42128,1596755087446
Fix,GT,37.3950505,-122.1777573,,33.32358,0.1,228.34886,1596755088446
Fix,GT,37.3948178,-122.1775181,,33.517925,0.1,228.12944,1596755089446
Fix,GT,37.394584,-122.1772746,,33.92691,0.1,227.3834,1596755090446
Fix,GT,37.3943508,-122.1770217,,34.373108,0.1,225.66373,1596755091446
Fix,GT,37.3941222,-122.1767554,,34.639557,0.1,223.1009,1596755092446
Fix,GT,37.3939027,-122.176475,,34.704483,0.1,220.27563,1596755093446
Fix,GT,37.3936945,-122.176181,,34.683144,0.1,217.4962,1596755094446
Fix,GT,37.3934976,-122.1758754,,34.67839,0.1,214.8367,1596755095446
Fix,GT,37.393312,-122.1755588,,34.676506,0.1,212.13962,1596755096446
Fix,GT,37.3931388,-122.1752315,,34.68264,0.1,209.43034,1596755097446
Fix,GT,37.3929781,-122.1748941,,34.682552,0.1,206.74467,1596755098446
Fix,GT,37.3928298,-122.1745479,,34.72553,0.1,204.20947,1596755099446
Fix,GT,37.3926935,-122.1741933,,34.76648,0.1,201.58017,1596755100446
Fix,GT,37.3925709,-122.17383,,34.898808,0.1,198.6945,1596755101446
Fix,GT,37.3924627,-122.1734564,,35.242615,0.1,195.76877,1596755102446
Fix,GT,37.3923677,-122.1730738,,35.445797,0.1,193.3548,1596755103446
Fix,GT,37.392285,-122.1726862,,35.41341,0.1,191.15964,1596755104446
Fix,GT,37.3922152,-122.1722949,,35.357574,0.1,188.3938,1596755105446
Fix,GT,37.3921605,-122.1719006,,35.30438,0.1,185.78807,1596755106446
Fix,GT,37.3921187,-122.1715048,,35.250343,0.1,183.85716,1596755107446
Fix,GT,37.3920866,-122.171109,,35.12042,0.1,182.44365,1596755108446
Fix,GT,37.392061,-122.1707153,,34.765205,0.1,181.8923,1596755109446
Fix,GT,37.3920371,-122.1703256,,34.413403,0.1,182.00989,1596755110446
Fix,GT,37.3920133,-122.1699388,,34.29825,0.1,181.931,1596755111446
Fix,GT,37.3919898,-122.1695531,,34.26624,0.1,182.22517,1596755112446
Fix,GT,37.391962,-122.1691675,,34.51021,0.1,183.83441,1596755113446
Fix,GT,37.3919222,-122.1687794,,35.165928,0.1,186.83878,1596755114446
Fix,GT,37.391864,-122.1683869,,35.9011,0.1,190.31123,1596755115446
Fix,GT,37.3917853,-122.1679926,,36.382607,0.1,193.89357,1596755116446
Fix,GT,37.3916867,-122.1676012,,36.586872,0.1,197.24239,1596755117446
Fix,GT,37.39157,-122.1672166,,36.5934,0.1,200.32974,1596755118446
Fix,GT,37.3914368,-122.1668416,,36.460075,0.1,203.66452,1596755119446
Fix,GT,37.3912865,-122.1664783,,36.407036,0.1,207.21397,1596755120446
Fix,GT,37.3911185,-122.1661279,,36.35457,0.1,210.73476,1596755121446
Fix,GT,37.3909349,-122.1657913,,36.165916,0.1,213.58647,1596755122446
Fix,GT,37.3907411,-122.1654658,,35.885185,0.1,215.08704,1596755123446
Fix,GT,37.3905448,-122.1651469,,35.462,0.1,215.28815,1596755124446
Fix,GT,37.390351,-122.1648317,,35.030617,0.1,215.21739,1596755125446
Fix,GT,37.3901596,-122.1645185,,34.84423,0.1,214.808,1596755126446
Fix,GT,37.3899728,-122.1642011,,34.854733,0.1,212.74911,1596755127446
Fix,GT,37.3897969,-122.1638734,,34.903103,0.1,209.93927,1596755128446
Fix,GT,37.3896334,-122.1635354,,34.917526,0.1,207.48183,1596755129446
Fix,GT,37.3894815,-122.1631895,,34.798923,0.1,205.06877,1596755130446
Fix,GT,37.3893418,-122.1628372,,34.709297,0.1,202.5844,1596755131446
Fix,GT,37.3892149,-122.1624773,,34.80513,0.1,199.73676,1596755132446
Fix,GT,37.3891018,-122.1621082,,34.987366,0.1,196.94537,1596755133446
Fix,GT,37.3890018,-122.1617305,,35.259,0.1,194.4556,1596755134446
Fix,GT,37.3889144,-122.1613455,,35.386177,0.1,191.99228,1596755135446
Fix,GT,37.3888404,-122.1609573,,35.074326,0.1,189.75291,1596755136446
Fix,GT,37.3887778,-122.1605701,,34.809227,0.1,188.16508,1596755137446
Fix,GT,37.3887214,-122.160183,,34.834774,0.1,187.52408,1596755138446
Fix,GT,37.3886671,-122.159796,,34.638817,0.1,187.38972,1596755139446
Fix,GT,37.3886138,-122.159413,,34.237534,0.1,187.3878,1596755140446
Fix,GT,37.3885608,-122.1590328,,34.176544,0.1,187.53094,1596755141446
Fix,GT,37.3885066,-122.1586529,,34.19114,0.1,187.91943,1596755142446
Fix,GT,37.3884507,-122.1582748,,33.894623,0.1,188.25197,1596755143446
Fix,GT,37.3883935,-122.1579013,,33.51095,0.1,188.72842,1596755144446
Fix,GT,37.3883319,-122.1575332,,33.294075,0.1,190.31702,1596755145446
Fix,GT,37.3882603,-122.1571694,,33.389748,0.1,193.0443,1596755146446
Fix,GT,37.3881736,-122.1568089,,33.624107,0.1,196.41382,1596755147446
Fix,GT,37.3880694,-122.1564539,,33.692303,0.1,199.89207,1596755148446
Fix,GT,37.3879488,-122.1561075,,33.60192,0.1,203.10666,1596755149446
Fix,GT,37.3878132,-122.1557692,,33.786423,0.1,206.0277,1596755150446
Fix,GT,37.3876624,-122.1554373,,34.216766,0.1,209.32826,1596755151446
Fix,GT,37.3874944,-122.1551134,,34.527107,0.1,212.71838,1596755152446
Fix,GT,37.3873104,-122.1548001,,34.659103,0.1,215.88416,1596755153446
Fix,GT,37.3871124,-122.1544996,,34.686916,0.1,219.29712,1596755154446
Fix,GT,37.3869004,-122.154215,,34.64646,0.1,222.84244,1596755155446
Fix,GT,37.3866753,-122.1539475,,34.565308,0.1,226.2493,1596755156446
Fix,GT,37.3864384,-122.1536967,,34.56728,0.1,229.22919,1596755157446
Fix,GT,37.3861916,-122.153461,,34.559143,0.1,231.76868,1596755158446
Fix,GT,37.3859374,-122.1532407,,34.335194,0.1,234.56033,1596755159446
Fix,GT,37.3856765,-122.1530392,,34.09449,0.1,238.25339,1596755160446
Fix,GT,37.385407,-122.1528616,,33.938,0.1,242.11874,1596755161446
Fix,GT,37.3851296,-122.1527066,,33.908592,0.1,245.44138,1596755162446
Fix,GT,37.3848452,-122.1525711,,33.902893,0.1,248.4494,1596755163446
Fix,GT,37.3845566,-122.1524546,,33.672115,0.1,251.32938,1596755164446
Fix,GT,37.3842664,-122.152357,,33.312584,0.1,254.02432,1596755165446
Fix,GT,37.3839755,-122.1522765,,33.09208,0.1,256.32635,1596755166446
Fix,GT,37.3836831,-122.152208,,33.10187,0.1,257.5163,1596755167446
Fix,GT,37.3833891,-122.1521439,,33.087975,0.1,257.63458,1596755168446
Fix,GT,37.3830963,-122.1520803,,32.823475,0.1,257.66998,1596755169446
Fix,GT,37.3828062,-122.1520176,,32.558445,0.1,257.70703,1596755170446
Fix,GT,37.3825177,-122.1519553,,32.46006,0.1,257.6385,1596755171446
Fix,GT,37.3822293,-122.1518924,,32.589233,0.1,257.51398,1596755172446
Fix,GT,37.3819389,-122.1518283,,32.86557,0.1,257.42993,1596755173446
Fix,GT,37.3816461,-122.1517635,,33.13517,0.1,257.48795,1596755174446
Fix,GT,37.3813517,-122.1516987,,33.19969,0.1,257.53973,1596755175446
Fix,GT,37.3810573,-122.1516327,,33.17421,0.1,257.1157,1596755176446
Fix,GT,37.3807629,-122.1515615,,33.33317,0.1,256.05823,1596755177446
Fix,GT,37.3804678,-122.1514812,,33.557396,0.1,254.4368,1596755178446
Fix,GT,37.3801726,-122.1513891,,33.82151,0.1,252.51797,1596755179446
Fix,GT,37.3798777,-122.1512831,,34.033157,0.1,250.13165,1596755180446
Fix,GT,37.3795855,-122.1511595,,34.163937,0.1,246.94774,1596755181446
Fix,GT,37.379298,-122.1510148,,34.35436,0.1,243.89351,1596755182446
Fix,GT,37.3790153,-122.1508518,,34.474236,0.1,241.4169,1596755183446
Fix,GT,37.3787383,-122.1506736,,34.441444,0.1,238.89783,1596755184446
Fix,GT,37.3784682,-122.1504804,,34.379204,0.1,236.31514,1596755185446
Fix,GT,37.3782058,-122.1502732,,34.255867,0.1,233.85513,1596755186446
Fix,GT,37.3779518,-122.1500528,,34.11238,0.1,231.46063,1596755187446
Fix,GT,37.3777064,-122.1498203,,33.912785,0.1,228.94276,1596755188446
Fix,GT,37.3774714,-122.1495773,,33.53158,0.1,226.85754,1596755189446
Fix,GT,37.3772451,-122.1493285,,33.233273,0.1,225.66895,1596755190446
Fix,GT,37.3770228,-122.149078,,33.1521,0.1,225.28677,1596755191446
Fix,GT,37.3768011,-122.1488266,,33.261734,0.1,225.32208,1596755192446
Fix,GT,37.3765776,-122.1485737,,33.60154,0.1,225.35965,1596755193446
Fix,GT,37.3763515,-122.1483176,,33.975323,0.1,225.26263,1596755194446
Fix,GT,37.3761243,-122.1480592,,34.03439,0.1,225.1916,1596755195446
Fix,GT,37.3758979,-122.1478013,,33.891308,0.1,225.19861,1596755196446
Fix,GT,37.3756724,-122.1475444,,33.778168,0.1,225.12466,1596755197446
Fix,GT,37.3754475,-122.1472872,,33.82554,0.1,225.0591,1596755198446
Fix,GT,37.3752224,-122.1470299,,33.76503,0.1,225.19801,1596755199446
Fix,GT,37.3749984,-122.1467756,,33.343163,0.1,225.47675,1596755200446
Fix,GT,37.3747767,-122.146526,,32.850994,0.1,225.66628,1596755201446
Fix,GT,37.3745576,-122.1462802,,32.444225,0.1,225.72943,1596755202446
Fix,GT,37.3743403,-122.1460374,,32.26795,0.1,225.97034,1596755203446
Fix,GT,37.374122,-122.1457979,,32.253326,0.1,226.78271,1596755204446
Fix,GT,37.3739006,-122.1455623,,32.33059,0.1,227.65904,1596755205446
Fix,GT,37.3736756,-122.1453305,,32.413456,0.1,228.75421,1596755206446
Fix,GT,37.3734468,-122.1451041,,32.387367,0.1,229.81398,1596755207446
Fix,GT,37.3732155,-122.1448818,,32.39048,0.1,230.21883,1596755208446
Fix,GT,37.3729825,-122.1446618,,32.403934,0.1,230.8712,1596755209446
Fix,GT,37.3727476,-122.1444452,,32.385468,0.1,231.53613,1596755210446
Fix,GT,37.3725114,-122.1442316,,32.33374,0.1,231.8765,1596755211446
Fix,GT,37.3722748,-122.1440198,,32.286182,0.1,231.93028,1596755212446
Fix,GT,37.3720382,-122.1438074,,32.328056,0.1,231.77977,1596755213446
Fix,GT,37.3718019,-122.1435943,,32.277428,0.1,231.75034,1596755214446
Fix,GT,37.371566,-122.1433819,,32.23398,0.1,231.84448,1596755215446
