MessageType,Provider,LatitudeDegrees,LongitudeDegrees,AltitudeMeters,SpeedMps,AccuracyMeters,BearingDegrees,UnixTimeMillis
Fix,GT,37.6554534,-122.40844,-27.076,0.002236068,0.1,111.30893,1591819463446
Fix,GT,37.6554534,-122.40844,-27.076,0.0025774369,0.1,111.30786,1591819464446
Fix,GT,37.6554534,-122.40844,-27.07599919307232,0.0026586335,0.1,111.308044,1591819465446
Fix,GT,37.6554534,-122.40844,-27.07600080692768,0.0021305806,0.1,111.308136,1591819466446
Fix,GT,37.6554534,-122.40844,-27.07600080692768,0.001553151,0.1,111.3078,1591819467446
Fix,GT,37.6554534,-122.40844,-27.07599919307232,0.001,0.1,111.30734,1591819468446
Fix,GT,37.6554534,-122.40844,-27.076,0.001,0.1,111.30679,1591819469446
Fix,GT,37.6554534,-122.40844,-27.076,0.0015523254,0.1,111.306335,1591819470446
Fix,GT,37.6554534,-122.40844,-27.07599919307232,0.0018688324,0.1,111.3056,1591819471446
Fix,GT,37.6554534,-122.40844,-27.076,0.0017814469,0.1,111.30499,1591819472446
Fix,GT,37.6554534,-122.40844,-27.07600080692768,0.0018688372,0.1,111.30542,1591819473446
Fix,GT,37.6554534,-122.40844,-27.07599919307232,0.0016759601,0.1,111.3053,1591819474446
Fix,GT,37.6554534,-122.40844,-27.076,0.0011063472,0.1,111.30493,1591819475446
Fix,GT,37.6554534,-122.40844,-27.07600080692768,0.00044682366,0.1,111.30487,1591819476446
Fix,GT,37.6554534,-122.40844,-27.076,0.00055317924,0.1,111.30499,1591819477446
Fix,GT,37.6554534,-122.40844,-27.076,0.0006318961,0.1,111.305084,1591819478446
Fix,GT,37.6554534,-122.40844,-27.07600080692768,0.0012291367,0.1,111.30554,1591819479446
Fix,GT,37.6554534,-122.40844,-27.07599919307232,0.0014468124,0.1,111.306274,1591819480446
Fix,GT,37.6554534,-122.40844,-27.07599919307232,0.0017382649,0.1,111.3064,1591819481446
Fix,GT,37.6554534,-122.40844,-27.07600080692768,0.0017814236,0.1,111.30548,1591819482446
Fix,GT,37.6554534,-122.40844,-27.076,0.002236068,0.1,111.304474,1591819483446
Fix,GT,37.6554534,-122.40844,-27.076,0.002236068,0.1,111.30542,1591819484446
Fix,GT,37.6554534,-122.40844,-27.07600080692768,0.0016837951,0.1,111.30496,1591819485446
Fix,GT,37.6554534,-122.40844,-27.07644598850608,0.001,0.1,111.3035,1591819486446
Fix,GT,37.6554534,-122.40844,-27.077,0.0015522661,0.1,111.302185,1591819487446
Fix,GT,37.6554534,-122.40844,-27.077,0.0016838054,0.1,111.30145,1591819488446
Fix,GT,37.6554534,-122.40844,-27.077445980012417,0.001446787,0.1,111.30267,1591819489446
Fix,GT,37.6554534,-122.40844,-27.078000806987284,0.0021054717,0.1,111.30237,1591819490446
Fix,GT,37.6554534,-122.40844,-27.078,0.001683816,0.1,111.30228,1591819491446
Fix,GT,37.6554534,-122.40844,-27.07844677853584,0.0015522486,0.1,111.30179,1591819492446
Fix,GT,37.6554534,-122.40844,-27.07900080701709,0.0022360682,0.1,111.301605,1591819493446
Fix,GT,37.6554534,-122.40844,-27.079446772933004,0.002236068,0.1,111.30142,1591819494446
Fix,GT,37.6554534,-122.40844,-27.080000807046886,0.0021306,0.1,111.30109,1591819495446
Fix,GT,37.6554534,-122.40844,-27.07999919295311,0.0024467674,0.1,111.30115,1591819496446
Fix,GT,37.6554534,-122.40844,-27.080446764469144,0.0022915269,0.1,111.30081,1591819497446
Fix,GT,37.6554533,-122.4084399,-27.081446761667728,0.0014142136,0.1,111.30054,1591819498446
Fix,GT,37.6554532,-122.4084398,-27.08065891638398,0.0014142136,0.1,111.30081,1591819499446
Fix,GT,37.6554532,-122.4084398,-27.07810729494691,0.0014142136,0.1,111.300354,1591819500446
Fix,GT,37.6554532,-122.4084398,-27.077,0.0014142136,0.1,111.2995,1591819501446
Fix,GT,37.6554532,-122.4084399,-27.07744675040245,0.0023931945,0.1,111.2991,1591819502446
Fix,GT,37.6554532,-122.4084399,-27.078447554558515,0.0042727543,0.1,111.29898,1591819503446
Fix,GT,37.6554531,-122.4084399,-27.079892682522534,0.006638048,0.1,111.2984,1591819504446
Fix,GT,37.6554531,-122.4084399,-27.082340225815773,0.014391545,0.1,111.29663,1591819505446
Fix,GT,37.6554528,-122.4084387,-27.088020652234555,0.19643697,0.1,110.85907,1591819506446
Fix,GT,37.655452,-122.4084335,-27.10550780913233,0.7984846,0.1,109.25867,1591819507446
Fix,GT,37.6554498,-122.4084194,-27.14199728298188,1.7802155,0.1,106.76849,1591819508446
Fix,GT,37.6554455,-122.4083953,-27.201058069825173,2.3660445,0.1,105.222046,1591819509446
Fix,GT,37.6554408,-122.4083717,-27.253615737318995,1.8546138,0.1,105.80618,1591819510446
Fix,GT,37.6554369,-122.4083553,-27.29837649416924,1.1580894,0.1,107.096985,1591819511446
Fix,GT,37.6554342,-122.4083443,-27.344041000843045,0.8900286,0.1,107.63971,1591819512446
Fix,GT,37.6554326,-122.4083333,-27.384376923799515,1.4972067,0.1,105.25528,1591819513446
Fix,GT,37.6554364,-122.4083088,-27.44299486467242,3.2503145,0.1,90.876465,1591819514446
Fix,GT,37.6554557,-122.4082731,-27.43326371183992,4.7228518,0.1,62.353607,1591819515446
Fix,GT,37.6554926,-122.408241,-27.372918403863903,5.6504087,0.1,37.48227,1591819516446
Fix,GT,37.6555412,-122.4082131,-27.32083782246709,6.3050957,0.1,26.313446,1591819517446
Fix,GT,37.655594,-122.4081872,-27.24437015712261,6.1291676,0.1,23.483582,1591819518446
Fix,GT,37.6556396,-122.4081638,-27.17845168042183,4.608917,0.1,25.109253,1591819519446
Fix,GT,37.6556682,-122.4081472,-27.124412024050947,2.3866594,0.1,27.335144,1591819520446
Fix,GT,37.6556821,-122.4081387,-27.074258192777634,1.2057891,0.1,28.569153,1591819521446
Fix,GT,37.6556939,-122.4081295,-27.030538434267044,1.9782267,0.1,31.87909,1591819522446
Fix,GT,37.6557121,-122.4081077,-26.981579037964345,3.3696532,0.1,42.269012,1591819523446
Fix,GT,37.6557302,-122.4080694,-26.944365098923445,4.0840483,0.1,60.884705,1591819524446
Fix,GT,37.6557366,-122.4080201,-26.906686688661576,4.5516205,0.1,83.14331,1591819525446
Fix,GT,37.655731,-122.4079616,-26.85139215046168,5.66302,0.1,99.17297,1591819526446
Fix,GT,37.6557189,-122.4078907,-26.764544476896525,7.0111647,0.1,104.19736,1591819527446
Fix,GT,37.6557033,-122.4078093,-26.6449118680954,7.5199757,0.1,105.94891,1591819528446
Fix,GT,37.6556869,-122.4077309,-26.52422590816021,6.4741154,0.1,107.25485,1591819529446
Fix,GT,37.6556732,-122.4076705,-26.449005647093056,4.4927235,0.1,108.35901,1591819530446
Fix,GT,37.6556641,-122.4076322,-26.410494061797856,2.6667995,0.1,109.09741,1591819531446
Fix,GT,37.6556586,-122.4076102,-26.387853344917296,1.5126747,0.1,109.579346,1591819532446
Fix,GT,37.6556556,-122.4075987,-26.37274750176072,0.653298,0.1,109.82739,1591819533446
Fix,GT,37.6556549,-122.4075957,-26.35830009490252,0.031136407,0.1,109.89978,1591819534446
Fix,GT,37.6556549,-122.4075956,-26.34464010953904,0.004590287,0.1,109.90396,1591819535446
Fix,GT,37.6556548,-122.4075954,-26.33174761903286,0.0038367193,0.1,109.90454,1591819536446
Fix,GT,37.6556548,-122.4075952,-26.31640613308549,0.0036214683,0.1,109.904236,1591819537446
Fix,GT,37.6556547,-122.4075949,-26.2971737203598,0.003270469,0.1,109.90488,1591819538446
Fix,GT,37.6556546,-122.4075948,-26.274727135717868,0.0029938768,0.1,109.90512,1591819539446
Fix,GT,37.6556545,-122.4075947,-26.260212643563747,0.003078901,0.1,109.9046,1591819540446
Fix,GT,37.6556546,-122.4075947,-26.25800078254938,0.003280278,0.1,109.90433,1591819541446
Fix,GT,37.6556546,-122.4075947,-26.25844663780928,0.002236068,0.1,109.90454,1591819542446
Fix,GT,37.6556546,-122.4075947,-26.259446635007865,0.0025006365,0.1,109.9043,1591819543446
Fix,GT,37.6556546,-122.4075947,-26.26044663220644,0.0024584248,0.1,109.903625,1591819544446
Fix,GT,37.6556546,-122.4075947,-26.26144584673643,0.002105435,0.1,109.90375,1591819545446
Fix,GT,37.6556546,-122.4075947,-26.26200078266859,0.0028477157,0.1,109.90381,1591819546446
Fix,GT,37.6556546,-122.4075947,-26.26244740638137,0.0039925883,0.1,109.90347,1591819547446
Fix,GT,37.6556546,-122.4075947,-26.26344662088156,0.0043162517,0.1,109.90369,1591819548446
Fix,GT,37.6556546,-122.4075947,-26.26489323616028,0.0045589665,0.1,109.903046,1591819549446
Fix,GT,37.6556546,-122.4075947,-26.266893230557443,0.0050990195,0.1,109.90222,1591819550446
Fix,GT,37.6556544,-122.4075943,-26.268445829600097,0.06822416,0.1,109.91461,1591819551446
Fix,GT,37.6556541,-122.4075932,-26.269447392523286,0.16185448,0.1,109.94379,1591819552446
Fix,GT,37.6556537,-122.4075919,-26.27000078290701,0.10551604,0.1,109.970856,1591819553446
Fix,GT,37.6556535,-122.4075914,-26.27044660395384,0.00889679,0.1,109.98114,1591819554446
Fix,GT,37.6556535,-122.4075914,-26.27189320230484,0.0043772375,0.1,109.97992,1591819555446
Fix,GT,37.6556535,-122.4075915,-26.273445815384388,0.003407586,0.1,109.9805,1591819556446
Fix,GT,37.6556535,-122.4075915,-26.273999216973785,0.0027486365,0.1,109.98059,1591819557446
Fix,GT,37.6556535,-122.4075915,-26.27400078302622,0.0025006114,0.1,109.97986,1591819558446
Fix,GT,37.6556535,-122.4075915,-26.274,0.0025638854,0.1,109.97977,1591819559446
Fix,GT,37.6556535,-122.4075915,-26.274,0.0025772303,0.1,109.9794,1591819560446
Fix,GT,37.6556535,-122.4075915,-26.274000783026217,0.0034465846,0.1,109.97882,1591819561446
Fix,GT,37.6556535,-122.4075915,-26.27355263552069,0.0042108474,0.1,109.97894,1591819562446
Fix,GT,37.6556535,-122.4075915,-26.273,0.0038871814,0.1,109.97937,1591819563446
Fix,GT,37.6556535,-122.4075915,-26.273,0.0026432325,0.1,109.97858,1591819564446
Fix,GT,37.6556535,-122.4075915,-26.272999217003584,0.0023699533,0.1,109.97797,1591819565446
Fix,GT,37.6556535,-122.4075915,-26.27389392337203,0.0021968817,0.1,109.97772,1591819566446
Fix,GT,37.6556535,-122.4075914,-26.27410764840245,0.0014142136,0.1,109.977356,1591819567446
Fix,GT,37.6556535,-122.4075912,-26.272106087952853,0.002194837,0.1,109.97833,1591819568446
Fix,GT,37.6556534,-122.4075909,-26.271,0.0033602268,0.1,109.97836,1591819569446
Fix,GT,37.6556534,-122.4075908,-26.271446558892727,0.0034076036,0.1,109.97745,1591819570446
Fix,GT,37.6556534,-122.4075907,-26.27244577309489,0.004276246,0.1,109.97742,1591819571446
Fix,GT,37.6556533,-122.4075907,-26.27434044277668,0.006972164,0.1,109.97769,1591819572446
Fix,GT,37.6556533,-122.4075906,-26.277339651286603,0.010211796,0.1,109.97714,1591819573446
Fix,GT,37.6556534,-122.4075907,-26.280339642882343,0.012829451,0.1,109.9769,1591819574446
Fix,GT,37.6556534,-122.4075908,-26.28244732806087,0.010523318,0.1,109.97702,1591819575446
Fix,GT,37.6556533,-122.40759,-26.28255267471075,0.3142367,0.1,110.003296,1591819576446
Fix,GT,37.6556505,-122.4075801,-26.27306921672821,1.7069243,0.1,110.37543,1591819577446
Fix,GT,37.655642,-122.4075526,-26.24994430169464,3.3936706,0.1,112.63458,1591819578446
Fix,GT,37.6556244,-122.4075149,-26.245270270526408,4.142891,0.1,122.24872,1591819579446
Fix,GT,37.6555937,-122.4074827,-26.277200820088385,4.5807137,0.1,143.00018,1591819580446
Fix,GT,37.6555516,-122.40747,-26.30769870185852,4.8269205,0.1,170.10889,1591819581446
Fix,GT,37.6555068,-122.4074804,-26.31644574078917,5.1557307,0.1,193.19708,1591819582446
Fix,GT,37.6554591,-122.407504,-26.32592965981364,6.25077,0.1,202.93852,1591819583446
Fix,GT,37.6553999,-122.4075335,-26.36736410441995,7.881506,0.1,203.33794,1591819584446
Fix,GT,37.6553272,-122.4075683,-26.463047154545784,9.261656,0.1,202.53877,1591819585446
Fix,GT,37.6552459,-122.4076057,-26.6363578286767,9.758667,0.1,201.87898,1591819586446
Fix,GT,37.6551643,-122.407643,-26.877199815034864,9.413195,0.1,201.9819,1591819587446
Fix,GT,37.6550875,-122.4076791,-27.11733876788616,8.704586,0.1,202.52667,1591819588446
Fix,GT,37.6550188,-122.4077119,-27.33087228614092,7.5505257,0.1,202.793,1591819589446
Fix,GT,37.6549608,-122.4077397,-27.52681776627898,6.259387,0.1,202.79088,1591819590446
Fix,GT,37.6549131,-122.4077624,-27.68415195465088,5.085174,0.1,202.76476,1591819591446
Fix,GT,37.654875,-122.4077808,-27.80143567180633,3.9412038,0.1,202.9725,1591819592446
Fix,GT,37.6548469,-122.4077946,-27.886236132979395,2.748854,0.1,203.39618,1591819593446
Fix,GT,37.6548289,-122.4078035,-27.932501753091813,1.5517898,0.1,203.72102,1591819594446
Fix,GT,37.6548204,-122.4078075,-27.94710619038344,0.5239509,0.1,203.86526,1591819595446
Fix,GT,37.6548185,-122.4078082,-27.938409745156765,0.02734083,0.1,203.90268,1591819596446
Fix,GT,37.6548185,-122.4078078,-27.92364137467742,0.008045676,0.1,203.9044,1591819597446
Fix,GT,37.6548185,-122.4078074,-27.912536032527683,0.0054974873,0.1,203.90482,1591819598446
Fix,GT,37.6548185,-122.4078071,-27.903428183078766,0.003814861,0.1,203.9052,1591819599446
Fix,GT,37.6548184,-122.4078069,-27.897214102745053,0.002658924,0.1,203.905,1591819600446
Fix,GT,37.6548184,-122.4078069,-27.895,0.0018691334,0.1,203.90483,1591819601446
Fix,GT,37.6548185,-122.4078069,-27.894553531348706,0.0017811458,0.1,203.90555,1591819602446
Fix,GT,37.6548184,-122.4078069,-27.893999168694016,0.00123774,0.1,203.90604,1591819603446
Fix,GT,37.6548184,-122.4078069,-27.89400083130598,0.0,0.1,203.90604,1591819604446
Fix,GT,37.6548184,-122.4078069,-27.894,0.0004464602,0.1,203.90607,1591819605446
Fix,GT,37.6548184,-122.4078069,-27.893552711337804,0.001,0.1,203.9066,1591819606446
Fix,GT,37.6548184,-122.4078069,-27.893,0.001,0.1,203.90704,1591819607446
Fix,GT,37.6548184,-122.4078069,-27.893,0.0011849264,0.1,203.90709,1591819608446
Fix,GT,37.6548184,-122.4078069,-27.892999168723826,0.0016757373,0.1,203.90756,1591819609446
Fix,GT,37.6548184,-122.4078069,-27.89255438518524,0.0028928923,0.1,203.90826,1591819610446
Fix,GT,37.6548184,-122.4078069,-27.89200083124637,0.0035535572,0.1,203.9085,1591819611446
Fix,GT,37.6548184,-122.4078068,-27.891999168753625,0.0030724471,0.1,203.90898,1591819612446
Fix,GT,37.6548184,-122.4078068,-27.892,0.0027487827,0.1,203.9092,1591819613446
Fix,GT,37.6548184,-122.4078068,-27.892,0.0012378094,0.1,203.90927,1591819614446
Fix,GT,37.6548184,-122.4078068,-27.891552736788988,0.00063135015,0.1,203.90977,1591819615446
Fix,GT,37.6548184,-122.4078068,-27.891000831216573,0.0014142136,0.1,203.91013,1591819616446
Fix,GT,37.6548184,-122.4078068,-27.891,0.0012292977,0.1,203.91078,1591819617446
Fix,GT,37.6548184,-122.4078067,-27.891,0.0011849147,0.1,203.91154,1591819618446
Fix,GT,37.6548184,-122.4078067,-27.891000831216573,0.0007828794,0.1,203.91199,1591819619446
Fix,GT,37.6548183,-122.4078067,-27.890999168783424,0.00089283584,0.1,203.91255,1591819620446
Fix,GT,37.6548183,-122.4078067,-27.89144641506672,0.002,0.1,203.91277,1591819621446
Fix,GT,37.6548183,-122.4078066,-27.892,0.0021053837,0.1,203.91286,1591819622446
Fix,GT,37.6548183,-122.4078066,-27.892445578187704,0.004232472,0.1,203.91228,1591819623446
Fix,GT,37.6548183,-122.4078066,-27.89344723790884,0.004160024,0.1,203.91264,1591819624446
Fix,GT,37.6548183,-122.4078066,-27.894,0.0014464039,0.1,203.91406,1591819625446
Fix,GT,37.6548183,-122.4078065,-27.89444640100002,0.002518842,0.1,203.91412,1591819626446
Fix,GT,37.6548183,-122.4078065,-27.895447229504587,0.0036445498,0.1,203.9146,1591819627446
Fix,GT,37.6548183,-122.4078064,-27.895553604662418,0.003611342,0.1,203.91534,1591819628446
Fix,GT,37.6548183,-122.4078064,-27.895891953676937,0.016538298,0.1,203.91707,1591819629446
Fix,GT,37.6548176,-122.4078068,-27.90057194903493,0.13662164,0.1,203.93275,1591819630446
Fix,GT,37.654816,-122.4078076,-27.909910255610946,0.16757876,0.1,203.96184,1591819631446
Fix,GT,37.6548151,-122.407808,-27.919124688506127,0.027517037,0.1,203.9767,1591819632446
Fix,GT,37.654815,-122.407808,-27.924339975893496,0.0020122516,0.1,203.97702,1591819633446
Fix,GT,37.654815,-122.407808,-27.921981761783364,0.001,0.1,203.9775,1591819634446
Fix,GT,37.654815,-122.407808,-27.91208986830712,0.001,0.1,203.97803,1591819635446
Fix,GT,37.654815,-122.407808,-27.90198264473677,0.001,0.1,203.97797,1591819636446
Fix,GT,37.654815,-122.407808,-27.892981838822365,0.00055363,0.1,203.97818,1591819637446
Fix,GT,37.654815,-122.407808,-27.884429893732072,0.0004463672,0.1,203.97868,1591819638446
Fix,GT,37.654815,-122.407808,-27.87687544959784,0.0015517368,0.1,203.97873,1591819639446
Fix,GT,37.654815,-122.407808,-27.869875469207763,0.0025004745,0.1,203.97873,1591819640446
Fix,GT,37.654815,-122.407808,-27.862876319497826,0.0024586516,0.1,203.97923,1591819641446
Fix,GT,37.654815,-122.407808,-27.85676739019156,0.002,0.1,203.97931,1591819642446
Fix,GT,37.654815,-122.407808,-27.85132188153267,0.001553647,0.1,203.97964,1591819643446
Fix,GT,37.654815,-122.407808,-27.84576824861765,0.0014463502,0.1,203.97983,1591819644446
Fix,GT,37.654815,-122.407808,-27.84076743298769,0.0021053683,0.1,203.97952,1591819645446
Fix,GT,37.654815,-122.407808,-27.83576910641789,0.0016843558,0.1,203.98021,1591819646446
Fix,GT,37.654815,-122.407808,-27.83121463274956,0.0011848808,0.1,203.98074,1591819647446
Fix,GT,37.654815,-122.407808,-27.82721464395523,0.0012293339,0.1,203.9813,1591819648446
Fix,GT,37.654815,-122.407808,-27.82366099154949,0.0005536639,0.1,203.98212,1591819649446
Fix,GT,37.654815,-122.407808,-27.82021383732557,0.0004463334,0.1,203.98282,1591819650446
Fix,GT,37.654815,-122.407808,-27.816660179406405,0.0011848761,0.1,203.98325,1591819651446
Fix,GT,37.654815,-122.407808,-27.81366184580326,0.0016756663,0.1,203.98326,1591819652446
Fix,GT,37.654815,-122.407808,-27.810661025345325,0.0021053632,0.1,203.98358,1591819653446
Fix,GT,37.654815,-122.407808,-27.807661033749586,0.0025770278,0.1,203.98439,1591819654446
Fix,GT,37.654815,-122.407808,-27.80466187092662,0.002553681,0.1,203.98462,1591819655446
Fix,GT,37.654815,-122.407808,-27.80076758915186,0.0017385539,0.1,203.98499,1591819656446
Fix,GT,37.654815,-122.4078079,-27.788181100368497,0.0014142136,0.1,203.98561,1591819657446
Fix,GT,37.6548149,-122.4078078,-27.765734851181502,0.0016756565,0.1,203.98576,1591819658446
Fix,GT,37.6548149,-122.4078078,-27.744520148813727,0.002446308,0.1,203.986,1591819659446
Fix,GT,37.6548149,-122.4078079,-27.72730542266369,0.003657022,0.1,203.9869,1591819660446
Fix,GT,37.6548148,-122.4078079,-27.713645198196176,0.035239182,0.1,203.98938,1591819661446
Fix,GT,37.6548143,-122.4078082,-27.70342877808213,0.13430192,0.1,204.00143,1591819662446
Fix,GT,37.6548119,-122.4078095,-27.70257037353516,0.6461978,0.1,204.03053,1591819663446
Fix,GT,37.6548005,-122.4078155,-27.73288504564762,2.29094,0.1,204.10535,1591819664446
Fix,GT,37.6547716,-122.4078303,-27.80784311422705,4.6383104,0.1,204.2751,1591819665446
Fix,GT,37.6547243,-122.4078552,-27.89224100837112,6.6982965,0.1,204.59116,1591819666446
Fix,GT,37.654661,-122.4078887,-27.95376055675745,8.498845,0.1,204.85448,1591819667446
Fix,GT,37.6545836,-122.4079299,-28.006991827011102,10.106693,0.1,204.69406,1591819668446
Fix,GT,37.6544936,-122.4079765,-28.00988520857692,11.464224,0.1,204.11768,1591819669446
Fix,GT,37.6543929,-122.4080275,-27.94599116176367,12.568354,0.1,203.79855,1591819670446
Fix,GT,37.6542836,-122.4080832,-27.8720666962862,13.581953,0.1,203.95193,1591819671446
Fix,GT,37.6541659,-122.4081435,-27.808487959682942,14.61166,0.1,204.02045,1591819672446
Fix,GT,37.6540395,-122.4082084,-27.77550448036194,15.681843,0.1,204.01782,1591819673446
Fix,GT,37.6539042,-122.4082775,-27.73947260385752,16.684746,0.1,203.89113,1591819674446
Fix,GT,37.6537608,-122.40835,-27.680975717544555,17.52652,0.1,203.73257,1591819675446
Fix,GT,37.6536117,-122.4084252,-27.62125707602501,18.065147,0.1,203.78992,1591819676446
Fix,GT,37.6534596,-122.4085028,-27.596661228120325,18.363295,0.1,204.08337,1591819677446
Fix,GT,37.6533053,-122.4085825,-27.653012257665395,18.66484,0.1,204.19852,1591819678446
Fix,GT,37.6531484,-122.4086629,-27.813804906725885,18.979374,0.1,203.8223,1591819679446
Fix,GT,37.6529879,-122.4087423,-28.082418334424496,19.352562,0.1,202.97226,1591819680446
Fix,GT,37.6528227,-122.4088199,-28.50033802986145,19.824192,0.1,201.8715,1591819681446
Fix,GT,37.652652,-122.4088952,-29.07621501535177,20.352325,0.1,200.61722,1591819682446
Fix,GT,37.652475,-122.408966,-29.80654519817233,20.905876,0.1,198.62671,1591819683446
Fix,GT,37.6522913,-122.4090288,-30.635887968063354,21.403294,0.1,195.61458,1591819684446
Fix,GT,37.6521013,-122.4090778,-31.55331006741524,21.770317,0.1,191.33154,1591819685446
Fix,GT,37.6519059,-122.4091066,-32.40479154002666,22.000877,0.1,186.066,1591819686446
Fix,GT,37.6517079,-122.4091129,-32.96426148352027,22.134235,0.1,180.99033,1591819687446
Fix,GT,37.6515084,-122.4090985,-33.25528866040706,22.317516,0.1,176.69128,1591819688446
Fix,GT,37.6513084,-122.4090661,-33.320457707643506,22.525883,0.1,172.71448,1591819689446
Fix,GT,37.6511115,-122.4090165,-33.159704557597635,21.969707,0.1,168.82697,1591819690446
Fix,GT,37.6509273,-122.4089554,-32.70661875090003,20.190453,0.1,165.54907,1591819691446
Fix,GT,37.6507646,-122.408889,-32.0531753680706,17.851578,0.1,162.34515,1591819692446
Fix,GT,37.6506238,-122.4088211,-31.437105239927767,15.719864,0.1,159.78845,1591819693446
Fix,GT,37.6504995,-122.4087549,-30.922990593910217,14.319812,0.1,158.44891,1591819694446
Fix,GT,37.650385,-122.40869,-30.532767672002315,13.6071205,0.1,156.91241,1591819695446
Fix,GT,37.6502772,-122.4086223,-30.22247656732798,13.2061405,0.1,154.30804,1591819696446
Fix,GT,37.650175,-122.4085503,-29.95849807354808,12.878977,0.1,151.6305,1591819697446
Fix,GT,37.6500768,-122.4084749,-29.755130528390406,12.74622,0.1,149.92023,1591819698446
Fix,GT,37.6499792,-122.4083976,-29.59799460268021,12.892622,0.1,149.54938,1591819699446
Fix,GT,37.6498796,-122.408319,-29.50190648317337,13.227176,0.1,149.88312,1591819700446
Fix,GT,37.6497768,-122.4082392,-29.48315474253893,13.614419,0.1,150.1973,1591819701446
Fix,GT,37.6496709,-122.4081573,-29.537602126121524,13.965416,0.1,150.06207,1591819702446
Fix,GT,37.6495635,-122.4080723,-29.60406350827217,14.1890955,0.1,149.37729,1591819703446
Fix,GT,37.6494558,-122.4079849,-29.63158508104086,14.267645,0.1,148.8518,1591819704446
Fix,GT,37.6493479,-122.4078968,-29.633414966583253,14.295303,0.1,149.03351,1591819705446
Fix,GT,37.6492394,-122.4078097,-29.611061790317294,14.24044,0.1,149.3772,1591819706446
Fix,GT,37.6491327,-122.4077238,-29.547705685973167,13.828182,0.1,148.98383,1591819707446
Fix,GT,37.6490307,-122.4076389,-29.40511917194724,13.313545,0.1,147.83963,1591819708446
Fix,GT,37.6489328,-122.4075545,-29.24701464915276,13.082522,0.1,147.14502,1591819709446
Fix,GT,37.6488359,-122.4074705,-29.142968362271784,13.064352,0.1,147.34277,1591819710446
Fix,GT,37.6487381,-122.4073877,-29.06710631376505,13.075098,0.1,148.21555,1591819711446
Fix,GT,37.6486398,-122.4073081,-28.900613992214204,12.954937,0.1,149.5224,1591819712446
Fix,GT,37.6485405,-122.4072322,-28.77123090922832,12.945087,0.1,151.02441,1591819713446
Fix,GT,37.6484381,-122.4071582,-29.07679864430428,13.235666,0.1,152.48468,1591819714446
Fix,GT,37.648332,-122.4070865,-29.5128461765945,13.528057,0.1,154.3833,1591819715446
Fix,GT,37.6482202,-122.4070202,-29.75319840341806,13.903691,0.1,158.07361,1591819716446
Fix,GT,37.6481002,-122.4069643,-30.04168915748596,14.474609,0.1,163.80865,1591819717446
Fix,GT,37.6479711,-122.4069235,-30.382135237544773,15.036873,0.1,170.18292,1591819718446
Fix,GT,37.6478343,-122.4068983,-30.68431928527356,15.645966,0.1,175.17285,1591819719446
Fix,GT,37.6476907,-122.4068819,-30.911103346169,16.328966,0.1,177.09998,1591819720446
Fix,GT,37.647541,-122.4068671,-31.046553454697133,16.994093,0.1,177.47296,1591819721446
Fix,GT,37.6473854,-122.4068529,-31.074415782272816,17.6282,0.1,177.80426,1591819722446
Fix,GT,37.6472244,-122.4068393,-31.027970481455327,18.202,0.1,178.10553,1591819723446
Fix,GT,37.6470583,-122.4068263,-31.01367486023903,18.714825,0.1,178.35333,1591819724446
Fix,GT,37.6468885,-122.4068129,-31.0507693900466,19.009731,0.1,178.13086,1591819725446
Fix,GT,37.6467177,-122.4067976,-31.080119654178617,18.939726,0.1,177.44263,1591819726446
Fix,GT,37.6465486,-122.4067808,-31.15970528331399,18.658028,0.1,177.27527,1591819727446
Fix,GT,37.6463833,-122.4067646,-31.26342677673697,18.146816,0.1,177.34253,1591819728446
Fix,GT,37.6462229,-122.4067473,-31.2899568822682,17.649057,0.1,176.53369,1591819729446
Fix,GT,37.6460659,-122.4067267,-31.214910175323485,17.418526,0.1,175.3385,1591819730446
Fix,GT,37.6459098,-122.4067028,-31.16001811647415,17.555328,0.1,174.56781,1591819731446
Fix,GT,37.6457508,-122.4066773,-31.08349664464593,18.063908,0.1,174.3656,1591819732446
Fix,GT,37.6455869,-122.4066499,-31.0002349588573,18.681292,0.1,174.01837,1591819733446
Fix,GT,37.6454172,-122.4066195,-30.96700092288852,19.35579,0.1,173.66766,1591819734446
Fix,GT,37.6452414,-122.4065887,-30.96119985812902,20.00285,0.1,174.31543,1591819735446
Fix,GT,37.6450599,-122.4065616,-30.96738272809982,20.515482,0.1,175.65259,1591819736446
Fix,GT,37.6448745,-122.4065385,-30.957680800020697,20.804104,0.1,176.35107,1591819737446
Fix,GT,37.6446867,-122.4065153,-30.86968450066448,21.086529,0.1,176.07214,1591819738446
Fix,GT,37.644496,-122.4064911,-30.72739730501175,21.494469,0.1,176.1308,1591819739446
Fix,GT,37.6443016,-122.4064678,-30.562396854221817,21.763727,0.1,176.68701,1591819740446
Fix,GT,37.6441057,-122.4064464,-30.445127541542053,21.876255,0.1,177.04138,1591819741446
Fix,GT,37.6439083,-122.4064246,-30.427721349656583,22.171177,0.1,176.53125,1591819742446
Fix,GT,37.6437076,-122.4063983,-30.4593821362257,22.672583,0.1,175.38348,1591819743446
Fix,GT,37.6435024,-122.4063681,-30.471092339605093,23.215698,0.1,175.12549,1591819744446
Fix,GT,37.643292,-122.4063395,-30.45607959643006,23.74401,0.1,176.11896,1591819745446
Fix,GT,37.6430767,-122.4063155,-30.45124487841129,24.233742,0.1,177.28589,1591819746446
Fix,GT,37.6428569,-122.4062936,-30.423761264562607,24.710966,0.1,177.005,1591819747446
Fix,GT,37.6426333,-122.4062671,-30.336733365625143,25.184143,0.1,175.88904,1591819748446
Fix,GT,37.6424056,-122.4062357,-30.247761711895468,25.67176,0.1,175.60901,1591819749446
Fix,GT,37.6421736,-122.4062041,-30.183481631994248,26.117226,0.1,175.97736,1591819750446
Fix,GT,37.6419378,-122.4061741,-30.136590563714503,26.489136,0.1,176.09796,1591819751446
Fix,GT,37.6416988,-122.4061422,-30.09349630481005,26.852757,0.1,175.39124,1591819752446
Fix,GT,37.6414571,-122.4061051,-30.036870515823363,27.208418,0.1,174.33893,1591819753446
Fix,GT,37.6412128,-122.4060625,-29.99021673309803,27.569462,0.1,173.64478,1591819754446
Fix,GT,37.6409656,-122.4060151,-30.01743757349253,27.956427,0.1,172.60571,1591819755446
Fix,GT,37.6407157,-122.4059606,-30.13919259917736,28.372086,0.1,171.25427,1591819756446
Fix,GT,37.6404632,-122.4058974,-30.25748888897896,28.820234,0.1,169.83362,1591819757446
Fix,GT,37.6402082,-122.4058251,-30.26140324890613,29.211714,0.1,168.40503,1591819758446
Fix,GT,37.6399517,-122.4057444,-30.251460260868072,29.506584,0.1,167.31116,1591819759446
Fix,GT,37.6396942,-122.4056566,-30.23559178546071,29.69348,0.1,166.08344,1591819760446
Fix,GT,37.6394381,-122.4055612,-30.17733164745569,29.562271,0.1,164.66345,1591819761446
Fix,GT,37.6391859,-122.4054599,-30.12818761229515,29.26169,0.1,163.75134,1591819762446
Fix,GT,37.6389361,-122.4053554,-30.098160305857657,29.234665,0.1,163.0976,1591819763446
Fix,GT,37.6386867,-122.4052463,-30.064403689026832,29.391205,0.1,162.23444,1591819764446
Fix,GT,37.6384378,-122.405131,-30.077207456082107,29.517544,0.1,160.95294,1591819765446
Fix,GT,37.63819,-122.4050083,-30.15292549219728,29.604065,0.1,159.85791,1591819766446
Fix,GT,37.637943,-122.4048807,-30.273683642894028,29.704948,0.1,159.2779,1591819767446
Fix,GT,37.6376957,-122.4047502,-30.42188609802723,29.8166,0.1,158.83722,1591819768446
Fix,GT,37.6374482,-122.4046177,-30.53880181676149,29.903044,0.1,158.7804,1591819769445
Fix,GT,37.6372007,-122.4044855,-30.59324301931262,29.793545,0.1,158.8695,1591819770445
Fix,GT,37.6369551,-122.4043547,-30.612595799565312,29.329954,0.1,158.98505,1591819771445
Fix,GT,37.6367142,-122.4042284,-30.64394668671489,28.607105,0.1,159.63531,1591819772445
Fix,GT,37.6364778,-122.4041098,-30.684624326854944,27.952518,0.1,160.66852,1591819773445
Fix,GT,37.6362435,-122.4039988,-30.726839353084564,27.64759,0.1,161.76111,1591819774445
Fix,GT,37.636009,-122.403894,-30.76817718410492,27.59035,0.1,162.86609,1591819775445
Fix,GT,37.6357729,-122.4037953,-30.80760832121968,27.667803,0.1,164.06604,1591819776445
Fix,GT,37.635534,-122.4037027,-30.835473533034325,27.79853,0.1,165.28662,1591819777445
Fix,GT,37.6352925,-122.4036157,-30.86383890485764,27.914246,0.1,166.33398,1591819778445
Fix,GT,37.6350496,-122.4035342,-30.89045877742767,27.82935,0.1,167.45477,1591819779445
Fix,GT,37.634807,-122.4034594,-30.901798491626977,27.630938,0.1,168.7262,1591819780445
Fix,GT,37.6345634,-122.4033935,-30.92193296056985,27.690569,0.1,170.77533,1591819781445
Fix,GT,37.6343161,-122.4033395,-30.962974759638307,28.02083,0.1,173.00842,1591819782445
Fix,GT,37.6340647,-122.4032936,-31.00916259086132,28.341843,0.1,173.86755,1591819783445
Fix,GT,37.6338105,-122.4032481,-31.02666213274001,28.630352,0.1,173.62622,1591819784445
Fix,GT,37.6335541,-122.4032016,-31.028122595071792,28.878063,0.1,173.71631,1591819785445
Fix,GT,37.6332952,-122.4031576,-31.00836464202404,29.106102,0.1,174.64813,1591819786445
Fix,GT,37.6330338,-122.4031186,-30.9883658169508,29.3068,0.1,175.51935,1591819787445
Fix,GT,37.6327705,-122.4030839,-30.98216129541397,29.476038,0.1,176.22437,1591819788445
Fix,GT,37.6325054,-122.4030529,-30.93904074072838,29.61396,0.1,176.844,1591819789445
Fix,GT,37.6322389,-122.4030247,-30.916120651125908,29.759514,0.1,177.11493,1591819790445
Fix,GT,37.631971,-122.4029969,-30.90795972573757,29.91137,0.1,177.0918,1591819791445
Fix,GT,37.6317018,-122.4029683,-30.87427080214024,30.05296,0.1,176.93115,1591819792445
Fix,GT,37.6314314,-122.4029388,-30.85858173811436,30.209934,0.1,176.77026,1591819793445
Fix,GT,37.6311594,-122.4029083,-30.886728962540623,30.41597,0.1,176.71216,1591819794445
Fix,GT,37.6308854,-122.4028767,-30.938986040204764,30.65503,0.1,176.55731,1591819795445
Fix,GT,37.6306094,-122.4028437,-30.963406026005742,30.887259,0.1,176.34918,1591819796445
Fix,GT,37.6303314,-122.4028096,-30.932947827368974,31.106749,0.1,176.25647,1591819797445
Fix,GT,37.6300513,-122.4027753,-30.94376823669672,31.339825,0.1,176.40094,1591819798445
Fix,GT,37.6297691,-122.4027423,-30.948111481964588,31.57573,0.1,176.64075,1591819799445
Fix,GT,37.629485,-122.4027094,-30.84981430542469,31.745394,0.1,176.48291,1591819800445
Fix,GT,37.6291998,-122.4026743,-30.74834052282572,31.852192,0.1,176.03479,1591819801445
Fix,GT,37.6289139,-122.4026357,-30.673774391949177,31.958254,0.1,175.4162,1591819802445
Fix,GT,37.6286276,-122.4025925,-30.60725805678964,32.078865,0.1,174.56573,1591819803445
Fix,GT,37.6283408,-122.4025429,-30.52772152477503,32.19252,0.1,173.41968,1591819804445
Fix,GT,37.6280541,-122.4024857,-30.384184440016742,32.279423,0.1,172.20032,1591819805445
Fix,GT,37.6277679,-122.4024204,-30.264042069494725,32.331985,0.1,170.81421,1591819806445
Fix,GT,37.6274828,-122.4023452,-30.20099010685086,32.33648,0.1,169.00464,1591819807445
Fix,GT,37.6271999,-122.402259,-30.14875845733285,32.317375,0.1,167.4751,1591819808445
Fix,GT,37.6269185,-122.4021655,-30.197181622982026,32.30875,0.1,166.79193,1591819809445
Fix,GT,37.6266373,-122.40207,-30.35706748923659,32.355,0.1,166.73877,1591819810445
Fix,GT,37.6263552,-122.4019748,-30.525625900626185,32.465446,0.1,166.7904,1591819811445
Fix,GT,37.6260727,-122.401879,-30.645938292503352,32.49822,0.1,166.62323,1591819812445
Fix,GT,37.6257906,-122.4017821,-30.677235551208256,32.38716,0.1,166.48053,1591819813445
Fix,GT,37.6255097,-122.4016855,-30.66976608788967,32.274765,0.1,166.55957,1591819814445
Fix,GT,37.6252291,-122.4015904,-30.73965763947368,32.20489,0.1,166.82446,1591819815445
Fix,GT,37.6249499,-122.401496,-30.795942011803387,32.00447,0.1,166.5799,1591819816445
Fix,GT,37.6246739,-122.4013987,-30.841075727492573,31.65741,0.1,165.72107,1591819817445
Fix,GT,37.6244008,-122.4012986,-30.897305801451203,31.527115,0.1,165.55023,1591819818445
Fix,GT,37.6241271,-122.4011993,-30.92821656680107,31.727055,0.1,165.87256,1591819819445
Fix,GT,37.6238511,-122.4011007,-30.92198729997873,31.976341,0.1,165.97546,1591819820445
Fix,GT,37.6235729,-122.4010019,-30.92814631891251,32.208572,0.1,166.08551,1591819821445
Fix,GT,37.6232922,-122.4009039,-30.95938815057277,32.450348,0.1,166.54541,1591819822445
Fix,GT,37.6230088,-122.4008076,-30.982337541818623,32.697025,0.1,166.71057,1591819823445
Fix,GT,37.6227235,-122.4007113,-31.004062079161407,32.797333,0.1,166.72906,1591819824445
Fix,GT,37.6224387,-122.400615,-31.058424631386995,32.575714,0.1,166.71844,1591819825445
Fix,GT,37.6221572,-122.4005196,-31.119074380248783,32.112404,0.1,166.83148,1591819826445
Fix,GT,37.62188,-122.4004269,-31.173966829776766,31.554497,0.1,167.00006,1591819827445
Fix,GT,37.6216076,-122.4003361,-31.215699074834586,31.009663,0.1,166.99866,1591819828445
Fix,GT,37.6213398,-122.4002466,-31.24460314702988,30.534994,0.1,166.8034,1591819829445
Fix,GT,37.6210753,-122.4001569,-31.27559152853489,30.343037,0.1,166.70392,1591819830445
Fix,GT,37.6208106,-122.4000675,-31.30248310780525,30.519436,0.1,166.89319,1591819831445
Fix,GT,37.6205438,-122.3999781,-31.32914463081956,30.76998,0.1,166.85529,1591819832445
Fix,GT,37.6202752,-122.3998872,-31.342554180204868,30.969864,0.1,166.67639,1591819833445
Fix,GT,37.6200055,-122.3997955,-31.32104566302896,31.026932,0.1,166.66803,1591819834445
Fix,GT,37.6197362,-122.3997039,-31.26290136528016,30.888968,0.1,166.70709,1591819835445
Fix,GT,37.6194685,-122.3996132,-31.176189778923987,30.623112,0.1,166.79456,1591819836445
Fix,GT,37.6192032,-122.3995235,-31.08991404008865,30.372047,0.1,166.81775,1591819837445
Fix,GT,37.6189396,-122.3994344,-31.024240299403665,30.234364,0.1,166.75244,1591819838445
Fix,GT,37.6186766,-122.3993459,-31.09656017500162,30.19675,0.1,166.91504,1591819839445
Fix,GT,37.6184136,-122.3992583,-31.374428148776296,30.202206,0.1,167.03711,1591819840445
Fix,GT,37.6181505,-122.3991708,-31.60650793939829,30.185127,0.1,166.9256,1591819841445
Fix,GT,37.617888,-122.3990828,-31.64233638095856,30.121035,0.1,166.88293,1591819842445
Fix,GT,37.6176262,-122.3989952,-31.48833409690857,30.02282,0.1,166.95746,1591819843445
Fix,GT,37.6173653,-122.3989076,-31.288251126497983,29.936985,0.1,166.7832,1591819844445
Fix,GT,37.6171051,-122.398819,-31.20275898098945,29.925482,0.1,166.59601,1591819845445
Fix,GT,37.6168447,-122.3987292,-31.20213254928589,30.029564,0.1,166.34448,1591819846445
Fix,GT,37.6165835,-122.3986365,-31.218132505416868,30.254307,0.1,165.62732,1591819847445
Fix,GT,37.6163216,-122.3985366,-31.09460460430384,30.500645,0.1,164.20819,1591819848445
Fix,GT,37.6160603,-122.3984267,-30.869374441623687,30.709053,0.1,162.5033,1591819849445
Fix,GT,37.6157996,-122.3983067,-30.75967452642322,30.931028,0.1,160.909,1591819850445
Fix,GT,37.6155398,-122.3981768,-30.717,31.138947,0.1,159.29736,1591819851445
Fix,GT,37.6152818,-122.398036,-30.712987172842027,31.332218,0.1,157.26807,1591819852445
Fix,GT,37.6150268,-122.3978826,-30.704433877944947,31.481445,0.1,155.16486,1591819853445
Fix,GT,37.6147747,-122.3977179,-30.724516941607,31.598316,0.1,153.63867,1591819854445
Fix,GT,37.6145248,-122.3975453,-30.890956749022003,31.733334,0.1,152.47272,1591819855445
Fix,GT,37.6142763,-122.3973655,-31.099671458095315,31.875664,0.1,151.33063,1591819856445
Fix,GT,37.6140303,-122.3971782,-31.200707511425023,31.981787,0.1,149.83899,1591819857445
Fix,GT,37.6137874,-122.3969821,-31.31626144170761,32.12907,0.1,148.33441,1591819858445
Fix,GT,37.6135476,-122.3967768,-31.389807412207126,32.306698,0.1,146.61133,1591819859445
Fix,GT,37.6133123,-122.3965611,-31.359653168231247,32.3144,0.1,144.64252,1591819860445
Fix,GT,37.6130836,-122.396337,-31.301651077270503,32.01119,0.1,143.07635,1591819861445
Fix,GT,37.6128624,-122.3961088,-31.166626644134524,31.49543,0.1,141.74005,1591819862445
Fix,GT,37.612649,-122.3958788,-30.95574011427164,30.91601,0.1,140.51364,1591819863445
Fix,GT,37.6124437,-122.3956473,-30.8304875907302,30.343283,0.1,139.25586,1591819864445
Fix,GT,37.6122463,-122.3954143,-30.77851621738076,29.82312,0.1,137.79593,1591819865445
Fix,GT,37.6120569,-122.3951777,-30.83173223155737,29.503767,0.1,136.13489,1591819866445
Fix,GT,37.6118739,-122.3949365,-30.88585218274593,29.395227,0.1,134.82153,1591819867445
Fix,GT,37.611695,-122.3946914,-30.96034383761883,29.377083,0.1,133.72,1591819868445
Fix,GT,37.6115205,-122.3944418,-31.05890935820341,29.322502,0.1,132.45905,1591819869445
Fix,GT,37.6113512,-122.3941882,-31.12134770321846,29.131884,0.1,131.14474,1591819870445
Fix,GT,37.6111868,-122.3939328,-31.16945163452625,28.88469,0.1,130.5423,1591819871445
Fix,GT,37.6110246,-122.3936783,-31.28117136543989,28.696064,0.1,130.582,1591819872445
Fix,GT,37.6108629,-122.3934257,-31.42062811470032,28.556381,0.1,130.56683,1591819873445
Fix,GT,37.610702,-122.3931742,-31.52061117196083,28.423342,0.1,130.51196,1591819874445
Fix,GT,37.6105424,-122.3929234,-31.559708290457724,28.286652,0.1,130.2873,1591819875445
Fix,GT,37.6103844,-122.392673,-31.585132190048697,28.176256,0.1,130.02692,1591819876445
Fix,GT,37.6102276,-122.3924226,-31.56681133541465,28.103481,0.1,129.97919,1591819877445
Fix,GT,37.6100705,-122.3921732,-31.51873861351609,28.106478,0.1,130.34137,1591819878445
Fix,GT,37.6099116,-122.3919246,-31.49966197615862,28.222893,0.1,130.63184,1591819879445
Fix,GT,37.6097512,-122.3916753,-31.50156647735833,28.410534,0.1,130.74539,1591819880445
Fix,GT,37.6095894,-122.3914245,-31.5131310338974,28.617641,0.1,130.81311,1591819881445
Fix,GT,37.609426,-122.391172,-31.526011182427403,28.849394,0.1,130.96619,1591819882445
Fix,GT,37.6092609,-122.3909176,-31.521640630662443,29.120945,0.1,130.99823,1591819883445
Fix,GT,37.6090947,-122.3906606,-31.48548751354217,29.382778,0.1,130.85822,1591819884445
Fix,GT,37.6089271,-122.3904011,-31.44385802775621,29.633438,0.1,130.89188,1591819885445
Fix,GT,37.6087578,-122.3901399,-31.42287011688948,29.847021,0.1,131.01227,1591819886445
Fix,GT,37.6085871,-122.3898777,-31.458567352533343,29.973782,0.1,131.1792,1591819887445
Fix,GT,37.6084152,-122.3896153,-31.6566146697998,30.040579,0.1,131.34149,1591819888445
Fix,GT,37.6082427,-122.389353,-31.83801101344824,30.046852,0.1,131.34259,1591819889445
Fix,GT,37.6080706,-122.3890909,-31.806901096224784,29.988766,0.1,131.21628,1591819890445
Fix,GT,37.6078997,-122.3888283,-31.760663011610507,29.943352,0.1,130.82913,1591819891445
Fix,GT,37.60773,-122.3885647,-31.728249452114103,29.91071,0.1,130.6377,1591819892445
Fix,GT,37.6075606,-122.3883018,-31.62939058923721,29.824127,0.1,130.9342,1591819893445
Fix,GT,37.6073907,-122.3880409,-31.47868434727192,29.70483,0.1,131.11005,1591819894445
Fix,GT,37.6072213,-122.3877818,-31.359596895098683,29.509968,0.1,131.15845,1591819895445
Fix,GT,37.6070532,-122.3875252,-31.307501060545444,29.160963,0.1,131.26346,1591819896445
Fix,GT,37.606887,-122.3872725,-31.26372848272324,28.74146,0.1,131.30191,1591819897445
Fix,GT,37.6067233,-122.3870232,-31.224510236859324,28.358372,0.1,131.206,1591819898445
Fix,GT,37.6065619,-122.3867766,-31.201326151609425,28.058113,0.1,131.1271,1591819899445
Fix,GT,37.6064022,-122.3865316,-31.19176012778282,27.88541,0.1,131.0581,1591819900445
Fix,GT,37.6062432,-122.3862876,-31.17999020478129,27.832352,0.1,131.13544,1591819901445
Fix,GT,37.6060836,-122.3860441,-31.17856506729126,27.8881,0.1,131.24106,1591819902445
Fix,GT,37.6059234,-122.3858,-31.209292213022707,28.022385,0.1,131.22693,1591819903445
Fix,GT,37.6057624,-122.3855543,-31.26517359107733,28.198053,0.1,131.20062,1591819904445
Fix,GT,37.6056003,-122.385307,-31.311824083149435,28.39048,0.1,131.20407,1591819905445
Fix,GT,37.6054373,-122.385058,-31.256908204585315,28.55222,0.1,131.13342,1591819906445
Fix,GT,37.6052742,-122.3848079,-31.16812992095948,28.531782,0.1,130.95502,1591819907445
Fix,GT,37.6051125,-122.3845582,-31.190813210487363,28.292572,0.1,130.85065,1591819908445
Fix,GT,37.6049525,-122.3843112,-31.25478954929113,27.953735,0.1,130.91788,1591819909445
Fix,GT,37.604794,-122.3840676,-31.33661837464571,27.608421,0.1,131.05988,1591819910445
Fix,GT,37.604637,-122.3838269,-31.38560681581497,27.414696,0.1,131.099,1591819911445
Fix,GT,37.6044806,-122.3835866,-31.35830867534876,27.438885,0.1,130.93817,1591819912445
Fix,GT,37.6043242,-122.3833454,-31.232507564663887,27.497698,0.1,130.87341,1591819913445
Fix,GT,37.6041675,-122.3831042,-31.143968760490417,27.461262,0.1,131.0271,1591819914445
Fix,GT,37.6040118,-122.3828642,-31.11117604637145,27.162138,0.1,130.81598,1591819915445
Fix,GT,37.6038603,-122.3826288,-31.099693381994964,26.26574,0.1,130.6607,1591819916445
Fix,GT,37.6037142,-122.3824018,-31.137953238010407,25.329536,0.1,130.7669,1591819917445
Fix,GT,37.6035711,-122.3821797,-31.174792681872844,25.222815,0.1,130.70209,1591819918445
Fix,GT,37.6034269,-122.3819573,-31.18110975277424,25.455254,0.1,131.0784,1591819919445
Fix,GT,37.6032797,-122.3817343,-31.17242597338557,25.713053,0.1,131.57565,1591819920445
Fix,GT,37.6031309,-122.3815091,-31.169683744788166,26.017353,0.1,131.34058,1591819921445
Fix,GT,37.6029808,-122.3812807,-31.14591728681326,26.318027,0.1,131.28247,1591819922445
Fix,GT,37.6028289,-122.3810498,-31.12783238080144,26.581467,0.1,131.41663,1591819923445
Fix,GT,37.6026753,-122.3808166,-31.18886370444298,26.875265,0.1,131.30695,1591819924445
Fix,GT,37.6025206,-122.3805805,-31.251942833840847,27.152466,0.1,131.11322,1591819925445
Fix,GT,37.6023656,-122.380341,-31.329687027037146,27.401852,0.1,130.55325,1591819926445
Fix,GT,37.6022116,-122.3800966,-31.361474532872435,27.653328,0.1,129.72601,1591819927445
Fix,GT,37.6020587,-122.3798477,-31.335258064270025,27.893742,0.1,129.24127,1591819928445
Fix,GT,37.6019049,-122.3795959,-31.384634893894194,28.14511,0.1,129.42737,1591819929445
Fix,GT,37.601749,-122.3793429,-31.385235410183668,28.37012,0.1,129.71881,1591819930445
Fix,GT,37.6015909,-122.3790888,-31.333880169808864,28.575844,0.1,129.94244,1591819931445
Fix,GT,37.6014301,-122.3788344,-31.3095035828352,28.791067,0.1,130.70874,1591819932445
Fix,GT,37.6012652,-122.3785808,-31.233651763349773,29.020733,0.1,131.42169,1591819933445
Fix,GT,37.6010975,-122.3783267,-31.21288065287471,29.280441,0.1,131.4237,1591819934445
Fix,GT,37.6009286,-122.37807,-31.22712764799595,29.557213,0.1,131.31506,1591819935445
Fix,GT,37.6007588,-122.3778106,-31.20272178915144,29.763577,0.1,131.10773,1591819936445
Fix,GT,37.6005892,-122.3775491,-31.224315956115724,29.804968,0.1,130.91397,1591819937445
Fix,GT,37.6004201,-122.3772875,-31.188822164773946,29.708462,0.1,130.9151,1591819938445
Fix,GT,37.6002509,-122.3770271,-31.13183214569092,29.676102,0.1,131.20148,1591819939445
Fix,GT,37.6000801,-122.3767678,-31.1185936563015,29.794247,0.1,131.57129,1591819940445
Fix,GT,37.599908,-122.3765075,-31.162949703216555,29.955116,0.1,131.36127,1591819941445
Fix,GT,37.599737,-122.3762455,-31.135191257178786,29.85337,0.1,130.89474,1591819942445
Fix,GT,37.599569,-122.3759851,-30.967548664093016,29.337051,0.1,130.72388,1591819943445
Fix,GT,37.5994046,-122.3757284,-30.78049848270416,28.949108,0.1,130.45416,1591819944445
Fix,GT,37.5992414,-122.3754727,-30.66459659779072,29.02124,0.1,130.46722,1591819945445
Fix,GT,37.5990764,-122.3752157,-30.650721385419367,29.28879,0.1,130.76196,1591819946445
Fix,GT,37.598909,-122.3749574,-30.690137868463992,29.512218,0.1,131.04742,1591819947445
Fix,GT,37.5987399,-122.3746984,-30.68796064770222,29.65733,0.1,131.04956,1591819948445
Fix,GT,37.5985711,-122.374438,-30.677802124798298,29.660927,0.1,130.7785,1591819949445
Fix,GT,37.5984038,-122.3741773,-30.718512447357178,29.459366,0.1,130.52835,1591819950445
Fix,GT,37.5982382,-122.3739181,-30.86671351394057,29.283762,0.1,130.57031,1591819951445
Fix,GT,37.5980726,-122.3736599,-31.072042335003616,29.297382,0.1,130.70917,1591819952445
Fix,GT,37.5979064,-122.3734019,-31.20022291326523,29.296452,0.1,130.7427,1591819953445
Fix,GT,37.5977406,-122.3731447,-31.30399608707428,29.12127,0.1,130.7727,1591819954445
Fix,GT,37.5975758,-122.3728894,-31.387175133764742,28.977243,0.1,130.89539,1591819955445
Fix,GT,37.5974101,-122.3726351,-31.436145771294832,29.13354,0.1,131.23999,1591819956445
Fix,GT,37.5972421,-122.3723796,-31.41178758537769,29.43441,0.1,131.32996,1591819957445
Fix,GT,37.5970728,-122.3721209,-31.34552732044458,29.72707,0.1,131.00073,1591819958445
Fix,GT,37.5969027,-122.3718587,-31.34380999237299,30.018078,0.1,130.94421,1591819959445
Fix,GT,37.5967307,-122.3715946,-31.330706355184315,30.255627,0.1,131.16833,1591819960445
Fix,GT,37.5965569,-122.3713293,-31.293,30.433872,0.1,131.24939,1591819961445
Fix,GT,37.5963823,-122.3710625,-31.29522831183672,30.592218,0.1,131.1073,1591819962445
Fix,GT,37.5962075,-122.3707936,-31.292654320955272,30.747215,0.1,130.96094,1591819963445
Fix,GT,37.5960319,-122.3705229,-31.26417100521922,30.937084,0.1,131.03589,1591819964445
Fix,GT,37.5958546,-122.370251,-31.22586329829693,31.13983,0.1,131.26227,1591819965445
Fix,GT,37.5956752,-122.3699784,-31.190173121899363,31.322487,0.1,131.48462,1591819966445
Fix,GT,37.5954939,-122.3697054,-31.1416177816391,31.508553,0.1,131.75604,1591819967445
Fix,GT,37.5953107,-122.3694313,-31.10564440661669,31.702448,0.1,131.8801,1591819968445
Fix,GT,37.5951263,-122.3691556,-31.073508945941924,31.905514,0.1,131.83557,1591819969445
Fix,GT,37.59494,-122.3688785,-31.056463647544383,32.145718,0.1,132.16663,1591819970445
Fix,GT,37.594751,-122.3686009,-31.07056269446016,32.37835,0.1,132.52747,1591819971445
Fix,GT,37.5945601,-122.3683222,-31.06831825077533,32.58286,0.1,132.30957,1591819972445
Fix,GT,37.5943701,-122.3680398,-31.04530023628473,32.76303,0.1,131.61462,1591819973445
Fix,GT,37.5941817,-122.3677532,-31.03635341596604,32.92311,0.1,131.09479,1591819974445
Fix,GT,37.5939933,-122.3674641,-31.061364192187785,33.052086,0.1,131.11676,1591819975445
Fix,GT,37.5938041,-122.367175,-31.067309448719023,33.039658,0.1,131.22949,1591819976445
Fix,GT,37.5936156,-122.3668872,-31.04197319900989,32.74878,0.1,131.13068,1591819977445
Fix,GT,37.5934298,-122.3666024,-30.98334741795063,32.31566,0.1,131.09695,1591819978445
Fix,GT,37.5932461,-122.3663212,-30.908510130405425,31.956703,0.1,131.20212,1591819979445
Fix,GT,37.593064,-122.3660434,-30.838903414249422,31.597507,0.1,131.14929,1591819980445
Fix,GT,37.592885,-122.3657683,-30.70337683323026,31.218414,0.1,130.83984,1591819981445
Fix,GT,37.5927085,-122.3654947,-30.507233797192576,31.048988,0.1,130.7724,1591819982445
Fix,GT,37.5925315,-122.3652223,-30.4067077087164,31.080719,0.1,131.17685,1591819983445
Fix,GT,37.5923523,-122.3649512,-30.46875054988265,31.160944,0.1,131.63849,1591819984445
Fix,GT,37.5921717,-122.3646805,-30.55040714550018,31.249016,0.1,131.75766,1591819985445
Fix,GT,37.5919904,-122.364409,-30.64544966650009,31.339237,0.1,131.73709,1591819986445
Fix,GT,37.5918085,-122.3641369,-30.762331479668617,31.424517,0.1,131.71783,1591819987445
Fix,GT,37.5916269,-122.3638638,-30.83390817523002,31.426971,0.1,131.47913,1591819988445
Fix,GT,37.5914471,-122.3635903,-30.83252770802379,31.239157,0.1,131.15723,1591819989445
Fix,GT,37.5912693,-122.3633182,-30.812992285966875,30.943777,0.1,131.06451,1591819990445
Fix,GT,37.5910932,-122.3630487,-30.780829618245363,30.658558,0.1,131.23755,1591819991445
Fix,GT,37.5909177,-122.3627824,-30.72829326510429,30.431198,0.1,131.54639,1591819992445
Fix,GT,37.5907423,-122.3625182,-30.695645770668985,30.370129,0.1,131.53558,1591819993445
Fix,GT,37.5905673,-122.3622533,-30.678656194210056,30.466206,0.1,131.26703,1591819994445
Fix,GT,37.5903925,-122.3619863,-30.6385947766006,30.61317,0.1,130.96918,1591819995445
Fix,GT,37.590218,-122.361717,-30.56805067706108,30.760986,0.1,130.84589,1591819996445
Fix,GT,37.5900428,-122.361446,-30.580100741863248,30.896023,0.1,130.77673,1591819997445
Fix,GT,37.5898681,-122.3611736,-30.63688323143125,30.869652,0.1,130.35968,1591819998445
Fix,GT,37.5896958,-122.3609007,-30.657495016694067,30.638023,0.1,130.01248,1591819999445
Fix,GT,37.5895256,-122.3606294,-30.68577402469516,30.366627,0.1,129.94562,1591820000445
Fix,GT,37.5893577,-122.36036,-30.721301371067764,30.086235,0.1,129.52032,1591820001445
Fix,GT,37.5891946,-122.36009,-30.760538832843302,29.842213,0.1,128.3793,1591820002445
Fix,GT,37.5890382,-122.3598169,-30.74955462968349,29.651798,0.1,126.59772,1591820003445
Fix,GT,37.5888892,-122.3595394,-30.756124968141314,29.518785,0.1,124.71896,1591820004445
Fix,GT,37.588749,-122.3592566,-30.729371699243785,29.389072,0.1,122.65204,1591820005445
Fix,GT,37.5886165,-122.3589695,-30.67564646971225,29.22192,0.1,121.174194,1591820006445
Fix,GT,37.5884894,-122.3586812,-30.63460714763403,29.01192,0.1,120.28201,1591820007445
Fix,GT,37.5883658,-122.3583927,-30.620713235616684,28.939777,0.1,119.87842,1591820008445
Fix,GT,37.5882435,-122.3581025,-30.660579229950905,29.129993,0.1,119.365295,1591820009445
Fix,GT,37.5881245,-122.3578072,-30.6536230802536,29.357235,0.1,117.57477,1591820010445
Fix,GT,37.5880132,-122.3575047,-30.61364041391015,29.518288,0.1,115.49469,1591820011445
Fix,GT,37.5879095,-122.3571965,-30.594772351145743,29.612408,0.1,113.88721,1591820012445
Fix,GT,37.5878121,-122.3568848,-30.56483487674594,29.527266,0.1,112.42645,1591820013445
Fix,GT,37.5877216,-122.3565723,-30.508732884883884,29.2328,0.1,110.9986,1591820014445
Fix,GT,37.5876381,-122.3562604,-30.46363084059953,28.948736,0.1,109.57434,1591820015445
Fix,GT,37.5875612,-122.3559486,-30.45090674471855,28.768856,0.1,108.246185,1591820016445
Fix,GT,37.5874904,-122.3556359,-30.46110933053493,28.686665,0.1,106.95233,1591820017445
Fix,GT,37.5874252,-122.3553215,-30.45332092478872,28.731283,0.1,105.63785,1591820018445
Fix,GT,37.5873661,-122.3550041,-30.437873818486928,28.87669,0.1,104.128296,1591820019445
Fix,GT,37.5873132,-122.354683,-30.43078130841255,29.05944,0.1,102.69464,1591820020445
Fix,GT,37.5872661,-122.3543584,-30.424539740145207,29.206339,0.1,101.36627,1591820021445
Fix,GT,37.5872253,-122.3540319,-30.426469017028808,29.198162,0.1,99.8168,1591820022445
Fix,GT,37.5871914,-122.3537043,-30.43665616559982,29.208908,0.1,98.390045,1591820023445
Fix,GT,37.5871633,-122.3533748,-30.42376465511322,29.337269,0.1,97.173035,1591820024445
Fix,GT,37.5871414,-122.3530434,-30.420453144669533,29.452217,0.1,95.637726,1591820025445
Fix,GT,37.5871264,-122.35271,-30.413532172620297,29.595537,0.1,94.32669,1591820026445
Fix,GT,37.5871158,-122.3523742,-30.39577345299721,29.765244,0.1,93.63904,1591820027445
Fix,GT,37.5871078,-122.3520364,-30.384092956870795,29.934677,0.1,93.222565,1591820028445
Fix,GT,37.5871005,-122.3516969,-30.3685460511744,30.080097,0.1,93.25958,1591820029445
Fix,GT,37.5870928,-122.3513556,-30.34652292627096,30.23285,0.1,93.36136,1591820030445
Fix,GT,37.5870845,-122.3510123,-30.320211108744147,30.448837,0.1,93.472046,1591820031445
Fix,GT,37.5870755,-122.3506663,-30.277821550905703,30.701103,0.1,93.556946,1591820032445
Fix,GT,37.5870662,-122.3503176,-30.196150886327032,30.92369,0.1,93.57117,1591820033445
Fix,GT,37.5870569,-122.3499665,-30.111150195539,31.104574,0.1,93.51849,1591820034445
Fix,GT,37.5870477,-122.3496138,-30.029712722837925,31.221497,0.1,93.45654,1591820035445
Fix,GT,37.5870387,-122.3492603,-29.946925083428617,31.23846,0.1,93.51376,1591820036445
Fix,GT,37.5870295,-122.348907,-29.854253600388763,31.188137,0.1,93.442444,1591820037445
Fix,GT,37.5870208,-122.3485541,-29.752909565210345,31.167253,0.1,93.35895,1591820038445
Fix,GT,37.5870126,-122.3482014,-29.650698466479778,31.155401,0.1,93.37363,1591820039445
Fix,GT,37.5870042,-122.3478496,-29.55347232031822,31.00801,0.1,93.41998,1591820040445
Fix,GT,37.5869952,-122.3475003,-29.452582022070885,30.697971,0.1,93.585205,1591820041445
Fix,GT,37.5869854,-122.347155,-29.35147194194794,30.342247,0.1,93.81094,1591820042445
Fix,GT,37.5869747,-122.3468138,-29.250581656634807,30.01137,0.1,93.99774,1591820043445
Fix,GT,37.5869634,-122.3464751,-29.142348179638383,29.899857,0.1,94.05615,1591820044445
Fix,GT,37.5869523,-122.3461361,-29.022786359012127,30.020695,0.1,93.98941,1591820045445
Fix,GT,37.5869415,-122.3457957,-28.90502119803429,30.13776,0.1,93.905365,1591820046445
Fix,GT,37.5869311,-122.3454551,-28.800809844732285,30.052269,0.1,93.76459,1591820047445
Fix,GT,37.5869219,-122.3451167,-28.72295527610183,29.729439,0.1,93.45172,1591820048445
Fix,GT,37.5869141,-122.3447824,-28.70234948509932,29.380938,0.1,93.17291,1591820049445
Fix,GT,37.586907,-122.3444514,-28.7500653976202,29.117353,0.1,93.21796,1591820050445
Fix,GT,37.5868989,-122.3441227,-28.8595611512661,28.999275,0.1,93.62482,1591820051445
Fix,GT,37.5868893,-122.3437944,-29.01880868637562,29.049166,0.1,93.842865,1591820052445
Fix,GT,37.5868794,-122.3434652,-29.192691533088684,29.139364,0.1,93.82733,1591820053445
Fix,GT,37.5868696,-122.343135,-29.364471196740865,29.224556,0.1,93.77118,1591820054445
Fix,GT,37.5868604,-122.3428035,-29.52511534228921,29.39033,0.1,93.513794,1591820055445
Fix,GT,37.5868523,-122.3424696,-29.670450696587565,29.634615,0.1,93.31299,1591820056445
Fix,GT,37.5868448,-122.3421327,-29.8161146299839,29.898552,0.1,93.269104,1591820057445
Fix,GT,37.5868369,-122.3417928,-29.93696044242382,30.180035,0.1,93.40985,1591820058445
Fix,GT,37.5868283,-122.3414498,-30.03920048514009,30.429337,0.1,93.55719,1591820059445
Fix,GT,37.5868185,-122.3411049,-30.15687155508995,30.502752,0.1,93.93964,1591820060445
Fix,GT,37.5868057,-122.3407604,-30.272974684476853,30.394161,0.1,94.85367,1591820061445
Fix,GT,37.5867892,-122.3404173,-30.37896831902861,30.326582,0.1,95.29767,1591820062445
Fix,GT,37.5867727,-122.3400745,-30.483084605187177,30.360115,0.1,94.90936,1591820063445
Fix,GT,37.5867582,-122.339731,-30.565706064641475,30.404991,0.1,94.529785,1591820064445
Fix,GT,37.5867454,-122.3393871,-30.600233002305032,30.449278,0.1,94.22394,1591820065445
Fix,GT,37.5867338,-122.3390422,-30.599095759868625,30.516914,0.1,94.0177,1591820066445
Fix,GT,37.5867228,-122.3386973,-30.57909580993653,30.412834,0.1,93.846924,1591820067445
Fix,GT,37.5867129,-122.3383554,-30.563103633672,29.988937,0.1,93.67813,1591820068445
Fix,GT,37.5867039,-122.3380193,-30.605527296602727,29.446064,0.1,93.51538,1591820069445
Fix,GT,37.5866956,-122.3376889,-30.72877257969976,28.994549,0.1,93.37668,1591820070445
Fix,GT,37.586688,-122.3373627,-30.89782072019577,28.70277,0.1,93.336395,1591820071445
Fix,GT,37.5866802,-122.3370378,-31.096923052847387,28.777462,0.1,93.55734,1591820072445
Fix,GT,37.5866711,-122.3367103,-31.28012828713656,29.133759,0.1,93.709625,1591820073445
Fix,GT,37.5866618,-122.3363788,-31.444894238471985,29.449759,0.1,93.66165,1591820074445
Fix,GT,37.5866529,-122.3360439,-31.60055921602249,29.74393,0.1,93.63269,1591820075445
Fix,GT,37.5866443,-122.3357057,-31.71983423256874,30.022568,0.1,93.4848,1591820076445
Fix,GT,37.5866364,-122.3353644,-31.767786455780268,30.287987,0.1,93.2887,1591820077445
Fix,GT,37.5866287,-122.3350201,-31.759864746958016,30.550531,0.1,93.35181,1591820078445
Fix,GT,37.5866198,-122.3346731,-31.720075598299506,30.758507,0.1,93.83334,1591820079445
Fix,GT,37.5866081,-122.334325,-31.701122838974,30.730461,0.1,94.57474,1591820080445
Fix,GT,37.5865913,-122.3339792,-31.729143468409774,30.436348,0.1,96.07019,1591820081445
Fix,GT,37.5865653,-122.3336378,-31.81265217116475,30.13108,0.1,98.494446,1591820082445
Fix,GT,37.5865276,-122.3333013,-31.9337428547144,29.841244,0.1,101.01892,1591820083445
Fix,GT,37.5864786,-122.3329709,-32.02449818614125,29.50108,0.1,103.52957,1591820084445
Fix,GT,37.5864184,-122.3326477,-32.08814763101935,29.04487,0.1,106.256256,1591820085445
Fix,GT,37.5863475,-122.3323348,-32.10765254080295,28.33429,0.1,109.0383,1591820086445
Fix,GT,37.5862665,-122.3320355,-32.08086455285549,27.512508,0.1,111.90509,1591820087445
Fix,GT,37.5861765,-122.3317496,-32.05220652914047,26.776928,0.1,114.73871,1591820088445
Fix,GT,37.5860779,-122.3314779,-32.03020658290386,25.928131,0.1,117.6272,1591820089445
Fix,GT,37.5859732,-122.3312214,-32.01755484712124,25.00711,0.1,119.91254,1591820090445
Fix,GT,37.5858646,-122.3309776,-32.00453578782082,24.4022,0.1,121.94943,1591820091445
Fix,GT,37.5857506,-122.330744,-31.96763194450736,23.999374,0.1,124.429474,1591820092445
Fix,GT,37.5856302,-122.3305208,-31.92809077912569,23.633568,0.1,127.12244,1591820093445
Fix,GT,37.5855035,-122.3303078,-31.90354133054614,23.338135,0.1,129.66718,1591820094445
Fix,GT,37.5853711,-122.3301043,-31.88053701284528,23.036055,0.1,132.05554,1591820095445
Fix,GT,37.5852346,-122.3299105,-31.85164585351944,22.658466,0.1,134.18225,1591820096445
Fix,GT,37.5850951,-122.3297251,-31.808736989438536,22.496777,0.1,135.87357,1591820097445
Fix,GT,37.5849512,-122.3295445,-31.74973807886243,22.724562,0.1,137.52594,1591820098445
Fix,GT,37.584801,-122.3293669,-31.684059367090462,23.022263,0.1,139.29205,1591820099445
Fix,GT,37.5846453,-122.3291923,-31.64433538532257,23.301418,0.1,140.57697,1591820100445
Fix,GT,37.5844857,-122.3290182,-31.654456451386213,23.621632,0.1,140.94458,1591820101445
Fix,GT,37.5843236,-122.3288422,-31.6863668756783,23.951038,0.1,140.97159,1591820102445
Fix,GT,37.5841593,-122.3286634,-31.75484044197201,24.285889,0.1,140.85495,1591820103445
Fix,GT,37.5839935,-122.3284812,-31.839939731389283,24.581804,0.1,140.38516,1591820104445
Fix,GT,37.5838277,-122.3282956,-31.913937652498483,24.672077,0.1,139.9403,1591820105445
Fix,GT,37.5836624,-122.3281102,-31.97191432583332,24.504549,0.1,140.16284,1591820106445
Fix,GT,37.5834974,-122.3279273,-31.99878644812107,24.33212,0.1,140.50488,1591820107445
Fix,GT,37.5833321,-122.3277463,-32.06876036196947,24.400848,0.1,140.85156,1591820108445
Fix,GT,37.5831653,-122.3275655,-32.15456776916981,24.368595,0.1,141.01566,1591820109445
Fix,GT,37.5830013,-122.327388,-32.17690706011653,23.541338,0.1,141.04846,1591820110445
Fix,GT,37.582844,-122.3272182,-32.22148650741577,22.545322,0.1,141.15808,1591820111445
Fix,GT,37.5826913,-122.3270536,-32.29527853417397,22.178535,0.1,140.98187,1591820112445
Fix,GT,37.5825417,-122.3268904,-32.346115677535536,21.718334,0.1,140.63028,1591820113445
Fix,GT,37.5823967,-122.3267314,-32.366469456046815,20.980207,0.1,140.70844,1591820114445
Fix,GT,37.5822553,-122.3265782,-32.40435858654976,20.55666,0.1,141.12323,1591820115445
Fix,GT,37.5821149,-122.3264276,-32.413091436713934,20.437403,0.1,141.28372,1591820116445
Fix,GT,37.5819753,-122.3262775,-32.411242788314816,20.363314,0.1,141.02393,1591820117445
Fix,GT,37.5818369,-122.3261267,-32.46327152121067,20.269112,0.1,140.64551,1591820118445
Fix,GT,37.5816999,-122.3259762,-32.530033474206924,20.106537,0.1,140.50739,1591820119445
Fix,GT,37.581564,-122.3258271,-32.59338098973036,19.94606,0.1,140.68793,1591820120445
Fix,GT,37.5814285,-122.3256794,-32.672387478321795,19.900312,0.1,140.84744,1591820121445
Fix,GT,37.5812926,-122.3255318,-32.71410417461395,19.987396,0.1,140.86417,1591820122445
Fix,GT,37.5811562,-122.3253836,-32.68752568465471,20.027061,0.1,140.82031,1591820123445
Fix,GT,37.5810199,-122.3252355,-32.65576901710033,19.976795,0.1,140.93625,1591820124445
Fix,GT,37.5808831,-122.325088,-32.65067040657998,20.071993,0.1,141.18738,1591820125445
Fix,GT,37.5807443,-122.3249393,-32.64509869241715,20.456709,0.1,141.34467,1591820126445
Fix,GT,37.580602,-122.3247871,-32.61219191616773,21.030771,0.1,141.24866,1591820127445
Fix,GT,37.5804565,-122.32463,-32.55651612472534,21.49984,0.1,140.90302,1591820128445
Fix,GT,37.5803095,-122.3244694,-32.48050067871809,21.715523,0.1,140.62958,1591820129445
Fix,GT,37.580162,-122.3243074,-32.396621785014865,21.773746,0.1,140.53021,1591820130445
Fix,GT,37.5800141,-122.3241449,-32.3242903574109,21.833029,0.1,140.64828,1591820131445
Fix,GT,37.579865,-122.3239828,-32.29044954705238,21.92958,0.1,140.94815,1591820132445
Fix,GT,37.5797146,-122.3238205,-32.302675727665424,22.106785,0.1,141.13019,1591820133445
Fix,GT,37.5795626,-122.3236566,-32.31856578415632,22.388454,0.1,141.07556,1591820134445
Fix,GT,37.5794089,-122.3234897,-32.333786531716584,22.71726,0.1,140.78122,1591820135445
Fix,GT,37.5792533,-122.3233198,-32.34189008259773,23.039787,0.1,140.68555,1591820136445
Fix,GT,37.5790952,-122.3231479,-32.347895428061484,23.35302,0.1,141.01971,1591820137445
Fix,GT,37.5789342,-122.322975,-32.35800436428189,23.675167,0.1,141.37372,1591820138445
Fix,GT,37.5787706,-122.3228002,-32.36255400139093,24.015707,0.1,141.2894,1591820139445
Fix,GT,37.5786054,-122.3226219,-32.35843878167868,24.288815,0.1,140.90997,1591820140445
Fix,GT,37.5784395,-122.322441,-32.35310897707939,24.480503,0.1,140.73965,1591820141445
Fix,GT,37.5782723,-122.3222585,-32.344879569053646,24.701653,0.1,140.85352,1591820142445
Fix,GT,37.5781029,-122.3220748,-32.31641891980171,24.971321,0.1,140.9812,1591820143445
Fix,GT,37.5779315,-122.3218892,-32.277314268529416,25.247046,0.1,140.99493,1591820144445
Fix,GT,37.5777583,-122.3217016,-32.23407889223099,25.503645,0.1,140.98468,1591820145445
