MessageType,Provider,LatitudeDegrees,LongitudeDegrees,AltitudeMeters,SpeedMps,AccuracyMeters,BearingDegrees,UnixTimeMillis
Fix,GT,37.4160298,-122.0809385,-26.59499961608788,4.66542e-06,0.1,180.91402,1640722631000
Fix,GT,37.4160298,-122.0809385,-26.594999517013783,0.0,0.1,180.91408,1640722632000
Fix,GT,37.4160298,-122.0809385,-26.594999678009188,0.0,0.1,180.91425,1640722633000
Fix,GT,37.4160298,-122.0809385,-26.5949998390046,0.0022322352,0.1,180.91469,1640722634000
Fix,GT,37.4160298,-122.0809385,-26.59399946749676,0.0019972685,0.099,180.9143,1640722635000
Fix,GT,37.4160298,-122.0809385,-26.59400040866528,0.0030007567,0.1,180.91441,1640722636000
Fix,GT,37.4160298,-122.0809385,-26.594000037151392,0.0031579598,0.1,180.91483,1640722637000
Fix,GT,37.4160298,-122.0809385,-26.594004599281124,0.0028299834,0.1,180.91455,1640722638000
Fix,GT,37.4160298,-122.0809385,-26.594999294097068,0.0022322375,0.099,180.91408,1640722639000
Fix,GT,37.4160297,-122.0809385,-26.59500024768524,0.0063118846,0.1,180.9139,1640722640000
Fix,GT,37.4160297,-122.0809385,-26.594999603703616,0.005824621,0.1,180.9146,1640722641000
Fix,GT,37.4160297,-122.0809385,-26.595000557291787,0.008060178,0.1,180.91444,1640722642000
Fix,GT,37.4160297,-122.0809385,-26.59500018576393,0.0072150673,0.1,180.91443,1640722643000
Fix,GT,37.4160297,-122.0809385,-26.59499981423607,0.008946553,0.1,180.91464,1640722644000
Fix,GT,37.4160297,-122.0809385,-26.595000235300976,0.01029563,0.1,180.91484,1640722645000
Fix,GT,37.4160297,-122.0809385,-26.59499959131936,0.011665946,0.1,180.91505,1640722646000
Fix,GT,37.4160297,-122.0809385,-26.5940000123838,0.015802454,0.1,180.91531,1640722647000
Fix,GT,37.4160297,-122.0809385,-26.594005348462613,0.020513156,0.1,180.91795,1640722648000
Fix,GT,37.4160289,-122.0809384,-26.59999460248463,0.35747555,0.1,180.91353,1640722649000
Fix,GT,37.4160229,-122.0809376,-26.592995024353264,0.97830844,0.1,179.23364,1640722650000
Fix,GT,37.4160113,-122.0809329,-26.57498612750508,1.6328859,0.1,171.04395,1640722651000
Fix,GT,37.415994,-122.0809232,-26.568009812039325,2.4249737,0.1,161.28632,1640722652000
Fix,GT,37.4159724,-122.0809126,-26.602060869023205,2.6080518,0.1,159.9466,1640722653000
Fix,GT,37.41595,-122.0809035,-26.65096666044928,2.6159894,0.1,161.8678,1640722654000
Fix,GT,37.4159277,-122.080894,-26.44698569147475,2.500987,0.1,161.73962,1640722655000
Fix,GT,37.4159057,-122.0808835,-26.478985840955747,2.8608196,0.1,159.7868,1640722656000
Fix,GT,37.4158803,-122.0808618,-26.468943889732472,3.743533,0.099,146.35745,1640722657000
Fix,GT,37.4158598,-122.0808214,-26.435976055916864,4.402971,0.1,122.03021,1640722658000
Fix,GT,37.415849,-122.0807716,-26.40797673615534,4.4398885,0.1,104.435394,1640722659000
Fix,GT,37.4158445,-122.0807217,-26.403977145106065,4.331755,0.1,95.87988,1640722660000
Fix,GT,37.4158424,-122.0806757,-26.38097703751177,3.6306071,0.1,93.0564,1640722661000
Fix,GT,37.4158408,-122.0806418,-26.34395887378231,2.3757215,0.1,92.68512,1640722662000
Fix,GT,37.4158399,-122.0806212,-26.291971393849703,1.2711897,0.099,92.61044,1640722663000
Fix,GT,37.4158394,-122.0806098,-26.258967426450923,1.0748507,0.1,92.4169,1640722664000
Fix,GT,37.4158401,-122.0805931,-26.226971965198405,1.891958,0.099,88.462036,1640722665000
Fix,GT,37.4158475,-122.0805675,-26.170949667207896,2.7704458,0.1,74.152374,1640722666000
Fix,GT,37.415865,-122.0805367,-26.085939244690817,3.8081644,0.1,55.64508,1640722667000
Fix,GT,37.4158972,-122.0805069,-26.031014447140507,4.8673816,0.1,34.106903,1640722668000
Fix,GT,37.4159396,-122.0804897,-26.029008640142624,4.7379785,0.1,15.931091,1640722669000
Fix,GT,37.4159768,-122.0804828,-25.9759724346688,3.5512247,0.1,7.2023926,1640722670000
Fix,GT,37.4160049,-122.0804796,-25.94489834417822,3.0484314,0.1,4.254669,1640722671000
Fix,GT,37.4160318,-122.0804769,-25.92605623889621,3.1039512,0.1,3.0188904,1640722672000
Fix,GT,37.4160644,-122.080474,-25.899032928695902,4.24337,0.1,2.9249573,1640722673000
Fix,GT,37.416108,-122.0804705,-25.88698617050238,5.476569,0.1,2.7337646,1640722674000
Fix,GT,37.4161624,-122.0804671,-25.91498682431504,6.2175784,0.1,2.3608093,1640722675000
Fix,GT,37.4162183,-122.080464,-25.92499599114805,6.094182,0.1,1.8033752,1640722676000
Fix,GT,37.4162724,-122.0804623,-25.86999561703997,5.9289937,0.1,0.5900574,1640722677000
Fix,GT,37.4163248,-122.0804617,-25.88700966838049,5.4597006,0.1,0.008361816,1640722678000
Fix,GT,37.4163696,-122.0804615,-25.93001882831007,4.37151,0.1,359.7502,1640722679000
Fix,GT,37.4164037,-122.0804614,-25.98203287341632,3.0723443,0.1,359.6536,1640722680000
Fix,GT,37.4164257,-122.0804613,-26.171111528724897,1.9176273,0.1,359.58432,1640722681000
Fix,GT,37.4164392,-122.0804612,-26.324078975868414,1.0429,0.1,359.551,1640722682000
Fix,GT,37.4164452,-122.0804611,-26.44306984955632,0.40987122,0.1,359.55127,1640722683000
Fix,GT,37.416448,-122.0804611,-26.54206045473926,0.2499949,0.1,359.5548,1640722684000
Fix,GT,37.4164507,-122.0804611,-26.636065239113755,0.44329405,0.1,359.55276,1640722685000
Fix,GT,37.4164557,-122.0804613,-26.734069475349973,0.6426019,0.1,359.62714,1640722686000
Fix,GT,37.4164631,-122.080461,-26.83005056064343,0.9251943,0.1,0.6781616,1640722687000
Fix,GT,37.4164728,-122.0804598,-26.9210735828327,1.3052578,0.099,2.9769592,1640722688000
Fix,GT,37.4164871,-122.0804546,-27.020059837515465,1.9521532,0.1,11.503265,1640722689000
Fix,GT,37.4165047,-122.0804386,-27.114999280294867,2.801926,0.1,29.936707,1640722690000
Fix,GT,37.4165216,-122.0804072,-27.15100513243675,3.9480507,0.1,53.425293,1640722691000
Fix,GT,37.416532,-122.0803555,-27.1909908618764,5.599819,0.1,76.658325,1640722692000
Fix,GT,37.4165329,-122.0802824,-27.20699972127657,7.409752,0.1,90.1702,1640722693000
Fix,GT,37.4165289,-122.0801908,-27.203004510713743,8.716954,0.1,92.937195,1640722694000
Fix,GT,37.4165237,-122.0800866,-27.1609581431523,9.70235,0.099,93.4017,1640722695000
Fix,GT,37.416517,-122.0799725,-27.1149765294604,10.541652,0.1,93.95047,1640722696000
Fix,GT,37.4165088,-122.0798496,-27.058958193644884,11.26426,0.1,94.57568,1640722697000
Fix,GT,37.4164994,-122.0797196,-27.02699016432511,11.775765,0.1,94.96289,1640722698000
Fix,GT,37.4164897,-122.0795857,-26.97099467525631,11.96346,0.1,94.729065,1640722699000
Fix,GT,37.4164806,-122.0794522,-26.969991273414344,11.735456,0.1,94.70395,1640722700000
Fix,GT,37.4164718,-122.0793216,-26.97603274260461,11.550137,0.1,94.54309,1640722701000
Fix,GT,37.416463,-122.0791909,-26.99999077373277,11.567805,0.1,94.61572,1640722702000
Fix,GT,37.4164541,-122.0790619,-27.01900913686677,11.320023,0.1,94.723724,1640722703000
Fix,GT,37.4164455,-122.0789363,-27.04399027267937,11.003669,0.1,94.72363,1640722704000
Fix,GT,37.4164372,-122.0788142,-27.06498145458196,10.699059,0.1,94.990814,1640722705000
Fix,GT,37.4164282,-122.0786972,-27.102008501559496,10.016633,0.1,95.58417,1640722706000
Fix,GT,37.4164191,-122.0785901,-27.083010001522023,9.041595,0.1,96.00571,1640722707000
Fix,GT,37.4164107,-122.0784943,-27.111009874751325,8.007871,0.1,96.41699,1640722708000
Fix,GT,37.4164025,-122.078411,-27.10994488774333,6.7921934,0.1,97.11087,1640722709000
Fix,GT,37.4163953,-122.0783432,-27.066963225685527,5.3001595,0.1,97.54181,1640722710000
Fix,GT,37.4163896,-122.0782932,-27.097036655237897,3.6350522,0.099,98.325195,1640722711000
Fix,GT,37.416385,-122.0782627,-27.14199475527089,1.9376415,0.1,100.86755,1640722712000
Fix,GT,37.4163826,-122.0782497,-27.13000846623629,0.50073504,0.1,102.49945,1640722713000
Fix,GT,37.4163825,-122.0782481,-27.12799613385508,0.07144158,0.1,102.74127,1640722714000
Fix,GT,37.416383,-122.0782488,-27.1169957427755,0.08732422,0.1,102.74066,1640722715000
Fix,GT,37.4163833,-122.0782486,-27.111999962124973,0.28557986,0.1,102.87537,1640722716000
Fix,GT,37.4163806,-122.0782393,-27.0909814107772,1.4837611,0.1,106.45633,1640722717000
Fix,GT,37.41637,-122.0782212,-27.079004608809942,2.56848,0.1,120.44885,1640722718000
Fix,GT,37.4163443,-122.0782031,-27.027009103031364,3.9719777,0.1,147.17053,1640722719000
Fix,GT,37.4163008,-122.078196,-26.9819303852208,5.907539,0.1,172.17627,1640722720000
Fix,GT,37.416239,-122.0781951,-26.908986893807537,7.813803,0.1,178.97571,1640722721000
Fix,GT,37.4161632,-122.0781975,-26.87298598124087,8.834204,0.1,181.65988,1640722722000
Fix,GT,37.4160837,-122.0782026,-26.825948752276137,8.751148,0.099,182.79044,1640722723000
Fix,GT,37.4160062,-122.0782087,-26.76599497136753,8.485872,0.1,183.18008,1640722724000
Fix,GT,37.415931,-122.0782151,-26.725963950530623,8.254568,0.1,183.32695,1640722725000
Fix,GT,37.415858,-122.0782202,-26.7009579091575,7.938158,0.1,182.52649,1640722726000
Fix,GT,37.415791,-122.0782226,-26.64197621641773,6.770223,0.1,180.73714,1640722727000
Fix,GT,37.4157378,-122.0782234,-26.62400529649481,4.911049,0.1,180.47998,1640722728000
Fix,GT,37.4157039,-122.0782238,-26.5959819034189,2.6453967,0.1,180.17078,1640722729000
Fix,GT,37.4156888,-122.078224,-26.602004799090327,0.78153205,0.1,180.15053,1640722730000
Fix,GT,37.415687,-122.0782242,-26.620000086771324,0.017550467,0.1,180.1685,1640722731000
Fix,GT,37.4156873,-122.0782244,-26.628004562370943,0.026415708,0.099,180.16788,1640722732000
Fix,GT,37.4156874,-122.0782244,-26.63400471054157,0.022823285,0.1,180.16698,1640722733000
Fix,GT,37.4156875,-122.0782245,-26.69322099042591,0.018788295,0.1,180.16733,1640722734000
Fix,GT,37.4156884,-122.0782252,-26.949000150589274,0.016155494,0.1,180.1676,1640722735000
Fix,GT,37.4156884,-122.0782252,-26.949000301178547,0.013601471,0.1,180.16797,1640722736000
Fix,GT,37.4156884,-122.0782252,-26.949000188236592,0.011401754,0.1,180.16817,1640722737000
Fix,GT,37.4156884,-122.0782252,-26.94900007529464,0.010439194,0.1,180.16858,1640722738000
Fix,GT,37.4156884,-122.0782252,-26.949000225883907,0.009055385,0.1,180.16893,1640722739000
Fix,GT,37.4156884,-122.0782252,-26.94899983686162,0.007,0.1,180.16922,1640722740000
Fix,GT,37.4156884,-122.0782252,-26.948999987450897,0.006,0.1,180.16942,1640722741000
Fix,GT,37.4156884,-122.0782252,-26.94900013804017,0.0050990195,0.1,180.16977,1640722742000
Fix,GT,37.4156884,-122.0782252,-26.94900002509821,0.0051003336,0.1,180.17021,1640722743000
Fix,GT,37.4156884,-122.0782252,-26.949000715299047,0.004472136,0.1,180.17061,1640722744000
Fix,GT,37.4156884,-122.0782252,-26.948999259602743,0.0049999994,0.099,180.1709,1640722745000
Fix,GT,37.4156884,-122.0782252,-26.948999410192016,0.00424264,0.1,180.17117,1640722746000
Fix,GT,37.4156884,-122.0782252,-26.948999836861624,0.0042426405,0.1,180.17155,1640722747000
Fix,GT,37.4156884,-122.0782252,-26.94899972391967,0.0036055513,0.1,180.1718,1640722748000
Fix,GT,37.4156884,-122.0782252,-26.94900013804017,0.0036055513,0.1,180.17226,1640722749000
Fix,GT,37.4156884,-122.0782252,-26.949,0.0036055513,0.1,-179.82738,1640722750000
Fix,GT,37.4156884,-122.0782252,-26.949000715299043,0.0031622779,0.1,180.17299,1640722751000
Fix,GT,37.4156884,-122.0782252,-26.948999259602743,0.0031643107,0.1,180.17331,1640722752000
Fix,GT,37.4156884,-122.0782252,-26.94899968627235,0.0031622776,0.099,180.17365,1640722753000
Fix,GT,37.4156884,-122.0782252,-26.94899956078129,0.0031622774,0.1,180.17403,1640722754000
Fix,GT,37.4156884,-122.0782252,-26.94899972391967,0.0036055513,0.1,180.17432,1640722755000
Fix,GT,37.4156884,-122.0782252,-26.94899987450894,0.0028284271,0.1,180.17477,1640722756000
Fix,GT,37.4156884,-122.0782252,-26.94900028862944,0.002236068,0.1,180.17513,1640722757000
Fix,GT,37.4156884,-122.0782252,-26.94900043921871,0.0028257126,0.1,180.17532,1640722758000
Fix,GT,37.4156884,-122.0782252,-26.94900060235709,0.002236068,0.1,180.1757,1640722759000
Fix,GT,37.4156884,-122.0782252,-26.94899941019202,0.002236068,0.1,180.176,1640722760000
Fix,GT,37.4156884,-122.0782252,-26.94899956078129,0.0022360678,0.099,180.17642,1640722761000
Fix,GT,37.4156884,-122.0782252,-26.948999987450893,0.002236068,0.1,180.17688,1640722762000
Fix,GT,37.4156884,-122.0782252,-26.949004717470142,0.0022323043,0.1,180.17728,1640722763000
Fix,GT,37.4156885,-122.0782252,-26.988005144317167,0.001412317,0.1,180.17749,1640722764000
Fix,GT,37.4156885,-122.0782252,-26.99100071641384,0.0014142136,0.1,180.17787,1640722765000
Fix,GT,37.4156885,-122.0782252,-26.990999522390773,0.0014142134,0.1,180.1783,1640722766000
Fix,GT,37.4156885,-122.0782252,-26.990999409272803,0.002236068,0.1,180.17863,1640722767000
Fix,GT,37.4156885,-122.0782252,-26.990999560096768,0.0014142136,0.1,180.17911,1640722768000
Fix,GT,37.4156885,-122.0782252,-26.99099944697879,0.0014142136,0.099,180.17941,1640722769000
Fix,GT,37.4156885,-122.0782252,-26.99099959780276,0.001001895,0.1,180.18004,1640722770000
Fix,GT,37.4156885,-122.0782252,-26.991,0.001,0.1,-179.81967,1640722771000
Fix,GT,37.4156885,-122.0782252,-26.99099989945069,0.001,0.1,180.18065,1640722772000
Fix,GT,37.4156885,-122.0782252,-26.991000050274657,0.001,0.1,180.18108,1640722773000
Fix,GT,37.4156885,-122.0782252,-26.991,0.001,0.1,-179.81836,1640722774000
Fix,GT,37.4156885,-122.0782252,-26.990999296154826,0.0014142134,0.1,180.18199,1640722775000
Fix,GT,37.4156885,-122.0782252,-26.99100077925716,0.0014142136,0.1,180.18217,1640722776000
Fix,GT,37.4156885,-122.0782252,-26.991000666139183,0.0014142136,0.1,180.18275,1640722777000
Fix,GT,37.4156885,-122.0782252,-26.990999748626724,0.0014142136,0.1,180.18309,1640722778000
Fix,GT,37.4156885,-122.0782252,-26.99099989945069,0.0014179687,0.099,180.18352,1640722779000
Fix,GT,37.4156885,-122.0782252,-26.99099950982211,0.0014142136,0.1,180.18399,1640722780000
Fix,GT,37.4156885,-122.0782252,-26.99099993715668,0.0014142136,0.1,180.1845,1640722781000
Fix,GT,37.4156885,-122.0782252,-26.990999824038703,0.0014142136,0.1,180.185,1640722782000
Fix,GT,37.4156885,-122.0782252,-26.990999974862675,0.002236068,0.1,180.18535,1640722783000
Fix,GT,37.4156885,-122.0782252,-26.99100012568664,0.002,0.1,180.18597,1640722784000
Fix,GT,37.4156885,-122.0782252,-26.99100055302121,0.002,0.1,180.18634,1640722785000
Fix,GT,37.4156885,-122.0782252,-26.99100070384517,0.003,0.1,180.18675,1640722786000
Fix,GT,37.4156885,-122.0782252,-26.99099924588017,0.0041231057,0.099,180.18713,1640722787000
Fix,GT,37.4156885,-122.0782252,-26.990999396704137,0.004472136,0.1,180.18773,1640722788000
Fix,GT,37.4156885,-122.0782252,-26.9909995475281,0.0053871986,0.1,180.18842,1640722789000
Fix,GT,37.4156885,-122.0782252,-26.99099969835207,0.0072111026,0.1,180.18886,1640722790000
Fix,GT,37.415688,-122.0782252,-26.995991003209724,0.29837102,0.1,180.19005,1640722791000
Fix,GT,37.4156773,-122.0782252,-27.003982298273595,2.4701884,0.1,180.26965,1640722792000
Fix,GT,37.4156444,-122.0782254,-26.96800526320562,4.890389,0.1,180.34474,1640722793000
Fix,GT,37.4155886,-122.0782261,-26.93797671418497,7.475693,0.1,180.56061,1640722794000
Fix,GT,37.4155087,-122.0782276,-26.90105892448593,10.143812,0.099,180.71317,1640722795000
Fix,GT,37.4154068,-122.0782291,-26.88599525418365,12.390288,0.1,180.41531,1640722796000
Fix,GT,37.4152882,-122.0782299,-26.75189541695034,13.960055,0.1,180.21852,1640722797000
Fix,GT,37.4151567,-122.0782311,-26.62289129529288,15.007468,0.1,180.3824,1640722798000
Fix,GT,37.4150221,-122.0782325,-26.45690029600309,14.804113,0.1,180.28642,1640722799000
Fix,GT,37.4148902,-122.0782319,-26.26591282285517,14.442241,0.1,179.69318,1640722800000
Fix,GT,37.4147612,-122.0782315,-26.08693120438978,14.152815,0.1,179.71796,1640722801000
Fix,GT,37.4146355,-122.0782307,-25.89898627724871,13.742758,0.1,179.66437,1640722802000
Fix,GT,37.4145141,-122.0782303,-25.71689990682574,13.208764,0.1,179.74731,1640722803000
Fix,GT,37.4143975,-122.0782301,-25.529877298927403,12.629719,0.1,179.71045,1640722804000
Fix,GT,37.4142886,-122.0782294,-25.362918426528108,11.442531,0.1,179.54468,1640722805000
Fix,GT,37.414193,-122.0782286,-25.22495498959208,9.782306,0.1,179.79956,1640722806000
Fix,GT,37.4141124,-122.0782287,-25.108927583296783,8.07522,0.1,179.95673,1640722807000
Fix,GT,37.4140482,-122.0782287,-24.986931292315944,6.066963,0.1,179.95514,1640722808000
Fix,GT,37.4140048,-122.0782287,-24.873963290383102,3.5568485,0.1,180.11542,1640722809000
Fix,GT,37.4139829,-122.0782287,-24.82697253282601,1.5113212,0.1,180.13371,1640722810000
Fix,GT,37.4139753,-122.0782287,-24.801999965352007,0.2846726,0.1,180.11096,1640722811000
Fix,GT,37.4139749,-122.0782286,-24.802000103943985,0.009047312,0.1,180.09933,1640722812000
Fix,GT,37.413975,-122.0782286,-24.79800049654115,0.0070090946,0.1,180.10107,1640722813000
Fix,GT,37.4139751,-122.0782286,-24.79600063505956,0.005995904,0.1,180.09981,1640722814000
Fix,GT,37.4139751,-122.0782286,-24.79799954964872,0.0049999994,0.1,180.10045,1640722815000
Fix,GT,37.4139751,-122.0782286,-24.80100018478185,0.004,0.1,180.10085,1640722816000
Fix,GT,37.4139751,-122.0782286,-24.80100008084206,0.0031615403,0.1,180.10127,1640722817000
Fix,GT,37.4139751,-122.0782286,-24.801000461954622,0.0031569966,0.1,180.10126,1640722818000
Fix,GT,37.4139751,-122.0782286,-24.80100035801483,0.0022360682,0.1,180.10167,1640722819000
Fix,GT,37.4139751,-122.0782286,-24.800999514947645,0.0022323346,0.1,180.10187,1640722820000
Fix,GT,37.4139751,-122.0782286,-24.80099965353403,0.0022387586,0.1,180.10193,1640722821000
Fix,GT,37.4139751,-122.0782285,-24.80099979212041,0.002236068,0.1,180.10219,1640722822000
Fix,GT,37.4139751,-122.0782285,-24.801000427308026,0.0028257375,0.1,180.10248,1640722823000
Fix,GT,37.4139751,-122.0782285,-24.801000069293192,0.0028284271,0.1,180.1026,1640722824000
Fix,GT,37.4139751,-122.0782285,-24.800999722827225,0.0014179441,0.1,180.10263,1640722825000
Fix,GT,37.4139751,-122.0782285,-24.799999607354405,0.002236068,0.1,180.10281,1640722826000
Fix,GT,37.4139751,-122.0782285,-24.80099950339877,0.0031622774,0.099,180.10313,1640722827000
Fix,GT,37.4139752,-122.0782286,-24.803999896047635,0.0030045374,0.1,180.10316,1640722828000
Fix,GT,37.4139752,-122.0782286,-24.804000034650787,0.0041231057,0.1,180.1034,1640722829000
Fix,GT,37.4139752,-122.0782287,-24.80400041580945,0.004472136,0.1,180.10359,1640722830000
Fix,GT,37.4139752,-122.0782287,-24.8040005544126,0.00582893,0.1,180.10374,1640722831000
Fix,GT,37.4139752,-122.0782287,-24.80299946870934,0.007631937,0.099,180.10355,1640722832000
Fix,GT,37.4139743,-122.0782286,-24.80699936465872,0.42053664,0.1,180.09624,1640722833000
Fix,GT,37.4139631,-122.0782286,-24.79198161241785,2.1478288,0.1,179.98218,1640722834000
Fix,GT,37.4139353,-122.0782285,-24.73898629806936,4.04884,0.1,179.94647,1640722835000
Fix,GT,37.4138908,-122.0782284,-24.64600933966041,6.014517,0.1,179.92993,1640722836000
Fix,GT,37.4138253,-122.0782281,-24.548927908176555,8.443072,0.1,179.82965,1640722837000
Fix,GT,37.4137394,-122.0782282,-24.444837437234817,10.486667,0.1,179.89124,1640722838000
Fix,GT,37.4136387,-122.0782283,-24.163882902220827,11.9387455,0.1,179.97162,1640722839000
Fix,GT,37.4135239,-122.0782285,-23.806813912758603,13.491699,0.099,180.1316,1640722840000
Fix,GT,37.4133961,-122.0782292,-23.241659870108126,14.824579,0.1,180.10342,1640722841000
Fix,GT,37.4132577,-122.0782294,-22.388583299520427,15.764268,0.1,179.99951,1640722842000
Fix,GT,37.4131143,-122.0782298,-21.410565383170265,16.028019,0.1,180.04724,1640722843000
Fix,GT,37.4129701,-122.0782294,-20.31152934218198,15.935016,0.1,179.83301,1640722844000
Fix,GT,37.412827,-122.0782291,-19.18646594601171,15.8560505,0.1,179.8269,1640722845000
Fix,GT,37.4126842,-122.0782289,-18.10641633967776,15.828971,0.1,179.96185,1640722846000
Fix,GT,37.4125413,-122.0782292,-17.042593157452995,15.9361,0.1,180.20949,1640722847000
Fix,GT,37.4123971,-122.0782301,-16.130670040847733,16.073532,0.1,180.46135,1640722848000
Fix,GT,37.4122518,-122.0782325,-15.412688255026936,16.054323,0.1,180.88718,1640722849000
Fix,GT,37.4121095,-122.0782358,-14.873805081143043,15.508995,0.1,181.16942,1640722850000
Fix,GT,37.4119706,-122.0782387,-14.480877559119836,15.539136,0.099,180.96799,1640722851000
Fix,GT,37.4118308,-122.0782411,-14.283954530144111,15.363965,0.1,180.78769,1640722852000
Fix,GT,37.4116939,-122.0782427,-14.243017772476652,15.027211,0.099,180.53894,1640722853000
Fix,GT,37.4115599,-122.078244,-14.38411263466254,14.696308,0.1,180.63388,1640722854000
Fix,GT,37.4114305,-122.0782455,-14.676226410204546,13.893825,0.1,180.84236,1640722855000
Fix,GT,37.4113125,-122.0782518,-15.02017661442561,12.3542595,0.1,184.42004,1640722856000
Fix,GT,37.4112078,-122.0782731,-15.459293402818965,11.330073,0.1,193.23444,1640722857000
Fix,GT,37.4111152,-122.0783162,-16.088252778433265,10.865773,0.099,205.43202,1640722858000
Fix,GT,37.4110357,-122.0783854,-16.907428653080014,10.830045,0.1,219.75671,1640722859000
Fix,GT,37.4109741,-122.0784789,-17.751429550462404,10.828203,0.1,236.63037,1640722860000
Fix,GT,37.4109397,-122.0785935,-18.833433945551977,11.124303,0.1,256.40982,1640722861000
Fix,GT,37.4109401,-122.0787193,-19.89554218618199,11.429867,0.1,277.15585,1640722862000
Fix,GT,37.4109726,-122.0788423,-20.842343605156987,11.689546,0.1,293.61685,1640722863000
Fix,GT,37.4110311,-122.0789515,-21.511275773754345,11.779359,0.1,308.966,1640722864000
Fix,GT,37.4111105,-122.0790412,-22.028189020160585,12.146576,0.1,322.5157,1640722865000
Fix,GT,37.4112079,-122.0791059,-22.332080591012726,12.351381,0.1,337.05344,1640722866000
Fix,GT,37.4113149,-122.0791397,-22.6091803995003,12.242276,0.099,350.653,1640722867000
Fix,GT,37.4114235,-122.0791362,-22.92813111278368,12.066492,0.1,7.739044,1640722868000
Fix,GT,37.4115238,-122.0790904,-23.24003580270708,11.822975,0.1,26.709259,1640722869000
Fix,GT,37.4116056,-122.079009,-23.267067507053724,11.684657,0.1,43.841522,1640722870000
Fix,GT,37.4116675,-122.0789012,-23.445022535133177,11.921139,0.1,58.770416,1640722871000
Fix,GT,37.4117057,-122.0787771,-23.4409554933249,11.837521,0.1,73.93201,1640722872000
Fix,GT,37.4117162,-122.078644,-23.338959907453507,12.033059,0.1,89.46002,1640722873000
Fix,GT,37.4116985,-122.0785083,-23.25694109194167,12.491854,0.1,103.93002,1640722874000
Fix,GT,37.4116555,-122.0783729,-23.11895879502222,13.51569,0.099,114.20026,1640722875000
Fix,GT,37.4115998,-122.0782293,-23.073967942886057,14.750628,0.1,115.79562,1640722876000
Fix,GT,37.4115356,-122.0780754,-23.023946462469176,16.042364,0.1,117.76752,1640722877000
Fix,GT,37.4114627,-122.0779107,-22.93994186775014,17.292284,0.1,119.41312,1640722878000
Fix,GT,37.4113793,-122.077738,-22.85194628283754,18.447607,0.1,121.86896,1640722879000
Fix,GT,37.4112865,-122.0775591,-22.652977030258626,19.35267,0.1,122.71954,1640722880000
Fix,GT,37.4111917,-122.0773707,-22.522869770421647,20.053196,0.1,121.26434,1640722881000
Fix,GT,37.4110976,-122.0771731,-22.33988341717515,20.645916,0.1,120.1149,1640722882000
Fix,GT,37.4110035,-122.076968,-22.146987094223498,21.197998,0.1,119.183044,1640722883000
Fix,GT,37.4109093,-122.0767559,-21.97596448600292,21.74488,0.1,118.510254,1640722884000
Fix,GT,37.4108156,-122.0765367,-21.810910609396178,22.260794,0.1,117.43216,1640722885000
Fix,GT,37.4107225,-122.0763114,-21.37573849021923,22.640446,0.1,116.89502,1640722886000
Fix,GT,37.4106286,-122.0760825,-20.737581205640453,22.904718,0.099,116.951996,1640722887000
Fix,GT,37.4105343,-122.0758512,-19.80859018948768,23.076248,0.1,116.64557,1640722888000
Fix,GT,37.4104405,-122.075618,-18.788540724783207,23.168415,0.1,116.44623,1640722889000
Fix,GT,37.4103462,-122.0753843,-17.61649145933986,23.180405,0.1,116.77484,1640722890000
Fix,GT,37.4102503,-122.0751517,-16.443514299750326,23.193989,0.1,117.21762,1640722891000
Fix,GT,37.4101537,-122.0749202,-15.42359057920659,22.942171,0.099,117.66113,1640722892000
Fix,GT,37.4100561,-122.0746954,-14.49563119260501,22.39567,0.1,118.88278,1640722893000
Fix,GT,37.4099576,-122.074478,-13.660622347616124,21.900862,0.1,119.81256,1640722894000
Fix,GT,37.4098603,-122.0742655,-12.92768063997943,21.448286,0.1,119.38919,1640722895000
Fix,GT,37.40977,-122.0740541,-12.329676282978618,21.070211,0.1,116.92944,1640722896000
Fix,GT,37.4096887,-122.0738386,-11.83385206830129,21.142426,0.1,113.86212,1640722897000
Fix,GT,37.4096174,-122.0736157,-11.507982280626893,21.389872,0.1,110.35416,1640722898000
Fix,GT,37.4095546,-122.0733855,-11.32194630535226,21.681429,0.1,107.43494,1640722899000
Fix,GT,37.4094979,-122.0731493,-11.269955019978807,21.958809,0.1,106.10864,1640722900000
Fix,GT,37.4094413,-122.0729126,-11.344040273166726,21.755198,0.099,107.13861,1640722901000
Fix,GT,37.409378,-122.0726819,-11.524080616125836,21.479528,0.1,110.22656,1640722902000
Fix,GT,37.409303,-122.0724578,-11.75312152457051,21.619768,0.1,114.617676,1640722903000
Fix,GT,37.409215,-122.0722379,-12.063165863366798,21.988525,0.1,117.76001,1640722904000
Fix,GT,37.4091193,-122.0720178,-12.467237442053856,22.44492,0.1,118.91501,1640722905000
Fix,GT,37.4090195,-122.0717937,-13.098296434884892,23.012413,0.1,119.03647,1640722906000
Fix,GT,37.4089178,-122.0715645,-13.8583546585734,23.365723,0.1,119.024994,1640722907000
Fix,GT,37.4088154,-122.0713336,-14.662336774168535,23.385695,0.1,118.83264,1640722908000
Fix,GT,37.4087142,-122.0711024,-15.476363428391982,23.310133,0.1,118.772125,1640722909000
Fix,GT,37.4086139,-122.0708715,-16.319408145598135,23.21548,0.1,118.32599,1640722910000
Fix,GT,37.4085153,-122.0706407,-17.12633146772534,23.161919,0.1,117.886475,1640722911000
Fix,GT,37.4084214,-122.0704059,-17.765206709712743,23.39372,0.1,114.87753,1640722912000
Fix,GT,37.4083401,-122.0701599,-18.305264878498388,23.730497,0.1,110.70459,1640722913000
Fix,GT,37.4082692,-122.0699048,-18.74522370358696,24.106306,0.1,108.10812,1640722914000
Fix,GT,37.408203,-122.0696429,-19.130981642600617,24.516153,0.1,107.323975,1640722915000
Fix,GT,37.4081365,-122.0693767,-19.15793695593998,24.873102,0.1,107.26782,1640722916000
Fix,GT,37.4080692,-122.0691069,-19.06994679488708,25.159975,0.1,107.23349,1640722917000
Fix,GT,37.4080014,-122.0688349,-18.90488830834628,25.246227,0.1,107.31958,1640722918000
Fix,GT,37.4079335,-122.0685629,-18.885991414207965,25.24487,0.1,107.25961,1640722919000
Fix,GT,37.4078678,-122.0682895,-18.901977712271268,25.318699,0.1,105.91443,1640722920000
Fix,GT,37.4078089,-122.0680128,-18.91101754386956,25.303669,0.1,104.25452,1640722921000
Fix,GT,37.4077547,-122.0677368,-18.982045250594613,25.071548,0.1,103.33212,1640722922000
Fix,GT,37.4077016,-122.0674608,-19.103026315728204,25.221281,0.1,103.899414,1640722923000
Fix,GT,37.4076456,-122.0671834,-19.23507659071498,25.452171,0.1,104.47797,1640722924000
Fix,GT,37.4075865,-122.0669043,-19.431000253351407,25.662794,0.1,104.94513,1640722925000
Fix,GT,37.4075259,-122.0666239,-19.40696438834304,25.774326,0.1,105.172455,1640722926000
Fix,GT,37.4074643,-122.0663428,-19.38004014195688,25.843416,0.1,105.33426,1640722927000
Fix,GT,37.4074027,-122.0660609,-19.358986197626223,25.916811,0.1,105.11743,1640722928000
Fix,GT,37.4073409,-122.0657783,-19.292856463385743,25.963568,0.099,105.213776,1640722929000
Fix,GT,37.4072795,-122.065495,-19.14595027437713,26.031666,0.1,105.08423,1640722930000
Fix,GT,37.4072184,-122.0652106,-19.107905693301,26.103003,0.1,105.0293,1640722931000
Fix,GT,37.4071567,-122.0649259,-19.06896372449817,26.147089,0.099,105.184326,1640722932000
Fix,GT,37.4070942,-122.0646404,-19.060915439968927,26.292072,0.1,105.285645,1640722933000
Fix,GT,37.4070308,-122.0643532,-19.03491964507057,26.453873,0.1,105.445404,1640722934000
Fix,GT,37.4069674,-122.0640642,-18.98999570989795,26.625626,0.1,105.239655,1640722935000
Fix,GT,37.4069043,-122.0637739,-18.98897310499241,26.6239,0.1,105.123474,1640722936000
Fix,GT,37.4068416,-122.0634837,-18.98306233318476,26.600609,0.1,105.004974,1640722937000
Fix,GT,37.4067792,-122.0631933,-19.02302633798914,26.657787,0.1,105.038574,1640722938000
Fix,GT,37.4067166,-122.0629022,-19.073045051452706,26.734863,0.1,104.9884,1640722939000
Fix,GT,37.4066535,-122.0626104,-19.092035842316225,26.801579,0.1,105.24277,1640722940000
Fix,GT,37.4065896,-122.0623182,-19.0940045163082,26.85744,0.1,105.27887,1640722941000
Fix,GT,37.4065257,-122.0620253,-19.13200442666374,26.911892,0.1,105.1022,1640722942000
Fix,GT,37.4064618,-122.0617318,-19.13803111562645,26.966066,0.1,105.30554,1640722943000
Fix,GT,37.4063969,-122.0614378,-19.17300426456146,27.027891,0.1,105.35947,1640722944000
Fix,GT,37.406332,-122.0611433,-19.17099971432984,27.077934,0.1,105.45914,1640722945000
Fix,GT,37.4062666,-122.0608483,-19.152013771327216,27.14433,0.1,105.33594,1640722946000
Fix,GT,37.4062022,-122.0605522,-19.1259822799014,27.191528,0.1,105.02844,1640722947000
Fix,GT,37.4061385,-122.0602552,-19.0689775486663,27.259277,0.1,104.86627,1640722948000
Fix,GT,37.4060747,-122.0599574,-19.06604433668592,27.338621,0.1,105.04126,1640722949000
Fix,GT,37.40601,-122.0596592,-19.0519861145271,27.379122,0.099,105.13208,1640722950000
Fix,GT,37.4059449,-122.0593606,-19.034973421809266,27.428043,0.1,105.330505,1640722951000
Fix,GT,37.4058793,-122.0590617,-18.996990973759907,27.464054,0.1,105.18005,1640722952000
Fix,GT,37.405814,-122.0587621,-19.03099515512213,27.535255,0.1,105.27161,1640722953000
Fix,GT,37.405748,-122.0584621,-19.032990621684583,27.576273,0.099,105.29587,1640722954000
Fix,GT,37.4056819,-122.0581616,-19.06300929782353,27.613304,0.1,105.39746,1640722955000
Fix,GT,37.4056151,-122.0578608,-19.09299102299288,27.65768,0.1,105.42944,1640722956000
Fix,GT,37.4055488,-122.0575596,-19.081999840056525,27.690649,0.1,105.25333,1640722957000
Fix,GT,37.4054828,-122.0572576,-19.118991613172927,27.767096,0.1,105.158264,1640722958000
Fix,GT,37.4054172,-122.0569546,-19.11700488714036,27.833841,0.1,105.22882,1640722959000
Fix,GT,37.4053508,-122.0566511,-19.13900442352332,27.889332,0.1,105.34448,1640722960000
Fix,GT,37.4052834,-122.0563472,-19.18499079707357,27.950596,0.1,105.61688,1640722961000
Fix,GT,37.4052139,-122.0560437,-19.17396846463345,27.980652,0.1,106.34961,1640722962000
Fix,GT,37.405141,-122.055741,-19.179040516611185,28.011986,0.1,107.137054,1640722963000
Fix,GT,37.4050651,-122.0554391,-19.20197720756848,28.034805,0.1,107.682465,1640722964000
Fix,GT,37.4049869,-122.055138,-19.078946947671938,28.012192,0.1,108.20355,1640722965000
Fix,GT,37.4049068,-122.0548394,-18.99399057683349,27.75717,0.1,108.86038,1640722966000
Fix,GT,37.4048246,-122.0545442,-19.06395085049607,27.597454,0.1,109.45148,1640722967000
Fix,GT,37.4047421,-122.0542507,-18.70578669123817,27.527426,0.1,109.26373,1640722968000
Fix,GT,37.4046597,-122.0539572,-18.12768461025925,27.573442,0.1,109.25348,1640722969000
Fix,GT,37.4045774,-122.053663,-17.346590743072795,27.655764,0.1,109.20093,1640722970000
Fix,GT,37.4044947,-122.0533676,-16.347511433450507,27.778095,0.1,109.22931,1640722971000
Fix,GT,37.4044117,-122.053071,-15.264560147773476,27.859156,0.1,109.25885,1640722972000
Fix,GT,37.404329,-122.0527728,-14.253573476707562,28.063313,0.1,108.907745,1640722973000
Fix,GT,37.404247,-122.0524711,-13.459671722961591,28.385723,0.1,108.594086,1640722974000
Fix,GT,37.4041654,-122.0521654,-12.875769385125489,28.69471,0.1,108.18686,1640722975000
Fix,GT,37.4040851,-122.0518556,-12.42385789260268,28.926355,0.1,107.685455,1640722976000
Fix,GT,37.4040062,-122.0515441,-11.995999787729234,28.964062,0.099,107.40222,1640722977000
Fix,GT,37.4039291,-122.0512313,-11.933040270478465,28.984694,0.1,106.83963,1640722978000
Fix,GT,37.4038542,-122.0509175,-12.070221903212367,29.041567,0.1,106.38742,1640722979000
Fix,GT,37.4037805,-122.0506022,-12.440137271537443,29.160479,0.1,105.95706,1640722980000
Fix,GT,37.4037089,-122.0502843,-12.927261906361206,29.312683,0.1,105.42981,1640722981000
Fix,GT,37.4036386,-122.0499647,-13.73740375302173,29.413176,0.1,105.16031,1640722982000
Fix,GT,37.4035689,-122.0496436,-14.64342551203072,29.501923,0.099,105.18939,1640722983000
Fix,GT,37.4034985,-122.0493219,-15.61146129590366,29.566177,0.1,105.16614,1640722984000
Fix,GT,37.4034281,-122.0489995,-16.713509770706295,29.631727,0.1,105.30139,1640722985000
Fix,GT,37.4033573,-122.0486764,-17.809442759111057,29.686756,0.1,105.10333,1640722986000
Fix,GT,37.4032866,-122.0483529,-18.714279537184627,29.713242,0.1,105.28769,1640722987000
Fix,GT,37.4032154,-122.0480295,-19.35117267651856,29.671207,0.1,105.31189,1640722988000
Fix,GT,37.4031442,-122.0477073,-19.7040935935434,29.513474,0.1,105.34943,1640722989000
Fix,GT,37.403074,-122.0473871,-19.83899604119081,29.289955,0.1,105.1976,1640722990000
Fix,GT,37.4030047,-122.0470689,-19.80892488655448,29.121279,0.1,105.10574,1640722991000
Fix,GT,37.4029357,-122.0467522,-19.726031101453582,29.041927,0.1,105.24884,1640722992000
Fix,GT,37.4028664,-122.0464362,-19.68696419136692,28.99475,0.1,105.29907,1640722993000
Fix,GT,37.4027966,-122.0461208,-19.661973939891904,28.95285,0.1,105.36017,1640722994000
Fix,GT,37.4027277,-122.0458057,-19.60897346779378,28.9085,0.1,105.15811,1640722995000
Fix,GT,37.4026596,-122.0454918,-19.5669951276118,28.64705,0.099,104.97272,1640722996000
Fix,GT,37.4025927,-122.0451815,-19.52596945969016,28.277416,0.1,104.976166,1640722997000
Fix,GT,37.4025268,-122.0448752,-19.502013818679377,27.910011,0.1,105.09808,1640722998000
Fix,GT,37.4024611,-122.044573,-19.505000263398976,27.537188,0.1,105.084564,1640722999000
Fix,GT,37.4023962,-122.044275,-19.500013641956727,27.173506,0.1,105.23605,1640723000000
Fix,GT,37.4023318,-122.0439811,-19.513048929838465,26.812723,0.1,105.17163,1640723001000
Fix,GT,37.4022686,-122.0436909,-19.51998731616139,26.454819,0.1,105.15741,1640723002000
Fix,GT,37.4022058,-122.0434046,-19.53802240618645,26.1205,0.1,105.21445,1640723003000
Fix,GT,37.4021438,-122.0431219,-19.55601770029217,25.795715,0.1,105.26419,1640723004000
Fix,GT,37.4020826,-122.0428427,-19.59704029862862,25.482372,0.1,105.210175,1640723005000
Fix,GT,37.4020224,-122.0425668,-19.64902635929408,25.173286,0.1,105.10391,1640723006000
Fix,GT,37.401963,-122.0422941,-19.719048162415625,24.884235,0.1,105.19574,1640723007000
Fix,GT,37.4019039,-122.0420246,-19.79801330865454,24.634386,0.1,105.26163,1640723008000
Fix,GT,37.4018451,-122.0417571,-19.853034911540338,24.524525,0.1,105.3161,1640723009000
Fix,GT,37.4017864,-122.0414902,-19.94803098918125,24.504251,0.1,105.2204,1640723010000
Fix,GT,37.4017281,-122.0412234,-20.019074657239017,24.48237,0.1,105.10361,1640723011000
Fix,GT,37.4016702,-122.0409568,-20.076987250321544,24.45359,0.1,105.20181,1640723012000
Fix,GT,37.4016118,-122.0406905,-20.067986766204704,24.45003,0.1,105.29428,1640723013000
Fix,GT,37.4015539,-122.0404255,-20.05000413361472,24.19767,0.099,105.08829,1640723014000
Fix,GT,37.4014972,-122.0401634,-20.007973950399084,23.851816,0.1,105.05606,1640723015000
Fix,GT,37.4014409,-122.0399056,-19.980951798889787,23.460691,0.1,105.23743,1640723016000
Fix,GT,37.4013854,-122.0396519,-19.9539605454891,23.160328,0.1,105.23999,1640723017000
Fix,GT,37.4013303,-122.0394001,-19.912008590254,23.100906,0.1,105.19818,1640723018000
Fix,GT,37.4012758,-122.0391484,-19.884964392953087,23.073395,0.1,104.98755,1640723019000
Fix,GT,37.4012213,-122.0388972,-19.84204447572492,23.065096,0.1,105.11536,1640723020000
Fix,GT,37.4011667,-122.0386463,-19.82997804724145,22.962036,0.1,105.226776,1640723021000
Fix,GT,37.4011123,-122.038397,-19.81199079584144,22.805065,0.1,105.17551,1640723022000
Fix,GT,37.4010583,-122.03815,-19.813991498384624,22.536446,0.1,105.313324,1640723023000
Fix,GT,37.4010046,-122.0379065,-19.812021859610923,22.221588,0.1,105.37143,1640723024000
Fix,GT,37.4009513,-122.037666,-19.882048997020814,22.035492,0.1,105.45096,1640723025000
Fix,GT,37.400898,-122.0374264,-19.937991235181688,22.029125,0.1,105.589966,1640723026000
Fix,GT,37.4008438,-122.0371881,-20.00504019398708,21.84392,0.1,106.28406,1640723027000
Fix,GT,37.4007861,-122.0369538,-20.083092152163385,21.57686,0.1,107.68347,1640723028000
Fix,GT,37.4007265,-122.0367237,-20.20105782009568,21.30044,0.1,107.91904,1640723029000
Fix,GT,37.4006684,-122.0364963,-20.32503110416605,21.028236,0.1,107.40326,1640723030000
Fix,GT,37.4006142,-122.0362711,-20.44502620381024,20.53954,0.1,106.11539,1640723031000
Fix,GT,37.4005655,-122.0360541,-20.51504872241616,19.284002,0.1,105.27661,1640723032000
Fix,GT,37.4005218,-122.0358532,-20.58903020172752,17.525,0.099,105.389404,1640723033000
Fix,GT,37.4004786,-122.0356748,-20.66506591534242,15.475395,0.1,108.89407,1640723034000
Fix,GT,37.4004267,-122.0355221,-20.82008739760146,14.173836,0.099,116.35388,1640723035000
Fix,GT,37.4003603,-122.0353885,-20.95115012471844,13.816446,0.1,125.938416,1640723036000
Fix,GT,37.4002745,-122.0352799,-20.94395606766548,13.431812,0.1,141.22794,1640723037000
Fix,GT,37.4001696,-122.0352101,-20.832946774887382,13.147202,0.1,158.6535,1640723038000
Fix,GT,37.4000542,-122.0351852,-20.698868579139003,13.075126,0.1,177.4389,1640723039000
Fix,GT,37.3999386,-122.0352081,-20.626965013780165,13.09423,0.1,195.37491,1640723040000
Fix,GT,37.3998331,-122.0352709,-20.45595614095591,13.03854,0.1,211.32823,1640723041000
Fix,GT,37.3997418,-122.0353623,-20.31899561469164,12.9562235,0.1,222.05695,1640723042000
Fix,GT,37.3996629,-122.0354678,-20.223982338802887,12.794752,0.099,229.92891,1640723043000
Fix,GT,37.3995943,-122.0355858,-20.09994711012393,13.143687,0.1,236.51123,1640723044000
Fix,GT,37.3995359,-122.0357161,-19.893902904912828,13.426524,0.1,243.58693,1640723045000
Fix,GT,37.3994904,-122.0358566,-19.56481138568651,13.537811,0.1,251.06155,1640723046000
Fix,GT,37.399461,-122.0360041,-19.123815337720327,13.503,0.1,259.3595,1640723047000
Fix,GT,37.3994502,-122.0361544,-18.658802669121883,13.279022,0.1,269.2045,1640723048000
Fix,GT,37.3994668,-122.0362983,-18.144776275407523,12.630203,0.1,285.02515,1640723049000
Fix,GT,37.3995128,-122.0364226,-17.596771661056675,11.835931,0.1,300.97116,1640723050000
Fix,GT,37.3995796,-122.0365212,-17.081864298122007,11.321861,0.1,315.9652,1640723051000
Fix,GT,37.3996635,-122.0365927,-16.608789633692243,11.44137,0.1,331.38004,1640723052000
Fix,GT,37.3997608,-122.0366341,-16.148828754873946,11.454038,0.1,347.017,1640723053000
Fix,GT,37.3998627,-122.0366403,-15.77189059590362,11.354599,0.1,2.7388916,1640723054000
Fix,GT,37.3999615,-122.0366114,-15.457921403087676,11.3725815,0.1,18.608734,1640723055000
Fix,GT,37.4000508,-122.0365482,-15.164894573853816,11.6015415,0.1,34.80194,1640723056000
Fix,GT,37.4001283,-122.0364549,-14.9338556588958,12.408295,0.1,47.88336,1640723057000
Fix,GT,37.4001981,-122.0363387,-14.570877233312466,13.351955,0.1,53.98047,1640723058000
Fix,GT,37.4002691,-122.03621,-14.322850745327305,14.380955,0.1,55.10199,1640723059000
Fix,GT,37.400343,-122.0360676,-14.04789509673044,15.74062,0.1,57.809143,1640723060000
Fix,GT,37.4004181,-122.0359077,-13.856969267855398,17.12806,0.1,60.02362,1640723061000
Fix,GT,37.4004954,-122.0357309,-13.746995362602174,18.612803,0.1,61.37491,1640723062000
Fix,GT,37.4005777,-122.0355382,-13.728982841724996,20.09125,0.1,61.169403,1640723063000
Fix,GT,37.4006689,-122.0353326,-13.815056830374523,21.507484,0.1,60.212067,1640723064000
Fix,GT,37.400767,-122.0351163,-13.96005224619247,22.568577,0.099,60.033783,1640723065000
Fix,GT,37.4008665,-122.0348884,-14.214192991109565,23.433323,0.1,61.98358,1640723066000
Fix,GT,37.4009619,-122.034648,-14.62028484100476,24.145952,0.1,64.258606,1640723067000
Fix,GT,37.4010536,-122.0343974,-15.149297571742906,24.600985,0.1,65.66156,1640723068000
Fix,GT,37.4011428,-122.0341417,-15.78736732079601,24.828587,0.099,66.547424,1640723069000
Fix,GT,37.4012294,-122.0338816,-16.611372211005538,25.099874,0.1,67.50232,1640723070000
Fix,GT,37.4013147,-122.0336172,-17.501441747439095,25.40514,0.1,67.927704,1640723071000
Fix,GT,37.4013993,-122.0333485,-18.50136303315684,25.761843,0.1,68.61377,1640723072000
Fix,GT,37.4014816,-122.0330743,-19.363323139593472,26.114191,0.1,69.54248,1640723073000
Fix,GT,37.4015614,-122.0327952,-20.02424963072222,26.363716,0.1,70.43582,1640723074000
Fix,GT,37.4016386,-122.0325128,-20.45815727987699,26.48868,0.1,71.17206,1640723075000
Fix,GT,37.4017135,-122.0322278,-20.67407928163,26.684887,0.1,71.8963,1640723076000
Fix,GT,37.4017861,-122.0319392,-20.84410957218241,26.938171,0.1,72.48642,1640723077000
Fix,GT,37.4018581,-122.0316472,-21.02109178197384,27.181002,0.1,72.416016,1640723078000
Fix,GT,37.4019317,-122.0313531,-21.184113311600875,27.410555,0.1,72.299255,1640723079000
Fix,GT,37.4020062,-122.0310566,-21.43810967973387,27.664509,0.1,72.25296,1640723080000
Fix,GT,37.4020812,-122.0307573,-21.6580700379964,27.89815,0.1,72.41153,1640723081000
Fix,GT,37.4021564,-122.0304553,-21.829082379445435,28.136827,0.099,72.4155,1640723082000
Fix,GT,37.4022323,-122.0301508,-22.00507898855349,28.355282,0.1,72.500244,1640723083000
Fix,GT,37.4023084,-122.0298439,-22.182043065801263,28.565376,0.099,72.49704,1640723084000
Fix,GT,37.4023856,-122.0295349,-22.29001742168144,28.763695,0.1,72.27692,1640723085000
Fix,GT,37.4024637,-122.0292244,-22.2279263106687,28.869303,0.1,72.22839,1640723086000
Fix,GT,37.4025421,-122.0289131,-21.88271629167162,28.91472,0.1,72.26251,1640723087000
Fix,GT,37.4026198,-122.0286016,-21.218638323396448,28.874384,0.1,72.47217,1640723088000
Fix,GT,37.402697,-122.0282907,-20.33959443341336,28.750534,0.1,72.5629,1640723089000
Fix,GT,37.4027733,-122.0279814,-19.39061602751957,28.599941,0.1,72.66232,1640723090000
Fix,GT,37.4028476,-122.0276738,-18.67568977869768,28.295322,0.1,73.1806,1640723091000
Fix,GT,37.4029188,-122.0273684,-18.02572119497136,28.047583,0.1,73.90454,1640723092000
Fix,GT,37.4029859,-122.0270639,-17.572851608312224,27.895489,0.1,74.83325,1640723093000
Fix,GT,37.4030499,-122.0267594,-17.347930552091448,27.87272,0.1,75.32355,1640723094000
Fix,GT,37.403111,-122.0264539,-17.256025864664466,27.914833,0.1,76.11386,1640723095000
Fix,GT,37.4031691,-122.0261467,-17.323113808386495,28.001768,0.1,76.84964,1640723096000
Fix,GT,37.4032244,-122.0258373,-17.561157120722346,28.152147,0.1,77.50217,1640723097000
Fix,GT,37.4032772,-122.0255251,-18.03817409401201,28.369247,0.1,78.15573,1640723098000
Fix,GT,37.403328,-122.0252098,-18.538235515356064,28.562227,0.1,78.59589,1640723099000
Fix,GT,37.4033777,-122.0248925,-19.263365880200173,28.705877,0.1,78.6723,1640723100000
Fix,GT,37.4034284,-122.0245735,-20.12246649176767,28.872513,0.1,78.54312,1640723101000
Fix,GT,37.403479,-122.0242525,-21.19337449423829,29.082834,0.1,78.60803,1640723102000
Fix,GT,37.4035306,-122.023929,-22.166434850233607,29.338135,0.1,78.38324,1640723103000
Fix,GT,37.4035843,-122.0236034,-23.12336134204176,29.507778,0.1,77.92743,1640723104000
Fix,GT,37.4036412,-122.0232771,-23.791343780282887,29.617928,0.1,76.990204,1640723105000
Fix,GT,37.4037033,-122.0229515,-24.30311805688776,29.643684,0.1,76.134674,1640723106000
Fix,GT,37.4037676,-122.0226266,-24.514065479637587,29.619867,0.1,75.815674,1640723107000
Fix,GT,37.4038329,-122.0223024,-24.605051571749616,29.57133,0.099,75.58301,1640723108000
Fix,GT,37.4038986,-122.021979,-24.805147627520377,29.524578,0.1,75.39569,1640723109000
Fix,GT,37.4039645,-122.0216563,-25.06305690747499,29.44706,0.1,75.278625,1640723110000
Fix,GT,37.4040318,-122.0213351,-25.214104119334365,29.376858,0.1,74.86838,1640723111000
Fix,GT,37.4041001,-122.0210152,-25.28200935409963,29.270634,0.1,74.44733,1640723112000
Fix,GT,37.4041704,-122.0206973,-25.24699978838209,29.151205,0.1,74.26724,1640723113000
Fix,GT,37.4042415,-122.0203808,-25.375057183858008,29.059551,0.1,73.83823,1640723114000
Fix,GT,37.4043137,-122.020066,-25.48304301434336,28.937855,0.1,73.76651,1640723115000
Fix,GT,37.4043855,-122.0197523,-25.56604824365209,28.881384,0.1,73.68207,1640723116000
Fix,GT,37.4044577,-122.0194388,-25.63598680093233,28.933643,0.099,73.67819,1640723117000
Fix,GT,37.40453,-122.0191251,-25.59000073880889,28.808233,0.1,73.835754,1640723118000
Fix,GT,37.4046009,-122.0188141,-25.643969458432867,28.457972,0.099,73.75418,1640723119000
Fix,GT,37.4046713,-122.0185073,-25.618064365476368,28.05982,0.1,73.749664,1640723120000
Fix,GT,37.4047407,-122.0182049,-25.66604814826557,27.654934,0.1,73.8551,1640723121000
Fix,GT,37.4048082,-122.0179067,-25.77700818900252,27.258709,0.1,73.94418,1640723122000
Fix,GT,37.4048753,-122.0176125,-25.864995816696435,26.924213,0.1,73.70407,1640723123000
Fix,GT,37.4049423,-122.0173222,-25.96004803308612,26.592014,0.1,73.639984,1640723124000
Fix,GT,37.4050098,-122.0170359,-26.05500833726116,26.308352,0.099,72.79724,1640723125000
Fix,GT,37.4050801,-122.0167522,-26.10202149442584,26.324577,0.1,72.38638,1640723126000
Fix,GT,37.4051515,-122.0164682,-26.147013206049795,26.39249,0.1,72.10785,1640723127000
Fix,GT,37.405223,-122.0161836,-26.15700926959468,26.454472,0.1,72.479645,1640723128000
Fix,GT,37.4052922,-122.0158974,-26.187991023751906,26.505827,0.1,73.07486,1640723129000
Fix,GT,37.4053598,-122.0156104,-26.2480388559266,26.49452,0.099,73.351715,1640723130000
Fix,GT,37.4054267,-122.0153232,-26.306039241262248,26.512655,0.1,73.482666,1640723131000
Fix,GT,37.4054932,-122.015035,-26.335982260899616,26.675545,0.099,73.4574,1640723132000
Fix,GT,37.4055608,-122.0147446,-26.37001272852067,26.896948,0.1,73.558044,1640723133000
Fix,GT,37.4056285,-122.0144515,-26.4350263994229,27.149754,0.1,73.61731,1640723134000
Fix,GT,37.4056965,-122.0141556,-26.46301221816335,27.376137,0.1,73.69885,1640723135000
Fix,GT,37.4057646,-122.0138575,-26.53200396015216,27.524925,0.1,73.71234,1640723136000
Fix,GT,37.4058334,-122.0135581,-26.59301328752935,27.65054,0.1,73.673706,1640723137000
Fix,GT,37.4059025,-122.0132574,-26.629005036215297,27.772497,0.1,73.72888,1640723138000
Fix,GT,37.4059717,-122.0129551,-26.683025761089755,27.908575,0.099,73.8035,1640723139000
Fix,GT,37.4060408,-122.0126513,-26.740978833034635,28.059574,0.1,73.82626,1640723140000
Fix,GT,37.4061107,-122.0123453,-26.80109447740484,28.331478,0.099,73.730316,1640723141000
Fix,GT,37.406182,-122.0120364,-26.88198670716258,28.583763,0.1,73.53583,1640723142000
Fix,GT,37.4062546,-122.0117249,-26.96804389995616,28.879265,0.1,73.585785,1640723143000
Fix,GT,37.4063272,-122.0114101,-27.00708162640408,29.148354,0.1,73.73224,1640723144000
Fix,GT,37.4063998,-122.0110926,-27.11005174310878,29.31101,0.1,73.82901,1640723145000
Fix,GT,37.4064726,-122.0107738,-27.202052430999466,29.421715,0.1,73.881805,1640723146000
Fix,GT,37.4065452,-122.0104536,-27.33008146553067,29.540262,0.1,73.97031,1640723147000
Fix,GT,37.406618,-122.0101319,-27.50707783008088,29.661592,0.1,73.99045,1640723148000
Fix,GT,37.4066913,-122.0098089,-27.68303501244913,29.778847,0.1,73.87897,1640723149000
Fix,GT,37.4067653,-122.009485,-27.75096060629841,29.87766,0.099,73.75281,1640723150000
Fix,GT,37.4068394,-122.0091603,-27.692978862538936,29.918264,0.1,73.83478,1640723151000
Fix,GT,37.4069132,-122.0088351,-27.60192717038793,29.941492,0.1,73.92645,1640723152000
Fix,GT,37.4069865,-122.0085097,-27.36886226642737,29.91476,0.1,73.98645,1640723153000
Fix,GT,37.4070602,-122.0081846,-27.129917208643164,29.920424,0.1,73.81857,1640723154000
Fix,GT,37.4071343,-122.0078597,-26.9509222344365,29.911396,0.1,73.845856,1640723155000
Fix,GT,37.4072084,-122.007535,-26.748926177589222,29.899555,0.1,73.79007,1640723156000
Fix,GT,37.4072825,-122.0072102,-26.55087964179739,29.891603,0.1,73.85272,1640723157000
Fix,GT,37.4073561,-122.0068853,-26.4049691154426,29.914629,0.1,74.039856,1640723158000
Fix,GT,37.4074293,-122.0065595,-26.309017246868,30.045214,0.1,74.04648,1640723159000
Fix,GT,37.4075024,-122.0062316,-26.3730006631678,30.234385,0.1,74.252075,1640723160000
Fix,GT,37.4075751,-122.0059013,-26.40507739528455,30.438059,0.1,74.41965,1640723161000
Fix,GT,37.4076477,-122.0055684,-26.645125229601742,30.667854,0.1,74.49875,1640723162000
Fix,GT,37.4077206,-122.0052328,-26.95617225525901,30.921013,0.1,74.58005,1640723163000
Fix,GT,37.4077942,-122.0048943,-27.310099351351614,31.198734,0.1,74.41907,1640723164000
Fix,GT,37.4078689,-122.0045531,-27.622072521993424,31.431942,0.099,74.45468,1640723165000
Fix,GT,37.4079441,-122.0042096,-27.867120613715148,31.630878,0.1,74.39557,1640723166000
Fix,GT,37.40802,-122.0038641,-28.072086825726554,31.83058,0.1,74.36032,1640723167000
Fix,GT,37.4080962,-122.0035164,-28.178055696498603,31.992496,0.1,74.44522,1640723168000
Fix,GT,37.4081722,-122.0031678,-28.23401762594469,31.961714,0.1,74.50592,1640723169000
Fix,GT,37.4082477,-122.0028197,-28.25402124655153,31.926338,0.1,74.63776,1640723170000
Fix,GT,37.4083224,-122.0024715,-28.28401305120718,31.927124,0.1,74.66046,1640723171000
Fix,GT,37.4083974,-122.0021233,-28.31800778086484,31.9314,0.099,74.612915,1640723172000
Fix,GT,37.4084727,-122.001775,-28.37101710157888,31.95605,0.1,74.56122,1640723173000
Fix,GT,37.4085484,-122.0014266,-28.38899572202936,31.968515,0.1,74.4379,1640723174000
Fix,GT,37.4086246,-122.0010782,-28.430035171128807,31.987253,0.1,74.53558,1640723175000
Fix,GT,37.4087002,-122.0007295,-28.465016695132945,31.990356,0.1,74.46002,1640723176000
Fix,GT,37.4087767,-122.0003811,-28.50003376810439,31.995035,0.1,74.30893,1640723177000
Fix,GT,37.4088534,-122.0000327,-28.5250301776845,32.002697,0.1,74.37698,1640723178000
Fix,GT,37.4089295,-121.9996838,-28.56701368760969,32.02542,0.1,74.5441,1640723179000
Fix,GT,37.4090053,-121.9993349,-28.589021314771845,32.00138,0.1,74.47998,1640723180000
Fix,GT,37.4090809,-121.9989864,-28.64307333208993,31.947214,0.1,74.72052,1640723181000
Fix,GT,37.4091553,-121.9986387,-28.70103049268946,31.795986,0.1,74.74896,1640723182000
Fix,GT,37.4092292,-121.9982926,-28.729995113218205,31.641275,0.099,74.78958,1640723183000
Fix,GT,37.4093031,-121.997948,-28.71797836574772,31.546108,0.1,74.51114,1640723184000
Fix,GT,37.4093783,-121.9976047,-28.73901776241372,31.479551,0.1,74.36923,1640723185000
Fix,GT,37.4094535,-121.9972622,-28.72403395375424,31.417141,0.1,74.32611,1640723186000
Fix,GT,37.4095285,-121.9969205,-28.7450429802714,31.339817,0.1,74.42755,1640723187000
Fix,GT,37.4096031,-121.9965794,-28.80801305831177,31.296108,0.1,74.42462,1640723188000
Fix,GT,37.4096778,-121.9962376,-28.7980635912302,31.487211,0.1,74.397064,1640723189000
Fix,GT,37.4097531,-121.9958935,-28.83603025430673,31.679516,0.1,74.44925,1640723190000
Fix,GT,37.4098282,-121.995548,-28.842964866928288,31.725616,0.1,74.67883,1640723191000
Fix,GT,37.4099026,-121.9952018,-28.85903428136744,31.751635,0.1,74.65466,1640723192000
Fix,GT,37.4099773,-121.9948557,-28.86000466748141,31.738157,0.1,74.666016,1640723193000
Fix,GT,37.410052,-121.9945099,-28.896020846992265,31.665874,0.099,74.592896,1640723194000
Fix,GT,37.4101268,-121.9941653,-28.88699096306693,31.598562,0.1,74.49536,1640723195000
Fix,GT,37.4102015,-121.993821,-28.90902943117172,31.586807,0.1,74.578735,1640723196000
Fix,GT,37.4102759,-121.9934768,-28.87998669112613,31.559269,0.099,74.5798,1640723197000
Fix,GT,37.4103507,-121.993133,-28.8359997045882,31.52303,0.1,74.4935,1640723198000
Fix,GT,37.4104257,-121.9927899,-28.80298700505495,31.479263,0.1,74.51578,1640723199000
Fix,GT,37.4104999,-121.9924469,-28.796987436292696,31.434427,0.1,74.615814,1640723200000
Fix,GT,37.4105741,-121.9921046,-28.75196216651844,31.369186,0.1,74.55914,1640723201000
Fix,GT,37.4106483,-121.9917632,-28.727961182178465,31.294975,0.1,74.46448,1640723202000
Fix,GT,37.4107224,-121.9914227,-28.61190650769975,31.193752,0.1,74.58862,1640723203000
Fix,GT,37.4107954,-121.9910832,-28.44097008178849,31.078543,0.1,74.74844,1640723204000
Fix,GT,37.410869,-121.9907449,-28.365935123823583,30.996923,0.1,74.24829,1640723205000
Fix,GT,37.410944,-121.9904082,-28.20288447468728,30.901392,0.1,74.2453,1640723206000
Fix,GT,37.4110186,-121.9900726,-28.010978840478696,30.770205,0.1,74.20938,1640723207000
Fix,GT,37.4110939,-121.9897391,-27.85388798634149,30.596178,0.1,73.74664,1640723208000
Fix,GT,37.4111719,-121.9894087,-27.56586276595015,30.411968,0.1,72.83945,1640723209000
Fix,GT,37.411253,-121.9890816,-27.19985383938625,30.250488,0.1,72.40967,1640723210000
Fix,GT,37.4113349,-121.9887567,-26.740778062751986,30.06739,0.1,71.978424,1640723211000
Fix,GT,37.4114191,-121.9884348,-26.261815439882223,29.912598,0.1,71.40527,1640723212000
Fix,GT,37.4115048,-121.9881154,-25.78078969419934,29.768429,0.1,70.94153,1640723213000
Fix,GT,37.4115932,-121.9877988,-25.32880397304334,29.634956,0.1,70.228,1640723214000
Fix,GT,37.4116833,-121.987485,-24.89582855782658,29.336311,0.1,69.792725,1640723215000
Fix,GT,37.4117745,-121.9871766,-24.51585461954679,28.910658,0.1,69.133514,1640723216000
Fix,GT,37.4118668,-121.9868736,-24.226760729145724,28.51241,0.1,68.62378,1640723217000
Fix,GT,37.4119602,-121.9865761,-23.979990759113807,28.100737,0.1,67.987,1640723218000
Fix,GT,37.4120546,-121.9862842,-23.743862702056763,27.678991,0.099,67.429565,1640723219000
Fix,GT,37.4121495,-121.9859977,-23.64796563988924,27.261396,0.1,67.102844,1640723220000
Fix,GT,37.4122445,-121.9857159,-23.6580303361672,26.890512,0.1,66.70563,1640723221000
Fix,GT,37.4123375,-121.9854379,-23.662033567744302,26.516502,0.099,68.142426,1640723222000
Fix,GT,37.4124233,-121.9851588,-23.713995728909968,26.512466,0.1,68.65781,1640723223000
Fix,GT,37.4125137,-121.9848805,-23.78006039547828,26.682737,0.1,66.79193,1640723224000
Fix,GT,37.4126109,-121.9846029,-23.912952831434087,27.027628,0.1,65.35608,1640723225000
Fix,GT,37.4127157,-121.9843241,-23.96505164330313,27.53692,0.1,63.88684,1640723226000
Fix,GT,37.4128274,-121.9840432,-24.10105935595371,28.041832,0.1,63.00592,1640723227000
Fix,GT,37.4129422,-121.9837579,-24.244064482120333,28.498688,0.1,62.980316,1640723228000
Fix,GT,37.4130591,-121.9834698,-24.371982567548752,28.688366,0.1,62.71631,1640723229000
Fix,GT,37.4131781,-121.9831812,-24.42005049549044,28.832552,0.1,62.177307,1640723230000
Fix,GT,37.4132994,-121.9828912,-24.63014923251467,29.156418,0.1,62.11789,1640723231000
Fix,GT,37.4134229,-121.9825987,-24.833094394959502,29.451206,0.1,61.77124,1640723232000
Fix,GT,37.4135485,-121.9823039,-25.121136685439385,29.696165,0.1,61.68463,1640723233000
Fix,GT,37.4136747,-121.9820072,-25.41313180030696,29.837212,0.1,61.80002,1640723234000
Fix,GT,37.4138012,-121.981709,-25.710132434680126,29.964258,0.1,61.69702,1640723235000
Fix,GT,37.4139282,-121.98141,-25.803991630227305,29.994967,0.1,61.78958,1640723236000
Fix,GT,37.4140551,-121.9811109,-25.698931347331964,29.979431,0.1,61.677246,1640723237000
Fix,GT,37.4141818,-121.9808123,-25.493922730179506,29.929811,0.1,61.85385,1640723238000
Fix,GT,37.414308,-121.980514,-25.14785547221265,29.838287,0.1,61.772034,1640723239000
Fix,GT,37.4144342,-121.9802169,-24.853936334797645,29.758999,0.1,61.672546,1640723240000
Fix,GT,37.4145597,-121.9799204,-24.48590167954471,29.683771,0.1,61.894775,1640723241000
Fix,GT,37.4146841,-121.9796243,-24.18178635836392,29.580902,0.1,62.00763,1640723242000
Fix,GT,37.4148083,-121.9793287,-23.84990152722737,29.577127,0.1,61.90753,1640723243000
Fix,GT,37.4149329,-121.9790335,-23.513871653867884,29.551146,0.1,61.827423,1640723244000
Fix,GT,37.4150575,-121.9787386,-23.191854552805424,29.543383,0.099,61.863617,1640723245000
Fix,GT,37.4151819,-121.9784435,-22.842864373911173,29.563118,0.1,61.865112,1640723246000
Fix,GT,37.4153069,-121.9781482,-22.51885152130388,29.608608,0.1,61.849274,1640723247000
Fix,GT,37.4154319,-121.9778524,-22.26564269578736,29.649754,0.1,61.82141,1640723248000
Fix,GT,37.4155574,-121.9775565,-21.879791590809354,29.681423,0.1,61.742554,1640723249000
Fix,GT,37.4156837,-121.9772601,-21.56574472880364,29.807035,0.1,61.64215,1640723250000
Fix,GT,37.4158102,-121.9769626,-21.196872086583635,29.890532,0.1,61.783722,1640723251000
Fix,GT,37.4159369,-121.9766637,-20.894868195414546,30.030497,0.1,61.758087,1640723252000
Fix,GT,37.4160641,-121.9763634,-20.656897896004843,30.184711,0.1,61.77133,1640723253000
Fix,GT,37.4161921,-121.9760614,-20.46092739001289,30.353619,0.099,61.80597,1640723254000
Fix,GT,37.4163204,-121.9757576,-20.290970040867105,30.531637,0.1,61.905457,1640723255000
Fix,GT,37.4164495,-121.9754522,-20.19093211642745,30.613438,0.1,61.76007,1640723256000
Fix,GT,37.4165789,-121.9751472,-20.15600025341846,30.540625,0.1,61.805267,1640723257000
Fix,GT,37.4167074,-121.9748426,-20.18003841698636,30.478361,0.1,61.94928,1640723258000
Fix,GT,37.4168351,-121.974538,-20.3100597815644,30.450163,0.1,62.135162,1640723259000
Fix,GT,37.4169621,-121.9742332,-20.51414062345214,30.433352,0.1,62.21878,1640723260000
Fix,GT,37.4170892,-121.9739287,-20.68512374074478,30.420599,0.1,62.06949,1640723261000
Fix,GT,37.4172172,-121.9736249,-20.979161049900576,30.425491,0.1,61.76178,1640723262000
Fix,GT,37.417346,-121.9733213,-21.35826285466738,30.439674,0.1,61.75772,1640723263000
Fix,GT,37.4174748,-121.9730176,-21.769250202596183,30.479836,0.1,61.648895,1640723264000
Fix,GT,37.4176045,-121.9727138,-22.14891467503831,30.50754,0.1,61.653137,1640723265000
Fix,GT,37.4177339,-121.9724093,-22.49124145295285,30.57865,0.099,61.832977,1640723266000
Fix,GT,37.4178623,-121.972103,-22.95921161161689,30.699215,0.099,62.259888,1640723267000
Fix,GT,37.4179881,-121.9717934,-23.51326379568223,30.823818,0.1,63.387207,1640723268000
Fix,GT,37.4181082,-121.9714788,-24.08020757116424,30.93766,0.1,65.05231,1640723269000
Fix,GT,37.4182197,-121.9711582,-24.504143793337047,30.982319,0.1,67.40048,1640723270000
Fix,GT,37.4183201,-121.9708318,-24.752054835446646,30.973314,0.099,69.808655,1640723271000
Fix,GT,37.4184106,-121.9705013,-24.75991076792311,30.894306,0.1,71.98248,1640723272000
Fix,GT,37.4184885,-121.970167,-24.59495309857279,30.80015,0.1,75.08319,1640723273000
Fix,GT,37.4185533,-121.9698289,-24.416979173762726,30.798756,0.1,77.31506,1640723274000
Fix,GT,37.4186078,-121.9694879,-24.25793692411948,30.802599,0.1,79.519714,1640723275000
Fix,GT,37.4186514,-121.9691442,-24.087923168647105,30.812458,0.1,81.807465,1640723276000
Fix,GT,37.4186839,-121.9687986,-23.97999538180698,30.849642,0.1,84.188934,1640723277000
Fix,GT,37.418706,-121.9684509,-23.89695714220172,30.89342,0.099,86.15729,1640723278000
Fix,GT,37.4187204,-121.9681024,-23.78903333368199,30.923893,0.1,87.16437,1640723279000
Fix,GT,37.4187328,-121.9677531,-23.81409326416813,30.972826,0.1,87.31183,1640723280000
Fix,GT,37.4187444,-121.9674031,-23.894072215168737,31.059225,0.1,87.35547,1640723281000
Fix,GT,37.4187567,-121.9670519,-24.22793258046173,31.176733,0.1,87.22458,1640723282000
Fix,GT,37.4187692,-121.9666989,-24.350118115390654,31.381691,0.1,87.292175,1640723283000
Fix,GT,37.418781,-121.9663432,-24.670181758405644,31.633053,0.099,87.461975,1640723284000
Fix,GT,37.4187925,-121.9659848,-25.149266555635258,31.860636,0.1,87.441895,1640723285000
Fix,GT,37.4188041,-121.9656244,-25.65319893839583,31.977688,0.1,87.47296,1640723286000
Fix,GT,37.4188157,-121.9652633,-26.11820330099109,32.008015,0.1,87.37735,1640723287000
Fix,GT,37.4188278,-121.9649018,-26.62412197406171,32.045563,0.1,87.33356,1640723288000
Fix,GT,37.41884,-121.96454,-27.04004304510541,32.05843,0.1,87.278015,1640723289000
Fix,GT,37.4188525,-121.9641783,-27.320105327239727,32.029377,0.1,87.230835,1640723290000
Fix,GT,37.4188654,-121.9638171,-27.505059493591546,31.968962,0.1,87.21008,1640723291000
Fix,GT,37.4188781,-121.9634567,-27.653046952076256,31.876204,0.1,87.29047,1640723292000
Fix,GT,37.4188911,-121.9630975,-27.77702174074389,31.804646,0.1,87.042816,1640723293000
Fix,GT,37.4189043,-121.9627389,-27.98008818759816,31.74686,0.1,87.21338,1640723294000
Fix,GT,37.4189167,-121.9623808,-28.237088616850784,31.704046,0.1,87.28323,1640723295000
Fix,GT,37.4189288,-121.9620233,-28.43411893710215,31.643045,0.1,87.24069,1640723296000
Fix,GT,37.4189418,-121.9616664,-28.66113487215294,31.597702,0.1,86.96527,1640723297000
Fix,GT,37.4189571,-121.9613102,-28.86705079589505,31.546242,0.1,86.269135,1640723298000
Fix,GT,37.4189759,-121.960955,-29.023064223425465,31.485785,0.1,85.65274,1640723299000
Fix,GT,37.4189971,-121.9606008,-29.135058717533948,31.413256,0.099,85.34726,1640723300000
Fix,GT,37.4190195,-121.9602473,-29.26401241467474,31.368282,0.1,85.02051,1640723301000
Fix,GT,37.4190445,-121.9598946,-29.30703007266391,31.337873,0.1,84.36658,1640723302000
Fix,GT,37.419072,-121.9595422,-29.438104803130496,31.349258,0.1,83.97995,1640723303000
Fix,GT,37.4191011,-121.9591899,-29.51996591518074,31.340733,0.1,83.70502,1640723304000
Fix,GT,37.4191306,-121.9588381,-29.415924465587366,31.281622,0.1,83.81369,1640723305000
Fix,GT,37.4191584,-121.9584866,-29.45905013864022,31.26827,0.1,84.19559,1640723306000
Fix,GT,37.4191857,-121.958135,-29.49402164113382,31.262354,0.1,84.20923,1640723307000
Fix,GT,37.4192124,-121.9577834,-29.534008289799093,31.246138,0.099,84.61835,1640723308000
Fix,GT,37.419236,-121.9574318,-29.56298648654669,31.21152,0.1,85.460266,1640723309000
