MessageType,Provider,LatitudeDegrees,LongitudeDegrees,AltitudeMeters,SpeedMps,AccuracyMeters,BearingDegrees,UnixTimeMillis
Fix,GT,37.4444982,-122.232315,11.751551445961,0.0024485542,0.1,78.69357,1615921222448
Fix,GT,37.4444982,-122.232315,11.751,0.007074237,0.1,78.69342,1615921223448
Fix,GT,37.4444982,-122.2323149,11.749206133931876,0.014897505,0.1,78.69336,1615921224448
Fix,GT,37.4444984,-122.2323148,11.745654337882996,0.029047718,0.1,78.69354,1615921225448
Fix,GT,37.4444995,-122.2323147,11.744,0.3185848,0.1,78.687744,1615921226448
Fix,GT,37.444505,-122.2323157,11.729646270751951,0.95940286,0.1,78.15741,1615921227448
Fix,GT,37.4445172,-122.232319,11.70258036518097,1.391785,0.1,74.38696,1615921228448
Fix,GT,37.4445332,-122.2323262,11.677094824790956,1.4531405,0.1,64.865906,1615921229448
Fix,GT,37.4445476,-122.2323364,11.65327168941498,1.0479021,0.1,53.61496,1615921230448
Fix,GT,37.4445547,-122.2323423,11.646794563323258,0.37002042,0.1,47.993225,1615921231448
Fix,GT,37.4445551,-122.2323416,11.648103239029645,0.47019786,0.1,47.00107,1615921232448
Fix,GT,37.4445519,-122.2323361,11.652382995933294,1.3734384,0.1,41.77234,1615921233448
Fix,GT,37.4445458,-122.2323246,11.64509517133236,2.3658104,0.1,27.64563,1615921234448
Fix,GT,37.4445408,-122.2323037,11.636522873848676,3.305496,0.1,9.14035,1615921235448
Fix,GT,37.4445402,-122.2322693,11.642066252350808,3.984025,0.1,356.45712,1615921236448
Fix,GT,37.4445441,-122.2322252,11.59563048058748,4.1779737,0.1,352.73465,1615921237448
Fix,GT,37.444549,-122.232176,11.449112665235996,4.288403,0.1,355.53458,1615921238448
Fix,GT,37.4445494,-122.2321197,11.26451144361496,4.574959,0.1,7.8382874,1615921239448
Fix,GT,37.4445348,-122.2320588,11.164712508350611,5.037374,0.1,28.16211,1615921240448
Fix,GT,37.4445044,-122.2320053,11.1203668448627,5.344534,0.1,42.435974,1615921241448
Fix,GT,37.4444726,-122.2319632,11.068535640597345,5.253454,0.1,38.444275,1615921242448
Fix,GT,37.4444519,-122.2319247,11.021646270751951,4.9993086,0.1,18.758698,1615921243448
Fix,GT,37.4444465,-122.2318882,10.95824748802185,4.7839785,0.1,349.07803,1615921244448
Fix,GT,37.4444567,-122.2318584,10.835614002227782,4.7408333,0.1,314.97562,1615921245448
Fix,GT,37.4444793,-122.2318418,10.67774581336975,4.793475,0.1,280.7367,1615921246448
Fix,GT,37.4445057,-122.2318443,10.546321460723878,4.7557077,0.1,246.68982,1615921247448
Fix,GT,37.4445271,-122.2318648,10.510765296936036,4.57575,0.1,215.33224,1615921248448
Fix,GT,37.4445389,-122.2318982,10.563920993179082,4.2911,0.1,192.27345,1615921249448
Fix,GT,37.4445422,-122.2319382,10.662340624719858,3.8884966,0.1,181.69757,1615921250448
Fix,GT,37.4445417,-122.2319782,10.771443513423204,3.4480364,0.1,179.25116,1615921251448
Fix,GT,37.4445406,-122.2320146,10.87047243002057,3.0897417,0.1,178.6847,1615921252448
Fix,GT,37.4445395,-122.2320482,10.944118699103594,2.8790028,0.1,178.92896,1615921253448
Fix,GT,37.4445388,-122.2320802,10.988904847204685,2.7406719,0.1,179.51501,1615921254448
Fix,GT,37.4445384,-122.2321105,11.03784700664878,2.5480115,0.1,180.2331,1615921255448
Fix,GT,37.4445384,-122.2321388,11.129929042965172,2.4417098,0.1,181.11723,1615921256448
Fix,GT,37.4445388,-122.232167,11.260937105715277,2.599182,0.1,181.49272,1615921257448
Fix,GT,37.4445394,-122.2321978,11.395826143085957,2.927205,0.1,181.02351,1615921258448
Fix,GT,37.4445398,-122.2322328,11.511789153426886,3.314333,0.1,180.26155,1615921259448
Fix,GT,37.4445398,-122.2322723,11.578382303208112,3.7059212,0.1,179.56152,1615921260448
Fix,GT,37.4445394,-122.2323151,11.528481849581004,3.8554635,0.1,178.8081,1615921261448
Fix,GT,37.4445385,-122.2323566,11.515069247424602,3.5612206,0.1,177.6615,1615921262448
Fix,GT,37.4445369,-122.2323934,11.65173165088892,3.2530134,0.1,175.19702,1615921263448
Fix,GT,37.4445339,-122.2324273,11.782098167836663,3.176851,0.1,171.3031,1615921264448
Fix,GT,37.4445289,-122.2324605,11.903694665074347,3.1492805,0.1,167.53601,1615921265448
Fix,GT,37.4445224,-122.2324932,12.044797557115556,3.1016674,0.1,164.59583,1615921266448
Fix,GT,37.4445146,-122.2325255,12.200048392415043,3.0571423,0.1,162.88416,1615921267448
Fix,GT,37.4445061,-122.232558,12.372702730476856,3.1575313,0.1,161.62177,1615921268448
Fix,GT,37.4444963,-122.232592,12.546842608332634,3.4605265,0.1,159.56732,1615921269448
Fix,GT,37.4444841,-122.2326286,12.730673810064792,3.8556097,0.1,156.40485,1615921270448
Fix,GT,37.4444686,-122.2326688,12.887583707630636,4.4290223,0.1,152.5741,1615921271448
Fix,GT,37.4444482,-122.2327126,12.872503053605556,5.049673,0.1,146.97803,1615921272448
Fix,GT,37.4444221,-122.2327578,12.711408226966856,5.319335,0.1,141.10556,1615921273448
Fix,GT,37.4443917,-122.2328021,12.556643312931062,5.312298,0.1,138.00119,1615921274448
Fix,GT,37.4443598,-122.2328445,12.386400538176298,5.2977924,0.1,135.00208,1615921275448
Fix,GT,37.4443262,-122.2328837,12.19186994343996,5.3429165,0.1,130.20447,1615921276448
Fix,GT,37.4442898,-122.2329193,11.96100174996257,5.43431,0.1,124.935974,1615921277448
Fix,GT,37.4442499,-122.2329517,11.702302354484797,5.484014,0.1,120.824524,1615921278448
Fix,GT,37.444208,-122.2329824,11.450318475276232,5.3640947,0.1,119.5285,1615921279448
Fix,GT,37.4441668,-122.2330132,11.254540381997824,5.0446067,0.1,121.755066,1615921280448
Fix,GT,37.4441291,-122.233045,11.112762290328742,4.612713,0.1,126.67868,1615921281448
Fix,GT,37.4440962,-122.2330793,11.01377035152912,4.363242,0.1,133.01971,1615921282448
Fix,GT,37.4440675,-122.2331172,10.918210838466884,4.2771087,0.1,140.02954,1615921283448
Fix,GT,37.4440433,-122.233158,10.801828187763691,4.065718,0.1,146.85754,1615921284448
Fix,GT,37.4440245,-122.2331987,10.683313723593953,3.6814942,0.1,152.8565,1615921285448
Fix,GT,37.4440108,-122.2332354,10.56672528862953,3.1412334,0.1,156.21436,1615921286448
Fix,GT,37.4440009,-122.2332648,10.453799256116152,2.4500647,0.1,157.20947,1615921287448
Fix,GT,37.4439941,-122.2332862,10.370087072879077,1.5226834,0.1,158.1427,1615921288448
Fix,GT,37.443991,-122.2332967,10.325786459326745,0.52618647,0.1,158.70947,1615921289448
Fix,GT,37.4439904,-122.2332989,10.31110319942236,0.018319197,0.1,158.85486,1615921290448
Fix,GT,37.4439904,-122.233299,10.310000307261944,0.009304726,0.1,158.85577,1615921291448
Fix,GT,37.4439905,-122.2332991,10.310000307261944,0.0036543382,0.1,158.85571,1615921292448
Fix,GT,37.4439905,-122.2332991,10.310000307261944,0.002,0.1,158.85632,1615921293448
Fix,GT,37.4439905,-122.2332991,10.309551753312348,0.0021058894,0.1,158.85681,1615921294448
Fix,GT,37.4439905,-122.2332991,10.30900030723214,0.002651523,0.1,158.85706,1615921295448
Fix,GT,37.4439905,-122.2332991,10.30900030723214,0.0027468228,0.1,158.8573,1615921296448
Fix,GT,37.4439905,-122.2332991,10.30900030723214,0.0030825064,0.1,158.85767,1615921297448
Fix,GT,37.4439906,-122.2332991,10.30900030723214,0.007288656,0.1,158.85791,1615921298448
Fix,GT,37.4439906,-122.2332991,10.309448861181735,0.0135630965,0.1,158.85822,1615921299448
Fix,GT,37.4439906,-122.2332991,10.310000307261944,0.022854399,0.1,158.85931,1615921300448
Fix,GT,37.4439908,-122.2332991,10.31044886121154,0.036824934,0.1,158.8606,1615921301448
Fix,GT,37.4439909,-122.2333,10.304720551997423,0.24512827,0.1,158.90613,1615921302448
Fix,GT,37.4439893,-122.2333068,10.264704422503709,1.1857817,0.1,159.06323,1615921303448
Fix,GT,37.4439841,-122.2333277,10.160857089936734,2.4908097,0.1,161.39575,1615921304448
Fix,GT,37.4439767,-122.233364,10.038042013406754,3.417593,0.1,168.90698,1615921305448
Fix,GT,37.4439739,-122.2334148,9.912680219560862,4.424277,0.1,182.39276,1615921306448
Fix,GT,37.443984,-122.2334792,9.756819795131683,5.9925575,0.1,197.46283,1615921307448
Fix,GT,37.4440108,-122.2335559,9.565347044944762,7.9448915,0.1,207.08318,1615921308448
Fix,GT,37.4440505,-122.2336437,9.365716903090476,9.541807,0.1,210.41104,1615921309448
Fix,GT,37.4440978,-122.2337418,9.17848692280054,10.585059,0.1,211.20839,1615921310448
Fix,GT,37.4441499,-122.2338466,8.949523908615113,11.064247,0.1,212.23271,1615921311448
Fix,GT,37.4442029,-122.23395,8.7273181245327,10.5769005,0.1,212.5042,1615921312448
Fix,GT,37.4442511,-122.2340443,8.532885701358317,9.220278,0.1,212.30334,1615921313448
Fix,GT,37.4442917,-122.2341243,8.367194377481937,7.532628,0.1,212.2084,1615921314448
Fix,GT,37.4443236,-122.2341874,8.212996658802032,5.668193,0.1,212.25069,1615921315448
Fix,GT,37.4443465,-122.2342329,8.103461343586446,3.9020247,0.1,212.3689,1615921316448
Fix,GT,37.4443618,-122.2342625,8.049337837547064,2.3555799,0.1,212.4355,1615921317448
Fix,GT,37.4443699,-122.2342781,8.032757469713687,1.0254116,0.1,212.45172,1615921318448
Fix,GT,37.4443727,-122.2342837,8.027757469564676,0.2667824,0.1,212.44371,1615921319448
Fix,GT,37.4443732,-122.2342847,8.025448793113231,0.0031707783,0.1,212.44121,1615921320448
Fix,GT,37.4443732,-122.2342847,8.027345901042223,0.0024485542,0.1,212.44208,1615921321448
Fix,GT,37.4443732,-122.2342847,8.029897347182036,0.003,0.1,212.44211,1615921322448
Fix,GT,37.4443732,-122.2342847,8.031000239342452,0.0025514462,0.1,212.44252,1615921323448
Fix,GT,37.4443731,-122.2342847,8.031000239342452,0.002,0.1,212.44287,1615921324448
Fix,GT,37.4443731,-122.2342847,8.031000239342452,0.0015514462,0.1,212.44327,1615921325448
Fix,GT,37.4443731,-122.2342847,8.031000239342452,0.0005514461,0.1,212.4436,1615921326448
Fix,GT,37.4443731,-122.2342847,8.031000239342452,0.0006343511,0.1,212.44391,1615921327448
Fix,GT,37.4443731,-122.2342847,8.031448553979397,0.0017828597,0.1,212.44429,1615921328448
Fix,GT,37.4443731,-122.2342847,8.032448553979396,0.0025017732,0.1,212.44469,1615921329448
Fix,GT,37.4443731,-122.2342847,8.033448553979397,0.0031770093,0.1,212.44485,1615921330448
Fix,GT,37.4443732,-122.2342847,8.034448553979399,0.0042310366,0.1,212.44498,1615921331448
Fix,GT,37.4443732,-122.2342847,8.035448553979396,0.004660283,0.1,212.44528,1615921332448
Fix,GT,37.4443732,-122.2342847,8.036448553979398,0.0039568716,0.1,212.44563,1615921333448
Fix,GT,37.4443732,-122.2342848,8.037897107958795,0.002991264,0.1,212.4459,1615921334448
Fix,GT,37.4443732,-122.2342848,8.039448553979396,0.0035202564,0.1,212.44629,1615921335448
Fix,GT,37.4443732,-122.2342848,8.041345422416924,0.008268729,0.1,212.44664,1615921336448
Fix,GT,37.4443732,-122.2342848,8.044345422327517,0.016505197,0.1,212.4469,1615921337448
Fix,GT,37.4443731,-122.2342848,8.047793976247311,0.027536742,0.1,212.44714,1615921338448
Fix,GT,37.4443729,-122.2342847,8.051345422118903,0.042921558,0.1,212.44743,1615921339448
Fix,GT,37.4443727,-122.2342847,8.0521026519835,0.13548711,0.1,212.44745,1615921340448
Fix,GT,37.4443744,-122.234289,8.037543139785528,0.9494046,0.1,212.42279,1615921341448
Fix,GT,37.4443823,-122.2343057,7.991395196348429,2.676697,0.1,211.03601,1615921342448
Fix,GT,37.4443955,-122.2343379,7.986398782730102,4.3703084,0.1,203.73969,1615921343448
Fix,GT,37.4444064,-122.2343838,8.061332877159119,5.599499,0.1,188.22768,1615921344448
Fix,GT,37.4444053,-122.2344403,8.1670033493042,6.4929423,0.1,168.20123,1615921345448
Fix,GT,37.4443854,-122.2345015,8.266670472145082,7.5017614,0.1,147.6889,1615921346448
Fix,GT,37.4443417,-122.2345625,8.358451903343202,9.019091,0.1,130.37332,1615921347448
Fix,GT,37.4442715,-122.2346223,8.538064795315265,10.824588,0.1,120.54895,1615921348448
Fix,GT,37.4441804,-122.2346842,8.817611533522605,12.397503,0.1,117.84946,1615921349448
Fix,GT,37.4440759,-122.234752,9.182076233655216,13.752888,0.1,117.342926,1615921350448
Fix,GT,37.4439602,-122.2348266,9.643667767345905,15.106613,0.1,117.32071,1615921351448
Fix,GT,37.4438341,-122.2349087,10.087780082046988,16.397997,0.1,117.48236,1615921352448
Fix,GT,37.4436982,-122.2349977,10.376895768761637,17.598099,0.1,117.43887,1615921353448
Fix,GT,37.4435534,-122.2350925,10.591394086003303,18.651058,0.1,117.43207,1615921354448
Fix,GT,37.4434009,-122.2351927,10.767497301459311,19.481339,0.1,117.56659,1615921355448
Fix,GT,37.4432434,-122.235297,10.959093811631202,19.903854,0.1,117.75461,1615921356448
Fix,GT,37.443085,-122.2354029,11.198455301463603,19.846146,0.1,117.93167,1615921357448
Fix,GT,37.4429282,-122.2355085,11.504647985696792,19.705639,0.1,118.06958,1615921358448
Fix,GT,37.442772,-122.2356139,11.985766063213347,19.698364,0.1,117.83829,1615921359448
Fix,GT,37.4426158,-122.2357181,12.680209925174712,19.544195,0.1,117.53711,1615921360448
Fix,GT,37.4424616,-122.2358195,13.562048315495254,19.06946,0.1,117.2865,1615921361448
Fix,GT,37.4423124,-122.2359166,14.637829411804676,18.22171,0.1,117.1319,1615921362448
Fix,GT,37.4421702,-122.2360091,15.694686141610148,17.320961,0.1,117.30716,1615921363448
Fix,GT,37.4420352,-122.2360982,16.590151683449747,16.552586,0.1,117.618286,1615921364448
Fix,GT,37.4419058,-122.2361853,17.402542921185493,16.025053,0.1,118.376495,1615921365448
Fix,GT,37.4417804,-122.2362735,18.19448225349188,15.810591,0.1,119.688385,1615921366448
Fix,GT,37.4416573,-122.2363645,18.917333782732484,15.89632,0.1,120.50516,1615921367448
Fix,GT,37.4415332,-122.2364592,19.637827406525613,16.370806,0.1,121.10162,1615921368448
Fix,GT,37.4414055,-122.2365611,20.432307706058022,17.08434,0.1,122.89807,1615921369448
Fix,GT,37.4412753,-122.2366748,21.3379579987526,17.833263,0.1,126.20212,1615921370448
Fix,GT,37.4411457,-122.2368045,22.285707824647425,18.63365,0.1,130.28851,1615921371448
Fix,GT,37.4410186,-122.2369518,23.28826950410008,19.427364,0.1,134.31335,1615921372448
Fix,GT,37.4408952,-122.2371152,24.383961543917653,20.027151,0.1,138.26468,1615921373448
Fix,GT,37.4407778,-122.2372933,25.49372763338685,20.496613,0.1,142.13818,1615921374448
Fix,GT,37.4406674,-122.2374834,26.662928055644034,20.86458,0.1,145.09564,1615921375448
Fix,GT,37.4405614,-122.2376809,27.82702672544121,21.158,0.1,146.3071,1615921376448
Fix,GT,37.4404553,-122.2378811,28.99801020216941,21.433147,0.1,145.7136,1615921377448
Fix,GT,37.4403444,-122.2380795,30.24230361905694,21.651276,0.1,143.57483,1615921378448
Fix,GT,37.4402257,-122.2382733,31.40375595968962,21.864845,0.1,141.10211,1615921379448
Fix,GT,37.4400993,-122.2384631,32.504513185620304,22.075748,0.1,139.18896,1615921380448
Fix,GT,37.4399673,-122.2386498,33.619557315647604,22.206387,0.1,137.68542,1615921381448
Fix,GT,37.4398311,-122.2388324,34.73088781821728,22.225704,0.1,135.95193,1615921382448
Fix,GT,37.4396905,-122.2390092,35.78811549338698,22.105043,0.1,134.0727,1615921383448
Fix,GT,37.4395478,-122.2391797,36.90851678740978,21.685936,0.1,132.88998,1615921384448
Fix,GT,37.4394061,-122.239342,38.12726483520865,21.072243,0.1,131.32605,1615921385448
Fix,GT,37.4392639,-122.2394923,39.25549837937951,20.497179,0.1,128.5986,1615921386448
Fix,GT,37.4391196,-122.2396315,40.24795041882992,20.183775,0.1,126.4491,1615921387448
Fix,GT,37.4389726,-122.2397636,41.18284634199738,20.181377,0.1,124.51251,1615921388448
Fix,GT,37.4388214,-122.2398896,42.05380709350109,20.307384,0.1,122.67667,1615921389448
Fix,GT,37.4386657,-122.2400105,42.74433203163744,20.525867,0.1,120.64276,1615921390448
Fix,GT,37.4385049,-122.2401242,43.27679203402997,20.743876,0.1,117.78009,1615921391448
Fix,GT,37.4383382,-122.2402282,43.705787243455646,20.808378,0.1,114.927,1615921392448
Fix,GT,37.4381684,-122.2403232,44.00192492699623,20.5941,0.1,112.94922,1615921393448
Fix,GT,37.437999,-122.2404108,44.19373315945268,20.176542,0.1,111.72229,1615921394448
Fix,GT,37.437832,-122.2404928,44.35594573116303,19.73611,0.1,110.803345,1615921395448
Fix,GT,37.4376676,-122.240571,44.47632355186343,19.3252,0.1,110.53494,1615921396448
Fix,GT,37.4375055,-122.2406484,44.595609513133766,19.222061,0.1,110.87973,1615921397448
Fix,GT,37.437343,-122.2407283,44.856817506909366,19.482704,0.1,111.657166,1615921398448
Fix,GT,37.4371793,-122.2408135,45.242849961280825,19.652418,0.1,113.3277,1615921399448
Fix,GT,37.4370183,-122.2409073,45.71348354244232,19.455633,0.1,116.45245,1615921400448
Fix,GT,37.4368651,-122.2410125,46.24357240918279,18.860842,0.1,120.93646,1615921401448
Fix,GT,37.4367246,-122.2411293,46.85908368885517,18.12359,0.1,126.23361,1615921402448
Fix,GT,37.4365984,-122.2412568,47.53615911743045,17.448326,0.1,131.12689,1615921403448
Fix,GT,37.4364847,-122.2413903,48.16888249695302,16.827557,0.1,134.24109,1615921404448
Fix,GT,37.4363804,-122.2415243,48.76089876174926,16.085194,0.1,136.41766,1615921405448
Fix,GT,37.4362857,-122.2416554,49.40957080936432,14.959445,0.1,138.41196,1615921406448
Fix,GT,37.4362022,-122.2417797,50.05941324126721,13.629648,0.1,140.43701,1615921407448
Fix,GT,37.4361291,-122.2418976,50.62362206408382,12.590973,0.1,143.37723,1615921408448
Fix,GT,37.4360663,-122.2420134,51.14187447917462,11.831164,0.1,147.87708,1615921409448
Fix,GT,37.4360147,-122.2421297,51.60396567809582,11.222571,0.1,154.16687,1615921410448
Fix,GT,37.4359765,-122.2422498,51.98293526345491,11.016443,0.1,162.93231,1615921411448
Fix,GT,37.4359551,-122.2423781,52.35320035743713,11.349932,0.1,173.72717,1615921412448
Fix,GT,37.4359535,-122.2425136,52.7072759412527,11.75158,0.1,184.43768,1615921413448
Fix,GT,37.4359705,-122.2426507,53.18072205162048,12.130377,0.1,192.84517,1615921414448
Fix,GT,37.4360018,-122.2427877,53.77167695736885,12.643175,0.1,198.60995,1615921415448
Fix,GT,37.4360444,-122.2429262,54.37756307387352,13.259688,0.1,202.65742,1615921416448
Fix,GT,37.4360947,-122.243067,55.06658586424589,13.842859,0.1,204.64482,1615921417448
Fix,GT,37.4361496,-122.2432101,55.84216006231308,14.085368,0.1,205.86076,1615921418448
Fix,GT,37.4362065,-122.2433527,56.66112303239108,14.041933,0.1,206.17801,1615921419448
Fix,GT,37.4362629,-122.2434937,57.459425267934805,13.911571,0.1,206.00566,1615921420448
Fix,GT,37.4363189,-122.2436338,58.25367792767287,13.822929,0.1,206.40337,1615921421448
Fix,GT,37.4363763,-122.2437735,59.078338689029216,13.920646,0.1,207.41774,1615921422448
Fix,GT,37.4364378,-122.2439134,59.93348496544361,14.138823,0.1,209.82762,1615921423448
Fix,GT,37.4365062,-122.2440514,60.78112300664186,14.267033,0.1,213.74605,1615921424448
Fix,GT,37.4365822,-122.2441841,61.61710594084859,14.303171,0.1,217.12761,1615921425448
Fix,GT,37.4366623,-122.2443103,62.47337579631805,13.982882,0.1,219.32579,1615921426448
Fix,GT,37.4367425,-122.2444287,63.31957972022891,13.386012,0.1,220.69275,1615921427448
Fix,GT,37.4368209,-122.2445403,64.13890909343957,12.891993,0.1,221.64633,1615921428448
Fix,GT,37.4368981,-122.2446468,64.90413752746582,12.552353,0.1,222.55074,1615921429448
Fix,GT,37.4369754,-122.2447502,65.60739290857315,12.497901,0.1,223.23988,1615921430448
Fix,GT,37.4370545,-122.2448545,66.25424686217308,13.119049,0.1,223.33214,1615921431448
Fix,GT,37.4371395,-122.2449668,66.89829006105661,14.446705,0.1,223.17633,1615921432448
Fix,GT,37.4372331,-122.2450915,67.57091353693605,15.797056,0.1,222.83539,1615921433448
Fix,GT,37.4373327,-122.2452261,68.26368091893197,16.708973,0.1,222.3307,1615921434448
Fix,GT,37.4374359,-122.2453679,68.96968298599124,17.302998,0.1,222.08798,1615921435448
Fix,GT,37.4375422,-122.2455142,69.69048332887888,17.642868,0.1,222.37552,1615921436448
Fix,GT,37.4376498,-122.2456603,70.42095868581532,17.41827,0.1,223.01741,1615921437448
Fix,GT,37.4377565,-122.2458015,71.14724272203446,16.970238,0.1,223.69731,1615921438448
Fix,GT,37.4378625,-122.245939,71.88572620058059,16.953522,0.1,224.06723,1615921439448
Fix,GT,37.4379705,-122.2460791,72.61133541691304,17.703175,0.1,223.40724,1615921440448
Fix,GT,37.438083,-122.2462295,73.36322815442085,18.934242,0.1,222.40385,1615921441448
Fix,GT,37.4382014,-122.2463932,74.1949624811709,20.278034,0.1,221.6859,1615921442448
Fix,GT,37.4383267,-122.2465703,75.0895428531468,21.665493,0.1,221.24467,1615921443448
Fix,GT,37.4384604,-122.2467597,76.03423199772834,23.078382,0.1,221.6944,1615921444448
Fix,GT,37.4386054,-122.2469585,76.99030608057976,24.482353,0.1,223.27557,1615921445448
Fix,GT,37.4387641,-122.247163,77.99443576890229,25.86253,0.1,224.99425,1615921446448
Fix,GT,37.4389349,-122.2473735,79.0647191351652,27.229424,0.1,225.56621,1615921447448
Fix,GT,37.4391143,-122.2475939,80.17711241978407,28.535378,0.1,225.14177,1615921448448
Fix,GT,37.4392998,-122.2478261,81.3376778074801,29.657444,0.1,224.64719,1615921449448
Fix,GT,37.4394906,-122.2480683,82.54224233433604,30.664,0.1,224.25261,1615921450448
Fix,GT,37.4396866,-122.2483203,83.7783879904747,31.683884,0.1,223.96547,1615921451448
Fix,GT,37.4398884,-122.2485816,85.07610390138626,32.68991,0.1,223.89473,1615921452448
Fix,GT,37.4400963,-122.2488507,86.43766610661149,33.568516,0.1,224.03363,1615921453448
Fix,GT,37.4403089,-122.249125,87.8043442106545,34.038605,0.1,223.98965,1615921454448
Fix,GT,37.4405223,-122.249402,89.15341271722318,34.124104,0.1,223.72256,1615921455448
Fix,GT,37.440735,-122.2496803,90.51166375416516,34.12632,0.1,223.52846,1615921456448
Fix,GT,37.4409465,-122.2499587,91.86937309893966,33.85999,0.1,223.4491,1615921457448
Fix,GT,37.4411551,-122.2502338,93.19081632339956,33.301727,0.1,223.58911,1615921458448
Fix,GT,37.4413611,-122.2505036,94.53897798779607,32.84089,0.1,223.78076,1615921459448
Fix,GT,37.441565,-122.2507697,95.9407779415548,32.49822,0.1,223.80612,1615921460448
Fix,GT,37.4417668,-122.2510337,97.34297807112335,32.24433,0.1,223.82191,1615921461448
Fix,GT,37.4419667,-122.2512966,98.73625262737274,32.117695,0.1,223.57709,1615921462448
Fix,GT,37.4421638,-122.2515608,100.09479071885347,32.045918,0.1,222.43735,1615921463448
Fix,GT,37.4423547,-122.2518304,101.40329106792808,31.985146,0.1,220.38112,1615921464448
Fix,GT,37.4425358,-122.2521086,102.68580853140357,31.857899,0.1,217.66481,1615921465448
Fix,GT,37.4427055,-122.2523962,103.95025202664732,31.692286,0.1,215.11736,1615921466448
Fix,GT,37.4428653,-122.2526907,105.18892906591296,31.594296,0.1,213.16049,1615921467448
Fix,GT,37.4430172,-122.2529917,106.4225577085018,31.632992,0.1,211.32542,1615921468448
Fix,GT,37.4431613,-122.2532992,107.65883256578444,31.662148,0.1,209.44894,1615921469448
Fix,GT,37.4432977,-122.2536127,108.89894048041106,31.726105,0.1,207.69249,1615921470448
Fix,GT,37.4434267,-122.2539321,110.16515120628476,31.874496,0.1,205.9289,1615921471448
Fix,GT,37.4435482,-122.2542585,111.44470595228672,32.128326,0.1,203.9824,1615921472448
Fix,GT,37.4436616,-122.2545932,112.7232607744932,32.425343,0.1,201.90753,1615921473448
Fix,GT,37.4437661,-122.254936,114.00708872777224,32.73878,0.1,199.78362,1615921474448
Fix,GT,37.4438615,-122.2552869,115.31692479598522,33.087067,0.1,197.76831,1615921475448
Fix,GT,37.4439481,-122.2556455,116.64140564632416,33.414543,0.1,195.84964,1615921476448
Fix,GT,37.4440259,-122.2560109,117.96392825460433,33.713432,0.1,193.87762,1615921477448
Fix,GT,37.4440941,-122.2563822,119.25790725448726,33.93849,0.1,191.89218,1615921478448
Fix,GT,37.4441523,-122.2567585,120.46487917417286,34.11519,0.1,189.82323,1615921479448
Fix,GT,37.4441995,-122.2571392,121.58664525067806,34.293083,0.1,187.58159,1615921480448
Fix,GT,37.4442351,-122.2575238,122.6299041250944,34.45166,0.1,185.26628,1615921481448
Fix,GT,37.4442581,-122.2579116,123.5759372019768,34.619926,0.1,182.8852,1615921482448
Fix,GT,37.4442686,-122.2583019,124.42098666894437,34.737858,0.1,180.58984,1615921483448
Fix,GT,37.4442667,-122.2586935,125.17550537145138,34.75116,0.1,178.38672,1615921484448
Fix,GT,37.4442531,-122.2590845,125.79239033442737,34.70759,0.1,176.3136,1615921485448
Fix,GT,37.4442297,-122.2594745,126.26780610585212,34.67304,0.1,174.85754,1615921486448
Fix,GT,37.4442001,-122.2598634,126.63135802605748,34.478313,0.1,174.13379,1615921487448
Fix,GT,37.4441682,-122.2602487,126.89678198263049,34.050148,0.1,173.9497,1615921488448
Fix,GT,37.4441369,-122.2606288,127.08652657818794,33.585995,0.1,174.1961,1615921489448
Fix,GT,37.4441077,-122.2610046,127.26844009232522,33.241344,0.1,174.55719,1615921490448
Fix,GT,37.4440805,-122.2613771,127.49330838084222,32.930336,0.1,174.74615,1615921491448
Fix,GT,37.4440539,-122.2617455,127.7069871442616,32.5401,0.1,174.64575,1615921492448
Fix,GT,37.4440266,-122.2621091,127.90006120455266,32.1108,0.1,174.40967,1615921493448
Fix,GT,37.4439986,-122.2624676,128.08735784959794,31.675125,0.1,174.25067,1615921494448
Fix,GT,37.4439708,-122.2628215,128.22799577325583,31.256569,0.1,174.21997,1615921495448
Fix,GT,37.4439433,-122.2631706,128.35204100114106,30.839214,0.1,174.22449,1615921496448
Fix,GT,37.4439161,-122.263515,128.4835804181397,30.416357,0.1,174.2431,1615921497448
Fix,GT,37.4438902,-122.2638551,128.60082320800424,29.995129,0.1,174.72845,1615921498448
Fix,GT,37.4438685,-122.2641914,128.6728274279833,29.587107,0.1,176.27313,1615921499448
Fix,GT,37.4438556,-122.2645242,128.66205765247344,29.228775,0.1,178.35999,1615921500448
Fix,GT,37.4438523,-122.2648546,128.6036667462587,29.133123,0.1,180.08649,1615921501448
Fix,GT,37.4438565,-122.2651854,128.49665034234522,29.309984,0.1,181.7472,1615921502448
Fix,GT,37.4438686,-122.2655183,128.3361195253134,29.51344,0.1,183.4469,1615921503448
Fix,GT,37.4438881,-122.2658528,128.1217612595856,29.707043,0.1,184.94402,1615921504448
Fix,GT,37.4439152,-122.2661883,127.84370781809092,29.82545,0.1,186.65125,1615921505448
Fix,GT,37.4439509,-122.2665239,127.50313614583015,29.911484,0.1,188.67276,1615921506448
Fix,GT,37.4439958,-122.2668586,127.10153126847744,29.99997,0.1,190.38992,1615921507448
Fix,GT,37.4440477,-122.267193,126.66801306247712,30.207546,0.1,191.57208,1615921508448
Fix,GT,37.444106,-122.2675288,126.24001307523253,30.464752,0.1,193.0842,1615921509448
Fix,GT,37.4441727,-122.2678645,125.81560530090331,30.599731,0.1,194.9867,1615921510448
Fix,GT,37.4442485,-122.2681986,125.38439133071898,30.687405,0.1,196.88585,1615921511448
Fix,GT,37.4443334,-122.2685301,124.94118928223848,30.785347,0.1,198.79341,1615921512448
Fix,GT,37.4444275,-122.2688591,124.497045627594,30.945263,0.1,200.6054,1615921513448
Fix,GT,37.44453,-122.2691872,124.01809506577254,31.321627,0.1,202.25813,1615921514448
Fix,GT,37.4446415,-122.2695165,123.5329427187443,31.872253,0.1,203.86519,1615921515448
Fix,GT,37.4447633,-122.269847,123.11116490077973,32.391785,0.1,205.85501,1615921516448
Fix,GT,37.4448963,-122.2701772,122.68328383514286,32.89627,0.1,207.89493,1615921517448
Fix,GT,37.4450407,-122.2705066,122.24447718384864,33.50341,0.1,209.9069,1615921518448
Fix,GT,37.4451978,-122.2708355,121.89402442136408,34.23117,0.1,211.88948,1615921519448
Fix,GT,37.4453669,-122.2711651,121.65674497234822,34.987514,0.1,213.4733,1615921520448
Fix,GT,37.4455468,-122.2714959,121.53922274929286,35.711975,0.1,215.14717,1615921521448
Fix,GT,37.4457384,-122.2718257,121.54991813114286,36.35312,0.1,217.07385,1615921522448
Fix,GT,37.4459423,-122.2721527,121.72279866448044,36.927044,0.1,219.0891,1615921523448
Fix,GT,37.4461574,-122.2724762,122.04589735293388,37.484276,0.1,220.72519,1615921524448
Fix,GT,37.4463815,-122.2727976,122.4762424914837,38.00198,0.1,221.49446,1615921525448
Fix,GT,37.4466106,-122.2731203,123.00626712846756,38.479683,0.1,221.5248,1615921526448
Fix,GT,37.4468419,-122.273448,123.64841107201576,39.05098,0.1,221.09584,1615921527448
Fix,GT,37.4470754,-122.2737833,124.42278959846496,39.7157,0.1,220.96068,1615921528448
Fix,GT,37.4473124,-122.2741236,125.34981005334852,40.22566,0.1,221.15149,1615921529448
Fix,GT,37.4475529,-122.2744665,126.4336001074314,40.51413,0.1,221.34502,1615921530448
Fix,GT,37.4477952,-122.2748103,127.58263713884352,40.676117,0.1,221.39012,1615921531448
Fix,GT,37.4480382,-122.2751553,128.75278526449205,40.801353,0.1,221.23756,1615921532448
Fix,GT,37.4482813,-122.2755019,129.94861653208733,40.89084,0.1,221.203,1615921533448
Fix,GT,37.4485249,-122.2758494,131.13098281598093,40.97081,0.1,221.21518,1615921534448
Fix,GT,37.4487684,-122.2761976,132.2933655245304,40.99321,0.1,220.98097,1615921535448
Fix,GT,37.4490102,-122.2765469,133.45070298933982,40.90051,0.1,220.66026,1615921536448
Fix,GT,37.4492496,-122.2768971,134.55243152987956,40.77974,0.1,220.25763,1615921537448
Fix,GT,37.4494861,-122.2772488,135.55050153467062,40.703598,0.1,219.70146,1615921538448
Fix,GT,37.4497202,-122.2776023,136.3915469085872,40.632973,0.1,219.4126,1615921539448
Fix,GT,37.4499528,-122.2779565,137.08500784265996,40.593857,0.1,219.3397,1615921540448
Fix,GT,37.4501852,-122.2783113,137.74901603472233,40.677788,0.1,219.29613,1615921541448
Fix,GT,37.4504183,-122.2786673,138.35590502667426,40.84759,0.1,219.33083,1615921542448
Fix,GT,37.4506531,-122.2790247,138.78184754037858,41.084206,0.1,219.50403,1615921543448
Fix,GT,37.4508902,-122.2793832,139.02138673877718,41.353844,0.1,219.67107,1615921544448
Fix,GT,37.4511293,-122.2797435,139.1173538894653,41.576317,0.1,219.64972,1615921545448
Fix,GT,37.451369,-122.2801055,139.13006170427798,41.697746,0.1,219.56635,1615921546448
Fix,GT,37.4516083,-122.2804688,139.0526749702394,41.731853,0.1,219.35796,1615921547448
Fix,GT,37.4518469,-122.2808333,138.8757326143384,41.71276,0.1,219.29308,1615921548448
Fix,GT,37.4520853,-122.2811972,138.57939531379938,41.59523,0.1,219.48369,1615921549448
Fix,GT,37.4523237,-122.2815589,138.13020195901393,41.463806,0.1,219.59021,1615921550448
Fix,GT,37.4525618,-122.2819195,137.5881691277623,41.39392,0.1,219.50876,1615921551448
Fix,GT,37.4527993,-122.2822801,136.94000459831955,41.411007,0.1,219.41176,1615921552448
Fix,GT,37.4530367,-122.2826419,136.18124338808656,41.55431,0.1,219.32881,1615921553448
Fix,GT,37.4532748,-122.2830058,135.31077021944526,41.782093,0.1,219.27608,1615921554448
Fix,GT,37.4535139,-122.283372,134.38863432359693,41.96466,0.1,219.2242,1615921555448
Fix,GT,37.4537537,-122.2837393,133.47295118165016,42.037563,0.1,219.34837,1615921556448
Fix,GT,37.4539947,-122.2841063,132.546626111269,42.06443,0.1,219.51735,1615921557448
Fix,GT,37.4542364,-122.2844727,131.61046559119225,42.095207,0.1,219.56927,1615921558448
Fix,GT,37.4544785,-122.2848391,130.68580693531038,42.113625,0.1,219.6026,1615921559448
Fix,GT,37.4547205,-122.2852054,129.7539838525355,42.08088,0.1,219.5619,1615921560448
Fix,GT,37.4549618,-122.2855712,128.8269467933476,41.90891,0.1,219.51819,1615921561448
Fix,GT,37.4552016,-122.2859348,127.8904573227167,41.57137,0.1,219.55551,1615921562448
Fix,GT,37.4554394,-122.2862952,126.93006639939546,41.22075,0.1,219.505,1615921563448
Fix,GT,37.4556753,-122.2866528,125.92194329187274,40.903557,0.1,219.6393,1615921564448
Fix,GT,37.4559114,-122.2870062,124.94933007484676,40.632584,0.1,220.4139,1615921565448
Fix,GT,37.4561516,-122.2873517,124.190206487149,40.347004,0.1,222.21204,1615921566448
Fix,GT,37.4564007,-122.2876834,123.70848988389967,40.087242,0.1,224.94505,1615921567448
Fix,GT,37.4566616,-122.2879978,123.45730459856988,40.009285,0.1,227.86557,1615921568448
Fix,GT,37.4569347,-122.2882954,123.39918884074687,40.05048,0.1,230.76216,1615921569448
Fix,GT,37.457219,-122.2885758,123.56081423273682,39.988388,0.1,233.19135,1615921570448
Fix,GT,37.457511,-122.2888403,123.97750181043148,39.781693,0.1,235.41902,1615921571448
Fix,GT,37.4578099,-122.2890882,124.6023704852164,39.522816,0.1,238.04257,1615921572448
Fix,GT,37.4581156,-122.2893169,125.3421811377704,39.28856,0.1,240.70642,1615921573448
Fix,GT,37.4584277,-122.2895264,126.12560463094712,39.09011,0.1,243.30685,1615921574448
Fix,GT,37.4587453,-122.2897178,126.92912725734712,38.91037,0.1,245.71301,1615921575448
Fix,GT,37.4590671,-122.2898914,127.74402819639444,38.63181,0.1,248.05048,1615921576448
Fix,GT,37.4593913,-122.2900465,128.50620110303163,38.12729,0.1,250.48288,1615921577448
Fix,GT,37.4597154,-122.290182,129.2277613671124,37.532722,0.1,252.8039,1615921578448
Fix,GT,37.4600386,-122.2903003,129.97089692389966,37.04352,0.1,254.82831,1615921579448
Fix,GT,37.4603613,-122.2904029,130.7723207502365,36.687386,0.1,256.99582,1615921580448
Fix,GT,37.4606853,-122.2904872,131.58945229816436,36.560646,0.1,260.0094,1615921581448
Fix,GT,37.4610121,-122.2905505,132.3145181661546,36.627586,0.1,262.67194,1615921582448
Fix,GT,37.4613413,-122.2905962,133.05190519189836,36.72123,0.1,264.65808,1615921583448
Fix,GT,37.4616721,-122.290628,133.87021397086977,36.74343,0.1,266.6869,1615921584448
Fix,GT,37.4620031,-122.2906467,134.75258843296766,36.65925,0.1,268.1179,1615921585448
Fix,GT,37.4623328,-122.2906574,135.56862540388107,36.480213,0.1,268.63538,1615921586448
Fix,GT,37.4626597,-122.2906657,136.29085174918174,36.057182,0.1,268.63538,1615921587448
Fix,GT,37.4629818,-122.2906743,136.99327559360862,35.40057,0.1,268.90234,1615921588448
Fix,GT,37.463298,-122.2906797,137.72341968667507,34.696274,0.1,269.74527,1615921589448
Fix,GT,37.4636075,-122.2906797,138.54115218359232,33.962345,0.1,270.213,1615921590448
Fix,GT,37.4639098,-122.2906798,139.39863778442145,33.222054,0.1,269.54858,1615921591448
Fix,GT,37.4642054,-122.2906859,140.05416452887656,32.534775,0.1,268.29993,1615921592448
Fix,GT,37.4644948,-122.2907009,140.5208930709958,31.89841,0.1,266.7869,1615921593448
Fix,GT,37.4647779,-122.2907255,140.95925933977963,31.273212,0.1,264.93054,1615921594448
Fix,GT,37.4650547,-122.290761,141.3390617387891,30.66906,0.1,263.16138,1615921595448
Fix,GT,37.4653255,-122.2908057,141.66549785861372,30.110466,0.1,261.69626,1615921596448
Fix,GT,37.4655912,-122.2908576,141.95900401982664,29.737425,0.1,260.44904,1615921597448
Fix,GT,37.4658538,-122.2909152,142.2413293734789,29.498026,0.1,259.87933,1615921598448
Fix,GT,37.466114,-122.2909736,142.56458441579343,29.086664,0.1,260.15695,1615921599448
Fix,GT,37.4663691,-122.2910292,142.91046905586123,28.333979,0.1,259.97122,1615921600448
Fix,GT,37.4666158,-122.2910863,143.23788056719303,27.43079,0.1,258.73077,1615921601448
Fix,GT,37.466854,-122.2911496,143.41151440119745,26.817278,0.1,257.11127,1615921602448
Fix,GT,37.4670866,-122.2912194,143.25304108083247,26.304045,0.1,255.8322,1615921603448
Fix,GT,37.4673112,-122.2912928,142.78913991898298,25.193922,0.1,254.67668,1615921604448
Fix,GT,37.4675223,-122.2913678,142.18131259602308,23.650537,0.1,253.27176,1615921605448
Fix,GT,37.4677189,-122.2914453,141.48273228937387,22.24395,0.1,251.4654,1615921606448
Fix,GT,37.4679006,-122.2915242,140.6016210259497,20.488983,0.1,250.02655,1615921607448
Fix,GT,37.4680649,-122.2915997,139.64752232050895,18.465147,0.1,249.49794,1615921608448
Fix,GT,37.468213,-122.2916689,138.70618488049507,16.558456,0.1,249.83215,1615921609448
Fix,GT,37.4683448,-122.2917286,137.86979809731247,14.251986,0.1,250.97919,1615921610448
Fix,GT,37.4684564,-122.2917756,137.2757776042521,11.733568,0.1,252.10258,1615921611448
Fix,GT,37.4685469,-122.291812,136.9320369461775,9.313099,0.1,252.24074,1615921612448
Fix,GT,37.4686143,-122.2918399,136.76397119522096,6.5819635,0.1,250.15189,1615921613448
Fix,GT,37.4686561,-122.2918599,136.69715640181303,3.7248466,0.1,246.46921,1615921614448
Fix,GT,37.4686761,-122.2918713,136.67534568035603,1.4920877,0.1,244.28217,1615921615448
Fix,GT,37.4686841,-122.2918766,136.67834568035602,0.69029665,0.1,243.72163,1615921616448
Fix,GT,37.4686881,-122.2918797,136.68673247560858,0.46833846,0.1,243.44733,1615921617448
Fix,GT,37.4686918,-122.2918826,136.69858848142624,0.5663262,0.1,243.06757,1615921618448
Fix,GT,37.4687005,-122.2918891,136.71600824517012,2.024547,0.1,240.34344,1615921619448
Fix,GT,37.4687192,-122.2919058,136.7750617828369,3.9331112,0.1,230.35724,1615921620448
Fix,GT,37.4687408,-122.2919379,136.9002181982994,5.445607,0.1,210.56801,1615921621448
Fix,GT,37.4687536,-122.2919891,137.06167084595563,6.81746,0.1,185.07811,1615921622448
Fix,GT,37.4687462,-122.292059,137.17432922133804,8.216219,0.1,162.53943,1615921623448
Fix,GT,37.4687132,-122.2921431,137.18954728093743,9.950731,0.1,147.88275,1615921624448
Fix,GT,37.4686564,-122.2922379,137.15326743629572,11.838642,0.1,139.64954,1615921625448
Fix,GT,37.4685795,-122.2923424,137.08234972906112,13.610792,0.1,135.97345,1615921626448
Fix,GT,37.4684896,-122.2924564,136.90747720205783,14.640785,0.1,135.30579,1615921627448
Fix,GT,37.4683961,-122.2925753,136.5934401204288,14.753267,0.1,136.27179,1615921628448
Fix,GT,37.4683053,-122.2926962,136.16610254573823,14.52329,0.1,137.75659,1615921629448
Fix,GT,37.4682191,-122.2928151,135.63818067395687,13.858326,0.1,137.3823,1615921630448
Fix,GT,37.4681387,-122.2929241,135.0486249987781,12.480761,0.1,136.26227,1615921631448
Fix,GT,37.4680662,-122.2930203,134.4198512802422,10.850868,0.1,136.92651,1615921632448
Fix,GT,37.4680051,-122.2931095,133.78741518956423,9.499041,0.1,143.29486,1615921633448
Fix,GT,37.4679605,-122.2932035,133.1298965770602,8.886205,0.1,156.83862,1615921634448
Fix,GT,37.4679394,-122.2933093,132.39661275351048,8.899178,0.1,176.45221,1615921635448
Fix,GT,37.467951,-122.2934198,131.87585988092422,9.314892,0.1,199.46143,1615921636448
Fix,GT,37.4679979,-122.2935241,131.7671603589952,10.7282295,0.1,217.54741,1615921637448
Fix,GT,37.4680732,-122.2936242,131.851897023201,12.885683,0.1,226.49075,1615921638448
Fix,GT,37.4681671,-122.2937295,131.97255567234754,14.806488,0.1,228.26253,1615921639448
Fix,GT,37.4682716,-122.2938447,132.26006233340502,15.941837,0.1,228.05276,1615921640448
Fix,GT,37.4683804,-122.2939637,132.787543905437,15.861107,0.1,228.66277,1615921641448
Fix,GT,37.4684884,-122.2940769,133.4109471142292,15.162264,0.1,230.48784,1615921642448
Fix,GT,37.4685956,-122.2941795,134.10255612206458,14.384808,0.1,234.85992,1615921643448
Fix,GT,37.4687066,-122.2942627,134.8969351514578,13.53837,0.1,244.6182,1615921644448
Fix,GT,37.4688233,-122.2943119,135.80298869124056,12.741596,0.1,259.35754,1615921645448
Fix,GT,37.4689415,-122.294319,136.71459350395205,12.535378,0.1,275.80038,1615921646448
Fix,GT,37.4690577,-122.2942808,137.57099675750732,12.968765,0.1,293.36884,1615921647448
Fix,GT,37.4691634,-122.2941962,138.37335884025694,13.590119,0.1,311.44006,1615921648448
Fix,GT,37.4692468,-122.2940694,139.1527457410097,14.47213,0.1,328.88895,1615921649448
Fix,GT,37.4693002,-122.2939066,139.9910750297904,15.530765,0.1,346.04385,1615921650448
Fix,GT,37.469314,-122.2937214,140.9323879080117,16.100979,0.1,4.0088196,1615921651448
Fix,GT,37.4692814,-122.2935367,141.90681589305402,16.269964,0.1,22.34372,1615921652448
Fix,GT,37.4692034,-122.2933703,142.7293012187481,16.972332,0.1,38.70172,1615921653448
Fix,GT,37.4690912,-122.293225,143.34256454902885,18.244455,0.1,48.128326,1615921654448
Fix,GT,37.4689587,-122.2930858,143.82561386474967,19.980043,0.1,51.106476,1615921655448
Fix,GT,37.4688083,-122.2929393,144.16340354406833,22.12201,0.1,52.987305,1615921656448
Fix,GT,37.4686383,-122.2927846,144.20836587893962,24.345327,0.1,54.89981,1615921657448
Fix,GT,37.4684469,-122.2926232,144.03518064194918,26.571077,0.1,57.30493,1615921658448
Fix,GT,37.4682337,-122.2924606,143.80892559123038,28.505575,0.1,60.154785,1615921659448
Fix,GT,37.4680009,-122.2923011,143.5447856645584,30.199697,0.1,62.427246,1615921660448
Fix,GT,37.4677506,-122.2921432,143.29607378554346,31.843224,0.1,64.11087,1615921661448
Fix,GT,37.4674832,-122.2919867,143.00513958120348,33.481514,0.1,66.05167,1615921662448
Fix,GT,37.4671983,-122.2918347,142.6739586195648,35.002502,0.1,68.19971,1615921663448
Fix,GT,37.466897,-122.291691,142.3664935131967,36.33677,0.1,70.32391,1615921664448
Fix,GT,37.466582,-122.291555,142.01976084047556,37.524277,0.1,71.63156,1615921665448
Fix,GT,37.4662548,-122.2914244,141.65175257110596,38.513905,0.1,73.28702,1615921666448
Fix,GT,37.4659158,-122.2913068,141.27178962022066,39.264038,0.1,76.3136,1615921667448
Fix,GT,37.4655682,-122.2912094,140.89678962022066,39.46953,0.1,78.97034,1615921668448
Fix,GT,37.4652184,-122.2911304,140.4863533002138,39.17721,0.1,81.04718,1615921669448
Fix,GT,37.4648703,-122.2910675,140.05253854578734,38.723583,0.1,82.95001,1615921670448
Fix,GT,37.4645249,-122.29102,139.59419265174864,38.23932,0.1,84.89325,1615921671448
Fix,GT,37.4641829,-122.2909877,139.07833259451388,37.753304,0.1,86.80557,1615921672448
Fix,GT,37.4638448,-122.2909681,138.58248080730436,37.27614,0.1,87.985535,1615921673448
Fix,GT,37.4635111,-122.2909552,138.04727076387405,36.839836,0.1,88.417114,1615921674448
Fix,GT,37.4631811,-122.2909443,137.40921719214322,36.420826,0.1,88.53699,1615921675448
Fix,GT,37.4628549,-122.2909342,136.71537764847278,36.01358,0.1,88.63745,1615921676448
Fix,GT,37.4625325,-122.2909248,136.09976056149603,35.496037,0.1,88.67557,1615921677448
Fix,GT,37.4622171,-122.2909148,135.65406521818042,34.415268,0.1,88.37677,1615921678448
Fix,GT,37.4619146,-122.2909022,135.27662491741776,32.798027,0.1,87.71814,1615921679448
Fix,GT,37.4616264,-122.2908847,134.8477893024087,31.43314,0.1,86.44275,1615921680448
Fix,GT,37.4613495,-122.2908585,134.28969037145376,30.433712,0.1,84.5719,1615921681448
Fix,GT,37.4610825,-122.2908218,133.67189610868692,29.423777,0.1,82.57596,1615921682448
Fix,GT,37.4608249,-122.2907752,133.07028709539773,28.527573,0.1,80.85068,1615921683448
Fix,GT,37.4605753,-122.2907207,132.49308132255078,27.912298,0.1,79.14172,1615921684448
Fix,GT,37.4603314,-122.2906577,131.9369208717048,27.611412,0.1,77.318665,1615921685448
Fix,GT,37.460091,-122.2905854,131.3850812895298,27.436562,0.1,75.53546,1615921686448
Fix,GT,37.4598537,-122.2905046,130.81591256672144,27.31947,0.1,73.894684,1615921687448
Fix,GT,37.4596187,-122.2904156,130.26153808870913,27.301025,0.1,72.308075,1615921688448
Fix,GT,37.4593858,-122.2903187,129.73134058883787,27.282259,0.1,70.7699,1615921689448
Fix,GT,37.4591559,-122.2902138,129.22517186790705,27.235207,0.1,69.145355,1615921690448
Fix,GT,37.4589277,-122.2901004,128.7055380423367,27.461891,0.1,67.43677,1615921691448
Fix,GT,37.4586994,-122.2899771,128.14169845980405,27.891243,0.1,65.7681,1615921692448
Fix,GT,37.458471,-122.2898435,127.54931570908428,28.172272,0.1,63.96637,1615921693448
Fix,GT,37.4582443,-122.2896996,126.9673572049737,28.388958,0.1,62.07483,1615921694448
Fix,GT,37.45802,-122.2895459,126.42115972232818,28.489475,0.1,60.404694,1615921695448
Fix,GT,37.4577992,-122.2893842,125.90213094496728,28.419018,0.1,58.843597,1615921696448
Fix,GT,37.4575822,-122.2892149,125.42373597967624,28.487898,0.1,57.20459,1615921697448
Fix,GT,37.4573679,-122.2890368,125.04229173249009,28.727226,0.1,55.509552,1615921698448
Fix,GT,37.4571565,-122.2888489,124.77969928455354,29.011715,0.1,53.58203,1615921699448
Fix,GT,37.4569479,-122.2886496,124.61924676454068,29.368498,0.1,51.581787,1615921700448
Fix,GT,37.4567428,-122.2884391,124.53608633208276,29.641861,0.1,49.561707,1615921701448
Fix,GT,37.4565424,-122.2882186,124.54920179659128,29.656265,0.1,47.624878,1615921702448
Fix,GT,37.4563483,-122.2879907,124.71634233224393,29.511292,0.1,45.858276,1615921703448
Fix,GT,37.4561608,-122.2877562,124.99374160623552,29.469028,0.1,44.112305,1615921704448
Fix,GT,37.4559797,-122.2875149,125.3608775692582,29.34514,0.1,42.205536,1615921705448
Fix,GT,37.455806,-122.2872685,125.79312411832808,28.966751,0.1,40.626892,1615921706448
Fix,GT,37.4556393,-122.2870207,126.18371656036378,28.512108,0.1,39.772217,1615921707448
Fix,GT,37.4554762,-122.2867744,126.5268973160088,28.205883,0.1,39.613495,1615921708448
Fix,GT,37.4553143,-122.28653,126.94349014237524,28.035303,0.1,39.6463,1615921709448
Fix,GT,37.4551535,-122.2862869,127.47581984192134,27.861803,0.1,39.503387,1615921710448
Fix,GT,37.454994,-122.2860443,128.08825618076324,27.8407,0.1,39.318054,1615921711448
Fix,GT,37.4548346,-122.2858005,128.72003006303308,28.00143,0.1,39.13849,1615921712448
Fix,GT,37.4546745,-122.2855543,129.32965945136544,28.238804,0.1,39.21054,1615921713448
Fix,GT,37.4545124,-122.2853062,129.95449463173748,28.538342,0.1,39.351868,1615921714448
Fix,GT,37.4543481,-122.2850559,130.59366390398145,28.833054,0.1,39.370117,1615921715448
Fix,GT,37.4541818,-122.2848025,131.23673363089563,29.260601,0.1,39.361267,1615921716448
Fix,GT,37.4540125,-122.2845447,131.867009149611,29.78519,0.1,39.449036,1615921717448
Fix,GT,37.4538404,-122.284284,132.5123304439783,30.05214,0.1,39.645203,1615921718448
Fix,GT,37.4536671,-122.2840227,133.1773592531681,30.0736,0.1,39.662872,1615921719448
Fix,GT,37.4534942,-122.2837615,133.85558557766677,30.007776,0.1,39.54184,1615921720448
Fix,GT,37.4533223,-122.2835006,134.50796396297216,29.92109,0.1,39.382385,1615921721448
Fix,GT,37.4531514,-122.2832398,135.10855675905944,29.777243,0.1,39.308167,1615921722448
Fix,GT,37.452982,-122.2829811,135.69501754760742,29.419374,0.1,39.353302,1615921723448
Fix,GT,37.452815,-122.2827266,136.21569234085084,28.914865,0.1,39.380096,1615921724448
Fix,GT,37.4526506,-122.2824766,136.68212840634584,28.40063,0.1,39.449707,1615921725448
Fix,GT,37.4524889,-122.2822316,137.09559338873623,27.898224,0.1,39.610596,1615921726448
Fix,GT,37.4523294,-122.281991,137.44356443521383,27.52446,0.1,39.666748,1615921727448
Fix,GT,37.452171,-122.2817521,137.73998004198074,27.535715,0.1,39.686584,1615921728448
Fix,GT,37.4520113,-122.2815115,138.00013215506078,27.919052,0.1,39.5755,1615921729448
Fix,GT,37.4518495,-122.281266,138.216202098012,28.478369,0.1,39.28253,1615921730448
Fix,GT,37.4516855,-122.2810146,138.40511558109523,28.945112,0.1,39.123383,1615921731448
Fix,GT,37.4515204,-122.2807609,138.54703317427635,28.94997,0.1,39.14502,1615921732448
Fix,GT,37.4513562,-122.2805088,138.63790958169102,28.654243,0.1,39.232788,1615921733448
Fix,GT,37.4511931,-122.2802591,138.6692016197741,28.521292,0.1,39.2146,1615921734448
Fix,GT,37.4510301,-122.2800086,138.64502046656608,28.76886,0.1,39.056824,1615921735448
Fix,GT,37.4508651,-122.2797544,138.57897510892153,29.261656,0.1,39.143005,1615921736448
Fix,GT,37.4506964,-122.2794964,138.46012307605147,29.7515,0.1,39.422302,1615921737448
Fix,GT,37.4505249,-122.2792354,138.26669079983233,30.091934,0.1,39.442596,1615921738448
Fix,GT,37.4503518,-122.2789716,138.02655086565017,30.35329,0.1,39.474945,1615921739448
Fix,GT,37.450177,-122.2787066,137.71033647689222,30.458435,0.1,39.74585,1615921740448
Fix,GT,37.4500014,-122.2784427,137.31250934869053,30.302605,0.1,39.90857,1615921741448
Fix,GT,37.449827,-122.2781812,136.91498257106542,30.03825,0.1,39.859924,1615921742448
Fix,GT,37.4496542,-122.2779215,136.46347205802795,29.872814,0.1,39.730957,1615921743448
Fix,GT,37.4494818,-122.2776613,135.95802755451203,30.135769,0.1,39.56601,1615921744448
Fix,GT,37.4493067,-122.2773964,135.3896814406514,30.836098,0.1,39.676666,1615921745448
Fix,GT,37.4491271,-122.2771265,134.72359495425223,31.270256,0.1,39.94763,1615921746448
Fix,GT,37.4489459,-122.276856,133.9840433330536,31.23835,0.1,40.07791,1615921747448
Fix,GT,37.4487646,-122.2765861,133.15823249828816,31.21548,0.1,40.230713,1615921748448
Fix,GT,37.4485816,-122.2763169,132.27670546388626,31.405478,0.1,40.74585,1615921749448
Fix,GT,37.4483945,-122.2760472,131.376783485353,31.84016,0.1,41.26535,1615921750448
Fix,GT,37.4482031,-122.2757751,130.46928560096023,32.35824,0.1,41.441284,1615921751448
Fix,GT,37.4480087,-122.2754994,129.52682873123882,32.768528,0.1,41.410797,1615921752448
Fix,GT,37.4478128,-122.2752212,128.56468492174147,32.894848,0.1,41.42389,1615921753448
Fix,GT,37.4476168,-122.2749429,127.60542096045614,32.789787,0.1,41.416595,1615921754448
Fix,GT,37.4474219,-122.2746657,126.66383692777156,32.61538,0.1,41.33081,1615921755448
Fix,GT,37.4472281,-122.2743896,125.73473026540876,32.49851,0.1,41.323975,1615921756448
Fix,GT,37.4470348,-122.2741143,124.8466560600996,32.414238,0.1,41.34369,1615921757448
Fix,GT,37.4468423,-122.2738399,124.05789506042004,32.26415,0.1,41.29785,1615921758448
Fix,GT,37.446651,-122.2735667,123.38427396202088,32.08699,0.1,41.23703,1615921759448
Fix,GT,37.4464611,-122.2732948,122.84534891596437,31.8792,0.1,41.13803,1615921760448
Fix,GT,37.4462731,-122.2730242,122.45998265075684,31.647806,0.1,40.960754,1615921761448
Fix,GT,37.4460872,-122.2727545,122.17334029129148,31.518145,0.1,40.811157,1615921762448
Fix,GT,37.4459022,-122.2724846,121.9554727843404,31.46645,0.1,40.569366,1615921763448
Fix,GT,37.44572,-122.272214,121.82110666769742,31.27657,0.1,39.540344,1615921764448
Fix,GT,37.4455449,-122.27194,121.7399139238,31.068996,0.1,37.6351,1615921765448
Fix,GT,37.4453783,-122.2716606,121.72611119401456,30.850101,0.1,35.70288,1615921766448
Fix,GT,37.4452204,-122.2713774,121.79303690961004,30.459812,0.1,34.02182,1615921767448
Fix,GT,37.445071,-122.2710926,121.95298881414531,30.042772,0.1,32.47232,1615921768448
Fix,GT,37.4449297,-122.270806,122.21230094844104,29.785011,0.1,30.844269,1615921769448
Fix,GT,37.444796,-122.2705162,122.51832970002292,29.66257,0.1,29.062378,1615921770448
Fix,GT,37.4446702,-122.270223,122.83978762808442,29.390835,0.1,27.378479,1615921771448
Fix,GT,37.4445523,-122.2699289,123.18885710203648,28.983742,0.1,25.932037,1615921772448
Fix,GT,37.4444417,-122.2696354,123.49507862243055,28.6531,0.1,24.545074,1615921773448
Fix,GT,37.4443378,-122.2693406,123.77491460090876,28.563175,0.1,22.996399,1615921774448
Fix,GT,37.4442405,-122.2690429,124.13128992140292,28.541393,0.1,21.456085,1615921775448
Fix,GT,37.4441497,-122.2687425,124.49901749277116,28.45295,0.1,19.936981,1615921776448
Fix,GT,37.4440657,-122.2684406,124.81392667403816,28.291477,0.1,18.35315,1615921777448
Fix,GT,37.443989,-122.2681384,125.13515745282174,27.960758,0.1,16.78247,1615921778448
Fix,GT,37.4439199,-122.2678379,125.44180803805592,27.530674,0.1,15.224823,1615921779448
Fix,GT,37.4438583,-122.2675399,125.75937155163288,27.090542,0.1,13.822205,1615921780448
Fix,GT,37.443803,-122.2672442,126.07218622398376,26.828693,0.1,12.546295,1615921781448
Fix,GT,37.4437532,-122.2669481,126.36780804681776,26.95964,0.1,11.145935,1615921782448
Fix,GT,37.4437087,-122.2666459,126.67326038122178,27.602577,0.1,9.728027,1615921783448
Fix,GT,37.4436692,-122.2663347,126.96849487793446,28.251835,0.1,8.333405,1615921784448
Fix,GT,37.4436353,-122.2660179,127.24779971718787,28.453403,0.1,6.907959,1615921785448
Fix,GT,37.4436074,-122.2656977,127.49060981822016,28.723846,0.1,5.4445496,1615921786448
Fix,GT,37.443586,-122.2653732,127.68498425048593,28.971268,0.1,3.8283691,1615921787448
Fix,GT,37.4435722,-122.2650474,127.84306663489345,28.879854,0.1,2.1083984,1615921788448
Fix,GT,37.443566,-122.2647236,127.93936237812042,28.57909,0.1,0.4954834,1615921789448
Fix,GT,37.4435669,-122.2644032,127.9644811053872,28.278894,0.1,358.96298,1615921790448
Fix,GT,37.4435742,-122.2640858,127.9441277860403,28.07243,0.1,357.54257,1615921791448
Fix,GT,37.4435876,-122.2637698,127.90374429801108,28.130966,0.1,356.12512,1615921792448
Fix,GT,37.443608,-122.2634516,127.86002872490884,28.603657,0.1,354.54886,1615921793448
Fix,GT,37.4436352,-122.2631266,127.75345210373402,29.401031,0.1,353.1847,1615921794448
Fix,GT,37.4436689,-122.262793,127.51085449138284,30.20188,0.1,352.2133,1615921795448
Fix,GT,37.4437067,-122.2624515,127.22018421387672,30.839851,0.1,351.91925,1615921796448
Fix,GT,37.4437456,-122.2621031,126.92371071505546,31.386097,0.1,352.08035,1615921797448
Fix,GT,37.4437842,-122.2617494,126.66327884560825,31.732077,0.1,352.17636,1615921798448
Fix,GT,37.4438228,-122.2613934,126.44324634814262,31.902346,0.1,352.15564,1615921799448
Fix,GT,37.4438621,-122.2610352,126.2391843175888,32.124226,0.1,352.03018,1615921800448
Fix,GT,37.4439015,-122.260675,126.04567371147871,32.15904,0.1,352.1821,1615921801448
Fix,GT,37.4439396,-122.2603157,125.81326208269596,31.942352,0.1,352.52014,1615921802448
Fix,GT,37.4439758,-122.259959,125.48140564244986,31.662647,0.1,352.94214,1615921803448
Fix,GT,37.4440087,-122.2596042,125.07062799179552,31.484623,0.1,353.85056,1615921804448
Fix,GT,37.4440355,-122.2592496,124.61044631886485,31.395203,0.1,355.54208,1615921805448
Fix,GT,37.4440529,-122.2588952,124.08911257755756,31.2476,0.1,357.70367,1615921806448
Fix,GT,37.4440599,-122.2585424,123.4867751570344,31.053215,0.1,359.64026,1615921807448
Fix,GT,37.4440574,-122.2581912,122.8128686104715,30.959267,0.1,1.566925,1615921808448
Fix,GT,37.4440451,-122.2578407,122.06997976225614,30.943111,0.1,3.6382446,1615921809448
Fix,GT,37.4440231,-122.2574916,121.25292589187625,30.855183,0.1,5.6416626,1615921810448
Fix,GT,37.4439915,-122.2571447,120.3684198218584,30.766403,0.1,7.6402893,1615921811448
Fix,GT,37.44395,-122.2568002,119.40784683418276,30.713863,0.1,9.740204,1615921812448
Fix,GT,37.4438988,-122.2564583,118.36171877390149,30.684216,0.1,11.750397,1615921813448
Fix,GT,37.4438383,-122.2561191,117.2476361646652,30.65757,0.1,13.726868,1615921814448
Fix,GT,37.4437687,-122.255783,116.06233456164595,30.650246,0.1,15.620605,1615921815448
Fix,GT,37.4436904,-122.2554498,114.81818761962651,30.652714,0.1,17.473877,1615921816448
Fix,GT,37.443603,-122.2551201,113.57243720969558,30.66896,0.1,19.518799,1615921817448
Fix,GT,37.4435064,-122.2547942,112.33122795724869,30.690634,0.1,21.522217,1615921818448
Fix,GT,37.4434011,-122.2544727,111.08595133718848,30.664715,0.1,23.351807,1615921819448
Fix,GT,37.4432879,-122.254156,109.84550446778536,30.60328,0.1,25.242981,1615921820448
Fix,GT,37.4431664,-122.2538448,108.60525650703909,30.530235,0.1,27.226196,1615921821448
Fix,GT,37.4430365,-122.2535401,107.360161952734,30.453213,0.1,29.275452,1615921822448
Fix,GT,37.4428985,-122.253242,106.15055305457116,30.380943,0.1,31.190826,1615921823448
Fix,GT,37.4427531,-122.2529505,104.95009602469206,30.312029,0.1,33.141296,1615921824448
Fix,GT,37.4426,-122.252666,103.72547034096718,30.249075,0.1,35.18515,1615921825448
Fix,GT,37.4424393,-122.2523892,102.52286674138904,30.186047,0.1,37.18875,1615921826448
Fix,GT,37.4422718,-122.2521198,101.35618138620256,30.17146,0.1,38.905884,1615921827448
Fix,GT,37.4420977,-122.2518559,100.1121650004983,30.325485,0.1,40.488403,1615921828448
Fix,GT,37.4419166,-122.2515968,98.85835529494284,30.472692,0.1,42.16217,1615921829448
Fix,GT,37.4417302,-122.2513434,97.72454068094493,30.431156,0.1,43.303925,1615921830448
Fix,GT,37.4415415,-122.2510942,96.57830965995788,30.359995,0.1,43.699646,1615921831448
Fix,GT,37.4413521,-122.2508467,95.36971265500785,30.342224,0.1,43.92935,1615921832448
Fix,GT,37.4411618,-122.2505998,94.1447524600029,30.468143,0.1,44.056274,1615921833448
Fix,GT,37.4409703,-122.2503516,92.9462779442072,30.667501,0.1,43.972168,1615921834448
Fix,GT,37.4407781,-122.2501017,91.73705243363976,30.77543,0.1,43.89557,1615921835448
Fix,GT,37.4405854,-122.2498508,90.48384115892648,30.889248,0.1,43.86676,1615921836448
Fix,GT,37.4403921,-122.2495989,89.25078647816181,31.028385,0.1,43.896698,1615921837448
Fix,GT,37.4401977,-122.2493467,88.03171221548318,31.024673,0.1,44.083923,1615921838448
Fix,GT,37.4400032,-122.2490955,86.84442879867555,30.958473,0.1,44.081573,1615921839448
Fix,GT,37.4398093,-122.2488442,85.66716063523293,30.924925,0.1,43.903107,1615921840448
Fix,GT,37.4396159,-122.2485925,84.37277523893118,30.936539,0.1,43.970093,1615921841448
Fix,GT,37.4394217,-122.2483416,83.04925485610963,30.88728,0.1,44.42758,1615921842448
Fix,GT,37.4392263,-122.2480939,81.80461139988898,30.700058,0.1,44.958984,1615921843448
Fix,GT,37.4390312,-122.2478506,80.57850358763338,30.340492,0.1,45.26355,1615921844448
Fix,GT,37.4388381,-122.2476116,79.36741387787461,29.866312,0.1,45.455505,1615921845448
Fix,GT,37.4386475,-122.247378,78.18596894577146,29.198025,0.1,45.999847,1615921846448
Fix,GT,37.438458,-122.2471552,77.03881105709075,28.334541,0.1,48.151825,1615921847448
Fix,GT,37.4382665,-122.2469485,75.92378001442552,27.55976,0.1,50.758514,1615921848448
Fix,GT,37.4380745,-122.2467557,74.78793622612953,26.977503,0.1,51.690857,1615921849448
Fix,GT,37.4378847,-122.2465685,73.6272880858779,26.698446,0.1,51.876648,1615921850448
Fix,GT,37.4376959,-122.2463823,72.49236222219467,26.608133,0.1,51.712433,1615921851448
Fix,GT,37.4375085,-122.2461956,71.3844077001214,26.561909,0.1,51.339325,1615921852448
Fix,GT,37.4373225,-122.2460076,70.31220826926827,26.506428,0.1,50.945984,1615921853448
Fix,GT,37.4371379,-122.2458184,69.2223270291388,26.433968,0.1,50.376617,1615921854448
Fix,GT,37.4369559,-122.2456276,68.05199098271132,26.300638,0.1,49.630707,1615921855448
Fix,GT,37.4367772,-122.2454361,66.77778201422095,25.866852,0.1,49.07837,1615921856448
Fix,GT,37.4366041,-122.2452476,65.42449801641703,24.93488,0.1,48.757904,1615921857448
Fix,GT,37.4364399,-122.2450665,64.11553374731541,23.606644,0.1,48.410797,1615921858448
Fix,GT,37.4362856,-122.2448945,62.90238195359707,22.245707,0.1,48.261322,1615921859448
Fix,GT,37.43614,-122.2447324,61.77009865093231,20.888699,0.1,48.525574,1615921860448
Fix,GT,37.436004,-122.2445824,60.75324558293819,19.196892,0.1,48.918365,1615921861448
Fix,GT,37.4358799,-122.2444477,59.89418978518248,17.112148,0.1,49.646576,1615921862448
Fix,GT,37.4357695,-122.2443312,59.24029808440804,14.877613,0.1,50.24524,1615921863448
Fix,GT,37.4356741,-122.2442312,58.80811265587807,12.820099,0.1,49.46158,1615921864448
Fix,GT,37.435594,-122.2441439,58.538940759241584,10.908821,0.1,48.313385,1615921865448
Fix,GT,37.4355272,-122.2440684,58.37182616698742,9.119763,0.1,47.72168,1615921866448
Fix,GT,37.4354716,-122.2440044,58.26990884661675,7.6339703,0.1,47.388824,1615921867448
Fix,GT,37.4354256,-122.2439506,58.1939088420868,6.478696,0.1,47.09198,1615921868448
Fix,GT,37.4353853,-122.243903,58.1053489356041,5.8961353,0.1,47.329224,1615921869448
Fix,GT,37.4353448,-122.2438558,58.001797497391706,6.3490915,0.1,47.746307,1615921870448
Fix,GT,37.4353007,-122.2438037,57.88982439976931,7.2934685,0.1,45.258057,1615921871448
Fix,GT,37.435258,-122.2437438,57.7183824839294,7.707549,0.1,36.57852,1615921872448
Fix,GT,37.4352266,-122.2436761,57.52281591799856,7.7712493,0.1,21.321716,1615921873448
Fix,GT,37.4352134,-122.2436018,57.361399403750895,7.993578,0.1,1.28656,1615921874448
Fix,GT,37.4352233,-122.24352,57.144884848475456,8.969627,0.1,342.0021,1615921875448
Fix,GT,37.4352578,-122.2434254,56.83810563099384,10.617123,0.1,331.48053,1615921876448
Fix,GT,37.4353094,-122.2433152,56.46098239099979,12.177647,0.1,329.0157,1615921877448
Fix,GT,37.4353691,-122.2431933,56.04311553514003,13.058029,0.1,328.33942,1615921878448
Fix,GT,37.4354317,-122.2430673,55.61760119533539,13.061335,0.1,328.2344,1615921879448
Fix,GT,37.4354916,-122.2429458,55.192218346595766,12.003051,0.1,328.6411,1615921880448
Fix,GT,37.4355441,-122.2428386,54.78758101165295,10.283836,0.1,328.7859,1615921881448
Fix,GT,37.4355887,-122.2427474,54.454259130239485,8.785262,0.1,328.79984,1615921882448
Fix,GT,37.4356262,-122.24267,54.19238221362233,7.1195335,0.1,329.25882,1615921883448
Fix,GT,37.4356541,-122.2426121,53.99233343812823,4.720971,0.1,329.37958,1615921884448
Fix,GT,37.4356704,-122.2425788,53.86621573314071,2.313293,0.1,328.5555,1615921885448
Fix,GT,37.4356777,-122.2425644,53.803955978602175,0.91911405,0.1,327.7408,1615921886448
Fix,GT,37.4356805,-122.2425594,53.775372721612456,0.34985188,0.1,327.42657,1615921887448
Fix,GT,37.4356816,-122.2425575,53.76465589472652,0.105378106,0.1,327.32562,1615921888448
Fix,GT,37.4356818,-122.2425572,53.76299839773774,0.019288942,0.1,327.3032,1615921889448
Fix,GT,37.4356819,-122.2425571,53.76389553651214,0.0069689383,0.1,327.29617,1615921890448
Fix,GT,37.4356819,-122.2425572,53.76545017176866,0.0038845737,0.1,327.2948,1615921891448
Fix,GT,37.4356819,-122.2425572,53.76644696715474,0.0031622776,0.1,327.29462,1615921892448
Fix,GT,37.4356819,-122.2425572,53.76745017194748,0.0031622779,0.1,327.2946,1615921893448
Fix,GT,37.4356818,-122.2425573,53.768446967214345,0.002378149,0.1,327.2927,1615921894448
Fix,GT,37.4356818,-122.2425573,53.7694501721263,0.0014142136,0.1,327.2891,1615921895448
Fix,GT,37.4356818,-122.2425573,53.77044856977463,0.0012284099,0.1,327.2881,1615921896448
Fix,GT,37.4356818,-122.2425573,53.771,0.001,0.1,327.2885,1615921897448
Fix,GT,37.4356818,-122.2425573,53.771,0.00055143016,0.1,327.2886,1615921898448
Fix,GT,37.4356818,-122.2425573,53.771,0.00044856998,0.1,327.2888,1615921899448
Fix,GT,37.4356818,-122.2425573,53.770998397499326,0.0009999999,0.1,327.28882,1615921900448
Fix,GT,37.4356818,-122.2425573,53.77100160250068,0.001,0.1,327.28864,1615921901448
Fix,GT,37.4356818,-122.2425573,53.770998397499326,0.0011858038,0.1,327.2885,1615921902448
Fix,GT,37.4356818,-122.2425573,53.771,0.0020485874,0.1,327.28848,1615921903448
Fix,GT,37.4356818,-122.2425573,53.770998397499326,0.0031770216,0.1,327.28857,1615921904448
Fix,GT,37.4356818,-122.2425573,53.77100160250068,0.0038377107,0.1,327.28864,1615921905448
Fix,GT,37.4356818,-122.2425573,53.771,0.0050021494,0.1,327.2887,1615921906448
Fix,GT,37.4356818,-122.2425573,53.771,0.0069707055,0.1,327.28873,1615921907448
Fix,GT,37.4356818,-122.2425574,53.77055142956972,0.008953844,0.1,327.28787,1615921908448
Fix,GT,37.4356818,-122.2425574,53.77044696798921,0.010496421,0.1,327.28113,1615921909448
Fix,GT,37.4356818,-122.2425575,53.77145017302036,0.011492242,0.1,327.2579,1615921910448
