MessageType,Provider,LatitudeDegrees,LongitudeDegrees,AltitudeMeters,SpeedMps,AccuracyMeters,BearingDegrees,UnixTimeMillis
Fix,GT,34.2725364,-118.6156625,323.381,0.0014108939,0.1,263.1895,1638904974999
Fix,GT,34.2725364,-118.6156625,323.381,0.001,0.1,263.1892,1638904975999
Fix,GT,34.2725364,-118.6156625,323.381,0.001,0.1,263.18918,1638904976999
Fix,GT,34.2725364,-118.6156625,323.381,0.001,0.1,263.189,1638904977999
Fix,GT,34.2725364,-118.6156625,323.381,0.001,0.1,263.1898,1638904978999
Fix,GT,34.2725364,-118.6156625,323.381,2.3506284e-06,0.1,263.18948,1638904979999
Fix,GT,34.2725364,-118.6156625,323.381,0.0,0.1,-96.81038,1638904980999
Fix,GT,34.2725364,-118.6156625,323.381,0.0,0.1,263.1899,1638904981999
Fix,GT,34.2725364,-118.6156625,323.381,0.0010009746,0.1,263.18915,1638904982999
Fix,GT,34.2725364,-118.6156625,323.381,0.0010029088,0.1,263.18903,1638904983999
Fix,GT,34.2725364,-118.6156625,323.381,0.001000975,0.1,263.18887,1638904984999
Fix,GT,34.2725364,-118.6156625,323.381,0.0009976454,0.1,263.18896,1638904985999
Fix,GT,34.2725364,-118.6156625,323.381,0.001,0.1,263.18918,1638904986999
Fix,GT,34.2725364,-118.6156625,323.381,0.0014132378,0.1,263.18933,1638904987999
Fix,GT,34.2725364,-118.6156625,323.381,0.0050025512,0.1,263.18973,1638904988999
Fix,GT,34.2725365,-118.6156625,323.381,0.004234997,0.1,263.18427,1638904989999
Fix,GT,34.2725365,-118.6156625,323.383,0.01841735,0.1,263.14783,1638904990999
Fix,GT,34.2725355,-118.6156645,323.3939929243326,0.341148,0.1,260.7742,1638904991999
Fix,GT,34.2725345,-118.6156665,323.408,0.030497927,0.1,258.10333,1638904992999
Fix,GT,34.2725345,-118.6156665,323.409,0.01199056,0.1,258.08185,1638904993999
Fix,GT,34.2725345,-118.6156665,323.409,0.01314829,0.1,258.08136,1638904994999
Fix,GT,34.2725346,-118.6156665,323.41,0.016271168,0.1,258.07996,1638904995999
Fix,GT,34.2725347,-118.6156666,323.411,0.055002823,0.1,257.99384,1638904996999
Fix,GT,34.2725336,-118.6156685,323.4249976374507,0.2632083,0.1,255.29669,1638904997999
Fix,GT,34.2725316,-118.6156716,323.44399291038513,0.52010673,0.1,250.87625,1638904998999
Fix,GT,34.2725256,-118.6156786,323.47999763613944,1.2203791,0.1,239.70636,1638904999999
Fix,GT,34.2725114,-118.6156869,323.4670023644566,1.9416292,0.1,218.19649,1638905000999
Fix,GT,34.2724891,-118.6156866,323.5289834437967,2.561532,0.1,188.67651,1638905001999
Fix,GT,34.2724645,-118.6156668,323.5959929025173,3.43484,0.1,150.81998,1638905002999
Fix,GT,34.2724513,-118.615624,323.4560615285635,4.6317263,0.1,111.30884,1638905003999
Fix,GT,34.2724514,-118.6155638,323.1460733831525,6.338605,0.1,88.66608,1638905004999
Fix,GT,34.2724567,-118.6154847,322.8090828748942,8.228245,0.1,84.98074,1638905005999
Fix,GT,34.2724657,-118.6153854,322.36412789952755,10.297296,0.1,83.674774,1638905006999
Fix,GT,34.2724783,-118.6152641,321.883090026021,12.174987,0.1,82.46985,1638905007999
Fix,GT,34.2724935,-118.6151234,321.354165887475,13.946155,0.1,82.66864,1638905008999
Fix,GT,34.2725104,-118.6149641,320.63518252670764,15.499579,0.1,82.51022,1638905009999
Fix,GT,34.2725289,-118.6147922,319.8272181441784,16.20389,0.1,82.67618,1638905010999
Fix,GT,34.2725469,-118.6146176,319.03521109443903,15.985202,0.1,82.79956,1638905011999
Fix,GT,34.2725641,-118.6144505,318.209194545269,14.890598,0.1,82.6557,1638905012999
Fix,GT,34.2725789,-118.6142964,317.3421969672441,13.815584,0.1,84.15338,1638905013999
Fix,GT,34.2725811,-118.6141535,316.47121839094166,12.692635,0.1,92.45529,1638905014999
Fix,GT,34.2725604,-118.6140199,315.42524931937453,12.649679,0.1,105.48987,1638905015999
Fix,GT,34.2725111,-118.613893,314.33924226892,13.411393,0.1,120.95645,1638905016999
Fix,GT,34.2724279,-118.6137813,313.5621663088799,14.385319,0.1,138.65948,1638905017999
Fix,GT,34.2723154,-118.6136961,312.7752305201888,15.215677,0.1,153.1217,1638905018999
Fix,GT,34.2721888,-118.6136252,311.9082044402361,15.688172,0.1,154.79492,1638905019999
Fix,GT,34.2720651,-118.6135432,311.1041807179451,15.595128,0.1,147.67023,1638905020999
Fix,GT,34.2719558,-118.6134362,310.4021617436409,15.737513,0.1,136.4318,1638905021999
Fix,GT,34.2718609,-118.6133062,309.5151998510361,16.133768,0.1,127.88031,1638905022999
Fix,GT,34.2717825,-118.613157,308.76314992958305,16.374779,0.1,118.57834,1638905023999
Fix,GT,34.2717257,-118.6129943,308.2471023636461,15.912654,0.1,108.3551,1638905024999
Fix,GT,34.2716977,-118.6128278,307.9490523865223,15.53935,0.1,96.184814,1638905025999
Fix,GT,34.271702,-118.6126582,307.81600714576246,15.831944,0.1,82.618256,1638905026999
Fix,GT,34.2717377,-118.6124884,307.83399046969413,16.423765,0.1,72.01703,1638905027999
Fix,GT,34.2717854,-118.6123161,307.82699285012484,17.00884,0.1,72.15439,1638905028999
Fix,GT,34.2718291,-118.6121353,307.80502383947373,17.818146,0.1,74.235504,1638905029999
Fix,GT,34.2718717,-118.6119418,307.77700238454344,18.994345,0.1,75.602264,1638905030999
Fix,GT,34.2719143,-118.6117368,307.7179904592037,19.948902,0.1,75.68729,1638905031999
Fix,GT,34.2719596,-118.6115241,307.6390214732289,20.406729,0.1,75.28372,1638905032999
Fix,GT,34.2720073,-118.6113108,307.6659546551704,20.22483,0.1,74.230804,1638905033999
Fix,GT,34.2720581,-118.6111013,307.5830429711342,19.980728,0.1,73.177734,1638905034999
Fix,GT,34.2721102,-118.6108955,307.6559832844138,19.677177,0.1,72.789215,1638905035999
Fix,GT,34.2721615,-118.6106915,307.6830119432807,19.5319,0.1,73.63031,1638905036999
Fix,GT,34.2722063,-118.6104875,307.671,19.409977,0.1,76.55417,1638905037999
Fix,GT,34.2722409,-118.6102802,307.631,19.485235,0.1,80.085846,1638905038999
Fix,GT,34.2722659,-118.6100718,307.4570693280697,19.31129,0.1,83.034546,1638905039999
Fix,GT,34.2722817,-118.609864,307.08912195825576,19.173946,0.1,86.00787,1638905040999
Fix,GT,34.2722908,-118.6096562,306.45416983157395,19.171762,0.1,87.188324,1638905041999
Fix,GT,34.2722991,-118.6094477,305.5412656039596,19.292587,0.1,87.19385,1638905042999
Fix,GT,34.2723079,-118.6092371,304.2893542444706,19.554756,0.1,86.90686,1638905043999
Fix,GT,34.2723174,-118.6090234,303.05229449385405,19.82802,0.1,86.957214,1638905044999
Fix,GT,34.2723262,-118.6088086,301.8642849877476,19.614313,0.1,87.268524,1638905045999
Fix,GT,34.2723333,-118.6085984,300.73125872159,19.282093,0.1,87.93854,1638905046999
Fix,GT,34.2723346,-118.608388,299.5192995431423,19.513786,0.1,91.279785,1638905047999
Fix,GT,34.272322,-118.6081755,298.2573187931776,19.752808,0.1,96.320984,1638905048999
Fix,GT,34.2722934,-118.6079627,297.05925175392633,19.975779,0.1,101.176025,1638905049999
Fix,GT,34.272256,-118.6077497,296.0392494244575,20.078878,0.1,101.55072,1638905050999
Fix,GT,34.2722241,-118.607536,295.4342087101937,19.711996,0.1,98.67432,1638905051999
Fix,GT,34.2722053,-118.6073255,294.94509838700293,19.34707,0.1,94.132965,1638905052999
Fix,GT,34.2721994,-118.6071165,294.63708401393893,19.143362,0.1,90.2048,1638905053999
Fix,GT,34.272206,-118.60691,294.4110192089081,18.86415,0.1,85.18854,1638905054999
Fix,GT,34.2722295,-118.6067093,294.6159495628476,18.43525,0.1,79.45471,1638905055999
Fix,GT,34.2722659,-118.606517,295.0548822782636,17.869204,0.1,75.23514,1638905056999
Fix,GT,34.2723106,-118.6063354,295.75582937705514,16.927206,0.1,72.04306,1638905057999
Fix,GT,34.2723562,-118.6061659,296.590754806757,15.899097,0.1,73.05997,1638905058999
Fix,GT,34.2723879,-118.6060024,297.674733105898,15.115872,0.1,79.473816,1638905059999
Fix,GT,34.2724039,-118.6058417,298.85170657694334,14.754014,0.1,85.31009,1638905060999
Fix,GT,34.2724079,-118.605684,300.00372573626044,14.38031,0.1,89.9986,1638905061999
Fix,GT,34.2724015,-118.6055326,301.13876175278426,13.535315,0.1,94.59161,1638905062999
Fix,GT,34.2723868,-118.6053925,302.2047376159429,12.406186,0.1,98.52045,1638905063999
Fix,GT,34.2723683,-118.6052706,303.1588266305924,10.011118,0.1,100.64447,1638905064999
Fix,GT,34.2723544,-118.6051803,303.8068747546673,6.940338,0.1,100.27142,1638905065999
Fix,GT,34.2723444,-118.605121,304.2419253123403,4.252309,0.1,101.57739,1638905066999
Fix,GT,34.272338,-118.6050886,304.489963850081,1.9071928,0.1,103.298096,1638905067999
Fix,GT,34.2723356,-118.6050776,304.5699951785803,0.26458848,0.1,103.82388,1638905068999
Fix,GT,34.2723355,-118.6050775,304.5629975886345,0.0058298768,0.1,103.84964,1638905069999
Fix,GT,34.2723355,-118.6050775,304.563,0.0036055513,0.1,103.849304,1638905070999
Fix,GT,34.2723355,-118.6050775,304.563,0.002237911,0.1,103.84924,1638905071999
Fix,GT,34.2723355,-118.6050775,304.563,0.002236068,0.1,103.84955,1638905072999
Fix,GT,34.2723355,-118.6050775,304.563,0.001,0.1,103.84958,1638905073999
Fix,GT,34.2723355,-118.6050775,304.562,0.001,0.1,103.84957,1638905074999
Fix,GT,34.2723355,-118.6050775,304.562,0.0,0.1,103.84973,1638905075999
Fix,GT,34.2723355,-118.6050775,304.562,0.0,0.1,103.84955,1638905076999
Fix,GT,34.2723355,-118.6050775,304.562,0.000997583,0.1,103.84943,1638905077999
Fix,GT,34.2723355,-118.6050775,304.562,2.417624e-06,0.1,103.849335,1638905078999
Fix,GT,34.2723355,-118.6050775,304.562,0.0009975818,0.1,103.849976,1638905079999
Fix,GT,34.2723355,-118.6050775,304.562,0.001001002,0.1,103.84973,1638905080999
Fix,GT,34.2723355,-118.6050775,304.562,0.0014132113,0.1,103.84973,1638905081999
Fix,GT,34.2723355,-118.6050775,304.562,0.0014142136,0.1,103.84979,1638905082999
Fix,GT,34.2723355,-118.6050775,304.562,0.0014132106,0.1,103.84976,1638905083999
Fix,GT,34.2723355,-118.6050775,304.562,0.0019951563,0.1,103.8501,1638905084999
Fix,GT,34.2723355,-118.6050775,304.562,0.0009975774,0.1,103.84943,1638905085999
Fix,GT,34.2723355,-118.6050775,304.562,0.001,0.1,103.84955,1638905086999
Fix,GT,34.2723355,-118.6050775,304.562,0.000997576,0.1,103.84979,1638905087999
Fix,GT,34.2723355,-118.6050775,304.562,2.424717e-06,0.1,103.849365,1638905088999
Fix,GT,34.2723355,-118.6050775,304.562,0.0010010047,0.1,103.84955,1638905089999
Fix,GT,34.2723355,-118.6050775,304.562,0.000997574,0.1,103.84955,1638905090999
Fix,GT,34.2723355,-118.6050775,304.562,0.0,0.1,103.84949,1638905091999
Fix,GT,34.2723355,-118.6050775,304.562,0.0,0.1,103.849304,1638905092999
Fix,GT,34.2723355,-118.6050775,304.562,2.4282338e-06,0.1,103.849365,1638905093999
Fix,GT,34.2723355,-118.6050775,304.562,2.428949e-06,0.1,103.84958,1638905094999
Fix,GT,34.2723355,-118.6050775,304.562,0.001,0.1,103.849396,1638905095999
Fix,GT,34.2723355,-118.6050775,304.562,0.001,0.1,103.84949,1638905096999
Fix,GT,34.2723355,-118.6050775,304.562,0.001,0.1,103.84924,1638905097999
Fix,GT,34.2723355,-118.6050775,304.562,0.001,0.1,103.849396,1638905098999
Fix,GT,34.2723355,-118.6050775,304.562,0.001413206,0.1,103.849335,1638905099999
Fix,GT,34.2723355,-118.6050775,304.562,0.0014142136,0.1,103.849304,1638905100999
Fix,GT,34.2723355,-118.6050775,304.562,0.0014142136,0.1,103.84958,1638905101999
Fix,GT,34.2723355,-118.6050775,304.562,0.0010010086,0.1,103.849365,1638905102999
Fix,GT,34.2723355,-118.6050775,304.562,0.0010010088,0.1,103.84921,1638905103999
Fix,GT,34.2723355,-118.6050775,304.562,0.0014132045,0.1,103.84906,1638905104999
Fix,GT,34.2723355,-118.6050775,304.562,0.001,0.1,103.84915,1638905105999
Fix,GT,34.2723355,-118.6050775,304.562,0.0010010097,0.1,103.849365,1638905106999
Fix,GT,34.2723355,-118.6050775,304.562,0.0010010101,0.1,103.849396,1638905107999
Fix,GT,34.2723355,-118.6050775,304.562,0.001,0.1,103.84955,1638905108999
Fix,GT,34.2723355,-118.6050775,304.562,2.439678e-06,0.1,103.849304,1638905109999
Fix,GT,34.2723355,-118.6050775,304.562,0.001,0.1,103.84915,1638905110999
Fix,GT,34.2723355,-118.6050775,304.562,0.0,0.1,103.849236,1638905111999
Fix,GT,34.2723355,-118.6050775,304.562,2.4418237e-06,0.1,103.849304,1638905112999
Fix,GT,34.2723355,-118.6050775,304.562,2.4425387e-06,0.1,103.849304,1638905113999
Fix,GT,34.2723355,-118.6050775,304.562,2.443254e-06,0.1,103.84921,1638905114999
Fix,GT,34.2723355,-118.6050775,304.562,0.0,0.1,103.84909,1638905115999
Fix,GT,34.2723355,-118.6050775,304.562,0.0009975553,0.1,103.849,1638905116999
Fix,GT,34.2723355,-118.6050775,304.562,2.4454596e-06,0.1,103.849,1638905117999
Fix,GT,34.2723355,-118.6050775,304.562,0.0009975539,0.1,103.84897,1638905118999
Fix,GT,34.2723355,-118.6050775,304.562,0.0009975531,0.1,103.84903,1638905119999
Fix,GT,34.2723355,-118.6050775,304.562,0.0009975524,0.1,103.84918,1638905120999
Fix,GT,34.2723355,-118.6050775,304.562,3.462448e-06,0.1,103.848755,1638905121999
Fix,GT,34.2723355,-118.6050775,304.562,0.0,0.1,103.84866,1638905122999
Fix,GT,34.2723355,-118.6050775,304.562,0.0,0.1,103.848816,1638905123999
Fix,GT,34.2723355,-118.6050775,304.562,0.001,0.1,103.84885,1638905124999
Fix,GT,34.2723355,-118.6050775,304.562,0.0014156494,0.1,103.84891,1638905125999
Fix,GT,34.2723355,-118.6050775,304.562,0.002236068,0.1,103.849,1638905126999
Fix,GT,34.2723355,-118.6050775,304.562,0.0028284271,0.1,103.84885,1638905127999
Fix,GT,34.2723355,-118.6050775,304.562,0.0036055513,0.1,103.84848,1638905128999
Fix,GT,34.2723355,-118.6050775,304.562,0.004244499,0.1,103.84897,1638905129999
Fix,GT,34.2723355,-118.6050775,304.561,0.005,0.1,103.849,1638905130999
Fix,GT,34.2723354,-118.6050775,304.558,0.040459007,0.1,103.85037,1638905131999
Fix,GT,34.2723344,-118.6050726,304.58098034858705,1.1923407,0.1,104.01071,1638905132999
Fix,GT,34.2723295,-118.6050504,304.74295085716244,3.0073965,0.1,104.31949,1638905133999
Fix,GT,34.2723208,-118.6050111,305.0639090592861,4.403417,0.1,104.43216,1638905134999
Fix,GT,34.2723121,-118.6049546,305.50287707138057,6.049222,0.1,98.460236,1638905135999
Fix,GT,34.2723155,-118.6048827,306.0688327684403,7.0997934,0.1,83.13983,1638905136999
Fix,GT,34.2723408,-118.6048056,306.8027982748747,8.07666,0.1,62.991028,1638905137999
Fix,GT,34.2723934,-118.6047371,307.6707883731127,9.145084,0.1,40.973877,1638905138999
Fix,GT,34.2724716,-118.6046851,308.54577600413563,10.635163,0.1,24.332794,1638905139999
Fix,GT,34.2725689,-118.6046461,309.45976854681965,12.017221,0.1,16.717133,1638905140999
Fix,GT,34.272678,-118.604611,310.45374384355546,13.114087,0.1,14.035065,1638905141999
Fix,GT,34.2727989,-118.6045763,311.51873391413693,14.455238,0.1,12.697296,1638905142999
Fix,GT,34.2729324,-118.6045427,312.69170426321034,15.755928,0.1,11.311554,1638905143999
Fix,GT,34.2730767,-118.6045111,313.92969183653594,16.701305,0.1,9.038483,1638905144999
Fix,GT,34.2732298,-118.6044895,315.17368434906,17.373987,0.1,4.778961,1638905145999
Fix,GT,34.2733889,-118.6044821,316.42668179076907,17.914005,0.1,0.21481323,1638905146999
Fix,GT,34.2735523,-118.6044901,317.7396816908121,18.187809,0.1,355.94278,1638905147999
Fix,GT,34.2737122,-118.6045088,318.9886939396858,17.387892,0.1,353.5378,1638905148999
Fix,GT,34.2738636,-118.6045313,320.1487210093737,16.419168,0.1,352.49146,1638905149999
Fix,GT,34.2740077,-118.6045538,321.23572585463523,16.057589,0.1,352.4831,1638905150999
Fix,GT,34.2741545,-118.6045765,322.308710952282,16.82812,0.1,352.45703,1638905151999
Fix,GT,34.2743031,-118.6046,323.4797083973885,16.280268,0.1,352.2284,1638905152999
Fix,GT,34.2744445,-118.604623,324.6147354977727,15.353575,0.1,352.121,1638905153999
Fix,GT,34.2745772,-118.6046446,325.68674036663776,14.3477125,0.1,352.2139,1638905154999
Fix,GT,34.274701,-118.6046643,326.7197477117777,13.341292,0.1,352.41776,1638905155999
Fix,GT,34.2748158,-118.6046822,327.7017575236559,12.366789,0.1,352.43893,1638905156999
Fix,GT,34.2749248,-118.6046995,328.5877896280885,12.163384,0.1,352.30997,1638905157999
Fix,GT,34.2750351,-118.6047175,329.48477223205566,12.462458,0.1,352.08057,1638905158999
Fix,GT,34.275146,-118.6047362,330.4227573075295,12.290729,0.1,351.82834,1638905159999
Fix,GT,34.2752548,-118.6047546,331.3327621803284,12.107613,0.1,351.93964,1638905160999
Fix,GT,34.2753626,-118.6047727,332.22277202367786,11.999144,0.1,351.9369,1638905161999
Fix,GT,34.2754669,-118.6047895,333.0897868250608,11.291044,0.1,352.53183,1638905162999
Fix,GT,34.2755661,-118.6048052,333.89779420202973,11.03936,0.1,352.2881,1638905163999
Fix,GT,34.2756656,-118.6048216,334.7267941327691,11.232098,0.1,352.05505,1638905164999
Fix,GT,34.2757663,-118.6048382,335.57478663027285,11.244596,0.1,352.04962,1638905165999
Fix,GT,34.2758649,-118.6048541,336.40279897755386,10.867326,0.1,352.54578,1638905166999
Fix,GT,34.2759603,-118.6048681,337.17480387985705,10.389284,0.1,353.05197,1638905167999
Fix,GT,34.27605,-118.6048804,337.90082368510963,9.622863,0.1,353.5851,1638905168999
Fix,GT,34.2761335,-118.6048909,338.5658286023736,9.113304,0.1,354.0596,1638905169999
Fix,GT,34.2762117,-118.6048999,339.16086582088474,8.232345,0.1,354.5214,1638905170999
Fix,GT,34.2762801,-118.604907,339.63889560592173,7.0715995,0.1,354.96994,1638905171999
Fix,GT,34.2763397,-118.6049122,340.0459055187702,6.2131424,0.1,355.98227,1638905172999
Fix,GT,34.2763924,-118.6049155,340.37793036055564,5.4800158,0.1,357.02786,1638905173999
Fix,GT,34.2764424,-118.6049173,340.6669253648519,5.737508,0.1,358.1954,1638905174999
Fix,GT,34.2764936,-118.6049182,340.9629352960587,5.4847307,0.1,359.07477,1638905175999
Fix,GT,34.2765431,-118.6049187,341.2159352759124,5.795941,0.1,359.4421,1638905176999
Fix,GT,34.2765983,-118.6049187,341.5209302754402,6.1870856,0.1,0.06707764,1638905177999
Fix,GT,34.276653,-118.6049178,341.8069402189255,6.140549,0.1,0.7720032,1638905178999
Fix,GT,34.2767118,-118.6049163,342.10094020175933,6.9377046,0.1,1.1518555,1638905179999
Fix,GT,34.2767774,-118.6049136,342.40892024230953,7.4709015,0.1,2.170807,1638905180999
Fix,GT,34.2768474,-118.6049085,342.6979326851368,8.098218,0.1,3.7827454,1638905181999
Fix,GT,34.2769213,-118.6049003,342.9849276763797,8.438724,0.1,5.730011,1638905182999
Fix,GT,34.2769975,-118.6048894,343.2429426234364,8.448608,0.1,7.064453,1638905183999
Fix,GT,34.2770705,-118.604877,343.47995258611445,7.763573,0.1,8.368286,1638905184999
Fix,GT,34.2771352,-118.6048615,343.633970045805,7.008674,0.1,12.723206,1638905185999
Fix,GT,34.277191,-118.6048323,343.6630199756622,6.6989336,0.1,27.839722,1638905186999
Fix,GT,34.2772328,-118.6047799,343.5760424614549,6.954581,0.1,51.803375,1638905187999
Fix,GT,34.2772513,-118.604706,343.35901748955246,7.4972243,0.1,80.16055,1638905188999
Fix,GT,34.2772422,-118.6046207,343.2400049985648,8.624599,0.1,101.43097,1638905189999
Fix,GT,34.2772203,-118.604521,343.4119299983978,10.3715725,0.1,104.47391,1638905190999
Fix,GT,34.2771938,-118.6044044,343.87284745287894,11.936199,0.1,105.46002,1638905191999
Fix,GT,34.2771635,-118.6042742,344.44386741483214,12.792578,0.1,105.68411,1638905192999
Fix,GT,34.2771322,-118.6041406,344.94787988853454,12.613026,0.1,105.73984,1638905193999
Fix,GT,34.2771017,-118.6040116,345.37889987611777,12.150016,0.1,105.77481,1638905194999
Fix,GT,34.2770717,-118.603883,345.75192237812286,12.594863,0.1,105.42441,1638905195999
Fix,GT,34.2770394,-118.6037448,346.0749023164511,14.082729,0.1,105.73959,1638905196999
Fix,GT,34.2770025,-118.6035899,346.3789273427725,15.365209,0.1,105.9212,1638905197999
Fix,GT,34.2769636,-118.6034299,346.6059548873901,15.314326,0.1,106.62308,1638905198999
Fix,GT,34.2769231,-118.603272,346.7159899718762,15.139372,0.1,107.25891,1638905199999
Fix,GT,34.2768819,-118.6031144,346.73201504719265,15.351193,0.1,107.39383,1638905200999
Fix,GT,34.2768395,-118.6029532,346.6500426458716,15.822019,0.1,107.479126,1638905201999
Fix,GT,34.2767954,-118.602786,346.49406022453314,16.372536,0.1,107.65485,1638905202999
Fix,GT,34.27675,-118.6026194,346.3180527127385,15.836862,0.1,108.47113,1638905203999
Fix,GT,34.2767033,-118.6024602,346.0010979253053,15.290026,0.1,110.096405,1638905204999
Fix,GT,34.2766545,-118.6023055,345.56313814240696,15.304713,0.1,110.9151,1638905205999
Fix,GT,34.2766029,-118.6021475,345.0651256227493,16.09268,0.1,111.51782,1638905206999
Fix,GT,34.2765474,-118.6019782,344.5541407442093,17.470005,0.1,111.45825,1638905207999
Fix,GT,34.2764862,-118.6017922,343.9811558719873,19.315733,0.1,111.57184,1638905208999
Fix,GT,34.2764197,-118.6015909,343.36316597545147,20.58312,0.1,111.659485,1638905209999
Fix,GT,34.276349,-118.6013782,342.6771710617543,21.653643,0.1,111.861694,1638905210999
Fix,GT,34.276273,-118.6011537,341.99516859805584,22.967705,0.1,112.416504,1638905211999
Fix,GT,34.2761907,-118.6009198,341.25118878281114,23.760435,0.1,113.27246,1638905212999
Fix,GT,34.2761031,-118.60068,340.4921963992119,24.489357,0.1,113.917145,1638905213999
Fix,GT,34.2760115,-118.6004342,339.703196459651,25.164312,0.1,114.032776,1638905214999
Fix,GT,34.2759181,-118.6001811,338.87919904428725,25.860203,0.1,113.697205,1638905215999
Fix,GT,34.275824,-118.5999196,338.04621674776075,26.68176,0.1,112.84769,1638905216999
Fix,GT,34.2757303,-118.5996468,337.2042168092728,27.701666,0.1,112.0733,1638905217999
Fix,GT,34.2756339,-118.5993635,336.32121939772367,28.5325,0.1,112.554474,1638905218999
Fix,GT,34.2755338,-118.5990777,335.4272396515012,28.58211,0.1,113.00757,1638905219999
Fix,GT,34.2754316,-118.5987928,334.53022710800167,28.583885,0.1,113.6022,1638905220999
Fix,GT,34.2753281,-118.5985089,333.63022969651223,28.525059,0.1,113.62976,1638905221999
Fix,GT,34.2752243,-118.5982257,332.7042373473645,28.472673,0.1,113.86984,1638905222999
Fix,GT,34.2751202,-118.5979436,331.7972222657204,28.414694,0.1,113.95175,1638905223999
Fix,GT,34.2750161,-118.5976617,330.88622486573456,28.391937,0.1,113.90234,1638905224999
Fix,GT,34.274912,-118.5973803,329.9592325167656,28.37016,0.1,114.02368,1638905225999
Fix,GT,34.2748072,-118.5970995,329.037237638712,28.338842,0.1,114.32294,1638905226999
Fix,GT,34.2747016,-118.596821,328.1322351882458,27.991982,0.1,114.67755,1638905227999
Fix,GT,34.2745969,-118.596545,327.32519731509683,27.925388,0.1,114.14703,1638905228999
Fix,GT,34.2744951,-118.5962683,326.7801189314127,27.801968,0.1,113.74716,1638905229999
Fix,GT,34.2743955,-118.5959924,326.4790531570912,27.61117,0.1,113.1734,1638905230999
Fix,GT,34.2742995,-118.595717,326.07608862227204,27.407536,0.1,112.360596,1638905231999
Fix,GT,34.2742076,-118.5954416,325.6420937128663,27.298752,0.1,111.46155,1638905232999
Fix,GT,34.2741197,-118.5951629,325.2061140126586,27.697124,0.1,109.751434,1638905233999
Fix,GT,34.274041,-118.5948735,324.8101089787484,28.459087,0.1,106.98978,1638905234999
Fix,GT,34.2739673,-118.5945712,324.4710861976147,29.626295,0.1,105.807556,1638905235999
Fix,GT,34.2738933,-118.5942551,324.20605579197405,30.856117,0.1,105.8208,1638905236999
Fix,GT,34.2738177,-118.5939256,323.9400608825684,32.097454,0.1,104.814514,1638905237999
Fix,GT,34.2737453,-118.5935826,323.6740685154199,32.97884,0.1,103.71619,1638905238999
Fix,GT,34.2736764,-118.59323,323.4090710747242,33.737324,0.1,102.60361,1638905239999
Fix,GT,34.2736115,-118.5928676,323.1131168040037,34.554665,0.1,101.77356,1638905240999
Fix,GT,34.2735493,-118.5924952,322.723106679678,35.38505,0.1,100.57056,1638905241999
Fix,GT,34.2734951,-118.592113,322.4230711431503,35.99361,0.1,98.51553,1638905242999
Fix,GT,34.2734509,-118.5917227,322.1500482904315,36.464573,0.1,96.8598,1638905243999
Fix,GT,34.2734155,-118.5913282,321.8530940679312,36.580048,0.1,95.40137,1638905244999
Fix,GT,34.2733886,-118.5909321,321.5820661250353,36.578568,0.1,93.74121,1638905245999
Fix,GT,34.2733714,-118.590537,321.2721093965173,36.301914,0.1,92.19269,1638905246999
Fix,GT,34.2733624,-118.5901442,320.80112469911575,36.055904,0.1,90.83508,1638905247999
Fix,GT,34.273358,-118.5897537,320.28217311263086,35.965282,0.1,90.5376,1638905248999
Fix,GT,34.2733539,-118.5893609,319.8360611171723,36.396946,0.1,90.69391,1638905249999
Fix,GT,34.2733492,-118.5889642,319.5600789688826,36.625504,0.1,90.68817,1638905250999
Fix,GT,34.2733442,-118.5885664,319.2940484150052,36.63325,0.1,90.7616,1638905251999
Fix,GT,34.2733397,-118.5881691,319.0680509786606,36.509056,0.1,90.70825,1638905252999
Fix,GT,34.273335,-118.5877744,318.87104334604743,36.21987,0.1,90.739624,1638905253999
Fix,GT,34.27333,-118.5873818,318.6780484603047,36.14794,0.1,90.8638,1638905254999
Fix,GT,34.2733248,-118.586989,318.5360357192755,36.217854,0.1,90.753845,1638905255999
Fix,GT,34.2733203,-118.586595,318.4440255221129,36.364662,0.1,90.73993,1638905256999
Fix,GT,34.2733155,-118.5861994,318.33502808350323,36.504047,0.1,90.77103,1638905257999
Fix,GT,34.2733105,-118.5858028,318.26103064584737,36.523186,0.1,90.787415,1638905258999
Fix,GT,34.2733054,-118.5854067,318.1530127732754,36.417797,0.1,90.828064,1638905259999
Fix,GT,34.2733007,-118.5850122,318.05203066515924,36.248676,0.1,90.62076,1638905260999
Fix,GT,34.2732971,-118.5846197,317.9640281195641,36.00421,0.1,90.54767,1638905261999
Fix,GT,34.2732934,-118.5842306,317.8650230138898,35.663948,0.1,90.651886,1638905262999
Fix,GT,34.2732891,-118.5838452,317.7720306952,35.32328,0.1,90.70596,1638905263999
Fix,GT,34.2732857,-118.5834635,317.6770230283737,35.005695,0.1,90.17798,1638905264999
Fix,GT,34.2732848,-118.5830837,317.5790409526825,34.94708,0.1,90.00052,1638905265999
Fix,GT,34.2732844,-118.582705,317.4870230433941,34.806057,0.1,89.96854,1638905266999
Fix,GT,34.2732841,-118.5823275,317.4050230509042,34.71705,0.1,89.94263,1638905267999
Fix,GT,34.2732848,-118.5819521,317.3150281818509,34.419464,0.1,89.65149,1638905268999
Fix,GT,34.2732861,-118.58158,317.24501537692544,34.109444,0.1,89.627625,1638905269999
Fix,GT,34.2732883,-118.5812115,317.14403332751994,33.74945,0.1,89.448364,1638905270999
Fix,GT,34.2732911,-118.5808471,317.06602820938826,33.384262,0.1,89.293396,1638905271999
Fix,GT,34.2732944,-118.5804847,316.95602308738233,33.43201,0.1,89.28409,1638905272999
Fix,GT,34.2732979,-118.5801212,316.90101539695263,33.517975,0.1,89.28833,1638905273999
Fix,GT,34.2733015,-118.5797571,316.811020535469,33.536777,0.1,89.156494,1638905274999
Fix,GT,34.2733061,-118.5793935,316.750025677681,33.406055,0.1,88.91925,1638905275999
Fix,GT,34.273312,-118.579032,316.6560179806352,33.16112,0.1,88.60248,1638905276999
Fix,GT,34.2733193,-118.578674,316.5690282638073,32.797684,0.1,88.35962,1638905277999
Fix,GT,34.2733271,-118.5783199,316.48503084254264,32.43757,0.1,88.55362,1638905278999
Fix,GT,34.2733332,-118.5779698,316.3670385656953,32.099724,0.1,88.86813,1638905279999
Fix,GT,34.2733393,-118.5776215,316.2949871402979,32.109386,0.1,88.38025,1638905280999
Fix,GT,34.2733475,-118.5772723,316.2050231544375,32.21363,0.1,88.25357,1638905281999
Fix,GT,34.2733558,-118.5769233,316.1270180152655,31.910757,0.1,88.27716,1638905282999
Fix,GT,34.273364,-118.576585,316.0490283182263,30.333452,0.1,88.27911,1638905283999
Fix,GT,34.2733711,-118.576263,315.9680180265308,29.215944,0.1,88.47882,1638905284999
Fix,GT,34.2733769,-118.5759491,315.891018032372,28.640104,0.1,88.79739,1638905285999
Fix,GT,34.2733808,-118.5756412,315.8050231919885,28.064827,0.1,89.357666,1638905286999
Fix,GT,34.2733826,-118.5753387,315.73202062225346,27.696693,0.1,89.43616,1638905287999
Fix,GT,34.2733844,-118.5750396,315.64902578556536,27.394403,0.1,89.726715,1638905288999
Fix,GT,34.2733848,-118.5747439,315.5450438486338,27.080082,0.1,89.82718,1638905289999
Fix,GT,34.2733852,-118.5744515,315.50702064180376,26.78914,0.1,89.826965,1638905290999
Fix,GT,34.2733852,-118.574161,315.42501548635965,26.82192,0.1,89.82532,1638905291999
Fix,GT,34.2733882,-118.5738674,315.3020284008384,27.27522,0.1,88.63379,1638905292999
Fix,GT,34.2733955,-118.573567,315.2910051654577,28.094025,0.1,88.10629,1638905293999
Fix,GT,34.2734025,-118.5732589,315.2410155017376,28.63088,0.1,88.56482,1638905294999
Fix,GT,34.2734069,-118.5729461,315.1940103375912,28.899103,0.1,89.52289,1638905295999
Fix,GT,34.2734066,-118.5726324,315.12602585291864,28.869678,0.1,90.34192,1638905296999
Fix,GT,34.2734043,-118.5723175,315.0300232746005,29.185778,0.1,90.369415,1638905297999
Fix,GT,34.2734019,-118.5719985,314.9580103476048,29.585592,0.1,90.528625,1638905298999
Fix,GT,34.2733982,-118.5716751,314.8940207018852,29.985474,0.1,90.93588,1638905299999
Fix,GT,34.2733924,-118.5713473,314.8270207085609,30.403952,0.1,91.27051,1638905300999
Fix,GT,34.2733856,-118.5710154,314.7550207157135,30.668665,0.1,91.42929,1638905301999
Fix,GT,34.2733772,-118.5706827,314.6790233121514,30.609556,0.1,91.81113,1638905302999
Fix,GT,34.2733676,-118.5703519,314.6030259113312,30.356386,0.1,91.746796,1638905303999
Fix,GT,34.2733589,-118.570024,314.5310259190798,30.063347,0.1,91.81201,1638905304999
Fix,GT,34.2733496,-118.5696991,314.4360077784061,29.881014,0.1,91.91589,1638905305999
Fix,GT,34.27334,-118.5693739,314.3630129678846,30.020884,0.1,92.12561,1638905306999
Fix,GT,34.2733282,-118.5690482,314.28102853918074,30.056978,0.1,92.5629,1638905307999
Fix,GT,34.2733147,-118.5687233,314.2020415248871,29.836617,0.1,93.19849,1638905308999
Fix,GT,34.2732982,-118.5684018,314.12103115367887,29.50054,0.1,93.5791,1638905309999
Fix,GT,34.2732822,-118.5680838,314.04603376066683,29.192213,0.1,93.30713,1638905310999
Fix,GT,34.2732665,-118.5677688,313.94502597868444,28.916416,0.1,93.29294,1638905311999
Fix,GT,34.2732512,-118.5674562,313.8490259870291,28.85216,0.1,93.322784,1638905312999
Fix,GT,34.2732348,-118.5671416,313.79998960185054,29.22946,0.1,93.66409,1638905313999
Fix,GT,34.2732171,-118.5668232,313.7070312037468,29.557676,0.1,93.739624,1638905314999
Fix,GT,34.2731989,-118.5665008,313.6389973987937,29.95334,0.1,93.86612,1638905315999
Fix,GT,34.2731796,-118.5661742,313.59101301050185,30.355785,0.1,94.081726,1638905316999
Fix,GT,34.2731587,-118.5658435,313.51002082300187,30.71598,0.1,94.489624,1638905317999
Fix,GT,34.2731353,-118.5655099,313.4330182263851,30.928524,0.1,94.94501,1638905318999
Fix,GT,34.2731115,-118.5651746,313.35602344089745,31.06574,0.1,94.500946,1638905319999
Fix,GT,34.2730896,-118.5648374,313.2870182380676,31.209393,0.1,94.3512,1638905320999
Fix,GT,34.2730677,-118.5644989,313.1710234559178,31.320856,0.1,94.45145,1638905321999
Fix,GT,34.2730448,-118.5641599,313.1190182497501,31.336882,0.1,94.742676,1638905322999
Fix,GT,34.2730203,-118.563821,313.0630234720111,31.313528,0.1,95.08746,1638905323999
Fix,GT,34.2729936,-118.5634826,312.98301565265655,31.283024,0.1,95.62268,1638905324999
Fix,GT,34.2729643,-118.563145,312.9020182676911,31.245678,0.1,96.15735,1638905325999
Fix,GT,34.2729332,-118.562808,312.8160313267708,31.223803,0.1,96.40909,1638905326999
Fix,GT,34.2729013,-118.5624706,312.73202611339093,31.345663,0.1,96.348694,1638905327999
Fix,GT,34.2728694,-118.5621315,312.64802612233166,31.502731,0.1,96.49051,1638905328999
Fix,GT,34.272836,-118.5617908,312.5740104525089,31.670652,0.1,96.73102,1638905329999
Fix,GT,34.272802,-118.5614485,312.49001306951044,31.810682,0.1,96.77545,1638905330999
Fix,GT,34.2727674,-118.5611052,312.36603660714627,31.887222,0.1,96.855896,1638905331999
Fix,GT,34.2727327,-118.5607609,312.1540601581335,31.989822,0.1,96.819885,1638905332999
Fix,GT,34.2726979,-118.5604157,311.85609157627823,32.05235,0.1,96.85196,1638905333999
Fix,GT,34.2726629,-118.56007,311.4591151611805,32.101315,0.1,96.87033,1638905334999
Fix,GT,34.2726277,-118.5597237,310.9651439973712,32.148624,0.1,96.92636,1638905335999
Fix,GT,34.2725922,-118.559377,310.3821649987698,32.171055,0.1,97.03525,1638905336999
Fix,GT,34.2725562,-118.559031,309.7041964896917,32.064117,0.1,96.98306,1638905337999
Fix,GT,34.2725213,-118.5586853,308.90526206970213,32.130096,0.1,96.76953,1638905338999
Fix,GT,34.272487,-118.5583383,308.0132411863804,32.177807,0.1,96.84781,1638905339999
Fix,GT,34.2724528,-118.5579919,307.18622028374665,32.063683,0.1,96.27933,1638905340999
Fix,GT,34.2724211,-118.5576464,306.29625970274213,31.972456,0.1,96.5867,1638905341999
Fix,GT,34.2723862,-118.5573014,305.4482178047895,32.097553,0.1,97.06378,1638905342999
Fix,GT,34.2723507,-118.5569547,304.62620474910733,32.169197,0.1,97.013336,1638905343999
Fix,GT,34.2723157,-118.5566088,304.0081680526733,32.01752,0.1,96.94113,1638905344999
Fix,GT,34.2722818,-118.5562633,303.4281365892887,32.073116,0.1,96.56201,1638905345999
Fix,GT,34.2722499,-118.5559175,302.9731024721861,31.970198,0.1,95.740234,1638905346999
Fix,GT,34.2722262,-118.5555709,302.6220841083527,32.16738,0.1,93.68652,1638905347999
Fix,GT,34.2722125,-118.5552202,302.3560631027222,32.486492,0.1,91.59009,1638905348999
Fix,GT,34.2722093,-118.5548655,302.1820394508243,32.84323,0.1,89.54376,1638905349999
Fix,GT,34.2722176,-118.5545071,302.1120105237961,33.19131,0.1,87.42096,1638905350999
Fix,GT,34.2722363,-118.5541464,302.17397368156907,33.343178,0.1,85.379456,1638905351999
Fix,GT,34.2722653,-118.5537861,302.3249578762054,33.321712,0.1,83.47528,1638905352999
Fix,GT,34.2723041,-118.5534271,302.4529288935661,33.343906,0.1,81.578735,1638905353999
Fix,GT,34.2723532,-118.55307,302.61297102153304,33.323067,0.1,79.464264,1638905354999
Fix,GT,34.2724136,-118.552716,302.7469736469984,33.186554,0.1,77.27368,1638905355999
Fix,GT,34.2724848,-118.5523679,302.9039630941152,32.83387,0.1,74.86124,1638905356999
Fix,GT,34.272567,-118.5520265,303.0309630824328,32.716335,0.1,72.78616,1638905357999
Fix,GT,34.2726573,-118.5516877,303.0999894485474,32.82283,0.1,71.43088,1638905358999
Fix,GT,34.2727542,-118.55135,303.1449894452095,32.993896,0.1,70.43182,1638905359999
Fix,GT,34.2728539,-118.5510116,303.19898152285816,33.10082,0.1,70.40094,1638905360999
Fix,GT,34.2729535,-118.550674,303.2449867975712,32.85658,0.1,70.14365,1638905361999
Fix,GT,34.2730539,-118.5503404,303.28299207621814,32.491146,0.1,69.894196,1638905362999
Fix,GT,34.2731539,-118.5500111,303.3469841470718,32.11737,0.1,69.8154,1638905363999
Fix,GT,34.2732523,-118.5496832,303.43997621256113,32.170166,0.1,70.21164,1638905364999
Fix,GT,34.2733503,-118.5493541,303.5409762045145,32.190254,0.1,70.07767,1638905365999
Fix,GT,34.2734484,-118.5490262,303.63697355222706,31.974632,0.1,70.12155,1638905366999
Fix,GT,34.2735457,-118.5487014,303.7349761889577,31.614332,0.1,69.94983,1638905367999
Fix,GT,34.2736421,-118.5483805,303.85296559464933,31.229734,0.1,70.22565,1638905368999
Fix,GT,34.2737344,-118.5480618,303.9709655845761,31.028852,0.1,71.2063,1638905369999
Fix,GT,34.2738213,-118.547741,304.1379549800157,31.088312,0.1,72.74338,1638905370999
Fix,GT,34.273899,-118.5474167,304.3139470174313,31.17086,0.1,74.77072,1638905371999
Fix,GT,34.2739687,-118.5470878,304.5319390522241,31.34459,0.1,76.39224,1638905372999
Fix,GT,34.2740308,-118.5467554,304.82489661890264,31.402786,0.1,78.19174,1638905373999
Fix,GT,34.2740845,-118.5464205,305.170896584034,31.426765,0.1,79.81366,1638905374999
Fix,GT,34.2741296,-118.5460836,305.5918753284812,31.448292,0.1,81.76773,1638905375999
Fix,GT,34.2741662,-118.5457451,306.0778620252609,31.39937,0.1,83.27066,1638905376999
Fix,GT,34.2741952,-118.5454071,306.6328433989882,31.168907,0.1,84.865234,1638905377999
Fix,GT,34.2742162,-118.5450712,307.2438327256441,30.920343,0.1,86.37036,1638905378999
Fix,GT,34.2742315,-118.5447367,307.8688353327513,30.793299,0.1,87.02313,1638905379999
Fix,GT,34.2742461,-118.5444032,308.39088575685025,30.726025,0.1,86.8844,1638905380999
Fix,GT,34.2742605,-118.5440705,308.97283256793025,30.606598,0.1,86.99567,1638905381999
Fix,GT,34.2742745,-118.5437393,309.4248830239773,30.484457,0.1,87.05844,1638905382999
Fix,GT,34.2742881,-118.5434093,309.8658883035183,30.372284,0.1,87.112915,1638905383999
Fix,GT,34.2743021,-118.5430804,310.2398989118338,30.282227,0.1,86.92804,1638905384999
Fix,GT,34.2743168,-118.542753,310.5868935556412,30.104246,0.1,86.833374,1638905385999
Fix,GT,34.2743316,-118.5424274,310.8489494219422,29.95843,0.1,86.804565,1638905386999
Fix,GT,34.274346,-118.5421038,311.1139334275722,29.724989,0.1,87.073975,1638905387999
Fix,GT,34.2743589,-118.541782,311.30097069960834,29.637724,0.1,87.25882,1638905388999
Fix,GT,34.2743719,-118.5414606,311.4179733543396,29.647762,0.1,87.022644,1638905389999
Fix,GT,34.274386,-118.5411387,311.4740026654601,29.728416,0.1,86.94397,1638905390999
Fix,GT,34.2743996,-118.5408158,311.5309893350601,29.826765,0.1,87.17572,1638905391999
Fix,GT,34.2744127,-118.5404918,311.5530053342581,29.89161,0.1,87.14267,1638905392999
Fix,GT,34.2744264,-118.5401673,311.509024012208,29.977854,0.1,86.944916,1638905393999
Fix,GT,34.274442,-118.5398415,311.40203736400605,30.113037,0.1,86.24829,1638905394999
Fix,GT,34.274463,-118.5395145,311.2930293672681,30.304678,0.1,84.96466,1638905395999
Fix,GT,34.2744888,-118.5391857,311.16903738904,30.511993,0.1,84.02576,1638905396999
Fix,GT,34.2745202,-118.5388556,311.04602671539783,30.675743,0.1,82.76315,1638905397999
Fix,GT,34.2745579,-118.538525,310.9130454293489,30.75344,0.1,81.46335,1638905398999
Fix,GT,34.2746015,-118.5381949,310.76903742492203,30.825438,0.1,80.35535,1638905399999
Fix,GT,34.2746507,-118.5378649,310.6290427856445,30.844612,0.1,79.26068,1638905400999
Fix,GT,34.2747044,-118.5375375,310.4900454739332,30.64897,0.1,78.17056,1638905401999
Fix,GT,34.2747644,-118.5372124,310.33905351662634,30.736723,0.1,76.73883,1638905402999
Fix,GT,34.2748308,-118.5368873,310.2340160599947,30.917126,0.1,75.570435,1638905403999
Fix,GT,34.274903,-118.5365631,310.1820053550005,30.848911,0.1,74.363525,1638905404999
Fix,GT,34.2749802,-118.5362425,310.2179785728455,30.68236,0.1,73.20831,1638905405999
Fix,GT,34.2750623,-118.5359246,310.30797052848334,30.619843,0.1,72.1015,1638905406999
Fix,GT,34.27515,-118.5356097,310.4799544389248,30.575573,0.1,70.70386,1638905407999
Fix,GT,34.2752437,-118.5352975,310.7339115284085,30.556568,0.1,69.600525,1638905408999
Fix,GT,34.2753415,-118.5349878,311.0619141807556,30.462439,0.1,68.42099,1638905409999
Fix,GT,34.2754452,-118.5346824,311.4428792764544,30.286829,0.1,67.00995,1638905410999
Fix,GT,34.2755539,-118.5343818,311.8448846060634,30.088844,0.1,65.94623,1638905411999
Fix,GT,34.2756652,-118.5340861,312.23290872991083,29.70931,0.1,65.131134,1638905412999
Fix,GT,34.2757783,-118.5337952,312.5769033288956,29.497915,0.1,64.621185,1638905413999
Fix,GT,34.2758918,-118.5335068,312.92290867114065,29.301075,0.1,64.53528,1638905414999
Fix,GT,34.276005,-118.5332195,313.27691401481627,29.275831,0.1,64.53424,1638905415999
Fix,GT,34.2761182,-118.5329322,313.5938978586197,29.290611,0.1,64.4613,1638905416999
Fix,GT,34.2762315,-118.5326444,313.95990051347013,29.393864,0.1,64.64722,1638905417999
Fix,GT,34.2763445,-118.5323554,314.3668951032758,29.396317,0.1,64.70911,1638905418999
Fix,GT,34.2764572,-118.5320672,314.7538923778534,29.250723,0.1,64.675964,1638905419999
Fix,GT,34.276569,-118.5317814,315.1259138755798,28.928934,0.1,64.65036,1638905420999
Fix,GT,34.2766804,-118.531498,315.48590577220915,28.842197,0.1,64.47473,1638905421999
Fix,GT,34.2767919,-118.5312163,315.8359084340334,28.577993,0.1,64.48126,1638905422999
Fix,GT,34.2769015,-118.5309378,316.1629137916565,28.231092,0.1,64.51712,1638905423999
Fix,GT,34.2770109,-118.5306613,316.4719245426654,28.22686,0.1,64.32089,1638905424999
Fix,GT,34.2771212,-118.5303843,316.76391643393043,28.286327,0.1,64.35898,1638905425999
Fix,GT,34.27723,-118.5301083,317.0069433706999,27.988768,0.1,64.64566,1638905426999
Fix,GT,34.2773365,-118.5298348,317.2229352607727,27.652967,0.1,64.888855,1638905427999
Fix,GT,34.2774404,-118.5295626,317.4399325424433,27.61991,0.1,65.661285,1638905428999
Fix,GT,34.27754,-118.5292869,317.63994871526955,27.76303,0.1,67.32715,1638905429999
Fix,GT,34.2776322,-118.5290057,317.862927097559,27.938854,0.1,69.18637,1638905430999
Fix,GT,34.2777178,-118.5287196,318.0539540832638,28.067007,0.1,70.95825,1638905431999
Fix,GT,34.2777968,-118.5284297,318.2029648771286,28.141403,0.1,72.41934,1638905432999
Fix,GT,34.2778692,-118.5281367,318.2929810814261,28.129925,0.1,74.27368,1638905433999
Fix,GT,34.2779332,-118.5278424,318.33299188935763,27.89759,0.1,76.17938,1638905434999
Fix,GT,34.2779887,-118.5275486,318.3200135219097,27.610632,0.1,77.968994,1638905435999
Fix,GT,34.2780362,-118.527256,318.2310270527601,27.311726,0.1,79.680176,1638905436999
Fix,GT,34.2780755,-118.5269648,318.1410270617008,27.051674,0.1,81.70215,1638905437999
Fix,GT,34.2781065,-118.5266746,317.9820514342189,26.829992,0.1,83.264435,1638905438999
Fix,GT,34.2781315,-118.526386,317.8100649881363,26.688366,0.1,84.73682,1638905439999
Fix,GT,34.2781498,-118.5260956,317.57706771981714,27.048548,0.1,86.367096,1638905440999
Fix,GT,34.2781612,-118.5257989,317.28407857918734,27.669027,0.1,88.115875,1638905441999
Fix,GT,34.2781647,-118.5254982,316.9520975809097,27.660034,0.1,90.06137,1638905442999
Fix,GT,34.278162,-118.5251972,316.58810303378107,27.915094,0.1,90.614624,1638905443999
Fix,GT,34.2781595,-118.5248907,316.19111934161185,28.546633,0.1,90.36902,1638905444999
Fix,GT,34.278158,-118.5245768,315.74813294696804,29.067307,0.1,90.208954,1638905445999
Fix,GT,34.2781562,-118.5242604,315.20815198946,29.274729,0.1,90.374756,1638905446999
Fix,GT,34.2781537,-118.5239424,314.5841764705777,29.287378,0.1,90.50534,1638905447999
Fix,GT,34.2781511,-118.5236246,313.8841955394745,29.232567,0.1,90.481445,1638905448999
Fix,GT,34.2781485,-118.5233076,313.1562064707279,29.18129,0.1,90.46051,1638905449999
Fix,GT,34.2781454,-118.5229889,312.4032065296173,29.625664,0.1,90.71228,1638905450999
Fix,GT,34.2781406,-118.522665,311.6532174711228,29.982803,0.1,91.319214,1638905451999
Fix,GT,34.278132,-118.5223394,310.89521210408213,29.99274,0.1,92.12631,1638905452999
Fix,GT,34.2781205,-118.5220136,310.1282176141739,30.126673,0.1,92.54254,1638905453999
Fix,GT,34.2781072,-118.5216853,309.3582149599195,30.334276,0.1,93.05713,1638905454999
Fix,GT,34.2780906,-118.5213568,308.59020414292814,30.26433,0.1,93.78064,1638905455999
Fix,GT,34.2780704,-118.5210297,307.82421510118246,30.1535,0.1,94.566315,1638905456999
Fix,GT,34.2780473,-118.520704,307.049215171814,30.053162,0.1,95.04184,1638905457999
Fix,GT,34.2780224,-118.5203791,306.2902152424455,30.127804,0.1,95.359985,1638905458999
Fix,GT,34.2779961,-118.5200533,305.518207132101,30.10501,0.1,95.375916,1638905459999
Fix,GT,34.2779708,-118.5197283,304.7622099263668,30.012094,0.1,95.295746,1638905460999
Fix,GT,34.2779442,-118.5194045,303.9992181816101,29.922735,0.1,95.75714,1638905461999
Fix,GT,34.2779169,-118.5190816,303.2392018841505,29.843184,0.1,95.61896,1638905462999
Fix,GT,34.2778908,-118.5187595,302.502191025734,29.777836,0.1,95.342224,1638905463999
Fix,GT,34.2778664,-118.5184365,301.80518289881945,30.047056,0.1,95.10089,1638905464999
Fix,GT,34.2778415,-118.5181086,301.1441829587221,30.57717,0.1,95.28256,1638905465999
Fix,GT,34.2778156,-118.5177757,300.46019121348854,31.002571,0.1,95.33331,1638905466999
Fix,GT,34.2777899,-118.5174383,299.76120493417983,31.394878,0.1,95.20529,1638905467999
Fix,GT,34.2777656,-118.5170964,299.0152132012844,31.7919,0.1,94.42462,1638905468999
Fix,GT,34.2777444,-118.5167511,298.2562078025341,31.950089,0.1,94.14517,1638905469999
Fix,GT,34.277724,-118.5164038,297.50918872451786,32.18197,0.1,93.647125,1638905470999
Fix,GT,34.2777071,-118.5160541,296.8051997259856,32.33,0.1,93.091034,1638905471999
Fix,GT,34.2776924,-118.5157024,296.1301778963208,32.512936,0.1,92.58551,1638905472999
Fix,GT,34.2776807,-118.5153495,295.4781752166748,32.4774,0.1,91.79193,1638905473999
Fix,GT,34.2776732,-118.5149971,294.8541670579314,32.501305,0.1,91.026855,1638905474999
Fix,GT,34.2776696,-118.5146435,294.22617259156704,32.597015,0.1,90.38013,1638905475999
Fix,GT,34.2776687,-118.5142896,293.6131616826057,32.531082,0.1,89.82031,1638905476999
Fix,GT,34.2776708,-118.5139371,292.98015899407864,32.451847,0.1,89.27765,1638905477999
Fix,GT,34.2776759,-118.5135833,292.3331782411337,32.784195,0.1,88.58661,1638905478999
Fix,GT,34.2776846,-118.5132251,291.63920297801496,33.17749,0.1,88.04846,1638905479999
Fix,GT,34.2776944,-118.512865,290.8842085318566,33.150223,0.1,87.98898,1638905480999
Fix,GT,34.2777048,-118.5125053,290.1322058550715,33.149944,0.1,88.02603,1638905481999
Fix,GT,34.2777141,-118.5121455,289.3861976852417,33.15786,0.1,88.19815,1638905482999
Fix,GT,34.277723,-118.5117847,288.7121812665462,33.317585,0.1,88.21124,1638905483999
Fix,GT,34.2777322,-118.5114228,288.07317857819794,33.360817,0.1,87.9559,1638905484999
Fix,GT,34.2777434,-118.5110603,287.4541703915596,33.419044,0.1,87.763336,1638905485999
Fix,GT,34.2777542,-118.5106977,286.87916495227813,33.41516,0.1,87.89041,1638905486999
Fix,GT,34.2777648,-118.5103353,286.2891540055275,33.369194,0.1,87.9292,1638905487999
Fix,GT,34.2777753,-118.5099729,285.7401485503912,33.421673,0.1,87.900024,1638905488999
Fix,GT,34.2777861,-118.5096095,285.2011293330789,33.545406,0.1,87.87811,1638905489999
Fix,GT,34.2777968,-118.5092451,284.66515690171724,33.580765,0.1,87.85278,1638905490999
Fix,GT,34.2778073,-118.5088811,284.16213216781614,33.504246,0.1,87.985596,1638905491999
Fix,GT,34.2778169,-118.5085179,283.62814873707293,33.431786,0.1,88.13568,1638905492999
Fix,GT,34.2778262,-118.5081551,283.14612949836254,33.416775,0.1,88.17865,1638905493999
Fix,GT,34.2778361,-118.5077927,282.65512402802705,33.355724,0.1,87.92316,1638905494999
Fix,GT,34.2778468,-118.5074307,282.17212957960373,33.365387,0.1,87.870026,1638905495999
Fix,GT,34.277858,-118.5070687,281.6521627165079,33.381058,0.1,87.759705,1638905496999
Fix,GT,34.2778692,-118.5067053,281.1741269048452,33.586143,0.1,87.8887,1638905497999
Fix,GT,34.2778792,-118.5063397,280.66214626383777,33.796715,0.1,88.09396,1638905498999
Fix,GT,34.2778895,-118.5059719,280.1371435506344,33.97424,0.1,87.81494,1638905499999
Fix,GT,34.2779003,-118.5056023,279.6201435940266,34.153843,0.1,87.95615,1638905500999
Fix,GT,34.2779107,-118.5052305,279.10614640283586,34.347507,0.1,87.96173,1638905501999
Fix,GT,34.2779217,-118.5048568,278.58314368700985,34.529793,0.1,87.83887,1638905502999
Fix,GT,34.2779327,-118.5044809,278.04715478992466,34.745003,0.1,87.91739,1638905503999
Fix,GT,34.2779434,-118.5041029,277.4981299521923,34.869675,0.1,88.01959,1638905504999
Fix,GT,34.2779539,-118.5037241,276.9881493550539,34.948803,0.1,87.90726,1638905505999
Fix,GT,34.277965,-118.5033443,276.45115217006213,35.050888,0.1,87.963806,1638905506999
Fix,GT,34.2779759,-118.5029635,275.91415221923586,35.103085,0.1,88.00891,1638905507999
Fix,GT,34.2779855,-118.5025834,275.2882020973563,34.908543,0.1,88.44577,1638905508999
Fix,GT,34.2779896,-118.5022057,274.6241800116897,34.672066,0.1,90.01053,1638905509999
Fix,GT,34.2779849,-118.5018296,274.049146826148,34.66321,0.1,91.61789,1638905510999
Fix,GT,34.2779705,-118.5014536,273.5161413311363,34.608673,0.1,93.627594,1638905511999
Fix,GT,34.2779455,-118.5010802,272.9891496930122,34.416378,0.1,95.4043,1638905512999
Fix,GT,34.2779115,-118.5007088,272.4641441953182,34.444183,0.1,97.09421,1638905513999
Fix,GT,34.2778671,-118.5003384,271.93715533399586,34.50724,0.1,99.21951,1638905514999
Fix,GT,34.2778122,-118.4999692,271.40414983463285,34.562176,0.1,101.0921,1638905515999
Fix,GT,34.2777463,-118.4996026,270.8601554341316,34.555218,0.1,103.31961,1638905516999
Fix,GT,34.2776696,-118.4992386,270.31513882517817,34.622383,0.1,104.900085,1638905517999
Fix,GT,34.2775851,-118.4988767,269.86509442949296,34.635696,0.1,106.526764,1638905518999
Fix,GT,34.2774911,-118.4985182,269.5640583428741,34.617565,0.1,108.34915,1638905519999
Fix,GT,34.2773875,-118.4981641,269.420016674757,34.53541,0.1,110.46588,1638905520999
Fix,GT,34.2772733,-118.4978155,269.41697775983806,34.516193,0.1,112.383606,1638905521999
Fix,GT,34.2771501,-118.4974714,269.5769360403418,34.50538,0.1,114.17679,1638905522999
Fix,GT,34.2770179,-118.4971326,269.896902638793,34.435345,0.1,115.996704,1638905523999
Fix,GT,34.2768777,-118.4968,270.34685530257224,34.294548,0.1,117.85083,1638905524999
Fix,GT,34.2767289,-118.4964745,270.9577995853424,34.13878,0.1,119.67737,1638905525999
Fix,GT,34.2765719,-118.496157,271.6797967408895,33.962624,0.1,121.76401,1638905526999
Fix,GT,34.2764072,-118.4958471,272.3858106019497,33.82098,0.1,123.46875,1638905527999
Fix,GT,34.276235,-118.4955451,273.03281889963154,33.66609,0.1,125.37836,1638905528999
Fix,GT,34.2760555,-118.4952511,273.52787179553513,33.57265,0.1,127.19507,1638905529999
Fix,GT,34.2758689,-118.494965,273.9348912700415,33.47953,0.1,129.14081,1638905530999
Fix,GT,34.275675,-118.4946867,274.2539247028828,33.430744,0.1,130.6756,1638905531999
Fix,GT,34.2754747,-118.494416,274.5609190993905,33.37067,0.1,132.67303,1638905532999
Fix,GT,34.2752679,-118.4941531,274.64898883771895,33.365982,0.1,134.0759,1638905533999
Fix,GT,34.2750576,-118.4938945,274.9839023029208,33.30087,0.1,134.48523,1638905534999
Fix,GT,34.2748473,-118.4936374,275.2688575927615,33.20887,0.1,134.59674,1638905535999
Fix,GT,34.2746377,-118.4933809,275.04001396566633,33.097767,0.1,134.35138,1638905536999
Fix,GT,34.2744286,-118.493124,274.74422073286775,33.195675,0.1,134.36298,1638905537999
Fix,GT,34.2742184,-118.492866,274.4131341533661,33.415226,0.1,134.5051,1638905538999
Fix,GT,34.2740061,-118.4926061,273.9871090344787,33.715977,0.1,134.42853,1638905539999
Fix,GT,34.2737924,-118.4923446,273.52216500234607,33.85913,0.1,134.57547,1638905540999
Fix,GT,34.2735782,-118.4920835,273.0661342821121,33.715015,0.1,134.50134,1638905541999
Fix,GT,34.273366,-118.4918231,272.45020148324966,33.52674,0.1,134.28357,1638905542999
Fix,GT,34.2731543,-118.4915621,271.74119314980504,33.696907,0.1,134.2442,1638905543999
Fix,GT,34.2729417,-118.4912998,271.0382016119957,33.802166,0.1,134.22693,1638905544999
Fix,GT,34.2727286,-118.4910368,270.314277305007,33.93271,0.1,134.27563,1638905545999
Fix,GT,34.2725135,-118.4907727,269.58222695350645,34.192577,0.1,134.44247,1638905546999
Fix,GT,34.2722966,-118.4905071,268.941170966506,34.388973,0.1,134.49829,1638905547999
Fix,GT,34.2720787,-118.490241,268.1932214909792,34.49331,0.1,134.54254,1638905548999
Fix,GT,34.2718595,-118.4899733,267.4851486362815,34.774204,0.1,134.4654,1638905549999
Fix,GT,34.2716391,-118.4897029,266.88013465690614,35.012726,0.1,134.30743,1638905550999
Fix,GT,34.2714179,-118.4894303,266.3401150560975,35.18053,0.1,134.32275,1638905551999
Fix,GT,34.2711954,-118.4891572,265.91014035701755,35.314964,0.1,134.43567,1638905552999
Fix,GT,34.2709714,-118.4888834,265.54907581531995,35.496162,0.1,134.51605,1638905553999
Fix,GT,34.2707461,-118.488608,265.30008988380433,35.69659,0.1,134.4494,1638905554999
Fix,GT,34.2705202,-118.4883316,265.054061814785,35.73871,0.1,134.52313,1638905555999
Fix,GT,34.2702937,-118.4880554,264.8920477811694,35.761745,0.1,134.59875,1638905556999
Fix,GT,34.270067,-118.4877789,264.75603373789784,35.81958,0.1,134.4556,1638905557999
Fix,GT,34.2698407,-118.4875013,264.61999718761444,35.8213,0.1,134.46332,1638905558999
Fix,GT,34.2696145,-118.4872239,264.4870590788722,35.80261,0.1,134.38141,1638905559999
Fix,GT,34.2693883,-118.4869467,264.3620534693003,35.80342,0.1,134.47968,1638905560999
Fix,GT,34.2691621,-118.4866701,264.2181069725752,35.642662,0.1,134.51035,1638905561999
Fix,GT,34.2689374,-118.4863951,264.2249577596784,35.446095,0.1,134.36859,1638905562999
Fix,GT,34.2687151,-118.4861198,264.3259774651528,35.292088,0.1,133.98395,1638905563999
Fix,GT,34.268495,-118.4858441,264.33899718225007,35.167473,0.1,133.89233,1638905564999
Fix,GT,34.2682757,-118.4855692,264.29601409322026,35.053608,0.1,133.73077,1638905565999
Fix,GT,34.2680606,-118.4852913,264.20703101491927,34.923637,0.1,132.0184,1638905566999
Fix,GT,34.2678551,-118.4850048,264.3398392319679,34.78854,0.1,129.5227,1638905567999
Fix,GT,34.2676591,-118.4847107,264.14107053464653,34.697742,0.1,127.75354,1638905568999
Fix,GT,34.2674719,-118.4844088,263.8971665109992,34.701424,0.1,125.183685,1638905569999
Fix,GT,34.2672962,-118.4840965,263.65709598588944,34.762768,0.1,122.970856,1638905570999
Fix,GT,34.2671311,-118.4837755,263.5980225920677,34.819942,0.1,120.70624,1638905571999
Fix,GT,34.2669741,-118.4834475,263.4470395486355,34.90803,0.1,118.894745,1638905572999
Fix,GT,34.2668271,-118.4831121,263.3550197809935,34.916092,0.1,116.549164,1638905573999
Fix,GT,34.2666913,-118.4827703,263.2540367469788,34.88103,0.1,114.550476,1638905574999
Fix,GT,34.2665652,-118.4824234,263.20500282770394,34.849583,0.1,112.54419,1638905575999
Fix,GT,34.2664493,-118.4820716,263.14400565707683,34.884922,0.1,110.29843,1638905576999
Fix,GT,34.2663464,-118.4817132,262.92500848829746,34.946503,0.1,107.66922,1638905577999
Fix,GT,34.2662559,-118.4813497,262.8280424557924,34.94157,0.1,105.615234,1638905578999
Fix,GT,34.2661763,-118.4809828,262.7200339753628,34.901695,0.1,103.4559,1638905579999
Fix,GT,34.2661088,-118.4806128,262.6160198256373,34.84312,0.1,101.19638,1638905580999
Fix,GT,34.2660529,-118.4802417,262.61705382943154,34.642857,0.1,99.255005,1638905581999
Fix,GT,34.2660081,-118.4798702,262.3661417040825,34.5265,0.1,97.17343,1638905582999
Fix,GT,34.2659747,-118.4794978,262.2340113399029,34.468338,0.1,95.122894,1638905583999
Fix,GT,34.2659521,-118.479124,262.1290652263761,34.584137,0.1,93.06183,1638905584999
Fix,GT,34.2659404,-118.4787478,261.9030510628224,34.73684,0.1,90.94998,1638905585999
Fix,GT,34.2659376,-118.4783697,261.6810482422113,34.886425,0.1,90.26941,1638905586999
Fix,GT,34.2659351,-118.4779904,261.53907664251324,34.952477,0.1,90.43533,1638905587999
Fix,GT,34.2659319,-118.477611,261.27905963212254,34.96761,0.1,90.4975,1638905588999
Fix,GT,34.2659291,-118.477231,261.15198863768575,34.991966,0.1,90.32193,1638905589999
Fix,GT,34.2659268,-118.4768508,260.9290539868473,35.049007,0.1,90.32367,1638905590999
Fix,GT,34.2659246,-118.47647,260.6530795879364,35.097874,0.1,90.2818,1638905591999
Fix,GT,34.2659225,-118.4760888,260.3322473740578,35.11648,0.1,90.28656,1638905592999
Fix,GT,34.2659206,-118.4757068,259.72526166772843,35.26776,0.1,90.39343,1638905593999
Fix,GT,34.2659178,-118.4753228,259.01318493980165,35.481632,0.1,90.45355,1638905594999
Fix,GT,34.2659154,-118.4749367,258.30421630978583,35.61555,0.1,90.23578,1638905595999
Fix,GT,34.2659135,-118.4745494,257.5282363023162,35.731617,0.1,90.28088,1638905596999
Fix,GT,34.2659113,-118.4741608,256.6002762588263,35.849983,0.1,90.36307,1638905597999
Fix,GT,34.2659085,-118.473771,255.6102905962468,35.93838,0.1,90.44293,1638905598999
Fix,GT,34.2659056,-118.47338,254.5792992433309,36.122437,0.1,90.4595,1638905599999
Fix,GT,34.2659021,-118.4729868,253.73520811498165,36.297504,0.1,90.565735,1638905600999
Fix,GT,34.2658984,-118.4725924,253.09615114456412,36.312653,0.1,90.40518,1638905601999
Fix,GT,34.2658959,-118.4721983,252.6791026985645,36.274265,0.1,90.40878,1638905602999
Fix,GT,34.2658933,-118.4718049,252.4830114147663,36.200974,0.1,90.34509,1638905603999
Fix,GT,34.2658909,-118.4714122,252.51695718121528,36.134933,0.1,90.32422,1638905604999
Fix,GT,34.2658889,-118.4710205,252.783897204876,36.028576,0.1,90.24866,1638905605999
Fix,GT,34.2658868,-118.47063,253.26483433032035,35.88896,0.1,90.33841,1638905606999
Fix,GT,34.2658843,-118.4702414,253.96476856130363,35.6936,0.1,90.46326,1638905607999
Fix,GT,34.2658809,-118.4698551,254.87272275829312,35.46756,0.1,90.60776,1638905608999
Fix,GT,34.2658765,-118.4694713,255.8577369668484,35.249287,0.1,90.64618,1638905609999
Fix,GT,34.2658735,-118.4690897,256.7937511895299,34.99732,0.1,90.38928,1638905610999
Fix,GT,34.265871,-118.4687112,257.6977368078232,34.73369,0.1,90.253296,1638905611999
Fix,GT,34.2658693,-118.4683352,258.532756757319,34.53567,0.1,90.28854,1638905612999
Fix,GT,34.2658669,-118.4679612,259.30279103219505,34.37143,0.1,90.450226,1638905613999
Fix,GT,34.2658635,-118.4675891,260.13572797065973,34.165344,0.1,90.51001,1638905614999
Fix,GT,34.2658608,-118.4672188,260.67284819203616,34.03714,0.1,90.369446,1638905615999
Fix,GT,34.2658587,-118.4668499,261.0458968529701,33.926888,0.1,90.237274,1638905616999
Fix,GT,34.265857,-118.4664821,261.4369369460344,33.831413,0.1,90.16492,1638905617999
Fix,GT,34.2658559,-118.4661152,261.71193979334834,33.745285,0.1,90.1741,1638905618999
Fix,GT,34.2658541,-118.4657491,261.8529340415597,33.680763,0.1,90.3024,1638905619999
Fix,GT,34.2658515,-118.465384,262.1289053344727,33.602688,0.1,90.49844,1638905620999
Fix,GT,34.2658488,-118.4650194,262.3399598263502,33.52119,0.1,90.38776,1638905621999
Fix,GT,34.2658463,-118.4646574,262.5889655561448,33.149376,0.1,90.41272,1638905622999
Fix,GT,34.2658435,-118.4642999,262.8279310908317,32.77659,0.1,90.47092,1638905623999
Fix,GT,34.2658412,-118.4639444,263.0349396882058,32.72757,0.1,90.209656,1638905624999
Fix,GT,34.2658399,-118.4635887,263.2139425423145,32.781334,0.1,90.168945,1638905625999
Fix,GT,34.2658384,-118.4632326,263.4399626408816,32.817566,0.1,90.249115,1638905626999
Fix,GT,34.2658365,-118.4628761,263.6369396343827,32.85272,0.1,90.305664,1638905627999
Fix,GT,34.2658343,-118.4625192,263.85693386471274,32.86006,0.1,90.35187,1638905628999
Fix,GT,34.265832,-118.4621634,264.0739309706688,32.709263,0.1,90.45093,1638905629999
Fix,GT,34.265829,-118.4618096,264.32596259748937,32.41367,0.1,90.50021,1638905630999
Fix,GT,34.265826,-118.4614605,264.52592805272343,31.87949,0.1,90.37448,1638905631999
Fix,GT,34.265825,-118.4611167,264.6989481829405,31.474152,0.1,89.99411,1638905632999
Fix,GT,34.2658238,-118.4607771,264.9319452872276,31.148254,0.1,90.47565,1638905633999
Fix,GT,34.2658206,-118.4604382,265.1609395117164,31.53448,0.1,90.44693,1638905634999
Fix,GT,34.2658183,-118.4600907,265.31093373036384,32.352253,0.1,90.52484,1638905635999
Fix,GT,34.2658144,-118.4597392,265.546962533176,32.281857,0.1,90.804535,1638905636999
Fix,GT,34.2658093,-118.4593892,265.5690172973871,32.197205,0.1,90.98465,1638905637999
Fix,GT,34.2658034,-118.4590403,265.52700576734543,32.04732,0.1,91.4234,1638905638999
Fix,GT,34.2657938,-118.4586942,265.4650115382671,31.726156,0.1,92.082794,1638905639999
Fix,GT,34.2657838,-118.4583518,265.335040394783,31.389187,0.1,91.64368,1638905640999
Fix,GT,34.2657768,-118.4580129,265.1750461788177,31.078684,0.1,91.15869,1638905641999
Fix,GT,34.2657712,-118.4576769,265.0100461912155,30.830784,0.1,90.953064,1638905642999
Fix,GT,34.2657679,-118.4573435,264.85303754121065,30.662401,0.1,90.46619,1638905643999
Fix,GT,34.265765,-118.4570088,264.70302599704263,31.116306,0.1,90.42755,1638905644999
Fix,GT,34.2657626,-118.4566715,264.54104911869763,30.964355,0.1,90.46283,1638905645999
Fix,GT,34.2657587,-118.4563372,264.37006647390126,30.612692,0.1,91.24936,1638905646999
Fix,GT,34.2657494,-118.4560072,264.19304336416724,30.193918,0.1,92.38388,1638905647999
Fix,GT,34.2657382,-118.4556816,264.030052052021,29.839394,0.1,92.12482,1638905648999
Fix,GT,34.2657284,-118.4553587,263.87303471064564,29.80388,0.1,91.8031,1638905649999
Fix,GT,34.2657213,-118.4550332,263.87199710661173,30.138475,0.1,91.04474,1638905650999
Fix,GT,34.2657166,-118.4547067,263.99598552918434,30.032122,0.1,90.83865,1638905651999
Fix,GT,34.2657124,-118.4543813,264.2658639379144,29.837545,0.1,90.90674,1638905652999
Fix,GT,34.2657055,-118.4540594,264.5459391875267,29.45557,0.1,92.017944,1638905653999
Fix,GT,34.2656938,-118.4537419,264.6839102070332,29.088047,0.1,92.649994,1638905654999
Fix,GT,34.2656831,-118.4534285,264.9389362576008,28.69312,0.1,91.728516,1638905655999
Fix,GT,34.2656776,-118.4531203,265.1499420368671,27.966831,0.1,90.63867,1638905656999
Fix,GT,34.2656746,-118.4528238,265.3999275267124,26.637222,0.1,90.53049,1638905657999
Fix,GT,34.2656726,-118.4525429,265.6579391049147,25.035318,0.1,90.43765,1638905658999
Fix,GT,34.2656705,-118.4522774,265.8669448908568,23.98225,0.1,90.44055,1638905659999
Fix,GT,34.2656693,-118.4520221,266.0849361723661,22.969378,0.1,90.08911,1638905660999
Fix,GT,34.265669,-118.4517748,266.2739361540079,22.658125,0.1,89.55005,1638905661999
Fix,GT,34.2656732,-118.4515273,266.4759390398264,23.0235,0.1,88.298615,1638905662999
Fix,GT,34.2656802,-118.4512729,266.6989245069027,23.971909,0.1,87.81296,1638905663999
Fix,GT,34.2656868,-118.4510076,266.93593319845195,24.785288,0.1,88.57861,1638905664999
Fix,GT,34.2656908,-118.4507363,267.1579564230442,25.227886,0.1,89.04529,1638905665999
Fix,GT,34.2656954,-118.4504594,267.3179476937055,25.79774,0.1,88.0473,1638905666999
Fix,GT,34.2657077,-118.4501744,267.47295930564405,26.756842,0.1,86.05731,1638905667999
Fix,GT,34.2657258,-118.4498836,267.6929534807205,26.942158,0.1,85.50284,1638905668999
Fix,GT,34.2657442,-118.4495913,267.8699476518632,27.115774,0.1,85.677,1638905669999
Fix,GT,34.2657623,-118.4492952,267.95397381949425,27.499847,0.1,85.70691,1638905670999
Fix,GT,34.2657814,-118.4489959,268.1349592630863,27.864315,0.1,85.33234,1638905671999
Fix,GT,34.265803,-118.4486909,268.25996507406234,28.45006,0.1,84.774536,1638905672999
Fix,GT,34.2658274,-118.4483816,268.41996215349434,28.73049,0.1,84.19751,1638905673999
Fix,GT,34.2658547,-118.4480695,268.5569592322112,29.081207,0.1,83.60535,1638905674999
Fix,GT,34.2658855,-118.447754,268.6959592205286,29.440374,0.1,82.892,1638905675999
Fix,GT,34.2659198,-118.4474348,268.8499621240497,29.88208,0.1,82.207886,1638905676999
