MessageType,Provider,LatitudeDegrees,LongitudeDegrees,AltitudeMeters,SpeedMps,AccuracyMeters,BearingDegrees,UnixTimeMillis
Fix,GT,37.3714852,-122.0478777,9.111,0.001,0.1,201.13805,1619480280999
Fix,GT,37.3714852,-122.0478777,9.111,0.0010018762,0.1,201.13794,1619480281999
Fix,GT,37.3714852,-122.0478777,9.111,0.0,0.1,201.1381,1619480282999
Fix,GT,37.3714852,-122.0478777,9.111,0.001,0.1,201.13797,1619480283999
Fix,GT,37.3714852,-122.0478777,9.111,0.001,0.1,201.13776,1619480284999
Fix,GT,37.3714852,-122.0478777,9.111,4.545987e-06,0.1,201.1378,1619480285999
Fix,GT,37.3714852,-122.0478777,9.111,0.0010018847,0.1,201.13753,1619480286999
Fix,GT,37.3714852,-122.0478777,9.111,0.0022258842,0.1,201.13756,1619480287999
Fix,GT,37.3714852,-122.0478777,9.111,0.0014077668,0.1,201.13786,1619480288999
Fix,GT,37.3714852,-122.0478777,9.111,0.001407761,0.1,201.13782,1619480289999
Fix,GT,37.3714852,-122.0478777,9.111,4.566789e-06,0.1,201.13763,1619480290999
Fix,GT,37.3714852,-122.0478777,9.111,0.0010056501,0.1,201.13776,1619480291999
Fix,GT,37.3714852,-122.0478777,9.111,0.0014179737,0.1,201.13763,1619480292999
Fix,GT,37.3714852,-122.0478777,9.111,0.0014206897,0.1,201.13779,1619480293999
Fix,GT,37.3714852,-122.0478777,9.11,0.004124705,0.1,201.13577,1619480294999
Fix,GT,37.3714852,-122.0478777,9.107004587590692,0.0070488863,0.1,201.13782,1619480295999
Fix,GT,37.3714829,-122.0478789,9.093004591763018,0.43320134,0.1,201.11711,1619480296999
Fix,GT,37.3714773,-122.0478815,9.071013787806034,0.96299845,0.1,200.82121,1619480297999
Fix,GT,37.3714665,-122.0478867,9.049013800323008,1.5789918,0.1,200.94531,1619480298999
Fix,GT,37.3714511,-122.0478943,9.034009208440782,2.1145513,0.1,201.26617,1619480299999
Fix,GT,37.3714304,-122.0479048,9.02000460845232,2.8156123,0.1,201.8312,1619480300999
Fix,GT,37.3714055,-122.0479172,9.049,3.042288,0.1,201.72166,1619480301999
Fix,GT,37.3713771,-122.0479304,9.086930748045445,3.7158165,0.1,200.52971,1619480302999
Fix,GT,37.3713427,-122.0479449,9.088967653214931,4.194462,0.1,198.5724,1619480303999
Fix,GT,37.3713085,-122.0479591,9.11098149943352,3.7614803,0.1,198.36948,1619480304999
Fix,GT,37.3712782,-122.0479716,9.155981482982636,3.318061,0.1,198.59816,1619480305999
Fix,GT,37.3712535,-122.0479872,9.213958299160003,2.9195645,0.1,206.6955,1619480306999
Fix,GT,37.3712385,-122.0480112,9.307990724802018,2.6031723,0.1,227.70496,1619480307999
Fix,GT,37.3712337,-122.0480418,9.336990716457366,3.0260637,0.1,252.71361,1619480308999
Fix,GT,37.3712371,-122.0480791,9.377986062169075,3.6570568,0.1,273.48602,1619480309999
Fix,GT,37.3712447,-122.0481197,9.431972099661827,3.6377265,0.1,281.68295,1619480310999
Fix,GT,37.3712515,-122.0481581,9.490972074627877,3.2858248,0.1,282.40967,1619480311999
Fix,GT,37.3712575,-122.0481923,9.528976707696916,2.9883776,0.1,282.4826,1619480312999
Fix,GT,37.3712636,-122.0482251,9.659046626329424,2.9329615,0.1,282.9845,1619480313999
Fix,GT,37.3712699,-122.0482587,9.551995333194732,3.1908298,0.1,283.2555,1619480314999
Fix,GT,37.3712773,-122.0482966,9.50301401293278,3.8036463,0.1,283.52084,1619480315999
Fix,GT,37.3712858,-122.0483406,9.439074801445008,4.0227365,0.1,283.5353,1619480316999
Fix,GT,37.371295,-122.0483833,9.433990641474724,3.8173146,0.1,285.0546,1619480317999
Fix,GT,37.3713049,-122.0484249,9.473985949695107,3.9134293,0.1,286.47388,1619480318999
Fix,GT,37.3713147,-122.0484656,9.53797656196356,3.4388762,0.1,286.9324,1619480319999
Fix,GT,37.3713223,-122.0484954,9.575981232881546,2.0798523,0.1,287.46506,1619480320999
Fix,GT,37.3713279,-122.0485137,9.590976520538328,1.8701618,0.1,289.8302,1619480321999
Fix,GT,37.3713391,-122.0485324,9.546061100840568,2.1767747,0.1,301.5481,1619480322999
Fix,GT,37.3713582,-122.0485459,9.330920027971269,2.7752635,0.1,323.4135,1619480323999
Fix,GT,37.3713871,-122.04855,9.485924664497375,3.7340775,0.1,349.28055,1619480324999
Fix,GT,37.3714269,-122.0485404,9.538,5.48842,0.1,10.940552,1619480325999
Fix,GT,37.3714801,-122.0485177,9.493033016860483,6.863374,0.1,18.339417,1619480326999
Fix,GT,37.3715399,-122.0484923,9.42401416260004,6.8972263,0.1,18.481323,1619480327999
Fix,GT,37.3715933,-122.0484681,9.372995274960994,5.6138353,0.1,20.996094,1619480328999
Fix,GT,37.3716314,-122.0484401,9.31601891684532,4.5914483,0.1,32.32437,1619480329999
Fix,GT,37.3716603,-122.0484039,9.258004733383656,4.8055925,0.1,45.866394,1619480330999
Fix,GT,37.3716832,-122.0483512,9.214028424978256,5.985874,0.1,64.46213,1619480331999
Fix,GT,37.3716906,-122.0482794,9.220004741668705,7.0661325,0.1,86.88687,1619480332999
Fix,GT,37.3716794,-122.0481952,9.201004745841026,8.143843,0.1,101.783295,1619480333999
Fix,GT,37.3716602,-122.0481007,9.159,9.132903,0.1,104.23221,1619480334999
Fix,GT,37.371639,-122.0479956,9.12802377092838,10.083708,0.1,103.97931,1619480335999
Fix,GT,37.3716159,-122.0478803,9.092014274895192,10.995412,0.1,104.04291,1619480336999
Fix,GT,37.3715904,-122.0477545,9.062004762470725,11.9954,0.1,104.152954,1619480337999
Fix,GT,37.3715627,-122.047618,9.045042899787424,12.894451,0.1,104.23175,1619480338999
Fix,GT,37.3715327,-122.0474727,9.007009541630744,13.654967,0.1,104.605835,1619480339999
Fix,GT,37.3715008,-122.0473203,8.93103819990158,14.227526,0.1,104.71225,1619480340999
Fix,GT,37.3714675,-122.0471621,8.85702389550209,14.759615,0.1,104.692505,1619480341999
Fix,GT,37.3714326,-122.0469981,8.819004783272744,15.324893,0.1,104.87866,1619480342999
Fix,GT,37.3713965,-122.046828,8.710043087005618,15.863788,0.1,104.8009,1619480343999
Fix,GT,37.3713595,-122.0466525,8.645,16.253231,0.1,104.674805,1619480344999
Fix,GT,37.3713219,-122.0464735,8.569038366317749,16.573395,0.1,104.63153,1619480345999
Fix,GT,37.3712841,-122.0462911,8.46405759882927,16.713789,0.1,104.47522,1619480346999
Fix,GT,37.3712465,-122.0461096,8.390038432598114,16.480415,0.1,104.5025,1619480347999
Fix,GT,37.3712094,-122.0459312,8.313014424741269,16.17818,0.1,104.56244,1619480348999
Fix,GT,37.371173,-122.0457562,8.270014437258244,15.867814,0.1,104.548676,1619480349999
Fix,GT,37.3711376,-122.0455843,8.236024082362652,15.560791,0.1,104.29779,1619480350999
Fix,GT,37.3711041,-122.0454155,8.235004820644855,15.231344,0.1,103.60361,1619480351999
Fix,GT,37.3710731,-122.0452498,8.239985525548459,14.915948,0.1,102.71649,1619480352999
Fix,GT,37.3710438,-122.0450873,8.242014486968518,14.5852375,0.1,102.5531,1619480353999
Fix,GT,37.371015,-122.0449287,8.258004833102225,14.248759,0.1,102.91327,1619480354999
Fix,GT,37.3709854,-122.0447739,8.258985488176345,14.023219,0.1,103.65042,1619480355999
Fix,GT,37.370954,-122.0446189,8.257033890128136,14.379972,0.1,104.377686,1619480356999
Fix,GT,37.3709208,-122.0444594,8.211019382476806,14.789872,0.1,104.36597,1619480357999
Fix,GT,37.3708881,-122.044296,8.160038797855377,14.995053,0.1,103.80963,1619480358999
Fix,GT,37.370856,-122.0441322,8.054038831233978,14.853908,0.1,103.68683,1619480359999
Fix,GT,37.3708231,-122.0439712,7.955068013072013,14.599524,0.1,105.035095,1619480360999
Fix,GT,37.3707873,-122.0438141,7.855043760240078,14.349181,0.1,106.40808,1619480361999
Fix,GT,37.3707493,-122.0436608,7.759068128228188,14.173615,0.1,107.55676,1619480362999
Fix,GT,37.3707093,-122.0435064,7.644043834269047,14.65146,0.1,107.851074,1619480363999
Fix,GT,37.3706682,-122.0433457,7.553019498586655,15.277189,0.1,107.488525,1619480364999
Fix,GT,37.3706262,-122.0431779,7.446053667008877,15.846226,0.1,107.255066,1619480365999
Fix,GT,37.3705831,-122.0430046,7.337034180104732,16.27301,0.1,107.239136,1619480366999
Fix,GT,37.3705392,-122.0428284,7.250092853844166,16.333138,0.1,107.36328,1619480367999
Fix,GT,37.3704947,-122.0426533,7.173058694601059,16.225811,0.1,107.71338,1619480368999
Fix,GT,37.3704497,-122.0424788,7.0540636400580405,16.329844,0.1,107.839355,1619480369999
Fix,GT,37.3704043,-122.0423026,6.960044095516205,16.437935,0.1,107.74307,1619480370999
Fix,GT,37.3703589,-122.0421266,6.866058844089508,16.314764,0.1,107.90027,1619480371999
Fix,GT,37.3703131,-122.0419529,6.785044170081616,16.105227,0.1,108.381714,1619480372999
Fix,GT,37.3702666,-122.0417814,6.714019647598267,15.990753,0.1,108.838165,1619480373999
Fix,GT,37.3702195,-122.0416115,6.641044244647026,15.86952,0.1,109.13043,1619480374999
Fix,GT,37.3701734,-122.0414428,6.6080098404884335,15.691899,0.1,108.551056,1619480375999
Fix,GT,37.3701287,-122.0412764,6.568009848594666,15.399921,0.1,108.55255,1619480376999
Fix,GT,37.3700843,-122.0411128,6.531004928469658,15.23361,0.1,108.787476,1619480377999
Fix,GT,37.3700398,-122.0409492,6.472034528493881,15.412937,0.1,108.4704,1619480378999
Fix,GT,37.3699963,-122.0407836,6.444004936814308,15.461243,0.1,107.97925,1619480379999
Fix,GT,37.3699531,-122.0406176,6.433,15.484655,0.1,107.87088,1619480380999
Fix,GT,37.3699104,-122.0404507,6.397019780158996,15.551479,0.1,107.517944,1619480381999
Fix,GT,37.3698683,-122.0402826,6.373014847636223,15.6808815,0.1,107.44397,1619480382999
Fix,GT,37.3698252,-122.0401132,6.331014859795571,15.718147,0.1,107.640625,1619480383999
Fix,GT,37.3697821,-122.0399456,6.284024787187576,15.464675,0.1,107.917786,1619480384999
Fix,GT,37.3697394,-122.0397812,6.224039692878723,15.181849,0.1,108.00305,1619480385999
Fix,GT,37.3696971,-122.0396197,6.165004965782165,14.90577,0.1,108.09314,1619480386999
Fix,GT,37.3696556,-122.0394615,6.15296521115303,14.604633,0.1,108.132996,1619480387999
Fix,GT,37.3696152,-122.0393065,6.171975129961967,14.283452,0.1,107.807556,1619480388999
Fix,GT,37.3695765,-122.0391546,6.165014934182167,13.982679,0.1,107.47064,1619480389999
Fix,GT,37.3695387,-122.0390058,6.147,13.693873,0.1,107.659,1619480390999
Fix,GT,37.3695008,-122.0388603,6.111014959216117,13.419778,0.1,108.08777,1619480391999
Fix,GT,37.3694632,-122.038718,6.079039923667907,13.141918,0.1,108.20657,1619480392999
Fix,GT,37.3694268,-122.0385784,6.054004994630814,12.865979,0.1,107.8754,1619480393999
Fix,GT,37.3693917,-122.0384416,6.041975006282329,12.587641,0.1,107.6886,1619480394999
Fix,GT,37.3693574,-122.0383079,6.027010005712509,12.307808,0.1,107.740814,1619480395999
Fix,GT,37.3693239,-122.0381771,6.005015020906925,12.007088,0.1,107.718506,1619480396999
Fix,GT,37.3692915,-122.0380504,5.985025069764816,11.475715,0.1,107.71002,1619480398000
Fix,GT,37.3692609,-122.037931,5.986995096099563,10.724702,0.1,107.71307,1619480399000
Fix,GT,37.369233,-122.0378219,5.9780000361884005,9.474346,0.1,107.55771,1619480400000
Fix,GT,37.3692101,-122.0377297,5.96599004142359,7.7210636,0.1,107.14871,1619480401000
Fix,GT,37.3691908,-122.0376503,5.945994977771304,7.0042224,0.1,106.865326,1619480402000
Fix,GT,37.3691731,-122.0375779,5.933009784567635,6.4020414,0.1,106.944885,1619480403000
Fix,GT,37.3691578,-122.0375151,5.927995193205308,5.1327496,0.1,106.84601,1619480404000
Fix,GT,37.3691464,-122.0374679,5.920000055134296,3.6259813,0.1,106.73328,1619480405000
Fix,GT,37.369139,-122.0374366,5.915005027513951,2.211739,0.1,106.63336,1619480406000
Fix,GT,37.3691349,-122.0374194,5.912995017942041,0.97074455,0.1,106.57553,1619480407000
Fix,GT,37.3691337,-122.0374145,5.909994920261204,0.05415649,0.1,106.55359,1619480408000
Fix,GT,37.3691337,-122.0374145,5.9050001182383856,0.0022299576,0.1,106.55298,1619480409000
Fix,GT,37.3691337,-122.0374145,5.905000074242708,4.9393902e-06,0.1,106.5509,1619480410000
Fix,GT,37.3691337,-122.0374145,5.905000032996759,0.0,0.1,106.55173,1619480411000
Fix,GT,37.3691337,-122.0374145,5.905000046745408,0.0010060953,0.1,106.552216,1619480412000
Fix,GT,37.3691336,-122.0374139,5.8980000631688165,0.29909015,0.1,106.54794,1619480413000
Fix,GT,37.3691309,-122.0374028,5.890000079539605,1.8396405,0.1,106.48068,1619480414000
Fix,GT,37.3691243,-122.0373743,5.8800000958330925,3.5478344,0.1,106.32333,1619480415000
Fix,GT,37.3691132,-122.037326,5.868009881337174,5.3476057,0.1,105.98834,1619480416000
Fix,GT,37.3690982,-122.037259,5.860990247031208,6.9021945,0.1,105.530975,1619480417000
Fix,GT,37.3690804,-122.0371756,5.866990154275671,8.334654,0.1,104.71362,1619480418000
Fix,GT,37.3690605,-122.0370778,5.835004886057228,9.553199,0.1,104.10004,1619480419000
Fix,GT,37.3690385,-122.0369661,5.805975508749484,10.785229,0.1,103.63138,1619480420000
Fix,GT,37.369015,-122.0368419,5.748975545361637,11.802175,0.1,103.16202,1619480421000
Fix,GT,37.3689898,-122.0367073,5.720019589418546,12.679886,0.1,103.134155,1619480422000
Fix,GT,37.3689626,-122.0365628,5.651980445832014,13.618165,0.1,103.2337,1619480423000
Fix,GT,37.368934,-122.0364105,5.613009768827818,14.115218,0.1,103.22946,1619480424000
Fix,GT,37.368904,-122.0362532,5.577999963635579,14.45178,0.1,103.387024,1619480425000
Fix,GT,37.3688735,-122.036093,5.556995105728507,14.730576,0.1,103.16632,1619480426000
Fix,GT,37.3688435,-122.0359297,5.5409999380745,15.042052,0.1,102.72772,1619480427000
Fix,GT,37.368813,-122.0357643,5.530999953639693,14.938963,0.1,103.13727,1619480428000
Fix,GT,37.3687818,-122.0356011,5.498999912937172,14.931387,0.1,103.528625,1619480429000
Fix,GT,37.3687501,-122.0354346,5.464961127770133,15.361474,0.1,103.1095,1619480430000
Fix,GT,37.3687186,-122.0352633,5.431990293979645,15.781195,0.1,102.77985,1619480431000
Fix,GT,37.3686867,-122.0350881,5.398995163670741,15.969967,0.1,102.86218,1619480432000
Fix,GT,37.3686533,-122.0349115,5.36505337524414,16.201439,0.1,103.592316,1619480433000
Fix,GT,37.3686168,-122.034734,5.37296137205651,16.312803,0.1,104.893036,1619480434000
Fix,GT,37.3685775,-122.0345564,5.323951480390504,16.274263,0.099,105.88324,1619480435000
Fix,GT,37.3685354,-122.0343816,5.282970867354423,16.152773,0.099,107.26459,1619480436000
Fix,GT,37.3684899,-122.0342081,5.283966078381053,16.23203,0.099,108.765015,1619480437000
Fix,GT,37.3684402,-122.0340352,5.255990241342224,16.339062,0.1,110.46536,1619480438000
Fix,GT,37.3683859,-122.0338627,5.230970984101761,16.552248,0.1,112.21106,1619480439000
Fix,GT,37.3683266,-122.0336903,5.195004789439961,16.707355,0.1,113.95874,1619480440000
Fix,GT,37.3682627,-122.0335196,5.161980687378906,16.724981,0.1,115.970764,1619480441000
Fix,GT,37.3681937,-122.0333516,5.096995142336935,16.759623,0.1,117.80063,1619480442000
Fix,GT,37.3681211,-122.0331849,5.082024032798596,16.88091,0.1,119.146576,1619480443000
Fix,GT,37.3680445,-122.0330198,5.088009627651423,16.932909,0.1,120.71167,1619480444000
Fix,GT,37.3679653,-122.0328571,5.087980910362676,16.85714,0.1,121.83563,1619480445000
Fix,GT,37.3678836,-122.0326973,5.0749854816123845,16.78237,0.1,123.19577,1619480446000
Fix,GT,37.3677986,-122.0325403,5.055004707276821,16.862835,0.1,124.775116,1619480447000
Fix,GT,37.3677097,-122.0323863,5.027995200400706,16.813576,0.099,126.69006,1619480448000
Fix,GT,37.3676175,-122.0322361,5.024000049129129,16.797163,0.1,127.999695,1619480449000
Fix,GT,37.3675227,-122.0320883,5.01196663568262,16.814098,0.1,129.23132,1619480450000
Fix,GT,37.367425,-122.0319431,4.982976270800457,16.846014,0.1,130.8287,1619480451000
Fix,GT,37.3673236,-122.0318014,4.937956990726757,16.880054,0.099,132.49683,1619480452000
Fix,GT,37.3672185,-122.0316631,4.910999906238634,16.987041,0.1,134.19098,1619480453000
Fix,GT,37.3671096,-122.0315267,4.89499045090843,17.204872,0.1,135.55298,1619480454000
Fix,GT,37.3669975,-122.0313914,4.899990472786129,17.317938,0.1,136.14545,1619480455000
Fix,GT,37.3668844,-122.0312566,4.875976243608632,17.329853,0.1,136.48792,1619480456000
Fix,GT,37.3667709,-122.0311219,4.841004755277187,17.37123,0.1,136.39905,1619480457000
Fix,GT,37.3666581,-122.0309865,4.803995327188169,17.254509,0.1,136.05035,1619480458000
Fix,GT,37.3665468,-122.0308526,4.809985868723597,16.994871,0.1,136.01904,1619480459000
Fix,GT,37.3664378,-122.03072,4.783952756390907,16.727707,0.1,135.64413,1619480460000
Fix,GT,37.3663305,-122.0305895,4.730976223023608,16.46635,0.1,135.88599,1619480461000
Fix,GT,37.3662242,-122.0304618,4.691004658022895,16.212229,0.1,136.11456,1619480462000
Fix,GT,37.3661197,-122.0303362,4.65493389053503,15.931255,0.099,136.12445,1619480463000
Fix,GT,37.3660169,-122.0302126,4.581952875807881,15.67976,0.1,136.0918,1619480464000
Fix,GT,37.3659162,-122.0300914,4.555985923356377,15.303103,0.1,136.03873,1619480465000
Fix,GT,37.3658186,-122.029973,4.5359812830779696,14.825526,0.1,135.6748,1619480466000
Fix,GT,37.3657254,-122.0298583,4.5159763813223694,14.117246,0.099,135.26752,1619480467000
Fix,GT,37.3656377,-122.0297495,4.490976504757069,13.284889,0.1,135.27856,1619480468000
Fix,GT,37.3655552,-122.0296484,4.467004765683785,12.2956085,0.1,135.60645,1619480469000
Fix,GT,37.3654795,-122.0295556,4.456985823604279,11.162818,0.099,135.40918,1619480470000
Fix,GT,37.3654123,-122.0294728,4.4600233590486456,9.785855,0.1,135.42828,1619480471000
Fix,GT,37.3653537,-122.0294007,4.456985873169266,8.42045,0.1,135.4472,1619480472000
Fix,GT,37.3653051,-122.0293409,4.44798594154045,6.700052,0.1,135.47797,1619480473000
Fix,GT,37.3652676,-122.0292949,4.4459907318037,4.902463,0.1,135.45502,1619480474000
Fix,GT,37.3652419,-122.0292632,4.434004769472871,3.1431572,0.1,135.44113,1619480475000
Fix,GT,37.3652263,-122.0292439,4.424995220400393,1.8522329,0.1,135.42993,1619480476000
Fix,GT,37.3652175,-122.0292331,4.41499528231658,0.8848626,0.1,135.40607,1619480477000
Fix,GT,37.3652148,-122.0292298,4.410995385048911,0.012146979,0.1,135.40396,1619480478000
Fix,GT,37.3652148,-122.0292298,4.405999928190372,0.0014142136,0.1,135.4065,1619480479000
Fix,GT,37.3652148,-122.0292298,4.406000071809626,0.001004652,0.1,135.40512,1619480480000
Fix,GT,37.3652148,-122.0292298,4.405999952810816,0.0009953522,0.1,135.40579,1619480481000
Fix,GT,37.3652148,-122.0292298,4.406000053344295,0.0009953562,0.1,135.40637,1619480482000
Fix,GT,37.3652148,-122.0292298,4.406000108740293,0.0009953603,0.1,135.40582,1619480483000
Fix,GT,37.3652148,-122.0292298,4.405999903569929,0.001,0.1,135.40582,1619480484000
Fix,GT,37.3652143,-122.0292292,4.40199991595652,0.30072758,0.1,135.40631,1619480485000
Fix,GT,37.3652114,-122.0292256,4.401999971302226,0.48927733,0.1,135.39389,1619480486000
Fix,GT,37.3652089,-122.0292225,4.401999983601272,0.2735074,0.1,135.3789,1619480487000
Fix,GT,37.3652081,-122.0292215,4.402000038946979,0.005835004,0.1,135.37592,1619480488000
Fix,GT,37.3652081,-122.0292215,4.402000094292686,0.0014169171,0.1,135.3758,1619480489000
Fix,GT,37.3652081,-122.0292214,4.403000106615945,0.0014123037,0.1,135.3735,1619480490000
Fix,GT,37.3652081,-122.0292214,4.402999899534974,4.60688e-06,0.099,135.37323,1619480491000
Fix,GT,37.3652081,-122.0292214,4.402999956943559,0.001,0.1,135.37375,1619480492000
Fix,GT,37.3652081,-122.0292214,4.40300001230184,6.5035156e-06,0.1,135.37354,1619480493000
Fix,GT,37.3652081,-122.0292214,4.40300002460368,0.0014179896,0.1,135.37335,1619480494000
Fix,GT,37.3652081,-122.0292214,4.403000079961958,0.002236068,0.1,135.37311,1619480495000
Fix,GT,37.3652081,-122.0292214,4.40299996309448,0.002828427,0.1,135.37341,1619480496000
Fix,GT,37.3652081,-122.0292214,4.403000061509198,0.0028284271,0.1,135.37384,1619480497000
Fix,GT,37.3652081,-122.0292214,4.402999987698159,0.002831985,0.1,135.3743,1619480498000
Fix,GT,37.3652081,-122.0292214,4.40300004305644,0.003158041,0.1,135.37341,1619480499000
Fix,GT,37.3652081,-122.0292214,4.4029999261889605,0.0028299529,0.1,135.37299,1619480500000
Fix,GT,37.3652081,-122.0292214,4.40300002460368,0.002242321,0.1,135.37332,1619480501000
Fix,GT,37.3652081,-122.0292214,4.403000125068705,0.0028284274,0.1,135.37341,1619480502000
Fix,GT,37.3652081,-122.0292214,4.40299996309448,0.0036020093,0.1,135.37299,1619480503000
Fix,GT,37.3652081,-122.0292214,4.403000063559506,0.0022387654,0.1,135.37271,1619480504000
Fix,GT,37.3652081,-122.0292214,4.403000118917785,0.0028284271,0.1,135.37262,1619480505000
Fix,GT,37.3652081,-122.0292214,4.40299995694356,0.002236068,0.1,135.37225,1619480506000
Fix,GT,37.3652081,-122.0292214,4.403000100465025,0.0028284271,0.1,135.37268,1619480507000
Fix,GT,37.3652081,-122.0292214,4.402999895434361,0.0028257393,0.1,135.37286,1619480508000
Fix,GT,37.3652081,-122.0292214,4.403000038955826,0.0022360682,0.1,135.37256,1619480509000
Fix,GT,37.3652081,-122.0292214,4.402999876981601,0.0028319468,0.099,135.37274,1619480510000
Fix,GT,37.3652081,-122.0292213,4.404000063573942,0.0032638668,0.1,135.37259,1619480511000
Fix,GT,37.3652062,-122.0292189,4.403000120968092,0.6088675,0.1,135.35797,1619480512000
Fix,GT,37.3652027,-122.0292146,4.406000002051703,0.36822987,0.1,135.33218,1619480513000
Fix,GT,37.3652016,-122.0292132,4.406999928174074,0.0041533126,0.1,135.3237,1619480514000
Fix,GT,37.3652017,-122.0292132,4.408000026684254,0.001,0.1,135.32245,1619480515000
Fix,GT,37.3652017,-122.0292132,4.4090000841771255,0.0014123478,0.1,135.3205,1619480516000
Fix,GT,37.3652017,-122.0292132,4.4089999219821765,0.0014123493,0.1,135.32037,1619480517000
Fix,GT,37.3652017,-122.0292132,4.409000020531006,0.0010018626,0.1,135.32071,1619480518000
Fix,GT,37.3652017,-122.0292132,4.409000121132936,0.0009955077,0.1,135.32074,1619480519000
Fix,GT,37.3652017,-122.0292132,4.408999958937987,0.001,0.1,135.32031,1619480520000
Fix,GT,37.3652017,-122.0292132,4.409004455426708,0.0010044841,0.1,135.31973,1619480521000
Fix,GT,37.3652016,-122.0292131,4.407995634857566,0.10286555,0.1,135.31989,1619480522000
Fix,GT,37.3651986,-122.0292093,4.40599556501396,0.86530447,0.1,135.2865,1619480523000
Fix,GT,37.3651888,-122.0291972,4.397995407239067,2.23515,0.099,135.20435,1619480524000
Fix,GT,37.3651687,-122.0291724,4.390000022486783,4.0753036,0.1,135.30804,1619480525000
Fix,GT,37.3651368,-122.0291328,4.382004367865156,5.9709487,0.1,135.16531,1619480526000
Fix,GT,37.3650937,-122.0290799,4.382004506621976,7.339387,0.1,135.67783,1619480527000
Fix,GT,37.365043,-122.029019,4.404013297104277,8.1544285,0.1,136.35773,1619480528000
Fix,GT,37.3649863,-122.0289528,4.412000028762966,9.057081,0.1,136.95605,1619480529000
Fix,GT,37.3649236,-122.0288794,4.407995464296547,9.979919,0.099,136.68524,1619480530000
Fix,GT,37.3648552,-122.0287985,4.394977838457562,10.905322,0.1,136.49829,1619480531000
Fix,GT,37.3647807,-122.0287097,4.348964422980789,11.93188,0.1,136.32452,1619480532000
Fix,GT,37.3646999,-122.0286126,4.3110045134909445,12.852221,0.1,135.88376,1619480533000
Fix,GT,37.3646143,-122.0285083,4.310982195261865,13.666953,0.099,135.63196,1619480534000
Fix,GT,37.3645234,-122.0283976,4.286995634854772,14.411028,0.1,135.69897,1619480535000
Fix,GT,37.3644286,-122.0282817,4.263991100489162,14.984253,0.099,135.60187,1619480536000
Fix,GT,37.3643302,-122.0281617,4.246995456526987,15.488737,0.099,135.73932,1619480537000
Fix,GT,37.3642288,-122.0280386,4.231991140860133,15.747169,0.1,135.86249,1619480538000
Fix,GT,37.3641265,-122.0279153,4.21999565611314,15.723073,0.1,136.25143,1619480539000
Fix,GT,37.3640235,-122.0277928,4.191991098937579,15.862086,0.099,136.46472,1619480540000
Fix,GT,37.3639191,-122.0276686,4.14697359260358,16.059227,0.1,136.29309,1619480541000
Fix,GT,37.3638141,-122.0275425,4.116013091820292,16.246202,0.099,136.06085,1619480542000
Fix,GT,37.363708,-122.0274157,4.12599563638121,16.25877,0.1,136.31143,1619480543000
Fix,GT,37.3636023,-122.0272891,4.124004269285593,16.20238,0.099,136.04352,1619480544000
Fix,GT,37.3634976,-122.0271619,4.113995586999692,16.173557,0.1,135.65173,1619480545000
Fix,GT,37.3633933,-122.0270349,4.105978196572512,16.0423,0.1,135.7702,1619480546000
Fix,GT,37.3632901,-122.0269099,4.0779517982131805,15.897578,0.099,135.9047,1619480547000
Fix,GT,37.3631871,-122.0267849,4.020982592284214,15.924973,0.1,135.76855,1619480548000
Fix,GT,37.3630841,-122.02666,3.9739824614226817,15.888055,0.099,135.92175,1619480549000
Fix,GT,37.3629816,-122.0265362,3.951969471034128,15.686494,0.1,135.9776,1619480550000
Fix,GT,37.3628808,-122.0264145,3.9349650315125473,15.385518,0.099,135.93362,1619480551000
Fix,GT,37.3627821,-122.0262949,3.937004451098852,15.083268,0.1,135.73071,1619480552000
Fix,GT,37.3626859,-122.0261779,3.9399825345873833,14.665271,0.1,135.79834,1619480553000
Fix,GT,37.3625924,-122.0260644,3.953030523322522,14.275441,0.1,135.82568,1619480554000
Fix,GT,37.3625011,-122.0259538,3.989013006329536,13.887752,0.1,135.8049,1619480555000
Fix,GT,37.3624129,-122.0258466,4.040013125398197,13.360808,0.1,135.79953,1619480556000
Fix,GT,37.3623286,-122.0257443,4.0950086686597205,12.669587,0.1,135.81915,1619480557000
Fix,GT,37.3622498,-122.0256489,4.145030418556184,11.552369,0.1,135.90347,1619480558000
Fix,GT,37.3621799,-122.0255645,4.209017249400727,9.95387,0.1,135.98047,1619480559000
Fix,GT,37.3621204,-122.0254929,4.262013046236708,8.335541,0.1,136.09717,1619480560000
Fix,GT,37.3620708,-122.0254334,4.297999957970344,7.0151334,0.1,136.16785,1619480561000
Fix,GT,37.3620296,-122.025384,4.3270130066983405,5.610053,0.1,136.12909,1619480562000
Fix,GT,37.3619985,-122.0253463,4.335008564800956,4.023812,0.1,136.03409,1619480563000
Fix,GT,37.3619772,-122.0253208,4.354000125704333,2.5966976,0.1,135.98474,1619480564000
Fix,GT,37.361964,-122.0253049,4.363008572469465,1.36847,0.1,135.9165,1619480565000
Fix,GT,37.3619599,-122.0252999,4.366995807337575,0.0033890803,0.1,135.90335,1619480566000
Fix,GT,37.3619599,-122.0253,4.36099994516978,0.0014142136,0.1,135.90897,1619480567000
Fix,GT,37.3619599,-122.0253,4.36100008935295,0.003158302,0.1,135.90613,1619480568000
Fix,GT,37.3619599,-122.0253,4.360999926893041,0.0028223626,0.1,135.90628,1619480569000
Fix,GT,37.3619599,-122.0253,4.3610000710762105,0.0010017746,0.1,135.9071,1619480570000
Fix,GT,37.3619599,-122.0253,4.360999953292775,0.002,0.1,135.90738,1619480571000
Fix,GT,37.3619599,-122.0253,4.360999880185816,0.0022307825,0.1,135.90643,1619480572000
Fix,GT,37.3619599,-122.0253,4.361000022338237,0.001,0.1,135.90662,1619480573000
Fix,GT,37.3619599,-122.0253,4.361000121844932,0.0010042678,0.1,135.9065,1619480574000
Fix,GT,37.3619599,-122.0253,4.361000004061498,0.001,0.1,135.90656,1619480575000
Fix,GT,37.3619599,-122.0253,4.360999930954538,0.0010077885,0.1,135.906,1619480576000
Fix,GT,37.3619599,-122.0253,4.361000117783434,0.0010052602,0.1,135.90619,1619480577000
Fix,GT,37.3619599,-122.0253,4.361,0.0014082011,0.1,135.90613,1619480578000
Fix,GT,37.3619599,-122.0253,4.360999882216565,0.0014167016,0.1,135.90573,1619480579000
Fix,GT,37.3619599,-122.0253,4.361000024368986,0.0014124559,0.1,135.906,1619480580000
Fix,GT,37.3619599,-122.0253,4.361000123875681,0.0022418736,0.1,135.90637,1619480581000
Fix,GT,37.3619599,-122.0253,4.361000050768721,0.0010017543,0.1,135.90637,1619480582000
Fix,GT,37.3619599,-122.0253,4.360999977661763,0.002,0.1,135.90643,1619480583000
Fix,GT,37.3619599,-122.0253,4.360999902524053,0.0010042271,0.099,135.90625,1619480584000
Fix,GT,37.3619599,-122.0253,4.3610000467072245,0.001,0.1,135.90616,1619480585000
Fix,GT,37.3619599,-122.0253,4.360999928923789,0.0010017476,0.099,135.906,1619480586000
Fix,GT,37.3619599,-122.0253,4.3610000710762105,0.0019975312,0.1,135.90646,1619480587000
Fix,GT,37.3619599,-122.0253,4.360999953292776,0.002,0.099,135.90637,1619480588000
Fix,GT,37.3619599,-122.0253,4.36100005279947,0.0029915867,0.1,135.90564,1619480589000
Fix,GT,37.3619599,-122.0253,4.360999935016036,0.002991595,0.099,135.90567,1619480590000
Fix,GT,37.3619599,-122.0253,4.36100003452273,0.0020009913,0.1,135.90549,1619480591000
Fix,GT,37.3619599,-122.0253,4.360999918770045,0.0020041945,0.099,135.90549,1619480592000
Fix,GT,37.3619599,-122.0253,4.361000103568192,0.002,0.1,135.90564,1619480593000
Fix,GT,37.3619599,-122.0253,4.360999943139031,0.002,0.099,135.9054,1619480594000
Fix,GT,37.3619599,-122.0253,4.361000085291453,0.002,0.1,135.90533,1619480595000
Fix,GT,37.3619599,-122.0253,4.360999924862291,0.0022350817,0.1,135.90527,1619480596000
Fix,GT,37.3619599,-122.0253,4.361000067014713,0.002236068,0.1,135.90524,1619480597000
Fix,GT,37.3619599,-122.0253,4.360999951262027,0.002,0.1,135.90552,1619480598000
Fix,GT,37.3619599,-122.0253,4.361000093414448,0.001,0.1,135.90546,1619480599000
Fix,GT,37.3619599,-122.0253,4.360999932985287,0.001,0.1,135.9054,1619480600000
Fix,GT,37.3619599,-122.0253,4.361000117783434,0.001,0.1,135.90527,1619480601000
Fix,GT,37.3619599,-122.0253,4.361000002030749,0.001,0.1,135.90598,1619480602000
Fix,GT,37.3619599,-122.0253,4.360999884247314,0.0020009796,0.1,135.9057,1619480603000
Fix,GT,37.3619599,-122.0253,4.361000026399736,0.0019975717,0.1,135.90573,1619480604000
Fix,GT,37.3619599,-122.0253,4.360999910647049,0.001,0.1,135.90536,1619480605000
Fix,GT,37.3619599,-122.0253,4.361000095445196,0.0020000003,0.1,135.90533,1619480606000
Fix,GT,37.3619599,-122.0253,4.360999979692511,0.002,0.1,135.90552,1619480607000
Fix,GT,37.3619599,-122.0253,4.361000121844932,0.002236068,0.1,135.90576,1619480608000
Fix,GT,37.3619599,-122.0253,4.361000004061498,0.002,0.1,135.90622,1619480609000
Fix,GT,37.3619599,-122.0253,4.360999930954538,0.002,0.1,135.906,1619480610000
Fix,GT,37.3619599,-122.0253,4.360999900493305,0.0010041168,0.1,135.90497,1619480611000
Fix,GT,37.3619599,-122.0253,4.361000042645726,0.001,0.1,135.905,1619480612000
Fix,GT,37.3619599,-122.0253,4.360999969538767,0.0010041087,0.1,135.90466,1619480613000
Fix,GT,37.3619599,-122.0253,4.360999896431808,0.001,0.099,135.90479,1619480614000
Fix,GT,37.3619599,-122.0253,4.361000081229954,0.0014125151,0.1,135.90472,1619480615000
Fix,GT,37.3619599,-122.0253,4.36100005279947,0.0014125168,0.1,135.9047,1619480616000
Fix,GT,37.3619599,-122.0253,4.360999935016036,0.0010040925,0.099,135.90445,1619480617000
Fix,GT,37.3619599,-122.0253,4.361000077168457,0.002232708,0.1,135.9049,1619480618000
Fix,GT,37.3619599,-122.0253,4.360999961415771,0.002236068,0.099,135.90463,1619480619000
Fix,GT,37.3619599,-122.0253,4.360999930954538,0.0014175669,0.1,135.90454,1619480620000
Fix,GT,37.3619599,-122.0253,4.361000073106959,0.0022360682,0.1,135.90448,1619480621000
Fix,GT,37.3619599,-122.0253,4.361,0.002236068,0.1,135.90463,1619480622000
Fix,GT,37.3619599,-122.0253,4.360999924862291,0.0028260173,0.1,135.90472,1619480623000
Fix,GT,37.3619599,-122.0253,4.361000111691188,0.002236068,0.1,135.90479,1619480624000
Fix,GT,37.3619599,-122.0253,4.361000038584229,0.0031585174,0.1,135.9046,1619480625000
Fix,GT,37.3619599,-122.0253,4.360999965477268,0.0020009575,0.1,135.9049,1619480626000
Fix,GT,37.3619599,-122.0253,4.360999890339561,0.0014175434,0.1,135.90463,1619480627000
Fix,GT,37.3619599,-122.0253,4.361000077168457,0.0010016767,0.1,135.90454,1619480628000
Fix,GT,37.3619599,-122.0253,4.360999959385023,0.0014165823,0.1,135.90408,1619480629000
Fix,GT,37.3619599,-122.0253,4.361000103568192,0.0014142137,0.1,135.90411,1619480630000
Fix,GT,37.3619599,-122.0253,4.361000028430484,0.0014142136,0.1,135.90497,1619480631000
Fix,GT,37.3619599,-122.0253,4.360999912677798,0.0014125437,0.1,135.90399,1619480632000
Fix,GT,37.3619599,-122.0253,4.361000097475945,0.001,0.1,135.90417,1619480633000
Fix,GT,37.3619599,-122.0253,4.36099998172326,0.001,0.1,135.90393,1619480634000
Fix,GT,37.3619599,-122.0253,4.361000081229955,0.001,0.1,135.90369,1619480635000
Fix,GT,37.3619599,-122.0253,4.36099996344652,0.001,0.1,135.90308,1619480636000
Fix,GT,37.3619599,-122.0253,4.360999890339561,0.001,0.099,135.90292,1619480637000
Fix,GT,37.3619599,-122.0253,4.360999987815507,0.0010040068,0.1,135.90305,1619480638000
Fix,GT,37.3619599,-122.0253,4.360999914708547,0.00315857,0.099,135.90265,1619480639000
Fix,GT,37.3619599,-122.0253,4.361000056860968,0.001,0.1,135.90295,1619480640000
Fix,GT,37.3619599,-122.0253,4.3609999411082825,0.0022327849,0.099,135.90271,1619480641000
Fix,GT,37.3619599,-122.0253,4.361000083260703,0.0010039906,0.1,135.90302,1619480642000
Fix,GT,37.3619599,-122.0253,4.360999965477269,0.001,0.099,135.9032,1619480643000
Fix,GT,37.3619599,-122.0253,4.36100010762969,0.001412564,0.1,135.90369,1619480644000
Fix,GT,37.3619599,-122.0253,4.360999947200529,0.0014125656,0.099,135.90363,1619480645000
Fix,GT,37.36196,-122.0253,4.36099987409357,0.0028509088,0.1,135.90344,1619480646000
Fix,GT,37.3619592,-122.025299,4.354988105773926,0.44894245,0.1,135.90433,1619480647000
Fix,GT,37.3619508,-122.0252889,4.348003951916937,2.217895,0.1,135.88345,1619480648000
Fix,GT,37.3619297,-122.0252632,4.367003919325769,4.279954,0.1,135.78967,1619480649000
Fix,GT,37.3618959,-122.025222,4.377999881757424,6.295185,0.1,135.62195,1619480650000
Fix,GT,37.3618498,-122.0251655,4.393015885111876,7.8547845,0.1,135.57104,1619480651000
Fix,GT,37.3617955,-122.0250996,4.449011845316738,8.978444,0.1,135.93646,1619480652000
Fix,GT,37.3617328,-122.0250246,4.509011801585555,10.234164,0.1,136.32513,1619480653000
Fix,GT,37.3616624,-122.0249407,4.548007771135308,11.379665,0.1,136.27948,1619480654000
Fix,GT,37.3615846,-122.0248471,4.614019771894905,12.548171,0.1,136.02753,1619480655000
Fix,GT,37.3615,-122.0247461,4.669031472747213,13.4060335,0.1,136.41681,1619480656000
Fix,GT,37.3614093,-122.0246391,4.743015596406068,14.256426,0.099,136.68152,1619480657000
Fix,GT,37.361313,-122.0245257,4.793031483547763,15.016718,0.1,136.60168,1619480658000
Fix,GT,37.3612129,-122.0244069,4.873035291969776,15.569104,0.1,136.24231,1619480659000
Fix,GT,37.3611102,-122.0242839,4.940054708076642,15.951777,0.099,136.26569,1619480660000
Fix,GT,37.3610051,-122.0241573,5.00601187011227,16.427599,0.1,135.71875,1619480661000
Fix,GT,37.3608976,-122.0240249,5.076046954348683,16.999292,0.1,135.20139,1619480662000
Fix,GT,37.3607874,-122.0238881,5.15404681979958,17.433382,0.1,135.19754,1619480663000
Fix,GT,37.3606743,-122.0237483,5.231988167933654,17.797112,0.1,135.44604,1619480664000
Fix,GT,37.3605584,-122.0236066,5.318023423498496,18.163633,0.1,135.69415,1619480665000
Fix,GT,37.3604404,-122.0234634,5.402034933503018,18.226444,0.1,135.88568,1619480666000
Fix,GT,37.3603226,-122.0233202,5.479050628884695,18.273163,0.1,135.71094,1619480667000
Fix,GT,37.3602035,-122.0231753,5.540034945262364,18.576677,0.1,135.83136,1619480668000
Fix,GT,37.3600824,-122.0230286,5.632019290227908,18.824965,0.1,135.98053,1619480669000
Fix,GT,37.3599599,-122.0228811,5.704034961724421,18.867325,0.1,135.97498,1619480670000
Fix,GT,37.3598373,-122.0227331,5.783085111545167,18.92047,0.1,136.00159,1619480671000
Fix,GT,37.3597145,-122.0225847,5.89503856027266,18.889267,0.1,135.72186,1619480672000
Fix,GT,37.3595934,-122.0224369,5.960061958013102,18.682661,0.1,135.68982,1619480673000
Fix,GT,37.3594727,-122.02229,6.069011610394344,18.668255,0.1,135.77362,1619480674000
Fix,GT,37.3593519,-122.0221433,6.152030774876476,18.681826,0.1,135.85345,1619480675000
Fix,GT,37.35923,-122.0219962,6.217042193610221,18.913805,0.099,136.01648,1619480676000
Fix,GT,37.359106,-122.0218475,6.307011567555368,19.183023,0.1,136.2139,1619480677000
Fix,GT,37.3589808,-122.0216971,6.36403835652396,19.29612,0.099,136.05615,1619480678000
Fix,GT,37.3588552,-122.0215458,6.459027070149314,19.420761,0.1,135.96362,1619480679000
Fix,GT,37.3587284,-122.0213932,6.536011525661684,19.599445,0.1,136.04037,1619480680000
Fix,GT,37.3586003,-122.0212398,6.609022896514508,19.742056,0.1,136.20544,1619480681000
Fix,GT,37.3584714,-122.0210855,6.647026983978693,19.794672,0.1,136.18018,1619480682000
Fix,GT,37.3583437,-122.0209313,6.729019128866959,19.568357,0.1,135.83063,1619480683000
Fix,GT,37.3582171,-122.0207775,6.798015241675545,19.606724,0.1,135.69568,1619480684000
Fix,GT,37.3580903,-122.0206229,6.843019265204668,19.695501,0.1,135.69055,1619480685000
Fix,GT,37.3579628,-122.0204678,6.904022872983012,19.735565,0.1,135.75562,1619480686000
Fix,GT,37.3578348,-122.0203127,6.916999887265731,19.806135,0.1,135.8833,1619480687000
Fix,GT,37.3577064,-122.0201573,6.899011592778377,19.811733,0.1,135.87091,1619480688000
Fix,GT,37.3575784,-122.0200023,6.859996335006319,19.674526,0.1,135.86237,1619480689000
Fix,GT,37.3574512,-122.0198479,6.792954476319021,19.725763,0.1,135.74435,1619480690000
Fix,GT,37.3573232,-122.0196916,6.686954345958307,19.901823,0.1,135.5998,1619480691000
Fix,GT,37.3571947,-122.0195348,6.560905512619764,19.88025,0.1,135.69687,1619480692000
Fix,GT,37.3570665,-122.0193792,6.404958462883719,19.736261,0.1,135.93732,1619480693000
Fix,GT,37.356939,-122.0192259,6.302962115143892,19.490591,0.099,136.13239,1619480694000
Fix,GT,37.3568132,-122.0190745,6.165954872644507,19.226465,0.1,136.02911,1619480695000
Fix,GT,37.3566893,-122.018925,6.032954755010549,18.961954,0.1,135.92572,1619480696000
Fix,GT,37.3565672,-122.0187772,5.925932104976848,18.706959,0.099,135.82272,1619480697000
Fix,GT,37.3564469,-122.0186315,5.770951181557961,18.46085,0.1,135.89731,1619480698000
Fix,GT,37.3563279,-122.0184876,5.655966228032251,18.302341,0.1,135.94763,1619480699000
Fix,GT,37.3562081,-122.0183431,5.549962414950132,18.612518,0.1,136.04315,1619480700000
Fix,GT,37.3560867,-122.0181975,5.4319551343759525,18.682407,0.1,136.20465,1619480701000
Fix,GT,37.3559643,-122.0180512,5.315955089919269,18.842981,0.1,136.28708,1619480702000
Fix,GT,37.3558409,-122.0179043,5.263984987277538,18.96439,0.1,136.39008,1619480703000
Fix,GT,37.3557165,-122.0177563,5.240977698488161,19.083847,0.1,136.13263,1619480704000
Fix,GT,37.3555927,-122.0176061,5.22196269890666,19.200996,0.1,135.68561,1619480705000
Fix,GT,37.3554682,-122.0174548,5.248026059411699,19.222181,0.1,135.95624,1619480706000
Fix,GT,37.3553433,-122.0173057,5.324048560009338,19.054386,0.1,136.4873,1619480707000
Fix,GT,37.3552194,-122.0171591,5.378026140180882,18.773296,0.1,136.38165,1619480708000
Fix,GT,37.3550983,-122.0170137,5.435029739229474,18.451677,0.1,135.8837,1619480709000
Fix,GT,37.3549802,-122.0168697,5.48901841739472,18.147734,0.099,135.51865,1619480710000
Fix,GT,37.3548632,-122.0167255,5.570022398838774,18.323574,0.1,135.2154,1619480711000
Fix,GT,37.3547449,-122.0165796,5.609025985583663,18.498264,0.1,135.60074,1619480712000
Fix,GT,37.3546248,-122.0164335,5.668040725188563,18.646582,0.1,135.88486,1619480713000
Fix,GT,37.3545041,-122.0162886,5.737014758837642,18.430563,0.1,136.29999,1619480714000
Fix,GT,37.3543847,-122.0161465,5.802036804866976,18.166967,0.1,136.39032,1619480715000
Fix,GT,37.354267,-122.0160061,5.871014877291397,17.877655,0.1,136.22278,1619480716000
Fix,GT,37.3541533,-122.0158685,5.935022133190184,17.117952,0.1,135.57245,1619480717000
Fix,GT,37.3540467,-122.0157365,6.000963169238996,16.154198,0.1,134.95584,1619480718000
Fix,GT,37.3539475,-122.0156094,6.057029293706874,15.388332,0.1,133.86713,1619480719000
Fix,GT,37.3538554,-122.0154868,6.119022176075028,14.464346,0.1,132.72308,1619480720000
Fix,GT,37.3537714,-122.0153694,6.160022109613288,13.395685,0.1,131.20154,1619480721000
Fix,GT,37.3536971,-122.0152589,6.221018317007926,12.220004,0.1,129.38177,1619480722000
Fix,GT,37.3536314,-122.0151557,6.254011056692105,11.116913,0.1,128.08948,1619480723000
Fix,GT,37.353574,-122.015062,6.275999969313853,9.852637,0.1,127.02832,1619480724000
Fix,GT,37.3535248,-122.014978,6.283003515159712,8.620129,0.099,125.93149,1619480725000
Fix,GT,37.3534818,-122.0149031,6.303014413933968,7.688932,0.1,125.613464,1619480726000
Fix,GT,37.353444,-122.0148364,6.336014730147086,6.8123665,0.1,125.2955,1619480727000
Fix,GT,37.3534114,-122.0147781,6.350007326792925,5.732497,0.1,124.985016,1619480728000
Fix,GT,37.3533854,-122.0147317,6.359999937806279,4.318817,0.1,124.908325,1619480729000
Fix,GT,37.3533667,-122.014698,6.3630034634489565,2.959051,0.1,124.854126,1619480730000
Fix,GT,37.3533536,-122.0146745,6.359996473905397,2.211001,0.1,124.8891,1619480731000
Fix,GT,37.3533443,-122.0146578,6.360000057751313,1.3164402,0.1,124.829834,1619480732000
Fix,GT,37.3533402,-122.0146504,6.361000014810357,0.28342184,0.1,124.78165,1619480733000
Fix,GT,37.35334,-122.0146501,6.355003586497158,0.0010014978,0.1,124.778625,1619480734000
Fix,GT,37.35334,-122.0146501,6.355996251831763,0.0022410147,0.099,124.777954,1619480735000
Fix,GT,37.35334,-122.0146501,6.356000134668313,0.0009963921,0.1,124.77707,1619480736000
Fix,GT,37.35334,-122.0146501,6.356000091752038,0.0010014928,0.1,124.77734,1619480737000
Fix,GT,37.35334,-122.0146501,6.355999920086934,0.0014142136,0.099,124.77725,1619480738000
Fix,GT,37.3533399,-122.01465,6.351992622173391,0.12454716,0.1,124.77353,1619480739000
Fix,GT,37.3533374,-122.0146453,6.350000084273051,0.87486786,0.1,124.71683,1619480740000
Fix,GT,37.3533311,-122.0146338,6.349000041390769,1.6278071,0.1,124.58844,1619480741000
Fix,GT,37.35332,-122.0146142,6.340003580597695,2.8127413,0.1,125.09338,1619480742000
Fix,GT,37.3533008,-122.0145814,6.347007049604785,4.446622,0.1,126.19125,1619480743000
Fix,GT,37.3532716,-122.0145323,6.369014463275904,6.4623523,0.1,126.64377,1619480744000
Fix,GT,37.3532318,-122.0144652,6.406010896044317,8.214916,0.1,126.42795,1619480745000
Fix,GT,37.3531858,-122.0143857,6.45902861351287,9.20888,0.1,125.697205,1619480746000
Fix,GT,37.353135,-122.0142958,6.514010720022954,10.323823,0.1,125.28635,1619480747000
Fix,GT,37.3530788,-122.0141968,6.547039071494713,11.165038,0.1,125.179016,1619480748000
Fix,GT,37.3530201,-122.0140903,6.562006919200533,11.744087,0.099,124.148346,1619480749000
Fix,GT,37.3529602,-122.0139763,6.601010809855536,12.418077,0.1,122.85083,1619480750000
Fix,GT,37.3528993,-122.0138514,6.627010752003639,13.55913,0.1,120.307434,1619480751000
Fix,GT,37.3528389,-122.0137118,6.653010695338249,14.542324,0.1,117.49719,1619480752000
Fix,GT,37.3527787,-122.0135595,6.701010569714009,15.464142,0.1,115.40784,1619480753000
Fix,GT,37.3527191,-122.0133972,6.697996306160931,16.071875,0.1,114.05524,1619480754000
Fix,GT,37.3526619,-122.0132313,6.725003724867477,15.903258,0.1,112.809204,1619480755000
Fix,GT,37.3526078,-122.013066,6.746021307542921,15.779426,0.1,111.79059,1619480756000
Fix,GT,37.3525562,-122.0128992,6.753989466855768,15.969909,0.1,110.65799,1619480757000
Fix,GT,37.3525065,-122.0127274,6.752985845772783,16.432116,0.1,109.298096,1619480758000
Fix,GT,37.3524589,-122.0125489,6.729978787943722,16.846481,0.1,107.62073,1619480759000
Fix,GT,37.3524157,-122.0123656,6.675947173169349,16.979921,0.099,105.2547,1619480760000
Fix,GT,37.3523787,-122.0121785,6.627972129913978,17.165285,0.1,102.88049,1619480761000
Fix,GT,37.3523458,-122.011988,6.537954602925805,17.376455,0.1,101.71918,1619480762000
Fix,GT,37.3523149,-122.0117942,6.431930122656748,17.63144,0.1,100.909,1619480763000
Fix,GT,37.3522849,-122.0115971,6.241940640143119,17.880615,0.1,100.65759,1619480764000
Fix,GT,37.3522555,-122.0113974,6.059926644829335,18.10596,0.1,100.13486,1619480765000
Fix,GT,37.3522286,-122.0111949,5.869933664482553,18.207983,0.1,98.6131,1619480766000
Fix,GT,37.3522063,-122.0109918,5.63590961233573,18.106277,0.1,97.18121,1619480767000
Fix,GT,37.3521883,-122.0107897,5.427940976973623,17.922657,0.1,95.57608,1619480768000
Fix,GT,37.3521748,-122.010589,5.204916688675526,17.70588,0.1,94.09497,1619480769000
Fix,GT,37.3521663,-122.0103934,4.998920169912278,16.942186,0.1,92.21515,1619480770000
Fix,GT,37.352162,-122.0102074,4.800899388798513,15.955398,0.099,91.10449,1619480771000
Fix,GT,37.3521601,-122.0100333,4.597923939637839,14.866116,0.1,90.506165,1619480772000
Fix,GT,37.3521596,-122.0098726,4.446930909889051,13.647634,0.1,89.97937,1619480773000
Fix,GT,37.3521597,-122.0097218,4.270951680831145,13.230967,0.1,89.82318,1619480774000
Fix,GT,37.35216,-122.0095736,4.136968913711607,12.943785,0.1,89.65332,1619480775000
Fix,GT,37.3521604,-122.0094336,4.0269689232255335,11.780586,0.1,89.732056,1619480776000
Fix,GT,37.3521604,-122.0093102,3.962986140643712,9.84823,0.1,90.00134,1619480777000
Fix,GT,37.3521603,-122.0092121,3.911979489443824,7.4931736,0.1,89.941284,1619480778000
Fix,GT,37.3521605,-122.0091405,3.872989786096383,5.278393,0.1,89.74072,1619480779000
Fix,GT,37.3521607,-122.0090907,3.847000019705389,3.6714885,0.1,89.567444,1619480780000
Fix,GT,37.3521608,-122.0090588,3.831993105289526,1.9916103,0.1,89.44974,1619480781000
Fix,GT,37.3521609,-122.0090433,3.818996507875621,0.87178004,0.1,89.38101,1619480782000
Fix,GT,37.3521611,-122.009037,3.811999903257005,0.34895787,0.099,89.345215,1619480783000
Fix,GT,37.3521611,-122.0090327,3.808000103734433,0.5321635,0.1,89.31726,1619480784000
Fix,GT,37.3521612,-122.0090241,3.804000077054836,1.0242407,0.1,89.264496,1619480785000
Fix,GT,37.3521613,-122.0090093,3.7989999752333374,1.5973774,0.099,89.18344,1619480786000
Fix,GT,37.3521615,-122.0089864,3.786989784734324,2.5054336,0.1,89.229614,1619480787000
Fix,GT,37.3521617,-122.0089509,3.752989809236024,3.9397483,0.1,89.54797,1619480788000
Fix,GT,37.3521616,-122.0088964,3.7189898326508697,5.7746687,0.1,89.919556,1619480789000
Fix,GT,37.3521613,-122.0088217,3.687993245265447,7.3676157,0.1,90.23547,1619480790000
Fix,GT,37.3521606,-122.0087319,3.6619830742394552,8.51176,0.1,90.43509,1619480791000
Fix,GT,37.3521598,-122.0086295,3.60397634461266,9.618771,0.1,90.369934,1619480792000
Fix,GT,37.3521592,-122.0085157,3.5399797607366925,10.524537,0.1,90.28439,1619480793000
Fix,GT,37.3521585,-122.0083921,3.463976353574078,11.373624,0.099,90.31653,1619480794000
Fix,GT,37.3521579,-122.0082593,3.385972991798539,12.115303,0.1,90.01941,1619480795000
Fix,GT,37.352158,-122.0081188,3.3109864923604766,12.753244,0.1,89.76001,1619480796000
Fix,GT,37.3521583,-122.007972,3.26196632578969,13.254183,0.1,89.838715,1619480797000
Fix,GT,37.3521582,-122.0078197,3.1879730586567896,13.740249,0.1,89.987885,1619480798000
Fix,GT,37.3521579,-122.0076617,3.070959695678204,14.248261,0.1,90.03555,1619480799000
Fix,GT,37.3521577,-122.0074988,2.9549599036008583,14.574091,0.1,89.94562,1619480800000
Fix,GT,37.3521577,-122.0073328,2.823936521789292,14.845092,0.1,89.85272,1619480801000
Fix,GT,37.3521576,-122.0071639,2.6869398911914324,15.063975,0.1,89.90698,1619480802000
Fix,GT,37.3521575,-122.0069933,2.5519533145288005,15.198131,0.1,90.08356,1619480803000
Fix,GT,37.352157,-122.0068204,2.377956685426645,15.441094,0.1,89.928345,1619480804000
Fix,GT,37.3521571,-122.0066448,2.2049434128375727,15.663033,0.1,89.79486,1619480805000
Fix,GT,37.3521575,-122.0064682,2.0649601070648056,15.581084,0.1,89.64697,1619480806000
Fix,GT,37.352158,-122.0062936,1.9389634821303188,15.359002,0.1,89.68887,1619480807000
Fix,GT,37.3521578,-122.0061216,1.833990019796184,15.153274,0.1,90.18701,1619480808000
Fix,GT,37.352157,-122.00595,1.774973481616238,15.264463,0.1,90.25232,1619480809000
Fix,GT,37.3521562,-122.0057773,1.7049999793572352,15.370252,0.1,90.109344,1619480810000
Fix,GT,37.352156,-122.0056029,1.6660032882119995,15.481008,0.1,89.95331,1619480811000
Fix,GT,37.3521562,-122.0054276,1.625999974256381,15.611173,0.099,89.669495,1619480812000
Fix,GT,37.3521573,-122.0052501,1.588006554205902,15.88087,0.1,89.32428,1619480813000
Fix,GT,37.3521589,-122.0050692,1.5500197319220752,16.09574,0.1,89.25458,1619480814000
Fix,GT,37.3521593,-122.0048879,1.5169736930700015,16.023,0.1,89.914856,1619480815000
Fix,GT,37.3521601,-122.0047072,1.486980296327034,16.013784,0.1,89.18121,1619480816000
Fix,GT,37.3521627,-122.0045257,1.4599835753755177,16.141285,0.1,88.69803,1619480817000
Fix,GT,37.3521653,-122.0043428,1.4309705007048323,16.289812,0.1,89.024414,1619480818000
Fix,GT,37.3521677,-122.0041577,1.383983612308977,16.523123,0.099,88.765015,1619480819000
Fix,GT,37.352171,-122.00397,1.3389836376914754,16.711058,0.099,88.625336,1619480820000
Fix,GT,37.352174,-122.0037807,1.2839869257807732,16.858383,0.1,88.75342,1619480821000
Fix,GT,37.3521771,-122.0035896,1.1929608774997762,17.038078,0.1,88.77301,1619480822000
Fix,GT,37.3521799,-122.0033961,1.1010064965826458,17.265074,0.1,88.81763,1619480823000
Fix,GT,37.3521828,-122.0032003,1.0359414895689116,17.420227,0.1,88.72928,1619480824000
Fix,GT,37.3521865,-122.0030033,0.9199805246237666,17.487778,0.1,88.41135,1619480825000
Fix,GT,37.3521909,-122.0028058,0.8559805512172171,17.501028,0.1,88.195435,1619480826000
Fix,GT,37.3521954,-122.0026091,0.8009838162148373,17.368288,0.1,88.25818,1619480827000
Fix,GT,37.3521998,-122.0024131,0.7049579687966034,17.422419,0.1,88.36426,1619480828000
Fix,GT,37.3522037,-122.0022161,0.6259870890001766,17.459885,0.1,88.53891,1619480829000
Fix,GT,37.3522072,-122.0020192,0.5109645153842867,17.441336,0.1,88.648895,1619480830000
Fix,GT,37.3522102,-122.0018231,0.3939774491291027,17.303127,0.1,88.9212,1619480831000
Fix,GT,37.3522121,-122.0016291,0.2339549483666196,17.086582,0.1,89.4339,1619480832000
Fix,GT,37.3522122,-122.0014375,0.1239678604248911,16.854109,0.1,90.19025,1619480833000
Fix,GT,37.3522107,-122.0012486,-0.0370288921850733,16.636154,0.1,90.56363,1619480834000
Fix,GT,37.3522097,-122.0010621,-0.1580352634587325,16.409962,0.1,89.99591,1619480835000
Fix,GT,37.3522105,-122.0008782,-0.2980160041248891,16.179731,0.1,89.308136,1619480836000
Fix,GT,37.3522128,-122.0006968,-0.4349967942927032,15.943737,0.1,88.660645,1619480837000
Fix,GT,37.3522163,-122.0005183,-0.5100638771452941,15.700677,0.1,88.47635,1619480838000
Fix,GT,37.3522193,-122.0003427,-0.6210414680922405,15.384371,0.1,88.65869,1619480839000
Fix,GT,37.3522221,-122.0001688,-0.747031859916402,15.590654,0.1,88.8689,1619480840000
Fix,GT,37.3522244,-121.9999896,-0.8720318224639632,16.079916,0.1,89.03287,1619480841000
Fix,GT,37.3522261,-121.9998068,-0.9880508621921762,16.290936,0.1,89.35718,1619480842000
Fix,GT,37.3522276,-121.9996237,-1.102044444397092,16.129942,0.1,89.118256,1619480843000
Fix,GT,37.3522302,-121.9994431,-1.2150317262206227,15.852504,0.1,88.648346,1619480844000
Fix,GT,37.3522339,-121.9992657,-1.3430380241440143,15.594885,0.1,88.29083,1619480845000
Fix,GT,37.3522377,-121.9990913,-1.426034735878697,15.320531,0.099,88.31082,1619480846000
Fix,GT,37.3522412,-121.9989204,-1.5290378659160342,14.912994,0.1,88.588684,1619480847000
Fix,GT,37.3522435,-121.9987546,-1.6170157626052388,14.537501,0.1,89.056335,1619480848000
Fix,GT,37.3522447,-121.9985924,-1.6780125981909222,14.135087,0.1,89.5119,1619480849000
Fix,GT,37.352245,-121.9984374,-1.7300188780389727,13.3567705,0.1,89.90741,1619480850000
Fix,GT,37.3522443,-121.998291,-1.7780282837422563,12.51923,0.1,90.46466,1619480851000
Fix,GT,37.3522426,-121.9981567,-1.8090251338602967,11.305595,0.1,90.990204,1619480852000
Fix,GT,37.3522405,-121.9980366,-1.8780251084933988,9.989825,0.1,91.099945,1619480853000
Fix,GT,37.3522389,-121.9979285,-1.916034375918564,9.364414,0.099,90.8642,1619480854000
Fix,GT,37.3522378,-121.997824,-1.9710062292502264,9.156721,0.1,90.61719,1619480855000
Fix,GT,37.352237,-121.9977215,-2.010996883542277,8.981306,0.1,90.37518,1619480856000
Fix,GT,37.3522363,-121.9976202,-2.052009362736717,9.140532,0.1,90.37128,1619480857000
Fix,GT,37.3522354,-121.9975136,-2.1080124914646152,9.83382,0.1,90.61557,1619480858000
Fix,GT,37.352234,-121.9973982,-2.1470123760532585,10.546694,0.099,90.86279,1619480859000
Fix,GT,37.3522325,-121.9972769,-2.193009282742627,10.9544,0.099,90.7699,1619480860000
Fix,GT,37.3522313,-121.9971513,-2.253024781131652,11.255771,0.099,90.51343,1619480861000
Fix,GT,37.3522305,-121.9970224,-2.3200402626800347,11.572196,0.1,90.19092,1619480862000
Fix,GT,37.3522304,-121.9968903,-2.398024753807113,11.7959795,0.1,89.826385,1619480863000
Fix,GT,37.3522311,-121.9967579,-2.4580247291256674,11.657519,0.1,89.31421,1619480864000
Fix,GT,37.3522325,-121.9966273,-2.5210123911995903,11.484162,0.1,89.008575,1619480865000
Fix,GT,37.3522341,-121.9964987,-2.566015363521641,11.326533,0.099,88.917725,1619480866000
Fix,GT,37.3522358,-121.9963707,-2.5759968909523447,11.362717,0.099,88.93167,1619480867000
Fix,GT,37.3522377,-121.9962416,-2.561000001192559,11.523088,0.1,88.851746,1619480868000
Fix,GT,37.3522401,-121.9961098,-2.5930122839398684,11.8427515,0.1,88.26715,1619480869000
Fix,GT,37.3522443,-121.9959749,-2.6380245339716786,12.088243,0.1,87.25574,1619480870000
Fix,GT,37.3522516,-121.9958373,-2.6810030604600907,12.27985,0.1,85.36795,1619480871000
Fix,GT,37.3522622,-121.9956983,-2.724021457799012,12.469356,0.1,83.80911,1619480872000
Fix,GT,37.3522752,-121.9955589,-2.773012144350214,12.413147,0.099,83.26416,1619480873000
Fix,GT,37.352288,-121.9954172,-2.8040335313084066,12.919767,0.1,83.4917,1619480874000
Fix,GT,37.3523008,-121.9952695,-2.812006152822636,13.372701,0.1,83.96976,1619480875000
Fix,GT,37.3523115,-121.9951182,-2.7880151352384126,13.445271,0.1,85.47131,1619480876000
Fix,GT,37.3523183,-121.9949676,-2.8050029787682,13.310296,0.1,87.56482,1619480877000
Fix,GT,37.35232,-121.9948174,-2.8200029829463453,13.390204,0.1,89.8042,1619480878000
Fix,GT,37.3523195,-121.9946643,-2.8470181563051886,13.7583,0.1,90.157166,1619480879000
Fix,GT,37.3523194,-121.9945065,-2.87006652686093,14.218182,0.099,89.84729,1619480880000
Fix,GT,37.3523194,-121.9943429,-2.949021175437607,14.734158,0.1,89.875916,1619480881000
Fix,GT,37.3523195,-121.9941742,-3.0240121394163,15.125109,0.1,89.85736,1619480882000
Fix,GT,37.3523194,-121.9940016,-3.0369940616197417,15.479106,0.1,89.72998,1619480883000
Fix,GT,37.3523198,-121.9938249,-3.07800295131444,15.82011,0.1,89.7446,1619480884000
Fix,GT,37.3523199,-121.9936446,-3.134021010446595,16.117096,0.1,89.899506,1619480885000
Fix,GT,37.3523196,-121.9934611,-3.189018056332832,16.404154,0.1,90.0343,1619480886000
Fix,GT,37.3523191,-121.9932739,-3.237036017550621,16.7712,0.1,90.06949,1619480887000
Fix,GT,37.3523184,-121.9930828,-3.3219969231490976,17.07337,0.1,90.230286,1619480888000
Fix,GT,37.3523175,-121.9928887,-3.4040417862157337,17.283333,0.1,90.21423,1619480889000
Fix,GT,37.3523176,-121.9926931,-3.456020888244035,17.391323,0.1,89.627014,1619480890000
Fix,GT,37.3523189,-121.9924958,-3.506020870540291,17.570124,0.1,89.35886,1619480891000
Fix,GT,37.3523202,-121.9922965,-3.579017842647387,17.737518,0.1,89.459015,1619480892000
Fix,GT,37.3523209,-121.9920964,-3.6540356583595273,17.665995,0.1,89.83359,1619480893000
Fix,GT,37.3523208,-121.9918982,-3.735017891091993,17.437948,0.1,89.92209,1619480894000
Fix,GT,37.352321,-121.9917014,-3.8180534425517534,17.508131,0.1,89.71796,1619480895000
Fix,GT,37.352322,-121.9915026,-3.922023595834617,17.699587,0.1,89.4664,1619480896000
Fix,GT,37.352323,-121.991302,-3.9750088374190966,17.832186,0.1,89.60571,1619480897000
Fix,GT,37.3523238,-121.9911009,-4.016023634951562,17.742136,0.1,89.569275,1619480898000
Fix,GT,37.3523245,-121.9909021,-4.078008919727523,17.492113,0.1,89.649445,1619480899000
Fix,GT,37.3523252,-121.990706,-4.17202637462737,17.250196,0.1,89.65039,1619480900000
Fix,GT,37.3523259,-121.990511,-4.243017574998317,17.355171,0.1,89.65662,1619480901000
Fix,GT,37.3523267,-121.9903144,-4.318014670823002,17.497255,0.1,89.607635,1619480902000
Fix,GT,37.3523275,-121.9901163,-4.377991258596303,17.584244,0.1,89.56717,1619480903000
Fix,GT,37.3523283,-121.9899182,-4.456049872579985,17.47308,0.1,89.60031,1619480904000
Fix,GT,37.3523291,-121.9897221,-4.53401451812964,17.326206,0.1,89.59119,1619480905000
Fix,GT,37.35233,-121.9895254,-4.576020349896979,17.582502,0.1,89.5126,1619480906000
Fix,GT,37.3523311,-121.9893248,-4.655011635995936,17.961422,0.1,89.46982,1619480907000
Fix,GT,37.3523322,-121.9891212,-4.694020366533426,18.047207,0.1,89.605835,1619480908000
Fix,GT,37.3523324,-121.9889185,-4.7440291217193,17.853933,0.1,89.877106,1619480909000
Fix,GT,37.3523323,-121.9887184,-4.776994310012087,17.61493,0.1,89.97302,1619480910000
Fix,GT,37.3523324,-121.9885211,-4.7779827374788,17.353947,0.1,89.82803,1619480911000
Fix,GT,37.3523325,-121.9883269,-4.718973857243546,17.048906,0.1,89.76373,1619480912000
Fix,GT,37.3523333,-121.9881361,-4.724976798571413,16.766281,0.1,89.46454,1619480913000
Fix,GT,37.3523358,-121.9879492,-4.681985552578932,16.277164,0.1,88.38803,1619480914000
Fix,GT,37.3523417,-121.9877704,-4.633994282253087,15.387721,0.1,86.93756,1619480915000
Fix,GT,37.3523505,-121.9876046,-4.575982835123315,13.941197,0.1,85.72125,1619480916000
Fix,GT,37.3523596,-121.987456,-4.549985566915711,12.537429,0.1,85.64389,1619480917000
Fix,GT,37.3523664,-121.9873231,-4.526985647499561,11.033061,0.1,86.854004,1619480918000
Fix,GT,37.3523698,-121.9872082,-4.509997192343697,9.241871,0.1,88.27942,1619480919000
Fix,GT,37.3523712,-121.9871158,-4.502000072326045,7.1304116,0.1,89.05176,1619480920000
Fix,GT,37.3523715,-121.9870458,-4.502000132073649,5.2584405,0.1,89.76294,1619480921000
Fix,GT,37.3523713,-121.9869965,-4.5100027766251,3.5375097,0.1,90.14282,1619480922000
Fix,GT,37.3523712,-121.9869657,-4.525005681615789,2.0426612,0.1,90.29053,1619480923000
Fix,GT,37.3523711,-121.9869492,-4.534002842017449,0.84068954,0.1,90.22937,1619480924000
Fix,GT,37.3523711,-121.986946,-4.5420000095176505,0.013997158,0.1,90.1965,1619480925000
Fix,GT,37.3523711,-121.986946,-4.540999978854321,0.001,0.1,90.1976,1619480926000
Fix,GT,37.3523711,-121.986946,-4.540999992599013,0.001,0.1,90.19556,1619480927000
Fix,GT,37.3523711,-121.986946,-4.541000051806914,0.0014130414,0.1,90.195496,1619480928000
Fix,GT,37.3523711,-121.986946,-4.5410001120721,0.0010011706,0.1,90.19537,1619480929000
Fix,GT,37.3523711,-121.986946,-4.540999946078519,0.0014130448,0.1,90.196075,1619480930000
Fix,GT,37.3523711,-121.986946,-4.541000005286421,0.0014142136,0.1,90.19635,1619480931000
Fix,GT,37.3523711,-121.986946,-4.541000020088395,0.0014142136,0.1,90.19623,1619480932000
Fix,GT,37.3523711,-121.986946,-4.541000079296297,0.001001164,0.1,90.196106,1619480933000
Fix,GT,37.3523711,-121.986946,-4.540999867839506,0.0,0.099,90.196075,1619480934000
Fix,GT,37.3523711,-121.986946,-4.540999973567901,0.0009971983,0.1,90.19589,1619480935000
Fix,GT,37.3523711,-121.986946,-4.541000032775803,3.9565875e-06,0.1,90.1965,1619480936000
Fix,GT,37.3523711,-121.986946,-4.540999866782222,2.7937e-06,0.1,90.19638,1619480937000
Fix,GT,37.3523711,-121.986946,-4.540999925990124,0.001,0.1,90.196655,1619480938000
Fix,GT,37.3523711,-121.986946,-4.540999986255309,0.001001154,0.1,90.19629,1619480939000
Fix,GT,37.3523711,-121.986946,-4.541,0.0014158429,0.1,90.196655,1619480940000
Fix,GT,37.3523711,-121.986946,-4.541000014801976,0.001,0.1,90.196655,1619480941000
Fix,GT,37.3523711,-121.986946,-4.541000028546668,0.0022337886,0.1,90.19675,1619480942000
Fix,GT,37.3523711,-121.986946,-4.541000087754568,0.0014130664,0.1,90.19751,1619480943000
Fix,GT,37.3523711,-121.986946,-4.540999877355062,0.0010011455,0.1,90.19534,1619480944000
Fix,GT,37.3523711,-121.986946,-4.540999891099753,2.76134e-06,0.099,90.19513,1619480945000
Fix,GT,37.3523711,-121.986946,-4.540999995770865,0.0009972428,0.1,90.195496,1619480946000
Fix,GT,37.3523711,-121.986946,-4.54100005603605,0.001,0.1,90.19556,1619480947000
Fix,GT,37.3523711,-121.986946,-4.541000115243951,0.0014142137,0.1,90.195984,1619480948000
Fix,GT,37.3523711,-121.986946,-4.540999903787161,0.001,0.1,90.19525,1619480949000
Fix,GT,37.3523711,-121.986946,-4.541000009515556,0.001,0.1,90.19507,1619480950000
Fix,GT,37.3523711,-121.986946,-4.541000023260247,0.001,0.1,90.1951,1619480951000
Fix,GT,37.3523711,-121.986946,-4.541000082468148,0.002,0.1,90.19516,1619480952000
Fix,GT,37.3523711,-121.986946,-4.540999872068642,0.0010033733,0.1,90.194916,1619480953000
Fix,GT,37.3523711,-121.986946,-4.540999931276544,0.00359958,0.1,90.194824,1619480954000
Fix,GT,37.3523711,-121.986946,-4.541000035947654,0.0020006425,0.1,90.194824,1619480955000
Fix,GT,37.3523711,-121.986946,-4.54100009621284,0.0014164465,0.1,90.1947,1619480956000
Fix,GT,37.3523711,-121.986946,-4.54099993021926,0.0014142136,0.099,90.19464,1619480957000
Fix,GT,37.3523711,-121.986946,-4.54099998942716,0.0014130916,0.1,90.19476,1619480958000
Fix,GT,37.3523711,-121.986946,-4.541000004229136,0.0010033434,0.1,90.194916,1619480959000
Fix,GT,37.3523711,-121.986946,-4.541000017973827,0.0010027009,0.1,90.19501,1619480960000
Fix,GT,37.3523711,-121.986946,-4.540999986255309,0.002236068,0.1,90.19519,1619480961000
Fix,GT,37.3523711,-121.986946,-4.541000001057284,0.0028268322,0.1,90.19516,1619480962000
Fix,GT,37.3523711,-121.986946,-4.541000060265186,0.002236068,0.1,90.19522,1619480963000
Fix,GT,37.3523711,-121.986946,-4.541000119473087,0.0014142136,0.1,90.19516,1619480964000
Fix,GT,37.3523711,-121.986946,-4.5410000888118525,0.002233865,0.1,90.19525,1619480965000
Fix,GT,37.3523711,-121.986946,-4.541000102556544,0.0010011088,0.1,90.19519,1619480966000
Fix,GT,37.3523711,-121.986946,-4.540999892157037,0.0014131066,0.1,90.19504,1619480967000
Fix,GT,37.3523711,-121.986946,-4.541000042291358,0.001,0.1,90.19504,1619480968000
Fix,GT,37.3523711,-121.986946,-4.54100010149926,0.0014131101,0.1,90.194885,1619480969000
Fix,GT,37.3523711,-121.986946,-4.541000070838026,0.0014142136,0.1,90.19458,1619480970000
Fix,GT,37.3523711,-121.986946,-4.541000084582716,0.0014131133,0.1,90.19458,1619480971000
Fix,GT,37.3523711,-121.986946,-4.541000098327408,0.001,0.1,90.194214,1619480972000
Fix,GT,37.3523711,-121.986946,-4.541000113129384,2.6481403e-06,0.1,90.19409,1619480973000
