MessageType,Provider,LatitudeDegrees,LongitudeDegrees,AltitudeMeters,SpeedMps,AccuracyMeters,BearingDegrees,UnixTimeMillis
Fix,GT,37.4444957,-122.2323146,11.751000089945766,8.2515385e-07,0.1,78.68988,1615921156000
Fix,GT,37.4444957,-122.2323146,11.751000132253626,0.002236068,0.1,78.6897,1615921157000
Fix,GT,37.4444957,-122.2323146,11.752000137495344,0.0022359812,0.1,78.689575,1615921158000
Fix,GT,37.4444957,-122.2323146,11.751999823171412,0.0020000867,0.099,78.690125,1615921159000
Fix,GT,37.4444957,-122.2323146,11.75200019735028,0.002235614,0.1,78.690186,1615921160000
Fix,GT,37.4444957,-122.2323146,11.751999871055364,0.0009996332,0.1,78.690125,1615921161000
Fix,GT,37.4444957,-122.2323146,11.752000256863193,0.0,0.1,78.69028,1615921162000
Fix,GT,37.4444957,-122.2323146,11.751999930568273,5.1747065e-07,0.1,78.6904,1615921163000
Fix,GT,37.4444957,-122.2323146,11.75200030474714,0.0014136968,0.1,78.69107,1615921164000
Fix,GT,37.4444957,-122.2323146,11.751999978452224,0.0,0.1,78.69086,1615921165000
Fix,GT,37.4444957,-122.2323146,11.751999652157306,3.6457203e-07,0.1,78.690704,1615921166000
Fix,GT,37.4444957,-122.2323146,11.752000037965132,0.001,0.1,78.69086,1615921167000
Fix,GT,37.4444957,-122.2323146,11.751999723299177,0.001,0.1,78.690796,1615921168000
Fix,GT,37.4444957,-122.2323146,11.752000109107,0.0009996368,0.1,78.69089,1615921169000
Fix,GT,37.4444957,-122.2323146,11.751999782812083,0.0,0.1,78.6911,1615921170000
Fix,GT,37.4444957,-122.2323146,11.75200016896194,0.0,0.1,78.6911,1615921171000
Fix,GT,37.4444957,-122.2323146,11.75199985429598,0.0,0.1,78.69092,1615921172000
Fix,GT,37.4444957,-122.2323146,11.752000228474849,0.0,0.1,78.69089,1615921173000
Fix,GT,37.4444957,-122.2323146,11.751999913808891,0.0,0.1,78.69125,1615921174000
Fix,GT,37.4444957,-122.2323146,11.752000299616718,3.60574e-07,0.1,78.69153,1615921175000
Fix,GT,37.4444957,-122.2323146,11.7519999733218,0.0009999999,0.1,78.691345,1615921176000
Fix,GT,37.4444957,-122.2323146,11.751999658655842,0.0009996403,0.099,78.69141,1615921177000
Fix,GT,37.4444957,-122.2323146,11.75200003283471,3.5924e-07,0.1,78.69141,1615921178000
Fix,GT,37.4444957,-122.2323146,11.75199971851078,0.001,0.1,78.69159,1615921179000
Fix,GT,37.4444957,-122.2323146,11.752000104318608,0.0010001485,0.1,78.69165,1615921180000
Fix,GT,37.4444957,-122.2323146,11.751999789652649,0.0014142136,0.1,78.69159,1615921181000
Fix,GT,37.4444957,-122.2323146,11.752000175802504,0.0014142136,0.1,78.69162,1615921182000
Fix,GT,37.4444957,-122.2323146,11.751999861136548,0.0014142136,0.1,78.69177,1615921183000
Fix,GT,37.4444957,-122.2323146,11.752000246944371,0.001414066,0.1,78.69174,1615921184000
Fix,GT,37.4444957,-122.2323146,11.751999932278414,0.001,0.1,78.691895,1615921185000
Fix,GT,37.4444957,-122.2323146,11.75200031842827,0.0010001474,0.1,78.69174,1615921186000
Fix,GT,37.4444957,-122.2323146,11.751999992133351,0.0014140664,0.1,78.691925,1615921187000
Fix,GT,37.4444957,-122.2323146,11.751999689096351,0.001000147,0.099,78.6918,1615921188000
Fix,GT,37.4444957,-122.2323146,11.75200007490418,0.0014140668,0.1,78.691864,1615921189000
Fix,GT,37.4444957,-122.2323146,11.75199976058025,0.0009996461,0.1,78.691925,1615921190000
Fix,GT,37.4444957,-122.2323146,11.752000146388076,3.53468e-07,0.1,78.691864,1615921191000
Fix,GT,37.4444957,-122.2323146,11.75199983172212,0.000999647,0.1,78.691864,1615921192000
Fix,GT,37.4444957,-122.2323146,11.752000217871974,0.0,0.1,78.69183,1615921193000
Fix,GT,37.4444957,-122.2323146,11.751999903206016,3.5213603e-07,0.1,78.691925,1615921194000
Fix,GT,37.4444957,-122.2323146,11.752000289013845,0.001,0.1,78.69208,1615921195000
Fix,GT,37.4444957,-122.2323146,11.751999986318872,0.001,0.1,78.69223,1615921196000
Fix,GT,37.4444957,-122.2323146,11.751999671652912,0.0009999999,0.1,78.69238,1615921197000
Fix,GT,37.4444957,-122.2323146,11.75200005746074,0.0009996496,0.1,78.692474,1615921198000
Fix,GT,37.4444957,-122.2323146,11.75199974313681,0.0,0.099,78.692505,1615921199000
Fix,GT,37.4444957,-122.2323146,11.752000140573596,0.0,0.1,78.69232,1615921200000
Fix,GT,37.4444957,-122.2323146,11.75199982590764,0.0,0.1,78.69226,1615921201000
Fix,GT,37.4444957,-122.2323146,11.752000223686451,3.48587e-07,0.1,78.69241,1615921202000
Fix,GT,37.4444957,-122.2323146,11.751999909020494,0.001,0.1,78.692444,1615921203000
Fix,GT,37.4444957,-122.2323146,11.75200029517035,0.0010000002,0.1,78.69235,1615921204000
Fix,GT,37.4444957,-122.2323146,11.751999980504392,0.001,0.1,78.692444,1615921205000
Fix,GT,37.4444957,-122.2323146,11.75199967780942,0.001,0.1,78.692566,1615921206000
Fix,GT,37.4444957,-122.2323146,11.752000063617247,0.0010001436,0.1,78.692535,1615921207000
Fix,GT,37.4444957,-122.2323146,11.751999760580247,0.0014142134,0.1,78.69269,1615921208000
Fix,GT,37.4444957,-122.2323146,11.752000158359063,0.0014140705,0.1,78.69278,1615921209000
Fix,GT,37.4444957,-122.2323146,11.751999843693106,0.001,0.099,78.69275,1615921210000
Fix,GT,37.4444957,-122.2323146,11.75200022984296,0.0009996555,0.1,78.69278,1615921211000
Fix,GT,37.4444957,-122.2323146,11.751999915177002,3.4415e-07,0.1,78.69284,1615921212000
Fix,GT,37.4444957,-122.2323146,11.75200030098483,0.0009996564,0.1,78.693054,1615921213000
Fix,GT,37.4444957,-122.2323146,11.75199999828986,4.854472e-07,0.1,78.69266,1615921214000
Fix,GT,37.4444957,-122.2323146,11.751999695594888,0.0014144144,0.099,78.69238,1615921215000
Fix,GT,37.4444957,-122.2323146,11.752000081402716,0.0020002837,0.1,78.69272,1615921216000
Fix,GT,37.4444957,-122.2323146,11.751999790336704,0.0028286928,0.1,78.69299,1615921217000
Fix,GT,37.4444957,-122.2323146,11.75200017614453,0.003605769,0.1,78.69318,1615921218000
Fix,GT,37.4444957,-122.2323146,11.75199987344956,0.0042426405,0.1,78.693146,1615921219000
Fix,GT,37.4444957,-122.2323146,11.752000247628429,0.0042424235,0.1,78.69324,1615921220000
Fix,GT,37.4444957,-122.2323146,11.75199993296247,0.003605005,0.1,78.6933,1615921221000
Fix,GT,37.4444957,-122.2323146,11.75199999102627,0.0020003398,0.1,78.6936,1615921222000
Fix,GT,37.4444957,-122.2323146,11.751000016073958,0.0030030818,0.1,78.69354,1615921223000
Fix,GT,37.4444957,-122.2323145,11.750998357750795,0.012085172,0.1,78.69333,1615921224000
Fix,GT,37.4444958,-122.2323145,11.746999095615,0.018365625,0.1,78.69345,1615921225000
Fix,GT,37.444496,-122.2323143,11.74399980825279,0.04239828,0.099,78.693634,1615921226000
Fix,GT,37.4444983,-122.2323144,11.743989405451345,0.65860707,0.1,78.68005,1615921227000
Fix,GT,37.4445077,-122.2323163,11.71199282501859,1.3295223,0.1,77.512024,1615921228000
Fix,GT,37.4445232,-122.2323211,11.690989875616856,1.4683762,0.1,70.5379,1615921229000
Fix,GT,37.4445402,-122.2323304,11.659994966936647,1.4341063,0.1,57.88446,1615921230000
Fix,GT,37.4445519,-122.2323402,11.64500104059663,0.57260036,0.099,48.361908,1615921231000
Fix,GT,37.4445537,-122.2323407,11.648999432834302,0.12104611,0.1,47.539246,1615921232000
Fix,GT,37.4445526,-122.2323381,11.64700382150023,0.90011466,0.1,46.33554,1615921233000
Fix,GT,37.444547,-122.2323291,11.65898984296096,1.9560759,0.1,36.151855,1615921234000
Fix,GT,37.444541,-122.2323135,11.628006266012148,2.8702323,0.1,17.174408,1615921235000
Fix,GT,37.4445386,-122.2322851,11.646996657754178,3.8411076,0.1,359.25397,1615921236000
Fix,GT,37.444542,-122.2322428,11.635970072692842,4.159869,0.1,353.01593,1615921237000
Fix,GT,37.4445471,-122.2321964,11.545927902826806,4.200312,0.1,352.3909,1615921238000
Fix,GT,37.4445513,-122.2321439,11.329951639889272,4.396913,0.1,359.40848,1615921239000
Fix,GT,37.4445451,-122.2320833,11.18398558454198,4.7941885,0.1,18.216827,1615921240000
Fix,GT,37.4445185,-122.2320233,11.140984987034578,5.33657,0.1,40.39926,1615921241000
Fix,GT,37.4444829,-122.2319784,11.094980430442725,5.3542566,0.1,44.93698,1615921242000
Fix,GT,37.4444559,-122.2319397,11.03598972957034,5.1293416,0.1,30.447723,1615921243000
Fix,GT,37.4444435,-122.2319005,11.003966350540985,4.839288,0.1,4.3665466,1615921244000
Fix,GT,37.4444485,-122.2318659,10.901950967159411,4.7159495,0.099,330.2575,1615921245000
Fix,GT,37.4444688,-122.2318419,10.75394414958707,4.771463,0.1,296.16312,1615921246000
Fix,GT,37.4444969,-122.231837,10.583972203398703,4.8205094,0.1,261.74673,1615921247000
Fix,GT,37.4445225,-122.2318529,10.50000806384487,4.6759105,0.1,228.1561,1615921248000
Fix,GT,37.4445376,-122.2318835,10.524029086844848,4.4524055,0.1,199.54991,1615921249000
Fix,GT,37.4445426,-122.2319227,10.613036300774487,4.0924993,0.1,183.32014,1615921250000
Fix,GT,37.4445424,-122.2319643,10.72303535764152,3.6373777,0.1,179.70099,1615921251000
Fix,GT,37.4445412,-122.2320024,10.83102851350358,3.215002,0.1,178.6977,1615921252000
Fix,GT,37.44454,-122.2320368,10.919018432670828,2.935595,0.1,178.66895,1615921253000
Fix,GT,37.4445392,-122.2320693,10.975010009095303,2.8093288,0.1,179.24902,1615921254000
Fix,GT,37.4445387,-122.2321006,11.006023383018007,2.6561265,0.1,179.84247,1615921255000
Fix,GT,37.4445385,-122.2321298,11.077038316185906,2.4150195,0.1,180.71394,1615921256000
Fix,GT,37.4445389,-122.232157,11.195047366565966,2.4746366,0.1,181.61328,1615921257000
Fix,GT,37.4445394,-122.2321863,11.342038950766554,2.7525332,0.1,181.34416,1615921258000
Fix,GT,37.44454,-122.2322191,11.462035681915324,3.1422236,0.1,180.62877,1615921259000
Fix,GT,37.4445401,-122.2322565,11.57300407886406,3.5262046,0.1,179.80957,1615921260000
Fix,GT,37.4445399,-122.2322988,11.584959288190149,3.92697,0.099,179.25604,1615921261000
Fix,GT,37.4445392,-122.2323423,11.459040557529775,3.7673435,0.1,178.25653,1615921262000
Fix,GT,37.4445379,-122.2323813,11.584048579508584,3.3075945,0.1,176.92816,1615921263000
Fix,GT,37.4445355,-122.2324155,11.735033438513057,3.1858575,0.1,173.06598,1615921264000
Fix,GT,37.4445313,-122.2324488,11.840045679586648,3.165759,0.1,169.13312,1615921265000
Fix,GT,37.4445253,-122.2324817,11.982044668933083,3.1289883,0.099,165.5705,1615921266000
Fix,GT,37.4445178,-122.2325142,12.122055913148214,3.068048,0.1,163.39636,1615921267000
Fix,GT,37.4445095,-122.2325463,12.296054589803854,3.0438066,0.1,162.25354,1615921268000
Fix,GT,37.4445004,-122.2325792,12.467056437584544,3.297558,0.1,160.84363,1615921269000
Fix,GT,37.4444895,-122.2326144,12.64506093490496,3.6611578,0.1,157.99597,1615921270000
Fix,GT,37.4444758,-122.2326526,12.836036363586173,4.095073,0.1,154.4461,1615921271000
Fix,GT,37.4444577,-122.2326951,12.950944660369773,4.840015,0.1,150.2688,1615921272000
Fix,GT,37.444434,-122.2327405,12.77595422434574,5.307615,0.1,142.92822,1615921273000
Fix,GT,37.4444044,-122.2327851,12.631947128313127,5.3337398,0.1,138.86258,1615921274000
Fix,GT,37.4443727,-122.2328286,12.46394529593218,5.2859263,0.1,136.94006,1615921275000
Fix,GT,37.4443403,-122.2328693,12.290929908443534,5.312411,0.1,132.61618,1615921276000
Fix,GT,37.4443051,-122.2329063,12.069923505283018,5.380484,0.1,127.23584,1615921277000
Fix,GT,37.4442665,-122.2329398,11.826912294064387,5.5005174,0.1,122.10565,1615921278000
Fix,GT,37.4442248,-122.2329706,11.548931063644122,5.4636407,0.1,119.248566,1615921279000
Fix,GT,37.4441827,-122.233001,11.32894783439531,5.241491,0.1,119.87424,1615921280000
Fix,GT,37.4441427,-122.2330324,11.162964566815122,4.8022575,0.1,124.07074,1615921281000
Fix,GT,37.4441081,-122.2330652,11.050974086332369,4.3795147,0.1,129.88928,1615921282000
Fix,GT,37.4440778,-122.2331017,10.96796508364618,4.343176,0.1,136.87308,1615921283000
Fix,GT,37.4440516,-122.2331421,10.856961765577609,4.1957383,0.1,143.91476,1615921284000
Fix,GT,37.4440306,-122.2331837,10.733964670519695,3.905606,0.099,150.47955,1615921285000
Fix,GT,37.4440148,-122.2332237,10.620962610614836,3.4055989,0.1,155.781,1615921286000
Fix,GT,37.4440039,-122.2332562,10.499967998012668,2.8157465,0.1,156.74786,1615921287000
Fix,GT,37.4439954,-122.2332821,10.39698113804232,1.9998578,0.1,157.77753,1615921288000
Fix,GT,37.4439907,-122.2332979,10.336992378667462,0.9353622,0.1,158.59204,1615921289000
Fix,GT,37.4439896,-122.233302,10.311999255582515,0.022800412,0.099,158.85388,1615921290000
Fix,GT,37.4439896,-122.2333021,10.310000244549302,0.012803836,0.1,158.85602,1615921291000
Fix,GT,37.4439897,-122.2333022,10.310000009601936,0.0049990737,0.1,158.85547,1615921292000
Fix,GT,37.4439897,-122.2333022,10.309999754250455,0.0019999999,0.1,158.85608,1615921293000
Fix,GT,37.4439897,-122.2333022,10.309999816054972,0.002000073,0.1,158.85669,1615921294000
Fix,GT,37.4439897,-122.2333022,10.308999868586252,0.0022363525,0.1,158.85693,1615921295000
Fix,GT,37.4439897,-122.2333022,10.309000227723825,0.0031619933,0.1,158.85718,1615921296000
Fix,GT,37.4439897,-122.2333022,10.30899998259818,0.0022366464,0.1,158.85748,1615921297000
Fix,GT,37.4439898,-122.2333022,10.308999737472536,0.0041252654,0.1,158.85785,1615921298000
Fix,GT,37.4439898,-122.2333022,10.309000412774214,0.011181965,0.1,158.85803,1615921299000
Fix,GT,37.4439898,-122.2333022,10.30999985177012,0.016496751,0.1,158.8584,1615921300000
Fix,GT,37.4439899,-122.2333022,10.310000515721535,0.030679904,0.1,158.86041,1615921301000
Fix,GT,37.4439901,-122.2333023,10.31099570505781,0.04452088,0.1,158.86084,1615921302000
Fix,GT,37.4439901,-122.2333038,10.296977820176894,0.49238977,0.099,158.96191,1615921303000
Fix,GT,37.4439868,-122.2333172,10.2249566751183,2.0391119,0.1,159.18933,1615921304000
Fix,GT,37.4439794,-122.2333474,10.08197012319416,3.0467472,0.1,164.1134,1615921305000
Fix,GT,37.443973,-122.2333915,9.98395204959903,3.8741853,0.1,174.8092,1615921306000
Fix,GT,37.4439761,-122.2334502,9.824953998481126,5.1016083,0.1,191.72604,1615921307000
Fix,GT,37.4439961,-122.2335212,9.672927864820172,7.0891924,0.1,204.52202,1615921308000
Fix,GT,37.4440319,-122.2336046,9.432954861268868,8.99795,0.1,210.23405,1615921309000
Fix,GT,37.4440765,-122.2336977,9.282929730070348,10.21112,0.1,210.62917,1615921310000
Fix,GT,37.4441272,-122.2338016,9.049932847444436,11.045095,0.1,211.92116,1615921311000
Fix,GT,37.4441812,-122.2339075,8.825933924354322,11.087466,0.1,212.61592,1615921312000
Fix,GT,37.4442328,-122.2340079,8.605951385374327,9.948312,0.1,212.36671,1615921313000
Fix,GT,37.444277,-122.2340948,8.442949466924707,8.324119,0.1,212.22536,1615921314000
Fix,GT,37.4443132,-122.2341663,8.273959198301657,6.5583386,0.1,212.1876,1615921315000
Fix,GT,37.4443397,-122.2342191,8.137977144382429,4.572685,0.1,212.32834,1615921316000
Fix,GT,37.4443583,-122.2342555,8.060992169112811,3.076498,0.1,212.41882,1615921317000
Fix,GT,37.4443694,-122.2342769,8.034998687400076,1.4684108,0.1,212.45602,1615921318000
Fix,GT,37.4443738,-122.2342854,8.029998490620054,0.48029175,0.1,212.44644,1615921319000
Fix,GT,37.4443747,-122.2342873,8.025000080579195,0.004122476,0.1,212.44037,1615921320000
Fix,GT,37.4443747,-122.2342873,8.026000967494241,0.002000296,0.1,212.44225,1615921321000
Fix,GT,37.4443747,-122.2342873,8.029000487963465,0.003,0.1,212.44188,1615921322000
Fix,GT,37.4443747,-122.2342873,8.031000184882695,0.002999705,0.1,212.4424,1615921323000
Fix,GT,37.4443746,-122.2342873,8.031000001869863,0.002,0.1,212.44267,1615921324000
Fix,GT,37.4443746,-122.2342873,8.03099979501628,0.001999706,0.1,212.4431,1615921325000
Fix,GT,37.4443746,-122.2342873,8.031000074794516,0.0009997063,0.1,212.44347,1615921326000
Fix,GT,37.4443746,-122.2342873,8.030999883834768,4.1478881e-07,0.099,212.44377,1615921327000
Fix,GT,37.4443746,-122.2342873,8.031000464652665,0.0014144543,0.1,212.44408,1615921328000
Fix,GT,37.4443746,-122.2342873,8.032000281198416,0.0022362412,0.1,212.44455,1615921329000
Fix,GT,37.4443746,-122.2342873,8.03300009793241,0.0028286541,0.1,212.44484,1615921330000
Fix,GT,37.4443747,-122.2342873,8.034000393484604,0.003605958,0.1,212.44489,1615921331000
Fix,GT,37.4443747,-122.2342873,8.035000202001422,0.004999779,0.099,212.44508,1615921332000
Fix,GT,37.4443747,-122.2342873,8.036000497640371,0.0042424556,0.1,212.44553,1615921333000
Fix,GT,37.4443747,-122.2342874,8.037000604528497,0.0036051539,0.1,212.44577,1615921334000
Fix,GT,37.4443747,-122.2342874,8.039000114769674,0.0022368976,0.1,212.44608,1615921335000
Fix,GT,37.4443747,-122.2342874,8.040000973065704,0.005101064,0.1,212.44656,1615921336000
Fix,GT,37.4443747,-122.2342874,8.043000780536792,0.01216832,0.1,212.44675,1615921337000
Fix,GT,37.4443746,-122.2342874,8.046001364096183,0.021843994,0.1,212.44708,1615921338000
Fix,GT,37.4443745,-122.2342873,8.05000087504447,0.034545217,0.1,212.44722,1615921339000
Fix,GT,37.4443743,-122.2342872,8.052999244392677,0.05327867,0.099,212.44771,1615921340000
Fix,GT,37.4443741,-122.2342874,8.050991486212443,0.2370741,0.1,212.44713,1615921341000
Fix,GT,37.4443783,-122.2342966,8.020980963769633,1.8262385,0.1,212.39197,1615921342000
Fix,GT,37.4443906,-122.2343227,7.955020208104834,3.723321,0.1,209.36435,1615921343000
Fix,GT,37.4444046,-122.2343627,8.025023131744588,5.16649,0.1,196.81491,1615921344000
Fix,GT,37.4444103,-122.2344164,8.106038606345887,6.1324034,0.099,177.6579,1615921345000
Fix,GT,37.4443993,-122.2344769,8.242015759648146,6.9368243,0.1,156.56226,1615921346000
Fix,GT,37.4443665,-122.2345385,8.297038857715204,8.19725,0.1,136.7691,1615921347000
Fix,GT,37.4443074,-122.2345975,8.434066081155265,10.030596,0.1,122.50421,1615921348000
Fix,GT,37.4442228,-122.2346567,8.666095848304568,11.801706,0.1,118.14346,1615921349000
Fix,GT,37.4441234,-122.2347217,9.004112200680973,13.130824,0.099,117.48767,1615921350000
Fix,GT,37.4440126,-122.2347929,9.40115306426154,14.518497,0.1,117.16495,1615921351000
Fix,GT,37.4438911,-122.2348716,9.942091634702752,15.830445,0.1,117.51233,1615921352000
Fix,GT,37.4437592,-122.2349579,10.26706931959372,17.09649,0.1,117.445465,1615921353000
Fix,GT,37.4436184,-122.2350501,10.512049833097176,18.215431,0.1,117.430756,1615921354000
Fix,GT,37.4434688,-122.2351481,10.689048939405009,19.187134,0.1,117.43378,1615921355000
Fix,GT,37.4433125,-122.2352512,10.864059615779786,19.84329,0.1,117.72998,1615921356000
Fix,GT,37.4431535,-122.2353571,11.076076346512563,19.978271,0.1,117.78497,1615921357000
Fix,GT,37.4429961,-122.2354628,11.349097322620452,19.683626,0.1,118.11206,1615921358000
Fix,GT,37.44284,-122.2355685,11.696180378178424,19.732702,0.1,118.01721,1615921359000
Fix,GT,37.4426835,-122.2356735,12.342209906275151,19.656052,0.1,117.6181,1615921360000
Fix,GT,37.4425276,-122.2357766,13.09628935818374,19.406384,0.1,117.43738,1615921361000
Fix,GT,37.4423756,-122.2358759,14.13531139561138,18.654722,0.1,117.10095,1615921362000
Fix,GT,37.44223,-122.2359702,15.256271767798111,17.688812,0.1,117.170044,1615921363000
Fix,GT,37.442092,-122.2360606,16.23422003038484,16.868256,0.1,117.47589,1615921364000
Fix,GT,37.4419605,-122.236148,17.028230618747035,16.164179,0.1,117.79376,1615921365000
Fix,GT,37.4418338,-122.2362349,17.863204351145423,15.853883,0.1,119.09372,1615921366000
Fix,GT,37.4417101,-122.236325,18.6021936526566,15.75742,0.1,120.41998,1615921367000
Fix,GT,37.4415876,-122.2364172,19.305204762701468,16.067375,0.1,120.61026,1615921368000
Fix,GT,37.4414617,-122.2365149,20.04723610863596,16.744278,0.1,121.70685,1615921369000
Fix,GT,37.4413319,-122.2366222,20.90626372386183,17.502865,0.1,124.36456,1615921370000
Fix,GT,37.4412015,-122.2367441,21.869254772034008,18.239935,0.1,128.46368,1615921371000
Fix,GT,37.4410732,-122.2368838,22.798298680823443,19.11816,0.1,132.53436,1615921372000
Fix,GT,37.4409476,-122.2370407,23.89130068287684,19.807861,0.1,136.5028,1615921373000
Fix,GT,37.4408273,-122.2372126,24.99030625419915,20.297028,0.1,140.43307,1615921374000
Fix,GT,37.440714,-122.2373986,26.11333317484485,20.742197,0.1,144.23618,1615921375000
Fix,GT,37.4406073,-122.237594,27.339296097752435,21.015211,0.1,146.15302,1615921376000
Fix,GT,37.4405023,-122.2377941,28.427345144636345,21.333712,0.1,146.49615,1615921377000
Fix,GT,37.4403947,-122.2379943,29.700326537634304,21.555525,0.1,144.75024,1615921378000
Fix,GT,37.4402796,-122.2381904,30.90929841754004,21.769114,0.1,142.12836,1615921379000
Fix,GT,37.4401561,-122.2383814,32.01229582726786,21.98266,0.1,139.83932,1615921380000
Fix,GT,37.4400261,-122.2385694,33.11030675078044,22.190268,0.1,138.38849,1615921381000
Fix,GT,37.4398917,-122.2387542,34.246290659671416,22.226217,0.099,136.82,1615921382000
Fix,GT,37.439753,-122.2389339,35.3272751368483,22.225002,0.1,134.8836,1615921383000
Fix,GT,37.4396098,-122.2391072,36.35533120094603,21.957315,0.1,133.07507,1615921384000
Fix,GT,37.4394677,-122.239274,37.58932066971972,21.351944,0.1,132.66153,1615921385000
Fix,GT,37.4393263,-122.2394306,38.78927878556825,20.728045,0.1,129.68268,1615921386000
Fix,GT,37.4391831,-122.2395731,39.82924915603621,20.213171,0.1,127.26459,1615921387000
Fix,GT,37.4390374,-122.2397079,40.76324834829124,20.147636,0.1,125.445404,1615921388000
Fix,GT,37.4388884,-122.2398364,41.6992108843347,20.222937,0.1,123.36453,1615921389000
Fix,GT,37.4387347,-122.2399595,42.49015001407673,20.411331,0.1,121.8298,1615921390000
Fix,GT,37.4385765,-122.2400772,43.057130932238245,20.666801,0.1,119.18173,1615921391000
Fix,GT,37.4384121,-122.2401856,43.547093744247775,20.838667,0.1,116.05527,1615921392000
Fix,GT,37.4382424,-122.240284,43.90105850724964,20.771019,0.1,113.53879,1615921393000
Fix,GT,37.4380723,-122.2403745,44.12604051059621,20.37636,0.1,112.22366,1615921394000
Fix,GT,37.437904,-122.2404586,44.27704602063878,19.930628,0.099,111.10541,1615921395000
Fix,GT,37.4377383,-122.2405379,44.4530149378978,19.496733,0.1,110.431854,1615921396000
Fix,GT,37.4375756,-122.2406147,44.50505331459432,19.114256,0.1,110.661896,1615921397000
Fix,GT,37.4374142,-122.2406928,44.707086748497765,19.354742,0.1,111.14795,1615921398000
Fix,GT,37.4372504,-122.240775,45.04111855193521,19.640118,0.1,112.28412,1615921399000
Fix,GT,37.4370869,-122.2408641,45.491129384284406,19.667425,0.1,114.61243,1615921400000
Fix,GT,37.4369289,-122.2409641,45.987147836526624,19.194914,0.1,118.7171,1615921401000
Fix,GT,37.4367822,-122.241076,46.55917447995499,18.449715,0.1,123.66797,1615921402000
Fix,GT,37.4366496,-122.2411996,47.22817779259765,17.722271,0.1,129.3906,1615921403000
Fix,GT,37.4365316,-122.2413322,47.91514781352761,17.111181,0.1,133.26324,1615921404000
Fix,GT,37.4364234,-122.241467,48.48116153910512,16.478447,0.1,135.44446,1615921405000
Fix,GT,37.436324,-122.2416004,49.10517431384418,15.601087,0.1,137.61523,1615921406000
Fix,GT,37.4362352,-122.2417287,49.78415900887951,14.169858,0.1,139.39258,1615921407000
Fix,GT,37.4361582,-122.2418481,50.39812895331445,12.964929,0.099,141.72272,1615921408000
Fix,GT,37.4360905,-122.2419644,50.90113929379766,12.130807,0.1,145.41382,1615921409000
Fix,GT,37.4360339,-122.2420801,51.43809497481119,11.462442,0.1,150.909,1615921410000
Fix,GT,37.4359892,-122.2421972,51.80809875837068,10.927562,0.1,158.17706,1615921411000
Fix,GT,37.4359599,-122.2423213,52.19808924271912,11.125905,0.1,168.78442,1615921412000
Fix,GT,37.4359493,-122.242455,52.54409249656205,11.625574,0.1,179.80981,1615921413000
Fix,GT,37.4359597,-122.2425927,52.90815649209171,11.906705,0.1,190.13187,1615921414000
Fix,GT,37.4359855,-122.2427289,53.51614535193645,12.405645,0.1,196.1841,1615921415000
Fix,GT,37.436024,-122.2428667,54.08616419770894,12.935536,0.1,201.59453,1615921416000
Fix,GT,37.4360719,-122.2430057,54.73618792856866,13.658524,0.1,203.96523,1615921417000
Fix,GT,37.4361254,-122.2431486,55.47320818578708,14.069616,0.1,205.48097,1615921418000
Fix,GT,37.4361823,-122.243292,56.29620420653664,14.104709,0.1,206.32785,1615921419000
Fix,GT,37.4362391,-122.2434333,57.11019709934504,13.9646845,0.1,205.99368,1615921420000
Fix,GT,37.436295,-122.2435739,57.88920400859689,13.846223,0.099,206.0206,1615921421000
Fix,GT,37.4363512,-122.2437135,58.70221234035512,13.794348,0.1,206.87448,1615921422000
Fix,GT,37.4364102,-122.2438533,59.541219671756025,14.076035,0.1,208.08698,1615921423000
Fix,GT,37.4364749,-122.2439933,60.41620256619458,14.216085,0.1,211.96973,1615921424000
Fix,GT,37.4365482,-122.2441284,61.23021670105511,14.329687,0.1,215.9317,1615921425000
Fix,GT,37.4366276,-122.2442578,62.09321117503615,14.270394,0.1,218.59908,1615921426000
Fix,GT,37.4367087,-122.2443798,62.94121205159623,13.629088,0.1,220.21996,1615921427000
Fix,GT,37.4367879,-122.244494,63.78519650187075,13.086907,0.1,221.27452,1615921428000
Fix,GT,37.4368654,-122.2446021,64.57418152488209,12.652181,0.1,222.10393,1615921429000
Fix,GT,37.4369424,-122.2447065,65.31016556066287,12.429598,0.1,223.1004,1615921430000
Fix,GT,37.4370201,-122.2448087,65.97315487050965,12.582214,0.1,223.4114,1615921431000
Fix,GT,37.437101,-122.2449154,66.60016246335464,13.779752,0.1,223.23459,1615921432000
Fix,GT,37.437191,-122.2450348,67.26516889038787,15.267383,0.1,223.10452,1615921433000
Fix,GT,37.4372888,-122.2451658,67.94717288890759,16.448725,0.099,222.50426,1615921434000
Fix,GT,37.4373907,-122.2453051,68.65317509851614,17.02924,0.1,222.1172,1615921435000
Fix,GT,37.4374955,-122.24545,69.3591811793061,17.639729,0.1,222.05223,1615921436000
Fix,GT,37.4376035,-122.2455981,70.09817467622912,17.646603,0.1,222.77332,1615921437000
Fix,GT,37.437711,-122.2457417,70.81818030090258,17.137321,0.1,223.31789,1615921438000
Fix,GT,37.4378166,-122.2458798,71.55218072591781,16.764816,0.1,224.16397,1615921439000
Fix,GT,37.4379232,-122.2460165,72.29617306928482,17.185917,0.1,223.94794,1615921440000
Fix,GT,37.438033,-122.2461607,72.99919761160248,18.339745,0.1,222.74199,1615921441000
Fix,GT,37.4381484,-122.2463189,73.81120625177493,19.665825,0.1,221.98778,1615921442000
Fix,GT,37.4382707,-122.2464897,74.66722936208573,21.031418,0.1,221.31454,1615921443000
Fix,GT,37.4383997,-122.2466742,75.6092287684493,22.445766,0.1,221.15903,1615921444000
Fix,GT,37.4385389,-122.2468699,76.55723094740013,23.856857,0.1,222.35344,1615921445000
Fix,GT,37.4386914,-122.2470724,77.52325382438788,25.25206,0.1,224.41016,1615921446000
Fix,GT,37.4388577,-122.2472792,78.57426184128504,26.613752,0.099,225.71265,1615921447000
Fix,GT,37.439034,-122.2474942,79.66827411719541,27.987013,0.1,225.38594,1615921448000
Fix,GT,37.4392172,-122.2477215,80.80328537544011,29.210121,0.1,224.84131,1615921449000
Fix,GT,37.4394056,-122.2479594,81.99528967620797,30.207907,0.1,224.40833,1615921450000
Fix,GT,37.4395992,-122.2482071,83.21530085210716,31.225246,0.1,224.06104,1615921451000
Fix,GT,37.4397982,-122.2484644,84.47132054746798,32.248253,0.1,223.84795,1615921452000
Fix,GT,37.4400034,-122.2487305,85.82032975967489,33.233334,0.1,223.95232,1615921453000
Fix,GT,37.4402149,-122.2490034,87.19732183640583,33.980827,0.1,224.13356,1615921454000
Fix,GT,37.4404288,-122.2492796,88.55131644595616,34.10968,0.1,223.81259,1615921455000
Fix,GT,37.4406418,-122.2495574,89.8943270880776,34.141834,0.1,223.6118,1615921456000
Fix,GT,37.4408539,-122.2498364,91.271314278293,34.107105,0.1,223.42596,1615921457000
Fix,GT,37.4410643,-122.250114,92.60530497737584,33.555897,0.1,223.47763,1615921458000
Fix,GT,37.4412709,-122.2503859,93.91132983306665,32.98901,0.1,223.72626,1615921459000
Fix,GT,37.4414759,-122.2506532,95.31132789894588,32.65862,0.099,223.84778,1615921460000
Fix,GT,37.4416786,-122.2509181,96.71532988222744,32.300888,0.1,223.75493,1615921461000
Fix,GT,37.4418793,-122.2511809,98.11532365193445,32.174744,0.1,223.90414,1615921462000
Fix,GT,37.4420783,-122.2514437,99.50030680289592,32.04752,0.1,223.17442,1615921463000
Fix,GT,37.4422729,-122.25171,100.8263008140673,32.04391,0.1,221.53015,1615921464000
Fix,GT,37.4424592,-122.2519837,102.11329561017484,31.912836,0.099,218.96712,1615921465000
Fix,GT,37.4426337,-122.2522677,103.39029223862866,31.790274,0.1,216.06248,1615921466000
Fix,GT,37.4427972,-122.2525598,104.63928400756733,31.571772,0.1,213.95444,1615921467000
Fix,GT,37.4429525,-122.2528577,105.86528488174632,31.622004,0.1,212.18349,1615921468000
Fix,GT,37.4431001,-122.2531625,107.10828489823196,31.646519,0.1,210.26958,1615921469000
Fix,GT,37.4432396,-122.2534734,108.33628801816076,31.681389,0.1,208.43916,1615921470000
Fix,GT,37.443372,-122.2537901,109.59129734846172,31.781153,0.1,206.77365,1615921471000
Fix,GT,37.4434968,-122.2541129,110.87129406735215,31.989382,0.1,204.8894,1615921472000
Fix,GT,37.4436141,-122.254444,112.15029095662096,32.29929,0.099,202.86633,1615921473000
Fix,GT,37.4437226,-122.2547832,113.4282975254856,32.580467,0.1,200.72772,1615921474000
Fix,GT,37.4438218,-122.2551306,114.71930406997598,32.933586,0.1,198.62193,1615921475000
Fix,GT,37.4439123,-122.2554859,116.05229651487451,33.275917,0.1,196.71794,1615921476000
Fix,GT,37.4439941,-122.2558484,117.36630442937155,33.585114,0.1,194.78119,1615921477000
Fix,GT,37.4440666,-122.2562174,118.69928142669842,33.8713,0.1,192.76581,1615921478000
Fix,GT,37.4441294,-122.2565918,119.9452655937362,34.02119,0.1,190.81712,1615921479000
Fix,GT,37.4441817,-122.2569706,121.10424360706736,34.23084,0.1,188.60023,1615921480000
Fix,GT,37.4442226,-122.2573536,122.180223898628,34.369682,0.1,186.32814,1615921481000
Fix,GT,37.4442513,-122.2577401,123.1831993975205,34.55252,0.1,183.95969,1615921482000
Fix,GT,37.4442673,-122.2581296,124.05918070652965,34.702858,0.1,181.56311,1615921483000
Fix,GT,37.4442708,-122.2585212,124.8661512810483,34.78089,0.1,179.39221,1615921484000
Fix,GT,37.4442621,-122.2589126,125.55611911903084,34.714584,0.1,177.14954,1615921485000
Fix,GT,37.4442422,-122.259303,126.08309034716288,34.69897,0.099,175.28522,1615921486000
Fix,GT,37.4442142,-122.2596927,126.495070754243,34.64106,0.1,174.33148,1615921487000
Fix,GT,37.4441826,-122.2600804,126.79904848915638,34.278034,0.1,173.89056,1615921488000
Fix,GT,37.4441503,-122.2604628,127.01703151806304,33.76977,0.1,174.02252,1615921489000
Fix,GT,37.4441201,-122.2608401,127.1720492944484,33.3599,0.1,174.40973,1615921490000
Fix,GT,37.4440922,-122.2612142,127.38705116500076,33.095444,0.1,174.73859,1615921491000
Fix,GT,37.4440659,-122.2615847,127.62404441668586,32.727165,0.1,174.75543,1615921492000
Fix,GT,37.444039,-122.2619505,127.80904526461026,32.309914,0.1,174.5108,1615921493000
Fix,GT,37.4440111,-122.2623113,128.01203469854065,31.8658,0.1,174.28534,1615921494000
Fix,GT,37.4439831,-122.2626672,128.18002596695496,31.440508,0.1,174.20801,1615921495000
Fix,GT,37.4439554,-122.2630185,128.2870313172564,31.03024,0.1,174.23468,1615921496000
Fix,GT,37.4439281,-122.263365,128.43202164815406,30.604168,0.1,174.21198,1615921497000
Fix,GT,37.4439011,-122.2637068,128.5470275480593,30.185265,0.1,174.28168,1615921498000
Fix,GT,37.4438765,-122.2640446,128.66700129088468,29.761189,0.099,175.27844,1615921499000
Fix,GT,37.4438587,-122.2643791,128.67999438867906,29.372925,0.1,177.49695,1615921500000
Fix,GT,37.4438521,-122.2647099,128.63998285065324,29.051517,0.1,179.42181,1615921501000
Fix,GT,37.4438529,-122.2650397,128.55896754610805,29.23353,0.1,180.90437,1615921502000
Fix,GT,37.4438614,-122.2653718,128.41996211066686,29.404072,0.1,182.78416,1615921503000
Fix,GT,37.4438779,-122.2657056,128.23294600614332,29.64799,0.1,184.26236,1615921504000
Fix,GT,37.4439015,-122.266041,127.98492893112632,29.7797,0.1,185.78284,1615921505000
Fix,GT,37.443933,-122.2663766,127.6699216833726,29.881731,0.1,187.7198,1615921506000
Fix,GT,37.4439741,-122.2667121,127.29790481966424,29.948101,0.1,189.84511,1615921507000
Fix,GT,37.4440239,-122.2670458,126.85991195253236,30.063837,0.1,191.06026,1615921508000
Fix,GT,37.4440786,-122.267381,126.43190912547335,30.384342,0.1,192.20201,1615921509000
Fix,GT,37.4441414,-122.2677174,126.0039082707856,30.563675,0.1,194.1696,1615921510000
Fix,GT,37.4442131,-122.2680523,125.58390778217957,30.6441,0.1,195.9921,1615921511000
Fix,GT,37.4442939,-122.2683852,125.13890596928736,30.740692,0.099,197.9855,1615921512000
Fix,GT,37.4443842,-122.2687151,124.69790184592205,30.84032,0.1,199.78746,1615921513000
Fix,GT,37.444483,-122.2690429,124.24989220037222,31.074451,0.1,201.6117,1615921514000
Fix,GT,37.4445903,-122.2693712,123.73290442902407,31.625753,0.1,203.0536,1615921515000
Fix,GT,37.4447071,-122.2697015,123.28692051588564,32.175533,0.1,204.86386,1615921516000
Fix,GT,37.4448352,-122.2700322,122.89490111186682,32.657867,0.1,207.07443,1615921517000
Fix,GT,37.4449743,-122.2703617,122.42291389061172,33.18963,0.1,208.90454,1615921518000
Fix,GT,37.4451255,-122.2706907,122.02494069669083,33.889503,0.1,211.1401,1615921519000
Fix,GT,37.44529,-122.2710194,121.73296346260152,34.651554,0.1,212.81146,1615921520000
Fix,GT,37.4454648,-122.27135,121.56299221668148,35.40087,0.1,214.28769,1615921521000
Fix,GT,37.4456511,-122.2716809,121.51001904822404,36.09473,0.1,216.20468,1615921522000
Fix,GT,37.4458495,-122.2720093,121.59905506954198,36.671036,0.1,218.14331,1615921523000
Fix,GT,37.44606,-122.2723343,121.87508124447358,37.242035,0.1,220.25256,1615921524000
Fix,GT,37.4462812,-122.2726557,122.25610109602904,37.78232,0.1,221.30656,1615921525000
Fix,GT,37.4465089,-122.2729772,122.7471161014474,38.27224,0.1,221.72548,1615921526000
Fix,GT,37.4467396,-122.2733013,123.32514972453332,38.734966,0.1,221.27788,1615921527000
Fix,GT,37.4469716,-122.2736336,124.04617109011542,39.43978,0.1,220.87201,1615921528000
Fix,GT,37.4472069,-122.2739724,124.8862149585057,40.055134,0.1,221.06978,1615921529000
Fix,GT,37.4474462,-122.2743148,125.92023430059628,40.43543,0.1,221.25201,1615921530000
Fix,GT,37.447688,-122.2746583,127.0652329992415,40.610966,0.1,221.45938,1615921531000
Fix,GT,37.4479311,-122.2750024,128.21924450861684,40.756275,0.1,221.3049,1615921532000
Fix,GT,37.448174,-122.2753485,129.40924382965034,40.85681,0.1,221.15477,1615921533000
Fix,GT,37.4484172,-122.2756958,130.61223102755665,40.932705,0.1,221.2623,1615921534000
Fix,GT,37.4486613,-122.2760434,131.76923790031807,41.017666,0.1,221.15715,1615921535000
Fix,GT,37.448904,-122.2763923,132.9382292803653,40.963108,0.1,220.76424,1615921536000
Fix,GT,37.4491446,-122.2767422,134.0812072400037,40.823494,0.099,220.53227,1615921537000
Fix,GT,37.4493826,-122.2770927,135.13218807739466,40.725918,0.1,219.91977,1615921538000
Fix,GT,37.4496173,-122.2774459,136.06514358618725,40.676136,0.1,219.43295,1615921539000
Fix,GT,37.4498505,-122.2778,136.79313306849903,40.57989,0.1,219.38753,1615921540000
Fix,GT,37.4500825,-122.2781542,137.44413571777386,40.611065,0.1,219.28088,1615921541000
Fix,GT,37.4503153,-122.2785097,138.12409989601534,40.759888,0.1,219.31488,1615921542000
Fix,GT,37.4505489,-122.2788665,138.64106480835764,40.955517,0.1,219.35048,1615921543000
Fix,GT,37.450785,-122.2792244,138.95502868469714,41.242523,0.1,219.69287,1615921544000
Fix,GT,37.4510236,-122.2795837,139.10300270117625,41.49079,0.099,219.64426,1615921545000
Fix,GT,37.4512632,-122.2799452,139.13499948436876,41.68152,0.1,219.65639,1615921546000
Fix,GT,37.451503,-122.2803079,139.12396738622854,41.71772,0.1,219.45555,1615921547000
Fix,GT,37.4517417,-122.2806721,138.96496473569115,41.749226,0.1,219.23795,1615921548000
Fix,GT,37.4519801,-122.2810369,138.7659192216504,41.66788,0.1,219.36095,1615921549000
Fix,GT,37.4522186,-122.2813995,138.34990181281609,41.50586,0.1,219.63466,1615921550000
Fix,GT,37.4524569,-122.2817602,137.8598846691701,41.412086,0.1,219.53554,1615921551000
Fix,GT,37.4526945,-122.2821206,137.25386354105316,41.3716,0.1,219.4758,1615921552000
Fix,GT,37.4529319,-122.2824816,136.55383548911627,41.459515,0.099,219.33298,1615921553000
Fix,GT,37.4531695,-122.2828443,135.72282399347338,41.670944,0.1,219.32367,1615921554000
Fix,GT,37.4534082,-122.2832097,134.8038199677708,41.918816,0.1,219.21754,1615921555000
Fix,GT,37.4536476,-122.2835769,133.87782987632426,42.02105,0.1,219.23244,1615921556000
Fix,GT,37.4538881,-122.2839443,132.97481723373176,42.05788,0.1,219.49097,1615921557000
Fix,GT,37.4541295,-122.2843107,132.01982269230322,42.072502,0.099,219.54982,1615921558000
Fix,GT,37.4543715,-122.2846772,131.10682309943903,42.123123,0.1,219.59322,1615921559000
Fix,GT,37.4546138,-122.2850435,130.16782371098364,42.10193,0.1,219.61414,1615921560000
Fix,GT,37.4548555,-122.2854098,129.24481946279872,42.05493,0.099,219.4977,1615921561000
Fix,GT,37.4550962,-122.285775,128.3128229789806,41.729248,0.1,219.5434,1615921562000
Fix,GT,37.455335,-122.2861366,127.37081284026196,41.37713,0.1,219.57039,1615921563000
Fix,GT,37.4555715,-122.2864956,126.38779994692754,41.028366,0.1,219.42468,1615921564000
Fix,GT,37.4558067,-122.2868514,125.34883282978583,40.750008,0.1,219.90347,1615921565000
Fix,GT,37.456044,-122.2872018,124.45788580624834,40.488106,0.099,221.04214,1615921566000
Fix,GT,37.456288,-122.2875412,123.86093911585334,40.173435,0.1,223.6514,1615921567000
Fix,GT,37.4565435,-122.287863,123.52097363764682,39.981255,0.1,226.53662,1615921568000
Fix,GT,37.4568112,-122.2881683,123.37900594365084,40.04375,0.1,229.50053,1615921569000
Fix,GT,37.4570914,-122.288456,123.42405891742942,40.05872,0.1,232.31418,1615921570000
Fix,GT,37.4573807,-122.288727,123.72910225995038,39.90183,0.1,234.27061,1615921571000
Fix,GT,37.4576764,-122.2889833,124.28312848718716,39.633884,0.1,236.83191,1615921572000
Fix,GT,37.4579792,-122.2892205,124.99514422848172,39.38618,0.1,239.532,1615921573000
Fix,GT,37.4582886,-122.2894384,125.7691450332968,39.168472,0.099,242.15129,1615921574000
Fix,GT,37.4586042,-122.2896374,126.5641528347036,38.9937,0.1,244.72844,1615921575000
Fix,GT,37.4589244,-122.2898189,127.37815021943146,38.80781,0.1,246.92436,1615921576000
Fix,GT,37.4592483,-122.2899828,128.19412508069556,38.41523,0.1,249.43588,1615921577000
Fix,GT,37.4595727,-122.2901266,128.89014018953495,37.773067,0.1,251.77094,1615921578000
Fix,GT,37.4598966,-122.2902517,129.64313290796642,37.23707,0.1,254.07457,1615921579000
Fix,GT,37.460219,-122.2903614,130.3741581824541,36.805443,0.1,255.75583,1615921580000
Fix,GT,37.4605418,-122.2904549,131.2621340575848,36.54219,0.1,258.52145,1615921581000
Fix,GT,37.4608674,-122.2905276,131.9921288805902,36.58336,0.1,261.83972,1615921582000
Fix,GT,37.4611957,-122.290579,132.71114071868098,36.68199,0.1,263.69586,1615921583000
Fix,GT,37.4615261,-122.2906175,133.47116078878918,36.769474,0.1,265.84186,1615921584000
Fix,GT,37.4618575,-122.2906408,134.36115428634258,36.71138,0.1,267.72632,1615921585000
Fix,GT,37.4621879,-122.2906537,135.23413636486995,36.595085,0.1,268.59943,1615921586000
Fix,GT,37.4625168,-122.2906617,135.9801236133019,36.33882,0.099,268.67953,1615921587000
Fix,GT,37.4628413,-122.2906705,136.67312421501396,35.710686,0.1,268.58124,1615921588000
Fix,GT,37.4631603,-122.2906787,137.38713562944048,35.01904,0.1,269.29745,1615921589000
Fix,GT,37.463473,-122.2906803,138.13715925519844,34.299187,0.1,270.29596,1615921590000
Fix,GT,37.4637786,-122.2906784,139.0381386476811,33.54795,0.1,270.11075,1615921591000
Fix,GT,37.464077,-122.2906809,139.84208508318093,32.82114,0.1,268.85703,1615921592000
Fix,GT,37.4643691,-122.2906919,140.31507950003208,32.18248,0.1,267.61444,1615921593000
Fix,GT,37.464655,-122.2907119,140.77407653325784,31.548944,0.1,265.76886,1615921594000
Fix,GT,37.4649346,-122.2907425,141.1870605972234,30.934002,0.1,263.8993,1615921595000
Fix,GT,37.4652079,-122.2907839,141.5260524722577,30.343136,0.1,262.25366,1615921596000
Fix,GT,37.4654755,-122.2908329,141.83705103558376,29.82429,0.1,261.01056,1615921597000
Fix,GT,37.465739,-122.2908886,142.1090518324922,29.630548,0.1,259.75848,1615921598000
Fix,GT,37.4660007,-122.2909487,142.40405954134195,29.33495,0.1,260.028,1615921599000
Fix,GT,37.466259,-122.291005,142.76206024707278,28.781143,0.1,260.31543,1615921600000
Fix,GT,37.46651,-122.2910597,143.0930556115991,27.783909,0.1,259.5476,1615921601000
Fix,GT,37.4667512,-122.2911199,143.41599511736612,26.996447,0.099,257.72595,1615921602000
Fix,GT,37.4669859,-122.2911873,143.40594380705446,26.59682,0.1,256.35516,1615921603000
Fix,GT,37.4672159,-122.2912601,143.06489386801476,25.943693,0.1,255.18887,1615921604000
Fix,GT,37.4674339,-122.2913345,142.44989377562794,24.271593,0.1,254.04648,1615921605000
Fix,GT,37.4676363,-122.2914104,141.85086156370642,22.886503,0.1,252.31866,1615921606000
Fix,GT,37.4678257,-122.2914899,141.02983618989762,21.453356,0.1,250.4159,1615921607000
Fix,GT,37.467998,-122.2915682,140.07483418769232,19.302662,0.1,249.5477,1615921608000
Fix,GT,37.4681524,-122.2916405,139.12184429765642,17.43482,0.1,249.43692,1615921609000
Fix,GT,37.4682929,-122.2917058,138.1948756472979,15.480222,0.1,250.31845,1615921610000
Fix,GT,37.4684139,-122.2917583,137.4699301968802,12.741099,0.1,251.7919,1615921611000
Fix,GT,37.468514,-122.2917987,137.0369610821989,10.494046,0.1,252.48459,1615921612000
Fix,GT,37.4685928,-122.29183,136.80298268694955,7.8602743,0.1,251.94019,1615921613000
Fix,GT,37.4686462,-122.2918541,136.71599582559116,5.0094004,0.1,247.95206,1615921614000
Fix,GT,37.4686736,-122.2918694,136.67400022929291,2.1448424,0.1,244.64548,1615921615000
Fix,GT,37.4686845,-122.2918764,136.67699725255744,0.6893225,0.1,243.83533,1615921616000
Fix,GT,37.4686888,-122.2918796,136.68000441103416,0.6914123,0.1,243.58177,1615921617000
Fix,GT,37.4686926,-122.2918824,136.69500027192404,0.19413719,0.1,243.28189,1615921618000
Fix,GT,37.4686961,-122.2918855,136.7030007539489,1.024415,0.1,242.80307,1615921619000
Fix,GT,37.4687109,-122.2918965,136.7320170656682,3.2547655,0.1,237.31602,1615921620000
Fix,GT,37.4687341,-122.2919208,136.82802484067312,4.767593,0.1,221.7952,1615921621000
Fix,GT,37.4687534,-122.2919637,136.9890305257965,6.279629,0.1,196.7565,1615921622000
Fix,GT,37.4687561,-122.292027,137.1510093984926,7.4791546,0.1,170.71301,1615921623000
Fix,GT,37.4687334,-122.2921053,137.20299291444422,9.122963,0.1,152.48584,1615921624000
Fix,GT,37.4686859,-122.2921959,137.17299612252802,10.969036,0.1,142.22095,1615921625000
Fix,GT,37.4686167,-122.2922952,137.12898358699047,12.908336,0.1,136.487,1615921626000
Fix,GT,37.4685301,-122.2924059,137.02495502172707,14.474729,0.1,135.34192,1615921627000
Fix,GT,37.4684361,-122.2925238,136.7629417899386,14.844968,0.1,135.26169,1615921628000
Fix,GT,37.4683434,-122.2926441,136.3849213297901,14.640454,0.1,137.51407,1615921629000
Fix,GT,37.468255,-122.2927659,135.8969048871867,14.379016,0.099,138.05463,1615921630000
Fix,GT,37.4681715,-122.2928811,135.31990580392238,13.217723,0.1,136.55533,1615921631000
Fix,GT,37.4680947,-122.2929825,134.71489496110408,11.574192,0.1,135.90225,1615921632000
Fix,GT,37.4680276,-122.2930723,134.05690151324308,9.961167,0.1,138.18793,1615921633000
Fix,GT,37.4679746,-122.2931615,133.45588703219238,8.930705,0.1,149.57788,1615921634000
Fix,GT,37.4679418,-122.293262,132.7288822409092,8.831504,0.1,165.77155,1615921635000
Fix,GT,37.4679377,-122.2933743,131.98795684262552,8.98252,0.1,189.59065,1615921636000
Fix,GT,37.4679704,-122.2934817,131.73801151485742,9.723989,0.1,211.60243,1615921637000
Fix,GT,37.4680355,-122.2935812,131.80301576900376,11.963552,0.099,224.85901,1615921638000
Fix,GT,37.4681238,-122.2936817,131.91202490145696,14.019977,0.1,228.49736,1615921639000
Fix,GT,37.4682248,-122.2937926,132.04707501852954,15.773784,0.1,227.97375,1615921640000
Fix,GT,37.4683336,-122.293913,132.52209008895505,16.148409,0.1,228.15013,1615921641000
Fix,GT,37.4684424,-122.2940304,133.1141058248277,15.507673,0.1,229.29362,1615921642000
Fix,GT,37.4685495,-122.2941382,133.77611295694695,14.737367,0.1,231.95744,1615921643000
Fix,GT,37.4686572,-122.2942338,134.50413248907768,13.9510975,0.1,238.43143,1615921644000
Fix,GT,37.4687727,-122.2943004,135.3801477640131,13.03071,0.1,252.22897,1615921645000
Fix,GT,37.4688911,-122.2943262,136.3231339687725,12.3861065,0.1,268.1267,1615921646000
Fix,GT,37.4690089,-122.2943081,137.19612509487033,12.719034,0.1,285.24005,1615921647000
Fix,GT,37.4691224,-122.294243,138.03211838616627,13.275985,0.1,303.3681,1615921648000
Fix,GT,37.4692173,-122.294133,138.79312126435775,13.9766,0.1,321.36923,1615921649000
Fix,GT,37.4692853,-122.2939846,139.5951301224891,15.081669,0.099,338.13907,1615921650000
Fix,GT,37.4693188,-122.2938036,140.47815477587483,16.083055,0.1,355.76767,1615921651000
Fix,GT,37.4693067,-122.2936134,141.49113833313584,16.123068,0.1,14.146271,1615921652000
Fix,GT,37.4692473,-122.2934365,142.41809988372808,16.450788,0.099,32.426758,1615921653000
Fix,GT,37.4691454,-122.2932842,143.11207849654934,17.61392,0.1,46.418976,1615921654000
Fix,GT,37.4690202,-122.2931479,143.62606529682293,19.020182,0.1,50.230682,1615921655000
Fix,GT,37.4688784,-122.2930053,144.0710265853694,21.16076,0.1,52.183777,1615921656000
Fix,GT,37.4687174,-122.2928544,144.27697889346754,23.304457,0.1,53.97574,1615921657000
Fix,GT,37.4685362,-122.2926952,144.1239694596704,25.62566,0.1,56.03659,1615921658000
Fix,GT,37.4683322,-122.2925314,143.92596557097997,27.733965,0.1,58.86508,1615921659000
Fix,GT,37.4681075,-122.2923704,143.66496152262812,29.454712,0.1,61.740997,1615921660000
Fix,GT,37.4678645,-122.292213,143.39696481354528,31.116083,0.099,63.271423,1615921661000
Fix,GT,37.4676051,-122.2920548,143.17194887162628,32.737667,0.1,65.14346,1615921662000
Fix,GT,37.467328,-122.2919005,142.79995916346522,34.39645,0.1,67.168884,1615921663000
Fix,GT,37.4670336,-122.2917518,142.51894748157324,35.747982,0.1,69.46765,1615921664000
Fix,GT,37.4667237,-122.2916143,142.17895070521533,37.060974,0.1,71.37695,1615921665000
Fix,GT,37.4664022,-122.2914805,141.8239437276181,38.094162,0.1,71.9451,1615921666000
Fix,GT,37.4660682,-122.2913538,141.43994225531353,39.030155,0.1,74.93768,1615921667000
Fix,GT,37.4657227,-122.2912477,141.06494776725887,39.551636,0.1,78.00592,1615921668000
Fix,GT,37.4653726,-122.2911614,140.68993357429187,39.368504,0.1,80.15662,1615921669000
Fix,GT,37.4650233,-122.2910916,140.23594535771983,38.941902,0.1,82.14264,1615921670000
Fix,GT,37.4646766,-122.2910374,139.82692685807052,38.45504,0.1,83.94321,1615921671000
Fix,GT,37.4643329,-122.2909983,139.30792504230024,37.97397,0.1,86.06183,1615921672000
Fix,GT,37.4639928,-122.2909747,138.79593560934717,37.481873,0.1,87.720276,1615921673000
Fix,GT,37.4636573,-122.2909602,138.31991422181855,37.02309,0.1,88.31177,1615921674000
Fix,GT,37.4633256,-122.2909492,137.71190209457595,36.614426,0.1,88.54669,1615921675000
Fix,GT,37.4629978,-122.2909386,137.03690158098937,36.1827,0.1,88.52515,1615921676000
Fix,GT,37.4626735,-122.290929,136.31993042441235,35.805508,0.1,88.77557,1615921677000
Fix,GT,37.4623534,-122.2909198,135.82894981887588,35.115242,0.1,88.55252,1615921678000
Fix,GT,37.4620439,-122.2909088,135.43895090890476,33.55425,0.1,88.16052,1615921679000
Fix,GT,37.46175,-122.2908943,135.07692741585302,31.867947,0.1,87.17389,1615921680000
Fix,GT,37.4614688,-122.2908728,134.5659181513824,30.898304,0.1,85.543304,1615921681000
Fix,GT,37.4611971,-122.2908408,133.94991481151416,29.862251,0.1,83.377075,1615921682000
Fix,GT,37.4609359,-122.2907979,133.32991792255945,28.88446,0.1,81.590576,1615921683000
Fix,GT,37.4606829,-122.2907468,132.7509237572383,28.08864,0.1,79.94055,1615921684000
Fix,GT,37.4604374,-122.2906878,132.17592696261926,27.695423,0.1,78.15918,1615921685000
Fix,GT,37.4601955,-122.2906194,131.6429185125134,27.508078,0.099,76.28488,1615921686000
Fix,GT,37.4599569,-122.2905423,131.06792536378163,27.348606,0.1,74.61365,1615921687000
Fix,GT,37.4597213,-122.2904567,130.50592492327942,27.283644,0.1,73.010345,1615921688000
Fix,GT,37.4594872,-122.2903634,129.9609343833258,27.322388,0.1,71.444244,1615921689000
Fix,GT,37.4592558,-122.2902619,129.4489335160134,27.232912,0.1,69.9404,1615921690000
Fix,GT,37.4590275,-122.2901526,128.9499249261448,27.238094,0.1,68.16745,1615921691000
Fix,GT,37.4587998,-122.290034,128.4049244555955,27.737139,0.1,66.538025,1615921692000
Fix,GT,37.4585707,-122.2899048,127.81792058660164,28.08077,0.1,64.821106,1615921693000
Fix,GT,37.4583432,-122.2897655,127.2189229672189,28.284819,0.099,62.91507,1615921694000
Fix,GT,37.4581177,-122.2896157,126.6579322336486,28.517008,0.1,61.041412,1615921695000
Fix,GT,37.4578948,-122.289457,126.12993233392808,28.455608,0.1,59.62146,1615921696000
Fix,GT,37.4576765,-122.2892916,125.62194593534106,28.374058,0.1,57.88684,1615921697000
Fix,GT,37.4574612,-122.2891174,125.17996109156005,28.627916,0.1,56.365387,1615921698000
Fix,GT,37.4572485,-122.2889343,124.87297122678862,28.849392,0.1,54.45685,1615921699000
Fix,GT,37.4570385,-122.2887401,124.66498974421069,29.211369,0.1,52.50595,1615921700000
Fix,GT,37.4568317,-122.2885345,124.56299261231932,29.561743,0.1,50.44507,1615921701000
Fix,GT,37.4566289,-122.2883176,124.50301098533411,29.740358,0.099,48.47522,1615921702000
Fix,GT,37.4564317,-122.2880923,124.60603420616197,29.552841,0.1,46.57904,1615921703000
Fix,GT,37.4562417,-122.2878611,124.85204031433072,29.460207,0.1,44.97174,1615921704000
Fix,GT,37.4560573,-122.2876227,125.1680519418685,29.479837,0.1,43.055237,1615921705000
Fix,GT,37.4558802,-122.2873775,125.59805725568684,29.179445,0.1,41.160522,1615921706000
Fix,GT,37.4557109,-122.2871294,126.03304183091365,28.705149,0.1,39.970642,1615921707000
Fix,GT,37.4555473,-122.286882,126.36904107086056,28.274704,0.1,39.52826,1615921708000
Fix,GT,37.455385,-122.2866369,126.721063627973,28.121231,0.1,39.718323,1615921709000
Fix,GT,37.4552235,-122.2863933,127.21707076503084,27.929619,0.099,39.55774,1615921710000
Fix,GT,37.4550637,-122.2861509,127.79408530390096,27.778427,0.1,39.436523,1615921711000
Fix,GT,37.4549044,-122.2859081,128.4500755399266,27.917301,0.1,39.172333,1615921712000
Fix,GT,37.4547451,-122.285663,129.05207470176978,28.104925,0.1,39.096954,1615921713000
Fix,GT,37.4545839,-122.2854157,129.6710807977799,28.40347,0.1,39.35022,1615921714000
Fix,GT,37.4544204,-122.2851665,130.3030797932067,28.704224,0.1,39.35385,1615921715000
Fix,GT,37.4542553,-122.2849149,130.95107518198986,28.991547,0.1,39.390137,1615921716000
Fix,GT,37.4540875,-122.2846593,131.58807804099268,29.591503,0.1,39.325806,1615921717000
Fix,GT,37.4539164,-122.2843989,132.2100812137256,30.023369,0.1,39.600616,1615921718000
Fix,GT,37.453743,-122.2841375,132.88407560340616,30.087511,0.1,39.700012,1615921719000
Fix,GT,37.4535698,-122.2838763,133.5380868601515,30.056484,0.1,39.617218,1615921720000
Fix,GT,37.4533974,-122.2836152,134.24606860899368,29.947876,0.1,39.449158,1615921721000
Fix,GT,37.453226,-122.2833544,134.83007787443475,29.888117,0.1,39.300262,1615921722000
Fix,GT,37.4530557,-122.2830939,135.45106535449537,29.640842,0.1,39.3179,1615921723000
Fix,GT,37.4528874,-122.2828373,135.9950561179275,29.14698,0.1,39.39685,1615921724000
Fix,GT,37.4527219,-122.2825854,136.48705444886298,28.629381,0.1,39.35956,1615921725000
Fix,GT,37.4525592,-122.2823379,136.9220456285192,28.119284,0.1,39.560577,1615921726000
Fix,GT,37.4523985,-122.2820958,137.30903225052708,27.626364,0.1,39.67206,1615921727000
Fix,GT,37.4522404,-122.281857,137.60903624511306,27.399189,0.1,39.660187,1615921728000
Fix,GT,37.4520817,-122.2816179,137.9010247044093,27.703655,0.1,39.719025,1615921729000
Fix,GT,37.4519209,-122.2813756,138.12202032128212,28.18399,0.099,39.398956,1615921730000
Fix,GT,37.4517579,-122.2811262,138.33202001874798,28.840382,0.1,39.139404,1615921731000
Fix,GT,37.4515927,-122.2808723,138.49501179460702,29.073864,0.1,39.1037,1615921732000
Fix,GT,37.4514278,-122.2806188,138.611010556507,28.797586,0.1,39.19586,1615921733000
Fix,GT,37.4512643,-122.2803685,138.67100005400488,28.477995,0.1,39.278168,1615921734000
Fix,GT,37.4511018,-122.2801195,138.6669917712667,28.574583,0.1,39.136414,1615921735000
Fix,GT,37.4509382,-122.2798672,138.61799258599726,29.00782,0.1,38.958954,1615921736000
Fix,GT,37.4507713,-122.2796106,138.53098158019358,29.573833,0.1,39.369354,1615921737000
Fix,GT,37.4506006,-122.2793508,138.37296960262768,29.970003,0.099,39.487396,1615921738000
Fix,GT,37.4504281,-122.2790883,138.1359741540807,30.241894,0.1,39.387543,1615921739000
Fix,GT,37.4502542,-122.2788232,137.8919531281604,30.49026,0.1,39.58249,1615921740000
Fix,GT,37.4500783,-122.2785582,137.48696029344345,30.41927,0.1,39.946716,1615921741000
Fix,GT,37.4499031,-122.2782956,137.09795522670956,30.159117,0.1,39.861633,1615921742000
Fix,GT,37.4497296,-122.2780354,136.68994171714257,29.88962,0.099,39.857788,1615921743000
Fix,GT,37.4495577,-122.2777765,136.18494685545585,29.852222,0.1,39.57498,1615921744000
Fix,GT,37.4493848,-122.2775146,135.67892888712933,30.484514,0.1,39.555023,1615921745000
Fix,GT,37.4492067,-122.2772458,135.0339211055555,31.268417,0.1,39.826263,1615921746000
Fix,GT,37.4490253,-122.2769749,134.34191485719296,31.272507,0.1,40.096863,1615921747000
Fix,GT,37.4488442,-122.2767047,133.54390571281928,31.196356,0.1,40.054657,1615921748000
Fix,GT,37.4486628,-122.2764354,132.68390594507613,31.239038,0.1,40.447266,1615921749000
Fix,GT,37.4484777,-122.2761663,131.77590538120532,31.610193,0.1,41.113037,1615921750000
Fix,GT,37.4482881,-122.2758957,130.885898746587,32.122993,0.099,41.452667,1615921751000
Fix,GT,37.4480946,-122.2756217,129.95690089071826,32.647533,0.1,41.427277,1615921752000
Fix,GT,37.4478991,-122.275344,128.99789786761278,32.917305,0.1,41.390564,1615921753000
Fix,GT,37.4477027,-122.2750652,128.03189695954376,32.867218,0.1,41.464874,1615921754000
Fix,GT,37.4475071,-122.2747876,127.08090416051752,32.694553,0.1,41.35724,1615921755000
Fix,GT,37.4473131,-122.274511,126.15090189281446,32.51802,0.1,41.29834,1615921756000
Fix,GT,37.4471196,-122.2742354,125.22290886271442,32.474503,0.1,41.3555,1615921757000
Fix,GT,37.4469266,-122.2739605,124.38392559161984,32.340122,0.1,41.329132,1615921758000
Fix,GT,37.4467347,-122.2736867,123.65693539453406,32.17071,0.1,41.2594,1615921759000
Fix,GT,37.4465441,-122.2734142,123.048956059341,31.984018,0.1,41.209534,1615921760000
Fix,GT,37.4463551,-122.2731431,122.59496914326292,31.750294,0.1,41.05008,1615921761000
Fix,GT,37.4461684,-122.2728732,122.29396975716767,31.521784,0.1,40.85089,1615921762000
Fix,GT,37.4459833,-122.2726035,122.0249858423068,31.513659,0.1,40.762268,1615921763000
Fix,GT,37.4457985,-122.2723335,121.86998803271332,31.408367,0.099,40.33197,1615921764000
Fix,GT,37.4456197,-122.272062,121.7609988132602,31.114496,0.1,38.56671,1615921765000
Fix,GT,37.4454492,-122.2717847,121.7140038511539,31.013014,0.1,36.48941,1615921766000
Fix,GT,37.4452875,-122.2715025,121.7410103228808,30.64974,0.1,34.735565,1615921767000
Fix,GT,37.4451345,-122.2712181,121.8570246271132,30.226233,0.1,33.144043,1615921768000
Fix,GT,37.4449898,-122.2709326,122.07103200439106,29.817184,0.1,31.64618,1615921769000
Fix,GT,37.4448527,-122.2706447,122.38602711020025,29.745434,0.1,29.858032,1615921770000
Fix,GT,37.4447232,-122.2703523,122.68103728467112,29.560646,0.1,28.083862,1615921771000
Fix,GT,37.444602,-122.270058,123.0350332596994,29.181988,0.1,26.511047,1615921772000
Fix,GT,37.4444884,-122.2697642,123.37802232470688,28.739952,0.1,25.21994,1615921773000
Fix,GT,37.4443816,-122.2694708,123.6390309485019,28.546303,0.1,23.715118,1615921774000
Fix,GT,37.4442814,-122.2691744,123.94203958953383,28.583914,0.1,22.112549,1615921775000
Fix,GT,37.4441878,-122.2688748,124.36403237374924,28.489107,0.1,20.648743,1615921776000
Fix,GT,37.4441006,-122.2685735,124.6650324964441,28.408468,0.1,19.061646,1615921777000
Fix,GT,37.4440205,-122.2682707,124.99702722546304,28.147581,0.1,17.481812,1615921778000
Fix,GT,37.4439481,-122.267969,125.30503129093545,27.730997,0.1,15.922424,1615921779000
Fix,GT,37.4438834,-122.2676699,125.61003093978044,27.284317,0.1,14.366943,1615921780000
Fix,GT,37.4438257,-122.2673734,125.94302370693094,26.85227,0.1,13.152283,1615921781000
Fix,GT,37.4437735,-122.2670787,126.23102980877616,26.799734,0.1,11.800995,1615921782000
Fix,GT,37.4437269,-122.2667808,126.53602688992352,27.156355,0.1,10.340393,1615921783000
Fix,GT,37.4436851,-122.2664732,126.8420293330588,28.151272,0.1,8.974945,1615921784000
Fix,GT,37.4436486,-122.2661575,127.12402577025192,28.375502,0.1,7.5444336,1615921785000
Fix,GT,37.443618,-122.2658393,127.40001610295349,28.54923,0.1,6.1252136,1615921786000
Fix,GT,37.4435934,-122.2655165,127.60201916231571,28.938564,0.1,4.6074524,1615921787000
Fix,GT,37.4435762,-122.26519,127.78701073576576,29.011454,0.1,2.8702087,1615921788000
Fix,GT,37.4435668,-122.2648649,127.91200212194616,28.718016,0.099,1.1715088,1615921789000
Fix,GT,37.4435646,-122.2645429,127.97299962578536,28.408241,0.1,359.6641,1615921790000
Fix,GT,37.4435693,-122.2642244,127.95399658040498,28.11984,0.1,358.1008,1615921791000
Fix,GT,37.4435799,-122.2639083,127.93199765838024,28.014158,0.1,356.85605,1615921792000
Fix,GT,37.4435972,-122.2635924,127.86899870534832,28.274654,0.1,355.22626,1615921793000
Fix,GT,37.4436215,-122.2632714,127.84897894334996,29.008266,0.1,353.71585,1615921794000
Fix,GT,37.4436525,-122.2629416,127.63597796264524,29.884033,0.1,352.53152,1615921795000
Fix,GT,37.4436894,-122.2626034,127.35697291510796,30.592741,0.1,351.82205,1615921796000
Fix,GT,37.4437284,-122.2622577,127.05197180433778,31.143742,0.099,352.0388,1615921797000
Fix,GT,37.4437671,-122.2619059,126.76598152436492,31.684101,0.1,352.13147,1615921798000
Fix,GT,37.4438056,-122.2615501,126.53698033245148,31.791088,0.1,352.2315,1615921799000
Fix,GT,37.4438444,-122.2611934,126.3279861458386,32.03916,0.1,352.06232,1615921800000
Fix,GT,37.4438843,-122.2608336,126.1299842060219,32.228798,0.1,351.99066,1615921801000
Fix,GT,37.4439232,-122.2604731,125.94197305592463,32.073235,0.1,352.41748,1615921802000
Fix,GT,37.4439603,-122.2601151,125.65496941144194,31.781397,0.1,352.6464,1615921803000
Fix,GT,37.4439952,-122.25976,125.26796241650555,31.516638,0.1,353.30588,1615921804000
Fix,GT,37.4440256,-122.2594057,124.82796334341378,31.445255,0.1,354.5205,1615921805000
Fix,GT,37.4440478,-122.2590507,124.34295413414978,31.333645,0.1,356.79834,1615921806000
Fix,GT,37.444059,-122.2586969,123.77694489371846,31.141785,0.1,358.81702,1615921807000
Fix,GT,37.4440606,-122.2583453,123.12994469042658,30.944315,0.1,0.65267944,1615921808000
Fix,GT,37.4440529,-122.2579946,122.42293556407104,30.977646,0.1,2.6912231,1615921809000
Fix,GT,37.4440349,-122.2576444,121.63592771798788,30.900644,0.099,4.8027954,1615921810000
Fix,GT,37.4440075,-122.2572966,120.78192708857836,30.79928,0.1,6.6732483,1615921811000
Fix,GT,37.4439706,-122.256951,119.8599178668689,30.725979,0.1,8.829498,1615921812000
Fix,GT,37.4439234,-122.256608,118.85191604695083,30.698967,0.1,10.860168,1615921813000
Fix,GT,37.443867,-122.2562674,117.75891021128396,30.666073,0.1,12.845154,1615921814000
Fix,GT,37.4438013,-122.25593,116.61890021200676,30.647114,0.1,14.811096,1615921815000
Fix,GT,37.4437267,-122.2555955,115.3779043669016,30.65409,0.1,16.616089,1615921816000
Fix,GT,37.4436436,-122.2552642,114.12990279662202,30.651024,0.1,18.528717,1615921817000
Fix,GT,37.443551,-122.2549364,112.8869009761205,30.691006,0.099,20.736267,1615921818000
Fix,GT,37.4434491,-122.254613,111.64790481030909,30.690172,0.1,22.488708,1615921819000
Fix,GT,37.4433395,-122.2542939,110.39490519544654,30.633404,0.1,24.413177,1615921820000
Fix,GT,37.4432216,-122.2539802,109.16990717819657,30.566236,0.1,26.263428,1615921821000
Fix,GT,37.4430955,-122.2536724,107.91090758711113,30.48597,0.1,28.410065,1615921822000
Fix,GT,37.4429609,-122.2533715,106.682908672995,30.412931,0.099,30.3396,1615921823000
Fix,GT,37.4428187,-122.253077,105.49591096299233,30.341612,0.1,32.23764,1615921824000
Fix,GT,37.4426691,-122.2527893,104.27890783656268,30.27565,0.1,34.252533,1615921825000
Fix,GT,37.4425116,-122.252509,103.04491121399602,30.216393,0.099,36.33197,1615921826000
Fix,GT,37.4423468,-122.2522366,101.88091506819796,30.148743,0.1,38.24231,1615921827000
Fix,GT,37.4421757,-122.251971,100.71090112345932,30.19941,0.1,39.721924,1615921828000
Fix,GT,37.4419977,-122.2517093,99.37591843539415,30.480501,0.1,41.43094,1615921829000
Fix,GT,37.4418128,-122.2514535,98.22191992911738,30.463087,0.1,43.06128,1615921830000
Fix,GT,37.4416244,-122.2512033,97.11291225190304,30.391891,0.099,43.602264,1615921831000
Fix,GT,37.4414354,-122.2509553,95.92091379359528,30.32078,0.1,43.819427,1615921832000
Fix,GT,37.4412456,-122.2507085,94.6919127980673,30.368608,0.1,44.064484,1615921833000
Fix,GT,37.4410545,-122.2504613,93.47191468876638,30.590536,0.1,44.046204,1615921834000
Fix,GT,37.4408625,-122.250212,92.29991292223684,30.762136,0.1,43.881134,1615921835000
Fix,GT,37.44067,-122.2499614,91.0449116696111,30.791792,0.1,43.91333,1615921836000
Fix,GT,37.4404773,-122.2497102,89.79391830969877,31.009077,0.1,43.80951,1615921837000
Fix,GT,37.4402832,-122.2494574,88.5829156506733,31.052122,0.1,44.003937,1615921838000
Fix,GT,37.4400883,-122.2492058,87.35392063300321,30.99092,0.099,44.182312,1615921839000
Fix,GT,37.4398942,-122.248955,86.21791809686151,30.918581,0.1,43.957733,1615921840000
Fix,GT,37.4397009,-122.2487033,84.9899067159915,30.932722,0.1,43.835938,1615921841000
Fix,GT,37.4395074,-122.2484514,83.61391333790033,30.941217,0.1,44.13504,1615921842000
