MessageType,Provider,LatitudeDegrees,LongitudeDegrees,AltitudeMeters,SpeedMps,AccuracyMeters,BearingDegrees,UnixTimeMillis
Fix,GT,37.4443966,-122.2326972,11.690000198690688,2.48112e-06,0.1,300.73062,1609797015000
Fix,GT,37.4443966,-122.2326972,11.690000059879385,0.0014107052,0.1,300.73068,1609797016000
Fix,GT,37.4443966,-122.2326972,11.689999689715917,0.0022340294,0.1,300.73233,1609797017000
Fix,GT,37.4443966,-122.2326972,11.689999667941592,0.0009975198,0.1,300.73175,1609797018000
Fix,GT,37.4443966,-122.2326972,11.690000340223778,0.0,0.1,300.73172,1609797019000
Fix,GT,37.4443966,-122.2326972,11.690000201412476,0.001,0.1,300.7318,1609797020000
Fix,GT,37.4443966,-122.2326972,11.690000059879385,0.0010030647,0.1,300.7312,1609797021000
Fix,GT,37.4443966,-122.2326972,11.690000155142044,0.0014131868,0.1,300.73196,1609797022000
Fix,GT,37.4443966,-122.2326972,11.690000130645933,0.0014131869,0.1,300.73206,1609797023000
Fix,GT,37.4443966,-122.2326972,11.69000010887161,0.0014142136,0.1,300.7314,1609797024000
Fix,GT,37.4443966,-122.2326972,11.690000084375496,0.0031593973,0.1,300.7313,1609797025000
Fix,GT,37.4443966,-122.2326972,11.689999945564194,0.0014162499,0.1,300.7309,1609797026000
Fix,GT,37.4443966,-122.2326972,11.690000038105063,0.002236068,0.1,300.731,1609797027000
Fix,GT,37.4443966,-122.2326972,11.69000013336772,0.002236068,0.1,300.73138,1609797028000
Fix,GT,37.4443966,-122.2326972,11.690000342945568,0.0014142136,0.1,300.7315,1609797029000
Fix,GT,37.4443966,-122.2326972,11.690000321171246,0.0014142136,0.1,300.73135,1609797030000
Fix,GT,37.4443966,-122.2326972,11.690000179638156,0.0014131878,0.1,300.73148,1609797031000
Fix,GT,37.4443966,-122.2326972,11.690000274900813,0.0014142136,0.1,300.73126,1609797032000
Fix,GT,37.4443966,-122.2326972,11.6900002504047,0.0014142137,0.1,300.73105,1609797033000
Fix,GT,37.4443966,-122.2326972,11.69000022863038,0.0010010254,0.1,300.7312,1609797034000
Fix,GT,37.4443966,-122.2326972,11.690000204134266,0.001,0.1,300.73117,1609797035000
Fix,GT,37.4443966,-122.2326972,11.690000299396925,0.0022330089,0.1,300.7312,1609797036000
Fix,GT,37.4443966,-122.2326972,11.689999695159496,0.001001025,0.1,300.7309,1609797037000
Fix,GT,37.4443966,-122.2326972,11.68900013607787,0.0014142136,0.1,300.73093,1609797038000
Fix,GT,37.4443966,-122.2326972,11.689000111583852,0.001,0.1,300.73074,1609797039000
Fix,GT,37.4443966,-122.2326972,11.688999972784426,0.0014142136,0.1,300.7309,1609797040000
Fix,GT,37.4443966,-122.2326972,11.689000065317378,0.0010010245,0.1,300.73065,1609797041000
Fix,GT,37.4443966,-122.2326972,11.68900004354492,0.0010024732,0.1,300.73102,1609797042000
Fix,GT,37.4443966,-122.2326972,11.688000019049271,0.0031599873,0.1,300.73093,1609797043000
Fix,GT,37.4443966,-122.2326972,11.687999997278675,0.0020024725,0.1,300.73077,1609797044000
Fix,GT,37.444397,-122.2326981,11.67999750064546,0.35642004,0.1,300.74634,1609797045000
Fix,GT,37.4444002,-122.232705,11.678000184891747,1.0292127,0.1,300.83105,1609797046000
Fix,GT,37.4444062,-122.232719,11.694992400009186,1.8040588,0.1,299.42212,1609797047000
Fix,GT,37.4444119,-122.2327426,11.68999002490053,2.406505,0.1,290.08264,1609797048000
Fix,GT,37.444412,-122.2327759,11.707995295060334,3.2308776,0.1,273.08832,1609797049000
Fix,GT,37.4444007,-122.2328168,11.60595338253188,4.1366706,0.1,251.3891,1609797050000
Fix,GT,37.4443773,-122.2328622,11.443972558378242,5.246682,0.1,237.34012,1609797051000
Fix,GT,37.4443419,-122.2329098,11.230923251837492,6.168178,0.1,224.36266,1609797052000
Fix,GT,37.444293,-122.2329536,10.966930548310048,6.991581,0.1,214.06932,1609797053000
Fix,GT,37.4442376,-122.232995,10.622903801590205,7.2172055,0.1,210.37825,1609797054000
Fix,GT,37.4441814,-122.2330384,10.31192601253977,7.446742,0.1,212.11232,1609797055000
Fix,GT,37.444128,-122.2330884,10.081940915786662,7.324006,0.1,218.7489,1609797056000
Fix,GT,37.4440843,-122.2331467,9.921958180900898,6.9470053,0.1,229.34459,1609797057000
Fix,GT,37.4440523,-122.2332105,9.714975444130832,6.513281,0.1,240.25394,1609797058000
Fix,GT,37.4440312,-122.2332768,9.515926060952246,6.2161307,0.1,250.3222,1609797059000
Fix,GT,37.444019,-122.233345,9.241884187769378,6.287111,0.1,259.0394,1609797060000
Fix,GT,37.4440169,-122.2334154,8.908953269288874,6.3195615,0.1,269.9743,1609797061000
Fix,GT,37.4440274,-122.233486,8.674977927696892,6.6884446,0.1,283.00516,1609797062000
Fix,GT,37.4440517,-122.2335596,8.505992626786698,7.5601563,0.1,294.71588,1609797063000
Fix,GT,37.4440853,-122.2336398,8.312948294349946,8.552703,0.1,298.1435,1609797064000
Fix,GT,37.4441258,-122.2337282,8.162943430551328,9.542331,0.1,300.63998,1609797065000
Fix,GT,37.4441728,-122.2338236,7.966948351021389,10.07518,0.1,301.96796,1609797066000
Fix,GT,37.4442211,-122.2339198,7.775953346954892,10.031894,0.1,302.08902,1609797067000
Fix,GT,37.4442687,-122.2340142,7.578972833178938,9.594971,0.1,302.25085,1609797068000
Fix,GT,37.444312,-122.2340992,7.417953174067661,8.086518,0.1,302.6278,1609797069000
Fix,GT,37.4443467,-122.2341671,7.262980425669347,6.1690507,0.1,302.44092,1609797070000
Fix,GT,37.4443716,-122.2342163,7.156977874716744,4.0974917,0.1,302.32236,1609797071000
Fix,GT,37.4443869,-122.2342463,7.09198539865762,2.2620845,0.1,302.3855,1609797072000
Fix,GT,37.4443949,-122.2342621,7.057997425797629,1.0603527,0.099,302.39532,1609797073000
Fix,GT,37.4443973,-122.2342667,7.045994947720319,0.042197023,0.1,302.4083,1609797074000
Fix,GT,37.4443972,-122.2342666,7.04800246680202,0.002236068,0.1,302.41296,1609797075000
Fix,GT,37.444397,-122.2342666,7.058000059159472,0.002236068,0.1,302.41196,1609797076000
Fix,GT,37.444397,-122.2342666,7.058000116675626,0.001,0.1,302.41193,1609797077000
Fix,GT,37.444397,-122.2342666,7.059000172572909,0.0009975374,0.1,302.41165,1609797078000
Fix,GT,37.444397,-122.2342666,7.058999809348024,0.001,0.1,302.4118,1609797079000
Fix,GT,37.444397,-122.2342666,7.058999794556061,0.0010010198,0.1,302.41177,1609797080000
Fix,GT,37.444397,-122.2342666,7.058999922753078,0.0014131939,0.1,302.41147,1609797081000
Fix,GT,37.444397,-122.2342666,7.05899997863383,0.001,0.1,302.4111,1609797082000
Fix,GT,37.444397,-122.2342666,7.059000105187297,0.0009975388,0.1,302.41116,1609797083000
Fix,GT,37.444397,-122.2342666,7.059000092038885,0.0010030419,0.1,302.41165,1609797084000
Fix,GT,37.444397,-122.2342666,7.059000077246922,0.0014107338,0.1,302.4117,1609797085000
Fix,GT,37.444397,-122.2342666,7.059000134771225,0.001,0.1,302.41187,1609797086000
Fix,GT,37.444397,-122.2342666,7.058999840575504,0.001,0.099,302.41168,1609797087000
Fix,GT,37.4443971,-122.2342668,7.052992589518894,0.15646145,0.1,302.41507,1609797088000
Fix,GT,37.4444003,-122.2342733,7.0349951760419644,1.3653814,0.1,302.4612,1609797089000
Fix,GT,37.4444105,-122.2342933,6.984985049640761,2.787018,0.099,302.5307,1609797090000
Fix,GT,37.4444276,-122.234328,6.928019532557577,4.406907,0.099,301.2111,1609797091000
Fix,GT,37.4444461,-122.2343802,6.9800024440034765,5.6306334,0.1,292.19446,1609797092000
Fix,GT,37.4444529,-122.2344497,7.064024696985726,6.4567137,0.1,272.66312,1609797093000
Fix,GT,37.4444373,-122.2345244,7.163024680565112,7.0208244,0.1,249.88101,1609797094000
Fix,GT,37.4443972,-122.2345913,7.1790220627393575,7.604405,0.1,227.92111,1609797095000
Fix,GT,37.4443389,-122.2346465,7.279036861598492,8.596331,0.1,214.51172,1609797096000
Fix,GT,37.4442656,-122.2346995,7.4580686412882065,10.145199,0.1,208.4959,1609797097000
Fix,GT,37.4441794,-122.2347567,7.721063774873037,11.485892,0.1,207.8056,1609797098000
Fix,GT,37.444083,-122.2348211,8.057095845311881,12.7670355,0.1,207.96681,1609797099000
Fix,GT,37.4439764,-122.2348923,8.443137660071718,13.994049,0.1,207.98778,1609797100000
Fix,GT,37.4438601,-122.2349693,8.964083244469483,15.149481,0.1,207.62221,1609797101000
Fix,GT,37.4437349,-122.2350523,9.254081031792795,16.287903,0.1,207.94635,1609797102000
Fix,GT,37.4436014,-122.2351424,9.454041809194257,17.295298,0.1,208.29468,1609797103000
Fix,GT,37.443462,-122.2352374,9.555014875745634,17.930048,0.1,208.46883,1609797104000
Fix,GT,37.4433198,-122.2353347,9.705039502101718,17.889715,0.1,208.4108,1609797105000
Fix,GT,37.4431783,-122.2354304,9.874056175557431,17.870966,0.1,208.11661,1609797106000
Fix,GT,37.4430358,-122.2355261,10.095061252480374,18.011135,0.099,207.862,1609797107000
Fix,GT,37.4428917,-122.2356218,10.354095889140618,18.211025,0.1,207.67868,1609797108000
Fix,GT,37.442746,-122.2357179,10.852156890962272,18.323456,0.1,207.5805,1609797109000
Fix,GT,37.4425995,-122.235814,11.50618417473417,18.38371,0.1,207.34308,1609797110000
Fix,GT,37.4424523,-122.2359092,12.397269515815657,18.374231,0.1,207.05167,1609797111000
Fix,GT,37.442305,-122.2360037,13.528269833001309,18.338161,0.1,207.05974,1609797112000
Fix,GT,37.4421594,-122.2360985,14.60223082143627,18.03933,0.1,207.67044,1609797113000
Fix,GT,37.4420177,-122.2361936,15.517193382724187,17.637571,0.099,208.29053,1609797114000
Fix,GT,37.4418798,-122.2362875,16.34318611378153,17.26626,0.099,208.46431,1609797115000
Fix,GT,37.4417434,-122.2363814,17.14020583400503,17.33469,0.1,208.85745,1609797116000
Fix,GT,37.4416066,-122.2364783,17.894218383763214,17.515482,0.1,209.8501,1609797117000
Fix,GT,37.441471,-122.2365818,18.686206262604333,17.723001,0.1,212.26445,1609797118000
Fix,GT,37.4413383,-122.2366946,19.595198086836373,17.89449,0.099,215.56757,1609797119000
Fix,GT,37.4412117,-122.2368201,20.53721862605773,18.001202,0.1,220.03288,1609797120000
Fix,GT,37.4410918,-122.236958,21.424227316690143,18.130566,0.1,223.91478,1609797121000
Fix,GT,37.4409781,-122.237105,22.464235016070305,18.169752,0.1,227.3529,1609797122000
Fix,GT,37.4408722,-122.2372618,23.45626994005404,18.22352,0.1,231.3571,1609797123000
Fix,GT,37.4407742,-122.2374274,24.50326277397108,18.303556,0.1,234.33134,1609797124000
Fix,GT,37.440681,-122.2375983,25.611285948067906,18.30427,0.1,236.19409,1609797125000
Fix,GT,37.4405911,-122.2377699,26.667219977983976,18.008913,0.1,236.47583,1609797126000
Fix,GT,37.4405011,-122.2379365,27.7002865536178,17.56752,0.1,235.16093,1609797127000
Fix,GT,37.4404101,-122.2380934,28.80921574674803,16.760841,0.1,232.96603,1609797128000
Fix,GT,37.4403184,-122.2382391,29.7452236090675,16.124422,0.1,230.81839,1609797129000
Fix,GT,37.4402266,-122.238378,30.564218652110547,15.866867,0.1,230.14087,1609797130000
Fix,GT,37.4401342,-122.238515,31.368172970536627,15.879697,0.1,229.60512,1609797131000
Fix,GT,37.4400407,-122.2386508,32.14321234772308,15.859894,0.099,228.72618,1609797132000
Fix,GT,37.4399452,-122.238784,32.97619332440151,15.833531,0.1,227.51869,1609797133000
Fix,GT,37.4398477,-122.2389143,33.77215409177495,15.826758,0.1,226.24931,1609797134000
Fix,GT,37.4397473,-122.2390418,34.4641644765113,15.869577,0.1,224.6292,1609797135000
Fix,GT,37.4396443,-122.2391656,35.163221718187906,15.757239,0.099,222.79123,1609797136000
Fix,GT,37.4395385,-122.2392831,36.06623907539901,15.587174,0.1,220.72159,1609797137000
Fix,GT,37.4394315,-122.2393952,36.95024006627687,15.283599,0.1,218.91658,1609797138000
Fix,GT,37.4393249,-122.2395006,37.812199165728174,14.767035,0.1,217.89789,1609797139000
Fix,GT,37.4392217,-122.2395991,38.55717593980791,13.9878645,0.1,216.8278,1609797140000
Fix,GT,37.4391225,-122.2396892,39.23215745708346,13.210487,0.1,215.38847,1609797141000
Fix,GT,37.4390259,-122.2397736,39.80615131431259,13.031665,0.1,214.41145,1609797142000
Fix,GT,37.4389266,-122.239856,40.40414509031224,13.535143,0.1,212.76819,1609797143000
Fix,GT,37.4388197,-122.2399394,41.019145831164906,14.387637,0.1,211.4184,1609797144000
Fix,GT,37.4387045,-122.2400252,41.52808951361268,15.327745,0.1,210.01765,1609797145000
Fix,GT,37.4385793,-122.2401125,41.926126485428775,16.44301,0.1,208.38004,1609797146000
Fix,GT,37.4384437,-122.2402006,42.34108856029389,17.470194,0.1,206.86583,1609797147000
Fix,GT,37.438299,-122.2402898,42.67307944828411,18.183922,0.1,205.66365,1609797148000
Fix,GT,37.438149,-122.2403769,42.96800693724375,18.464804,0.1,204.0365,1609797149000
Fix,GT,37.4379958,-122.2404586,43.13504879338317,18.356451,0.1,202.44269,1609797150000
Fix,GT,37.4378439,-122.2405351,43.24203893919614,17.912657,0.1,201.11946,1609797151000
Fix,GT,37.4376948,-122.2406056,43.36704215341806,17.455347,0.1,200.16473,1609797152000
Fix,GT,37.4375491,-122.2406734,43.37103546861839,17.037102,0.1,200.44724,1609797153000
Fix,GT,37.4374078,-122.2407411,43.60604800837488,16.547619,0.1,201.09145,1609797154000
Fix,GT,37.4372692,-122.2408098,43.87007763381954,16.615528,0.1,201.76863,1609797155000
Fix,GT,37.4371291,-122.2408838,44.22012035521469,17.320398,0.1,203.47821,1609797156000
Fix,GT,37.4369851,-122.2409686,44.682125807929786,17.895277,0.1,206.28503,1609797157000
Fix,GT,37.4368424,-122.241064,45.20713193461975,17.862991,0.1,209.3073,1609797158000
Fix,GT,37.4367086,-122.2411693,45.87517177882371,17.222569,0.1,214.5008,1609797159000
Fix,GT,37.4365892,-122.2412863,46.60016436887952,16.504152,0.1,220.49731,1609797160000
Fix,GT,37.4364843,-122.2414128,47.19113546625152,15.8483925,0.1,225.5986,1609797161000
Fix,GT,37.436392,-122.2415432,47.6711095675081,15.088099,0.1,230.03726,1609797162000
Fix,GT,37.4363081,-122.2416721,48.20714212889551,14.360548,0.1,230.78513,1609797163000
Fix,GT,37.43623,-122.2417958,48.814123001575474,13.596622,0.1,231.8923,1609797164000
Fix,GT,37.4361588,-122.2419154,49.36808926087385,12.856518,0.099,234.00598,1609797165000
Fix,GT,37.4360971,-122.2420296,49.87612570000626,11.41879,0.1,236.77875,1609797166000
Fix,GT,37.4360494,-122.2421312,50.341077842831375,9.481812,0.1,241.16623,1609797167000
Fix,GT,37.4360178,-122.2422168,50.63006411826611,7.241155,0.1,246.84074,1609797168000
Fix,GT,37.4360002,-122.2422828,50.85504493733914,5.3694115,0.099,252.50891,1609797169000
Fix,GT,37.4359896,-122.2423378,51.03403316041827,4.7541146,0.1,256.6467,1609797170000
Fix,GT,37.4359826,-122.2423925,51.21003804608015,5.3179173,0.1,261.39774,1609797171000
Fix,GT,37.4359793,-122.242459,51.36603206253494,6.635441,0.1,267.53897,1609797172000
Fix,GT,37.4359834,-122.2425441,51.57609093747754,8.507109,0.1,275.07062,1609797173000
Fix,GT,37.4359981,-122.2426481,52.01112979067117,10.2840395,0.1,282.20734,1609797174000
Fix,GT,37.4360284,-122.2427675,52.48311559881922,11.90892,0.1,289.8637,1609797175000
Fix,GT,37.4360725,-122.2428995,53.05218643197487,13.480722,0.1,293.8546,1609797176000
Fix,GT,37.4361268,-122.2430457,53.763194676383165,15.080977,0.1,295.14548,1609797177000
Fix,GT,37.4361877,-122.2432073,54.64322484341869,16.5373,0.1,295.13794,1609797178000
Fix,GT,37.4362545,-122.2433823,55.64626311385585,17.748047,0.1,295.73212,1609797179000
Fix,GT,37.436325,-122.2435636,56.68823733403534,17.740492,0.1,295.8934,1609797180000
Fix,GT,37.4363958,-122.2437415,57.73725925802533,17.555262,0.1,296.97687,1609797181000
Fix,GT,37.4364732,-122.2439162,58.81326698481664,17.923405,0.1,300.61273,1609797182000
Fix,GT,37.4365624,-122.2440883,59.87925888483412,18.431105,0.1,304.92123,1609797183000
Fix,GT,37.4366646,-122.2442553,60.996283695394176,18.876513,0.1,309.15567,1609797184000
Fix,GT,37.4367768,-122.2444191,62.17329326241092,19.362429,0.1,311.2819,1609797185000
Fix,GT,37.4368945,-122.2445841,63.39429435936408,19.8113,0.1,312.15976,1609797186000
Fix,GT,37.4370168,-122.2447507,64.54526208757795,20.282564,0.1,312.66022,1609797187000
Fix,GT,37.4371416,-122.2449212,65.5652339239188,20.701488,0.1,312.27,1609797188000
Fix,GT,37.4372686,-122.2450959,66.51321809400386,21.215479,0.1,312.37347,1609797189000
Fix,GT,37.4374005,-122.2452758,67.43123054395103,22.071404,0.1,312.7032,1609797190000
Fix,GT,37.4375394,-122.2454614,68.34523416793812,22.970291,0.1,313.46756,1609797191000
Fix,GT,37.4376856,-122.2456517,69.30225415916416,23.780806,0.1,314.22427,1609797192000
Fix,GT,37.4378377,-122.2458451,70.31924878991208,24.25971,0.099,314.6798,1609797193000
Fix,GT,37.4379928,-122.2460414,71.38922330706613,24.604168,0.1,314.5876,1609797194000
Fix,GT,37.43815,-122.2462388,72.38925615932466,24.803312,0.1,314.96237,1609797195000
Fix,GT,37.4383088,-122.2464379,73.39825843512267,25.043652,0.1,314.94525,1609797196000
Fix,GT,37.4384688,-122.2466395,74.47027138240541,25.285698,0.1,314.65268,1609797197000
Fix,GT,37.4386301,-122.2468437,75.47124522335456,25.595573,0.1,314.61154,1609797198000
Fix,GT,37.438793,-122.2470506,76.51025067331526,25.90817,0.1,314.50497,1609797199000
Fix,GT,37.438958,-122.247261,77.56425305322254,26.301989,0.099,314.34335,1609797200000
Fix,GT,37.4391247,-122.2474751,78.63027227153465,26.689737,0.1,314.12903,1609797201000
Fix,GT,37.4392935,-122.2476929,79.72226795638724,27.053907,0.1,314.01212,1609797202000
Fix,GT,37.4394646,-122.2479135,80.80526695960341,27.413671,0.1,314.1017,1609797203000
Fix,GT,37.4396371,-122.248138,81.90827973471954,27.754354,0.1,313.6239,1609797204000
Fix,GT,37.4398107,-122.2483658,83.02827714527307,28.034033,0.1,313.74136,1609797205000
Fix,GT,37.4399873,-122.248595,84.1532907805145,28.363855,0.1,313.95514,1609797206000
Fix,GT,37.4401655,-122.2488272,85.33528236706462,28.659845,0.1,313.78925,1609797207000
Fix,GT,37.4403448,-122.2490618,86.52127589603887,28.889786,0.1,313.75266,1609797208000
Fix,GT,37.4405261,-122.249298,87.67029584278166,29.07884,0.1,313.8271,1609797209000
Fix,GT,37.4407076,-122.2495344,88.82928858924564,29.031942,0.1,313.97437,1609797210000
Fix,GT,37.4408897,-122.24977,89.9622790855216,29.02907,0.1,314.0807,1609797211000
Fix,GT,37.441072,-122.2500052,91.11128310411796,29.022327,0.1,314.12354,1609797212000
Fix,GT,37.441254,-122.2502408,92.25028956675553,29.01301,0.1,313.8633,1609797213000
Fix,GT,37.441435,-122.2504769,93.45530000437982,28.95646,0.1,313.7598,1609797214000
Fix,GT,37.4416158,-122.250712,94.74133467858005,28.858383,0.1,314.12027,1609797215000
Fix,GT,37.4417962,-122.2509461,96.06432488494715,28.776846,0.1,313.75992,1609797216000
Fix,GT,37.4419746,-122.2511815,97.402315421029,28.69121,0.1,313.29926,1609797217000
Fix,GT,37.44215,-122.2514188,98.64128803655902,28.537508,0.1,312.21295,1609797218000
Fix,GT,37.44232,-122.2516599,99.8142631323759,28.436417,0.1,310.75995,1609797219000
Fix,GT,37.4424837,-122.2519065,100.95127014476851,28.34073,0.1,308.74112,1609797220000
Fix,GT,37.4426402,-122.2521591,102.07327922074867,28.2457,0.1,306.86328,1609797221000
Fix,GT,37.4427893,-122.2524171,103.1832848553043,28.129578,0.1,305.12958,1609797222000
Fix,GT,37.4429318,-122.2526793,104.27327429696288,28.033703,0.1,303.47067,1609797223000
Fix,GT,37.4430682,-122.2529456,105.38126402856597,27.969025,0.1,301.87927,1609797224000
Fix,GT,37.4431979,-122.2532163,106.49326861589496,27.904161,0.1,300.13528,1609797225000
Fix,GT,37.443321,-122.2534911,107.57527295801766,27.856203,0.1,298.55246,1609797226000
Fix,GT,37.4434373,-122.2537694,108.6832657533018,27.744373,0.1,296.77112,1609797227000
Fix,GT,37.4435463,-122.254051,109.79326636573488,27.643904,0.1,294.92966,1609797228000
Fix,GT,37.4436477,-122.2543358,110.88725188758784,27.536154,0.1,293.1974,1609797229000
Fix,GT,37.4437416,-122.2546234,111.95926354657092,27.466002,0.1,291.28845,1609797230000
Fix,GT,37.4438279,-122.254914,113.03125885312096,27.40465,0.1,289.64795,1609797231000
Fix,GT,37.4439083,-122.2552065,114.11026810277626,27.325596,0.1,288.39227,1609797232000
Fix,GT,37.443983,-122.2555004,115.21623626869474,27.273512,0.1,286.88013,1609797233000
Fix,GT,37.4440504,-122.2557965,116.27326380770654,27.185091,0.1,284.8961,1609797234000
Fix,GT,37.4441091,-122.2560939,117.3392442068404,27.04272,0.1,282.89188,1609797235000
Fix,GT,37.4441601,-122.2563922,118.35823929428356,26.932468,0.099,281.43115,1609797236000
Fix,GT,37.4442055,-122.2566908,119.30422926942632,26.850958,0.1,280.13745,1609797237000
Fix,GT,37.4442452,-122.2569898,120.19021218943456,26.808683,0.099,278.61353,1609797238000
Fix,GT,37.4442777,-122.25729,121.02819255880918,26.793879,0.1,276.84573,1609797239000
Fix,GT,37.4443026,-122.2575912,121.82417779664324,26.78979,0.1,274.97482,1609797240000
Fix,GT,37.44432,-122.2578934,122.55915943296672,26.807787,0.1,273.25677,1609797241000
Fix,GT,37.4443303,-122.258196,123.2201604278288,26.778791,0.1,271.5716,1609797242000
Fix,GT,37.4443336,-122.2584984,123.8401516611576,26.752037,0.099,269.8647,1609797243000
Fix,GT,37.444329,-122.258801,124.39611523576174,26.812513,0.1,267.85736,1609797244000
Fix,GT,37.4443165,-122.2591045,124.84208364018426,26.961143,0.1,266.27652,1609797245000
Fix,GT,37.4442983,-122.2594091,125.17206637070376,27.092218,0.099,265.1113,1609797246000
Fix,GT,37.444276,-122.2597147,125.45305285728352,27.22235,0.1,264.30527,1609797247000
Fix,GT,37.4442512,-122.2600217,125.6640515281437,27.42118,0.1,264.0487,1609797248000
Fix,GT,37.4442256,-122.2603319,125.81904415052944,27.744177,0.1,264.07144,1609797249000
Fix,GT,37.4442005,-122.2606458,125.93203291861434,28.092106,0.1,264.2885,1609797250000
Fix,GT,37.4441761,-122.2609637,126.06903152707451,28.4109,0.1,264.3093,1609797251000
Fix,GT,37.4441504,-122.2612838,126.26704826891329,28.512419,0.1,264.10403,1609797252000
Fix,GT,37.4441247,-122.2616051,126.47905391615537,28.631151,0.1,264.29407,1609797253000
Fix,GT,37.4440996,-122.2619279,126.63704541039397,28.78833,0.1,264.38235,1609797254000
Fix,GT,37.4440747,-122.2622527,126.82002691595628,28.947947,0.1,264.42755,1609797255000
Fix,GT,37.4440491,-122.2625791,126.9780170233841,29.11662,0.1,264.1463,1609797256000
Fix,GT,37.4440232,-122.2629076,127.0600385951996,29.309296,0.1,264.38968,1609797257000
Fix,GT,37.4439974,-122.2632384,127.21303469829448,29.513453,0.1,264.1235,1609797258000
Fix,GT,37.44397,-122.2635713,127.33001884858542,29.711212,0.1,264.04617,1609797259000
Fix,GT,37.4439442,-122.2639058,127.4260185788311,29.740192,0.1,264.7893,1609797260000
Fix,GT,37.4439239,-122.2642412,127.46798954723636,29.821186,0.1,266.71942,1609797261000
Fix,GT,37.4439138,-122.2645787,127.42000479971291,30.008545,0.1,268.67224,1609797262000
Fix,GT,37.4439116,-122.2649188,127.35998793861876,30.208143,0.1,270.14185,1609797263000
Fix,GT,37.4439164,-122.2652607,127.2659574251422,30.313225,0.1,271.79236,1609797264000
Fix,GT,37.4439306,-122.2656033,127.0889452505759,30.459505,0.1,273.80835,1609797265000
Fix,GT,37.4439538,-122.2659472,126.84891978284855,30.622765,0.1,275.75946,1609797266000
Fix,GT,37.4439859,-122.2662911,126.55191096187568,30.650192,0.1,277.3957,1609797267000
Fix,GT,37.4440251,-122.266634,126.1729072762048,30.695261,0.1,278.66553,1609797268000
Fix,GT,37.4440707,-122.2669762,125.7618999314774,30.724438,0.1,280.20868,1609797269000
Fix,GT,37.444125,-122.2673167,125.3318887365833,30.752033,0.1,282.23126,1609797270000
Fix,GT,37.4441885,-122.267655,124.88890421927788,30.791142,0.1,284.04446,1609797271000
Fix,GT,37.444261,-122.2679909,124.47089441989364,30.823586,0.1,286.06665,1609797272000
Fix,GT,37.4443427,-122.268324,123.99689531065152,30.889256,0.1,287.81366,1609797273000
Fix,GT,37.4444322,-122.2686546,123.5588891116164,30.916882,0.1,289.59427,1609797274000
Fix,GT,37.4445302,-122.2689816,123.10789368235692,30.897833,0.1,291.48672,1609797275000
Fix,GT,37.4446366,-122.2693038,122.565857411772,30.847622,0.1,293.34067,1609797276000
Fix,GT,37.44475,-122.2696218,122.11990890712478,30.829662,0.099,294.6636,1609797277000
Fix,GT,37.4448701,-122.2699362,121.70693879456444,30.896544,0.1,296.3291,1609797278000
Fix,GT,37.4449978,-122.270247,121.33590972208184,31.021265,0.1,298.0681,1609797279000
Fix,GT,37.4451335,-122.270554,120.93092390323662,31.149536,0.1,299.88327,1609797280000
Fix,GT,37.4452779,-122.2708564,120.63694176193466,31.23717,0.1,301.76785,1609797281000
Fix,GT,37.4454297,-122.2711537,120.4539751970379,31.244776,0.1,303.3673,1609797282000
Fix,GT,37.4455885,-122.2714441,120.31997139224876,31.107403,0.1,305.25186,1609797283000
Fix,GT,37.4457535,-122.2717271,120.30900844661146,30.970188,0.1,306.9982,1609797284000
Fix,GT,37.4459247,-122.2720025,120.4160455092378,30.85698,0.099,308.55356,1609797285000
Fix,GT,37.4461008,-122.2722713,120.66507173117948,30.735922,0.1,310.19675,1609797286000
Fix,GT,37.4462817,-122.272533,120.96608952512685,30.565002,0.1,311.3586,1609797287000
Fix,GT,37.4464632,-122.272791,121.37210612664558,30.338509,0.1,311.1711,1609797288000
Fix,GT,37.4466425,-122.273048,121.78809988462412,30.065746,0.099,311.05396,1609797289000
Fix,GT,37.4468198,-122.2733022,122.26112612779087,29.702715,0.1,311.1707,1609797290000
Fix,GT,37.4469945,-122.273552,122.80914390972164,29.063084,0.1,310.96674,1609797291000
Fix,GT,37.4471647,-122.2737963,123.38714359471015,28.376394,0.099,311.26517,1609797292000
Fix,GT,37.4473318,-122.2740342,124.04216144172032,27.729431,0.1,311.28152,1609797293000
Fix,GT,37.447495,-122.2742667,124.74718771096504,27.078691,0.1,311.36194,1609797294000
Fix,GT,37.4476542,-122.2744934,125.49517767234704,26.377464,0.099,311.13162,1609797295000
Fix,GT,37.4478091,-122.2747142,126.21917019642424,25.719664,0.1,311.34515,1609797296000
Fix,GT,37.4479608,-122.2749301,126.93818571378384,25.23658,0.1,311.2208,1609797297000
Fix,GT,37.4481098,-122.2751428,127.67316484906804,24.932796,0.099,311.26227,1609797298000
Fix,GT,37.4482582,-122.2753531,128.40018266075734,24.81316,0.1,311.551,1609797299000
Fix,GT,37.4484071,-122.2755626,129.11517663407977,24.836641,0.1,311.61572,1609797300000
Fix,GT,37.448555,-122.275773,129.80116531166644,24.818949,0.1,311.1234,1609797301000
Fix,GT,37.4487022,-122.2759848,130.52017506190393,24.943249,0.1,310.82108,1609797302000
Fix,GT,37.4488502,-122.2761989,131.2401756983004,25.196505,0.1,310.83356,1609797303000
Fix,GT,37.4489994,-122.2764155,131.97717323476448,25.452646,0.1,310.538,1609797304000
Fix,GT,37.4491491,-122.2766353,132.68317322794252,25.69872,0.1,310.32037,1609797305000
Fix,GT,37.4492996,-122.2768576,133.37616708242894,25.933748,0.1,310.24738,1609797306000
Fix,GT,37.4494519,-122.2770822,134.0351580739722,26.21874,0.1,310.23334,1609797307000
Fix,GT,37.4496045,-122.2773083,134.65312636280524,26.204212,0.1,310.00125,1609797308000
Fix,GT,37.4497564,-122.2775361,135.140121565636,26.396042,0.1,309.58566,1609797309000
Fix,GT,37.4499087,-122.2777669,135.6290946688349,26.618542,0.099,309.5359,1609797310000
Fix,GT,37.4500622,-122.2779995,136.0781080369146,26.782736,0.1,309.4598,1609797311000
Fix,GT,37.4502154,-122.2782329,136.48210225037462,26.747604,0.1,309.40738,1609797312000
Fix,GT,37.4503686,-122.2784657,136.94020819928542,26.654676,0.1,309.41895,1609797313000
Fix,GT,37.4505219,-122.2786976,137.29008087229636,26.671684,0.1,309.6378,1609797314000
Fix,GT,37.4506757,-122.2789295,137.57606077581644,26.692774,0.1,309.63718,1609797315000
Fix,GT,37.4508294,-122.279162,137.75203724424168,26.744896,0.1,309.51346,1609797316000
Fix,GT,37.4509833,-122.2793953,137.86701953012027,26.853582,0.1,309.48102,1609797317000
Fix,GT,37.4511376,-122.2796298,137.90100800824888,26.962727,0.1,309.32178,1609797318000
Fix,GT,37.4512923,-122.2798653,137.93601425576654,27.041702,0.1,309.34277,1609797319000
Fix,GT,37.4514473,-122.280102,137.95299312254065,27.157194,0.1,309.24753,1609797320000
Fix,GT,37.451603,-122.2803396,137.91999185298988,27.307247,0.1,309.34164,1609797321000
Fix,GT,37.45176,-122.2805787,137.8329505612063,27.544317,0.099,309.39627,1609797322000
Fix,GT,37.4519191,-122.2808201,137.69295684352008,27.861956,0.1,309.46893,1609797323000
Fix,GT,37.4520797,-122.2810645,137.4999521325261,28.193443,0.1,309.30774,1609797324000
Fix,GT,37.4522413,-122.2813114,137.23190333207512,28.29173,0.1,309.25604,1609797325000
Fix,GT,37.4524029,-122.2815583,136.92890002799945,28.24059,0.1,309.3393,1609797326000
Fix,GT,37.4525645,-122.2818042,136.53991923647698,28.162338,0.1,309.4061,1609797327000
Fix,GT,37.4527256,-122.2820501,136.13589239413804,28.150331,0.1,309.27722,1609797328000
Fix,GT,37.4528863,-122.2822957,135.67587705778098,28.023048,0.1,309.2713,1609797329000
Fix,GT,37.4530462,-122.2825397,135.15887995393436,27.92158,0.1,309.3375,1609797330000
Fix,GT,37.453206,-122.2827833,134.60587284696103,27.921543,0.1,309.3948,1609797331000
Fix,GT,37.4533666,-122.2830264,133.98284603485394,27.968405,0.1,309.78503,1609797332000
Fix,GT,37.4535285,-122.2832695,133.3658532305062,28.100727,0.1,309.6423,1609797333000
Fix,GT,37.4536908,-122.2835146,132.73185565129015,28.273977,0.1,309.53995,1609797334000
Fix,GT,37.4538534,-122.2837618,132.1248466850142,28.463614,0.1,309.36517,1609797335000
Fix,GT,37.4540169,-122.2840113,131.50386558422818,28.68241,0.1,309.28528,1609797336000
Fix,GT,37.4541812,-122.2842631,130.8608381860517,28.898422,0.1,309.22418,1609797337000
Fix,GT,37.4543464,-122.2845166,130.231848405357,29.011532,0.1,309.1169,1609797338000
Fix,GT,37.4545117,-122.2847705,129.60285317128057,28.998882,0.1,309.29013,1609797339000
Fix,GT,37.4546777,-122.2850236,128.9538419300029,29.020004,0.1,309.33344,1609797340000
Fix,GT,37.4548439,-122.2852769,128.32783121193108,29.012531,0.1,309.47797,1609797341000
Fix,GT,37.4550108,-122.285529,127.66884660133998,28.997032,0.1,309.64453,1609797342000
Fix,GT,37.4551776,-122.2857815,127.0228295271285,29.020086,0.1,309.52457,1609797343000
Fix,GT,37.4553443,-122.2860343,126.35282706984876,29.051977,0.1,309.33557,1609797344000
Fix,GT,37.4555104,-122.2862884,125.690823102165,29.053896,0.1,309.19598,1609797345000
Fix,GT,37.4556762,-122.2865415,124.96280991425364,28.906116,0.1,309.49463,1609797346000
Fix,GT,37.4558426,-122.2867915,124.19582999875094,28.785543,0.1,309.85687,1609797347000
Fix,GT,37.4560093,-122.2870405,123.4968429048378,28.781559,0.1,310.1035,1609797348000
Fix,GT,37.4561799,-122.2872856,122.97689764834104,28.785872,0.1,312.12622,1609797349000
Fix,GT,37.4563581,-122.2875218,122.56792721965932,28.794207,0.099,314.23236,1609797350000
Fix,GT,37.4565424,-122.2877506,122.28196283769236,28.793362,0.1,316.2022,1609797351000
Fix,GT,37.4567329,-122.2879712,122.11498173573216,28.771374,0.1,318.15503,1609797352000
Fix,GT,37.4569289,-122.2881833,122.05700542661128,28.719189,0.1,320.01187,1609797353000
Fix,GT,37.4571298,-122.2883871,122.10803856698612,28.635778,0.1,321.68546,1609797354000
Fix,GT,37.4573341,-122.2885836,122.3060526122472,28.529373,0.1,323.09302,1609797355000
Fix,GT,37.457542,-122.2887718,122.61909660027877,28.400307,0.1,325.09357,1609797356000
Fix,GT,37.4577546,-122.2889493,123.06210700561292,28.332151,0.1,327.2868,1609797357000
Fix,GT,37.4579717,-122.2891174,123.56112353266404,28.345642,0.1,328.89294,1609797358000
Fix,GT,37.4581926,-122.2892782,124.13913890592008,28.353458,0.1,330.69308,1609797359000
Fix,GT,37.4584177,-122.2894298,124.69112768983187,28.382805,0.1,332.57495,1609797360000
Fix,GT,37.4586465,-122.289573,125.29713595557166,28.397299,0.1,334.3807,1609797361000
Fix,GT,37.4588787,-122.2897058,125.91214899206696,28.257812,0.1,336.17975,1609797362000
Fix,GT,37.4591131,-122.2898298,126.48116996353144,28.256712,0.1,337.96512,1609797363000
Fix,GT,37.4593508,-122.2899443,127.0521258299649,28.291126,0.1,339.76614,1609797364000
Fix,GT,37.4595916,-122.2900503,127.55615386261512,28.391817,0.1,341.34512,1609797365000
Fix,GT,37.4598355,-122.2901484,128.15712280384358,28.502176,0.1,342.94043,1609797366000
Fix,GT,37.4600827,-122.2902372,128.76513700262595,28.567738,0.1,344.7977,1609797367000
Fix,GT,37.4603328,-122.2903141,129.384129428667,28.624548,0.1,347.6891,1609797368000
Fix,GT,37.4605857,-122.290378,130.01013437112792,28.660791,0.1,349.39603,1609797369000
Fix,GT,37.4608393,-122.290432,130.5781157147158,28.417526,0.1,351.35208,1609797370000
Fix,GT,37.4610916,-122.2904742,131.136117000452,28.097147,0.1,353.17453,1609797371000
Fix,GT,37.4613423,-122.290505,131.67713186417564,27.911125,0.1,355.58896,1609797372000
Fix,GT,37.4615938,-122.2905215,132.24215854395646,27.98255,0.1,358.1104,1609797373000
Fix,GT,37.4618455,-122.2905284,132.95516626859202,27.884325,0.1,358.93964,1609797374000
Fix,GT,37.4620961,-122.2905339,133.68815198491097,27.766642,0.1,358.71295,1609797375000
Fix,GT,37.4623459,-122.2905408,134.26413106822224,27.687078,0.1,358.73505,1609797376000
Fix,GT,37.4625949,-122.2905468,134.80912294558527,27.60118,0.1,358.79248,1609797377000
Fix,GT,37.4628434,-122.2905531,135.35314006368233,27.568495,0.1,358.7259,1609797378000
Fix,GT,37.4630915,-122.2905599,135.91916286396818,27.505281,0.1,358.58545,1609797379000
Fix,GT,37.4633385,-122.2905678,136.54217008670514,27.320862,0.1,358.2534,1609797380000
Fix,GT,37.4635823,-122.2905779,137.288196657066,26.77514,0.1,357.8698,1609797381000
Fix,GT,37.4638207,-122.2905898,138.0671885982754,26.21746,0.1,357.62622,1609797382000
Fix,GT,37.4640552,-122.2906023,138.73512658038385,25.9053,0.1,357.41553,1609797383000
Fix,GT,37.4642874,-122.2906174,139.136079375179,25.710566,0.1,356.3824,1609797384000
Fix,GT,37.4645183,-122.290639,139.48608899416774,25.675854,0.1,355.02716,1609797385000
Fix,GT,37.4647486,-122.2906674,139.827067756922,25.683434,0.1,353.74704,1609797386000
Fix,GT,37.464978,-122.2907027,140.1300538137383,25.574028,0.1,352.27658,1609797387000
Fix,GT,37.4652051,-122.2907443,140.39907201933582,25.37465,0.1,351.13394,1609797388000
Fix,GT,37.4654297,-122.2907906,140.64808419588672,25.092772,0.1,350.30048,1609797389000
Fix,GT,37.4656506,-122.2908385,140.8311039280286,24.65411,0.099,350.21426,1609797390000
Fix,GT,37.4658674,-122.2908847,141.13505324791882,24.162594,0.1,350.59787,1609797391000
Fix,GT,37.46608,-122.2909278,141.40306680926494,23.67745,0.099,350.9233,1609797392000
Fix,GT,37.4662885,-122.2909694,141.70006221214774,23.186813,0.1,350.7918,1609797393000
Fix,GT,37.4664923,-122.2910131,141.97605536868215,22.690403,0.099,349.7054,1609797394000
Fix,GT,37.4666909,-122.2910617,142.27905641167004,22.225567,0.1,348.32834,1609797395000
Fix,GT,37.4668848,-122.2911154,142.38499115363692,21.8488,0.1,346.74835,1609797396000
Fix,GT,37.4670745,-122.2911747,142.25794432904362,21.561762,0.1,345.56802,1609797397000
Fix,GT,37.4672614,-122.2912369,141.96591134934104,21.36788,0.1,344.7803,1609797398000
Fix,GT,37.4674463,-122.2913016,141.41985126593707,21.203327,0.1,344.2079,1609797399000
Fix,GT,37.4676272,-122.291367,140.88089286196256,20.492594,0.099,343.51782,1609797400000
Fix,GT,37.4677995,-122.2914351,140.227823247283,19.566013,0.1,341.32034,1609797401000
Fix,GT,37.4679599,-122.2915069,139.38678091840447,18.197975,0.099,339.7803,1609797402000
Fix,GT,37.4681067,-122.2915748,138.51578819159627,16.523848,0.1,339.91037,1609797403000
Fix,GT,37.4682403,-122.2916342,137.65379072062416,14.921238,0.1,340.76736,1609797404000
Fix,GT,37.4683593,-122.2916846,136.8658290911268,12.862011,0.099,341.5696,1609797405000
Fix,GT,37.4684595,-122.2917251,136.2989050793336,10.490914,0.1,342.28635,1609797406000
Fix,GT,37.4685393,-122.2917569,135.9539444878546,8.029967,0.1,341.87537,1609797407000
Fix,GT,37.4685968,-122.2917821,135.77897711295122,5.5335655,0.1,340.40247,1609797408000
Fix,GT,37.468634,-122.2918004,135.68698637628998,3.5130844,0.1,338.16855,1609797409000
Fix,GT,37.4686568,-122.2918134,135.65199055158857,2.0081906,0.099,336.0677,1609797410000
Fix,GT,37.4686691,-122.291821,135.61899437369408,1.2013009,0.1,334.9117,1609797411000
Fix,GT,37.4686763,-122.2918256,135.6009961778149,0.53572154,0.1,334.1905,1609797412000
Fix,GT,37.4686776,-122.2918265,135.5909993389249,0.0072040684,0.1,334.07068,1609797413000
Fix,GT,37.4686776,-122.2918265,135.5880035041636,0.0029962428,0.1,334.06757,1609797414000
Fix,GT,37.4686776,-122.2918265,135.586997853321,0.0014132322,0.1,334.06473,1609797415000
Fix,GT,37.4686776,-122.2918265,135.58700028411928,0.0010009812,0.1,334.0647,1609797416000
Fix,GT,37.4686776,-122.2918264,135.58699602233014,2.3685402e-06,0.1,334.06436,1609797417000
Fix,GT,37.4686776,-122.2918264,135.58800217885567,0.0009976318,0.1,334.06393,1609797418000
Fix,GT,37.4686776,-122.2918264,135.58800126243963,0.000997632,0.1,334.06485,1609797419000
Fix,GT,37.4686776,-122.2918264,135.5869966221375,0.0009999999,0.1,334.06503,1609797420000
Fix,GT,37.4686776,-122.2918264,135.58700176785325,0.0010009807,0.1,334.06485,1609797421000
Fix,GT,37.4686777,-122.2918264,135.5849961486622,0.001,0.1,334.0644,1609797422000
Fix,GT,37.4686777,-122.2918264,135.5849989273921,0.0009976331,0.1,334.06494,1609797423000
Fix,GT,37.4686777,-122.2918264,135.58399700102956,0.001,0.1,334.06522,1609797424000
Fix,GT,37.4686777,-122.2918264,135.5830008207648,0.001,0.1,334.0654,1609797425000
Fix,GT,37.4686777,-122.2918264,135.58199788496785,0.001,0.1,334.06503,1609797426000
Fix,GT,37.4686777,-122.2918264,135.58200066464394,0.0014132336,0.1,334.0651,1609797427000
Fix,GT,37.4686777,-122.2918264,135.58100148366833,0.0010009799,0.1,334.06552,1609797428000
Fix,GT,37.4686783,-122.2918268,135.5730015488081,0.35537198,0.1,333.99484,1609797429000
Fix,GT,37.4686855,-122.2918316,135.55999388325844,1.4631017,0.1,333.20972,1609797430000
Fix,GT,37.4687019,-122.2918435,135.53500107490038,2.8619614,0.1,331.09155,1609797431000
Fix,GT,37.4687298,-122.2918669,135.5390227930436,4.474531,0.1,325.99835,1609797432000
Fix,GT,37.4687634,-122.2919061,135.61612624467725,5.6113324,0.1,315.17892,1609797433000
Fix,GT,37.4687896,-122.2919654,135.82702603540525,6.16705,0.1,294.222,1609797434000
Fix,GT,37.4687942,-122.292039,135.96800890610834,6.7335696,0.1,269.0197,1609797435000
Fix,GT,37.4687743,-122.2921186,135.99000901048353,7.8667145,0.1,247.91266,1609797436000
Fix,GT,37.4687316,-122.2921972,136.02101044651494,8.889877,0.1,232.13824,1609797437000
Fix,GT,37.4686733,-122.2922763,136.0400034144232,10.153683,0.1,225.80518,1609797438000
Fix,GT,37.4686036,-122.2923618,136.02899034682056,11.262247,0.1,224.09221,1609797439000
Fix,GT,37.4685305,-122.2924508,135.94096916336568,11.290949,0.1,223.99684,1609797440000
Fix,GT,37.4684583,-122.2925396,135.76393684944745,11.159975,0.1,224.50775,1609797441000
Fix,GT,37.468389,-122.29263,135.5129281963343,11.05619,0.1,227.38446,1609797442000
Fix,GT,37.4683246,-122.2927251,135.1699225432386,11.050642,0.1,230.22455,1609797443000
Fix,GT,37.4682608,-122.2928216,134.78287952261206,11.105083,0.1,229.92,1609797444000
Fix,GT,37.4681929,-122.2929149,134.31089172424748,11.235761,0.1,226.17087,1609797445000
Fix,GT,37.4681199,-122.2930045,133.7788739008978,11.353689,0.1,223.4983,1609797446000
Fix,GT,37.4680498,-122.2930905,133.15483406037978,10.285335,0.1,225.63782,1609797447000
Fix,GT,37.4679959,-122.2931759,132.5358627243191,9.16622,0.1,235.31573,1609797448000
Fix,GT,37.467963,-122.2932671,131.85278435700155,8.983937,0.1,250.23419,1609797449000
Fix,GT,37.4679593,-122.2933687,131.01589662216324,9.353819,0.1,275.89667,1609797450000
Fix,GT,37.467994,-122.2934628,130.68396457872237,9.429832,0.1,302.69595,1609797451000
Fix,GT,37.468054,-122.2935454,130.66502721151454,10.7157135,0.1,314.22015,1609797452000
Fix,GT,37.4681292,-122.2936345,130.74303489569576,12.246775,0.1,317.3859,1609797453000
Fix,GT,37.4682161,-122.2937328,130.85000139639806,13.717988,0.1,317.98138,1609797454000
Fix,GT,37.4683131,-122.2938401,131.12209335546197,14.811175,0.1,318.56256,1609797455000
Fix,GT,37.4684147,-122.2939505,131.59412353545426,14.948845,0.099,319.19772,1609797456000
Fix,GT,37.4685173,-122.2940583,132.19014974110829,14.651991,0.1,320.28253,1609797457000
Fix,GT,37.4686185,-122.2941585,132.8431615410354,13.943443,0.1,322.54453,1609797458000
Fix,GT,37.4687207,-122.2942397,133.61220213157543,13.031208,0.1,332.3266,1609797459000
Fix,GT,37.4688273,-122.2942829,134.45319683716446,12.036722,0.099,348.22852,1609797460000
Fix,GT,37.4689306,-122.2942869,135.30018071731556,11.220863,0.1,3.5738525,1609797461000
Fix,GT,37.469028,-122.2942595,136.06116836628016,11.181007,0.1,17.562317,1609797462000
Fix,GT,37.469117,-122.2942026,136.78316980542476,11.190159,0.1,31.73285,1609797463000
Fix,GT,37.4691928,-122.2941199,137.47316486511755,11.28623,0.1,45.920532,1609797464000
Fix,GT,37.4692508,-122.2940149,138.13615206502283,11.502627,0.099,60.36148,1609797465000
Fix,GT,37.4692866,-122.2938928,138.81315494388667,11.748681,0.1,74.33594,1609797466000
Fix,GT,37.4692985,-122.2937605,139.5001656068098,11.979425,0.099,88.829315,1609797467000
Fix,GT,37.4692837,-122.2936261,140.23716480755365,12.260989,0.1,103.227875,1609797468000
Fix,GT,37.4692399,-122.2934976,140.91715938327926,12.730617,0.1,118.93671,1609797469000
Fix,GT,37.4691673,-122.2933824,141.5211214079447,13.573213,0.1,133.27026,1609797470000
Fix,GT,37.4690743,-122.2932735,141.9921080172907,14.733476,0.1,138.21014,1609797471000
Fix,GT,37.4689696,-122.2931604,142.43910542703605,15.985164,0.1,139.73181,1609797472000
Fix,GT,37.4688541,-122.29304,142.85009342091368,17.334719,0.1,140.4841,1609797473000
Fix,GT,37.4687272,-122.2929135,143.1310074726583,18.693369,0.1,142.45917,1609797474000
Fix,GT,37.4685863,-122.2927835,143.0469700313816,20.140736,0.1,144.53143,1609797475000
Fix,GT,37.468431,-122.2926509,142.90296697065978,21.534126,0.1,146.6416,1609797476000
Fix,GT,37.4682625,-122.2925199,142.7339427084611,22.552994,0.1,149.57294,1609797477000
Fix,GT,37.4680806,-122.2923939,142.52695049873412,23.63562,0.1,152.16187,1609797478000
Fix,GT,37.4678856,-122.2922709,142.27996246738172,24.820175,0.1,154.05841,1609797479000
Fix,GT,37.4676788,-122.2921491,142.08891235992266,25.864315,0.1,155.51044,1609797480000
Fix,GT,37.4674621,-122.2920299,141.86592107397132,26.575329,0.1,157.17065,1609797481000
Fix,GT,37.4672376,-122.2919176,141.5399274204997,27.073765,0.1,159.0929,1609797482000
Fix,GT,37.4670071,-122.2918119,141.31395071034737,27.400377,0.1,160.3335,1609797483000
Fix,GT,37.4667731,-122.2917094,141.06294058967475,27.602655,0.1,160.96216,1609797484000
Fix,GT,37.4665368,-122.29161,140.78593002526975,27.710932,0.099,161.80823,1609797485000
Fix,GT,37.4662984,-122.2915158,140.505929266504,27.804483,0.1,163.22247,1609797486000
Fix,GT,37.466057,-122.2914305,140.2189308755081,27.872604,0.1,165.1181,1609797487000
Fix,GT,37.4658133,-122.2913541,139.97494429352017,27.90745,0.1,166.87201,1609797488000
Fix,GT,37.4655673,-122.2912884,139.6909271774497,27.937973,0.1,168.99146,1609797489000
Fix,GT,37.4653193,-122.291233,139.41693956066854,28.051493,0.1,170.64557,1609797490000
Fix,GT,37.4650686,-122.2911841,139.0699586451808,28.265297,0.1,171.46893,1609797491000
Fix,GT,37.4648156,-122.2911399,138.81092869177766,28.411375,0.1,172.81476,1609797492000
Fix,GT,37.4645607,-122.2911055,138.4549102488123,28.518826,0.1,174.52167,1609797493000
Fix,GT,37.4643044,-122.2910795,138.07389533399794,28.605726,0.1,176.05365,1609797494000
Fix,GT,37.4640467,-122.2910608,137.68091777227704,28.672167,0.099,177.05518,1609797495000
Fix,GT,37.4637885,-122.2910471,137.34991696176584,28.69972,0.1,178.01251,1609797496000
Fix,GT,37.4635298,-122.2910369,136.94589894156996,28.774664,0.1,178.24164,1609797497000
Fix,GT,37.4632704,-122.2910274,136.44187694923954,28.831244,0.1,178.27014,1609797498000
Fix,GT,37.4630106,-122.2910175,135.92586662375834,28.831879,0.099,178.20111,1609797499000
Fix,GT,37.4627513,-122.2910083,135.3658680826393,28.748577,0.1,178.47424,1609797500000
Fix,GT,37.4624931,-122.2910009,134.91091781255764,28.571432,0.099,178.76807,1609797501000
Fix,GT,37.4622365,-122.2909936,134.60594404827384,28.395544,0.1,178.5788,1609797502000
Fix,GT,37.4619816,-122.2909843,134.3609515236332,28.211632,0.099,178.04712,1609797503000
Fix,GT,37.4617283,-122.2909716,134.0939154391212,28.049566,0.1,177.39642,1609797504000
Fix,GT,37.4614766,-122.2909526,133.6668770407885,27.936714,0.099,175.6549,1609797505000
Fix,GT,37.461226,-122.2909236,133.12286040848028,27.894194,0.099,173.84491,1609797506000
Fix,GT,37.4609766,-122.2908851,132.54586445137625,27.8804,0.1,172.1037,1609797507000
Fix,GT,37.4607279,-122.290837,131.95287566258295,27.988457,0.1,170.38184,1609797508000
Fix,GT,37.4604791,-122.2907799,131.379865284133,28.128868,0.1,168.86804,1609797509000
Fix,GT,37.4602305,-122.2907129,130.821869513161,28.29572,0.1,166.91632,1609797510000
Fix,GT,37.4599822,-122.2906355,130.29582217759173,28.486292,0.1,165.11243,1609797511000
Fix,GT,37.4597342,-122.2905479,129.66387035123256,28.696424,0.1,163.4065,1609797512000
Fix,GT,37.4594867,-122.2904501,129.1038475581892,28.891607,0.1,161.75403,1609797513000
Fix,GT,37.4592399,-122.2903426,128.54988485762573,29.080093,0.1,159.93445,1609797514000
Fix,GT,37.4589949,-122.290224,128.01386397303153,29.192413,0.1,157.89716,1609797515000
Fix,GT,37.4587519,-122.2900957,127.43385656449408,29.311983,0.1,156.4367,1609797516000
Fix,GT,37.4585109,-122.2899586,126.812846811492,29.400978,0.1,154.62128,1609797517000
Fix,GT,37.4582732,-122.289811,126.20188207493094,29.458817,0.1,152.87036,1609797518000
Fix,GT,37.4580387,-122.2896546,125.61586642650516,29.497744,0.1,151.11359,1609797519000
Fix,GT,37.4578079,-122.2894887,125.06187696995678,29.536493,0.1,149.3013,1609797520000
Fix,GT,37.457581,-122.2893136,124.57089066813772,29.56228,0.1,147.49289,1609797521000
Fix,GT,37.4573588,-122.289129,124.13490946935606,29.572588,0.1,145.36102,1609797522000
Fix,GT,37.4571424,-122.2889342,123.87294423609929,29.52152,0.1,143.32333,1609797523000
Fix,GT,37.4569314,-122.2887312,123.6559651003366,29.48254,0.1,141.68738,1609797524000
Fix,GT,37.4567256,-122.2885213,123.54499195411336,29.382143,0.1,140.0004,1609797525000
Fix,GT,37.4565264,-122.2883033,123.52401146761888,29.26045,0.1,138.14294,1609797526000
Fix,GT,37.4563334,-122.2880795,123.6740614907141,29.052864,0.1,136.29248,1609797527000
Fix,GT,37.4561474,-122.2878497,123.91706237713711,28.867958,0.099,134.64557,1609797528000
Fix,GT,37.4559673,-122.287616,124.2640879149032,28.66945,0.1,133.25427,1609797529000
Fix,GT,37.4557943,-122.2873768,124.69309855152854,28.454044,0.1,131.14362,1609797530000
Fix,GT,37.455629,-122.2871321,125.06706903371588,28.328424,0.1,129.63641,1609797531000
Fix,GT,37.455467,-122.2868845,125.28905947248778,28.359928,0.1,129.25098,1609797532000
Fix,GT,37.4553044,-122.2866367,125.60308950728316,28.434917,0.1,129.46756,1609797533000
Fix,GT,37.455141,-122.2863889,126.07213275094702,28.461924,0.1,129.54913,1609797534000
Fix,GT,37.454978,-122.2861409,126.69715210573304,28.43079,0.1,129.37347,1609797535000
Fix,GT,37.4548154,-122.2858928,127.3171569395468,28.383444,0.1,129.3982,1609797536000
Fix,GT,37.4546529,-122.2856455,127.95114821012992,28.3253,0.1,129.37457,1609797537000
Fix,GT,37.4544909,-122.2853984,128.55316007535345,28.277178,0.1,129.3125,1609797538000
Fix,GT,37.4543295,-122.2851515,129.16913498833893,28.234478,0.1,129.41394,1609797539000
Fix,GT,37.4541675,-122.2849061,129.8191082301121,28.152159,0.1,129.62292,1609797540000
Fix,GT,37.4540059,-122.2846613,130.40113810813986,28.073454,0.1,129.49524,1609797541000
Fix,GT,37.453845,-122.284417,130.9961409823201,28.014288,0.1,129.52216,1609797542000
Fix,GT,37.4536845,-122.2841731,131.62014025611035,27.960522,0.1,129.40634,1609797543000
Fix,GT,37.4535245,-122.2839294,132.2491477387773,27.905445,0.1,129.33545,1609797544000
Fix,GT,37.4533652,-122.2836857,132.907150836366,27.851969,0.099,129.25238,1609797545000
Fix,GT,37.4532063,-122.2834426,133.47312088639197,27.80787,0.1,129.31702,1609797546000
Fix,GT,37.4530475,-122.2832,134.05113565985974,27.746803,0.1,129.34473,1609797547000
Fix,GT,37.4528882,-122.2829581,134.57011208890097,27.76224,0.1,129.54272,1609797548000
Fix,GT,37.4527286,-122.2827164,135.0421128701053,27.793482,0.099,129.56213,1609797549000
Fix,GT,37.4525689,-122.282474,135.47810166057943,27.842794,0.1,129.48059,1609797550000
Fix,GT,37.4524089,-122.2822312,135.89909638526197,27.895777,0.1,129.45105,1609797551000
Fix,GT,37.4522487,-122.2819876,136.24006309933773,28.006409,0.1,129.34991,1609797552000
Fix,GT,37.4520885,-122.2817424,136.556070859666,28.078136,0.1,129.22913,1609797553000
Fix,GT,37.4519278,-122.2814968,136.7990587474371,28.176083,0.1,129.33221,1609797554000
Fix,GT,37.4517661,-122.2812505,137.01203808222968,28.299088,0.1,129.4253,1609797555000
Fix,GT,37.4516035,-122.2810032,137.19903960893862,28.431908,0.1,129.41306,1609797556000
Fix,GT,37.4514403,-122.2807546,137.32302868212622,28.541344,0.1,129.36856,1609797557000
Fix,GT,37.451277,-122.2805057,137.40501542339103,28.501305,0.1,129.3385,1609797558000
Fix,GT,37.4511141,-122.280257,137.43399382908828,28.45677,0.1,129.36053,1609797559000
Fix,GT,37.4509513,-122.2800086,137.4299734064299,28.45522,0.1,129.41382,1609797560000
Fix,GT,37.4507881,-122.2797603,137.31497372148442,28.499813,0.1,129.46472,1609797561000
Fix,GT,37.4506243,-122.279512,137.20197194275957,28.548237,0.1,129.58142,1609797562000
Fix,GT,37.4504599,-122.2792632,136.99996709115803,28.628208,0.1,129.4765,1609797563000
Fix,GT,37.4502957,-122.2790134,136.79895344147832,28.68955,0.1,129.41699,1609797564000
Fix,GT,37.4501313,-122.2787624,136.5069283485769,28.789818,0.1,129.36023,1609797565000
Fix,GT,37.4499665,-122.2785103,136.09395571294172,28.884268,0.1,129.24384,1609797566000
Fix,GT,37.4498016,-122.2782581,135.78990289939964,28.828142,0.099,129.36304,1609797567000
Fix,GT,37.4496363,-122.2780073,135.36887843223033,28.774624,0.1,129.5658,1609797568000
Fix,GT,37.4494707,-122.2777574,134.86195439892285,28.746347,0.1,129.75488,1609797569000
Fix,GT,37.4493045,-122.2775084,134.37187504410164,28.728405,0.1,129.92899,1609797570000
Fix,GT,37.4491381,-122.2772596,133.7768468895573,28.753078,0.1,129.88715,1609797571000
Fix,GT,37.4489713,-122.2770107,133.12783370384574,28.77374,0.1,130.19177,1609797572000
Fix,GT,37.4488034,-122.2767629,132.40281588088718,28.790981,0.1,130.43393,1609797573000
Fix,GT,37.4486345,-122.2765158,131.6038126296182,28.827085,0.1,130.6654,1609797574000
Fix,GT,37.4484643,-122.2762693,130.7708111058322,28.876854,0.1,130.9812,1609797575000
Fix,GT,37.4482928,-122.2760239,129.96480262133295,28.866234,0.1,131.34238,1609797576000
Fix,GT,37.4481208,-122.2757794,129.13880349323992,28.841015,0.1,131.38202,1609797577000
Fix,GT,37.4479487,-122.2755353,128.30080900633894,28.833706,0.099,131.31339,1609797578000
Fix,GT,37.4477774,-122.2752903,127.47882085977984,28.821423,0.1,131.11786,1609797579000
Fix,GT,37.4476065,-122.2750451,126.6318031098696,28.818317,0.1,131.08185,1609797580000
Fix,GT,37.4474357,-122.2748,125.8058097337864,28.808632,0.1,131.11359,1609797581000
Fix,GT,37.4472643,-122.2745555,124.98480366102932,28.811028,0.1,131.396,1609797582000
Fix,GT,37.4470924,-122.2743113,124.15581430880935,28.846834,0.1,131.22339,1609797583000
Fix,GT,37.4469208,-122.2740663,123.39682682471212,28.877758,0.1,131.3422,1609797584000
Fix,GT,37.4467486,-122.2738214,122.71784170813488,28.891483,0.1,131.31738,1609797585000
Fix,GT,37.4465763,-122.2735768,122.12987767852844,28.879398,0.1,131.37415,1609797586000
Fix,GT,37.4464045,-122.2733322,121.64592395960818,28.790707,0.1,131.30652,1609797587000
Fix,GT,37.4462338,-122.2730883,121.36494684340244,28.66204,0.1,131.20099,1609797588000
Fix,GT,37.4460644,-122.2728449,121.13595844885242,28.515402,0.1,131.1777,1609797589000
Fix,GT,37.4458955,-122.2726032,120.9320325953078,28.30486,0.1,131.01794,1609797590000
Fix,GT,37.4457308,-122.2723602,120.83400098468502,28.14009,0.1,129.74011,1609797591000
Fix,GT,37.4455717,-122.2721132,120.78098806012818,28.06307,0.1,128.05261,1609797592000
Fix,GT,37.4454191,-122.2718603,120.72000179886818,28.063374,0.1,126.38861,1609797593000
Fix,GT,37.4452715,-122.2716023,120.73499930815676,28.137936,0.1,124.95346,1609797594000
Fix,GT,37.4451283,-122.2713394,120.8150327333156,28.15829,0.1,123.62012,1609797595000
Fix,GT,37.4449911,-122.2710723,120.97104075321556,28.065638,0.1,121.849396,1609797596000
Fix,GT,37.4448598,-122.2708019,121.2440717682771,27.970417,0.1,120.68915,1609797597000
Fix,GT,37.4447339,-122.2705284,121.52308427273668,27.891129,0.1,119.38977,1609797598000
Fix,GT,37.4446135,-122.2702523,121.8540644533129,27.781887,0.1,117.878265,1609797599000
Fix,GT,37.4444997,-122.2699734,122.17707001955483,27.652536,0.1,116.34027,1609797600000
Fix,GT,37.4443927,-122.269692,122.5410732275946,27.529806,0.1,114.698364,1609797601000
Fix,GT,37.4442922,-122.269408,122.73004307246325,27.44441,0.1,113.27463,1609797602000
Fix,GT,37.4441973,-122.2691222,123.05710428395705,27.300224,0.1,111.8367,1609797603000
Fix,GT,37.4441095,-122.2688351,123.44104364299868,27.143936,0.1,110.307526,1609797604000
Fix,GT,37.4440279,-122.2685464,123.74406307157967,27.047089,0.099,108.81976,1609797605000
Fix,GT,37.443952,-122.2682564,124.062067767811,26.963848,0.1,107.3819,1609797606000
Fix,GT,37.4438826,-122.2679647,124.3680729926317,26.907448,0.1,105.86554,1609797607000
Fix,GT,37.4438193,-122.2676714,124.66906352716684,26.84001,0.1,104.50705,1609797608000
Fix,GT,37.4437614,-122.2673772,124.99307182377252,26.783812,0.1,103.16351,1609797609000
Fix,GT,37.4437093,-122.267082,125.29906340852568,26.738705,0.1,101.7666,1609797610000
Fix,GT,37.443663,-122.2667856,125.60206406190528,26.692614,0.1,100.43292,1609797611000
Fix,GT,37.4436222,-122.2664886,125.90907475062367,26.637407,0.1,99.14035,1609797612000
Fix,GT,37.4435875,-122.266191,126.16806133441165,26.585533,0.099,97.543884,1609797613000
Fix,GT,37.4435588,-122.2658928,126.44406865048408,26.554148,0.1,96.174774,1609797614000
Fix,GT,37.4435362,-122.2655939,126.6430288355418,26.553547,0.1,94.63733,1609797615000
Fix,GT,37.4435199,-122.2652944,126.80502738718364,26.615091,0.1,93.27106,1609797616000
Fix,GT,37.4435088,-122.2649928,126.93402822251618,26.814793,0.1,91.962585,1609797617000
Fix,GT,37.4435033,-122.2646885,127.03800612049642,27.047503,0.1,90.64081,1609797618000
Fix,GT,37.4435033,-122.2643813,127.06100232443168,27.308481,0.1,89.22995,1609797619000
Fix,GT,37.4435096,-122.2640711,126.98299791119574,27.591324,0.1,87.82062,1609797620000
Fix,GT,37.4435227,-122.2637584,127.02096864809748,27.821558,0.1,86.19864,1609797621000
Fix,GT,37.443543,-122.2634437,126.95800757593614,28.056055,0.1,84.51068,1609797622000
Fix,GT,37.4435716,-122.2631271,126.8479147709012,28.328651,0.1,82.625336,1609797623000
Fix,GT,37.4436058,-122.2628081,126.5569272287006,28.641396,0.099,82.0842,1609797624000
Fix,GT,37.4436414,-122.2624866,126.22793792808612,28.79986,0.1,81.99942,1609797625000
Fix,GT,37.4436766,-122.2621635,125.90292152296192,28.934973,0.1,82.35358,1609797626000
Fix,GT,37.4437113,-122.2618385,125.58793269018804,29.10031,0.1,82.287476,1609797627000
Fix,GT,37.4437461,-122.2615119,125.3639546008557,29.21409,0.1,82.309845,1609797628000
Fix,GT,37.443781,-122.2611842,125.17495652125146,29.2873,0.1,82.26865,1609797629000
Fix,GT,37.4438166,-122.260856,124.99096682875349,29.316832,0.1,81.94165,1609797630000
Fix,GT,37.4438539,-122.260528,124.81895400115638,29.310415,0.1,81.789856,1609797631000
Fix,GT,37.4438905,-122.2602002,124.5799353001751,29.276884,0.1,82.11331,1609797632000
Fix,GT,37.443925,-122.2598735,124.24792374511344,29.041265,0.1,82.720795,1609797633000
Fix,GT,37.4439546,-122.2595492,123.83890256623016,28.754288,0.1,84.0238,1609797634000
Fix,GT,37.4439774,-122.259227,123.38990114143398,28.50797,0.1,85.640686,1609797635000
Fix,GT,37.4439923,-122.2589069,122.92187892138377,28.285336,0.099,87.4718,1609797636000
Fix,GT,37.4439992,-122.2585881,122.38586844342854,28.234434,0.1,89.15094,1609797637000
Fix,GT,37.4439986,-122.2582685,121.78384515545751,28.35715,0.1,91.09366,1609797638000
Fix,GT,37.4439889,-122.2579475,121.11784637155804,28.525404,0.1,93.238495,1609797639000
Fix,GT,37.4439696,-122.2576255,120.37282647891412,28.643978,0.1,95.061005,1609797640000
Fix,GT,37.4439438,-122.2573029,119.57680780365038,28.745987,0.1,96.3064,1609797641000
Fix,GT,37.4439101,-122.2569802,118.71578216559811,28.879494,0.1,98.500916,1609797642000
Fix,GT,37.4438663,-122.2566579,117.78177742760698,29.021132,0.1,100.48779,1609797643000
Fix,GT,37.4438146,-122.2563357,116.7597668661042,29.157133,0.1,102.23575,1609797644000
Fix,GT,37.4437535,-122.2560146,115.68174589244929,29.299536,0.1,104.315765,1609797645000
Fix,GT,37.4436837,-122.2556946,114.50872030612618,29.45584,0.1,106.16943,1609797646000
Fix,GT,37.4436049,-122.2553758,113.28772708271234,29.634539,0.1,108.01959,1609797647000
Fix,GT,37.4435182,-122.2550581,112.08472802968556,29.821815,0.1,109.68005,1609797648000
Fix,GT,37.4434229,-122.2547422,110.8697119129831,29.9826,0.1,111.60773,1609797649000
Fix,GT,37.4433188,-122.2544292,109.64871980591492,30.042126,0.1,113.44293,1609797650000
Fix,GT,37.4432066,-122.2541202,108.43672645320136,30.080936,0.1,115.36206,1609797651000
Fix,GT,37.4430859,-122.2538161,107.19973074625992,30.06331,0.1,117.36496,1609797652000
Fix,GT,37.442957,-122.2535176,105.99171589013888,30.042627,0.1,119.26276,1609797653000
Fix,GT,37.4428205,-122.2532248,104.78472707782733,30.01052,0.1,121.290436,1609797654000
Fix,GT,37.4426759,-122.2529385,103.57672105591512,29.991943,0.1,123.23169,1609797655000
Fix,GT,37.4425233,-122.2526592,102.37371452697064,29.964224,0.099,125.420105,1609797656000
Fix,GT,37.442363,-122.2523869,101.17474108263664,29.946426,0.099,127.0639,1609797657000
Fix,GT,37.4421975,-122.2521205,100.05770476569842,29.894045,0.1,128.82202,1609797658000
Fix,GT,37.4420239,-122.2518607,98.8346987038739,30.1609,0.1,131.05447,1609797659000
Fix,GT,37.4418403,-122.2516066,97.5397397219036,30.57279,0.1,132.9703,1609797660000
Fix,GT,37.4416496,-122.2513543,96.47374189168914,30.94971,0.1,133.66687,1609797661000
Fix,GT,37.4414552,-122.2511006,95.2977048410566,31.330854,0.1,133.78693,1609797662000
Fix,GT,37.4412584,-122.2508438,94.04471018590031,31.68374,0.099,133.79584,1609797663000
Fix,GT,37.4410598,-122.2505847,92.7487142470528,31.919317,0.1,133.79639,1609797664000
Fix,GT,37.4408598,-122.2503243,91.54170260076737,32.049725,0.1,133.87192,1609797665000
Fix,GT,37.4406591,-122.2500634,90.23370709497785,32.11557,0.1,133.89117,1609797666000
Fix,GT,37.4404583,-122.2498021,88.96368165310332,32.079662,0.1,133.85791,1609797667000
Fix,GT,37.4402582,-122.2495411,87.68171698996866,32.036407,0.1,133.68628,1609797668000
Fix,GT,37.4400588,-122.2492798,86.40871431367519,31.982155,0.099,133.70026,1609797669000
Fix,GT,37.4398594,-122.2490193,85.2037165399678,31.9202,0.1,133.76987,1609797670000
Fix,GT,37.4396598,-122.24876,83.97466432114132,31.870975,0.1,133.9627,1609797671000
Fix,GT,37.4394594,-122.2485021,82.54367593823046,31.845673,0.1,134.37122,1609797672000
Fix,GT,37.439258,-122.2482464,81.24672029932634,31.778091,0.1,134.87238,1609797673000
Fix,GT,37.4390554,-122.2479933,79.96970178939496,31.693344,0.1,135.0426,1609797674000
Fix,GT,37.4388533,-122.2477415,78.68772093738592,31.468317,0.1,135.20407,1609797675000
Fix,GT,37.4386544,-122.2474943,77.43567556918484,30.66555,0.1,135.22092,1609797676000
Fix,GT,37.4384612,-122.2472575,76.3097253501881,29.143732,0.1,136.25812,1609797677000
Fix,GT,37.4382733,-122.2470416,75.14068542051292,27.465477,0.1,138.69232,1609797678000
Fix,GT,37.4380885,-122.2468448,73.98971988399792,26.440277,0.1,140.17126,1609797679000
Fix,GT,37.437907,-122.2466589,72.86374974011723,25.60013,0.099,140.82718,1609797680000
Fix,GT,37.4377309,-122.2464782,71.8287665176615,25.028929,0.099,140.3978,1609797681000
Fix,GT,37.4375578,-122.2462986,70.77876254689507,24.853764,0.1,140.38446,1609797682000
Fix,GT,37.4373855,-122.2461207,69.77177836252004,24.67952,0.1,140.56396,1609797683000
Fix,GT,37.4372144,-122.2459439,68.81273683853681,24.570835,0.1,140.54306,1609797684000
Fix,GT,37.4370448,-122.2457681,67.76273635003903,24.130863,0.1,140.44543,1609797685000
Fix,GT,37.4368807,-122.2455964,66.70675602630129,23.267437,0.1,140.16913,1609797686000
Fix,GT,37.4367236,-122.2454308,65.55272440130334,22.29581,0.1,139.59302,1609797687000
Fix,GT,37.4365754,-122.2452697,64.40673850900632,21.207317,0.1,138.65228,1609797688000
Fix,GT,37.4364377,-122.2451162,63.24876440484776,19.593105,0.1,138.26257,1609797689000
Fix,GT,37.4363127,-122.2449767,62.28977708580927,17.537836,0.1,138.45459,1609797690000
Fix,GT,37.4362013,-122.2448529,61.41282130584376,15.465384,0.1,138.27643,1609797691000
Fix,GT,37.436104,-122.2447441,60.65983791713346,13.60273,0.1,138.2923,1609797692000
Fix,GT,37.4360179,-122.2446479,59.98685851228657,11.978046,0.1,138.24841,1609797693000
Fix,GT,37.4359419,-122.2445626,59.42588370403951,10.737192,0.1,138.14453,1609797694000
Fix,GT,37.4358721,-122.2444843,58.933895707085725,10.258965,0.1,138.26953,1609797695000
Fix,GT,37.4358045,-122.2444092,58.482901903207406,9.776051,0.1,138.6253,1609797696000
Fix,GT,37.4357385,-122.2443363,58.08892710494669,9.790366,0.1,138.7215,1609797697000
Fix,GT,37.435672,-122.2442638,57.7879396711681,9.708102,0.1,138.98093,1609797698000
Fix,GT,37.4356074,-122.2441935,57.54594878170523,9.381261,0.1,139.12534,1609797699000
Fix,GT,37.4355436,-122.2441249,57.35296766616428,9.290679,0.1,139.42426,1609797700000
Fix,GT,37.4354802,-122.244057,57.20996872197651,9.212521,0.1,139.56964,1609797701000
