MessageType,Provider,LatitudeDegrees,LongitudeDegrees,AltitudeMeters,SpeedMps,AccuracyMeters,BearingDegrees,UnixTimeMillis
Fix,GT,34.175968,-118.4652931,177.81399788857206,0.001,0.099,182.21228,1638984172000
Fix,GT,34.175968,-118.4652931,177.8139985509808,0.001,0.1,182.21233,1638984173000
Fix,GT,34.175968,-118.4652931,177.8139992133896,0.0022340044,0.1,182.21288,1638984174000
Fix,GT,34.175968,-118.4652931,177.8140016560219,0.0010031027,0.1,182.21278,1638984175000
Fix,GT,34.175968,-118.4652931,177.813998716583,0.0028292646,0.099,182.21255,1638984176000
Fix,GT,34.175968,-118.4652931,177.81399937899178,0.0010010389,0.1,182.21312,1638984177000
Fix,GT,34.175968,-118.4652931,177.81400004140053,0.0031568562,0.1,182.21263,1638984178000
Fix,GT,34.175968,-118.4652931,177.81399714336217,0.0031593645,0.1,182.21257,1638984179000
Fix,GT,34.175968,-118.4652931,177.8139960255474,0.0022329711,0.099,182.21251,1638984180000
Fix,GT,34.175968,-118.4652931,177.81399486633202,7.919355e-06,0.1,182.21324,1638984181000
Fix,GT,34.175968,-118.4652931,177.81400256683398,0.0014142136,0.1,182.21284,1638984182000
Fix,GT,34.175968,-118.4652931,177.8139996687956,0.0014156795,0.1,182.21304,1638984183000
Fix,GT,34.175968,-118.4652931,177.8139985509808,0.003,0.1,182.21297,1638984184000
Fix,GT,34.175968,-118.4652931,177.81399565294245,0.0030025004,0.1,182.21304,1638984185000
Fix,GT,34.175968,-118.4652931,177.8139997929973,0.0031643715,0.1,182.21297,1638984186000
Fix,GT,34.175968,-118.4652931,177.81399511473532,0.0049978085,0.1,182.2132,1638984187000
Fix,GT,34.175968,-118.4652931,177.8140010350137,0.00499781,0.1,182.21317,1638984188000
Fix,GT,34.175968,-118.4652931,177.81399813697533,0.004,0.1,182.21303,1638984189000
Fix,GT,34.175968,-118.4652931,177.81399523893697,0.003,0.1,182.21304,1638984190000
Fix,GT,34.175968,-118.4652931,177.81400115921534,0.0014142136,0.1,182.21324,1638984191000
Fix,GT,34.175968,-118.4652931,177.81399643955285,0.0022383777,0.1,182.21341,1638984192000
Fix,GT,34.175968,-118.4652931,177.8160023598578,0.0060002063,0.1,182.21324,1638984193000
Fix,GT,34.1759679,-118.4652931,177.81799839288345,0.011,0.099,182.21326,1638984194000
Fix,GT,34.1759678,-118.4652931,177.8210025320421,0.017031873,0.1,182.21333,1638984195000
Fix,GT,34.1759676,-118.4652931,177.82400667134044,0.024020826,0.1,182.21307,1638984196000
Fix,GT,34.1759673,-118.4652931,177.82700021146331,0.031061966,0.099,182.21317,1638984197000
Fix,GT,34.1759669,-118.4652931,177.8299983024248,0.03905141,0.1,182.21394,1638984198000
Fix,GT,34.1759665,-118.4652931,177.83300066247955,0.042296574,0.1,182.2144,1638984199000
Fix,GT,34.1759642,-118.4652931,177.83100128353968,0.5661416,0.1,181.75919,1638984200000
Fix,GT,34.1759561,-118.4652907,177.83299937859363,1.1791261,0.1,176.07751,1638984201000
Fix,GT,34.1759435,-118.4652843,177.82099677213188,1.719698,0.1,165.78796,1638984202000
Fix,GT,34.175927,-118.4652743,177.80500272976374,2.3545978,0.099,157.67993,1638984203000
Fix,GT,34.1759071,-118.4652616,177.80699089915302,2.5267959,0.1,153.89642,1638984204000
Fix,GT,34.175886,-118.465249,177.75398652084868,2.8090909,0.1,153.91919,1638984205000
Fix,GT,34.1758596,-118.465236,177.7409251150964,3.3558908,0.1,158.2323,1638984206000
Fix,GT,34.1758323,-118.4652286,177.67397777533577,2.806842,0.1,167.55597,1638984207000
Fix,GT,34.1758107,-118.4652279,177.60896705383715,1.9858825,0.1,177.18689,1638984208000
Fix,GT,34.1757941,-118.4652368,177.38180806576088,2.180069,0.1,195.96246,1638984209000
Fix,GT,34.1757843,-118.4652599,176.9450666011339,2.9870083,0.1,224.02524,1638984210000
Fix,GT,34.1757801,-118.4652941,177.0570095284735,4.4123554,0.1,254.61214,1638984211000
Fix,GT,34.1757797,-118.4653502,177.14105779735092,6.3513904,0.1,267.90533,1638984212000
Fix,GT,34.1757757,-118.4654334,177.44204103570803,8.38691,0.099,268.82922,1638984213000
Fix,GT,34.175775,-118.4655351,177.6360472287589,10.030397,0.1,269.83313,1638984214000
Fix,GT,34.175775,-118.4656476,177.83604713349047,10.349238,0.1,269.9798,1638984215000
Fix,GT,34.1757753,-118.4657582,178.0600804812256,9.951805,0.099,269.91473,1638984216000
Fix,GT,34.1757751,-118.4658607,178.3460514005125,8.827824,0.1,269.79904,1638984217000
Fix,GT,34.175774,-118.4659525,178.45601213914293,7.892193,0.1,269.25485,1638984218000
Fix,GT,34.1757709,-118.4660292,178.42195241576897,6.4191566,0.1,266.10565,1638984219000
Fix,GT,34.1757588,-118.4660956,178.34306532062683,5.9836035,0.1,255.39868,1638984220000
Fix,GT,34.1757309,-118.4661581,178.47906969304802,7.2992196,0.099,237.7195,1638984221000
Fix,GT,34.1756768,-118.4662174,178.5379763532758,8.781364,0.1,216.1824,1638984222000
Fix,GT,34.1755988,-118.4662582,178.45198254493064,10.0741415,0.1,197.8822,1638984223000
Fix,GT,34.1755021,-118.4662774,178.35298202336114,11.447033,0.1,185.62097,1638984224000
Fix,GT,34.1753947,-118.4662859,178.28100086048244,12.328511,0.1,181.73047,1638984225000
Fix,GT,34.1752806,-118.4662859,178.25098557663895,13.085262,0.1,179.08197,1638984226000
Fix,GT,34.1751578,-118.4662888,178.2049826368296,14.140071,0.1,181.96426,1638984227000
Fix,GT,34.1750271,-118.4662961,178.1439762064754,14.879185,0.1,182.04536,1638984228000
Fix,GT,34.1748905,-118.4663004,178.09399711954126,15.296063,0.1,180.46303,1638984229000
Fix,GT,34.1747533,-118.4663014,178.0249927908096,15.14834,0.1,180.1459,1638984230000
Fix,GT,34.1746178,-118.4663029,177.91198490259006,14.914653,0.1,180.11876,1638984231000
Fix,GT,34.1744809,-118.466303,177.82497009705008,15.616279,0.1,179.55078,1638984232000
Fix,GT,34.174336,-118.4663015,177.70197693838364,16.443869,0.1,179.28003,1638984233000
Fix,GT,34.1741855,-118.4663003,177.58897511726548,16.851166,0.1,179.54895,1638984234000
Fix,GT,34.1740341,-118.4663002,177.45995432918983,16.736982,0.1,179.91205,1638984235000
Fix,GT,34.1738845,-118.466301,177.32797941686215,16.410133,0.1,180.05968,1638984236000
Fix,GT,34.1737392,-118.4663018,177.1999666632712,15.7709465,0.099,180.04333,1638984237000
Fix,GT,34.1736007,-118.4663027,177.08096894629554,14.949052,0.1,180.08627,1638984238000
Fix,GT,34.173471,-118.4663028,176.97495620925375,13.773706,0.1,179.67358,1638984239000
Fix,GT,34.1733527,-118.4663035,176.88396418026508,12.461432,0.1,180.35051,1638984240000
Fix,GT,34.1732463,-118.4663061,176.77295921011338,11.163703,0.1,181.36583,1638984241000
Fix,GT,34.1731513,-118.466311,176.67596536306803,9.896861,0.099,182.46138,1638984242000
Fix,GT,34.1730689,-118.466316,176.57897816271148,8.367536,0.1,182.98894,1638984243000
Fix,GT,34.1730012,-118.4663215,176.49997319152416,6.607944,0.1,183.77963,1638984244000
Fix,GT,34.1729516,-118.4663261,176.4299939701073,4.374585,0.1,184.04848,1638984245000
Fix,GT,34.1729223,-118.4663283,176.38898723083736,2.3224528,0.1,183.24542,1638984246000
Fix,GT,34.1729064,-118.4663292,176.36499512434006,1.3050629,0.1,182.59155,1638984247000
Fix,GT,34.1728988,-118.4663297,176.35099637245247,0.33340764,0.1,182.5354,1638984248000
Fix,GT,34.1728984,-118.4663297,176.34099585318356,0.005829169,0.099,182.54836,1638984249000
Fix,GT,34.1728983,-118.4663297,176.33700521419544,0.00282641,0.1,182.5458,1638984250000
Fix,GT,34.1728983,-118.4663297,176.3370040235524,0.0030003951,0.1,182.54196,1638984251000
Fix,GT,34.1728983,-118.4663297,176.3370045983456,0.001,0.1,182.54112,1638984252000
Fix,GT,34.1728983,-118.4663297,176.33700517313878,0.001,0.1,182.54146,1638984253000
Fix,GT,34.1728983,-118.4663297,176.33700221705948,0.001,0.1,182.54205,1638984254000
Fix,GT,34.1728983,-118.4663297,176.33700102641643,0.001,0.1,182.54204,1638984255000
Fix,GT,34.1728983,-118.4663297,176.3370033666459,0.0019985775,0.1,182.5424,1638984256000
Fix,GT,34.1728983,-118.4663297,176.3370039414391,0.0014142136,0.1,182.5428,1638984257000
Fix,GT,34.1728983,-118.4663297,176.33699577116428,0.0010063228,0.1,182.54283,1638984258000
Fix,GT,34.1728983,-118.4663297,176.33699811139377,0.0028269903,0.1,182.54298,1638984259000
Fix,GT,34.1728983,-118.4663297,176.33699696180736,0.0031622776,0.1,182.54317,1638984260000
Fix,GT,34.1728983,-118.4663297,176.33699511297047,0.004240022,0.1,182.5438,1638984261000
Fix,GT,34.1728983,-118.4663297,176.33399568880583,0.004123951,0.1,182.54413,1638984262000
Fix,GT,34.1728984,-118.4663297,176.327998686254,0.00565314,0.1,182.54488,1638984263000
Fix,GT,34.1728984,-118.4663297,176.3279957303256,0.003,0.1,182.54527,1638984264000
Fix,GT,34.1728984,-118.4663297,176.3169984450601,0.0029981518,0.1,182.5456,1638984265000
Fix,GT,34.1728983,-118.4663297,176.30100032838618,0.001,0.1,182.54623,1638984266000
Fix,GT,34.1728975,-118.4663297,176.288996720545,0.3688847,0.1,182.43396,1638984267000
Fix,GT,34.1728881,-118.4663298,176.26999139128253,1.7331727,0.1,181.64203,1638984268000
Fix,GT,34.1728663,-118.46633,176.24599299995276,3.0828047,0.1,180.64452,1638984269000
Fix,GT,34.1728332,-118.4663308,176.2029893988145,4.150142,0.1,180.73157,1638984270000
Fix,GT,34.1727962,-118.4663308,176.17899127637244,3.6447108,0.1,180.04472,1638984271000
Fix,GT,34.1727676,-118.4663309,176.14398917600374,2.844893,0.1,179.75275,1638984272000
Fix,GT,34.1727441,-118.4663308,176.11399832677515,2.370917,0.1,179.58972,1638984273000
Fix,GT,34.1727247,-118.4663307,176.10299890176952,1.8868431,0.1,179.35345,1638984274000
Fix,GT,34.1727101,-118.4663306,176.086001885918,1.4789808,0.1,179.36963,1638984275000
Fix,GT,34.172697,-118.4663305,176.0719934721042,1.4350802,0.1,179.21167,1638984276000
Fix,GT,34.1726822,-118.4663304,176.05599357562932,1.9143314,0.1,178.98969,1638984277000
Fix,GT,34.1726613,-118.4663302,176.04099720076704,2.7433398,0.1,179.146,1638984278000
Fix,GT,34.1726317,-118.4663299,176.02199576342664,3.8715181,0.1,179.04785,1638984279000
Fix,GT,34.1725916,-118.4663292,175.9899946180377,5.0227284,0.1,179.1228,1638984280000
Fix,GT,34.1725413,-118.4663285,175.94399519371987,6.1206713,0.1,179.33325,1638984281000
Fix,GT,34.1724815,-118.4663277,175.9129880835372,7.0297575,0.1,179.32501,1638984282000
Fix,GT,34.1724178,-118.4663267,175.8919949824214,7.0493355,0.1,179.45093,1638984283000
Fix,GT,34.1723582,-118.4663276,175.8599896375742,6.1779904,0.1,182.16763,1638984284000
Fix,GT,34.172309,-118.4663389,175.83696094433355,5.3456793,0.099,194.3593,1638984285000
Fix,GT,34.1722723,-118.4663694,175.79800929838794,5.106112,0.1,218.83043,1638984286000
Fix,GT,34.1722523,-118.4664173,175.76399436423324,5.314843,0.1,245.71999,1638984287000
Fix,GT,34.1722474,-118.4664779,175.76803454737785,6.3233867,0.1,265.33057,1638984288000
Fix,GT,34.172251,-118.4665538,176.15313808450196,7.7533135,0.1,272.72824,1638984289000
Fix,GT,34.1722544,-118.4666431,176.87222761283002,8.61722,0.1,271.60638,1638984290000
Fix,GT,34.1722563,-118.4667386,177.75521564441615,8.705923,0.1,270.3363,1638984291000
Fix,GT,34.1722565,-118.4668281,178.58718374945735,7.7198377,0.1,269.99823,1638984292000
Fix,GT,34.1722573,-118.4669064,179.29314541768937,6.68316,0.1,270.3735,1638984293000
Fix,GT,34.1722581,-118.4669724,179.88212614804647,5.506537,0.1,270.6419,1638984294000
Fix,GT,34.172259,-118.4670267,180.38011172969945,4.4984107,0.1,270.99353,1638984295000
Fix,GT,34.1722601,-118.4670695,180.78508297600783,3.2881525,0.099,272.36157,1638984296000
Fix,GT,34.1722621,-118.4670962,181.03304353769283,1.7943064,0.1,275.07526,1638984297000
Fix,GT,34.1722645,-118.4671124,181.18803031713463,1.5417024,0.1,278.6471,1638984298000
Fix,GT,34.1722704,-118.4671346,181.4230582823416,3.0050552,0.1,286.02423,1638984299000
Fix,GT,34.1722863,-118.4671667,181.8090933917356,4.077485,0.1,300.58054,1638984300000
Fix,GT,34.1723182,-118.4671963,182.2230998401288,5.4669595,0.1,324.5386,1638984301000
Fix,GT,34.1723733,-118.4672141,182.48601454663745,7.677009,0.1,345.80432,1638984302000
Fix,GT,34.1724522,-118.4672266,182.6280366404494,10.139216,0.1,353.8742,1638984303000
Fix,GT,34.1725535,-118.4672363,182.63497829112805,12.3377495,0.1,355.02872,1638984304000
Fix,GT,34.1726725,-118.4672504,182.4759401188847,14.289549,0.1,353.31638,1638984305000
Fix,GT,34.1728105,-118.4672716,182.23893717446924,16.50757,0.1,351.8688,1638984306000
Fix,GT,34.172967,-118.4672996,181.93393474737368,18.541775,0.099,350.94135,1638984307000
Fix,GT,34.1731404,-118.4673299,181.6659080490284,20.191833,0.1,351.84958,1638984308000
Fix,GT,34.1733279,-118.4673584,181.3089192926809,21.705374,0.1,352.9548,1638984309000
Fix,GT,34.1735294,-118.467384,180.83394718958763,23.158152,0.1,353.96878,1638984310000
Fix,GT,34.1737424,-118.4674092,180.5359548430729,24.17472,0.099,353.8375,1638984311000
Fix,GT,34.1739625,-118.4674359,180.60102886108652,24.824482,0.099,353.92563,1638984312000
Fix,GT,34.1741878,-118.4674636,180.89809820520367,25.490786,0.1,353.67307,1638984313000
Fix,GT,34.1744203,-118.4674919,181.1870110066133,26.398277,0.1,354.08786,1638984314000
Fix,GT,34.1746616,-118.467522,181.23700747833936,27.407536,0.1,353.74152,1638984315000
Fix,GT,34.17491,-118.4675556,181.2809889745773,27.914257,0.1,352.73233,1638984316000
Fix,GT,34.17516,-118.4675986,181.2829949290156,28.089176,0.1,350.864,1638984317000
Fix,GT,34.1754117,-118.46765,181.26098720617776,28.529808,0.1,349.6062,1638984318000
Fix,GT,34.1756672,-118.4677082,181.26799788938976,29.181416,0.1,348.64572,1638984319000
Fix,GT,34.1759294,-118.4677731,181.291010844409,30.178505,0.1,347.69583,1638984320000
Fix,GT,34.1761947,-118.4678456,181.3440201559863,30.078981,0.1,346.317,1638984321000
Fix,GT,34.1764557,-118.4679275,181.4510308238347,29.755598,0.1,344.05353,1638984322000
Fix,GT,34.1767111,-118.46802,181.46601129687764,29.463745,0.1,342.26257,1638984323000
Fix,GT,34.1769635,-118.4681198,181.59503001593825,29.406916,0.1,341.04376,1638984324000
Fix,GT,34.177212,-118.4682253,181.7320590013142,29.0947,0.1,339.9011,1638984325000
Fix,GT,34.1774558,-118.4683363,181.89302529996053,28.717937,0.1,338.06015,1638984326000
Fix,GT,34.1776932,-118.4684557,182.054040549432,28.343088,0.1,336.3065,1638984327000
Fix,GT,34.177925,-118.4685803,182.17301215372424,27.982508,0.099,335.15692,1638984328000
Fix,GT,34.1781516,-118.4687094,182.34901744344452,27.61084,0.1,333.68628,1638984329000
Fix,GT,34.1783723,-118.4688445,182.472044066988,27.419065,0.1,332.0986,1638984330000
Fix,GT,34.1785905,-118.4689873,182.6110146048684,27.615103,0.1,330.4464,1638984331000
Fix,GT,34.1788048,-118.4691377,182.63600814484383,27.411972,0.1,328.92358,1638984332000
Fix,GT,34.1790151,-118.4692912,182.62796209325543,27.138922,0.1,328.36417,1638984333000
Fix,GT,34.1792232,-118.4694432,182.58099323069305,26.856962,0.1,328.6042,1638984334000
Fix,GT,34.1794309,-118.4695932,182.4930572033622,26.97634,0.099,328.81555,1638984335000
Fix,GT,34.1796411,-118.469745,182.59203665441,27.296738,0.1,328.6673,1638984336000
Fix,GT,34.1798511,-118.4698982,182.74301743762567,27.29483,0.1,328.3059,1638984337000
Fix,GT,34.1800631,-118.4700547,182.8670404428523,27.907158,0.1,328.15286,1638984338000
Fix,GT,34.18028,-118.4702152,183.0200267551541,28.59278,0.1,328.16934,1638984339000
Fix,GT,34.1804997,-118.4703777,183.2030525954405,28.49313,0.1,328.18448,1638984340000
Fix,GT,34.1807169,-118.4705387,183.42008962286263,28.11845,0.1,328.21158,1638984341000
Fix,GT,34.1809334,-118.4706987,183.7680964641003,28.378672,0.1,328.0515,1638984342000
Fix,GT,34.1811527,-118.4708628,184.1380985981492,29.022333,0.099,327.7345,1638984343000
Fix,GT,34.1813766,-118.4710313,184.681153306789,29.419626,0.1,327.74915,1638984344000
Fix,GT,34.1816005,-118.4712033,185.2961717544291,29.553427,0.1,326.44604,1638984345000
Fix,GT,34.1818238,-118.4713813,186.1011918909548,29.832617,0.1,326.46967,1638984346000
Fix,GT,34.1820511,-118.4715585,186.83318589677893,30.176144,0.1,327.21707,1638984347000
Fix,GT,34.182281,-118.4717329,187.55918090022564,30.123123,0.1,327.89224,1638984348000
Fix,GT,34.1825118,-118.4719031,188.27416841803583,29.880592,0.1,328.3227,1638984349000
Fix,GT,34.1827395,-118.4720716,188.9451485247293,29.402967,0.1,328.08362,1638984350000
Fix,GT,34.1829639,-118.4722382,189.5931500508848,29.206509,0.1,328.0524,1638984351000
Fix,GT,34.1831889,-118.4724049,190.1891324388185,29.452732,0.1,328.23627,1638984352000
Fix,GT,34.1834157,-118.4725719,190.7051163675571,29.495966,0.1,328.29047,1638984353000
Fix,GT,34.1836413,-118.4727374,191.1341174525432,29.104738,0.1,328.52222,1638984354000
Fix,GT,34.1838646,-118.4728983,191.7421596126449,28.631727,0.1,329.2671,1638984355000
Fix,GT,34.1840865,-118.473051,192.3551560241252,28.147003,0.1,330.9807,1638984356000
Fix,GT,34.1843097,-118.4731908,192.9400942417001,27.718195,0.1,333.38,1638984357000
Fix,GT,34.1845334,-118.4733189,193.37015236786704,27.259874,0.099,335.25293,1638984358000
Fix,GT,34.1847568,-118.4734356,193.85911738845567,26.799269,0.1,337.42722,1638984359000
Fix,GT,34.1849799,-118.4735406,194.2680863432824,26.384409,0.099,339.38724,1638984360000
Fix,GT,34.1852025,-118.4736353,194.55906268304471,26.09981,0.1,341.2163,1638984361000
Fix,GT,34.1854282,-118.473721,194.64202550648315,26.48202,0.1,343.37567,1638984362000
Fix,GT,34.1856583,-118.4737956,194.5990026014324,26.358318,0.1,345.7557,1638984363000
Fix,GT,34.1858887,-118.4738602,194.40098207991525,26.179644,0.1,347.4945,1638984364000
Fix,GT,34.1861194,-118.4739148,194.21199597218632,25.998957,0.1,349.843,1638984365000
Fix,GT,34.1863491,-118.4739586,193.94892176598964,25.418617,0.1,351.41537,1638984366000
Fix,GT,34.1865718,-118.473994,193.6008453225649,24.569056,0.1,353.04645,1638984367000
Fix,GT,34.1867909,-118.4740194,193.13589827460424,24.334084,0.1,355.2329,1638984368000
Fix,GT,34.18701,-118.4740373,192.4228257923745,24.451792,0.1,356.4711,1638984369000
Fix,GT,34.1872305,-118.4740484,191.8298874866357,24.506786,0.1,358.16974,1638984370000
Fix,GT,34.1874515,-118.4740532,191.2668687035609,24.584335,0.1,359.00497,1638984371000
Fix,GT,34.1876737,-118.4740569,190.761856660787,24.664534,0.1,358.89093,1638984372000
Fix,GT,34.1878966,-118.4740613,190.310895697976,24.872454,0.1,358.78308,1638984373000
Fix,GT,34.1881222,-118.4740659,189.84888262998965,25.085117,0.1,358.88303,1638984374000
Fix,GT,34.1883481,-118.4740697,189.32289856485903,25.026087,0.1,359.00262,1638984375000
Fix,GT,34.1885742,-118.4740734,188.95993222912168,25.191105,0.1,359.03558,1638984376000
Fix,GT,34.1888025,-118.474076,188.72197037801607,25.485912,0.1,359.25827,1638984377000
Fix,GT,34.1890336,-118.4740785,188.60098124141456,25.767641,0.1,359.05414,1638984378000
Fix,GT,34.1892665,-118.4740822,188.5710239116312,25.772339,0.1,358.928,1638984379000
Fix,GT,34.1894976,-118.4740854,188.7150393494093,25.540543,0.1,359.04254,1638984380000
Fix,GT,34.1897277,-118.4740886,188.9500682864664,25.525646,0.1,359.0393,1638984381000
Fix,GT,34.1899581,-118.4740916,189.29509520689768,25.594898,0.1,359.0107,1638984382000
Fix,GT,34.1901894,-118.4740949,189.71510363281075,25.754135,0.1,358.92526,1638984383000
Fix,GT,34.1904217,-118.4740985,190.12808177118097,25.765625,0.1,358.8816,1638984384000
Fix,GT,34.190654,-118.4741023,190.5440805770387,25.788633,0.099,358.88196,1638984385000
Fix,GT,34.1908868,-118.4741062,190.94808402100463,25.880335,0.1,358.92007,1638984386000
Fix,GT,34.1911201,-118.4741093,191.406119929231,25.87633,0.1,359.17136,1638984387000
Fix,GT,34.1913532,-118.4741119,191.8030892389976,25.806097,0.1,359.11462,1638984388000
Fix,GT,34.191585,-118.4741151,192.20509956657307,25.693136,0.1,358.98328,1638984389000
Fix,GT,34.1918169,-118.4741196,192.6601029482656,25.771166,0.1,358.65527,1638984390000
Fix,GT,34.1920481,-118.4741246,193.08409066506616,25.496807,0.099,358.96075,1638984391000
Fix,GT,34.1922763,-118.4741278,193.46809638886057,25.11052,0.1,359.07742,1638984392000
Fix,GT,34.1925007,-118.4741311,193.86807724290503,24.692905,0.1,359.05658,1638984393000
Fix,GT,34.1927221,-118.4741346,194.27009243041692,24.55812,0.1,359.04166,1638984394000
Fix,GT,34.1929455,-118.4741388,194.6700748784579,25.033878,0.1,358.82358,1638984395000
Fix,GT,34.1931738,-118.4741435,195.029094323287,25.452187,0.1,358.93976,1638984396000
Fix,GT,34.193402,-118.474147,195.4451002980448,25.27444,0.1,359.20892,1638984397000
Fix,GT,34.1936287,-118.4741494,195.9241130702447,24.962442,0.1,359.41537,1638984398000
Fix,GT,34.1938519,-118.4741514,196.3430115267625,24.57264,0.1,359.32535,1638984399000
Fix,GT,34.1940717,-118.4741543,196.59709987318143,24.2266,0.099,358.98532,1638984400000
Fix,GT,34.1942894,-118.4741574,196.7480209319228,24.177128,0.1,359.34256,1638984401000
Fix,GT,34.1945084,-118.4741595,196.8770266297576,24.374443,0.1,359.47,1638984402000
Fix,GT,34.1947289,-118.4741622,197.0020420446508,24.57299,0.1,359.03888,1638984403000
Fix,GT,34.194952,-118.474168,197.1500363210636,24.926805,0.1,358.47897,1638984404000
Fix,GT,34.1951778,-118.4741739,197.27103739891896,25.054447,0.1,358.99063,1638984405000
Fix,GT,34.1954032,-118.4741778,197.41403167645723,25.075327,0.1,359.06976,1638984406000
Fix,GT,34.1956304,-118.4741815,197.46500087354212,25.312586,0.1,359.2597,1638984407000
Fix,GT,34.1958593,-118.474184,197.495019889704,25.437752,0.1,359.3987,1638984408000
Fix,GT,34.1960887,-118.4741863,197.5530187330812,25.467691,0.1,359.4759,1638984409000
Fix,GT,34.1963178,-118.4741852,197.6840311944564,25.399895,0.1,0.8303833,1638984410000
Fix,GT,34.1965483,-118.4741773,197.80604498489205,25.898748,0.1,2.136963,1638984411000
Fix,GT,34.1967836,-118.4741621,197.96003100025,26.18324,0.1,3.7133484,1638984412000
Fix,GT,34.1970178,-118.4741406,198.1080373811536,25.999739,0.1,4.6820984,1638984413000
Fix,GT,34.1972521,-118.4741144,198.2800635050605,26.227184,0.1,5.877533,1638984414000
Fix,GT,34.1974856,-118.4740798,198.467033972851,25.913479,0.1,7.4923096,1638984415000
Fix,GT,34.1977145,-118.4740396,198.5910162807184,25.490276,0.1,8.610718,1638984416000
Fix,GT,34.1979406,-118.4739959,198.7560579860616,25.301123,0.1,9.254822,1638984417000
Fix,GT,34.1981638,-118.4739496,199.04906699876767,24.951212,0.1,9.722107,1638984418000
Fix,GT,34.1983837,-118.4739031,199.2940453967527,24.649729,0.1,9.739624,1638984419000
Fix,GT,34.1986038,-118.4738573,199.4910393692753,24.955084,0.1,9.497284,1638984420000
Fix,GT,34.198827,-118.4738114,199.6660305640125,25.126192,0.099,9.592468,1638984421000
Fix,GT,34.1990494,-118.4737645,199.8220299121708,25.037346,0.1,9.877655,1638984422000
Fix,GT,34.1992706,-118.4737174,199.9420253594201,24.790419,0.1,9.7734375,1638984423000
Fix,GT,34.19949,-118.473671,200.06403066714643,24.697556,0.099,9.721619,1638984424000
Fix,GT,34.1997103,-118.4736251,200.24505613577088,24.883253,0.1,9.645447,1638984425000
Fix,GT,34.199932,-118.4735782,200.50005263574795,25.032595,0.1,9.878357,1638984426000
Fix,GT,34.2001548,-118.4735313,200.7220579783265,25.153114,0.1,9.718018,1638984427000
Fix,GT,34.2003776,-118.4734848,200.97504518120667,24.950869,0.1,9.6658325,1638984428000
Fix,GT,34.2005974,-118.4734408,201.17702792240425,24.502483,0.1,8.848206,1638984429000
Fix,GT,34.2008144,-118.4734025,201.38706034434816,24.14229,0.1,7.683014,1638984430000
Fix,GT,34.2010307,-118.4733694,201.6050418479093,24.294863,0.1,6.6021423,1638984431000
Fix,GT,34.2012505,-118.4733394,201.7699837280419,24.818905,0.099,6.057007,1638984432000
Fix,GT,34.2014763,-118.4733124,201.92002539150323,25.456924,0.1,5.048279,1638984433000
Fix,GT,34.2017055,-118.4732902,201.97402396926188,25.633202,0.1,3.990509,1638984434000
Fix,GT,34.2019367,-118.4732726,202.10002226966893,25.704605,0.1,3.067505,1638984435000
Fix,GT,34.2021671,-118.4732586,202.2150341499828,25.485687,0.1,2.5039062,1638984436000
Fix,GT,34.2023959,-118.4732486,202.3460304332488,25.25659,0.1,1.4179688,1638984437000
Fix,GT,34.2026224,-118.4732436,202.4350144755831,25.05589,0.1,0.49127197,1638984438000
Fix,GT,34.2028494,-118.4732408,202.53702877627688,25.452858,0.1,0.80856323,1638984439000
Fix,GT,34.2030855,-118.4732321,202.62800908371108,27.067057,0.099,2.0310059,1638984440000
Fix,GT,34.2033364,-118.4732192,202.8440412066248,28.65023,0.1,2.2565918,1638984441000
Fix,GT,34.2036016,-118.4732071,203.0280399620156,30.160799,0.1,1.6511841,1638984442000
Fix,GT,34.2038777,-118.4731981,203.1450561057404,31.070671,0.1,1.104065,1638984443000
Fix,GT,34.2041619,-118.4731921,203.36604341156084,32.02453,0.1,0.59921265,1638984444000
Fix,GT,34.2044537,-118.4731882,203.54706264137383,32.48663,0.1,0.4477539,1638984445000
Fix,GT,34.2047456,-118.4731843,203.77705648479235,32.199654,0.1,0.57489014,1638984446000
Fix,GT,34.2050352,-118.4731804,203.95901263476884,32.037373,0.1,0.39596558,1638984447000
Fix,GT,34.205323,-118.473178,204.1470571664886,31.8022,0.099,359.97073,1638984448000
Fix,GT,34.205608,-118.4731804,204.408056914065,31.405706,0.1,358.9049,1638984449000
Fix,GT,34.2058905,-118.4731861,204.6360422093044,31.414528,0.1,359.08212,1638984450000
Fix,GT,34.2061755,-118.4731891,204.84704858504352,31.913803,0.1,359.42438,1638984451000
Fix,GT,34.2064664,-118.4731933,205.03804918331167,32.745987,0.1,358.71878,1638984452000
Fix,GT,34.2067662,-118.4732008,205.2640860318132,33.787567,0.1,358.74084,1638984453000
Fix,GT,34.207074,-118.4732071,205.48901741776385,34.35302,0.1,359.19077,1638984454000
Fix,GT,34.2073843,-118.473209,205.72903652328904,34.50208,0.099,359.78784,1638984455000
Fix,GT,34.2076961,-118.4732086,205.96906638940143,34.678185,0.1,0.008300781,1638984456000
Fix,GT,34.2080093,-118.4732075,206.23405827605816,34.69011,0.1,0.094177246,1638984457000
Fix,GT,34.2083203,-118.4732049,206.66004712700635,34.39429,0.1,0.5124512,1638984458000
Fix,GT,34.2086316,-118.4732007,206.9059817134764,34.730427,0.1,0.49334717,1638984459000
Fix,GT,34.2089459,-118.4731967,206.9030074241431,34.962044,0.1,0.5201721,1638984460000
Fix,GT,34.2092602,-118.4731918,207.1090283692908,34.80896,0.1,0.5739441,1638984461000
Fix,GT,34.2095754,-118.4731883,207.28407810206332,35.149292,0.099,0.16268921,1638984462000
Fix,GT,34.209894,-118.4731862,207.61706748239973,35.583786,0.1,0.22805786,1638984463000
Fix,GT,34.2102171,-118.4731832,207.7600482161669,36.05152,0.1,0.40093994,1638984464000
Fix,GT,34.2105422,-118.4731789,208.1320670497683,36.03641,0.1,0.5459595,1638984465000
Fix,GT,34.2108666,-118.4731747,208.41405908246333,35.95316,0.1,0.3184204,1638984466000
Fix,GT,34.2111902,-118.4731716,208.64304866377336,35.768944,0.1,0.316864,1638984467000
Fix,GT,34.2115109,-118.4731681,208.81303244284493,35.397804,0.1,0.48171997,1638984468000
Fix,GT,34.2118298,-118.4731649,209.1220753907564,35.414627,0.1,0.15924072,1638984469000
Fix,GT,34.2121478,-118.4731632,209.4530940261278,35.071312,0.099,0.1454773,1638984470000
Fix,GT,34.2124624,-118.4731608,209.8600970385671,34.82867,0.1,0.18206787,1638984471000
Fix,GT,34.2127756,-118.473159,210.3591069998471,34.57324,0.1,0.14172363,1638984472000
Fix,GT,34.2130855,-118.4731565,210.8661366581277,34.141026,0.1,0.31811523,1638984473000
Fix,GT,34.2133914,-118.4731531,211.4871529197488,33.780155,0.1,0.3105774,1638984474000
Fix,GT,34.2136957,-118.4731503,212.14311818318347,33.791103,0.1,0.21115112,1638984475000
Fix,GT,34.2140015,-118.4731493,212.7201344716605,34.110104,0.1,359.7699,1638984476000
Fix,GT,34.2143094,-118.4731499,213.3451220483263,34.107952,0.1,359.88986,1638984477000
Fix,GT,34.2146153,-118.4731491,213.93112552140747,33.735233,0.099,0.15109253,1638984478000
Fix,GT,34.2149175,-118.473148,214.50811737143343,33.31298,0.1,359.97388,1638984479000
Fix,GT,34.2152167,-118.4731477,215.05410475417133,33.00091,0.1,359.94406,1638984480000
Fix,GT,34.215512,-118.4731475,215.45709676423505,32.52991,0.1,359.9659,1638984481000
Fix,GT,34.2158036,-118.4731459,215.85008240493065,32.246773,0.1,0.27218628,1638984482000
Fix,GT,34.2160952,-118.4731449,216.14706330928576,32.499046,0.1,359.9072,1638984483000
Fix,GT,34.2163903,-118.4731443,216.51695355451108,33.056305,0.1,0.15298462,1638984484000
Fix,GT,34.2166895,-118.4731417,216.6190163414285,33.217354,0.1,0.65615845,1638984485000
Fix,GT,34.2169888,-118.4731369,216.6889865186708,33.20608,0.1,0.56988525,1638984486000
Fix,GT,34.2172882,-118.473133,216.6960028036088,33.175625,0.1,0.44592285,1638984487000
Fix,GT,34.217586,-118.4731297,216.69300371000125,32.877,0.1,0.3430786,1638984488000
Fix,GT,34.2178807,-118.4731281,216.7790332238073,32.512016,0.1,0.020111084,1638984489000
Fix,GT,34.2181718,-118.4731278,216.9120208487728,31.912838,0.1,0.14886475,1638984490000
Fix,GT,34.2184543,-118.4731258,217.0330285530905,30.758911,0.099,0.4656067,1638984491000
Fix,GT,34.2187269,-118.4731225,217.16302941901424,29.814262,0.1,0.47314453,1638984492000
Fix,GT,34.2189934,-118.4731201,217.2500324714184,29.333532,0.1,0.3328247,1638984493000
Fix,GT,34.2192563,-118.4731173,217.3310113145928,28.99433,0.1,0.5013428,1638984494000
Fix,GT,34.2195163,-118.4731146,217.413027588245,28.747726,0.1,0.31896973,1638984495000
Fix,GT,34.2197764,-118.4731127,217.53801545422107,29.020658,0.1,0.30584717,1638984496000
Fix,GT,34.2200396,-118.47311,217.62902073563285,29.355326,0.1,0.47799683,1638984497000
Fix,GT,34.2203051,-118.4731073,217.7560391636284,29.511307,0.1,0.38085938,1638984498000
Fix,GT,34.2205714,-118.4731046,217.9540356666085,29.51185,0.1,0.44158936,1638984499000
Fix,GT,34.2208361,-118.473101,218.1890519028348,29.272757,0.1,0.639801,1638984500000
Fix,GT,34.2210996,-118.4730974,218.4840308368206,29.184626,0.1,0.48013306,1638984501000
Fix,GT,34.2213624,-118.4730942,218.5470076793404,29.110243,0.1,0.5229492,1638984502000
Fix,GT,34.2216234,-118.473091,218.7089646827071,28.708035,0.099,0.48110962,1638984503000
Fix,GT,34.221881,-118.4730888,218.6049940849817,28.53941,0.1,0.18963623,1638984504000
Fix,GT,34.2221398,-118.4730881,218.55803223084845,28.939152,0.1,359.92633,1638984505000
Fix,GT,34.2224027,-118.473087,218.61103971517667,29.24809,0.1,0.42703247,1638984506000
Fix,GT,34.2226659,-118.4730839,218.7750537126768,29.123236,0.1,0.4571228,1638984507000
Fix,GT,34.2229281,-118.4730817,218.9730327099371,29.158527,0.1,0.21939087,1638984508000
Fix,GT,34.2231917,-118.4730804,219.0950161357373,29.19451,0.1,0.3673401,1638984509000
Fix,GT,34.2234545,-118.4730773,219.1860170448432,29.24585,0.1,0.55651855,1638984510000
Fix,GT,34.223719,-118.4730738,219.2890397819569,29.295433,0.099,0.5398865,1638984511000
Fix,GT,34.2239818,-118.4730707,219.4640341121042,28.984337,0.1,0.49136353,1638984512000
Fix,GT,34.2242415,-118.4730681,219.60904154792263,28.632906,0.1,0.43017578,1638984513000
Fix,GT,34.2244981,-118.4730656,219.7410490246956,28.295982,0.1,0.44085693,1638984514000
Fix,GT,34.2247528,-118.4730631,219.9209690452996,28.308931,0.1,0.36611938,1638984515000
Fix,GT,34.2250094,-118.4730615,219.87002676163212,28.645378,0.099,0.247406,1638984516000
Fix,GT,34.225269,-118.4730579,220.02804291306225,28.945978,0.1,0.7382202,1638984517000
Fix,GT,34.2255314,-118.4730547,220.18103285564297,29.301498,0.1,0.2168274,1638984518000
Fix,GT,34.2257976,-118.4730532,220.35202722104685,29.928707,0.1,0.27783203,1638984519000
Fix,GT,34.2260687,-118.4730506,220.4750193896261,30.143316,0.1,0.4758911,1638984520000
Fix,GT,34.2263416,-118.4730479,220.5830421273205,30.308893,0.1,0.36691284,1638984521000
Fix,GT,34.2266155,-118.4730461,220.7420277428776,30.379286,0.1,0.28414917,1638984522000
Fix,GT,34.2268894,-118.4730436,220.927074281266,30.3145,0.099,0.56848145,1638984523000
Fix,GT,34.2271611,-118.4730395,221.2020294133457,29.94433,0.099,0.9632263,1638984524000
Fix,GT,34.2274288,-118.4730312,221.4190478083489,29.42042,0.1,2.0951843,1638984525000
Fix,GT,34.2276905,-118.4730165,221.624042053279,28.746658,0.1,3.0134277,1638984526000
Fix,GT,34.227947,-118.4730015,221.91309730116,28.250072,0.099,2.0996704,1638984527000
Fix,GT,34.2282004,-118.4729917,222.3210764076489,28.112152,0.1,1.2730103,1638984528000
Fix,GT,34.2284562,-118.4729853,222.5511360038002,28.682594,0.1,1.4776917,1638984529000
Fix,GT,34.228718,-118.4729734,222.69904353719903,29.604033,0.1,2.289734,1638984530000
Fix,GT,34.2289899,-118.4729609,222.87404657695325,30.719036,0.1,1.6678162,1638984531000
Fix,GT,34.2292716,-118.4729529,223.08507331370657,31.7765,0.1,0.9100342,1638984532000
Fix,GT,34.2295626,-118.4729474,223.4080676539999,32.799427,0.1,0.83465576,1638984533000
Fix,GT,34.2298606,-118.4729416,223.76307072366475,33.209198,0.1,0.8401184,1638984534000
Fix,GT,34.2301608,-118.4729366,224.08206082047755,33.41097,0.1,0.48623657,1638984535000
Fix,GT,34.2304632,-118.4729329,224.3240594897121,33.62529,0.1,0.5583801,1638984536000
Fix,GT,34.2307674,-118.4729285,224.6380602678024,33.901012,0.1,0.4474182,1638984537000
Fix,GT,34.2310744,-118.4729257,224.841011412784,34.213276,0.1,0.40325928,1638984538000
Fix,GT,34.2313822,-118.472922,225.1160859294148,33.975998,0.1,0.50772095,1638984539000
Fix,GT,34.2316873,-118.472919,225.49908468033,33.853767,0.1,0.28686523,1638984540000
Fix,GT,34.2319945,-118.4729168,225.832067961195,34.390823,0.1,0.2991333,1638984541000
Fix,GT,34.2323072,-118.4729139,226.08508430129243,34.95141,0.1,0.41210938,1638984542000
Fix,GT,34.2326239,-118.4729102,226.4190614171671,35.237736,0.1,0.4475708,1638984543000
Fix,GT,34.2329405,-118.4729065,226.68707519029823,34.93838,0.1,0.62161255,1638984544000
Fix,GT,34.2332551,-118.4729018,226.96605005746613,34.853497,0.1,0.53097534,1638984545000
Fix,GT,34.2335691,-118.4728977,227.2420464427918,34.73622,0.1,0.6248779,1638984546000
Fix,GT,34.2338803,-118.4728924,227.52206914024868,34.319317,0.1,0.83566284,1638984547000
Fix,GT,34.2341876,-118.4728886,227.8700546150212,33.90969,0.1,0.21426392,1638984548000
Fix,GT,34.2344937,-118.4728876,228.13506175109416,34.079197,0.1,0.022094727,1638984549000
Fix,GT,34.2348033,-118.4728871,228.43607742773904,34.541992,0.1,0.04248047,1638984550000
Fix,GT,34.2351132,-118.4728857,228.74509142358508,34.16046,0.1,0.25827026,1638984551000
Fix,GT,34.2354188,-118.4728826,229.2341161861136,33.625854,0.1,0.4458313,1638984552000
Fix,GT,34.2357197,-118.4728797,229.54112306004737,33.136208,0.1,0.44033813,1638984553000
Fix,GT,34.2360166,-118.4728767,229.62302943852168,32.73488,0.1,0.40881348,1638984554000
Fix,GT,34.2363089,-118.472874,229.8360643081954,32.15182,0.1,0.36584473,1638984555000
Fix,GT,34.2365975,-118.4728714,230.14806554650443,32.01207,0.1,0.3607483,1638984556000
Fix,GT,34.236888,-118.4728693,230.438048674769,32.336334,0.1,0.22442627,1638984557000
Fix,GT,34.2371782,-118.4728667,230.69605654510852,32.044308,0.1,0.4668274,1638984558000
Fix,GT,34.2374654,-118.4728632,230.96906771779595,31.671175,0.1,0.47555542,1638984559000
Fix,GT,34.2377493,-118.4728605,231.2660665758252,31.243443,0.1,0.29058838,1638984560000
Fix,GT,34.2380266,-118.4728584,231.52506265615852,30.19766,0.099,0.45324707,1638984561000
Fix,GT,34.2382919,-118.4728552,231.82204456640773,28.815971,0.1,0.6390991,1638984562000
Fix,GT,34.2385499,-118.4728519,232.1020704841456,28.501402,0.1,0.5447693,1638984563000
Fix,GT,34.2388037,-118.4728485,232.41906130066468,27.435368,0.1,0.56427,1638984564000
Fix,GT,34.2390423,-118.4728453,232.5900338753122,25.738436,0.1,0.54803467,1638984565000
Fix,GT,34.2392698,-118.4728422,232.87106718439424,24.786285,0.1,0.500885,1638984566000
Fix,GT,34.2394888,-118.4728404,233.12203776686547,23.730888,0.1,0.12561035,1638984567000
Fix,GT,34.2396976,-118.4728396,233.24701249388607,22.720985,0.1,0.15115356,1638984568000
Fix,GT,34.2399009,-118.4728387,233.41003958060685,22.405077,0.1,0.16738892,1638984569000
Fix,GT,34.2400998,-118.4728373,233.62903367736192,21.526106,0.1,0.292511,1638984570000
Fix,GT,34.2402875,-118.472836,233.8350472346333,20.137117,0.1,0.26107788,1638984571000
Fix,GT,34.2404641,-118.4728346,234.0490422592771,19.13042,0.1,0.35931396,1638984572000
Fix,GT,34.2406343,-118.4728331,234.19403192881867,18.63953,0.1,0.3968506,1638984573000
Fix,GT,34.2408014,-118.4728315,234.4080239390861,18.546625,0.1,0.3666687,1638984574000
Fix,GT,34.2409704,-118.47283,234.5900469159591,18.961763,0.1,0.37786865,1638984575000
Fix,GT,34.241144,-118.4728282,234.7530261509156,19.637148,0.1,0.4758606,1638984576000
Fix,GT,34.2413248,-118.4728261,234.93103748783216,20.251955,0.1,0.47982788,1638984577000
Fix,GT,34.2415086,-118.472824,235.0340143780876,20.579782,0.099,0.45925903,1638984578000
Fix,GT,34.2416935,-118.4728219,235.2700586281196,20.375063,0.1,0.5807495,1638984579000
Fix,GT,34.2418757,-118.4728196,235.4850402329928,20.081923,0.1,0.48590088,1638984580000
Fix,GT,34.2420577,-118.4728178,235.6680279885381,20.415531,0.1,0.34490967,1638984581000
Fix,GT,34.2422454,-118.4728163,235.82605651655723,21.196503,0.1,0.3555603,1638984582000
Fix,GT,34.2424366,-118.4728141,236.06403765326223,21.272457,0.1,0.6185608,1638984583000
Fix,GT,34.2426301,-118.4728111,236.30307786619105,21.66525,0.1,0.82528687,1638984584000
Fix,GT,34.2428282,-118.4728079,236.50704415490853,22.288574,0.1,0.5942688,1638984585000
Fix,GT,34.2430296,-118.4728053,236.74603846231173,22.471992,0.1,0.45343018,1638984586000
Fix,GT,34.2432327,-118.4728039,236.82402621827208,22.566334,0.099,0.22717285,1638984587000
Fix,GT,34.2434376,-118.4728032,237.0310506942868,22.778967,0.1,359.9819,1638984588000
Fix,GT,34.2436432,-118.4728023,237.20403844487925,23.006546,0.1,0.35253906,1638984589000
Fix,GT,34.2438541,-118.4728008,237.3490233585844,23.86351,0.1,0.28100586,1638984590000
Fix,GT,34.2440701,-118.4727987,237.5200386329191,23.896954,0.1,0.5165405,1638984591000
Fix,GT,34.244285,-118.4727959,237.6730242807428,23.893606,0.1,0.6044922,1638984592000
Fix,GT,34.2445024,-118.4727929,237.8270331284455,24.352676,0.1,0.58413696,1638984593000
Fix,GT,34.2447247,-118.4727901,237.9600181694075,25.021532,0.1,0.537323,1638984594000
Fix,GT,34.2449537,-118.4727869,238.01200773325863,25.758026,0.1,0.6503906,1638984595000
Fix,GT,34.2451863,-118.4727828,238.0379807387777,25.86476,0.099,0.8880615,1638984596000
Fix,GT,34.24542,-118.472776,238.03401226441144,26.010822,0.1,1.8929138,1638984597000
Fix,GT,34.2456554,-118.4727621,238.12903796505927,26.182636,0.1,3.5608826,1638984598000
Fix,GT,34.2458908,-118.4727393,238.31704499475404,26.310907,0.1,5.4710693,1638984599000
Fix,GT,34.2461255,-118.4727068,238.48602245657003,26.108168,0.1,7.462799,1638984600000
Fix,GT,34.2463569,-118.4726661,238.69105447396635,25.80932,0.1,8.8168335,1638984601000
Fix,GT,34.2465865,-118.47262,238.95307719032584,25.951117,0.1,9.875824,1638984602000
Fix,GT,34.2468173,-118.4725694,239.287071266376,25.948807,0.1,10.584839,1638984603000
Fix,GT,34.2470468,-118.4725175,239.5890572148841,25.991774,0.1,10.495117,1638984604000
Fix,GT,34.2472781,-118.4724657,239.87305573218967,26.108776,0.1,10.613495,1638984605000
Fix,GT,34.2475097,-118.4724126,240.24309423626843,26.14946,0.099,10.777466,1638984606000
Fix,GT,34.2477404,-118.4723595,240.83113858897283,26.06368,0.1,10.750671,1638984607000
Fix,GT,34.2479728,-118.4723081,241.4361305245131,26.364555,0.1,10.059631,1638984608000
Fix,GT,34.2482087,-118.4722605,242.0221076938128,26.691837,0.1,8.90921,1638984609000
Fix,GT,34.2484477,-118.4722193,242.5151116338268,26.700485,0.1,7.3931885,1638984610000
Fix,GT,34.248687,-118.472186,242.9640846828672,26.80776,0.1,5.809387,1638984611000
Fix,GT,34.2489272,-118.4721614,243.4280950762911,26.61139,0.1,4.0960083,1638984612000
Fix,GT,34.2491657,-118.4721444,243.79904912001385,26.344946,0.1,3.102295,1638984613000
Fix,GT,34.2494014,-118.4721286,244.03303971886265,26.090433,0.1,2.9605713,1638984614000
Fix,GT,34.2496381,-118.4721148,244.2260416575496,26.57228,0.1,2.638794,1638984615000
Fix,GT,34.24988,-118.4721015,244.54217410427125,26.94728,0.1,2.1765137,1638984616000
Fix,GT,34.2501215,-118.4720912,244.9620952026173,26.655138,0.099,1.9478455,1638984617000
Fix,GT,34.2503635,-118.4720804,245.2729657572664,27.268017,0.1,2.3683777,1638984618000
Fix,GT,34.2506137,-118.4720672,245.3249949524724,28.28607,0.1,2.464203,1638984619000
Fix,GT,34.2508709,-118.4720543,245.4290203205668,28.799799,0.1,2.0769348,1638984620000
Fix,GT,34.2511309,-118.4720449,245.5950313542457,28.712084,0.1,1.329773,1638984621000
Fix,GT,34.251386,-118.4720393,245.7650170102417,27.847212,0.1,0.66781616,1638984622000
Fix,GT,34.251634,-118.472037,245.8690259913849,27.289257,0.1,0.19165039,1638984623000
Fix,GT,34.2518785,-118.4720357,245.98901716637425,27.015379,0.1,0.27175903,1638984624000
Fix,GT,34.2521213,-118.4720337,246.13901951416585,26.811756,0.1,0.4321289,1638984625000
Fix,GT,34.2523616,-118.472031,246.25202567311004,26.527132,0.1,0.5579834,1638984626000
Fix,GT,34.2525993,-118.4720277,246.3700509232516,26.210016,0.1,0.6635742,1638984627000
Fix,GT,34.252834,-118.4720238,246.56803652883417,25.879675,0.1,0.8034973,1638984628000
Fix,GT,34.2530658,-118.47202,246.72703690211523,25.552586,0.1,0.5602417,1638984629000
Fix,GT,34.2532944,-118.472016,246.86399723018985,25.177612,0.1,1.4411926,1638984630000
Fix,GT,34.2535198,-118.4720057,246.92502445155125,24.865524,0.1,2.6418457,1638984631000
Fix,GT,34.253742,-118.4719922,247.09001239050343,24.516798,0.1,3.0802612,1638984632000
Fix,GT,34.2539613,-118.4719778,247.1080499653523,24.199652,0.1,3.1655273,1638984633000
Fix,GT,34.254178,-118.4719632,247.18401903784,24.048893,0.1,3.1127014,1638984634000
Fix,GT,34.2543961,-118.4719485,247.3270507392604,24.440226,0.1,3.168579,1638984635000
Fix,GT,34.2546146,-118.4719333,247.46403682580683,23.87043,0.1,3.2832947,1638984636000
Fix,GT,34.2548239,-118.4719195,247.5910244265944,22.631779,0.1,3.0758362,1638984637000
Fix,GT,34.2550227,-118.4719064,247.68202332657452,21.57555,0.1,3.2372742,1638984638000
Fix,GT,34.2552113,-118.4718914,247.70101732510165,20.344763,0.1,4.4600525,1638984639000
Fix,GT,34.255389,-118.4718683,247.6710009127576,19.51071,0.1,7.9536133,1638984640000
Fix,GT,34.2555573,-118.471827,247.52492661050428,18.665634,0.099,14.51236,1638984641000
Fix,GT,34.2557121,-118.4717589,247.30295603615417,18.09911,0.1,24.497162,1638984642000
Fix,GT,34.255849,-118.4716605,247.10394715314823,17.522394,0.1,35.428192,1638984643000
Fix,GT,34.2559656,-118.471538,247.03500109605253,16.993135,0.1,44.673218,1638984644000
Fix,GT,34.256068,-118.4714065,246.93297762382727,16.150976,0.1,47.92151,1638984645000
Fix,GT,34.2561617,-118.4712838,246.7979642478421,14.634344,0.1,46.990936,1638984646000
Fix,GT,34.2562563,-118.4711781,246.62894947628024,14.00576,0.1,39.54193,1638984647000
Fix,GT,34.2563634,-118.4710993,246.37994910129905,13.742532,0.1,26.124268,1638984648000
Fix,GT,34.2564825,-118.47106,246.1169217306673,13.303677,0.1,7.851349,1638984649000
Fix,GT,34.2565996,-118.4710695,245.73692966582345,12.605673,0.1,348.9581,1638984650000
Fix,GT,34.256704,-118.4711141,245.30491711264293,11.766281,0.1,336.564,1638984651000
Fix,GT,34.2567972,-118.471167,244.90892012603487,11.027122,0.1,334.26898,1638984652000
Fix,GT,34.2568819,-118.4712155,244.573930089877,9.756453,0.1,334.45493,1638984653000
Fix,GT,34.2569564,-118.4712583,244.3269597858286,8.439152,0.1,334.29486,1638984654000
Fix,GT,34.2570196,-118.4712947,244.14193870579777,7.191466,0.1,334.282,1638984655000
Fix,GT,34.2570736,-118.4713259,244.02201443932483,6.0510864,0.1,334.4036,1638984656000
Fix,GT,34.2571167,-118.4713505,243.9779706890858,4.488716,0.1,335.14194,1638984657000
Fix,GT,34.2571467,-118.4713669,243.95099048588327,2.939691,0.099,335.82138,1638984658000
Fix,GT,34.2571656,-118.471377,243.9320007775565,1.6344526,0.1,336.19644,1638984659000
Fix,GT,34.2571736,-118.4713813,243.9130009654372,0.37356728,0.1,336.2188,1638984660000
Fix,GT,34.2571741,-118.4713817,243.9110047064447,0.011698336,0.1,336.21136,1638984661000
Fix,GT,34.257174,-118.4713818,243.91300045432337,0.009852664,0.1,336.21207,1638984662000
Fix,GT,34.257174,-118.4713818,243.9149940937478,0.008944272,0.1,336.2115,1638984663000
Fix,GT,34.257174,-118.4713818,243.91600437723588,0.006706407,0.1,336.2115,1638984664000
Fix,GT,34.257174,-118.4713818,243.9159984666398,0.004473217,0.1,336.21127,1638984665000
Fix,GT,34.257174,-118.4713818,243.91600420254284,0.0036055516,0.1,336.21094,1638984666000
Fix,GT,34.257174,-118.4713818,243.91600278276485,0.0028272152,0.1,336.21063,1638984667000
Fix,GT,34.257174,-118.4713818,243.91599642215948,0.0014142134,0.1,336.21017,1638984668000
Fix,GT,34.257174,-118.4713818,243.91600465687176,0.001,0.1,336.20953,1638984669000
Fix,GT,34.257174,-118.4713818,243.91599835305755,0.002236068,0.1,336.20898,1638984670000
Fix,GT,34.257174,-118.4713818,243.9159944344703,0.0028284271,0.1,336.20853,1638984671000
Fix,GT,34.257174,-118.4713818,243.9160026691826,0.0044732136,0.1,336.20813,1638984672000
Fix,GT,34.257174,-118.4713818,243.9160011926135,0.005003486,0.1,336.20764,1638984673000
Fix,GT,34.257174,-118.4713818,243.9159973308174,0.0072094547,0.1,336.20682,1638984674000
Fix,GT,34.2571739,-118.4713818,243.9159934690213,0.008062257,0.099,336.2063,1638984675000
Fix,GT,34.2571739,-118.4713818,243.9160040889606,0.0078073824,0.1,336.20615,1638984676000
Fix,GT,34.2571739,-118.4713817,243.9159977851464,0.0058321175,0.1,336.2059,1638984677000
Fix,GT,34.2571738,-118.4713817,243.91599386655912,0.0009979641,0.099,336.20557,1638984678000
Fix,GT,34.2571738,-118.4713816,243.9160021012714,0.0042515127,0.1,336.2055,1638984679000
Fix,GT,34.2571738,-118.4713817,243.9149957974744,0.014146482,0.1,336.2055,1638984680000
Fix,GT,34.2571739,-118.4713817,243.91400153334763,0.035403166,0.1,336.20703,1638984681000
Fix,GT,34.2571773,-118.4713838,243.88298262695363,1.2711483,0.1,336.12833,1638984682000
Fix,GT,34.2572006,-118.4713966,243.82598842384547,4.2463956,0.1,335.69968,1638984683000
Fix,GT,34.2572424,-118.4714207,243.7359844180967,6.0267043,0.1,334.2106,1638984684000
Fix,GT,34.2572947,-118.4714585,243.9000231916574,7.302817,0.1,327.01962,1638984685000
Fix,GT,34.257346,-118.4715185,243.9519847771297,8.316687,0.1,311.02072,1638984686000
Fix,GT,34.257385,-118.471606,243.90799665945767,9.841245,0.1,292.6138,1638984687000
Fix,GT,34.2574062,-118.47172,243.7789692649676,11.494434,0.099,278.4174,1638984688000
Fix,GT,34.257417,-118.4718549,243.7209782891048,13.362648,0.1,274.25467,1638984689000
Fix,GT,34.2574253,-118.4720074,243.71499695667973,14.600949,0.099,273.0985,1638984690000
Fix,GT,34.2574315,-118.4721687,243.76799059887696,14.900688,0.1,272.125,1638984691000
Fix,GT,34.2574356,-118.4723293,243.7790175058581,14.587338,0.1,271.4051,1638984692000
Fix,GT,34.2574378,-118.4724837,243.83701399798784,13.787076,0.099,270.84564,1638984693000
Fix,GT,34.2574387,-118.472627,243.83600841416813,12.413757,0.1,270.3741,1638984694000
Fix,GT,34.2574389,-118.4727535,243.87700771630463,10.837612,0.1,270.28876,1638984695000
Fix,GT,34.2574392,-118.4728607,243.9220086768868,9.159127,0.1,270.87433,1638984696000
Fix,GT,34.2574442,-118.4729557,243.9339926996061,8.331146,0.1,276.63455,1638984697000
Fix,GT,34.2574648,-118.4730373,243.8859754528208,7.829982,0.1,293.12366,1638984698000
Fix,GT,34.2575078,-118.4731047,243.922980031793,8.379695,0.1,312.2176,1638984699000
Fix,GT,34.2575691,-118.4731665,243.99901362546063,9.555197,0.099,321.69397,1638984700000
Fix,GT,34.257642,-118.4732347,244.11101337006875,10.870397,0.1,322.2315,1638984701000
Fix,GT,34.2577234,-118.4733074,244.19002152639555,11.465905,0.1,324.94543,1638984702000
Fix,GT,34.2578122,-118.4733689,244.4090751944445,11.410611,0.1,334.12222,1638984703000
Fix,GT,34.2579106,-118.473404,244.86010260106903,11.702232,0.1,349.86032,1638984704000
Fix,GT,34.2580149,-118.4733993,245.4681304292341,11.841124,0.1,9.461029,1638984705000
Fix,GT,34.2581133,-118.4733519,246.0801292734444,12.20104,0.1,28.84961,1638984706000
Fix,GT,34.2581962,-118.4732641,246.67510475880468,12.611102,0.1,48.865906,1638984707000
Fix,GT,34.2582497,-118.4731463,247.21311204935705,12.420125,0.1,68.567505,1638984708000
Fix,GT,34.2582675,-118.4730185,247.72109178006184,11.823507,0.1,87.35358,1638984709000
Fix,GT,34.2582493,-118.4728983,248.1040730827412,11.170615,0.1,107.25037,1638984710000
Fix,GT,34.2581986,-118.4727938,248.368036501992,11.814625,0.1,126.75873,1638984711000
Fix,GT,34.2581115,-118.4727069,248.6270764662396,13.6515,0.1,147.60791,1638984712000
Fix,GT,34.2579903,-118.4726523,248.97807103280724,15.471794,0.1,165.20233,1638984713000
Fix,GT,34.2578445,-118.4726263,249.2800248437617,17.402416,0.1,174.04608,1638984714000
Fix,GT,34.2576799,-118.4726117,249.37001632850385,19.317575,0.099,176.09222,1638984715000
Fix,GT,34.2574972,-118.4725993,249.49697471961497,21.269653,0.1,176.8847,1638984716000
Fix,GT,34.2572984,-118.4725895,249.4009467264018,22.919876,0.1,177.78717,1638984717000
Fix,GT,34.2570846,-118.4725816,249.24091718595568,24.56748,0.1,178.1264,1638984718000
Fix,GT,34.2568553,-118.4725745,248.9529532375112,26.325089,0.1,178.34924,1638984719000
Fix,GT,34.2566121,-118.4725674,248.75397273349992,27.569288,0.099,178.53052,1638984720000
Fix,GT,34.2563596,-118.4725624,248.60795469667949,28.490133,0.1,179.02771,1638984721000
Fix,GT,34.2560985,-118.4725556,248.44394979957164,29.314892,0.1,178.06335,1638984722000
Fix,GT,34.2558321,-118.4725447,248.2609751147596,29.819414,0.1,177.54004,1638984723000
Fix,GT,34.2555599,-118.472531,248.1149635692844,30.636494,0.1,177.26788,1638984724000
Fix,GT,34.2552802,-118.4725175,247.99598258838523,31.481634,0.099,177.86261,1638984725000
Fix,GT,34.2549934,-118.472509,247.864978467894,32.06247,0.1,178.96826,1638984726000
Fix,GT,34.2547034,-118.4725049,247.8069719298464,32.327976,0.1,178.75916,1638984727000
Fix,GT,34.2544096,-118.4724957,247.6479644167824,32.961452,0.1,178.02893,1638984728000
Fix,GT,34.2541095,-118.4724864,247.45996336577625,33.574135,0.1,178.77698,1638984729000
Fix,GT,34.2538073,-118.472482,247.2719663841161,33.44361,0.1,179.49957,1638984730000
Fix,GT,34.2535044,-118.4724822,247.08096780850389,33.823444,0.1,180.09329,1638984731000
Fix,GT,34.2531996,-118.4724852,246.93394292779288,33.68964,0.1,180.30154,1638984732000
Fix,GT,34.2528975,-118.4724876,246.779967693147,33.3315,0.1,180.10455,1638984733000
Fix,GT,34.2525985,-118.4724895,246.579936826108,33.017403,0.1,180.10373,1638984734000
Fix,GT,34.2523023,-118.4724924,246.375969501378,32.693554,0.1,180.38498,1638984735000
Fix,GT,34.2520091,-118.472496,246.24796646910343,32.374363,0.1,180.27187,1638984736000
Fix,GT,34.2517186,-118.4724979,246.1389715272454,32.062218,0.1,180.03175,1638984737000
Fix,GT,34.2514309,-118.4724993,245.95496399835685,31.785208,0.099,180.05568,1638984738000
Fix,GT,34.2511452,-118.4725012,245.81796493185823,31.650587,0.1,180.1481,1638984739000
Fix,GT,34.2508609,-118.4725037,245.7079792300395,31.399584,0.099,180.07544,1638984740000
Fix,GT,34.2505783,-118.4725023,245.6489603804648,31.432491,0.1,179.03247,1638984741000
Fix,GT,34.2502907,-118.4724953,245.4099440098847,32.387867,0.1,178.51996,1638984742000
Fix,GT,34.2499922,-118.4724886,244.90591179036252,33.75312,0.1,179.00183,1638984743000
Fix,GT,34.249685,-118.4724862,244.2727938030495,34.3191,0.1,179.72333,1638984744000
Fix,GT,34.2493748,-118.4724894,243.4828530900444,34.393997,0.1,180.75095,1638984745000
Fix,GT,34.2490656,-118.4725001,242.6788437593691,34.29041,0.099,182.40189,1638984746000
Fix,GT,34.2487564,-118.4725241,242.0568819337892,34.459858,0.1,184.61603,1638984747000
Fix,GT,34.2484472,-118.4725637,241.4548795726884,34.591743,0.1,187.3357,1638984748000
Fix,GT,34.2481394,-118.4726213,240.9479198684022,34.51043,0.1,189.82143,1638984749000
Fix,GT,34.2478334,-118.4726896,240.5809218942076,34.62239,0.1,190.48973,1638984750000
Fix,GT,34.247526,-118.4727597,240.210934308582,34.784065,0.1,190.59486,1638984751000
Fix,GT,34.2472184,-118.4728299,239.8529564284136,34.624718,0.1,190.53847,1638984752000
Fix,GT,34.2469131,-118.4729,239.7070040865932,34.30196,0.1,190.58167,1638984753000
Fix,GT,34.2466119,-118.4729678,239.6509770360582,33.726627,0.1,190.04536,1638984754000
Fix,GT,34.2463134,-118.4730271,239.65397788445,33.46401,0.1,188.1372,1638984755000
Fix,GT,34.2460145,-118.4730723,239.44696580430767,33.299507,0.1,185.83911,1638984756000
Fix,GT,34.2457165,-118.4731037,239.2179678048492,33.02303,0.1,183.71144,1638984757000
Fix,GT,34.2454203,-118.4731217,238.94094039324253,32.761757,0.1,181.81352,1638984758000
Fix,GT,34.2451251,-118.4731295,238.60092520341183,32.868217,0.1,180.47653,1638984759000
Fix,GT,34.2448278,-118.473132,238.2108876924869,32.942463,0.1,180.11383,1638984760000
Fix,GT,34.2445319,-118.4731346,237.86795044053693,32.698563,0.1,180.41316,1638984761000
Fix,GT,34.2442385,-118.4731384,237.6679638275185,32.413906,0.1,180.4533,1638984762000
Fix,GT,34.2439474,-118.4731421,237.4169571757766,32.16742,0.1,180.34749,1638984763000
Fix,GT,34.2436585,-118.4731455,237.2609596523128,31.932386,0.1,180.38585,1638984764000
Fix,GT,34.2433728,-118.473149,236.9799232856817,31.527498,0.1,180.33519,1638984765000
Fix,GT,34.2430895,-118.4731516,236.7669952433221,31.304554,0.1,180.14961,1638984766000
Fix,GT,34.2428085,-118.4731541,236.56795585555213,31.027134,0.1,180.37488,1638984767000
Fix,GT,34.2425322,-118.4731568,236.22493280677776,30.329538,0.1,180.20827,1638984768000
Fix,GT,34.2422614,-118.4731592,235.9029355662512,29.735052,0.1,180.30748,1638984769000
Fix,GT,34.2419957,-118.4731619,235.6069465267568,29.303139,0.1,180.3455,1638984770000
Fix,GT,34.2417324,-118.4731648,235.37295203547995,29.15592,0.1,180.2733,1638984771000
Fix,GT,34.2414691,-118.4731668,235.103959072698,29.308409,0.1,180.08984,1638984772000
Fix,GT,34.241205,-118.4731682,234.87496029017493,29.227236,0.1,180.16151,1638984773000
Fix,GT,34.2409425,-118.4731711,234.6089474617103,29.020271,0.099,180.28754,1638984774000
Fix,GT,34.2406815,-118.4731736,234.33192921516368,28.952084,0.1,180.33333,1638984775000
Fix,GT,34.2404204,-118.4731768,234.0549615030843,28.892414,0.1,180.42674,1638984776000
Fix,GT,34.2401628,-118.4731803,233.7769355499456,28.406734,0.1,180.42302,1638984777000
Fix,GT,34.2399077,-118.4731831,233.47393828886743,28.199835,0.1,180.23982,1638984778000
Fix,GT,34.2396541,-118.473185,233.1789573326446,28.119385,0.1,180.09883,1638984779000
Fix,GT,34.2393992,-118.4731871,232.94096044509067,28.469687,0.1,180.43883,1638984780000
Fix,GT,34.2391426,-118.4731902,232.68993799161456,28.465372,0.1,180.41107,1638984781000
Fix,GT,34.2388844,-118.4731932,232.4119485590128,28.812302,0.1,180.25597,1638984782000
Fix,GT,34.2386248,-118.4731945,232.15394973343552,28.747074,0.099,179.99799,1638984783000
Fix,GT,34.2383666,-118.4731963,231.93196057854905,28.55167,0.1,180.47559,1638984784000
Fix,GT,34.2381089,-118.4732001,231.6789478152016,28.697168,0.1,180.49892,1638984785000
Fix,GT,34.2378487,-118.4732034,231.4309505288037,29.005516,0.1,180.38223,1638984786000
Fix,GT,34.237587,-118.4732065,231.18195941712264,29.106186,0.1,180.28967,1638984787000
Fix,GT,34.2373244,-118.4732085,230.90495632501472,29.117514,0.1,180.17114,1638984788000
Fix,GT,34.2370611,-118.4732106,230.62294372747328,29.23468,0.099,180.22235,1638984789000
Fix,GT,34.2367976,-118.473213,230.36896715895435,29.200006,0.1,180.3345,1638984790000
Fix,GT,34.2365351,-118.4732162,230.1499640679024,29.119532,0.1,180.37123,1638984791000
Fix,GT,34.2362717,-118.4732182,229.9049549831997,29.300274,0.099,180.0552,1638984792000
Fix,GT,34.2360075,-118.4732202,229.7139596095234,29.247452,0.099,180.41035,1638984793000
Fix,GT,34.2357449,-118.4732236,229.58799502867367,29.000732,0.1,180.50981,1638984794000
Fix,GT,34.2354838,-118.4732273,229.3369396417021,28.90726,0.1,180.38103,1638984795000
Fix,GT,34.2352233,-118.4732299,229.00691332460343,28.884617,0.1,180.26465,1638984796000
Fix,GT,34.2349634,-118.473232,228.6959483380396,28.82968,0.1,180.16739,1638984797000
Fix,GT,34.2347035,-118.4732342,228.38495572020813,28.76474,0.1,180.24545,1638984798000
Fix,GT,34.2344443,-118.4732368,228.12894880886927,28.765886,0.1,180.2832,1638984799000
Fix,GT,34.2341857,-118.4732392,227.9019546105638,28.573797,0.099,180.25446,1638984800000
Fix,GT,34.2339293,-118.4732412,227.68295291092332,28.321392,0.1,180.17606,1638984801000
Fix,GT,34.2336749,-118.4732432,227.42794373047573,28.187748,0.1,180.28343,1638984802000
Fix,GT,34.2334202,-118.4732456,227.16494917105183,28.33609,0.1,180.35301,1638984803000
Fix,GT,34.2331644,-118.473249,226.9019515237408,28.333023,0.1,180.54039,1638984804000
Fix,GT,34.2329091,-118.4732526,226.67496317650844,28.387367,0.1,180.33224,1638984805000
Fix,GT,34.2326533,-118.4732549,226.37693417928904,28.313671,0.099,180.25244,1638984806000
Fix,GT,34.2323989,-118.4732574,226.1019607807591,28.101961,0.1,180.34528,1638984807000
Fix,GT,34.23215,-118.4732596,225.8169417268938,26.985502,0.1,180.23381,1638984808000
Fix,GT,34.2319139,-118.4732619,225.54996056784225,25.354668,0.1,180.36436,1638984809000
Fix,GT,34.2316902,-118.4732644,225.44796670048288,24.497038,0.099,180.36462,1638984810000
Fix,GT,34.2314704,-118.4732665,225.27995184565427,24.270643,0.1,180.24005,1638984811000
Fix,GT,34.2312512,-118.473268,225.0249611955681,24.49536,0.1,180.0636,1638984812000
Fix,GT,34.2310274,-118.4732685,224.88896853308407,25.15204,0.1,179.94714,1638984813000
Fix,GT,34.2308007,-118.4732702,224.71297439552583,25.099161,0.1,180.42352,1638984814000
Fix,GT,34.2305775,-118.4732731,224.51495853539203,24.159103,0.099,180.4907,1638984815000
Fix,GT,34.2303658,-118.4732759,224.31395263327732,22.972233,0.1,180.50166,1638984816000
Fix,GT,34.2301608,-118.4732788,224.0859489004932,22.628416,0.1,180.5091,1638984817000
Fix,GT,34.2299572,-118.4732812,223.84495087627752,22.45376,0.1,180.33455,1638984818000
Fix,GT,34.229757,-118.4732829,223.61595413425405,22.051334,0.1,180.17471,1638984819000
Fix,GT,34.2295582,-118.473284,223.37795007562448,22.107094,0.099,180.07019,1638984820000
Fix,GT,34.2293592,-118.4732854,223.14395935386827,22.038551,0.1,180.28598,1638984821000
Fix,GT,34.2291604,-118.4732873,222.9099647825445,22.096884,0.1,180.38837,1638984822000
Fix,GT,34.2289616,-118.4732896,222.7299680158328,22.003023,0.1,180.42192,1638984823000
Fix,GT,34.2287642,-118.4732921,222.546979119814,21.73631,0.1,180.47157,1638984824000
Fix,GT,34.2285695,-118.4732946,222.52401262693505,21.467245,0.1,180.42514,1638984825000
Fix,GT,34.2283776,-118.4732968,222.44891364251825,21.079575,0.1,180.34195,1638984826000
Fix,GT,34.2281893,-118.4732984,222.27700642109772,20.808485,0.1,180.1813,1638984827000
Fix,GT,34.2280005,-118.4732998,222.0839705668332,21.15956,0.1,180.2308,1638984828000
Fix,GT,34.2278069,-118.4733013,221.889987337566,21.772627,0.1,180.17804,1638984829000
Fix,GT,34.2276096,-118.4733027,221.6279379883904,21.895956,0.1,180.2922,1638984830000
Fix,GT,34.2274126,-118.4733048,221.30595630484825,21.832706,0.1,180.30211,1638984831000
Fix,GT,34.2272139,-118.4733063,221.04598434867103,22.377571,0.1,180.14017,1638984832000
Fix,GT,34.2270107,-118.4733077,220.9219664817544,22.550505,0.1,180.24461,1638984833000
Fix,GT,34.2268081,-118.4733094,220.74296026286493,22.435608,0.1,180.25812,1638984834000
Fix,GT,34.2266045,-118.4733112,220.5749819614761,22.815857,0.1,180.37299,1638984835000
Fix,GT,34.2263976,-118.4733139,220.4989804053052,22.91734,0.1,180.53613,1638984836000
Fix,GT,34.2261927,-118.473316,220.4199769699767,22.464256,0.1,180.1906,1638984837000
Fix,GT,34.2259929,-118.4733178,220.31297762376627,21.843508,0.1,180.27742,1638984838000
Fix,GT,34.2257982,-118.4733197,220.27199293020985,21.435888,0.1,180.3911,1638984839000
Fix,GT,34.2256056,-118.4733214,220.16198010875092,21.338339,0.1,180.22458,1638984840000
Fix,GT,34.2254138,-118.4733235,220.04898263679223,21.209097,0.1,180.47923,1638984841000
Fix,GT,34.2252226,-118.473326,219.95299046024587,21.335123,0.1,180.39847,1638984842000
Fix,GT,34.2250279,-118.4733275,219.8509792084917,21.842293,0.1,180.0667,1638984843000
Fix,GT,34.2248291,-118.4733287,219.8250098245381,22.229586,0.1,180.29568,1638984844000
Fix,GT,34.2246277,-118.473331,219.7789471233636,22.384594,0.1,180.61076,1638984845000
Fix,GT,34.2244255,-118.4733343,219.6129908170968,22.580444,0.1,180.4569,1638984846000
Fix,GT,34.2242211,-118.473336,219.52796561815683,22.665306,0.1,180.1587,1638984847000
Fix,GT,34.2240172,-118.4733372,219.32696067277493,22.554306,0.1,180.13425,1638984848000
Fix,GT,34.2238143,-118.4733397,219.18898711795,22.436049,0.1,180.68126,1638984849000
Fix,GT,34.2236126,-118.473343,219.12098249676683,22.303482,0.1,180.56592,1638984850000
Fix,GT,34.2234134,-118.4733456,219.0749936794642,21.895134,0.1,180.45631,1638984851000
Fix,GT,34.2232167,-118.4733477,219.0209943221184,21.83476,0.1,180.28578,1638984852000
Fix,GT,34.2230186,-118.4733497,218.9279729270632,22.151144,0.1,180.42241,1638984853000
Fix,GT,34.2228166,-118.4733521,218.7939747916544,22.552883,0.1,180.33916,1638984854000
Fix,GT,34.2226133,-118.4733535,218.6209791379706,22.531078,0.1,180.01859,1638984855000
Fix,GT,34.2224098,-118.4733544,218.4920337237519,22.704535,0.1,180.05826,1638984856000
Fix,GT,34.2222044,-118.4733556,218.4820024141716,22.750542,0.1,180.31158,1638984857000
