MessageType,Provider,LatitudeDegrees,LongitudeDegrees,AltitudeMeters,SpeedMps,AccuracyMeters,BearingDegrees,UnixTimeMillis
Fix,GT,37.3713145,-122.0479814,9.097,4.9532655e-06,0.1,195.18977,1615417984999
Fix,GT,37.3713145,-122.0479814,9.097,0.0009950465,0.1,195.19011,1615417985999
Fix,GT,37.3713145,-122.0479814,9.097,0.001,0.1,195.19006,1615417986999
Fix,GT,37.3713145,-122.0479814,9.097,0.0029900915,0.1,195.1901,1615417987999
Fix,GT,37.3713145,-122.0479814,9.097,0.0,0.1,195.18994,1615417988999
Fix,GT,37.3713145,-122.0479814,9.097,1.1079836e-05,0.1,195.19035,1615417989999
Fix,GT,37.3713145,-122.0479814,9.097,0.0014142136,0.1,195.19049,1615417990999
Fix,GT,37.3713145,-122.0479814,9.097,0.0,0.1,195.19038,1615417991999
Fix,GT,37.3713145,-122.0479814,9.093009912014008,0.08488352,0.1,195.18166,1615417992999
Fix,GT,37.3713105,-122.0479824,9.092995043575764,0.77976906,0.1,194.26921,1615417993999
Fix,GT,37.3713011,-122.0479837,9.100990086555482,1.2606623,0.1,191.18883,1615417994999
Fix,GT,37.371288,-122.0479852,9.112,1.616757,0.1,188.00621,1615417995999
Fix,GT,37.3712724,-122.0479875,9.13599008512497,1.8896377,0.1,187.4416,1615417996999
Fix,GT,37.3712557,-122.0479935,9.168970253586773,1.8709195,0.1,193.51349,1615417997999
Fix,GT,37.3712449,-122.0480074,9.221970251441002,1.5025862,0.1,212.48917,1615417998999
Fix,GT,37.3712395,-122.0480246,9.244995041549204,1.6883925,0.1,232.47473,1615417999999
Fix,GT,37.371239,-122.0480463,9.27499504119158,2.0069525,0.1,254.70468,1615418000999
Fix,GT,37.3712418,-122.0480715,9.28699008178711,2.417581,0.1,270.46997,1615418001999
Fix,GT,37.3712463,-122.0481001,9.317985121428968,2.781923,0.1,278.11188,1615418002999
Fix,GT,37.3712527,-122.0481335,9.365975200891494,3.3450222,0.1,282.38165,1615418003999
Fix,GT,37.3712595,-122.0481712,9.430965278744695,3.4835906,0.1,282.79346,1615418004999
Fix,GT,37.3712665,-122.048209,9.51295039522648,3.3766727,0.1,282.8813,1615418005999
Fix,GT,37.371273,-122.0482454,9.509059530735016,3.3031776,0.1,282.80927,1615418006999
Fix,GT,37.37128,-122.0482819,9.45400496119261,3.343472,0.1,283.50015,1615418007999
Fix,GT,37.3712878,-122.0483186,9.424024807453156,3.3768964,0.1,285.01526,1615418008999
Fix,GT,37.3712964,-122.0483547,9.354950380921364,3.2921107,0.1,286.4381,1615418009999
Fix,GT,37.3713037,-122.0483879,9.366960301876068,2.716021,0.1,285.2932,1615418010999
Fix,GT,37.3713086,-122.0484127,9.40699007487297,1.7344081,0.1,284.1684,1615418011999
Fix,GT,37.3713109,-122.0484248,9.425995037138463,0.49296618,0.1,283.82062,1615418012999
Fix,GT,37.3713114,-122.0484274,9.421995036780835,0.18600488,0.1,283.76263,1615418013999
Fix,GT,37.3713121,-122.0484309,9.421004963576792,0.48388058,0.1,283.67902,1615418014999
Fix,GT,37.3713136,-122.0484389,9.427995036065578,1.0563439,0.1,283.49673,1615418015999
Fix,GT,37.3713166,-122.0484551,9.459970214605333,1.8942192,0.1,283.11023,1615418016999
Fix,GT,37.3713208,-122.0484789,9.5,2.218741,0.1,282.51614,1615418017999
Fix,GT,37.3713249,-122.0485026,9.521990070223808,2.0466948,0.1,282.08582,1615418018999
Fix,GT,37.3713301,-122.0485245,9.557014895915986,2.0676246,0.1,285.5716,1615418019999
Fix,GT,37.3713409,-122.0485397,9.427104277670384,1.6048712,0.1,302.2822,1615418020999
Fix,GT,37.3713574,-122.0485481,9.293975170493123,2.1713915,0.1,324.05273,1615418021999
Fix,GT,37.3713803,-122.0485503,9.406935438632964,2.8427737,0.1,347.327,1615418022999
Fix,GT,37.3714113,-122.0485444,9.465970200657845,4.170595,0.1,5.4699097,1615418023999
Fix,GT,37.3714542,-122.0485302,9.462019867420196,5.6757483,0.1,14.586334,1615418024999
Fix,GT,37.3715055,-122.0485101,9.423029803276062,6.0677543,0.1,17.69873,1615418025999
Fix,GT,37.3715564,-122.048487,9.36803974056244,5.959812,0.1,20.35492,1615418026999
Fix,GT,37.3716034,-122.0484601,9.278074518918991,5.4148493,0.1,25.5289,1615418027999
Fix,GT,37.3716404,-122.0484297,9.219009936451911,4.451646,0.1,33.99643,1615418028999
Fix,GT,37.3716686,-122.0483953,9.19001490575075,4.3220825,0.1,44.938293,1615418029999
Fix,GT,37.3716924,-122.0483545,9.176,4.7386565,0.1,54.136627,1615418030999
Fix,GT,37.3717131,-122.0483042,9.20299006140232,5.3591447,0.1,63.886353,1615418031999
Fix,GT,37.3717283,-122.0482423,9.25096521282196,6.1776586,0.1,74.41943,1615418032999
Fix,GT,37.3717343,-122.0481683,9.258,7.0826535,0.1,86.997925,1615418033999
Fix,GT,37.3717255,-122.048084,9.251009940505028,8.047644,0.1,100.03345,1615418034999
Fix,GT,37.3717068,-122.0479902,9.231004970550538,9.115894,0.1,104.42871,1615418035999
Fix,GT,37.3716842,-122.0478852,9.207014912724496,10.118745,0.1,104.86163,1615418036999
Fix,GT,37.3716608,-122.0477706,9.199004971265794,10.75459,0.1,104.10089,1615418037999
Fix,GT,37.3716364,-122.0476504,9.153014914870264,11.222657,0.1,104.30948,1615418038999
Fix,GT,37.3716105,-122.0475245,9.106,11.809466,0.1,104.331024,1615418039999
Fix,GT,37.3715835,-122.0473925,9.053024861097338,12.287027,0.1,104.20465,1615418040999
Fix,GT,37.3715556,-122.0472572,8.99300994515419,12.434264,0.1,104.59601,1615418041999
Fix,GT,37.3715265,-122.0471202,8.940034810125828,12.726679,0.1,104.996216,1615418042999
Fix,GT,37.3714963,-122.0469794,8.865039785385132,13.060423,0.1,104.882416,1615418043999
Fix,GT,37.3714663,-122.0468357,8.794044762313366,13.263512,0.1,104.55542,1615418044999
Fix,GT,37.371436,-122.0466898,8.716044765532017,13.454753,0.1,104.52515,1615418045999
Fix,GT,37.3714051,-122.0465418,8.655044768214225,13.649901,0.1,104.64661,1615418046999
Fix,GT,37.3713732,-122.0463915,8.548034821808338,13.8835945,0.1,104.863525,1615418047999
Fix,GT,37.371341,-122.0462389,8.457049749016763,14.072154,0.1,104.715576,1615418048999
Fix,GT,37.3713084,-122.0460843,8.380044776797297,14.258931,0.1,104.8125,1615418049999
Fix,GT,37.3712753,-122.0459281,8.326014926493169,14.342862,0.1,104.63931,1615418050999
Fix,GT,37.3712426,-122.0457717,8.269019903421402,14.251043,0.1,104.685974,1615418051999
Fix,GT,37.3712101,-122.0456171,8.243029856920243,14.083323,0.1,104.745605,1615418052999
Fix,GT,37.371178,-122.045464,8.25298507064581,13.95159,0.1,104.68213,1615418053999
Fix,GT,37.3711455,-122.0453125,8.27698009252548,13.866855,0.1,105.11743,1615418054999
Fix,GT,37.3711123,-122.0451619,8.292009954452514,13.802865,0.1,105.61081,1615418055999
Fix,GT,37.3710785,-122.0450126,8.30600497752428,13.705755,0.1,105.733765,1615418056999
Fix,GT,37.3710447,-122.044864,8.298014933466911,13.669714,0.1,105.825806,1615418057999
Fix,GT,37.371011,-122.0447161,8.257975109100341,13.576781,0.1,105.94232,1615418058999
Fix,GT,37.3709772,-122.0445692,8.20900995695591,13.520952,0.1,105.95334,1615418059999
Fix,GT,37.3709437,-122.0444228,8.145009957790375,13.4538555,0.1,106.011475,1615418060999
Fix,GT,37.3709099,-122.044278,8.069059750318528,13.254989,0.1,106.493164,1615418061999
Fix,GT,37.3708752,-122.0441355,7.964059753894806,13.215808,0.1,107.06033,1615418062999
Fix,GT,37.3708401,-122.0439931,7.853069717884063,13.1704235,0.1,107.15573,1615418063999
Fix,GT,37.3708048,-122.0438517,7.739059761762619,13.076702,0.1,107.38492,1615418064999
Fix,GT,37.3707694,-122.0437111,7.657044824540615,13.042498,0.1,107.553925,1615418065999
Fix,GT,37.3707335,-122.0435709,7.570049808621407,13.029751,0.1,107.76425,1615418066999
Fix,GT,37.3706978,-122.0434309,7.464039849758148,13.021821,0.1,107.60153,1615418067999
Fix,GT,37.3706622,-122.0432908,7.390044833660125,13.042889,0.1,107.59543,1615418068999
Fix,GT,37.3706262,-122.0431501,7.29604981815815,13.139895,0.1,107.69345,1615418069999
Fix,GT,37.3705898,-122.043008,7.208024911165237,13.296614,0.1,107.81918,1615418070999
Fix,GT,37.3705526,-122.0428645,7.153034877717494,13.438111,0.1,107.9628,1615418071999
Fix,GT,37.3705154,-122.0427196,7.082009965777397,13.482378,0.1,107.646545,1615418072999
Fix,GT,37.3704784,-122.042575,6.993059798240662,13.4124155,0.1,107.858826,1615418073999
Fix,GT,37.3704417,-122.0424315,6.913034884810448,13.2737875,0.1,107.433655,1615418074999
Fix,GT,37.3704061,-122.0422899,6.84603488689661,13.022471,0.1,107.56036,1615418075999
Fix,GT,37.3703704,-122.0421514,6.783029905557633,12.767197,0.1,107.963165,1615418076999
Fix,GT,37.3703349,-122.0420157,6.7090348919034,12.521631,0.1,108.145386,1615418077999
Fix,GT,37.3703001,-122.0418828,6.663019939422608,12.260536,0.1,107.94168,1615418078999
Fix,GT,37.3702662,-122.0417526,6.611039881706238,12.032297,0.1,108.13199,1615418079999
Fix,GT,37.3702323,-122.0416251,6.570019942045212,11.737057,0.1,108.41348,1615418080999
Fix,GT,37.3701998,-122.0415038,6.538024929344655,10.843075,0.1,108.6413,1615418081999
Fix,GT,37.3701697,-122.0413948,6.519990027666092,9.497816,0.1,109.12683,1615418082999
Fix,GT,37.370144,-122.0413034,6.507004986584186,7.5817747,0.1,109.44101,1615418083999
Fix,GT,37.3701243,-122.0412329,6.489024934411049,5.7156534,0.1,109.114075,1615418084999
Fix,GT,37.3701107,-122.0411825,6.480014961540699,3.7097685,0.1,108.70474,1615418085999
Fix,GT,37.3701028,-122.0411535,6.466995012462139,1.7168524,0.1,108.62781,1615418086999
Fix,GT,37.3701006,-122.0411452,6.465004987835885,0.094240576,0.1,108.661285,1615418087999
Fix,GT,37.3701006,-122.0411453,6.457995011866093,1.1153807e-05,0.1,108.66458,1615418088999
Fix,GT,37.3701006,-122.0411453,6.457,0.002236068,0.1,108.66409,1615418089999
Fix,GT,37.3701006,-122.0411453,6.457,0.0,0.1,108.664246,1615418090999
Fix,GT,37.3701006,-122.0411453,6.457,0.0,0.1,108.66437,1615418091999
Fix,GT,37.3701006,-122.0411453,6.457,0.0,0.1,108.66443,1615418092999
Fix,GT,37.3701006,-122.0411453,6.457,4.9898626e-06,0.1,108.66431,1615418093999
Fix,GT,37.3701006,-122.0411453,6.457,0.0009950099,0.1,108.6644,1615418094999
Fix,GT,37.3701006,-122.0411453,6.457,4.990459e-06,0.1,108.66437,1615418095999
Fix,GT,37.3701006,-122.0411453,6.457,0.0,0.1,108.66446,1615418096999
Fix,GT,37.3701006,-122.0411453,6.457,0.0,0.1,108.6644,1615418097999
Fix,GT,37.3701006,-122.0411453,6.457,0.0,0.1,108.6644,1615418098999
Fix,GT,37.3701006,-122.0411453,6.457,0.0009950083,0.1,108.66449,1615418099999
Fix,GT,37.3701006,-122.0411453,6.457,0.0,0.1,108.66443,1615418100999
Fix,GT,37.3701006,-122.0411453,6.457,0.0,0.1,108.66445,1615418101999
Fix,GT,37.3701006,-122.0411453,6.457,0.0,0.1,108.66443,1615418102999
Fix,GT,37.3701006,-122.0411453,6.457,0.0,0.1,108.664734,1615418103999
Fix,GT,37.3701006,-122.0411453,6.457,0.0,0.1,108.66466,1615418104999
Fix,GT,37.3701006,-122.0411453,6.457,0.0,0.1,108.6647,1615418105999
Fix,GT,37.3701006,-122.0411453,6.457,4.9940945e-06,0.1,108.664734,1615418106999
Fix,GT,37.3701006,-122.0411453,6.457,4.994393e-06,0.1,108.66452,1615418107999
Fix,GT,37.3701006,-122.0411453,6.457,0.001,0.1,108.66452,1615418108999
Fix,GT,37.3701006,-122.0411453,6.457,0.0014121445,0.1,108.66461,1615418109999
Fix,GT,37.3701006,-122.0411453,6.457,0.0014121445,0.1,108.6647,1615418110999
Fix,GT,37.3701006,-122.0411453,6.457,0.0009950043,0.1,108.66467,1615418111999
Fix,GT,37.3701006,-122.0411453,6.457,0.0009950041,0.1,108.66467,1615418112999
Fix,GT,37.3701006,-122.0411453,6.455004996299744,0.01294622,0.1,108.664185,1615418113999
Fix,GT,37.3700993,-122.0411404,6.441009993314743,1.1368623,0.1,108.68991,1615418114999
Fix,GT,37.370093,-122.0411177,6.4330099939107885,3.0987525,0.1,108.7724,1615418115999
Fix,GT,37.3700812,-122.0410744,6.424009994506837,4.922928,0.1,108.85449,1615418116999
Fix,GT,37.370064,-122.0410116,6.396004997611046,6.7835484,0.1,108.88757,1615418117999
Fix,GT,37.3700422,-122.0409319,6.377009995818137,8.074327,0.1,108.856445,1615418118999
Fix,GT,37.370017,-122.0408399,6.358014994800091,9.173805,0.1,108.84778,1615418119999
Fix,GT,37.3699888,-122.0407359,6.35499500143528,10.29591,0.1,108.5647,1615418120999
Fix,GT,37.3699579,-122.0406197,6.344,11.395685,0.1,108.2301,1615418121999
Fix,GT,37.3699248,-122.0404917,6.317009998440743,12.383348,0.1,107.84897,1615418122999
Fix,GT,37.3698898,-122.0403547,6.295014998555183,13.103518,0.1,107.546234,1615418123999
Fix,GT,37.3698529,-122.0402101,6.273014999449253,13.725139,0.1,107.68967,1615418124999
Fix,GT,37.3698153,-122.0400618,6.242,13.788865,0.1,107.657715,1615418125999
Fix,GT,37.3697772,-122.0399139,6.198015001416207,13.749837,0.1,107.798676,1615418126999
Fix,GT,37.3697391,-122.0397661,6.140960126184859,13.747098,0.1,107.892456,1615418128000
Fix,GT,37.3697011,-122.0396183,6.083984989074524,13.753163,0.1,107.816284,1615418129000
Fix,GT,37.3696631,-122.0394706,6.069035142738372,13.752485,0.1,107.800964,1615418130000
Fix,GT,37.3696245,-122.0393214,6.0840199533775445,14.1178875,0.1,107.86267,1615418131000
Fix,GT,37.3695847,-122.039167,6.088989828324878,14.627233,0.1,107.684204,1615418132000
Fix,GT,37.3695445,-122.0390095,6.073999934946187,14.580517,0.1,107.61597,1615418133000
Fix,GT,37.3695047,-122.038854,6.042004921394867,14.320333,0.099,107.67212,1615418134000
Fix,GT,37.3694655,-122.0387017,6.007985098436476,14.038934,0.1,107.944214,1615418135000
Fix,GT,37.3694267,-122.0385526,5.979979971390218,13.752914,0.1,107.986115,1615418136000
Fix,GT,37.3693889,-122.0384064,5.977975023468026,13.456449,0.1,107.76074,1615418137000
Fix,GT,37.3693521,-122.0382633,5.944004932448733,13.171588,0.1,107.85126,1615418138000
Fix,GT,37.369316,-122.0381233,5.9259798815837135,12.906737,0.1,107.72809,1615418139000
Fix,GT,37.3692806,-122.037984,5.918010079145432,13.056058,0.1,107.57803,1615418140000
Fix,GT,37.3692445,-122.0378422,5.905985030991025,13.287917,0.1,107.65515,1615418141000
Fix,GT,37.3692082,-122.0376993,5.882975031128153,13.265307,0.1,107.60867,1615418142000
Fix,GT,37.369172,-122.0375565,5.857989945411682,13.329101,0.1,107.44821,1615418143000
Fix,GT,37.3691364,-122.0374112,5.836994929634034,13.597168,0.1,106.71323,1615418144000
Fix,GT,37.3691026,-122.0372627,5.81298487197794,13.724112,0.1,105.3642,1615418145000
Fix,GT,37.36907,-122.0371115,5.790980154879392,14.074334,0.1,104.89972,1615418146000
Fix,GT,37.3690376,-122.0369553,5.741960056114011,14.532035,0.1,104.19403,1615418147000
Fix,GT,37.3690061,-122.0367934,5.666970089321025,14.976928,0.1,103.34119,1615418148000
Fix,GT,37.3689752,-122.0366267,5.6219400690319015,15.27013,0.1,102.94827,1615418149000
Fix,GT,37.3689442,-122.0364577,5.5479801079854365,15.523413,0.1,102.996826,1615418150000
Fix,GT,37.3689123,-122.0362834,5.521965011867229,16.186098,0.1,102.60651,1615418151000
Fix,GT,37.3688798,-122.036102,5.494989906471688,16.734417,0.1,102.5802,1615418152000
Fix,GT,37.3688461,-122.0359148,5.482984905648976,17.226883,0.1,102.69089,1615418153000
Fix,GT,37.3688111,-122.0357242,5.465010015323292,17.398453,0.1,102.99463,1615418154000
Fix,GT,37.3687754,-122.035532,5.426950059046503,17.542845,0.1,103.14224,1615418155000
Fix,GT,37.3687391,-122.0353387,5.4019499968960885,17.58063,0.099,103.14447,1615418156000
Fix,GT,37.3687035,-122.0351454,5.35097998434212,17.573788,0.1,102.764404,1615418157000
Fix,GT,37.3686675,-122.0349522,5.326969944011886,17.563242,0.1,103.37793,1615418158000
Fix,GT,37.3686293,-122.0347604,5.327010061018635,17.462828,0.1,104.48749,1615418159000
Fix,GT,37.3685876,-122.0345717,5.286950021330733,17.21994,0.1,106.00906,1615418160000
Fix,GT,37.3685426,-122.0343862,5.23696991760144,17.154604,0.1,107.499176,1615418161000
Fix,GT,37.368493,-122.0342033,5.233960244427435,17.084175,0.1,109.58957,1615418162000
Fix,GT,37.3684387,-122.0340235,5.199975147943478,16.991398,0.1,111.46527,1615418163000
Fix,GT,37.3683806,-122.0338467,5.165970098342747,16.887638,0.1,112.92529,1615418164000
Fix,GT,37.3683199,-122.0336731,5.134010044790805,16.670826,0.1,114.07593,1615418165000
Fix,GT,37.3682568,-122.0335041,5.096990132046398,16.396471,0.1,115.85321,1615418166000
Fix,GT,37.3681904,-122.0333407,5.035004982370883,16.106974,0.1,117.61673,1615418167000
Fix,GT,37.368122,-122.0331831,5.021024819134734,15.625035,0.1,118.98056,1615418168000
Fix,GT,37.3680545,-122.0330348,5.025025056167506,14.535246,0.1,120.09122,1615418169000
Fix,GT,37.3679904,-122.0329005,5.0409850557539615,13.172129,0.1,121.375244,1615418170000
Fix,GT,37.3679305,-122.0327814,5.017989981666207,11.766001,0.1,122.58661,1615418171000
Fix,GT,37.3678756,-122.032677,5.003999892812222,10.411248,0.1,123.715,1615418172000
Fix,GT,37.3678268,-122.0325883,5.000995096337051,8.626036,0.1,124.93411,1615418173000
Fix,GT,37.367787,-122.0325186,4.987000071989838,6.545259,0.1,125.719025,1615418174000
Fix,GT,37.367758,-122.0324687,4.976985009267927,4.376878,0.099,126.00348,1615418175000
Fix,GT,37.3677393,-122.0324365,4.962989934454672,2.7254453,0.099,126.17441,1615418176000
Fix,GT,37.367728,-122.0324173,4.950004877909087,1.546021,0.1,126.18747,1615418177000
Fix,GT,37.3677231,-122.0324088,4.9429998826100485,0.47261992,0.1,126.12973,1615418178000
Fix,GT,37.367722,-122.0324069,4.938995136264712,0.0041773086,0.1,126.11691,1615418179000
Fix,GT,37.3677219,-122.0324069,4.937000059773215,0.001,0.1,126.117004,1615418180000
Fix,GT,37.367722,-122.0324069,4.937000050577335,0.001006159,0.1,126.11578,1615418181000
Fix,GT,37.367722,-122.0324069,4.937000039082486,0.0010049824,0.1,126.115814,1615418182000
Fix,GT,37.367722,-122.0324069,4.937000128742308,0.001,0.1,126.11569,1615418183000
Fix,GT,37.367722,-122.0324069,4.937000068969094,0.0010000002,0.1,126.115906,1615418184000
Fix,GT,37.3677219,-122.0324069,4.936999864360783,7.0449755e-06,0.099,126.11551,1615418185000
Fix,GT,37.3677219,-122.0324069,4.936999855164904,0.001,0.099,126.11542,1615418186000
Fix,GT,37.3677219,-122.0324069,4.937000089659822,0.0009950191,0.1,126.11536,1615418187000
Fix,GT,37.3677219,-122.0324069,4.937000128742308,0.0,0.1,126.1156,1615418188000
Fix,GT,37.3677219,-122.0324069,4.936999924133998,0.0,0.1,126.11563,1615418189000
Fix,GT,37.3677219,-122.0324069,4.937000110350549,0.0,0.1,126.11539,1615418190000
Fix,GT,37.3677219,-122.0324069,4.937000101154671,0.0009950203,0.1,126.11536,1615418191000
Fix,GT,37.3677219,-122.0324069,4.937000140237157,0.0009950206,0.1,126.11545,1615418192000
Fix,GT,37.3677219,-122.0324069,4.936999885051511,0.0010020625,0.1,126.11557,1615418193000
Fix,GT,37.3677219,-122.0324069,4.936999875855633,0.0014121511,0.1,126.11545,1615418194000
Fix,GT,37.3677219,-122.0324069,4.937000062072184,0.0009950215,0.1,126.11563,1615418195000
Fix,GT,37.3677219,-122.0324069,4.93700000229897,0.0,0.1,126.11554,1615418196000
Fix,GT,37.3677219,-122.0324069,4.936999942525756,0.0,0.1,126.11551,1615418197000
Fix,GT,37.3677219,-122.0324069,4.936999983907212,0.0,0.1,126.11566,1615418198000
Fix,GT,37.3677219,-122.0324069,4.936999873556663,0.0,0.1,126.115875,1615418199000
Fix,GT,37.3677219,-122.0324069,4.937000110350549,0.0,0.1,126.115814,1615418200000
Fix,GT,37.3677219,-122.0324069,4.937000050577336,4.9767004e-06,0.1,126.11575,1615418201000
Fix,GT,37.3677219,-122.0324069,4.9369999908041216,0.0009950236,0.1,126.11606,1615418202000
Fix,GT,37.3677219,-122.0324069,4.937000029886608,0.0010020613,0.1,126.11615,1615418203000
Fix,GT,37.3677219,-122.0324069,4.937000020690728,0.0014121525,0.1,126.11548,1615418204000
Fix,GT,37.3677219,-122.0324069,4.937000011494849,0.001002061,0.1,126.115875,1615418205000
Fix,GT,37.3677219,-122.0324069,4.937000050577336,0.0010020608,0.1,126.115906,1615418206000
Fix,GT,37.3677219,-122.0324069,4.9369999908041216,0.0,0.1,126.11633,1615418207000
Fix,GT,37.3677219,-122.0324069,4.937000131041278,0.0014121531,0.1,126.11597,1615418208000
Fix,GT,37.3677219,-122.0324069,4.936999875855633,0.001,0.1,126.11569,1615418209000
Fix,GT,37.3677219,-122.0324069,4.937000110350549,0.0010000002,0.1,126.11563,1615418210000
Fix,GT,37.3677219,-122.0324069,4.937000050577336,0.0019950264,0.1,126.1156,1615418211000
Fix,GT,37.3677219,-122.0324069,4.937000041381456,0.002,0.1,126.11572,1615418212000
Fix,GT,37.3677219,-122.0324069,4.937000080463943,0.002001174,0.1,126.11578,1615418213000
Fix,GT,37.367722,-122.0324069,4.937000121845399,0.0020049731,0.1,126.11578,1615418214000
Fix,GT,37.367722,-122.0324069,4.935990116999485,0.014166703,0.1,126.11542,1615418215000
Fix,GT,37.36772,-122.0324035,4.92700502499938,0.8495707,0.1,126.08496,1615418216000
Fix,GT,37.3677124,-122.0323903,4.925985224075149,2.0904746,0.1,125.949524,1615418217000
Fix,GT,37.3676972,-122.0323639,4.912994916237891,3.7513592,0.1,125.90277,1615418218000
Fix,GT,37.3676727,-122.0323221,4.9169899839907885,5.493405,0.1,126.171814,1615418219000
Fix,GT,37.3676377,-122.032263,4.915994896166958,7.4966183,0.1,126.6839,1615418220000
Fix,GT,37.367592,-122.0321883,4.906004877103959,9.010697,0.1,127.62268,1615418221000
Fix,GT,37.3675384,-122.0321037,4.908975044783205,10.135268,0.1,128.85883,1615418222000
Fix,GT,37.3674762,-122.0320096,4.878950186972972,11.49156,0.1,129.83594,1615418223000
Fix,GT,37.3674054,-122.0319061,4.863985017880797,12.616301,0.1,130.92633,1615418224000
Fix,GT,37.3673267,-122.031797,4.831975167749915,13.43378,0.1,132.7261,1615418225000
Fix,GT,37.3672412,-122.0316852,4.806984955465421,14.026376,0.1,134.35406,1615418226000
Fix,GT,37.3671491,-122.031571,4.789975295371842,14.782131,0.1,135.6626,1615418227000
Fix,GT,37.3670511,-122.0314515,4.758024737350643,15.502292,0.099,135.5086,1615418228000
Fix,GT,37.36695,-122.0313275,4.784960372882896,15.865893,0.1,135.67078,1615418229000
Fix,GT,37.3668462,-122.0312022,4.748985016118734,16.111454,0.1,136.14221,1615418230000
Fix,GT,37.3667407,-122.0310752,4.729970056761057,16.367476,0.1,136.02246,1615418231000
Fix,GT,37.3666338,-122.0309463,4.692000089580193,16.539522,0.1,136.09518,1615418232000
Fix,GT,37.3665257,-122.0308168,4.691975196972956,16.66791,0.1,136.24701,1615418233000
Fix,GT,37.3664169,-122.030686,4.656980156413745,16.805273,0.1,135.94925,1615418234000
Fix,GT,37.3663076,-122.0305535,4.614985068114475,16.91337,0.1,135.83463,1615418235000
Fix,GT,37.3661988,-122.0304211,4.576965195753612,16.777098,0.1,135.74847,1615418236000
Fix,GT,37.3660907,-122.0302904,4.52800496174302,16.544249,0.1,136.01086,1615418237000
Fix,GT,37.3659837,-122.0301614,4.459019893825519,16.469995,0.1,136.10245,1615418238000
Fix,GT,37.3658768,-122.0300322,4.441995057383086,16.510136,0.1,135.78601,1615418239000
Fix,GT,37.3657698,-122.0299019,4.417990084260702,16.629927,0.1,135.65454,1615418240000
Fix,GT,37.3656625,-122.0297701,4.390994996390305,16.681131,0.1,135.4187,1615418241000
Fix,GT,37.3655552,-122.0296388,4.364014934083446,16.603594,0.1,135.83914,1615418242000
Fix,GT,37.3654478,-122.029509,4.351024895915762,16.51621,0.1,135.98795,1615418243000
Fix,GT,37.3653408,-122.0293804,4.3459603980835535,16.405485,0.1,136.22003,1615418244000
Fix,GT,37.3652342,-122.029253,4.325975282722152,16.278143,0.1,136.37506,1615418245000
Fix,GT,37.3651285,-122.0291268,4.284000091765075,16.12717,0.1,136.17264,1615418246000
Fix,GT,37.3650245,-122.0290013,4.304029904325493,15.944,0.1,136.013,1615418247000
Fix,GT,37.3649213,-122.0288769,4.299994985208847,15.850526,0.099,136.02628,1615418248000
Fix,GT,37.3648183,-122.0287531,4.265980088698678,15.845883,0.1,136.20233,1615418249000
Fix,GT,37.3647155,-122.0286286,4.207965239544865,15.875062,0.1,135.60458,1615418250000
Fix,GT,37.3646132,-122.0285032,4.201980117419734,15.897614,0.1,135.63538,1615418251000
Fix,GT,37.3645104,-122.028378,4.176995036505162,15.922844,0.1,135.78674,1615418252000
Fix,GT,37.3644073,-122.0282528,4.148995112147182,15.949479,0.1,135.88806,1615418253000
Fix,GT,37.3643039,-122.0281277,4.138985182620585,15.972422,0.1,135.94635,1615418254000
Fix,GT,37.3642002,-122.0280024,4.123010019275826,16.006956,0.1,136.05493,1615418255000
Fix,GT,37.3640962,-122.0278769,4.1080000899080185,16.03614,0.1,135.98795,1615418256000
Fix,GT,37.3639921,-122.0277513,4.0869654011726375,16.056683,0.1,136.00885,1615418257000
Fix,GT,37.3638878,-122.0276253,4.050994993030093,16.100834,0.1,135.96991,1615418258000
Fix,GT,37.3637832,-122.0274989,4.026980146918446,16.147806,0.1,135.93057,1615418259000
Fix,GT,37.3636786,-122.0273725,4.041009895859286,16.093857,0.099,136.08295,1615418260000
Fix,GT,37.3635741,-122.0272473,4.045994969495572,16.003706,0.099,136.21182,1615418261000
Fix,GT,37.3634704,-122.0271223,4.050980125906412,15.9297085,0.1,135.86041,1615418262000
Fix,GT,37.3633674,-122.0269972,4.033049617203884,15.9228115,0.1,135.86511,1615418263000
Fix,GT,37.3632641,-122.0268723,3.9889504845147017,15.931636,0.1,135.98645,1615418264000
Fix,GT,37.3631614,-122.0267484,3.9529753087591377,15.714548,0.1,136.01764,1615418265000
Fix,GT,37.3630603,-122.0266264,3.90499005774362,15.446648,0.1,136.0434,1615418266000
Fix,GT,37.3629609,-122.0265065,3.881009918014519,15.162888,0.1,135.80042,1615418267000
Fix,GT,37.3628642,-122.026388,3.867029853223823,14.872534,0.1,135.56088,1615418268000
Fix,GT,37.3627693,-122.0262719,3.8819950324939567,14.577744,0.1,135.62561,1615418269000
Fix,GT,37.3626759,-122.0261587,3.872990108901635,14.285503,0.1,135.99057,1615418270000
Fix,GT,37.3625843,-122.0260482,3.902039661278017,13.855841,0.1,136.02252,1615418271000
Fix,GT,37.3624982,-122.0259443,3.933029740114231,12.569627,0.1,135.88281,1615418272000
Fix,GT,37.3624224,-122.0258528,3.977009988761506,10.761548,0.1,135.95715,1615418273000
Fix,GT,37.3623589,-122.0257759,4.019024686217309,8.727817,0.1,135.87378,1615418274000
Fix,GT,37.3623099,-122.0257166,4.046004898398183,6.4156275,0.1,136.02985,1615418275000
Fix,GT,37.3622753,-122.0256751,4.065009842987639,4.2948627,0.1,136.13678,1615418276000
Fix,GT,37.362253,-122.0256484,4.0749999259947804,2.5914712,0.099,136.22528,1615418277000
Fix,GT,37.3622399,-122.0256327,4.0760049939085725,1.6181146,0.1,136.24942,1615418278000
Fix,GT,37.3622305,-122.0256214,4.080995120353998,1.3545498,0.1,136.24982,1615418279000
Fix,GT,37.3622206,-122.0256096,4.084005018119701,1.7629657,0.1,136.21808,1615418280000
Fix,GT,37.3622064,-122.0255926,4.094005052303896,2.6542544,0.1,136.17096,1615418281000
Fix,GT,37.362185,-122.0255667,4.110014785942622,4.0500293,0.1,136.10385,1615418282000
Fix,GT,37.3621531,-122.0255283,4.135019812365528,5.6961336,0.1,135.99689,1615418283000
Fix,GT,37.362112,-122.0254785,4.176034744095057,6.982584,0.1,135.85217,1615418284000
Fix,GT,37.3620627,-122.0254192,4.212019710130989,8.137247,0.1,136.31781,1615418285000
Fix,GT,37.3620059,-122.0253522,4.240000021718442,9.1605625,0.1,136.6235,1615418286000
Fix,GT,37.3619429,-122.0252774,4.292019861921668,10.087188,0.1,136.34058,1615418287000
Fix,GT,37.3618746,-122.0251948,4.327024717865512,10.999193,0.1,135.69287,1615418288000
Fix,GT,37.3618007,-122.0251048,4.379044599331914,11.855836,0.1,135.89804,1615418289000
Fix,GT,37.3617212,-122.0250094,4.454009888835251,12.554555,0.1,136.17108,1615418290000
Fix,GT,37.3616375,-122.0249085,4.505049482421018,13.207529,0.1,136.13986,1615418291000
Fix,GT,37.3615498,-122.0248033,4.586074265695642,13.731769,0.1,136.29974,1615418292000
Fix,GT,37.3614588,-122.0246956,4.654059267330915,14.003328,0.1,136.63913,1615418293000
Fix,GT,37.3613666,-122.0245863,4.717034551979974,14.170587,0.1,136.3598,1615418294000
Fix,GT,37.3612736,-122.0244755,4.786019787926226,14.333924,0.1,136.40451,1615418295000
Fix,GT,37.3611793,-122.0243624,4.837019872301258,14.665056,0.1,135.91638,1615418296000
Fix,GT,37.3610834,-122.0242453,4.917004822718911,15.059107,0.1,135.64923,1615418297000
Fix,GT,37.3609851,-122.0241251,4.983059443332721,15.402351,0.1,135.44818,1615418298000
Fix,GT,37.3608853,-122.0240022,5.053059229080099,15.63198,0.1,135.42245,1615418299000
Fix,GT,37.3607845,-122.0238777,5.119059316750616,15.778838,0.1,135.35803,1615418300000
Fix,GT,37.3606828,-122.0237522,5.189960455850699,15.889692,0.1,135.35382,1615418301000
Fix,GT,37.3605803,-122.023626,5.267014711850323,16.009747,0.1,135.49811,1615418302000
Fix,GT,37.3604767,-122.023499,5.3320198600851,16.15985,0.1,135.56506,1615418303000
Fix,GT,37.3603722,-122.0233711,5.411054260437377,16.24768,0.1,135.64203,1615418304000
Fix,GT,37.3602667,-122.0232435,5.475034678899683,16.28686,0.1,136.14459,1615418305000
Fix,GT,37.360161,-122.0231163,5.523024720862508,16.269815,0.1,136.09402,1615418306000
Fix,GT,37.3600552,-122.0229894,5.593019929688423,16.232445,0.1,136.14252,1615418307000
Fix,GT,37.35995,-122.0228628,5.664029700575396,16.14555,0.1,135.95874,1615418308000
Fix,GT,37.3598459,-122.0227364,5.721108644944615,16.032192,0.1,135.79636,1615418309000
Fix,GT,37.3597424,-122.0226109,5.824024614506866,15.958072,0.1,136.0617,1615418310000
Fix,GT,37.3596386,-122.0224866,5.8819901623018085,15.904797,0.1,136.11432,1615418311000
Fix,GT,37.3595354,-122.0223625,5.957054551377892,15.881541,0.1,136.12598,1615418312000
Fix,GT,37.359432,-122.022238,6.025029758624267,15.946208,0.1,136.03827,1615418313000
Fix,GT,37.3593283,-122.022113,6.098024561282247,16.006317,0.1,136.03247,1615418314000
Fix,GT,37.3592243,-122.0219879,6.156024670168292,15.951861,0.1,136.02502,1615418315000
Fix,GT,37.3591211,-122.0218632,6.230029660940171,15.8971615,0.1,135.89642,1615418316000
Fix,GT,37.3590181,-122.0217386,6.272015004897491,15.91219,0.1,136.01144,1615418317000
Fix,GT,37.3589142,-122.0216134,6.34703470423352,16.084549,0.1,135.95209,1615418318000
Fix,GT,37.3588094,-122.0214863,6.41703944298951,16.279327,0.1,135.88593,1615418319000
Fix,GT,37.3587032,-122.0213581,6.47102453717962,16.464941,0.1,135.98074,1615418320000
Fix,GT,37.3585958,-122.0212287,6.542010018199682,16.58539,0.1,135.99698,1615418321000
Fix,GT,37.3584879,-122.0210987,6.568029644804075,16.621004,0.1,136.08514,1615418322000
Fix,GT,37.3583804,-122.0209691,6.638029497897253,16.443148,0.1,136.0199,1615418323000
Fix,GT,37.3582748,-122.0208414,6.707014858224429,16.116638,0.1,135.84448,1615418324000
Fix,GT,37.3581714,-122.0207161,6.737024664417841,15.912914,0.1,135.94128,1615418325000
Fix,GT,37.3580683,-122.0205917,6.791049218060449,15.838465,0.1,135.97992,1615418326000
Fix,GT,37.357966,-122.020468,6.838029713172466,15.710527,0.1,135.85464,1615418327000
Fix,GT,37.3578646,-122.0203449,6.854999923389406,15.642787,0.1,135.75842,1615418328000
Fix,GT,37.3577638,-122.0202216,6.850005121817346,15.652715,0.1,135.51508,1615418329000
Fix,GT,37.3576626,-122.0200982,6.825995095224585,15.703206,0.1,135.84387,1615418330000
Fix,GT,37.3575607,-122.0199746,6.7999902794044464,15.780411,0.1,135.80994,1615418331000
Fix,GT,37.3574581,-122.0198504,6.744950551562942,15.904536,0.1,135.96887,1615418332000
Fix,GT,37.3573547,-122.0197255,6.663945734055713,15.968,0.1,136.03973,1615418333000
Fix,GT,37.3572509,-122.0196003,6.551945791116916,16.026917,0.1,136.03568,1615418334000
Fix,GT,37.3571464,-122.0194749,6.453911019537598,16.089071,0.1,136.21616,1615418335000
Fix,GT,37.3570415,-122.0193492,6.327950645818375,16.10783,0.1,136.15082,1615418336000
Fix,GT,37.3569365,-122.0192235,6.251950511271134,16.14689,0.1,136.26361,1615418337000
Fix,GT,37.3568311,-122.0190975,6.139940875202417,16.183294,0.1,136.31921,1615418338000
Fix,GT,37.3567257,-122.0189711,6.026950621484779,16.224028,0.1,135.96771,1615418339000
Fix,GT,37.3566207,-122.0188432,5.927945792267098,16.245802,0.1,135.55206,1615418340000
Fix,GT,37.3565161,-122.0187151,5.814935795171187,16.223732,0.1,135.60419,1615418341000
Fix,GT,37.3564116,-122.0185874,5.70095570441708,16.182291,0.1,135.73816,1615418342000
Fix,GT,37.3563072,-122.0184607,5.621955584490672,16.073717,0.1,135.88306,1615418343000
Fix,GT,37.3562032,-122.0183353,5.520950640201568,15.974241,0.1,136.11969,1615418344000
Fix,GT,37.3560998,-122.018211,5.420950579593424,15.796519,0.1,135.97995,1615418345000
Fix,GT,37.3559983,-122.0180882,5.319955670041964,15.543506,0.1,136.01178,1615418346000
Fix,GT,37.3558982,-122.0179677,5.278994986146688,15.26527,0.1,136.09302,1615418347000
Fix,GT,37.3557992,-122.017849,5.235994926082435,15.162204,0.099,136.19019,1615418348000
Fix,GT,37.3557009,-122.0177308,5.223034603565,15.093567,0.1,136.01883,1615418349000
Fix,GT,37.3556037,-122.017613,5.217960420236922,14.935622,0.099,135.75092,1615418350000
Fix,GT,37.3555076,-122.0174956,5.220019777882844,14.864374,0.1,135.55377,1615418351000
Fix,GT,37.3554121,-122.0173784,5.288034411506263,14.789858,0.099,135.5213,1615418352000
Fix,GT,37.3553169,-122.0172631,5.349024797622114,14.601624,0.1,136.10214,1615418353000
Fix,GT,37.3552221,-122.0171499,5.37503953406075,14.437957,0.1,136.35016,1615418354000
Fix,GT,37.3551288,-122.0170387,5.420019843131303,14.142994,0.1,136.35245,1615418355000
Fix,GT,37.3550368,-122.016929,5.461999938957393,14.114679,0.1,136.30414,1615418356000
Fix,GT,37.3549445,-122.0168186,5.499009903350379,14.223457,0.1,136.20892,1615418357000
Fix,GT,37.3548517,-122.0167068,5.566024578109383,14.339619,0.099,135.93546,1615418358000
Fix,GT,37.3547597,-122.0165944,5.590019579465501,14.161035,0.099,135.50592,1615418359000
Fix,GT,37.3546697,-122.0164836,5.634019737254829,13.8491335,0.1,135.49219,1615418360000
Fix,GT,37.3545811,-122.0163756,5.6860146804363465,13.643099,0.099,135.97162,1615418361000
Fix,GT,37.3544927,-122.0162694,5.722024701095652,13.545744,0.1,136.15442,1615418362000
Fix,GT,37.3544048,-122.0161642,5.766044359396678,13.4449835,0.1,136.36108,1615418363000
Fix,GT,37.3543173,-122.0160599,5.816019689939917,13.375246,0.099,136.36203,1615418364000
Fix,GT,37.3542301,-122.0159558,5.8620297157969325,13.358881,0.1,136.21948,1615418365000
Fix,GT,37.3541434,-122.0158514,5.9090491877836175,13.322516,0.099,136.06195,1615418366000
Fix,GT,37.3540573,-122.0157467,5.970950754930732,13.3466015,0.1,135.55634,1615418367000
Fix,GT,37.3539724,-122.0156397,6.007019642594735,13.353874,0.1,134.20236,1615418368000
Fix,GT,37.3538898,-122.0155302,6.035034659455531,13.331398,0.1,132.74481,1615418369000
Fix,GT,37.3538097,-122.0154181,6.093024545644409,13.31118,0.1,131.25366,1615418370000
Fix,GT,37.3537324,-122.0153037,6.136059279052541,13.243333,0.1,129.72598,1615418371000
Fix,GT,37.3536572,-122.0151878,6.17601965344511,13.210122,0.1,128.64941,1615418372000
Fix,GT,37.3535838,-122.0150706,6.2040099690491335,13.22446,0.1,127.76062,1615418373000
Fix,GT,37.3535108,-122.0149507,6.2160097110923385,13.492412,0.1,127.00198,1615418374000
Fix,GT,37.3534374,-122.0148274,6.270024731680751,13.7702675,0.1,126.52612,1615418375000
Fix,GT,37.3533634,-122.0147013,6.294999832913745,13.922624,0.1,126.02948,1615418376000
Fix,GT,37.3532897,-122.0145735,6.308019717212766,14.0043545,0.1,125.716064,1615418377000
Fix,GT,37.3532161,-122.0144447,6.363039601309691,14.067281,0.1,125.51532,1615418378000
Fix,GT,37.3531426,-122.0143151,6.449049316754099,14.073182,0.1,125.07007,1615418379000
Fix,GT,37.3530707,-122.0141841,6.494999909265898,14.1048355,0.1,124.20419,1615418380000
Fix,GT,37.3529999,-122.0140516,6.504029713790864,14.159669,0.1,123.38959,1615418381000
Fix,GT,37.3529319,-122.0139159,6.561004876896739,14.215237,0.1,120.88934,1615418382000
Fix,GT,37.3528691,-122.0137759,6.563005059979855,14.222437,0.1,118.29932,1615418383000
Fix,GT,37.3528112,-122.013632,6.60600990896672,14.296217,0.1,115.97952,1615418384000
Fix,GT,37.3527558,-122.0134858,6.627010028944351,14.38948,0.1,114.89166,1615418385000
Fix,GT,37.352703,-122.0133382,6.627994979621377,14.238139,0.1,113.64377,1615418386000
Fix,GT,37.352653,-122.013192,6.65201492819842,13.941301,0.1,112.81769,1615418387000
Fix,GT,37.3526056,-122.0130481,6.683059171195142,13.64479,0.1,112.063934,1615418388000
Fix,GT,37.3525609,-122.0129064,6.688985362236388,13.346668,0.1,111.09183,1615418389000
Fix,GT,37.3525195,-122.0127666,6.697004845666699,13.071702,0.1,109.84601,1615418390000
Fix,GT,37.3524812,-122.0126287,6.6760148135731,12.80486,0.1,108.59497,1615418391000
Fix,GT,37.3524463,-122.0124924,6.645990051692351,12.545797,0.1,107.04822,1615418392000
Fix,GT,37.3524167,-122.0123572,6.612985382401384,12.284971,0.1,104.28052,1615418393000
Fix,GT,37.3523916,-122.0122236,6.579000009190757,12.04325,0.1,102.61072,1615418394000
Fix,GT,37.3523693,-122.0120913,6.524950643209741,11.897007,0.1,101.75003,1615418395000
Fix,GT,37.3523474,-122.0119609,6.453985348054208,11.73928,0.1,101.817474,1615418396000
Fix,GT,37.3523262,-122.0118317,6.40697523899097,11.627677,0.1,101.31732,1615418397000
Fix,GT,37.3523059,-122.0117033,6.292940780468751,11.613936,0.099,101.20001,1615418398000
Fix,GT,37.3522854,-122.0115735,6.168985374048352,11.836707,0.1,101.06003,1615418399000
Fix,GT,37.3522654,-122.011441,6.052926249382086,12.066006,0.1,100.458405,1615418400000
Fix,GT,37.3522463,-122.0113058,5.92393104577344,12.242157,0.1,99.710144,1615418401000
Fix,GT,37.3522284,-122.0111684,5.791931271987967,12.422897,0.1,98.90759,1615418402000
Fix,GT,37.352212,-122.0110278,5.630911524471827,12.799976,0.1,97.83859,1615418403000
Fix,GT,37.3521971,-122.010882,5.453960553729907,13.247597,0.099,96.79547,1615418404000
Fix,GT,37.3521849,-122.0107312,5.322921348928474,13.59679,0.1,95.14612,1615418405000
Fix,GT,37.3521756,-122.0105764,5.136921290874946,13.885894,0.1,93.72958,1615418406000
Fix,GT,37.3521693,-122.0104187,4.970911597914063,14.047515,0.1,92.25751,1615418407000
Fix,GT,37.3521657,-122.0102606,4.793926202653907,13.9368725,0.1,91.14197,1615418408000
Fix,GT,37.3521638,-122.0101042,4.631916268295143,13.843317,0.1,90.612305,1615418409000
Fix,GT,37.352163,-122.0099466,4.440946002845653,14.074188,0.1,90.121216,1615418410000
Fix,GT,37.3521628,-122.0097864,4.279916442926042,14.319176,0.1,89.99234,1615418411000
Fix,GT,37.3521632,-122.0096238,4.109935986916535,14.430148,0.1,89.61691,1615418412000
Fix,GT,37.3521638,-122.0094617,3.976921389989089,14.272059,0.1,89.647736,1615418413000
Fix,GT,37.3521644,-122.0093018,3.879970483073033,14.053997,0.1,89.72131,1615418414000
Fix,GT,37.3521645,-122.0091445,3.792965673842468,13.783743,0.1,89.939026,1615418415000
Fix,GT,37.3521644,-122.0089939,3.7399557223184967,12.779326,0.1,89.96399,1615418416000
Fix,GT,37.3521641,-122.0088573,3.647985328431241,11.419389,0.1,90.15097,1615418417000
Fix,GT,37.3521634,-122.008736,3.6039802978783846,10.080487,0.1,90.34479,1615418418000
Fix,GT,37.3521627,-122.0086317,3.5459705665670334,8.382502,0.1,90.47156,1615418419000
Fix,GT,37.352162,-122.0085472,3.489975338366348,6.657621,0.1,90.48343,1615418420000
Fix,GT,37.3521617,-122.0084811,3.4539852680354377,4.926027,0.1,90.1969,1615418421000
Fix,GT,37.3521614,-122.0084369,3.4239901105659083,2.933175,0.1,90.45914,1615418422000
Fix,GT,37.3521611,-122.0084137,3.400990171703975,1.2783878,0.1,90.59985,1615418423000
Fix,GT,37.352161,-122.0084064,3.3909951485022902,0.0469953,0.1,90.61688,1615418424000
Fix,GT,37.3521611,-122.0084064,3.3819999905508014,0.0014121779,0.1,90.62567,1615418425000
Fix,GT,37.3521611,-122.0084064,3.3820000850427894,0.003156566,0.1,90.62341,1615418426000
Fix,GT,37.3521611,-122.0084064,3.3820000110240658,0.0010020355,0.1,90.62402,1615418427000
Fix,GT,37.3521611,-122.0084064,3.381999938580208,4.91361e-06,0.1,90.62399,1615418428000
Fix,GT,37.3521611,-122.0084064,3.381999965352938,0.0010020352,0.1,90.62305,1615418429000
Fix,GT,37.3521611,-122.0084064,3.3819999937005343,0.0010089832,0.1,90.622345,1615418430000
Fix,GT,37.3521611,-122.0084064,3.381999955903739,6.947805e-06,0.1,90.62286,1615418431000
Fix,GT,37.3521611,-122.0084064,3.382000050395728,0.0019901749,0.1,90.62305,1615418432000
Fix,GT,37.3521611,-122.0084064,3.3820000110240653,0.0019901756,0.1,90.622925,1615418433000
Fix,GT,37.3521611,-122.0084064,3.3819999039331456,0.001990176,0.099,90.62286,1615418434000
Fix,GT,37.3521611,-122.0084064,3.382000066144392,0.0009950883,0.1,90.62323,1615418435000
Fix,GT,37.3521611,-122.0084064,3.3809999590655786,0.00996264,0.099,90.62668,1615418436000
Fix,GT,37.352161,-122.0084024,3.3709901979067363,0.85377336,0.1,90.62549,1615418437000
Fix,GT,37.3521608,-122.0083853,3.3619950029146857,2.1698017,0.099,90.520966,1615418438000
Fix,GT,37.3521607,-122.0083526,3.343985309883486,3.6598363,0.1,90.32962,1615418439000
Fix,GT,37.3521605,-122.0083027,3.315970473990776,5.227044,0.1,90.18146,1615418440000
Fix,GT,37.3521604,-122.0082334,3.275990274181589,6.9467354,0.1,89.97827,1615418441000
Fix,GT,37.3521604,-122.0081472,3.240970564506948,8.264555,0.1,89.92209,1615418442000
Fix,GT,37.3521604,-122.0080468,3.2019852575105614,9.538679,0.1,89.864655,1615418443000
Fix,GT,37.3521609,-122.0079317,3.155990100310184,10.835919,0.1,89.46167,1615418444000
Fix,GT,37.3521619,-122.0078024,3.10295585503988,12.072112,0.1,89.305176,1615418445000
Fix,GT,37.3521627,-122.0076609,3.010950882857665,12.758244,0.1,89.651,1615418446000
Fix,GT,37.3521629,-122.0075167,2.9169459436154,12.731978,0.1,89.81357,1615418447000
Fix,GT,37.3521629,-122.0073738,2.8139509919025003,12.602051,0.1,89.98328,1615418448000
Fix,GT,37.3521628,-122.0072313,2.6919509335421026,12.66005,0.1,89.897095,1615418449000
Fix,GT,37.3521628,-122.0070879,2.591945972169749,12.759023,0.1,89.97351,1615418450000
Fix,GT,37.3521625,-122.0069441,2.468926439587958,12.695013,0.1,90.1048,1615418451000
Fix,GT,37.3521619,-122.0068009,2.336936251811683,12.727098,0.1,90.14267,1615418452000
Fix,GT,37.3521615,-122.0066577,2.195921482855454,12.62701,0.1,90.07449,1615418453000
Fix,GT,37.3521613,-122.0065163,2.084950883726124,12.406875,0.099,89.83771,1615418454000
Fix,GT,37.3521619,-122.0063777,1.9819558709659613,12.165058,0.1,89.50409,1615418455000
Fix,GT,37.3521624,-122.0062418,1.881985250306781,11.920903,0.099,89.70627,1615418456000
Fix,GT,37.3521622,-122.0061087,1.8259999489821488,11.658993,0.1,90.16412,1615418457000
Fix,GT,37.3521617,-122.0059786,1.7769754359461365,11.396935,0.1,90.07709,1615418458000
Fix,GT,37.3521614,-122.0058519,1.7349607186825016,10.983707,0.1,90.15158,1615418459000
Fix,GT,37.3521608,-122.0057332,1.6979853297499938,10.010679,0.1,90.29416,1615418460000
Fix,GT,37.3521604,-122.0056269,1.662999992256053,8.751347,0.1,90.17343,1615418461000
Fix,GT,37.3521603,-122.0055366,1.6540000385101885,7.234268,0.1,89.93634,1615418462000
Fix,GT,37.3521605,-122.0054635,1.6349951144540682,5.7062745,0.1,89.763855,1615418463000
Fix,GT,37.3521604,-122.0054069,1.623,4.370401,0.1,90.04529,1615418464000
Fix,GT,37.3521603,-122.0053649,1.612000014262274,3.0743163,0.1,90.0896,1615418465000
Fix,GT,37.3521602,-122.0053378,1.605995075220242,1.7493734,0.1,90.04553,1615418466000
Fix,GT,37.3521602,-122.0053254,1.599999960511923,0.47542587,0.099,90.0253,1615418467000
Fix,GT,37.3521603,-122.0053243,1.5919999740533533,0.003602582,0.099,90.021545,1615418468000
Fix,GT,37.3521603,-122.0053243,1.59099997184705,0.0028255228,0.1,90.02197,1615418469000
Fix,GT,37.3521603,-122.0053243,1.5910000325981528,0.002,0.1,90.02228,1615418470000
Fix,GT,37.3521603,-122.0053243,1.5900000459048895,0.0022349106,0.1,90.02228,1615418471000
Fix,GT,37.3521603,-122.0053243,1.590000042943284,0.0020000003,0.1,90.022064,1615418472000
Fix,GT,37.3521603,-122.0053243,1.590000008144416,0.001995098,0.1,90.02219,1615418473000
Fix,GT,37.3521603,-122.0053243,1.5899999740859494,0.001,0.1,90.022,1615418474000
Fix,GT,37.3521603,-122.0053243,1.59,0.001,0.1,90.02173,1615418475000
Fix,GT,37.3521603,-122.0053243,1.5899999689031394,0.001,0.1,90.02176,1615418476000
Fix,GT,37.3521603,-122.0053243,1.5899999666819349,0.001,0.1,90.02188,1615418477000
Fix,GT,37.3521603,-122.0053243,1.5899999637203293,0.001,0.099,90.02203,1615418478000
Fix,GT,37.3521603,-122.0053243,1.5899999614991247,0.001,0.099,90.02197,1615418479000
Fix,GT,37.3521603,-122.0053243,1.5899999748263507,0.0014121837,0.1,90.02182,1615418480000
Fix,GT,37.3521603,-122.0053243,1.5899999726051466,0.0014142136,0.1,90.02173,1615418481000
Fix,GT,37.3521603,-122.0053243,1.5899999696435407,0.0010020296,0.1,90.02179,1615418482000
Fix,GT,37.3521603,-122.0053243,1.590000014808029,0.001,0.1,90.02179,1615418483000
Fix,GT,37.3521603,-122.0053243,1.5900000125868248,0.001,0.1,90.02176,1615418484000
Fix,GT,37.3521603,-122.0053243,1.589999978528358,0.0019951009,0.099,90.0217,1615418485000
Fix,GT,37.3521603,-122.0053243,1.589999960018322,0.0020011566,0.1,90.02179,1615418486000
Fix,GT,37.3521603,-122.0053243,1.5899999896343795,0.002,0.1,90.02197,1615418487000
Fix,GT,37.3521603,-122.0053243,1.590000002961606,0.002,0.1,90.022125,1615418488000
Fix,GT,37.3521603,-122.0053243,1.5900000325776638,0.002,0.1,90.022125,1615418489000
Fix,GT,37.3521603,-122.0053243,1.5899999666819349,0.0010020288,0.1,90.02228,1615418490000
Fix,GT,37.3521603,-122.0053243,1.589999980009161,0.0009999999,0.099,90.02219,1615418491000
Fix,GT,37.3521603,-122.0053243,1.589999993336387,0.0020048977,0.099,90.021545,1615418492000
Fix,GT,37.3521603,-122.0053243,1.590000022952445,0.0010000002,0.1,90.02179,1615418493000
Fix,GT,37.3521603,-122.0053243,1.5899999570567165,0.0010105892,0.1,90.02191,1615418494000
Fix,GT,37.3521603,-122.0053243,1.5900000340584668,0.003157742,0.1,90.02106,1615418495000
Fix,GT,37.3521603,-122.0053243,1.589999968162738,0.0031622776,0.1,90.02124,1615418496000
Fix,GT,37.3521603,-122.0053243,1.5909999977773988,0.0014170819,0.1,90.02182,1615418497000
Fix,GT,37.3521603,-122.0053243,1.591000026671216,0.002232044,0.1,90.021545,1615418498000
Fix,GT,37.3521603,-122.0053243,1.5909950653947889,0.002236068,0.1,90.021484,1615418499000
Fix,GT,37.3521603,-122.0053243,1.5899999903747812,0.001002028,0.1,90.02164,1615418500000
Fix,GT,37.3521603,-122.0053243,1.587995108067524,0.0031189378,0.1,90.02249,1615418501000
Fix,GT,37.3521603,-122.0053203,1.574990242183674,0.8907643,0.1,90.01172,1615418502000
Fix,GT,37.3521604,-122.005301,1.5599951505851932,2.540872,0.1,89.938354,1615418503000
Fix,GT,37.3521605,-122.0052624,1.5489999819672664,4.2946954,0.1,89.69394,1615418504000
Fix,GT,37.352161,-122.0052045,1.5399853107896633,6.034017,0.1,89.486115,1615418505000
Fix,GT,37.3521617,-122.0051269,1.5010293301348574,7.7132306,0.1,89.22272,1615418506000
Fix,GT,37.3521628,-122.005033,1.505004915354773,8.88069,0.1,89.02771,1615418507000
Fix,GT,37.352164,-122.0049259,1.479985277008731,10.136676,0.1,89.10022,1615418508000
Fix,GT,37.3521658,-122.0048044,1.454039152553305,11.370907,0.1,88.73166,1615418509000
Fix,GT,37.3521678,-122.0046701,1.4459804535601288,12.418581,0.1,88.86133,1615418510000
Fix,GT,37.3521697,-122.0045254,1.4209803950604982,13.163792,0.1,89.01697,1615418511000
Fix,GT,37.3521716,-122.004373,1.3989853293709456,13.840519,0.1,88.85416,1615418512000
Fix,GT,37.3521743,-122.0042134,1.356995100049302,14.425197,0.1,88.627686,1615418513000
Fix,GT,37.3521772,-122.0040475,1.324960875653196,14.939144,0.1,88.760864,1615418514000
Fix,GT,37.3521793,-122.003877,1.2820147057077849,15.281728,0.1,89.078064,1615418515000
Fix,GT,37.3521817,-122.0037025,1.2169706103778446,15.631862,0.1,88.806274,1615418516000
Fix,GT,37.3521847,-122.0035246,1.1199755719350653,15.874483,0.1,88.64221,1615418517000
Fix,GT,37.352188,-122.0033449,1.0518972476348285,15.9554615,0.099,88.62341,1615418518000
Fix,GT,37.352191,-122.0031647,0.969960862896405,15.976883,0.1,88.67044,1615418519000
Fix,GT,37.3521944,-122.0029843,0.8779657553639263,15.99352,0.1,88.55313,1615418520000
Fix,GT,37.3521974,-122.0028038,0.8199608730114997,16.00351,0.1,88.805115,1615418521000
Fix,GT,37.3522005,-122.0026232,0.7629706629477442,16.011152,0.1,88.74463,1615418522000
Fix,GT,37.3522034,-122.0024424,0.6839413184076548,16.031311,0.1,88.58331,1615418523000
Fix,GT,37.352207,-122.0022614,0.5919902298310772,16.046988,0.1,88.63434,1615418524000
Fix,GT,37.3522099,-122.0020805,0.505931545170024,15.967087,0.1,88.80121,1615418525000
Fix,GT,37.3522125,-122.0019014,0.3929217700390146,15.746212,0.1,88.9577,1615418526000
Fix,GT,37.3522142,-122.0017251,0.2709266465306282,15.512487,0.1,89.5159,1615418527000
Fix,GT,37.3522139,-122.0015512,0.13296088140551,15.282239,0.1,90.401855,1615418528000
Fix,GT,37.352212,-122.0013801,0.0279217710550874,15.046525,0.1,90.72388,1615418529000
Fix,GT,37.3522114,-122.0012115,-0.1071124497829005,14.832876,0.1,89.75275,1615418530000
Fix,GT,37.3522124,-122.0010454,-0.2110733363823965,14.587641,0.1,89.32501,1615418531000
Fix,GT,37.3522141,-122.0008822,-0.3400293405875563,14.352542,0.1,89.07739,1615418532000
Fix,GT,37.3522164,-122.0007215,-0.4570831006327644,14.11454,0.1,88.840515,1615418533000
Fix,GT,37.3522187,-122.0005635,-0.5280342082697899,13.884065,0.1,88.86862,1615418534000
Fix,GT,37.3522209,-122.0004081,-0.6430390980513767,13.65633,0.1,88.81238,1615418535000
Fix,GT,37.3522234,-122.0002553,-0.73107330785878,13.39876,0.1,88.73215,1615418536000
Fix,GT,37.3522259,-122.0001074,-0.8270488730575889,12.750951,0.1,88.58545,1615418537000
Fix,GT,37.3522284,-121.9999687,-0.9200293017793448,11.799958,0.1,88.73779,1615418538000
Fix,GT,37.35223,-121.9998435,-0.9970390710751528,10.298258,0.099,89.166016,1615418539000
Fix,GT,37.3522309,-121.9997366,-1.0810146425720304,8.632593,0.099,89.31546,1615418540000
Fix,GT,37.3522316,-121.9996492,-1.1270341738723215,6.861472,0.1,89.38257,1615418541000
Fix,GT,37.3522321,-121.9995836,-1.1720097495783122,4.5758567,0.1,89.449524,1615418542000
Fix,GT,37.3522323,-121.9995446,-1.2000244408170693,2.5194254,0.1,89.51605,1615418543000
Fix,GT,37.3522325,-121.9995231,-1.218000009074807,1.25542,0.1,89.48627,1615418544000
Fix,GT,37.3522325,-121.9995164,-1.2230097779538482,0.017224707,0.1,89.46997,1615418545000
Fix,GT,37.3522325,-121.9995165,-1.2289999811141754,0.0010060386,0.099,89.474915,1615418546000
Fix,GT,37.3522325,-121.9995164,-1.22899996737903,0.0009999999,0.1,89.47217,1615418547000
Fix,GT,37.3522325,-121.9995164,-1.229,0.001,0.1,89.47203,1615418548000
Fix,GT,37.3522325,-121.9995164,-1.229000024608802,0.0010000002,0.1,89.472015,1615418549000
Fix,GT,37.3522325,-121.9995164,-1.2289999862648548,0.0,0.1,89.471924,1615418550000
Fix,GT,37.3522325,-121.9995164,-1.2289999725297094,0.001,0.1,89.47208,1615418551000
Fix,GT,37.3522325,-121.9995164,-1.229,0.001,0.1,89.472046,1615418552000
Fix,GT,37.3522325,-121.9995164,-1.2289999690959232,0.001,0.1,89.471954,1615418553000
Fix,GT,37.3522325,-121.9995164,-1.228999991987832,0.001,0.1,89.471985,1615418554000
Fix,GT,37.3522325,-121.9995164,-1.2289999656621369,0.0010048836,0.1,89.47211,1615418555000
Fix,GT,37.3522325,-121.9995164,-1.229000000572298,0.0014121908,0.1,89.47223,1615418556000
Fix,GT,37.3522325,-121.9995164,-1.2289999988554046,0.0014142136,0.1,89.47229,1615418557000
Fix,GT,37.3522325,-121.9995164,-1.2290000091567637,0.0014142137,0.1,89.47229,1615418558000
Fix,GT,37.3522325,-121.9995164,-1.2289999708128163,0.0014142136,0.099,89.4722,1615418559000
Fix,GT,37.3522325,-121.9995164,-1.2289999811141752,0.002236068,0.099,89.4722,1615418560000
Fix,GT,37.3522325,-121.9995164,-1.2289999914155345,0.002236068,0.1,89.47229,1615418561000
Fix,GT,37.3522325,-121.9995164,-1.228999989698641,0.0022320559,0.1,89.47232,1615418562000
Fix,GT,37.3522325,-121.9995164,-1.2290000120182525,0.0022320559,0.1,89.47229,1615418563000
Fix,GT,37.3522325,-121.9995164,-1.2290000228919091,0.002236068,0.1,89.47241,1615418564000
Fix,GT,37.3522325,-121.9995164,-1.2289999719574116,0.0022320563,0.099,89.4725,1615418565000
Fix,GT,37.3522325,-121.9995164,-1.2289999702405183,0.0022320563,0.099,89.47241,1615418566000
Fix,GT,37.3522325,-121.9995164,-1.2289999925601296,0.0022320568,0.1,89.47235,1615418567000
Fix,GT,37.3522325,-121.9995164,-1.229,0.002236068,0.1,89.47237,1615418568000
Fix,GT,37.3522325,-121.9995164,-1.2290000257533975,0.0014142136,0.1,89.47235,1615418569000
Fix,GT,37.3522325,-121.9995164,-1.2290000360547564,0.0010020215,0.1,89.47241,1615418570000
Fix,GT,37.3522325,-121.9995164,-1.228999985692557,0.001,0.1,89.47244,1615418571000
Fix,GT,37.3522325,-121.9995164,-1.229000020602718,0.001,0.1,89.4725,1615418572000
Fix,GT,37.3522325,-121.9995164,-1.2289999822587707,0.001,0.1,89.47247,1615418573000
Fix,GT,37.3522325,-121.9995164,-1.2290000171689317,0.001,0.1,89.4725,1615418574000
Fix,GT,37.3522325,-121.9995164,-1.2289999908432363,0.001,0.1,89.472626,1615418575000
Fix,GT,37.3522325,-121.9995164,-1.228999965089839,0.0014121926,0.1,89.472534,1615418576000
Fix,GT,37.3522325,-121.9995164,-1.229,0.0014142136,0.1,89.472595,1615418577000
Fix,GT,37.3522325,-121.9995164,-1.228999998283107,0.0014142136,0.1,89.472626,1615418578000
Fix,GT,37.3522325,-121.9995164,-1.229000033193268,0.002236068,0.1,89.47272,1615418579000
Fix,GT,37.3522325,-121.9995164,-1.2289999948493209,0.0014182227,0.099,89.47275,1615418580000
Fix,GT,37.3522325,-121.9995164,-1.228999969095923,0.0022320591,0.1,89.47287,1615418581000
Fix,GT,37.3522325,-121.9995164,-1.2289999914155345,0.0028284271,0.1,89.47281,1615418582000
Fix,GT,37.3522325,-121.9995164,-1.2289999656621369,0.002236068,0.099,89.47284,1615418583000
Fix,GT,37.3522325,-121.9995164,-1.2290000251811,0.002236068,0.1,89.47296,1615418584000
Fix,GT,37.3522325,-121.9995164,-1.2289999868371524,0.002236068,0.1,89.4729,1615418585000
Fix,GT,37.3522325,-121.9995164,-1.2290000217473136,0.0014142136,0.1,89.47302,1615418586000
Fix,GT,37.3522325,-121.9995164,-1.2289999954216184,0.0014142136,0.1,89.47296,1615418587000
Fix,GT,37.3522325,-121.9995164,-1.228999994277023,0.0014142136,0.1,89.47302,1615418588000
Fix,GT,37.3522325,-121.9995164,-1.229000029187184,0.0014121938,0.1,89.47302,1615418589000
Fix,GT,37.3522325,-121.9995164,-1.2289999908432363,0.001,0.1,89.473114,1615418590000
Fix,GT,37.3522326,-121.9995164,-1.2290000257533975,0.001,0.1,89.473114,1615418591000
Fix,GT,37.3522326,-121.9995164,-1.2289999994277023,0.001,0.1,89.47305,1615418592000
Fix,GT,37.3522326,-121.9995164,-1.2289999736743047,0.0010048754,0.1,89.47299,1615418593000
Fix,GT,37.3522326,-121.9995164,-1.230000020619482,0.0022349174,0.1,89.47302,1615418594000
Fix,GT,37.3522326,-121.9995161,-1.2360048698200845,0.2014439,0.1,89.473694,1615418595000
Fix,GT,37.3522327,-121.9995073,-1.2520097677530722,1.6150712,0.1,89.4339,1615418596000
Fix,GT,37.352233,-121.9994767,-1.2700146156409755,3.8093648,0.1,89.250275,1615418597000
Fix,GT,37.3522336,-121.9994229,-1.3030194747438657,5.7886534,0.099,89.095764,1615418598000
Fix,GT,37.3522348,-121.9993451,-1.357039021803066,7.8502727,0.1,88.7626,1615418599000
Fix,GT,37.3522367,-121.9992485,-1.4230292722517626,9.184988,0.1,88.328735,1615418600000
Fix,GT,37.3522391,-121.9991376,-1.4779951233770698,10.496193,0.1,88.34943,1615418601000
Fix,GT,37.3522421,-121.9990123,-1.5460341566544955,11.700468,0.1,88.29306,1615418602000
Fix,GT,37.3522445,-121.9988743,-1.6270390127613208,12.667846,0.1,88.82843,1615418603000
Fix,GT,37.3522458,-121.998727,-1.6940341034252195,13.420868,0.1,89.47565,1615418604000
Fix,GT,37.3522463,-121.9985712,-1.7550291910199447,14.187409,0.099,89.69989,1615418605000
Fix,GT,37.3522468,-121.9984077,-1.8080292760077863,14.733264,0.1,89.76752,1615418606000
Fix,GT,37.3522464,-121.9982388,-1.870014618911315,15.204682,0.1,90.41394,1615418607000
Fix,GT,37.3522443,-121.9980647,-1.931014596789144,15.607614,0.1,90.970276,1615418608000
Fix,GT,37.3522414,-121.9978877,-2.009039033514913,15.763899,0.1,91.16632,1615418609000
Fix,GT,37.352238,-121.9977092,-2.080014650200028,15.863116,0.1,91.30426,1615418610000
Fix,GT,37.3522351,-121.9975309,-2.154048686802387,15.689343,0.1,90.94318,1615418611000
Fix,GT,37.3522329,-121.9973548,-2.23004389817128,15.621159,0.1,90.49805,1615418612000
Fix,GT,37.3522322,-121.9971776,-2.292063334705774,15.778177,0.1,90.11633,1615418613000
Fix,GT,37.3522322,-121.9969986,-2.401077895920724,15.95117,0.1,89.73535,1615418614000
Fix,GT,37.352233,-121.996818,-2.4900340234935285,16.01825,0.099,89.559845,1615418615000
Fix,GT,37.3522342,-121.9966375,-2.577034117899835,15.917703,0.1,89.284454,1615418616000
Fix,GT,37.3522362,-121.9964592,-2.635999966857955,15.650905,0.1,88.97659,1615418617000
Fix,GT,37.3522385,-121.9962844,-2.6189951965762304,15.335743,0.1,89.07669,1615418618000
Fix,GT,37.3522408,-121.9961129,-2.646009725794196,15.045926,0.1,88.53677,1615418619000
Fix,GT,37.3522479,-121.9959449,-2.70806323929457,14.8074,0.099,85.41992,1615418620000
Fix,GT,37.352262,-121.9957785,-2.734034149137792,14.862745,0.1,83.269806,1615418621000
Fix,GT,37.3522779,-121.9956124,-2.79503408920113,14.760798,0.1,83.048004,1615418622000
Fix,GT,37.3522936,-121.995446,-2.839000054202508,15.035992,0.1,83.20215,1615418623000
Fix,GT,37.3523088,-121.9952751,-2.8470244244690988,15.369096,0.1,84.11157,1615418624000
Fix,GT,37.3523191,-121.9951032,-2.824014567638747,15.158162,0.099,86.708435,1615418625000
Fix,GT,37.352323,-121.9949341,-2.8540195457572115,14.840798,0.1,89.10486,1615418626000
Fix,GT,37.3523233,-121.9947684,-2.862009689241648,14.519916,0.1,90.0874,1615418627000
Fix,GT,37.3523225,-121.9946062,-2.8990146686779337,14.21513,0.1,90.29675,1615418628000
Fix,GT,37.3523222,-121.9944473,-2.957053551685065,13.936874,0.1,89.9747,1615418629000
Fix,GT,37.3523225,-121.9942916,-3.024053486151621,13.661988,0.1,89.75665,1615418630000
Fix,GT,37.3523233,-121.994139,-3.0819999928241595,13.370318,0.1,89.40051,1615418631000
Fix,GT,37.3523242,-121.9939898,-3.083029285874218,13.072452,0.1,89.43805,1615418632000
Fix,GT,37.3523249,-121.9938438,-3.1270145860919727,12.788913,0.1,89.752625,1615418633000
Fix,GT,37.352325,-121.9937014,-3.1600291206166147,12.384706,0.1,89.755585,1615418634000
Fix,GT,37.3523252,-121.9935664,-3.2119951091185213,11.501493,0.1,89.83487,1615418635000
Fix,GT,37.3523253,-121.9934433,-3.237014603354037,10.269348,0.1,89.93741,1615418636000
Fix,GT,37.3523249,-121.9933355,-3.2660096677634867,8.81128,0.099,90.109344,1615418637000
Fix,GT,37.3523248,-121.9932458,-3.296024261397309,7.0331492,0.1,90.000885,1615418638000
Fix,GT,37.3523247,-121.9931768,-3.329009822330438,5.1630597,0.1,90.06705,1615418639000
Fix,GT,37.3523245,-121.9931287,-3.3570097179305742,3.50538,0.1,90.29529,1615418640000
Fix,GT,37.3523243,-121.9930974,-3.3710047810338435,2.033409,0.1,90.433655,1615418641000
Fix,GT,37.3523243,-121.993082,-3.377004944236949,0.7214091,0.1,90.49237,1615418642000
Fix,GT,37.3523242,-121.9930797,-3.3849952086545523,0.0050850897,0.1,90.507416,1615418643000
Fix,GT,37.3523242,-121.9930797,-3.3860000709528104,0.0014121983,0.1,90.50607,1615418644000
Fix,GT,37.3523242,-121.9930796,-3.385999998423271,0.0014142136,0.1,90.50452,1615418645000
Fix,GT,37.3523242,-121.9930796,-3.3859999274704604,0.001,0.1,90.5047,1615418646000
Fix,GT,37.3523242,-121.9930796,-3.386000091450289,0.0010020151,0.1,90.505035,1615418647000
Fix,GT,37.3523242,-121.9930796,-3.386000086720101,0.0010000002,0.1,90.50513,1615418648000
Fix,GT,37.3523242,-121.9930796,-3.386000015767291,0.0022349197,0.1,90.505005,1615418649000
Fix,GT,37.3523242,-121.9930796,-3.385999943237752,0.0022320703,0.099,90.504974,1615418650000
Fix,GT,37.3523242,-121.9930796,-3.385999905396253,0.002236068,0.1,90.50513,1615418651000
Fix,GT,37.3523242,-121.9930796,-3.38600003626477,0.0010060119,0.1,90.505066,1615418652000
Fix,GT,37.3523242,-121.9930796,-3.386000031534582,0.0019951367,0.1,90.50482,1615418653000
Fix,GT,37.3523242,-121.9930796,-3.385999993693084,0.0019951367,0.1,90.50513,1615418654000
Fix,GT,37.3523242,-121.9930796,-3.3859999558515845,0.002,0.1,90.50519,1615418655000
Fix,GT,37.3523242,-121.9930796,-3.386000052032061,0.002,0.1,90.50522,1615418656000
Fix,GT,37.3523242,-121.9930796,-3.3860000488786026,0.0020000003,0.1,90.50537,1615418657000
Fix,GT,37.3523242,-121.9930796,-3.386000011037104,0.002,0.1,90.50543,1615418658000
Fix,GT,37.3523242,-121.9930796,-3.385999973195605,0.001995138,0.1,90.50534,1615418659000
Fix,GT,37.3523242,-121.9930796,-3.3859999684654176,0.002,0.1,90.50546,1615418660000
Fix,GT,37.3523242,-121.9930796,-3.3859999637352303,0.002001148,0.1,90.50537,1615418661000
Fix,GT,37.3523242,-121.9930796,-3.385999960581772,0.002,0.1,90.50534,1615418662000
Fix,GT,37.3523242,-121.9930796,-3.38600008987356,0.0022300587,0.1,90.50519,1615418663000
Fix,GT,37.3523242,-121.9930796,-3.3859999526981266,0.0022320726,0.1,90.50525,1615418664000
Fix,GT,37.3523242,-121.9930796,-3.385999914856628,0.001,0.1,90.50531,1615418665000
Fix,GT,37.3523242,-121.9930796,-3.3859952177563684,0.001,0.1,90.50552,1615418666000
Fix,GT,37.3523242,-121.9930796,-3.3850000409828493,0.0010247068,0.1,90.50937,1615418667000
Fix,GT,37.3523241,-121.9930761,-3.396009724562988,0.8870289,0.1,90.51257,1615418668000
Fix,GT,37.3523241,-121.9930532,-3.404999998414423,3.137189,0.1,90.401245,1615418669000
Fix,GT,37.3523239,-121.9930065,-3.443034017571248,5.087345,0.1,90.165344,1615418670000
Fix,GT,37.3523237,-121.9929357,-3.469014501266181,7.4621077,0.1,90.07077,1615418671000
Fix,GT,37.3523237,-121.992839,-3.508034109494183,9.60294,0.1,89.910614,1615418672000
Fix,GT,37.3523237,-121.9927213,-3.53599505130481,11.249855,0.1,89.925476,1615418673000
Fix,GT,37.3523236,-121.9925861,-3.5570049424078314,12.53437,0.1,89.91376,1615418674000
Fix,GT,37.3523236,-121.9924406,-3.6010146217979493,13.237339,0.1,89.84064,1615418675000
Fix,GT,37.3523237,-121.9922875,-3.652019404489547,13.850244,0.1,89.8891,1615418676000
Fix,GT,37.3523237,-121.9921286,-3.710033975132741,14.308224,0.1,89.87332,1615418677000
Fix,GT,37.3523242,-121.9919644,-3.7880339306695374,14.812552,0.1,89.543884,1615418678000
