MessageType,Provider,LatitudeDegrees,LongitudeDegrees,AltitudeMeters,SpeedMps,AccuracyMeters,BearingDegrees,UnixTimeMillis
Fix,GT,34.2296211,-118.4014013,227.294,0.002236068,0.1,136.1712,1639069605444
Fix,GT,34.2296211,-118.4014013,227.294,0.0015503163,0.1,136.17126,1639069606444
Fix,GT,34.2296211,-118.4014013,227.294,0.0017391988,0.1,136.17133,1639069607444
Fix,GT,34.2296211,-118.4014013,227.294,0.0017801158,0.1,136.17136,1639069608444
Fix,GT,34.2296211,-118.4014013,227.29399322611096,0.0014452154,0.1,136.17096,1639069609444
Fix,GT,34.2296211,-118.4014013,227.29399322611096,0.002236068,0.1,136.17114,1639069610444
Fix,GT,34.2296211,-118.4014013,227.29400677388907,0.0017391988,0.1,136.17096,1639069611444
Fix,GT,34.2296211,-118.4014013,227.29400677388907,0.0018701658,0.1,136.17078,1639069612444
Fix,GT,34.2296211,-118.4014013,227.29400677388907,0.0018701658,0.1,136.17072,1639069613444
Fix,GT,34.2296211,-118.4014013,227.29500677391889,0.0029770625,0.1,136.17108,1639069614444
Fix,GT,34.2296211,-118.4014013,227.29500677391889,0.0057814703,0.1,136.17068,1639069615444
Fix,GT,34.2296211,-118.4014013,227.29600677394865,0.006538951,0.1,136.17047,1639069616444
Fix,GT,34.2296211,-118.4014013,227.2980067740083,0.004272902,0.1,136.17032,1639069617444
Fix,GT,34.2296211,-118.4014013,227.298,0.0048764953,0.1,136.1706,1639069618444
Fix,GT,34.2296211,-118.4014013,227.298,0.0035900532,0.1,136.17078,1639069619444
Fix,GT,34.2296211,-118.4014013,227.298,0.0040682973,0.1,136.17023,1639069620444
Fix,GT,34.2296211,-118.4014013,227.299,0.0035602318,0.1,136.1705,1639069621444
Fix,GT,34.2296211,-118.4014013,227.298,0.0045798286,0.1,136.17047,1639069622444
Fix,GT,34.2296211,-118.4014013,227.2984452155233,0.0031744149,0.1,136.17053,1639069623444
Fix,GT,34.2296211,-118.4014013,227.2990067740381,0.003991368,0.1,136.17041,1639069624444
Fix,GT,34.229621,-118.4014013,227.2990067740381,0.0043167425,0.1,136.1706,1639069625444
Fix,GT,34.229621,-118.4014013,227.2990067740381,0.0050990195,0.1,136.17047,1639069626444
Fix,GT,34.229621,-118.4014013,227.2990067740381,0.0050990195,0.1,136.17035,1639069627444
Fix,GT,34.229621,-118.4014013,227.3,0.0061904127,0.1,136.17029,1639069628444
Fix,GT,34.2296209,-118.4014013,227.3000067740679,0.0059742024,0.1,136.17041,1639069629444
Fix,GT,34.2296209,-118.4014013,227.301,0.006773689,0.1,136.17041,1639069630444
Fix,GT,34.2296208,-118.4014012,227.30200677412748,0.007112268,0.1,136.17285,1639069631444
Fix,GT,34.2296208,-118.4014012,227.30345198977,0.009219544,0.1,136.17188,1639069632444
Fix,GT,34.2296208,-118.4014011,227.3060067742467,0.021301761,0.1,136.16638,1639069633444
Fix,GT,34.229619,-118.4013985,227.30456155860423,0.6751392,0.1,135.57599,1639069634444
Fix,GT,34.2296123,-118.4013877,227.3010067740977,1.7745025,0.1,132.22202,1639069635444
Fix,GT,34.2296005,-118.4013673,227.2990067740381,2.8393784,0.1,127.930786,1639069636444
Fix,GT,34.2295819,-118.4013357,227.29000677376985,4.3403034,0.1,126.51776,1639069637444
Fix,GT,34.2295551,-118.4012916,227.2814519891143,5.696334,0.1,126.75586,1639069638444
Fix,GT,34.2295228,-118.40124,227.262,5.993353,0.1,128.17334,1639069639444
Fix,GT,34.2294886,-118.4011915,227.258342419982,5.664075,0.1,131.87793,1639069640444
Fix,GT,34.2294576,-118.4011518,227.2058767189384,4.1112237,0.1,134.00696,1639069641444
Fix,GT,34.2294432,-118.4011199,227.1715547842384,2.8792489,0.1,120.27887,1639069642444
Fix,GT,34.22945,-118.4010868,227.1778904315233,3.1707196,0.1,86.187256,1639069643444
Fix,GT,34.2294769,-118.4010619,227.22211651033163,3.7922606,0.1,44.15973,1639069644444
Fix,GT,34.2295169,-118.4010635,227.2278904315233,4.8654213,0.1,0.37554932,1639069645444
Fix,GT,34.2295625,-118.4010917,227.25067806762456,6.475855,0.1,331.6495,1639069646444
Fix,GT,34.2296154,-118.4011357,227.32912328580025,7.5654297,0.1,325.30453,1639069647444
Fix,GT,34.2296725,-118.4011804,227.391897208482,7.425769,0.1,327.4008,1639069648444
Fix,GT,34.2297298,-118.401213,227.45334242615104,6.560874,0.1,336.61972,1639069649444
Fix,GT,34.2297841,-118.4012223,227.4242189718783,5.771984,0.1,354.68982,1639069650444
Fix,GT,34.2298345,-118.4012097,227.42122624358527,5.8080773,0.1,12.594971,1639069651444
Fix,GT,34.2298869,-118.4011756,227.53623286029693,7.420821,0.1,29.851318,1639069652444
Fix,GT,34.229944,-118.4011174,227.6264453742504,8.990351,0.1,41.408936,1639069653444
Fix,GT,34.2300045,-118.4010413,227.66489721661804,10.493762,0.1,45.799988,1639069654444
Fix,GT,34.2300722,-118.4009521,227.615650626868,11.734789,0.1,46.993805,1639069655444
Fix,GT,34.2301455,-118.4008512,227.46375325754283,13.004641,0.1,48.244934,1639069656444
Fix,GT,34.2302251,-118.4007386,227.1866365852952,14.197765,0.1,49.422485,1639069657444
Fix,GT,34.2303078,-118.400613,226.76706791734696,15.366513,0.1,52.169617,1639069658444
Fix,GT,34.2303905,-118.4004716,226.2141707416177,16.485798,0.1,55.95883,1639069659444
Fix,GT,34.2304666,-118.4003148,225.6106227015853,16.822533,0.1,61.427246,1639069660444
Fix,GT,34.2305295,-118.4001452,225.02717077699305,17.578175,0.1,68.2074,1639069661444
Fix,GT,34.2305783,-118.3999561,224.42249950018527,18.895954,0.1,75.21521,1639069662444
Fix,GT,34.2306094,-118.3997487,223.7747186562717,19.922619,0.1,82.132324,1639069663444
Fix,GT,34.2306211,-118.3995275,223.2691847138703,20.896687,0.1,88.78949,1639069664444
Fix,GT,34.2306109,-118.3992953,223.03821943196647,21.93161,0.1,95.406525,1639069665444
Fix,GT,34.2305849,-118.399054,223.12912374535205,22.909601,0.1,97.39307,1639069666444
Fix,GT,34.2305552,-118.3988024,223.23278751620649,23.926018,0.1,97.89957,1639069667444
Fix,GT,34.2305225,-118.3985416,223.3090135976672,24.616537,0.1,98.47528,1639069668444
Fix,GT,34.2304868,-118.3982747,223.3341165111661,25.260654,0.1,98.9924,1639069669444
Fix,GT,34.230448,-118.3980004,223.4206646370888,26.131367,0.1,99.70361,1639069670444
Fix,GT,34.2304039,-118.3977165,223.47577392059569,27.029415,0.1,100.679504,1639069671444
Fix,GT,34.2303549,-118.3974255,223.5394521588087,27.58554,0.1,101.69766,1639069672444
Fix,GT,34.2302999,-118.3971321,223.6107741995752,27.786894,0.1,103.35431,1639069673444
Fix,GT,34.2302372,-118.3968405,223.66199333435296,27.62777,0.1,104.47827,1639069674444
Fix,GT,34.2301743,-118.3965524,223.70987682145832,27.255596,0.1,104.85596,1639069675444
Fix,GT,34.2301056,-118.3962705,223.68655478399992,26.885822,0.1,107.28607,1639069676444
Fix,GT,34.2300259,-118.3959955,223.5881026239991,26.918676,0.1,110.35809,1639069677444
Fix,GT,34.2299338,-118.3957221,223.43854755353925,27.565859,0.1,112.78226,1639069678444
Fix,GT,34.2298307,-118.3954449,223.2764379808605,28.335133,0.1,114.6904,1639069679444
Fix,GT,34.2297177,-118.3951656,223.1065478388071,28.950422,0.1,116.536804,1639069680444
Fix,GT,34.2295961,-118.3948834,223.01054119214416,29.700592,0.1,117.43146,1639069681444
Fix,GT,34.2294689,-118.3945932,222.92954783761505,30.769005,0.1,117.61429,1639069682444
Fix,GT,34.2293371,-118.394294,222.8595544785857,31.598824,0.1,117.71649,1639069683444
Fix,GT,34.2292008,-118.3939884,222.7465408892036,32.19865,0.1,118.30087,1639069684444
Fix,GT,34.2290597,-118.393683,222.56876665508747,32.11769,0.1,119.38757,1639069685444
Fix,GT,34.228915,-118.3933809,222.3938765363693,32.207333,0.1,119.67789,1639069686444
Fix,GT,34.2287705,-118.3930784,222.24254121145609,32.11626,0.1,119.63696,1639069687444
Fix,GT,34.228626,-118.3927773,222.1116507808864,31.982994,0.1,119.72589,1639069688444
Fix,GT,34.2284822,-118.3924779,221.98699966460467,31.719131,0.1,119.80347,1639069689444
Fix,GT,34.2283396,-118.3921813,221.86321218037605,31.439274,0.1,119.6626,1639069690444
Fix,GT,34.228199,-118.3918865,221.7489930474162,31.283794,0.1,119.48407,1639069691444
Fix,GT,34.2280585,-118.39159,221.6226640005112,31.672318,0.1,119.39667,1639069692444
Fix,GT,34.2279163,-118.391289,221.4886709494293,32.116287,0.1,118.915405,1639069693444
Fix,GT,34.2277774,-118.3909813,221.38199964228272,32.437874,0.1,117.79999,1639069694444
Fix,GT,34.2276389,-118.3906699,221.2409860862493,32.64332,0.1,118.15289,1639069695444
Fix,GT,34.2274974,-118.3903584,221.02108868932723,32.719997,0.1,118.87512,1639069696444
Fix,GT,34.2273537,-118.3900497,220.7466434681416,32.516563,0.1,119.23187,1639069697444
Fix,GT,34.2272109,-118.3897409,220.4638695538044,32.671837,0.1,118.41092,1639069698444
Fix,GT,34.2270738,-118.3894261,220.2414312955737,32.80745,0.1,116.254486,1639069699444
Fix,GT,34.2269473,-118.3891041,220.1006573843956,32.851196,0.1,113.85751,1639069700444
Fix,GT,34.2268329,-118.3887751,219.96665738296508,32.870186,0.1,111.32117,1639069701444
Fix,GT,34.2267301,-118.3884408,219.8342121633292,32.838516,0.1,108.89429,1639069702444
Fix,GT,34.2266398,-118.3881016,219.75644521832464,32.83016,0.1,106.28961,1639069703444
Fix,GT,34.2265625,-118.3877582,219.8959178887605,32.72879,0.1,103.6134,1639069704444
Fix,GT,34.226499,-118.3874124,220.29070614671707,32.55347,0.1,101.05728,1639069705444
Fix,GT,34.2264482,-118.387066,220.93927525275944,32.272762,0.1,98.67792,1639069706444
Fix,GT,34.2264095,-118.3867204,221.8204053485393,31.98289,0.1,96.21594,1639069707444
Fix,GT,34.2263833,-118.3863764,222.7723024381697,31.723242,0.1,93.76672,1639069708444
Fix,GT,34.2263708,-118.386033,223.6994120390117,31.665318,0.1,90.88159,1639069709444
Fix,GT,34.2263714,-118.3856887,224.63196685871483,31.797913,0.1,88.530426,1639069710444
Fix,GT,34.2263825,-118.3853433,225.5052821461857,31.948402,0.1,86.95099,1639069711444
Fix,GT,34.2263965,-118.384996,226.3658369112909,32.10926,0.1,87.08545,1639069712444
Fix,GT,34.2264102,-118.3846467,227.2316313104928,32.31176,0.1,86.96286,1639069713444
Fix,GT,34.2264248,-118.3842963,228.13028907635805,32.322266,0.1,86.90311,1639069714444
Fix,GT,34.2264392,-118.3839469,229.0919602339268,32.16619,0.1,86.810394,1639069715444
Fix,GT,34.2264547,-118.3835981,230.04818635094165,32.208282,0.1,86.620605,1639069716444
Fix,GT,34.2264704,-118.3832494,231.0118507018089,32.151215,0.1,86.68085,1639069717444
Fix,GT,34.2264857,-118.3829013,231.9712959446907,32.07671,0.1,86.66092,1639069718444
Fix,GT,34.2265021,-118.3825551,232.94962463778256,31.809906,0.1,86.44507,1639069719444
Fix,GT,34.2265186,-118.3822124,233.87650810790063,31.393139,0.1,86.36926,1639069720444
Fix,GT,34.2265348,-118.3818753,234.81285077464585,30.79823,0.1,86.468475,1639069721444
Fix,GT,34.2265505,-118.3815449,235.7305151333213,30.215122,0.1,86.59122,1639069722444
Fix,GT,34.2265654,-118.3812206,236.5557343222797,29.638943,0.1,86.613464,1639069723444
Fix,GT,34.2265798,-118.3809024,237.2871725892425,29.105713,0.1,86.629486,1639069724444
Fix,GT,34.2265938,-118.3805897,237.85158267438413,28.594986,0.1,86.72943,1639069725444
Fix,GT,34.226607,-118.3802808,238.20380198645591,28.522007,0.1,86.80798,1639069726444
Fix,GT,34.2266215,-118.3799699,238.3961236615181,28.90311,0.1,86.34561,1639069727444
Fix,GT,34.226637,-118.3796567,238.39143811798093,28.802044,0.1,86.433655,1639069728444
Fix,GT,34.2266508,-118.379346,238.12408162170647,28.555233,0.1,86.74216,1639069729444
Fix,GT,34.2266632,-118.3790361,237.72095094513887,28.638752,0.1,87.098694,1639069730444
Fix,GT,34.2266714,-118.3787257,237.0719509842396,28.68851,0.1,88.68741,1639069731444
Fix,GT,34.22667,-118.3784126,236.4611840790808,28.924189,0.1,91.29352,1639069732444
Fix,GT,34.2266552,-118.3780988,235.90207449623944,29.10981,0.1,94.328094,1639069733444
Fix,GT,34.226628,-118.3777814,235.3566292425692,29.602558,0.1,96.89551,1639069734444
Fix,GT,34.2265869,-118.3774643,234.79207443645595,29.52069,0.1,100.019775,1639069735444
Fix,GT,34.2265324,-118.3771504,234.23118395730853,29.526869,0.1,102.827484,1639069736444
Fix,GT,34.2264656,-118.3768405,233.6601839264631,29.50475,0.1,105.505554,1639069737444
Fix,GT,34.2263869,-118.376535,233.10741002124547,29.408304,0.1,108.19278,1639069738444
Fix,GT,34.2262968,-118.3762355,232.5549578371048,29.337845,0.1,111.04074,1639069739444
Fix,GT,34.2261934,-118.3759418,231.99850568556784,29.434584,0.1,114.068634,1639069740444
Fix,GT,34.2260772,-118.3756538,231.4383961405456,29.605837,0.1,116.85339,1639069741444
Fix,GT,34.2259492,-118.3753717,230.8690604670644,29.582188,0.1,119.64612,1639069742444
Fix,GT,34.22581,-118.3750979,230.2955125594139,29.600101,0.1,122.49191,1639069743444
Fix,GT,34.22566,-118.3748326,229.7082864141464,29.518257,0.1,125.34436,1639069744444
Fix,GT,34.2254998,-118.3745778,229.0562793557048,29.365782,0.1,128.15253,1639069745444
Fix,GT,34.2253303,-118.374334,228.3700602471233,29.2328,0.1,130.97662,1639069746444
Fix,GT,34.2251532,-118.3740999,227.7651768220663,29.107475,0.1,132.97266,1639069747444
Fix,GT,34.2249717,-118.3738729,227.182176808238,28.95932,0.1,133.8689,1639069748444
Fix,GT,34.2247906,-118.3736477,226.5799506559968,28.808823,0.1,133.87787,1639069749444
Fix,GT,34.2246099,-118.3734236,225.91117645686865,28.833086,0.1,133.81259,1639069750444
Fix,GT,34.2244282,-118.3731971,225.22872447705268,29.206966,0.1,133.63797,1639069751444
Fix,GT,34.2242448,-118.3729675,224.544943908751,29.429577,0.1,133.52393,1639069752444
Fix,GT,34.2240613,-118.372737,223.9058477141857,29.446468,0.1,133.61316,1639069753444
Fix,GT,34.2238773,-118.3725065,223.33851905715463,29.418514,0.1,133.88788,1639069754444
Fix,GT,34.2236936,-118.3722773,222.814738532424,29.277456,0.1,133.5946,1639069755444
Fix,GT,34.2235133,-118.3720466,222.3122932909131,29.092304,0.1,132.37366,1639069756444
Fix,GT,34.2233406,-118.3718104,221.786067129612,28.919582,0.1,130.06912,1639069757444
Fix,GT,34.2231765,-118.3715673,221.18227912539243,28.830917,0.1,128.0008,1639069758444
Fix,GT,34.2230211,-118.371317,220.52706003016235,28.805717,0.1,125.31979,1639069759444
Fix,GT,34.2228762,-118.3710571,219.853279088378,28.848349,0.1,122.245056,1639069760444
Fix,GT,34.2227422,-118.3707879,219.179614764452,29.076614,0.1,119.62137,1639069761444
Fix,GT,34.2226174,-118.3705091,218.50127905547612,29.222961,0.1,116.942444,1639069762444
Fix,GT,34.2225029,-118.370224,217.8262855296135,29.152401,0.1,114.62695,1639069763444
Fix,GT,34.2223983,-118.3699343,217.162163006872,29.044191,0.1,111.94873,1639069764444
Fix,GT,34.2223067,-118.3696395,216.487621152252,29.078136,0.1,109.04303,1639069765444
Fix,GT,34.2222268,-118.3693378,215.8191630149484,29.217537,0.1,106.03137,1639069766444
Fix,GT,34.22216,-118.3690315,215.13383373260496,29.165888,0.1,103.270905,1639069767444
Fix,GT,34.2221048,-118.3687224,214.44805987906457,29.09679,0.1,100.75827,1639069768444
Fix,GT,34.2220612,-118.368412,213.76438208839292,28.931305,0.1,98.23859,1639069769444
Fix,GT,34.222028,-118.3681015,213.05804639288783,28.834797,0.1,96.19504,1639069770444
Fix,GT,34.2220039,-118.3677886,212.3286138168276,29.08464,0.1,94.08417,1639069771444
Fix,GT,34.2219869,-118.3674727,211.5591622340679,29.254984,0.1,93.30411,1639069772444
Fix,GT,34.2219701,-118.367155,210.8462922390997,29.383535,0.1,93.64746,1639069773444
Fix,GT,34.2219517,-118.366837,210.3600810943842,29.34912,0.1,93.77823,1639069774444
Fix,GT,34.2219341,-118.3665198,210.1286634462476,29.22734,0.1,93.42847,1639069775444
Fix,GT,34.221917,-118.3662043,210.0359928859472,29.041845,0.1,93.58502,1639069776444
Fix,GT,34.2218992,-118.3658908,209.9454381184578,28.88587,0.1,93.66913,1639069777444
Fix,GT,34.2218813,-118.3655784,209.86054764509203,28.82033,0.1,93.67334,1639069778444
Fix,GT,34.2218643,-118.3652666,209.7645538940132,28.790436,0.1,93.36899,1639069779444
Fix,GT,34.2218478,-118.3649541,209.67010240370035,28.934792,0.1,93.431305,1639069780444
Fix,GT,34.2218305,-118.3646397,209.57999287307263,29.107918,0.1,93.5939,1639069781444
Fix,GT,34.2218126,-118.3643237,209.4889866278172,29.257025,0.1,93.72238,1639069782444
Fix,GT,34.2217942,-118.3640068,209.37820568183065,29.251282,0.1,93.78769,1639069783444
Fix,GT,34.2217756,-118.3636907,209.2135404962301,29.151577,0.1,93.82745,1639069784444
Fix,GT,34.2217575,-118.3633755,209.0157595425844,29.107418,0.1,93.6073,1639069785444
Fix,GT,34.22174,-118.36306,208.7748628375232,29.158787,0.1,93.57614,1639069786444
Fix,GT,34.2217225,-118.3627439,208.5072047667504,29.24006,0.1,93.51932,1639069787444
Fix,GT,34.2217046,-118.3624265,208.2503142852783,29.391735,0.1,93.72247,1639069788444
Fix,GT,34.2216862,-118.3621071,207.97108808606865,29.627043,0.1,93.60123,1639069789444
Fix,GT,34.2216682,-118.3617867,207.6661904540062,29.547527,0.1,93.62842,1639069790444
Fix,GT,34.2216496,-118.3614665,207.3245261633396,29.610672,0.1,93.67926,1639069791444
Fix,GT,34.2216279,-118.3611462,206.98730093869568,29.552097,0.1,95.29401,1639069792444
Fix,GT,34.2215965,-118.3608288,206.6735271372199,29.329681,0.1,97.783844,1639069793444
Fix,GT,34.2215516,-118.3605164,206.3839846793711,29.09085,0.1,101.14188,1639069794444
Fix,GT,34.2214932,-118.3602099,206.1147594808936,28.853703,0.1,103.80789,1639069795444
Fix,GT,34.2214245,-118.3599087,205.8526499558091,28.782707,0.1,106.27402,1639069796444
Fix,GT,34.2213438,-118.3596114,205.71243807554245,28.877539,0.1,109.18823,1639069797444
Fix,GT,34.2212502,-118.3593178,205.7781177188456,29.042953,0.1,111.930695,1639069798444
Fix,GT,34.2211454,-118.359029,206.0623643980026,28.936398,0.1,114.638336,1639069799444
Fix,GT,34.2210291,-118.3587499,206.4430348367393,28.639389,0.1,117.86206,1639069800444
Fix,GT,34.2209022,-118.3584812,206.80980966043472,28.307156,0.1,120.552124,1639069801444
Fix,GT,34.2207665,-118.3582219,207.18513821947573,28.259623,0.1,123.038025,1639069802444
Fix,GT,34.2206213,-118.357969,207.567254921496,28.383669,0.1,125.56372,1639069803444
Fix,GT,34.2204661,-118.3577229,207.95592540505527,28.607136,0.1,128.10468,1639069804444
Fix,GT,34.220301,-118.3574856,208.3444801831544,28.36229,0.1,131.08258,1639069805444
Fix,GT,34.2201284,-118.3572612,208.7251444749832,27.978472,0.1,133.7215,1639069806444
Fix,GT,34.2199494,-118.3570489,209.0980225201249,27.832558,0.1,136.35577,1639069807444
Fix,GT,34.2197636,-118.3568486,209.47435824751847,27.492012,0.1,139.25925,1639069808444
Fix,GT,34.219571,-118.3566613,209.8938169362545,27.528954,0.1,142.01996,1639069809444
Fix,GT,34.2193715,-118.3564824,210.4354884109497,27.510805,0.1,143.88806,1639069810444
Fix,GT,34.2191709,-118.3563106,210.9509264714718,27.089878,0.1,144.4035,1639069811444
Fix,GT,34.2189734,-118.3561406,211.3883645281792,26.83635,0.1,144.04425,1639069812444
Fix,GT,34.218777,-118.3559704,211.7445763598681,26.901798,0.1,143.96439,1639069813444
Fix,GT,34.2185799,-118.355799,212.00389857962728,27.067299,0.1,143.86194,1639069814444
Fix,GT,34.2183811,-118.3556267,212.12278098034852,27.278133,0.1,144.13525,1639069815444
Fix,GT,34.2181805,-118.3554534,212.0950959800184,27.526295,0.1,144.06824,1639069816444
Fix,GT,34.217978,-118.3552795,212.0218688609004,27.542137,0.1,144.53217,1639069817444
Fix,GT,34.2177768,-118.3551064,211.7304380335808,27.350418,0.1,143.98883,1639069818444
Fix,GT,34.2175776,-118.3549328,211.43007434770465,27.259617,0.1,143.89166,1639069819444
Fix,GT,34.2173785,-118.3547574,210.9837313960791,27.44767,0.1,143.32162,1639069820444
Fix,GT,34.217181,-118.3545786,210.41061372983447,27.44174,0.1,142.36667,1639069821444
Fix,GT,34.2169847,-118.3543931,209.71983272707465,27.994915,0.1,141.10016,1639069822444
Fix,GT,34.216788,-118.3541982,208.9602707297802,28.390285,0.1,139.68268,1639069823444
Fix,GT,34.216594,-118.3539973,208.15348972690103,28.390333,0.1,138.57681,1639069824444
Fix,GT,34.2164037,-118.3537915,207.3614897024632,28.343868,0.1,137.0904,1639069825444
Fix,GT,34.2162182,-118.3535803,206.47036571860315,28.340122,0.1,135.92511,1639069826444
Fix,GT,34.2160339,-118.3533646,205.417584703207,28.733673,0.1,135.44797,1639069827444
Fix,GT,34.2158481,-118.3531456,204.42592765784264,28.879864,0.1,135.1767,1639069828444
Fix,GT,34.2156633,-118.3529251,203.6056002969742,28.836952,0.1,134.94635,1639069829444
Fix,GT,34.215479,-118.3527039,202.9646147749126,28.932592,0.1,134.60797,1639069830444
Fix,GT,34.2152941,-118.3524795,202.4564150838852,29.366968,0.1,134.53384,1639069831444
Fix,GT,34.2151069,-118.3522542,202.09497827482224,29.288963,0.1,134.9967,1639069832444
Fix,GT,34.2149193,-118.3520319,201.878541490525,29.164654,0.1,135.2674,1639069833444
Fix,GT,34.2147328,-118.3518101,201.77976049292087,28.979683,0.1,135.05643,1639069834444
Fix,GT,34.2145475,-118.3515891,201.69666301471,28.939798,0.1,135.00336,1639069835444
Fix,GT,34.2143619,-118.3513683,201.61532850050924,28.8723,0.1,135.09448,1639069836444
Fix,GT,34.2141778,-118.3511486,201.53443199270964,28.668602,0.1,134.83994,1639069837444
Fix,GT,34.2139955,-118.3509296,201.46254749667645,28.463005,0.1,134.81476,1639069838444
Fix,GT,34.2138139,-118.3507127,201.36810224372147,28.277168,0.1,135.07855,1639069839444
Fix,GT,34.2136327,-118.3504979,201.27443199568987,28.21032,0.1,135.22177,1639069840444
Fix,GT,34.2134504,-118.3502828,201.1759927421808,28.49251,0.1,135.29626,1639069841444
Fix,GT,34.2132661,-118.3500649,201.09143799066544,28.734264,0.1,135.23364,1639069842444
Fix,GT,34.2130816,-118.3498468,201.0230962444245,28.62624,0.1,135.28748,1639069843444
Fix,GT,34.2128973,-118.3496282,200.92444397616384,28.7449,0.1,134.97903,1639069844444
Fix,GT,34.2127132,-118.3494079,200.8374320010841,28.890305,0.1,134.88501,1639069845444
Fix,GT,34.2125287,-118.3491869,200.7543284887076,28.913834,0.1,134.85553,1639069846444
Fix,GT,34.2123434,-118.3489657,200.64299144223327,28.97607,0.1,135.05408,1639069847444
Fix,GT,34.2121573,-118.3487445,200.46164840832355,28.937614,0.1,135.12756,1639069848444
Fix,GT,34.2119716,-118.3485245,200.18308171442152,28.964733,0.1,135.17236,1639069849444
Fix,GT,34.2117857,-118.3483026,199.7199550411999,29.07235,0.1,134.90558,1639069850444
Fix,GT,34.2115993,-118.3480806,199.1625038261413,29.073881,0.1,135.26459,1639069851444
Fix,GT,34.211413,-118.3478591,198.51338112944364,29.079128,0.1,135.12411,1639069852444
Fix,GT,34.2112254,-118.347637,197.7771607663632,29.304787,0.1,135.32935,1639069853444
Fix,GT,34.2110355,-118.3474144,197.0188177137375,29.46421,0.1,135.65564,1639069854444
Fix,GT,34.2108444,-118.3471915,196.2327154857516,29.597336,0.1,135.79163,1639069855444
Fix,GT,34.2106515,-118.3469695,195.42581768226623,29.586819,0.1,136.21191,1639069856444
Fix,GT,34.2104577,-118.3467489,194.6011607120037,29.593828,0.1,136.45682,1639069857444
Fix,GT,34.2102628,-118.3465293,193.8211664734781,29.65465,0.1,136.81781,1639069858444
Fix,GT,34.2100664,-118.346311,193.06738695555924,29.665726,0.1,137.06561,1639069859444
Fix,GT,34.209868,-118.3460943,192.42673572856188,29.788181,0.1,138.23456,1639069860444
Fix,GT,34.2096659,-118.345882,191.91407875418665,29.667713,0.1,139.05957,1639069861444
Fix,GT,34.2094627,-118.3456742,191.5353008838594,29.485703,0.1,139.73495,1639069862444
Fix,GT,34.2092571,-118.3454727,191.28332117617128,29.330679,0.1,141.13403,1639069863444
Fix,GT,34.2090501,-118.3452767,191.14987591743468,29.09822,0.1,142.026,1639069864444
Fix,GT,34.2088419,-118.345087,191.08042496386167,28.812899,0.1,143.17749,1639069865444
Fix,GT,34.208633,-118.3449037,190.99588890337944,28.53672,0.1,144.0,1639069866444
Fix,GT,34.2084241,-118.3447258,190.89899838727712,28.280767,0.1,144.79199,1639069867444
Fix,GT,34.2082142,-118.3445522,190.8124322655201,28.240322,0.1,145.77264,1639069868444
Fix,GT,34.2080018,-118.3443834,190.7264379506111,28.212345,0.1,146.68585,1639069869444
Fix,GT,34.2077885,-118.3442188,190.6488775238693,27.97739,0.1,147.34479,1639069870444
Fix,GT,34.2075752,-118.3440583,190.5554379482269,27.824776,0.1,148.1929,1639069871444
Fix,GT,34.2073612,-118.3439033,190.4685474334956,27.619219,0.1,149.13345,1639069872444
Fix,GT,34.2071458,-118.3437526,190.3741021748781,27.67707,0.1,149.80502,1639069873444
Fix,GT,34.2069289,-118.3436026,190.26321165966988,27.846157,0.1,149.87704,1639069874444
Fix,GT,34.20671,-118.343453,190.0869853717089,27.925583,0.1,150.24438,1639069875444
Fix,GT,34.2064918,-118.343304,189.8246422826052,27.762856,0.1,150.11725,1639069876444
Fix,GT,34.2062745,-118.343155,189.52752547746897,27.684734,0.1,150.0498,1639069877444
Fix,GT,34.2060582,-118.3430069,189.1456349580884,27.567097,0.1,150.1026,1639069878444
Fix,GT,34.205842,-118.3428593,188.719744438231,27.55703,0.1,150.13007,1639069879444
Fix,GT,34.2056262,-118.3427123,188.2918595312834,27.442299,0.1,150.29224,1639069880444
Fix,GT,34.2054111,-118.3425669,187.87262934806944,27.33395,0.1,150.54028,1639069881444
Fix,GT,34.2051947,-118.3424222,187.45285564535857,27.573395,0.1,150.71088,1639069882444
Fix,GT,34.2049779,-118.3422771,187.02118235987425,27.47017,0.1,150.58466,1639069883444
Fix,GT,34.2047624,-118.3421321,186.59573886081577,27.307154,0.1,150.50632,1639069884444
Fix,GT,34.204548,-118.3419883,186.18530471116304,27.143932,0.1,150.6615,1639069885444
Fix,GT,34.2043351,-118.3418449,185.7657388806641,26.985968,0.1,150.32928,1639069886444
Fix,GT,34.2041239,-118.3417008,185.3587444137931,26.920376,0.1,150.12079,1639069887444
Fix,GT,34.2039132,-118.3415565,184.9576294163465,26.834389,0.1,150.07892,1639069888444
Fix,GT,34.2037035,-118.3414128,184.54385939395428,26.7042,0.1,150.15305,1639069889444
Fix,GT,34.2034946,-118.3412704,184.1108538922668,26.551956,0.1,150.27097,1639069890444
Fix,GT,34.2032866,-118.3411294,183.6978538922668,26.399258,0.1,150.35776,1639069891444
Fix,GT,34.2030815,-118.3409903,183.28418420320747,25.772957,0.1,150.29681,1639069892444
Fix,GT,34.2028818,-118.3408546,182.89419511485104,25.27053,0.1,150.1712,1639069893444
Fix,GT,34.2026833,-118.3407192,182.520744404018,25.41669,0.1,150.23602,1639069894444
Fix,GT,34.2024815,-118.3405833,182.10752543777227,25.933393,0.1,150.8497,1639069895444
Fix,GT,34.2022739,-118.3404476,181.67162759494784,26.438107,0.1,151.52414,1639069896444
Fix,GT,34.2020619,-118.3403109,181.25129914557937,26.984348,0.1,151.17316,1639069897444
Fix,GT,34.2018461,-118.3401657,180.8488592787087,28.006027,0.1,149.85956,1639069898444
Fix,GT,34.2016226,-118.3400099,180.40096874856948,29.246315,0.1,149.79004,1639069899444
Fix,GT,34.2013909,-118.3398531,179.96829378530384,29.626194,0.1,150.98288,1639069900444
Fix,GT,34.2011557,-118.3397017,179.58385586366057,29.516594,0.1,152.078,1639069901444
Fix,GT,34.2009205,-118.3395545,179.3005327670574,29.295086,0.1,152.36267,1639069902444
Fix,GT,34.2006875,-118.3394075,179.11343793344497,29.061047,0.1,151.92819,1639069903444
Fix,GT,34.2004565,-118.3392613,178.9758958504498,28.890781,0.1,152.1875,1639069904444
Fix,GT,34.2002253,-118.3391158,178.93911147490144,28.919832,0.1,152.01257,1639069905444
Fix,GT,34.199996,-118.3389691,179.1357956804037,28.76763,0.1,151.49396,1639069906444
Fix,GT,34.1997681,-118.3388169,179.3805893814564,29.088604,0.1,149.89609,1639069907444
Fix,GT,34.199543,-118.338656,179.6742262904048,28.936855,0.1,148.52875,1639069908444
Fix,GT,34.1993226,-118.3384892,179.6210928700268,28.892641,0.1,146.8039,1639069909444
Fix,GT,34.1991062,-118.338314,179.50686320015788,28.96933,0.1,145.28723,1639069910444
Fix,GT,34.1988935,-118.3381335,179.3789853566885,28.74768,0.1,144.15549,1639069911444
Fix,GT,34.1986868,-118.3379482,179.2542043274641,28.43354,0.1,142.2059,1639069912444
Fix,GT,34.1984877,-118.3377565,178.94718435630205,28.159851,0.1,139.99982,1639069913444
Fix,GT,34.1982979,-118.3375541,178.4731677325368,28.260323,0.1,136.86917,1639069914444
Fix,GT,34.1981143,-118.3373383,177.87506355187298,28.68915,0.1,134.13635,1639069915444
Fix,GT,34.1979359,-118.337109,177.1597078460455,29.243906,0.1,132.19891,1639069916444
Fix,GT,34.197759,-118.3368696,176.26891425150632,29.84576,0.1,130.78235,1639069917444
Fix,GT,34.1975835,-118.3366202,175.23002168321608,30.369999,0.1,129.60608,1639069918444
Fix,GT,34.197408,-118.3363656,173.99877557906507,30.555115,0.1,129.4278,1639069919444
Fix,GT,34.1972319,-118.3361101,172.72211870601774,30.634624,0.1,129.42535,1639069920444
Fix,GT,34.1970556,-118.335854,171.63970055025817,30.651533,0.1,129.25116,1639069921444
Fix,GT,34.19688,-118.3355978,170.7603794155121,30.548212,0.1,129.38074,1639069922444
Fix,GT,34.1967043,-118.3353435,170.03771519201996,30.428986,0.1,129.67535,1639069923444
Fix,GT,34.1965288,-118.3350907,169.32071015173196,30.296618,0.1,129.70966,1639069924444
Fix,GT,34.196355,-118.334838,168.59361302959917,30.17244,0.1,128.84167,1639069925444
Fix,GT,34.1961882,-118.3345793,167.96695611834528,30.33762,0.1,126.63678,1639069926444
Fix,GT,34.1960249,-118.3343114,167.50806792646648,30.927538,0.1,125.56564,1639069927444
Fix,GT,34.1958626,-118.3340365,167.13819703274964,31.07528,0.1,124.78943,1639069928444
Fix,GT,34.1957048,-118.333759,166.858301548481,30.973965,0.1,123.806335,1639069929444
Fix,GT,34.1955476,-118.3334785,166.46151818585395,31.467863,0.1,123.972626,1639069930444
Fix,GT,34.1953857,-118.3331925,165.9280656208992,32.36305,0.1,123.92139,1639069931444
Fix,GT,34.1952216,-118.3328974,165.34429429122804,32.925797,0.1,123.10199,1639069932444
Fix,GT,34.1950588,-118.3325987,164.99475178718566,32.93013,0.1,122.89395,1639069933444
Fix,GT,34.1948967,-118.3322984,164.64275178909304,33.10067,0.1,122.61417,1639069934444
Fix,GT,34.1947346,-118.3319979,164.27330653643608,32.914055,0.1,122.86618,1639069935444
Fix,GT,34.1945716,-118.3317014,163.9186349976063,32.616394,0.1,123.804016,1639069936444
Fix,GT,34.1944052,-118.3314115,163.5530753804445,32.32052,0.1,125.06207,1639069937444
Fix,GT,34.1942317,-118.3311309,163.2007517967224,32.30303,0.1,127.76059,1639069938444
Fix,GT,34.1940489,-118.330856,162.93475424844024,32.546547,0.1,128.92712,1639069939444
Fix,GT,34.1938624,-118.3305844,162.77321166819334,32.32346,0.1,129.32178,1639069940444
Fix,GT,34.1936773,-118.3303145,162.6748832063675,32.186916,0.1,129.26831,1639069941444
Fix,GT,34.1934925,-118.3300478,162.67322873899343,31.801638,0.1,129.90363,1639069942444
Fix,GT,34.1933065,-118.3297884,162.72945256233214,31.363274,0.1,131.1034,1639069943444
Fix,GT,34.1931192,-118.3295367,162.76422143033147,30.938766,0.1,131.93958,1639069944444
Fix,GT,34.1929299,-118.3292898,162.797,31.07866,0.1,132.92023,1639069945444
Fix,GT,34.1927369,-118.3290462,162.859554743886,30.887789,0.1,133.76123,1639069946444
Fix,GT,34.1925432,-118.3288081,162.839554743886,30.542221,0.1,134.45325,1639069947444
Fix,GT,34.1923505,-118.3285742,162.84321897554398,30.175259,0.1,134.58551,1639069948444
Fix,GT,34.1921608,-118.3283448,162.80132846331597,29.206186,0.1,134.55872,1639069949444
Fix,GT,34.1919804,-118.3281267,162.69197808492183,27.851942,0.1,134.75519,1639069950444
Fix,GT,34.1918047,-118.3279148,162.66565207901596,27.21427,0.1,134.75049,1639069951444
Fix,GT,34.1916342,-118.3277102,162.4276350092292,26.341682,0.1,134.96335,1639069952444
Fix,GT,34.1914672,-118.3275097,162.06030654627085,25.976118,0.1,134.65387,1639069953444
Fix,GT,34.191303,-118.3273108,161.74552552157638,25.732365,0.1,134.69366,1639069954444
Fix,GT,34.1911404,-118.3271134,161.36908026313782,25.513292,0.1,134.34723,1639069955444
Fix,GT,34.1909794,-118.3269159,160.9546350069046,25.497322,0.1,134.05444,1639069956444
Fix,GT,34.1908189,-118.3267165,160.4475109038949,25.710827,0.1,133.42395,1639069957444
Fix,GT,34.1906605,-118.3265128,159.83716782838107,25.71294,0.1,132.49158,1639069958444
Fix,GT,34.190504,-118.3263076,159.17272257208822,25.650108,0.1,132.15155,1639069959444
Fix,GT,34.1903491,-118.3261014,158.44503900209068,25.600895,0.1,131.77466,1639069960444
Fix,GT,34.1901946,-118.3258952,157.61282735925914,25.577076,0.1,132.07486,1639069961444
Fix,GT,34.1900387,-118.3256894,156.895496286273,25.924776,0.1,132.12036,1639069962444
Fix,GT,34.1898802,-118.325478,156.13116051268577,26.428307,0.1,131.4945,1639069963444
Fix,GT,34.1897225,-118.3252628,155.3211458916664,26.460163,0.1,131.10492,1639069964444
Fix,GT,34.189564,-118.3250452,154.30501717817782,27.029898,0.1,130.79199,1639069965444
Fix,GT,34.1894022,-118.3248214,153.3168101106882,27.700718,0.1,130.75214,1639069966444
Fix,GT,34.1892356,-118.3245912,152.46950357437134,28.54187,0.1,130.8153,1639069967444
Fix,GT,34.1890637,-118.3243558,151.87106109905244,29.170414,0.1,131.60013,1639069968444
Fix,GT,34.1888841,-118.3241215,151.31962316331268,29.623772,0.1,132.83417,1639069969444
Fix,GT,34.1886998,-118.3238844,150.8652918986678,30.19115,0.1,132.78229,1639069970444
Fix,GT,34.1885151,-118.3236443,150.54509486103058,30.072037,0.1,132.22028,1639069971444
Fix,GT,34.1883338,-118.3234038,150.3466524347067,29.774805,0.1,131.70502,1639069972444
Fix,GT,34.1881554,-118.3231631,150.15154011344907,29.705132,0.1,131.33041,1639069973444
Fix,GT,34.1879781,-118.3229234,150.13668617534637,29.397482,0.1,131.51672,1639069974444
Fix,GT,34.1878032,-118.3226871,150.3060073168278,28.964766,0.1,131.64902,1639069975444
Fix,GT,34.1876293,-118.3224557,150.486010150671,28.535961,0.1,131.98755,1639069976444
Fix,GT,34.187457,-118.3222291,150.62401180806756,28.102404,0.1,132.9845,1639069977444
Fix,GT,34.1872831,-118.3220105,150.67610216373205,27.700209,0.1,134.18878,1639069978444
Fix,GT,34.1871103,-118.3217985,150.68290232780575,26.87734,0.1,134.07892,1639069979444
Fix,GT,34.1869484,-118.3215931,150.76167154848577,25.29285,0.1,132.60382,1639069980444
Fix,GT,34.1868004,-118.321395,150.80655757060646,23.911133,0.1,131.21661,1639069981444
Fix,GT,34.1866643,-118.3211987,150.86798085540534,23.360498,0.1,128.22461,1639069982444
Fix,GT,34.186539,-118.320998,151.03457671630383,22.923016,0.1,125.80469,1639069983444
Fix,GT,34.1864188,-118.320799,151.33569803720712,22.44531,0.1,126.01544,1639069984444
Fix,GT,34.1863017,-118.3206041,151.81482219165565,21.866322,0.1,125.42313,1639069985444
Fix,GT,34.1861914,-118.3204138,152.41549200811983,20.804966,0.1,124.104706,1639069986444
Fix,GT,34.1860904,-118.3202347,153.05483688986303,19.064884,0.1,123.86694,1639069987444
Fix,GT,34.1859991,-118.3200711,153.70616811573507,17.230282,0.1,123.48273,1639069988444
Fix,GT,34.1859177,-118.3199236,154.38082501018047,15.387581,0.1,123.17923,1639069989444
Fix,GT,34.1858448,-118.3197914,154.98404398143293,13.941404,0.1,123.22757,1639069990444
Fix,GT,34.185779,-118.3196717,155.44303395625948,12.384439,0.1,123.06088,1639069991444
Fix,GT,34.1857227,-118.3195691,155.76456207227707,10.31974,0.1,123.15759,1639069992444
Fix,GT,34.1856744,-118.3194811,155.9846908673644,9.222046,0.1,123.17621,1639069993444
Fix,GT,34.185631,-118.3194019,156.09856672593952,8.242218,0.1,123.02817,1639069994444
Fix,GT,34.1855932,-118.3193327,156.17955474066736,6.9433928,0.1,123.11218,1639069995444
Fix,GT,34.1855629,-118.3192776,156.22389051890372,5.2811565,0.1,123.24512,1639069996444
Fix,GT,34.1855401,-118.3192363,156.2583357785344,3.9940438,0.1,123.39325,1639069997444
Fix,GT,34.1855224,-118.3192046,156.29289517706633,3.0610905,0.1,123.4404,1639069998444
Fix,GT,34.1855093,-118.3191806,156.3060046582818,2.280024,0.1,123.22003,1639069999444
Fix,GT,34.1855,-118.3191637,156.318890519619,1.361963,0.1,123.197784,1639070000444
Fix,GT,34.185496,-118.3191563,156.3254452599287,0.36367583,0.1,123.180695,1639070001444
Fix,GT,34.1854954,-118.3191554,156.325,0.0030762905,0.1,123.17929,1639070002444
Fix,GT,34.1854954,-118.3191554,156.325,0.0015503718,0.1,123.17969,1639070003444
Fix,GT,34.1854954,-118.3191555,156.32700465890764,0.0014142136,0.1,123.17749,1639070004444
Fix,GT,34.1854954,-118.3191555,156.327,0.0012297807,0.1,123.17734,1639070005444
Fix,GT,34.1854954,-118.3191555,156.327,0.0018701287,0.1,123.17743,1639070006444
Fix,GT,34.1854954,-118.3191555,156.327,0.0036055513,0.1,123.17761,1639070007444
Fix,GT,34.1854954,-118.3191555,156.329,0.008925058,0.1,123.17807,1639070008444
Fix,GT,34.1854945,-118.319154,156.32944060176612,0.4768988,0.1,123.16998,1639070009444
Fix,GT,34.1854894,-118.3191447,156.3344406017363,1.6477762,0.1,123.09009,1639070010444
Fix,GT,34.1854786,-118.3191248,156.35244992056488,2.684093,0.1,122.93179,1639070011444
Fix,GT,34.1854627,-118.3190952,156.35111413758997,3.9225936,0.1,122.81967,1639070012444
Fix,GT,34.1854395,-118.3190524,156.3285547388792,5.5112762,0.1,123.137146,1639070013444
Fix,GT,34.1854083,-118.318996,156.30987851303814,6.84006,0.1,123.69025,1639070014444
Fix,GT,34.1853716,-118.3189295,156.274323774606,7.6966457,0.1,123.93259,1639070015444
Fix,GT,34.1853318,-118.3188571,156.33510212504865,8.363021,0.1,123.52707,1639070016444
Fix,GT,34.1852916,-118.3187767,156.38679575252533,8.91765,0.1,119.91028,1639070017444
Fix,GT,34.1852593,-118.3186847,156.48023832440376,9.548195,0.1,109.85681,1639070018444
Fix,GT,34.1852437,-118.3185802,156.3844352131784,10.158649,0.1,96.062805,1639070019444
Fix,GT,34.1852464,-118.3184664,156.17564484739302,10.68148,0.1,85.92572,1639070020444
Fix,GT,34.1852614,-118.3183476,155.9616494989395,11.481823,0.1,79.40576,1639070021444
Fix,GT,34.1852869,-118.3182259,155.74775433102252,11.606873,0.1,74.3139,1639070022444
Fix,GT,34.18532,-118.3181067,155.51530907303095,11.552773,0.1,70.41031,1639070023444
Fix,GT,34.1853567,-118.3179916,155.27431370735167,10.960641,0.1,68.37067,1639070024444
Fix,GT,34.185391,-118.3178906,155.04719960871336,9.095657,0.1,67.50757,1639070025444
Fix,GT,34.1854189,-118.3178094,154.84398527729513,7.1320915,0.1,67.60242,1639070026444
Fix,GT,34.1854402,-118.3177463,154.67632106262445,5.505912,0.1,67.697754,1639070027444
Fix,GT,34.1854565,-118.317698,154.5500975061655,4.1699233,0.1,67.67581,1639070028444
Fix,GT,34.1854685,-118.3176625,154.45688316214083,2.8524797,0.1,67.75058,1639070029444
Fix,GT,34.1854755,-118.3176413,154.40221894955636,1.4395031,0.1,67.88803,1639070030444
Fix,GT,34.1854789,-118.317631,154.3761094748974,0.669464,0.1,67.81006,1639070031444
Fix,GT,34.18548,-118.3176275,154.36855013680457,0.030990167,0.1,67.765564,1639070032444
Fix,GT,34.18548,-118.3176276,154.36544526273013,0.003214587,0.1,67.77011,1639070033444
Fix,GT,34.18548,-118.3176276,154.366,0.004379104,0.1,67.76828,1639070034444
Fix,GT,34.1854799,-118.3176277,154.367,0.0014142136,0.1,67.767365,1639070035444
Fix,GT,34.1854799,-118.3176277,154.366,0.0005547372,0.1,67.767395,1639070036444
Fix,GT,34.1854799,-118.3176277,154.366,0.0014142136,0.1,67.767365,1639070037444
Fix,GT,34.1854799,-118.3176277,154.366,0.002236068,0.1,67.767334,1639070038444
Fix,GT,34.1854799,-118.3176277,154.3659953995347,0.0030722562,0.1,67.76721,1639070039444
Fix,GT,34.1854799,-118.3176277,154.366,0.0041231057,0.1,67.76721,1639070040444
Fix,GT,34.1854799,-118.3176277,154.366,0.004664481,0.1,67.76727,1639070041444
Fix,GT,34.1854799,-118.3176277,154.3659953995347,0.0041231057,0.1,67.76706,1639070042444
Fix,GT,34.1854799,-118.3176277,154.366,0.0041231057,0.1,67.767,1639070043444
Fix,GT,34.1854799,-118.3176277,154.3659953995347,0.003590099,0.1,67.76703,1639070044444
Fix,GT,34.1854799,-118.3176277,154.36644526326657,0.0031622776,0.1,67.767,1639070045444
Fix,GT,34.1854799,-118.3176277,154.3639953995943,0.003174452,0.1,67.76697,1639070046444
Fix,GT,34.1854799,-118.3176277,154.36555473661423,0.005,0.1,67.76703,1639070047444
Fix,GT,34.1854799,-118.3176277,154.3629953996241,0.006148357,0.1,67.76706,1639070048444
Fix,GT,34.18548,-118.3176277,154.36100460031628,0.007211103,0.1,67.76703,1639070049444
Fix,GT,34.18548,-118.3176277,154.35999539971354,0.006708204,0.1,67.76688,1639070050444
Fix,GT,34.18548,-118.3176277,154.36,0.00649538,0.1,67.76672,1639070051444
Fix,GT,34.1854808,-118.3176256,154.34621434521677,0.75236285,0.1,67.74054,1639070052444
Fix,GT,34.1854879,-118.3176049,154.28544248798488,3.458695,0.1,67.422,1639070053444
Fix,GT,34.1855047,-118.3175584,154.1859852515459,5.814636,0.1,66.41489,1639070054444
Fix,GT,34.1855305,-118.3174901,153.97264487048983,7.8453636,0.1,65.269226,1639070055444
Fix,GT,34.1855634,-118.3174076,153.6985280317366,9.025764,0.1,63.891907,1639070056444
Fix,GT,34.1856017,-118.3173159,153.3674157627225,9.710331,0.1,62.906647,1639070057444
Fix,GT,34.185641,-118.3172207,153.00709472155572,9.8689995,0.1,63.609344,1639070058444
Fix,GT,34.1856794,-118.3171235,152.67584909939765,9.982559,0.1,64.940735,1639070059444
Fix,GT,34.1857144,-118.317022,152.2500725900531,10.473291,0.1,68.232605,1639070060444
Fix,GT,34.1857486,-118.3169039,151.67784174725415,12.762025,0.1,71.18848,1639070061444
Fix,GT,34.1857851,-118.3167638,151.23023369824887,13.819948,0.1,72.53256,1639070062444
Fix,GT,34.1858238,-118.316623,151.42003402090074,13.3834305,0.1,70.413086,1639070063444
Fix,GT,34.1858666,-118.3164941,151.9257084721923,12.270353,0.1,66.38785,1639070064444
Fix,GT,34.1859133,-118.316379,152.47493479299544,11.350849,0.1,61.733368,1639070065444
Fix,GT,34.1859643,-118.3162788,152.9953726797104,10.27173,0.1,56.32837,1639070066444
Fix,GT,34.1860114,-118.3161923,153.4337958115339,8.843819,0.1,57.436096,1639070067444
Fix,GT,34.1860413,-118.3161105,153.92858703753353,7.735564,0.1,70.519165,1639070068444
Fix,GT,34.1860458,-118.3160285,154.34370109474656,7.625403,0.1,90.57016,1639070069444
Fix,GT,34.1860212,-118.3159448,154.69112422657014,8.770652,0.1,114.81036,1639070070444
Fix,GT,34.1859682,-118.3158645,154.77655473583934,10.110346,0.1,131.30109,1639070071444
Fix,GT,34.185897,-118.3157848,154.73354735839368,11.298101,0.1,137.15497,1639070072444
Fix,GT,34.1858212,-118.3157015,154.67087854102255,11.347624,0.1,136.47662,1639070073444
Fix,GT,34.1857485,-118.3156184,154.6238757734299,10.733349,0.1,135.26642,1639070074444
Fix,GT,34.1856832,-118.3155395,154.55776630175114,9.748835,0.1,133.633,1639070075444
Fix,GT,34.185627,-118.3154686,154.4839972269237,8.360668,0.1,132.83527,1639070076444
Fix,GT,34.1855775,-118.3154112,154.44388775396348,6.9528885,0.1,137.30835,1639070077444
Fix,GT,34.1855236,-118.3153739,154.322433288157,6.873925,0.1,153.36725,1639070078444
Fix,GT,34.1854592,-118.3153665,154.02574876150487,7.5452766,0.1,178.84045,1639070079444
Fix,GT,34.1853886,-118.315397,153.72087119340898,9.082317,0.1,203.96089,1639070080444
Fix,GT,34.1853156,-118.3154586,153.48975435444714,10.550473,0.1,217.01543,1639070081444
Fix,GT,34.1852374,-118.3155305,153.2363108587861,11.127292,0.1,215.06213,1639070082444
Fix,GT,34.1851512,-118.3155938,152.93085647153856,11.224921,0.1,208.95837,1639070083444
Fix,GT,34.1850602,-118.3156411,152.64020137247445,10.759443,0.1,200.04576,1639070084444
Fix,GT,34.1849691,-118.3156678,152.39332558527587,9.948827,0.1,189.8023,1639070085444
Fix,GT,34.1848861,-118.3156697,152.1735399900079,8.433146,0.1,177.05121,1639070086444
Fix,GT,34.1848191,-118.315657,152.03664493069053,6.668384,0.1,170.96375,1639070087444
Fix,GT,34.1847678,-118.3156469,151.88221157211066,4.6952925,0.1,171.16443,1639070088444
Fix,GT,34.1847333,-118.3156415,151.77165231356022,3.1874435,0.1,172.83728,1639070089444
Fix,GT,34.1847091,-118.3156377,151.68188767582177,2.2720194,0.1,173.03381,1639070090444
Fix,GT,34.1846921,-118.3156346,151.6267736827731,1.5959015,0.1,172.81659,1639070091444
Fix,GT,34.1846757,-118.3156341,151.56543789291382,2.1477156,0.1,178.01996,1639070092444
Fix,GT,34.184652,-118.3156414,151.4859926300645,3.1348994,0.1,191.32072,1639070093444
Fix,GT,34.1846225,-118.315644,151.37210210341215,3.2245324,0.1,183.9785,1639070094444
Fix,GT,34.1845993,-118.3156221,151.2759881223738,3.0507622,0.1,149.29913,1639070095444
Fix,GT,34.1845935,-118.3155842,151.217,3.3892221,0.1,109.0965,1639070096444
Fix,GT,34.1846089,-118.3155492,151.14788315796852,3.3110814,0.1,69.319275,1639070097444
Fix,GT,34.1846391,-118.3155333,151.12122631573675,3.5936246,0.1,29.305237,1639070098444
Fix,GT,34.184674,-118.3155418,151.2036789472103,4.0795975,0.1,351.89795,1639070099444
Fix,GT,34.1847119,-118.31556,151.3647839096785,5.158033,0.1,340.28528,1639070100444
Fix,GT,34.1847661,-118.3155762,151.5387957879305,7.142584,0.1,347.3864,1639070101444
Fix,GT,34.1848386,-118.3155847,151.80824104964734,8.881165,0.1,355.85272,1639070102444
Fix,GT,34.1849237,-118.315586,152.09702946686744,9.956709,0.1,0.12045288,1639070103444
Fix,GT,34.1850167,-118.3155782,152.45335788726806,10.46105,0.1,5.321808,1639070104444
Fix,GT,34.1851069,-118.3155565,152.76835788547993,9.845103,0.1,13.388489,1639070105444
Fix,GT,34.1851857,-118.3155215,153.06235051858425,8.8419485,0.1,22.355957,1639070106444
Fix,GT,34.1852506,-118.3154766,153.32489789003134,7.7354,0.1,31.55423,1639070107444
Fix,GT,34.1853031,-118.3154263,153.52035051608084,7.422177,0.1,39.500732,1639070108444
Fix,GT,34.1853566,-118.3153694,153.71924103868008,8.466888,0.1,41.378876,1639070109444
Fix,GT,34.1854172,-118.3153125,153.94568629980083,8.512804,0.1,35.99756,1639070110444
Fix,GT,34.1854841,-118.3152745,154.17435787296296,7.959611,0.1,21.028412,1639070111444
Fix,GT,34.1855547,-118.3152673,154.4167911711633,7.975089,0.1,0.30270386,1639070112444
Fix,GT,34.185627,-118.3152941,154.59601747789978,8.738545,0.1,337.83298,1639070113444
Fix,GT,34.1856938,-118.3153524,154.6523357869387,9.654495,0.1,320.9093,1639070114444
Fix,GT,34.1857627,-118.3154279,154.67445262253284,10.921953,0.1,317.4054,1639070115444
Fix,GT,34.185835,-118.3155095,154.71533117565514,10.978759,0.1,316.8604,1639070116444
Fix,GT,34.1859061,-118.3155905,154.75456209659575,10.714848,0.1,316.48453,1639070117444
Fix,GT,34.1859743,-118.3156691,154.7983357858658,10.171671,0.1,316.20306,1639070118444
Fix,GT,34.1860358,-118.3157407,154.82310947632791,8.720247,0.1,315.76416,1639070119444
Fix,GT,34.1860854,-118.3158001,154.89367157030105,6.8177114,0.1,314.88843,1639070120444
Fix,GT,34.1861221,-118.3158467,154.93177642899752,4.9742374,0.1,313.27115,1639070121444
Fix,GT,34.1861468,-118.3158791,154.95088590502738,3.2177696,0.1,312.5245,1639070122444
Fix,GT,34.1861618,-118.3158992,154.97189514103533,1.8401761,0.1,312.20868,1639070123444
Fix,GT,34.1861686,-118.3159083,154.9784498798549,0.5508605,0.1,312.07095,1639070124444
Fix,GT,34.1861696,-118.3159098,154.97644526100157,0.01691388,0.1,312.0512,1639070125444
Fix,GT,34.1861696,-118.3159098,154.97900461873414,0.004369951,0.1,312.05045,1639070126444
Fix,GT,34.1861695,-118.3159098,154.97900461873414,0.0042785155,0.1,312.0488,1639070127444
Fix,GT,34.1861695,-118.3159098,154.9790046187341,0.0028284271,0.1,312.0496,1639070128444
Fix,GT,34.1861695,-118.3159098,154.9789953812659,0.001,0.1,312.0495,1639070129444
Fix,GT,34.1861695,-118.3159098,154.979,0.001,0.1,312.04956,1639070130444
Fix,GT,34.1861695,-118.3159098,154.979,0.001,0.1,312.04968,1639070131444
Fix,GT,34.1861695,-118.3159098,154.97900461873414,0.001,0.1,312.04993,1639070132444
Fix,GT,34.1861695,-118.3159098,154.9790046187341,0.0014142136,0.1,312.05005,1639070133444
Fix,GT,34.1861695,-118.3159098,154.97900461873414,0.0017801526,0.1,312.05002,1639070134444
Fix,GT,34.1861695,-118.3159098,154.979,0.002236068,0.1,312.05008,1639070135444
Fix,GT,34.1861695,-118.3159098,154.979,0.002236068,0.1,312.05023,1639070136444
Fix,GT,34.1861695,-118.3159098,154.979,0.0014142136,0.1,312.0504,1639070137444
Fix,GT,34.1861695,-118.3159098,154.979,0.0014142136,0.1,312.05063,1639070138444
Fix,GT,34.1861695,-118.3159098,154.97900461873414,0.0014142136,0.1,312.05075,1639070139444
Fix,GT,34.1861695,-118.3159098,154.979,0.0014142136,0.1,312.0508,1639070140444
Fix,GT,34.1861695,-118.3159098,154.979,0.0012297811,0.1,312.05096,1639070141444
Fix,GT,34.1861695,-118.3159098,154.97900461873414,0.0017801519,0.1,312.0511,1639070142444
Fix,GT,34.1861695,-118.3159098,154.979,0.0018701297,0.1,312.0511,1639070143444
Fix,GT,34.1861695,-118.3159098,154.979,0.0018701298,0.1,312.05133,1639070144444
Fix,GT,34.1861695,-118.3159098,154.9790046187341,0.0015547411,0.1,312.0515,1639070145444
Fix,GT,34.1861695,-118.3159098,154.979,0.002,0.1,312.05164,1639070146444
Fix,GT,34.1861695,-118.3159098,154.97899538126592,0.0021309566,0.1,312.05185,1639070147444
Fix,GT,34.1861695,-118.3159098,154.9789953812659,0.0022360678,0.1,312.05185,1639070148444
Fix,GT,34.1861695,-118.3159098,154.97900461873414,0.0017801515,0.1,312.0519,1639070149444
Fix,GT,34.1861695,-118.3159098,154.979,0.0018701302,0.1,312.05197,1639070150444
Fix,GT,34.1861695,-118.3159098,154.9790046187341,0.0021051115,0.1,312.0521,1639070151444
Fix,GT,34.1861695,-118.3159098,154.97900461873414,0.0014142136,0.1,312.05215,1639070152444
Fix,GT,34.1861695,-118.3159098,154.97899538126592,0.0017801512,0.1,312.05234,1639070153444
Fix,GT,34.1861695,-118.3159098,154.9789953812659,0.0017801512,0.1,312.05252,1639070154444
Fix,GT,34.1861695,-118.3159098,154.979,0.0015547418,0.1,312.0526,1639070155444
Fix,GT,34.1861695,-118.3159098,154.9789953812659,0.001,0.1,312.05283,1639070156444
Fix,GT,34.1861695,-118.3159098,154.979,0.0014142136,0.1,312.05292,1639070157444
Fix,GT,34.1861695,-118.3159098,154.97900461873414,0.0014142136,0.1,312.05298,1639070158444
Fix,GT,34.1861695,-118.3159098,154.9789953812659,0.0018701307,0.1,312.0531,1639070159444
Fix,GT,34.1861695,-118.3159098,154.979,0.0014142136,0.1,312.05334,1639070160444
Fix,GT,34.1861695,-118.3159098,154.97900461873414,0.0014142136,0.1,312.05362,1639070161444
Fix,GT,34.1861695,-118.3159098,154.97899538126592,0.0012297817,0.1,312.05374,1639070162444
Fix,GT,34.1861695,-118.3159098,154.97900461873414,0.0012297818,0.1,312.05386,1639070163444
Fix,GT,34.1861695,-118.3159098,154.97900461873414,0.0014142136,0.1,312.05392,1639070164444
Fix,GT,34.1861695,-118.3159098,154.9789953812659,0.0014142136,0.1,312.05402,1639070165444
Fix,GT,34.1861695,-118.3159098,154.979,0.0011844318,0.1,312.0542,1639070166444
Fix,GT,34.1861696,-118.3159098,154.979,0.001,0.1,312.05444,1639070167444
Fix,GT,34.1861696,-118.3159098,154.97900461873414,0.001,0.1,312.0546,1639070168444
Fix,GT,34.1861696,-118.3159098,154.9789953812659,0.001,0.1,312.05475,1639070169444
Fix,GT,34.1861696,-118.3159098,154.9789953812659,0.0011844318,0.1,312.05484,1639070170444
Fix,GT,34.1861696,-118.3159098,154.9789953812659,0.001,0.1,312.05496,1639070171444
Fix,GT,34.1861696,-118.3159098,154.979,0.001,0.1,312.055,1639070172444
Fix,GT,34.1861696,-118.3159098,154.979,0.001,0.1,312.05524,1639070173444
Fix,GT,34.1861696,-118.3159098,154.97900461873414,0.0011844318,0.1,312.05545,1639070174444
Fix,GT,34.1861696,-118.3159098,154.97900461873414,0.0017801506,0.1,312.05566,1639070175444
Fix,GT,34.1861696,-118.3159098,154.9789953812659,0.0022360678,0.1,312.0558,1639070176444
Fix,GT,34.1861696,-118.3159098,154.9790046187341,0.002749876,0.1,312.05597,1639070177444
Fix,GT,34.1861696,-118.3159098,154.9789953812659,0.0038889116,0.1,312.05603,1639070178444
Fix,GT,34.1861696,-118.3159098,154.9790046187341,0.0041763294,0.1,312.0562,1639070179444
Fix,GT,34.1861696,-118.3159098,154.9790046187341,0.004472136,0.1,312.05615,1639070180444
Fix,GT,34.1861696,-118.3159098,154.9789953812659,0.005,0.1,312.0562,1639070181444
Fix,GT,34.1861696,-118.3159098,154.979,0.0064031244,0.1,312.05637,1639070182444
Fix,GT,34.1861696,-118.3159098,154.979,0.006773661,0.1,312.05652,1639070183444
Fix,GT,34.1861696,-118.3159098,154.979,0.0059891366,0.1,312.05667,1639070184444
Fix,GT,34.1861696,-118.3159099,154.9789953812659,0.0048786686,0.1,312.05707,1639070185444
Fix,GT,34.1861696,-118.3159098,154.979,0.004,0.1,312.05707,1639070186444
Fix,GT,34.1861696,-118.3159098,154.979,0.0048786686,0.1,312.05707,1639070187444
Fix,GT,34.1861696,-118.3159098,154.9789953812659,0.009763097,0.1,312.0572,1639070188444
Fix,GT,34.1861696,-118.3159098,154.979,0.019631319,0.1,312.05734,1639070189444
Fix,GT,34.1861695,-118.3159098,154.978,0.032825004,0.1,312.0575,1639070190444
Fix,GT,34.1861694,-118.3159099,154.9779953812957,0.050306417,0.1,312.0576,1639070191444
Fix,GT,34.1861693,-118.3159106,154.96944525706766,0.3186016,0.1,312.04834,1639070192444
Fix,GT,34.1861759,-118.3159208,154.96177640998366,2.3387823,0.1,311.92624,1639070193444
Fix,GT,34.1861946,-118.3159499,154.97133577084543,4.377634,0.1,309.22104,1639070194444
Fix,GT,34.1862174,-118.3160013,154.93854743111137,6.4667253,0.1,297.2908,1639070195444
Fix,GT,34.1862302,-118.3160788,154.865097558409,7.9440694,0.1,277.4615,1639070196444
Fix,GT,34.1862188,-118.3161692,154.69208023822307,9.035505,0.1,256.65692,1639070197444
Fix,GT,34.1861833,-118.316265,154.27428730481864,10.331194,0.1,243.74988,1639070198444
Fix,GT,34.1861356,-118.31637,153.5370217618942,11.729274,0.1,240.64278,1639070199444
Fix,GT,34.1860814,-118.3164878,152.83261305713654,12.995546,0.1,241.52509,1639070200444
Fix,GT,34.186028,-118.3166179,152.14283203446865,13.580702,0.1,244.85428,1639070201444
Fix,GT,34.18598,-118.3167544,151.60108025181293,13.730421,0.1,247.87851,1639070202444
Fix,GT,34.1859394,-118.3168945,151.2933138461113,13.505016,0.1,251.94325,1639070203444
Fix,GT,34.1859114,-118.3170324,151.42840153360368,12.630829,0.1,258.43842,1639070204444
Fix,GT,34.1858943,-118.3171633,152.1365985803604,11.857124,0.1,261.51346,1639070205444
Fix,GT,34.1858803,-118.3172898,152.5869270401597,11.780785,0.1,261.93854,1639070206444
Fix,GT,34.1858644,-118.3174165,152.98325550311804,11.80573,0.1,260.56384,1639070207444
Fix,GT,34.1858509,-118.3175436,153.36758396190407,11.828735,0.1,264.5027,1639070208444
Fix,GT,34.1858558,-118.317673,153.62413139986992,12.123906,0.1,276.59253,1639070209444
Fix,GT,34.1858843,-118.3178041,153.93057393765451,12.971441,0.1,288.1983,1639070210444
Fix,GT,34.1859356,-118.3179379,154.05465964123607,14.392135,0.1,296.51663,1639070211444
Fix,GT,34.1860011,-118.3180856,153.9667737212181,16.45103,0.1,297.91006,1639070212444
Fix,GT,34.1860746,-118.3182506,153.68863960978388,17.959183,0.1,297.5732,1639070213444
Fix,GT,34.1861518,-118.3184308,153.15294433158635,19.446598,0.1,296.70496,1639070214444
Fix,GT,34.1862328,-118.3186258,152.34292424225808,20.691612,0.1,296.0584,1639070215444
Fix,GT,34.186317,-118.3188318,151.1999096225202,21.701195,0.1,295.87,1639070216444
Fix,GT,34.1864054,-118.3190505,150.103814709723,23.112438,0.1,295.45593,1639070217444
Fix,GT,34.186497,-118.3192817,149.17593147987128,23.984573,0.1,295.23178,1639070218444
Fix,GT,34.186591,-118.3195202,148.49262046265602,24.67072,0.1,295.09076,1639070219444
Fix,GT,34.1866881,-118.3197641,148.08509048861265,25.20792,0.1,295.84558,1639070220444
Fix,GT,34.186792,-118.3200111,147.94533288091424,25.795961,0.1,297.47137,1639070221444
Fix,GT,34.1869044,-118.3202562,148.0472335639,25.682783,0.1,299.7166,1639070222444
Fix,GT,34.1870226,-118.3204943,148.03700728946922,25.42591,0.1,301.3767,1639070223444
Fix,GT,34.1871449,-118.3207263,147.9983401733637,25.323994,0.1,302.83942,1639070224444
Fix,GT,34.1872735,-118.3209555,148.06844525408746,25.732212,0.1,304.8809,1639070225444
Fix,GT,34.1874115,-118.3211825,148.3835108253956,26.05438,0.1,307.02008,1639070226444
Fix,GT,34.1875569,-118.3214063,148.9319240808785,26.260153,0.1,308.4143,1639070227444
Fix,GT,34.1877065,-118.321627,149.28047883310916,26.23912,0.1,309.44357,1639070228444
Fix,GT,34.1878576,-118.3218465,149.65625539314746,26.319649,0.1,309.16708,1639070229444
Fix,GT,34.1880077,-118.3220689,150.07303640174865,26.486523,0.1,308.68768,1639070230444
Fix,GT,34.1881577,-118.3222909,150.42169335734846,26.22477,0.1,309.28052,1639070231444
Fix,GT,34.1883096,-118.3225074,150.7218000585437,25.975866,0.1,310.49496,1639070232444
Fix,GT,34.1884621,-118.3227187,150.99023631635308,25.591957,0.1,310.96585,1639070233444
Fix,GT,34.1886133,-118.3229266,151.2470218233466,25.44334,0.1,311.11792,1639070234444
Fix,GT,34.188765,-118.3231348,151.45969057515265,25.561085,0.1,310.91367,1639070235444
Fix,GT,34.1889161,-118.3233424,151.65011951890588,25.303669,0.1,311.16025,1639070236444
Fix,GT,34.1890664,-118.3235476,151.84512678173184,25.16875,0.1,311.182,1639070237444
Fix,GT,34.1892163,-118.3237531,152.09935756361483,25.270287,0.1,311.09848,1639070238444
Fix,GT,34.1893668,-118.3239595,152.46060108307003,25.35123,0.1,311.00955,1639070239444
Fix,GT,34.1895175,-118.3241665,152.87513856399062,25.376291,0.1,311.05573,1639070240444
Fix,GT,34.189668,-118.3243731,153.37126527869702,25.186096,0.1,310.99973,1639070241444
Fix,GT,34.189816,-118.3245773,153.91960559451582,24.743149,0.1,310.7806,1639070242444
Fix,GT,34.1899609,-118.3247787,154.55539384645223,24.448627,0.1,310.76392,1639070243444
Fix,GT,34.1901063,-118.3249781,155.2168318241835,24.461824,0.1,311.27032,1639070244444
Fix,GT,34.1902538,-118.3251759,155.99484632891415,24.45315,0.1,312.00296,1639070245444
Fix,GT,34.1904017,-118.3253693,156.77516754829884,23.96645,0.1,312.8072,1639070246444
Fix,GT,34.1905491,-118.325557,157.51594853782655,23.701952,0.1,313.4053,1639070247444
Fix,GT,34.1906964,-118.3257404,158.17882706105712,23.346294,0.1,314.11548,1639070248444
Fix,GT,34.1908432,-118.3259199,158.79526975905895,23.035084,0.1,314.55112,1639070249444
Fix,GT,34.1909888,-118.3260967,159.37616024845838,22.815079,0.1,314.3831,1639070250444
Fix,GT,34.1911316,-118.3262716,159.9208172399998,22.388973,0.1,314.2162,1639070251444
Fix,GT,34.1912714,-118.3264433,160.43659822654723,21.920536,0.1,314.30786,1639070252444
Fix,GT,34.1914086,-118.3266096,160.95937676507234,21.20755,0.1,315.03073,1639070253444
Fix,GT,34.1915421,-118.3267682,161.42461269319057,20.452501,0.1,315.09607,1639070254444
Fix,GT,34.1916715,-118.3269234,162.0322672778368,20.183064,0.1,314.96188,1639070255444
Fix,GT,34.1918009,-118.3270781,162.34801447916033,20.22123,0.1,314.99316,1639070256444
Fix,GT,34.1919294,-118.3272318,162.62903379705548,19.964436,0.1,314.92242,1639070257444
Fix,GT,34.1920556,-118.3273852,163.00691220605376,19.915226,0.1,314.43524,1639070258444
Fix,GT,34.192182,-118.3275389,163.30758368861677,19.873558,0.1,314.5912,1639070259444
Fix,GT,34.1923076,-118.3276911,163.5721312016845,19.811222,0.1,314.54767,1639070260444
Fix,GT,34.1924335,-118.3278449,163.8185740965605,19.873814,0.1,314.21118,1639070261444
Fix,GT,34.1925581,-118.3279975,164.03212162220478,19.57851,0.1,314.4345,1639070262444
Fix,GT,34.1926804,-118.3281481,164.20356920701266,19.242376,0.1,313.85178,1639070263444
Fix,GT,34.1927993,-118.3282983,164.3423429675102,19.036203,0.1,313.27002,1639070264444
Fix,GT,34.1929165,-118.3284485,164.42322623527048,19.05592,0.1,312.89627,1639070265444
Fix,GT,34.193033,-118.3286003,164.43645014742015,19.01715,0.1,312.53067,1639070266444
Fix,GT,34.1931491,-118.3287537,164.40044524663688,19.210533,0.1,312.05234,1639070267444
Fix,GT,34.1932647,-118.3289085,164.35244524639847,19.224522,0.1,311.57874,1639070268444
Fix,GT,34.1933805,-118.3290669,164.2645475383997,19.686401,0.1,310.92798,1639070269444
Fix,GT,34.1934977,-118.3292306,164.1628832785487,20.18558,0.1,310.39206,1639070270444
Fix,GT,34.1936168,-118.3294,164.0110901975632,20.693459,0.1,309.9624,1639070271444
Fix,GT,34.1937368,-118.3295734,163.83776656377316,20.816402,0.1,309.56824,1639070272444
Fix,GT,34.1938556,-118.3297473,163.68043083149195,20.65601,0.1,309.0521,1639070273444
Fix,GT,34.1939713,-118.3299215,163.55599279528855,20.521084,0.1,308.19504,1639070274444
Fix,GT,34.1940857,-118.3300987,163.55899512556195,20.917946,0.1,307.42477,1639070275444
Fix,GT,34.194201,-118.3302819,163.59189048910142,21.437977,0.1,306.66803,1639070276444
Fix,GT,34.1943168,-118.3304711,163.66111671018598,21.868114,0.1,306.08298,1639070277444
Fix,GT,34.1944331,-118.3306628,163.75434292888642,21.836575,0.1,305.84656,1639070278444
Fix,GT,34.1945476,-118.3308539,163.914019274354,21.564682,0.1,305.4821,1639070279444
Fix,GT,34.1946591,-118.3310448,164.10712620171904,21.580673,0.1,304.62598,1639070280444
Fix,GT,34.1947685,-118.331238,164.31879045906663,21.575977,0.1,303.76935,1639070281444
Fix,GT,34.1948775,-118.3314352,164.47179306396845,22.165157,0.1,303.45685,1639070282444
Fix,GT,34.1949892,-118.3316388,164.59555703949928,22.752821,0.1,303.1858,1639070283444
Fix,GT,34.1951017,-118.3318456,164.6652213075161,22.744162,0.1,302.8889,1639070284444
Fix,GT,34.1952128,-118.3320522,164.72977606213095,22.676903,0.1,302.6166,1639070285444
Fix,GT,34.195323,-118.3322595,164.82357403734326,22.685753,0.1,302.171,1639070286444
Fix,GT,34.1954317,-118.3324672,165.0352454968691,22.52597,0.1,302.06744,1639070287444
Fix,GT,34.1955397,-118.3326732,165.283685816288,22.486057,0.1,302.04684,1639070288444
Fix,GT,34.1956484,-118.3328818,165.5035691178441,22.88181,0.1,301.73206,1639070289444
Fix,GT,34.195758,-118.3330939,165.7600143579245,23.201458,0.1,301.78604,1639070290444
Fix,GT,34.1958704,-118.3333082,165.97356911480426,23.390724,0.1,302.541,1639070291444
Fix,GT,34.1959855,-118.3335193,166.1544595966339,23.132914,0.1,303.53052,1639070292444
Fix,GT,34.1961025,-118.3337264,166.3897953197956,23.145325,0.1,304.34775,1639070293444
Fix,GT,34.1962234,-118.3339325,166.62180745860934,23.220253,0.1,305.8915,1639070294444
Fix,GT,34.1963477,-118.3341331,166.90202869868278,22.929382,0.1,306.9398,1639070295444
Fix,GT,34.1964732,-118.3343301,167.26625490438937,22.889652,0.1,307.68045,1639070296444
Fix,GT,34.1966012,-118.3345256,167.70071231272817,22.982082,0.1,308.37567,1639070297444
Fix,GT,34.1967322,-118.3347203,168.24160496628286,23.264275,0.1,309.18567,1639070298444
