MessageType,Provider,LatitudeDegrees,LongitudeDegrees,AltitudeMeters,SpeedMps,AccuracyMeters,BearingDegrees,UnixTimeMillis
Fix,GT,37.3949736,-122.1016852,-5.384,0.0,0.1,30.597198,1615936308999
Fix,GT,37.3949736,-122.1016852,-5.384,0.0,0.1,30.597137,1615936309999
Fix,GT,37.3949736,-122.1016852,-5.384,3.2916666e-06,0.1,30.596893,1615936310999
Fix,GT,37.3949736,-122.1016852,-5.384,3.2958985e-06,0.1,30.597168,1615936311999
Fix,GT,37.3949736,-122.1016852,-5.384,3.3001306e-06,0.1,30.596924,1615936312999
Fix,GT,37.3949736,-122.1016852,-5.384,4.6732425e-06,0.1,30.597046,1615936313999
Fix,GT,37.3949736,-122.1016852,-5.384,0.0,0.1,30.597046,1615936314999
Fix,GT,37.3949736,-122.1016852,-5.384,0.0,0.1,30.597015,1615936315999
Fix,GT,37.3949736,-122.1016852,-5.384,0.001,0.1,30.596985,1615936316999
Fix,GT,37.3949736,-122.1016852,-5.384,0.0,0.1,30.596863,1615936317999
Fix,GT,37.3949736,-122.1016852,-5.384,3.3258202e-06,0.1,30.596924,1615936318999
Fix,GT,37.3949736,-122.1016852,-5.384,0.0,0.1,30.596558,1615936319999
Fix,GT,37.3949736,-122.1016852,-5.384,0.001,0.1,30.596222,1615936320999
Fix,GT,37.3949736,-122.1016852,-5.384,0.001001383,0.1,30.595917,1615936321999
Fix,GT,37.3949736,-122.1016852,-5.384,0.001003343,0.1,30.59674,1615936322999
Fix,GT,37.3949736,-122.1016852,-5.384,0.001412827,0.1,30.596619,1615936323999
Fix,GT,37.3949736,-122.1016852,-5.384,0.001,0.1,30.596619,1615936324999
Fix,GT,37.3949736,-122.1016852,-5.384,0.0014142136,0.1,30.59616,1615936325999
Fix,GT,37.3949736,-122.1016852,-5.384,3.3600927e-06,0.1,30.596283,1615936326999
Fix,GT,37.3949736,-122.1016852,-5.384,7.522992e-06,0.1,30.596558,1615936327999
Fix,GT,37.3949736,-122.1016852,-5.384,0.0009966315,0.1,30.596252,1615936328999
Fix,GT,37.3949736,-122.1016852,-5.384,0.001,0.1,30.596039,1615936329999
Fix,GT,37.3949736,-122.1016852,-5.384,3.3771994e-06,0.1,30.59616,1615936330999
Fix,GT,37.3949736,-122.1016852,-5.384,0.0019966187,0.1,30.596191,1615936331999
Fix,GT,37.3949736,-122.1016852,-5.384,0.001,0.1,30.595947,1615936332999
Fix,GT,37.3949736,-122.1016852,-5.384,0.0010014042,0.1,30.596436,1615936333999
Fix,GT,37.3949736,-122.1016852,-5.385,0.0022332785,0.1,30.596436,1615936334999
Fix,GT,37.3949736,-122.1016852,-5.385,0.002236068,0.1,30.596588,1615936335999
Fix,GT,37.3949736,-122.1016852,-5.386,0.001,0.1,30.597137,1615936336999
Fix,GT,37.3949736,-122.1016852,-5.386,0.0028236087,0.1,30.5896,1615936337999
Fix,GT,37.3949742,-122.1016849,-5.39,0.27716026,0.1,30.200714,1615936338999
Fix,GT,37.3949793,-122.1016832,-5.391,0.8002289,0.1,26.38858,1615936339999
Fix,GT,37.3949887,-122.1016812,-5.398996580004693,1.2480271,0.1,19.26947,1615936340999
Fix,GT,37.3950025,-122.1016792,-5.415993151545526,1.6985917,0.1,12.442627,1615936341999
Fix,GT,37.39502,-122.1016765,-5.4300034285783765,2.270824,0.1,9.036438,1615936342999
Fix,GT,37.3950437,-122.1016721,-5.4549897015690805,3.04201,0.1,8.791687,1615936343999
Fix,GT,37.3950731,-122.1016628,-5.505989688694478,3.7000296,0.1,14.148193,1615936344999
Fix,GT,37.3951067,-122.1016451,-5.551996558666229,4.4211993,0.1,22.741516,1615936345999
Fix,GT,37.3951442,-122.1016202,-5.58399310863018,4.9665084,0.1,27.756622,1615936346999
Fix,GT,37.395183,-122.1015929,-5.622989650249481,4.899306,0.1,29.402985,1615936347999
Fix,GT,37.3952204,-122.1015651,-5.644993091702461,4.762149,0.1,30.694794,1615936348999
Fix,GT,37.3952561,-122.1015373,-5.648006916999816,4.551501,0.1,32.01474,1615936349999
Fix,GT,37.3952887,-122.1015108,-5.612013851165772,4.0822,0.1,32.74402,1615936350999
Fix,GT,37.3953171,-122.1014883,-5.677003467023372,3.3280714,0.1,32.07669,1615936351999
Fix,GT,37.3953387,-122.1014718,-5.7099930574893945,2.2415192,0.1,31.566284,1615936352999
Fix,GT,37.3953523,-122.1014614,-5.749010426819324,1.3342228,0.1,31.31009,1615936353999
Fix,GT,37.3953614,-122.1014547,-5.754996520161629,1.1101983,0.1,31.230103,1615936354999
Fix,GT,37.3953711,-122.1014469,-5.771986063241958,1.6297975,0.1,31.832245,1615936355999
Fix,GT,37.3953844,-122.1014317,-5.911930231571198,2.3697777,0.1,39.06723,1615936356999
Fix,GT,37.3953981,-122.1014062,-5.951111766815186,3.0833564,0.1,52.276825,1615936357999
Fix,GT,37.3954092,-122.1013696,-5.8440244786143305,4.0595665,0.1,68.17514,1615936358999
Fix,GT,37.3954123,-122.1013176,-5.750045516848564,5.3875203,0.1,86.91992,1615936359999
Fix,GT,37.3954013,-122.1012495,-5.6950245386958125,7.072192,0.1,103.73013,1615936360999
Fix,GT,37.3953736,-122.1011676,-5.679992980360985,8.736263,0.1,114.61606,1615936361999
Fix,GT,37.3953344,-122.101074,-5.684017570257187,10.090016,0.1,117.85339,1615936362999
Fix,GT,37.3952883,-122.1009668,-5.6999964816570285,11.384999,0.1,118.391754,1615936363999
Fix,GT,37.395238,-122.1008503,-5.697,11.934977,0.1,118.41315,1615936364999
Fix,GT,37.3951857,-122.10073,-5.733957677602768,12.36267,0.1,118.42035,1615936365999
Fix,GT,37.3951319,-122.1006057,-5.800010593652725,12.604873,0.1,118.38681,1615936366999
Fix,GT,37.3950774,-122.1004802,-5.802021212697029,12.785538,0.1,118.497894,1615936367999
Fix,GT,37.3950215,-122.1003514,-5.799010619223118,13.16223,0.1,118.40808,1615936368999
Fix,GT,37.3949642,-122.1002191,-5.794024807810783,13.484533,0.1,118.3537,1615936369999
Fix,GT,37.3949056,-122.1000839,-5.767,13.7973,0.1,118.50595,1615936370999
Fix,GT,37.3948451,-122.0999457,-5.732017762780189,14.09672,0.1,118.74356,1615936371999
Fix,GT,37.3947832,-122.0998047,-5.733989329278469,14.397051,0.1,118.66055,1615936372999
Fix,GT,37.3947206,-122.0996612,-5.746982194304467,14.585226,0.1,118.565796,1615936373999
Fix,GT,37.3946568,-122.0995157,-5.750028523445129,14.799748,0.1,118.77734,1615936374999
Fix,GT,37.3945924,-122.0993679,-5.7520071393251415,15.013774,0.1,118.447266,1615936375999
Fix,GT,37.3945275,-122.0992183,-5.73801072204113,15.127473,0.1,118.40643,1615936376999
Fix,GT,37.3944623,-122.099068,-5.733014312982559,15.1161585,0.1,118.556335,1615936377999
Fix,GT,37.3943973,-122.0989196,-5.70397492223978,14.844719,0.1,118.819885,1615936378999
Fix,GT,37.3943335,-122.0987743,-5.696974892199039,14.515093,0.1,118.74429,1615936379999
Fix,GT,37.3942712,-122.0986317,-5.683025137841701,14.325493,0.1,118.450134,1615936380999
Fix,GT,37.3942098,-122.0984901,-5.624046739578247,14.202821,0.1,118.24454,1615936381999
Fix,GT,37.3941499,-122.0983499,-5.577014398336411,13.915509,0.1,118.05423,1615936382999
Fix,GT,37.3940915,-122.0982129,-5.525021623611451,13.634746,0.1,118.06012,1615936383999
Fix,GT,37.3940325,-122.0980782,-5.4650396898388856,13.598827,0.1,119.20462,1615936384999
Fix,GT,37.3939717,-122.097946,-5.393014449834824,13.422056,0.1,120.31943,1615936385999
Fix,GT,37.3939095,-122.0978179,-5.379010850071907,13.123386,0.1,121.81616,1615936386999
Fix,GT,37.3938471,-122.0976942,-5.35700724208355,12.803229,0.1,122.36536,1615936387999
Fix,GT,37.3937852,-122.0975744,-5.351,12.481167,0.1,123.39322,1615936388999
Fix,GT,37.3937224,-122.0974597,-5.329007259249687,12.1480465,0.1,124.85028,1615936389999
Fix,GT,37.3936593,-122.09735,-5.25303270471096,11.845955,0.1,126.347046,1615936390999
Fix,GT,37.3935955,-122.0972449,-5.237018190741539,11.57013,0.1,127.52725,1615936391999
Fix,GT,37.3935324,-122.0971439,-5.223018211901188,11.10298,0.1,128.32535,1615936392999
Fix,GT,37.3934713,-122.0970495,-5.183003646731377,10.418108,0.1,129.25577,1615936393999
Fix,GT,37.3934135,-122.0969629,-5.141025556743146,9.494802,0.1,130.1424,1615936394999
Fix,GT,37.3933613,-122.0968871,-5.073021931529046,8.200953,0.1,131.022,1615936395999
Fix,GT,37.3933166,-122.0968247,-5.026010978639126,6.57798,0.1,132.01654,1615936396999
Fix,GT,37.3932823,-122.0967781,-4.983018319189548,4.588813,0.1,132.79688,1615936397999
Fix,GT,37.3932604,-122.096749,-4.951007336139679,2.5694084,0.1,133.26471,1615936398999
Fix,GT,37.3932486,-122.0967335,-4.932007344841957,1.2397407,0.1,133.46228,1615936399999
Fix,GT,37.3932446,-122.0967282,-4.926,0.102239594,0.1,133.49243,1615936400999
Fix,GT,37.3932446,-122.0967282,-4.929003680944443,0.009979652,0.1,133.50067,1615936401999
Fix,GT,37.3932446,-122.0967282,-4.929,0.002235198,0.1,133.50128,1615936402999
Fix,GT,37.3932446,-122.0967282,-4.929,0.0009963105,0.1,133.5021,1615936403999
Fix,GT,37.3932446,-122.0967282,-4.929,0.0010015301,0.1,133.50189,1615936404999
Fix,GT,37.3932446,-122.0967282,-4.929,0.0031558133,0.1,133.50201,1615936405999
Fix,GT,37.3932446,-122.0967282,-4.929,0.001,0.1,133.50195,1615936406999
Fix,GT,37.3932446,-122.0967282,-4.929,3.7065747e-06,0.1,133.50244,1615936407999
Fix,GT,37.3932446,-122.0967282,-4.929,0.0010045869,0.1,133.50226,1615936408999
Fix,GT,37.3932446,-122.0967282,-4.929,0.0014142136,0.1,133.50195,1615936409999
Fix,GT,37.3932446,-122.0967282,-4.929,0.0014126729,0.1,133.50214,1615936410999
Fix,GT,37.3932446,-122.0967282,-4.929,0.0009962763,0.1,133.50177,1615936411999
Fix,GT,37.3932446,-122.0967282,-4.929,0.0009962721,0.1,133.50183,1615936412999
Fix,GT,37.3932446,-122.0967282,-4.929,0.0,0.1,133.50183,1615936413999
Fix,GT,37.3932446,-122.0967282,-4.929,0.0009962635,0.1,133.50177,1615936414999
Fix,GT,37.3932446,-122.0967282,-4.929,0.0014142136,0.1,133.50146,1615936415999
Fix,GT,37.3932446,-122.0967282,-4.929,0.000996255,0.1,133.50226,1615936416999
Fix,GT,37.3932446,-122.0967282,-4.929,0.002,0.1,133.50183,1615936417999
Fix,GT,37.3932446,-122.0967282,-4.929,0.0009962464,0.1,133.50134,1615936418999
Fix,GT,37.3932446,-122.0967282,-4.929,0.001,0.1,133.50104,1615936419999
Fix,GT,37.3932446,-122.0967282,-4.929,0.001,0.1,133.50116,1615936420999
Fix,GT,37.3932446,-122.0967282,-4.928,0.0010015602,0.1,133.50107,1615936421999
Fix,GT,37.3932446,-122.0967282,-4.928,0.001,0.1,133.50183,1615936422999
Fix,GT,37.3932446,-122.0967282,-4.929,0.001,0.1,133.50192,1615936423999
Fix,GT,37.3932446,-122.0967282,-4.929996220588684,0.0014126481,0.1,133.50201,1615936424999
Fix,GT,37.3932442,-122.0967277,-4.941996216297151,0.37167117,0.1,133.50668,1615936425999
Fix,GT,37.3932377,-122.0967192,-4.935,1.7840132,0.1,133.54846,1615936426999
Fix,GT,37.3932207,-122.0966968,-4.916,3.7193034,0.1,133.56451,1615936427999
Fix,GT,37.393192,-122.0966591,-4.869018982887268,5.4545135,0.1,133.52783,1615936428999
Fix,GT,37.3931516,-122.0966064,-4.819015203237534,7.444339,0.1,133.83539,1615936429999
Fix,GT,37.3930988,-122.0965396,-4.752038051009178,9.094345,0.1,135.15121,1615936430999
Fix,GT,37.3930357,-122.0964638,-4.669038093328475,10.41361,0.1,136.53299,1615936431999
Fix,GT,37.3929623,-122.096379,-4.59604576420784,11.704252,0.1,137.33337,1615936432999
Fix,GT,37.3928806,-122.096286,-4.482030543327332,12.735045,0.1,137.95807,1615936433999
Fix,GT,37.3927918,-122.0961885,-4.334057334005832,13.430724,0.1,139.20544,1615936434999
Fix,GT,37.3926977,-122.0960899,-4.200099490523339,13.762038,0.1,140.47272,1615936435999
Fix,GT,37.3926002,-122.0959918,-4.066049800276756,13.918084,0.1,141.74695,1615936436999
Fix,GT,37.3925018,-122.0958975,-3.932069032549858,13.599135,0.1,142.91113,1615936437999
Fix,GT,37.3924041,-122.0958064,-3.805046072483063,13.470314,0.1,143.40338,1615936438999
Fix,GT,37.3923063,-122.0957155,-3.704011530995369,13.524683,0.1,143.25998,1615936439999
Fix,GT,37.3922081,-122.0956247,-3.587019239485264,13.597565,0.1,143.58597,1615936440999
Fix,GT,37.3921084,-122.0955336,-3.5150308179855347,13.803008,0.1,144.25916,1615936441999
Fix,GT,37.3920059,-122.0954436,-3.4310347083210946,13.967824,0.1,145.2139,1615936442999
Fix,GT,37.3919022,-122.0953544,-3.3320347469449043,13.930646,0.1,145.50195,1615936443999
Fix,GT,37.391799,-122.0952652,-3.229092762947083,13.939004,0.1,145.16028,1615936444999
Fix,GT,37.3916971,-122.0951729,-3.09299226129055,13.978924,0.1,143.21948,1615936445999
Fix,GT,37.3915969,-122.0950759,-2.961,14.08873,0.1,141.6969,1615936446999
Fix,GT,37.3914981,-122.0949749,-2.845038779973984,14.226735,0.1,140.23358,1615936447999
Fix,GT,37.3913999,-122.0948699,-2.746046586751938,14.427979,0.1,138.93488,1615936448999
Fix,GT,37.3913025,-122.0947615,-2.648054412126541,14.378956,0.1,137.80884,1615936449999
Fix,GT,37.3912084,-122.0946504,-2.5620505813360213,14.321517,0.1,135.56158,1615936450999
Fix,GT,37.3911182,-122.0945346,-2.4620350570082667,14.345131,0.1,133.42166,1615936451999
Fix,GT,37.3910311,-122.0944142,-2.3680428946614267,14.379752,0.1,131.60938,1615936452999
Fix,GT,37.3909462,-122.0942916,-2.273042941212654,14.369805,0.1,130.29141,1615936453999
Fix,GT,37.3908633,-122.094167,-2.185023448586464,14.389583,0.1,129.38037,1615936454999
Fix,GT,37.3907815,-122.0940403,-2.1070234743356706,14.454016,0.1,128.49243,1615936455999
Fix,GT,37.3907005,-122.0939122,-2.0020313329696653,14.51321,0.1,128.26306,1615936456999
Fix,GT,37.3906205,-122.093782,-1.9050352887511253,14.58012,0.1,127.099304,1615936457999
Fix,GT,37.3905424,-122.0936491,-1.8180431779026984,14.649921,0.1,125.67206,1615936458999
Fix,GT,37.390467,-122.0935124,-1.7569882115125657,14.785797,0.1,124.04419,1615936459999
Fix,GT,37.3903938,-122.0933722,-1.7040354046225548,14.87343,0.1,122.648254,1615936460999
Fix,GT,37.3903216,-122.0932298,-1.622003938138485,15.019517,0.1,122.263885,1615936461999
Fix,GT,37.3902492,-122.0930855,-1.548031538963318,15.178802,0.1,121.90997,1615936462999
Fix,GT,37.3901766,-122.092939,-1.535078934431076,15.356234,0.1,121.55084,1615936463999
Fix,GT,37.3901036,-122.0927908,-1.4350987753272058,15.465477,0.1,121.58185,1615936464999
Fix,GT,37.39003,-122.0926425,-1.3230316429138185,15.480419,0.1,121.83093,1615936465999
Fix,GT,37.3899562,-122.0924941,-1.266027717590332,15.502558,0.1,121.89255,1615936466999
Fix,GT,37.389882,-122.0923457,-1.1880634231567382,15.512591,0.1,121.99484,1615936467999
Fix,GT,37.3898078,-122.092197,-1.0830793647766117,15.563059,0.1,121.89694,1615936468999
Fix,GT,37.3897335,-122.0920475,-1.028996027469635,15.646632,0.1,121.747986,1615936469999
Fix,GT,37.3896588,-122.0918971,-0.9590516986846924,15.70873,0.1,121.81711,1615936470999
Fix,GT,37.389584,-122.0917461,-0.901,15.7639885,0.1,121.67407,1615936471999
Fix,GT,37.3895093,-122.0915953,-0.8110199273228645,15.611542,0.1,121.82825,1615936472999
Fix,GT,37.3894357,-122.0914468,-0.7680199487805367,15.353784,0.1,121.64557,1615936473999
Fix,GT,37.3893636,-122.0913003,-0.7669840235710145,15.171563,0.1,121.59708,1615936474999
Fix,GT,37.3892918,-122.0911554,-0.7690119951963424,15.029395,0.1,121.78308,1615936475999
Fix,GT,37.3892207,-122.0910119,-0.7820120078921319,14.900409,0.1,121.851685,1615936476999
Fix,GT,37.38915,-122.0908691,-0.8009959930181504,14.854095,0.1,121.56174,1615936477999
Fix,GT,37.3890803,-122.0907262,-0.7969438421726228,14.791893,0.1,121.40021,1615936478999
Fix,GT,37.3890105,-122.0905841,-0.764,14.756731,0.1,121.71365,1615936479999
Fix,GT,37.3889405,-122.0904427,-0.7749718610048294,14.728959,0.1,121.798584,1615936480999
Fix,GT,37.3888708,-122.0903021,-0.7720040241479874,14.542347,0.1,121.707245,1615936481999
Fix,GT,37.3888022,-122.0901642,-0.756028199493885,14.221062,0.1,121.987305,1615936482999
Fix,GT,37.3887347,-122.09003,-0.7120080655813217,13.89329,0.1,122.34625,1615936483999
Fix,GT,37.3886678,-122.0898996,-0.7140080742835998,13.577545,0.1,122.73602,1615936484999
Fix,GT,37.3886014,-122.089773,-0.7120080828666686,13.266984,0.1,123.56021,1615936485999
Fix,GT,37.3885352,-122.0896503,-0.7100121373534203,12.965196,0.1,124.24896,1615936486999
Fix,GT,37.3884698,-122.089531,-0.7270081000328064,12.668068,0.1,124.37958,1615936487999
Fix,GT,37.3884067,-122.0894137,-0.7080405442714691,12.374636,0.1,123.514404,1615936488999
Fix,GT,37.3883468,-122.0892982,-0.6950284106135368,12.062129,0.1,122.66687,1615936489999
Fix,GT,37.388289,-122.0891841,-0.7059715593457222,11.821131,0.1,122.01218,1615936490999
Fix,GT,37.3882333,-122.0890718,-0.6940081346035003,11.62322,0.1,121.70035,1615936491999
Fix,GT,37.3881787,-122.088962,-0.6830040715932846,11.246874,0.1,121.809204,1615936492999
Fix,GT,37.3881271,-122.0888578,-0.6729918483495713,10.403907,0.1,121.860016,1615936493999
Fix,GT,37.3880806,-122.0887643,-0.6720612026453019,8.969371,0.1,121.68317,1615936494999
Fix,GT,37.3880427,-122.0886872,-0.6589959155321121,7.0467186,0.1,121.67749,1615936495999
Fix,GT,37.3880137,-122.0886289,-0.6540204440951348,5.0958753,0.1,121.72302,1615936496999
Fix,GT,37.3879938,-122.0885885,-0.654,3.4328108,0.1,121.661835,1615936497999
Fix,GT,37.3879807,-122.0885618,-0.6450040974617004,2.2013285,0.1,121.59326,1615936498999
Fix,GT,37.3879728,-122.0885458,-0.6469958982467652,1.1360024,0.1,121.60327,1615936499999
Fix,GT,37.3879695,-122.0885391,-0.651,0.36207804,0.1,121.62042,1615936500999
Fix,GT,37.3879689,-122.0885379,-0.6549958896040917,0.015620242,0.1,121.626495,1615936501999
Fix,GT,37.3879689,-122.0885378,-0.654,0.0010222326,0.1,121.62323,1615936502999
Fix,GT,37.3879689,-122.0885378,-0.654,0.001,0.1,121.62341,1615936503999
Fix,GT,37.3879689,-122.0885378,-0.654,4.1233898e-06,0.1,121.62366,1615936504999
Fix,GT,37.3879689,-122.0885378,-0.654,4.1276817e-06,0.1,121.6239,1615936505999
Fix,GT,37.3879689,-122.0885378,-0.654,0.001412502,0.1,121.62375,1615936506999
Fix,GT,37.3879689,-122.0885378,-0.654,0.0014142136,0.1,121.62396,1615936507999
Fix,GT,37.3879689,-122.0885378,-0.654,0.0010017151,0.1,121.62393,1615936508999
Fix,GT,37.3879689,-122.0885378,-0.654,0.0010017169,0.1,121.6239,1615936509999
Fix,GT,37.3879689,-122.0885378,-0.654,0.0014142136,0.1,121.62363,1615936510999
Fix,GT,37.3879689,-122.0885378,-0.654,0.0010017204,0.1,121.62375,1615936511999
Fix,GT,37.3879689,-122.0885378,-0.654,0.0,0.1,121.62372,1615936512999
Fix,GT,37.3879689,-122.0885378,-0.654,0.001,0.1,121.623566,1615936513999
Fix,GT,37.3879689,-122.0885378,-0.654,0.0009958335,0.1,121.623566,1615936514999
Fix,GT,37.3879689,-122.0885378,-0.654,0.001,0.1,121.62372,1615936515999
Fix,GT,37.3879689,-122.0885378,-0.654,0.0,0.1,121.62372,1615936516999
Fix,GT,37.3879689,-122.0885379,-0.654,0.0,0.1,121.62378,1615936517999
Fix,GT,37.3879689,-122.0885379,-0.655,0.0019916324,0.1,121.6239,1615936518999
Fix,GT,37.3879676,-122.0885354,-0.6619958118200302,0.6208848,0.1,121.60974,1615936519999
Fix,GT,37.387962,-122.088524,-0.6689958075284959,1.8068589,0.1,121.46277,1615936520999
Fix,GT,37.3879501,-122.0884992,-0.672,3.4037197,0.1,121.17963,1615936521999
Fix,GT,37.3879305,-122.0884577,-0.6599915977716446,5.046028,0.1,120.66223,1615936522999
Fix,GT,37.3879034,-122.0884005,-0.6370126163959503,6.7188644,0.1,120.6001,1615936523999
Fix,GT,37.3878688,-122.0883277,-0.6200126292705537,8.175056,0.1,120.742065,1615936524999
Fix,GT,37.3878286,-122.0882435,-0.5989915717840194,9.238726,0.1,120.643005,1615936525999
Fix,GT,37.3877836,-122.0881482,-0.5480084367990494,10.329155,0.1,120.38547,1615936526999
Fix,GT,37.3877342,-122.0880425,-0.5310211134552956,11.370409,0.1,120.32251,1615936527999
Fix,GT,37.3876802,-122.0879269,-0.4890507245063781,12.347152,0.1,119.90045,1615936528999
Fix,GT,37.387623,-122.0878019,-0.442,13.185113,0.1,119.76172,1615936529999
Fix,GT,37.3875615,-122.087669,-0.4100296497941016,13.984711,0.1,120.311066,1615936530999
Fix,GT,37.3874958,-122.0875308,-0.3330296806693077,14.4771385,0.1,121.01788,1615936531999
Fix,GT,37.3874272,-122.0873899,-0.302021221935749,14.653386,0.1,121.34833,1615936532999
Fix,GT,37.3873581,-122.0872491,-0.2809915025234223,14.648268,0.1,121.70337,1615936533999
Fix,GT,37.3872887,-122.0871087,-0.2300467833280563,14.580425,0.1,121.62857,1615936534999
Fix,GT,37.3872195,-122.0869695,-0.189046831190586,14.473469,0.1,121.868164,1615936535999
Fix,GT,37.3871507,-122.0868312,-0.1360511400699615,14.412482,0.1,121.80853,1615936536999
Fix,GT,37.3870825,-122.0866931,-0.084008532166481,14.368602,0.1,121.610596,1615936537999
Fix,GT,37.3870143,-122.0865551,-0.0759829185009002,14.377992,0.1,121.77246,1615936538999
Fix,GT,37.3869459,-122.0864173,-0.055008549451828,14.374311,0.1,121.83673,1615936539999
Fix,GT,37.3868774,-122.0862795,-0.0269871629476547,14.372114,0.1,121.70563,1615936540999
Fix,GT,37.3868092,-122.0861413,-0.0720257002115249,14.380056,0.1,121.635254,1615936541999
Fix,GT,37.3867411,-122.0860038,-0.0369871370196342,14.325946,0.1,121.780334,1615936542999
Fix,GT,37.3866732,-122.0858663,-0.0300085840225219,14.295364,0.1,121.732635,1615936543999
Fix,GT,37.3866052,-122.0857295,-0.0070128889083862,14.256258,0.1,121.89813,1615936544999
Fix,GT,37.3865371,-122.0855933,-0.0020086013078689,14.221783,0.1,121.90488,1615936545999
Fix,GT,37.3864695,-122.085457,0.0059913901090621,14.185819,0.1,121.7262,1615936546999
Fix,GT,37.3864024,-122.0853212,0.0030086187124252,14.104421,0.1,121.665405,1615936547999
Fix,GT,37.3863358,-122.0851864,0.0309741177558898,13.979902,0.1,121.60843,1615936548999
Fix,GT,37.38627,-122.0850532,0.0090302259922027,13.784857,0.1,121.7547,1615936549999
Fix,GT,37.3862046,-122.0849214,0.0200172891616821,13.742873,0.1,121.786255,1615936550999
Fix,GT,37.3861394,-122.0847892,0.0009956733584403,13.786947,0.1,121.57065,1615936551999
Fix,GT,37.3860746,-122.0846574,-0.004008661866188,13.553094,0.1,121.56973,1615936552999
Fix,GT,37.3860125,-122.0845321,-0.0099956646561622,12.450469,0.1,121.91229,1615936553999
Fix,GT,37.3859564,-122.08442,-0.0089826412200927,10.889943,0.1,121.9693,1615936554999
Fix,GT,37.3859091,-122.0843255,-0.0010130319595336,8.86321,0.1,121.95538,1615936555999
Fix,GT,37.385872,-122.0842503,0.01,6.8826885,0.1,121.7276,1615936556999
Fix,GT,37.3858433,-122.0841927,0.0019956473708152,5.1077003,0.1,121.76117,1615936557999
Fix,GT,37.3858233,-122.0841523,-0.0029869290590286,3.4136264,0.1,121.73923,1615936558999
Fix,GT,37.3858106,-122.0841265,-0.0059912774562835,1.9706748,0.1,121.64014,1615936559999
Fix,GT,37.3858046,-122.0841144,-0.0099956343770027,0.52728033,0.1,121.63458,1615936560999
Fix,GT,37.3858043,-122.0841135,-0.0169956300854682,0.0042550005,0.1,121.633575,1615936561999
Fix,GT,37.3858043,-122.0841136,-0.015,0.0020010327,0.1,121.63321,1615936562999
Fix,GT,37.3858043,-122.0841136,-0.014,0.001,0.1,121.632324,1615936563999
Fix,GT,37.3858043,-122.0841136,-0.014,0.0014080151,0.1,121.63229,1615936564999
Fix,GT,37.3858043,-122.0841136,-0.014,0.0,0.1,121.63196,1615936565999
Fix,GT,37.3858043,-122.0841136,-0.014,0.0,0.1,121.63202,1615936566999
Fix,GT,37.3858043,-122.0841136,-0.014,0.001,0.1,121.6326,1615936567999
Fix,GT,37.3858043,-122.0841136,-0.014,0.0009955998,0.1,121.632416,1615936568999
Fix,GT,37.3858043,-122.0841136,-0.014,0.0,0.1,121.63187,1615936569999
Fix,GT,37.3858043,-122.0841136,-0.014,0.0,0.1,121.631775,1615936570999
Fix,GT,37.3858043,-122.0841136,-0.014,0.001,0.1,121.63129,1615936571999
Fix,GT,37.3858043,-122.0841136,-0.014,0.0,0.1,121.6311,1615936572999
Fix,GT,37.3858043,-122.0841136,-0.014,4.4220687e-06,0.1,121.63083,1615936573999
Fix,GT,37.3858043,-122.0841136,-0.014,0.0,0.1,121.63086,1615936574999
Fix,GT,37.3858043,-122.0841136,-0.014,0.0,0.1,121.630615,1615936575999
Fix,GT,37.3858043,-122.0841136,-0.014,0.0,0.1,121.63131,1615936576999
Fix,GT,37.3858043,-122.0841136,-0.014,4.439354e-06,0.1,121.63098,1615936577999
Fix,GT,37.3858043,-122.0841136,-0.014,0.0,0.1,121.631195,1615936578999
Fix,GT,37.3858043,-122.0841136,-0.014,0.0,0.1,121.631195,1615936579999
Fix,GT,37.3858043,-122.0841136,-0.014,0.001,0.1,121.63068,1615936580999
Fix,GT,37.3858043,-122.0841136,-0.014,0.0,0.1,121.63092,1615936581999
Fix,GT,37.3858043,-122.0841136,-0.014,0.0,0.1,121.63098,1615936582999
Fix,GT,37.3858043,-122.0841136,-0.014,0.0,0.1,121.63092,1615936583999
Fix,GT,37.3858043,-122.0841136,-0.014,0.0,0.1,121.631195,1615936584999
Fix,GT,37.3858043,-122.0841136,-0.014,0.0,0.1,121.63144,1615936585999
Fix,GT,37.3858043,-122.0841136,-0.014,0.0,0.1,121.63159,1615936586999
Fix,GT,37.3858043,-122.0841136,-0.014,0.0,0.1,121.63104,1615936587999
Fix,GT,37.3858043,-122.0841136,-0.014,0.0,0.1,121.63147,1615936588999
Fix,GT,37.3858043,-122.0841136,-0.014,0.0,0.1,121.631256,1615936589999
Fix,GT,37.3858043,-122.0841136,-0.014,0.0,0.1,121.63141,1615936590999
Fix,GT,37.3858043,-122.0841136,-0.014,0.0,0.1,121.63147,1615936591999
Fix,GT,37.3858043,-122.0841136,-0.014,0.0,0.1,121.63159,1615936592999
Fix,GT,37.3858043,-122.0841136,-0.014,0.0,0.1,121.63165,1615936593999
Fix,GT,37.3858043,-122.0841136,-0.014,0.0,0.1,121.63165,1615936594999
Fix,GT,37.3858043,-122.0841136,-0.014,0.0,0.1,121.63156,1615936595999
Fix,GT,37.3858043,-122.0841136,-0.014,0.0,0.1,121.63162,1615936596999
Fix,GT,37.3858043,-122.0841136,-0.014,0.001,0.1,121.63153,1615936597999
Fix,GT,37.3858043,-122.0841136,-0.014,0.001,0.1,121.63153,1615936598999
Fix,GT,37.3858043,-122.0841136,-0.014,6.4130645e-06,0.1,121.631744,1615936599999
Fix,GT,37.3858043,-122.0841136,-0.014,4.539013e-06,0.1,121.6319,1615936600999
Fix,GT,37.3858043,-122.0841136,-0.014,4.543424e-06,0.1,121.63205,1615936601999
Fix,GT,37.3858043,-122.0841136,-0.014,0.0,0.1,121.63202,1615936602999
Fix,GT,37.3858043,-122.0841136,-0.014,0.0,0.1,121.63199,1615936603999
Fix,GT,37.3858043,-122.0841136,-0.014,0.0,0.1,121.63187,1615936604999
Fix,GT,37.3858043,-122.0841136,-0.014,0.0,0.1,121.631836,1615936605999
Fix,GT,37.3858043,-122.0841136,-0.014,0.0,0.1,121.631744,1615936606999
Fix,GT,37.3858043,-122.0841136,-0.014,0.0,0.1,121.63159,1615936607999
Fix,GT,37.3858043,-122.0841136,-0.014,0.0,0.1,121.63159,1615936608999
Fix,GT,37.3858043,-122.0841136,-0.014,0.0009954218,0.1,121.63199,1615936609999
Fix,GT,37.3858043,-122.0841136,-0.014,0.0,0.1,121.631775,1615936610999
Fix,GT,37.3858043,-122.0841136,-0.014,0.0,0.1,121.63168,1615936611999
Fix,GT,37.3858043,-122.0841136,-0.014,0.0,0.1,121.63165,1615936612999
Fix,GT,37.3858043,-122.0841136,-0.014,0.0,0.1,121.63166,1615936613999
Fix,GT,37.3858043,-122.0841136,-0.014,0.0,0.1,121.63159,1615936614999
Fix,GT,37.3858043,-122.0841136,-0.014,0.0,0.1,121.6315,1615936615999
Fix,GT,37.3858043,-122.0841136,-0.014,0.0,0.1,121.6315,1615936616999
Fix,GT,37.3858043,-122.0841136,-0.014,0.0,0.1,121.631714,1615936617999
Fix,GT,37.3858043,-122.0841136,-0.014,0.0,0.1,121.63159,1615936618999
Fix,GT,37.3858043,-122.0841136,-0.014,0.0,0.1,121.631516,1615936619999
Fix,GT,37.3858043,-122.0841136,-0.014,0.0,0.1,121.63164,1615936620999
Fix,GT,37.3858043,-122.0841136,-0.014,0.0,0.1,121.631775,1615936621999
Fix,GT,37.3858043,-122.0841136,-0.014,0.0,0.1,121.631714,1615936622999
Fix,GT,37.3858043,-122.0841136,-0.014,0.0,0.1,121.63144,1615936623999
Fix,GT,37.3858043,-122.0841136,-0.014,0.0,0.1,121.63153,1615936624999
Fix,GT,37.3858043,-122.0841136,-0.014,0.0,0.1,121.63135,1615936625999
Fix,GT,37.3858043,-122.0841136,-0.014,4.6520236e-06,0.1,121.631165,1615936626999
Fix,GT,37.3858043,-122.0841136,-0.014,0.0,0.1,121.631134,1615936627999
Fix,GT,37.3858043,-122.0841136,-0.014,0.001,0.1,121.631195,1615936628999
Fix,GT,37.3858043,-122.0841136,-0.014,4.664958e-06,0.1,121.631134,1615936629999
Fix,GT,37.3858043,-122.0841136,-0.014,0.0009953307,0.1,121.6311,1615936630999
Fix,GT,37.3858043,-122.0841136,-0.014,0.0,0.1,121.63098,1615936631999
Fix,GT,37.3858043,-122.0841136,-0.014,0.001,0.1,121.63089,1615936632999
Fix,GT,37.3858043,-122.0841136,-0.014,0.0,0.1,121.63095,1615936633999
Fix,GT,37.3858043,-122.0841136,-0.014,0.0,0.1,121.63089,1615936634999
Fix,GT,37.3858043,-122.0841136,-0.014,0.0,0.1,121.63068,1615936635999
Fix,GT,37.3858043,-122.0841136,-0.014,4.695356e-06,0.1,121.63068,1615936636999
Fix,GT,37.3858043,-122.0841136,-0.014,0.0,0.1,121.63086,1615936637999
Fix,GT,37.3858043,-122.0841136,-0.014,0.0,0.1,121.631256,1615936638999
Fix,GT,37.3858043,-122.0841136,-0.014,0.0,0.1,121.63117,1615936639999
Fix,GT,37.3858043,-122.0841136,-0.014,4.71282e-06,0.1,121.63141,1615936640999
Fix,GT,37.3858043,-122.0841136,-0.014,0.0,0.1,121.6312,1615936641999
Fix,GT,37.3858043,-122.0841136,-0.014,0.0,0.1,121.63104,1615936642999
Fix,GT,37.3858043,-122.0841136,-0.014,0.0,0.1,121.63104,1615936643999
Fix,GT,37.3858043,-122.0841136,-0.014,0.0,0.1,121.63095,1615936644999
Fix,GT,37.3858043,-122.0841136,-0.0139952654242515,0.0,0.1,121.63104,1615936645999
Fix,GT,37.3858043,-122.0841136,-0.014,0.0,0.1,121.63104,1615936646999
Fix,GT,37.3858043,-122.0841136,-0.013,0.001,0.1,121.6311,1615936647999
Fix,GT,37.3858043,-122.0841136,-0.014,0.001,0.1,121.631065,1615936648999
Fix,GT,37.3858043,-122.0841136,-0.014,0.0014142136,0.1,121.631165,1615936649999
Fix,GT,37.3858042,-122.0841133,-0.022980975151062,0.21976084,0.1,121.6326,1615936650999
Fix,GT,37.3858008,-122.0841063,-0.0230047605633735,1.3325417,0.1,121.623566,1615936651999
Fix,GT,37.3857908,-122.0840862,-0.0210285898447036,2.8885217,0.1,121.67114,1615936652999
Fix,GT,37.3857728,-122.0840502,-0.0040047692656517,4.645266,0.1,121.86859,1615936653999
Fix,GT,37.3857468,-122.0839979,-0.0090143208503723,6.3535275,0.1,121.92111,1615936654999
Fix,GT,37.3857123,-122.0839287,-0.0289904441833496,8.0638685,0.1,121.76547,1615936655999
Fix,GT,37.385671,-122.0838451,-0.0180095646381378,9.3558445,0.1,121.73193,1615936656999
Fix,GT,37.3856231,-122.0837481,0.0110191464424133,10.824261,0.1,121.62982,1615936657999
Fix,GT,37.3855689,-122.0836381,0.0279904180765151,12.069864,0.1,121.54468,1615936658999
Fix,GT,37.3855093,-122.0835171,0.0430047952532768,13.024288,0.1,121.65234,1615936659999
Fix,GT,37.3854454,-122.0833877,0.0989616026878356,13.942866,0.1,121.54303,1615936660999
Fix,GT,37.3853777,-122.0832499,0.1419711759090423,14.589056,0.1,121.52197,1615936661999
Fix,GT,37.3853078,-122.0831082,0.1959519169330597,14.910546,0.1,121.68207,1615936662999
Fix,GT,37.3852363,-122.0829636,0.2349711236953735,15.213116,0.1,121.69241,1615936663999
Fix,GT,37.3851635,-122.0828162,0.2759759146571159,15.491136,0.1,121.67056,1615936664999
Fix,GT,37.3850894,-122.0826666,0.3129951786398887,15.672461,0.1,121.71344,1615936665999
Fix,GT,37.3850144,-122.082516,0.3829613938331604,15.757173,0.1,121.97012,1615936666999
Fix,GT,37.3849392,-122.0823649,0.3960144901871681,15.810635,0.1,121.81415,1615936667999
Fix,GT,37.3848638,-122.0822129,0.419,15.87969,0.1,121.67499,1615936668999
Fix,GT,37.3847882,-122.0820605,0.4599806451797485,15.893085,0.1,121.92914,1615936669999
Fix,GT,37.3847123,-122.0819083,0.4669612550735474,15.890488,0.1,121.74924,1615936670999
Fix,GT,37.3846371,-122.081756,0.5099903050661088,15.801722,0.1,121.67322,1615936671999
Fix,GT,37.3845626,-122.0816052,0.5820436658263206,15.615469,0.1,121.737885,1615936672999
Fix,GT,37.3844889,-122.0814561,0.6589757191538811,15.445981,0.1,121.67905,1615936673999
Fix,GT,37.3844159,-122.0813087,0.7229611163139343,15.290144,0.1,121.82782,1615936674999
Fix,GT,37.3843434,-122.0811632,0.7709854055643082,15.105737,0.1,121.77014,1615936675999
Fix,GT,37.3842722,-122.0810189,0.818975653886795,14.938888,0.1,121.5372,1615936676999
Fix,GT,37.3842017,-122.0808763,0.8880292410850525,14.771479,0.1,121.70679,1615936677999
Fix,GT,37.3841317,-122.0807349,0.9679756106734276,14.714285,0.1,121.700165,1615936678999
Fix,GT,37.3840618,-122.0805944,1.021887710392475,14.643373,0.1,121.78357,1615936679999
Fix,GT,37.3839921,-122.0804545,1.0460195462703703,14.569857,0.1,121.815186,1615936680999
Fix,GT,37.383923,-122.0803149,1.097995109140873,14.535124,0.1,121.719025,1615936681999
Fix,GT,37.383854,-122.0801755,1.1119559431076051,14.514569,0.1,121.719635,1615936682999
Fix,GT,37.3837856,-122.0800364,1.1719853011369703,14.441691,0.1,121.44031,1615936683999
Fix,GT,37.3837174,-122.079898,1.2469411530494692,14.38476,0.1,121.75705,1615936684999
Fix,GT,37.3836488,-122.0797606,1.3309754586815834,14.317538,0.1,121.95825,1615936685999
Fix,GT,37.3835804,-122.0796239,1.4239754372239113,14.258011,0.1,122.0376,1615936686999
Fix,GT,37.3835129,-122.0794884,1.5219754151701927,14.019805,0.1,121.76007,1615936687999
Fix,GT,37.383447,-122.0793557,1.5979753937125207,13.660621,0.1,121.7905,1615936688999
Fix,GT,37.3833831,-122.0792264,1.6589507439136504,13.279047,0.1,121.59668,1615936689999
Fix,GT,37.3833211,-122.0791006,1.7319654906988144,12.902559,0.1,121.591064,1615936690999
Fix,GT,37.3832604,-122.0789775,1.7909802627563476,12.846244,0.1,121.52118,1615936691999
Fix,GT,37.3832013,-122.0788531,1.8929456747174265,12.693234,0.1,119.56842,1615936692999
Fix,GT,37.3831486,-122.0787278,2.027911025762558,12.333686,0.1,116.99469,1615936693999
Fix,GT,37.3830993,-122.0786053,2.116990105271339,11.97031,0.1,116.670166,1615936694999
Fix,GT,37.3830497,-122.0784877,2.2119158218503,11.552826,0.1,118.77438,1615936695999
Fix,GT,37.3829987,-122.0783783,2.255940527915955,10.791582,0.1,120.49991,1615936696999
Fix,GT,37.382951,-122.0782796,2.31296031665802,9.593961,0.1,121.4144,1615936697999
Fix,GT,37.3829087,-122.078194,2.359,8.207683,0.1,121.58594,1615936698999
Fix,GT,37.3828737,-122.0781228,2.415985092818737,6.5993457,0.1,121.46536,1615936699999
Fix,GT,37.3828463,-122.078067,2.441990053296089,4.980886,0.1,121.64212,1615936700999
Fix,GT,37.3828257,-122.0780255,2.460985066711902,3.7739182,0.1,121.8768,1615936701999
Fix,GT,37.3828101,-122.0779946,2.4809950179457663,2.735944,0.1,122.15695,1615936702999
Fix,GT,37.3827988,-122.0779722,2.494990027189255,1.9223434,0.1,122.148834,1615936703999
Fix,GT,37.3827918,-122.0779583,2.5079950093030927,0.9648257,0.1,122.22629,1615936704999
Fix,GT,37.3827897,-122.0779539,2.517990009903907,0.06575828,0.1,122.24121,1615936705999
Fix,GT,37.3827897,-122.0779539,2.527,0.001,0.1,122.24838,1615936706999
Fix,GT,37.3827897,-122.0779539,2.528,0.004268617,0.1,122.247925,1615936707999
Fix,GT,37.3827897,-122.0779539,2.529,0.0014121392,0.1,122.24805,1615936708999
Fix,GT,37.3827897,-122.0779539,2.530004918060731,0.001002066,0.1,122.24786,1615936710000
Fix,GT,37.3827897,-122.0779539,2.530999958749395,0.0009950168,0.1,122.2482,1615936711000
Fix,GT,37.3827897,-122.0779539,2.5310000117858875,0.0009950212,0.1,122.24823,1615936712000
Fix,GT,37.3827897,-122.0779539,2.5310000400720165,0.001,0.1,122.24802,1615936713000
Fix,GT,37.3827897,-122.0779539,2.531000068358146,0.001,0.1,122.24823,1615936714000
Fix,GT,37.3827897,-122.0779539,2.53099994578492,0.0,0.1,122.24832,1615936715000
Fix,GT,37.3827897,-122.0779539,2.5309999740710483,0.0,0.1,122.24838,1615936716000
Fix,GT,37.3827897,-122.0779539,2.531000027107541,4.95721e-06,0.1,122.24838,1615936717000
Fix,GT,37.3827897,-122.0779539,2.5310000306433067,0.0,0.1,122.248474,1615936718000
Fix,GT,37.3827897,-122.0779539,2.531000058929436,0.0,0.1,122.24844,1615936719000
Fix,GT,37.3827897,-122.0779539,2.5310000612866137,0.0,0.1,122.24841,1615936720000
Fix,GT,37.3827897,-122.0779539,2.530999938713387,0.0,0.099,122.248474,1615936721000
Fix,GT,37.3827897,-122.0779539,2.530999966999516,0.0,0.099,122.24835,1615936722000
Fix,GT,37.3827897,-122.0779539,2.530999995285645,0.0,0.1,122.24829,1615936723000
Fix,GT,37.3827897,-122.0779539,2.5309999976428226,0.0,0.1,122.24829,1615936724000
Fix,GT,37.3827897,-122.0779539,2.531000025928952,0.0,0.1,122.24814,1615936725000
Fix,GT,37.3827897,-122.0779539,2.531000029464718,0.000995082,0.1,122.24811,1615936726000
Fix,GT,37.3827897,-122.0779539,2.5310000070715324,4.91375e-06,0.1,122.24817,1615936727000
Fix,GT,37.3827897,-122.0779539,2.53100000942871,0.0,0.1,122.24829,1615936728000
Fix,GT,37.3827897,-122.0779539,2.5310000377148394,0.0,0.1,122.2482,1615936729000
Fix,GT,37.3827897,-122.0779539,2.5310000412506053,0.0,0.1,122.24811,1615936730000
Fix,GT,37.3827897,-122.0779539,2.5310000695367347,0.0,0.1,122.24817,1615936731000
Fix,GT,37.3827897,-122.0779539,2.5319999457634985,0.0,0.1,122.2482,1615936732000
Fix,GT,37.3827897,-122.0779539,2.5319999740608035,0.0010020246,0.1,122.24817,1615936733000
Fix,GT,37.3827897,-122.0779539,2.532000002358109,0.0010020228,0.1,122.24817,1615936734000
Fix,GT,37.3827897,-122.0779539,2.532004909665324,0.0014142136,0.1,122.24808,1615936735000
Fix,GT,37.3827895,-122.0779539,2.5309902093694547,0.08160368,0.1,122.25113,1615936736000
Fix,GT,37.3827876,-122.07795,2.530004882141016,0.7486995,0.1,122.26404,1615936737000
Fix,GT,37.3827815,-122.0779379,2.538009747384116,1.7878683,0.1,122.28003,1615936738000
Fix,GT,37.3827701,-122.0779153,2.554009767344221,3.0342145,0.1,122.293396,1615936739000
Fix,GT,37.3827521,-122.0778797,2.580995215984061,4.41598,0.1,122.11221,1615936740000
Fix,GT,37.3827309,-122.0778283,2.5880290661202743,5.7139683,0.1,115.730225,1615936741000
Fix,GT,37.3827179,-122.0777608,2.6370484631708826,6.2821546,0.1,100.11688,1615936742000
Fix,GT,37.382721,-122.0776894,2.657966096017044,6.1769304,0.1,83.616425,1615936743000
Fix,GT,37.3827386,-122.0776224,2.594995220439509,6.239385,0.1,68.97809,1615936744000
Fix,GT,37.3827697,-122.0775615,2.460835598683916,6.497747,0.1,54.225006,1615936745000
Fix,GT,37.3828146,-122.0775086,2.270995204625651,7.053664,0.1,40.100494,1615936746000
Fix,GT,37.3828698,-122.0774635,2.183922827146948,7.50049,0.1,32.421783,1615936747000
Fix,GT,37.3829302,-122.0774164,2.063966279074084,8.271803,0.1,31.486328,1615936748000
Fix,GT,37.3829975,-122.0773667,2.003980745583773,9.085396,0.1,30.076355,1615936749000
Fix,GT,37.3830715,-122.0773136,1.971990334450268,9.845163,0.099,29.774414,1615936750000
Fix,GT,37.3831506,-122.0772557,1.879923049584031,10.335027,0.1,30.46762,1615936751000
Fix,GT,37.3832304,-122.0771961,1.7449423424466513,10.298276,0.1,30.675507,1615936752000
Fix,GT,37.383311,-122.077136,1.6089568305015565,10.514668,0.1,30.611053,1615936753000
Fix,GT,37.3833935,-122.0770751,1.5029759806059302,10.815177,0.1,30.356995,1615936754000
Fix,GT,37.3834789,-122.0770119,1.4309999673482965,11.136503,0.1,30.567871,1615936755000
Fix,GT,37.3835657,-122.076947,1.404980845702812,11.296352,0.1,30.790833,1615936756000
Fix,GT,37.383653,-122.0768812,1.349971324235201,11.259688,0.1,30.91977,1615936757000
Fix,GT,37.3837393,-122.0768163,1.3089999615983106,11.071018,0.1,30.920746,1615936758000
Fix,GT,37.3838238,-122.0767518,1.2760190895795822,10.890133,0.1,31.615997,1615936759000
Fix,GT,37.3839062,-122.0766872,1.2659332282468676,10.725841,0.1,32.082275,1615936760000
Fix,GT,37.3839877,-122.0766227,1.0909094676673412,10.650037,0.1,32.0773,1615936761000
Fix,GT,37.3840687,-122.0765591,0.9699190333602018,10.560256,0.099,32.071503,1615936762000
Fix,GT,37.3841489,-122.0764959,0.8619524213913828,10.452519,0.1,32.091614,1615936763000
Fix,GT,37.384228,-122.0764333,0.7839904997264967,10.312307,0.1,32.226685,1615936764000
Fix,GT,37.3843058,-122.0763712,0.718971491748467,10.172544,0.1,32.496704,1615936765000
Fix,GT,37.3843825,-122.0763097,0.6419145915806294,10.012308,0.1,32.65857,1615936766000
Fix,GT,37.3844579,-122.0762491,0.6290379230920226,9.853318,0.1,32.428833,1615936767000
Fix,GT,37.3845319,-122.0761896,0.6070094856698997,9.67907,0.1,32.598785,1615936768000
Fix,GT,37.3846049,-122.0761313,0.5649905281574465,9.5324545,0.1,32.461853,1615936769000
Fix,GT,37.3846771,-122.0760743,0.5139810938723386,9.3910885,0.1,31.960602,1615936770000
Fix,GT,37.384748,-122.0760192,0.4749858392328023,8.999529,0.1,31.613007,1615936771000
Fix,GT,37.384812,-122.0759704,0.4489999901731498,7.447875,0.099,31.083435,1615936772000
Fix,GT,37.3848627,-122.0759326,0.407981138670817,5.723897,0.099,30.582336,1615936773000
Fix,GT,37.3849006,-122.0759047,0.3799717407776043,4.1619835,0.1,30.315704,1615936774000
Fix,GT,37.38493,-122.0758835,0.3549952985728159,3.4469333,0.1,29.956177,1615936775000
Fix,GT,37.3849537,-122.0758667,0.3319905887274072,2.5814345,0.1,29.584412,1615936776000
Fix,GT,37.3849694,-122.0758556,0.3429952976796776,1.297131,0.1,29.39505,1615936777000
Fix,GT,37.3849741,-122.0758524,0.3329999984493479,0.058182046,0.1,29.321136,1615936778000
Fix,GT,37.3849741,-122.0758524,0.3300000021513551,0.010253993,0.1,29.320099,1615936779000
Fix,GT,37.3849741,-122.0758524,0.3310000058570876,0.0010019402,0.1,29.321106,1615936780000
Fix,GT,37.3849741,-122.0758524,0.3309999932181091,0.0,0.1,29.321228,1615936781000
Fix,GT,37.3849741,-122.0758524,0.3309999969173223,0.0,0.1,29.321014,1615936782000
Fix,GT,37.3849741,-122.0758524,0.3310000038533471,0.0009953292,0.1,29.321411,1615936783000
Fix,GT,37.3849741,-122.0758524,0.3309999910602346,4.66654e-06,0.099,29.321198,1615936784000
Fix,GT,37.3849741,-122.0758524,0.3309999947594479,0.0,0.099,29.321136,1615936785000
Fix,GT,37.3849741,-122.0758524,0.3310000018496066,4.6578702e-06,0.1,29.321228,1615936786000
Fix,GT,37.3849741,-122.0758524,0.3309999956842512,0.0,0.1,29.320618,1615936787000
Fix,GT,37.3849741,-122.0758524,0.3309999993834644,0.0009953508,0.1,29.320526,1615936788000
Fix,GT,37.3849741,-122.0758524,0.3310000030826777,0.013475214,0.1,29.318207,1615936789000
Fix,GT,37.3849762,-122.0758509,0.3240046471785754,0.6388798,0.1,29.290863,1615936790000
Fix,GT,37.3849843,-122.0758452,0.3179999942248687,1.4473956,0.1,29.218506,1615936791000
Fix,GT,37.3849993,-122.075835,0.2959814762994647,2.279195,0.1,28.724792,1615936792000
Fix,GT,37.3850212,-122.0758241,0.2720000065863132,2.9184713,0.1,22.636444,1615936793000
Fix,GT,37.3850505,-122.0758188,0.2669630103870294,3.4489605,0.099,9.134979,1615936794000
Fix,GT,37.3850854,-122.0758265,0.2349861425943672,4.0709877,0.1,349.79742,1615936795000
Fix,GT,37.3851174,-122.0758525,0.1640184594579041,4.0622163,0.1,326.22638,1615936796000
Fix,GT,37.3851428,-122.0758895,0.0829723369795829,4.439371,0.1,310.64075,1615936797000
Fix,GT,37.385165,-122.0759342,0.0429861823506653,4.7704973,0.1,302.15347,1615936798000
Fix,GT,37.3851875,-122.0759819,0.0289907975145615,5.0371275,0.1,300.37643,1615936799000
Fix,GT,37.3852114,-122.0760322,-0.007022985914722,5.329971,0.1,300.8845,1615936800000
Fix,GT,37.3852371,-122.0760848,-0.0429999993392266,5.5856643,0.1,301.33148,1615936801000
Fix,GT,37.3852638,-122.0761399,-0.0820229423572309,5.8264947,0.1,301.28128,1615936802000
Fix,GT,37.3852912,-122.076196,-0.1270229218881577,5.789473,0.1,301.29343,1615936803000
Fix,GT,37.3853182,-122.0762514,-0.1830229044631123,5.7032585,0.1,301.3706,1615936804000
Fix,GT,37.385345,-122.0763056,-0.2490274505722336,5.6124706,0.1,301.74557,1615936805000
Fix,GT,37.3853717,-122.0763587,-0.2920137167577631,5.5097523,0.1,302.14667,1615936806000
Fix,GT,37.3853982,-122.0764109,-0.3310091245118529,5.4348125,0.1,302.1603,1615936807000
Fix,GT,37.3854235,-122.0764626,-0.353013685349375,5.3081493,0.1,301.31268,1615936808000
Fix,GT,37.3854478,-122.0765132,-0.4050319133866579,5.10645,0.1,301.00742,1615936809000
Fix,GT,37.3854717,-122.0765621,-0.4051776116956025,5.0432954,0.1,301.51526,1615936810000
Fix,GT,37.3854957,-122.07661,-0.4609954444393516,4.9421887,0.1,301.92572,1615936811000
Fix,GT,37.3855197,-122.0766569,-0.4880272703506052,5.0070996,0.1,302.5807,1615936812000
Fix,GT,37.3855445,-122.0767046,-0.5210227092020213,5.0166187,0.1,303.0863,1615936813000
Fix,GT,37.3855691,-122.0767514,-0.5590135989775882,4.886198,0.099,303.0561,1615936814000
Fix,GT,37.3855886,-122.0767968,-0.588995468877256,4.0890107,0.1,296.58554,1615936815000
Fix,GT,37.3855949,-122.07684,-0.5920045416736975,3.630343,0.1,279.82275,1615936816000
Fix,GT,37.3855889,-122.0768805,-0.6009864200847224,3.411791,0.1,260.4095,1615936817000
Fix,GT,37.3855715,-122.0769132,-0.6070180865703151,3.278992,0.1,237.60715,1615936818000
Fix,GT,37.3855463,-122.0769383,-0.6219955018991604,3.621647,0.1,220.06447,1615936819000
Fix,GT,37.3855169,-122.0769605,-0.6149864611309022,3.900394,0.1,212.06512,1615936820000
Fix,GT,37.3854858,-122.0769838,-0.5700225482881068,4.1311646,0.1,211.2028,1615936821000
Fix,GT,37.3854525,-122.0770078,-0.5489819930060766,4.387362,0.1,209.6837,1615936822000
Fix,GT,37.3854169,-122.0770327,-0.5210000063078478,4.6693077,0.1,209.25294,1615936823000
Fix,GT,37.3853794,-122.0770595,-0.4839910008385777,4.910156,0.099,209.6797,1615936824000
Fix,GT,37.3853403,-122.0770882,-0.4550000023306347,5.1155205,0.1,210.28436,1615936825000
Fix,GT,37.3853011,-122.0771176,-0.4159730825331062,4.984288,0.1,210.9164,1615936826000
Fix,GT,37.3852639,-122.0771466,-0.3689820779408328,4.7648206,0.1,211.96504,1615936827000
Fix,GT,37.385228,-122.0771751,-0.3359955302886665,4.6793156,0.1,212.39595,1615936828000
Fix,GT,37.3851928,-122.0772041,-0.3089776357561349,4.6807723,0.1,213.0334,1615936829000
Fix,GT,37.3851574,-122.0772335,-0.2789910686076619,4.763844,0.1,213.49478,1615936830000
Fix,GT,37.3851209,-122.0772633,-0.2690133844912052,4.9085484,0.099,212.69954,1615936831000
Fix,GT,37.3850838,-122.0772916,-0.2269687902610749,4.707232,0.1,211.00468,1615936832000
Fix,GT,37.3850472,-122.0773178,-0.1929910961734131,4.680121,0.1,209.76556,1615936833000
Fix,GT,37.38501,-122.0773444,-0.1659910994190722,4.821188,0.1,209.59705,1615936834000
Fix,GT,37.3849715,-122.0773721,-0.1410088939410634,5.0866027,0.1,209.74374,1615936835000
Fix,GT,37.3849307,-122.0774018,-0.0969689093725755,5.3547053,0.1,210.11694,1615936836000
Fix,GT,37.3848897,-122.0774318,-0.0529911259650252,5.1597743,0.1,210.26823,1615936837000
Fix,GT,37.3848504,-122.0774607,-0.0239822684898972,5.0013576,0.099,210.12268,1615936838000
Fix,GT,37.384811,-122.077489,0.0110132847884669,5.070718,0.099,209.62038,1615936839000
Fix,GT,37.3847708,-122.0775171,0.0430265449206344,5.1456566,0.1,209.02267,1615936840000
Fix,GT,37.3847299,-122.0775454,0.0910132569558918,5.2602625,0.1,208.82301,1615936841000
Fix,GT,37.3846877,-122.0775748,0.1199911688845604,5.461403,0.1,208.85745,1615936842000
Fix,GT,37.3846438,-122.0776049,0.1580220581688918,5.601839,0.1,208.7918,1615936843000
Fix,GT,37.3845994,-122.0776354,0.1990176229360513,5.6456695,0.1,208.59471,1615936844000
Fix,GT,37.3845543,-122.077666,0.2450000026240013,5.7344775,0.1,208.36409,1615936845000
Fix,GT,37.3845084,-122.0776972,0.2780263808425516,5.877964,0.1,208.42357,1615936846000
Fix,GT,37.3844611,-122.0777294,0.3190219666697085,6.0835238,0.1,208.50714,1615936847000
Fix,GT,37.3844121,-122.077763,0.3590307312905788,6.313285,0.1,208.53552,1615936848000
Fix,GT,37.3843613,-122.0777976,0.4180263213813304,6.5217214,0.1,208.54074,1615936849000
Fix,GT,37.3843088,-122.0778334,0.4650131364036351,6.7303686,0.099,208.38228,1615936850000
Fix,GT,37.3842546,-122.07787,0.5160481554954313,6.9306517,0.1,208.23364,1615936851000
Fix,GT,37.384199,-122.0779081,0.5690218549864365,7.140147,0.1,208.80049,1615936852000
Fix,GT,37.3841422,-122.0779481,0.6180000132378191,7.325822,0.1,209.22527,1615936853000
Fix,GT,37.3840832,-122.0779896,0.6630218124091626,7.6546416,0.1,209.09248,1615936854000
Fix,GT,37.384022,-122.0780322,0.7080348551478236,7.894425,0.099,208.95099,1615936855000
Fix,GT,37.383959,-122.0780761,0.7790130532151088,8.083256,0.1,208.92287,1615936856000
Fix,GT,37.3838953,-122.0781205,0.8360435190163553,8.077014,0.1,209.0025,1615936857000
Fix,GT,37.3838317,-122.0781649,0.8800217202445492,8.082404,0.1,209.01987,1615936858000
Fix,GT,37.3837681,-122.0782093,0.9510173762571068,8.070341,0.1,209.0531,1615936859000
Fix,GT,37.383705,-122.0782542,1.0060433560945097,7.969655,0.1,209.58585,1615936860000
Fix,GT,37.3836437,-122.0782987,1.0580389700043016,7.767228,0.1,210.218,1615936861000
Fix,GT,37.3835844,-122.0783429,1.0940346348444,7.569676,0.1,210.7381,1615936862000
Fix,GT,37.3835271,-122.0783866,1.1440172813534737,7.3117385,0.099,211.6184,1615936863000
Fix,GT,37.3834727,-122.0784304,1.2000691315829757,7.0699353,0.1,212.92607,1615936864000
Fix,GT,37.3834218,-122.0784736,1.2780345122087746,6.4921637,0.1,214.02103,1615936865000
Fix,GT,37.3833781,-122.0785119,1.3350302063450217,5.2532673,0.1,215.22853,1615936866000
Fix,GT,37.3833473,-122.0785412,1.366995665954426,3.3690639,0.1,217.04735,1615936867000
Fix,GT,37.3833287,-122.0785596,1.3510000018873252,2.0535853,0.1,217.92628,1615936868000
Fix,GT,37.3833176,-122.0785709,1.377000017312821,1.1099639,0.1,218.50407,1615936869000
Fix,GT,37.38331,-122.0785792,1.4000128607945517,1.2588817,0.1,219.66403,1615936870000
Fix,GT,37.3833007,-122.0785919,1.4290043119592593,1.8623407,0.1,224.29065,1615936871000
Fix,GT,37.3832903,-122.0786137,1.4950257092663088,2.7674503,0.1,234.91327,1615936872000
Fix,GT,37.3832811,-122.0786492,1.623051405797247,3.9595702,0.1,250.35583,1615936873000
Fix,GT,37.3832786,-122.078701,1.6570384593196217,5.3834033,0.1,267.24832,1615936874000
Fix,GT,37.3832877,-122.0787677,1.7520470185750163,6.689453,0.1,281.7584,1615936875000
Fix,GT,37.3833098,-122.0788449,1.7979914314039054,7.8915,0.1,291.89716,1615936876000
Fix,GT,37.3833443,-122.0789291,1.760000023767352,8.945704,0.1,298.79984,1615936877000
Fix,GT,37.3833872,-122.0790208,1.708970155489631,9.884412,0.099,300.4829,1615936878000
Fix,GT,37.3834352,-122.0791204,1.6610000262977556,10.737143,0.1,301.26245,1615936879000
Fix,GT,37.3834876,-122.0792276,1.5839702223152854,11.47783,0.1,301.3445,1615936880000
Fix,GT,37.3835424,-122.079341,1.4959702857746742,12.011855,0.1,300.9623,1615936881000
Fix,GT,37.3835996,-122.07946,1.480004286557436,12.510673,0.1,301.04007,1615936882000
Fix,GT,37.3836593,-122.0795823,1.4489788113739344,12.871115,0.1,301.49512,1615936883000
Fix,GT,37.3837206,-122.0797072,1.3509576254105196,13.083969,0.099,301.63187,1615936884000
Fix,GT,37.3837829,-122.0798339,1.292902714134194,13.2332535,0.1,301.597,1615936885000
Fix,GT,37.383846,-122.0799621,1.2129746795417742,13.429415,0.1,301.60764,1615936886000
Fix,GT,37.3839101,-122.0800915,1.1489873219942677,13.527947,0.1,301.8109,1615936887000
Fix,GT,37.3839748,-122.0802215,1.1109620602941142,13.563527,0.1,302.0195,1615936888000
Fix,GT,37.3840398,-122.0803512,1.038974705630913,13.548279,0.1,301.9545,1615936889000
Fix,GT,37.3841042,-122.0804813,0.9780126340552232,13.546912,0.1,301.69138,1615936890000
Fix,GT,37.3841681,-122.0806116,0.9229957796977832,13.561725,0.1,301.5876,1615936891000
Fix,GT,37.3842324,-122.0807417,0.8649496122985146,13.528018,0.1,301.66223,1615936892000
Fix,GT,37.3842961,-122.0808705,0.5289328947309405,13.504366,0.1,301.87207,1615936893000
Fix,GT,37.3843604,-122.0809998,0.4519622830660083,13.478258,0.1,301.89258,1615936894000
Fix,GT,37.3844249,-122.0811289,0.5469413800216281,13.477411,0.1,302.01135,1615936895000
Fix,GT,37.3844894,-122.0812582,0.5049581900052726,13.519445,0.1,301.7694,1615936896000
Fix,GT,37.3845535,-122.0813883,0.483941503769718,13.565952,0.1,301.52344,1615936897000
Fix,GT,37.3846179,-122.0815188,0.4099958312921226,13.606611,0.1,301.73203,1615936898000
Fix,GT,37.3846829,-122.0816496,0.3219874875419773,13.679184,0.1,301.73404,1615936899000
Fix,GT,37.3847479,-122.0817813,0.2889958393871784,13.737286,0.1,301.64938,1615936900000
Fix,GT,37.3848135,-122.0819137,0.2779875149964355,13.866364,0.1,301.75546,1615936901000
Fix,GT,37.3848794,-122.0820468,0.2410000063967891,13.853754,0.1,301.78055,1615936902000
Fix,GT,37.3849453,-122.0821795,0.2279750893749296,13.82,0.1,301.76855,1615936903000
Fix,GT,37.3850107,-122.082312,0.2209958568494767,13.762215,0.1,301.6543,1615936904000
Fix,GT,37.3850757,-122.0824441,0.1910000001778826,13.741495,0.1,301.54657,1615936905000
Fix,GT,37.3851406,-122.0825762,0.1959958655596711,13.7066555,0.1,301.52808,1615936906000
Fix,GT,37.385205,-122.0827068,0.195954520211555,13.472163,0.1,301.57773,1615936907000
Fix,GT,37.3852681,-122.0828348,0.1609793535228818,13.177716,0.1,301.42056,1615936908000
Fix,GT,37.3853295,-122.0829601,0.1279834964424371,12.880296,0.1,301.56622,1615936909000
Fix,GT,37.3853902,-122.083082,0.139983516652137,12.56086,0.1,301.96997,1615936910000
Fix,GT,37.3854494,-122.0832007,0.0829752955632284,12.20694,0.1,302.0228,1615936911000
Fix,GT,37.3855063,-122.0833146,0.0389958879807963,11.503136,0.1,301.8415,1615936912000
Fix,GT,37.3855582,-122.0834187,0.0069753490602597,10.243524,0.1,301.84842,1615936913000
Fix,GT,37.3856039,-122.0835101,-0.0320246253022924,8.786337,0.1,302.09012,1615936914000
Fix,GT,37.3856419,-122.0835858,-0.0479999997094273,7.029884,0.099,302.07217,1615936915000
Fix,GT,37.3856708,-122.0836435,-0.0530040942467749,4.9407086,0.1,302.0055,1615936916000
Fix,GT,37.3856892,-122.0836805,-0.0639959092368371,2.9317374,0.1,301.88803,1615936917000
Fix,GT,37.3856995,-122.0837012,-0.0579999987306073,1.3734713,0.1,301.81833,1615936918000
Fix,GT,37.385703,-122.0837082,-0.0579959179703146,0.17449749,0.1,301.80624,1615936919000
Fix,GT,37.385703,-122.0837083,-0.0599959223903715,0.008604842,0.1,301.80685,1615936920000
Fix,GT,37.385703,-122.0837083,-0.0579999995678663,0.0010016876,0.1,301.80798,1615936921000
Fix,GT,37.385703,-122.0837083,-0.0579999990817159,0.0009959304,0.1,301.80762,1615936922000
Fix,GT,37.385703,-122.0837083,-0.0579999985955655,0.001001684,0.1,301.8076,1615936923000
Fix,GT,37.385703,-122.0837083,-0.0580000009723007,0.001,0.1,301.80685,1615936924000
Fix,GT,37.385703,-122.0837083,-0.0579999998919665,0.0,0.1,301.8078,1615936925000
Fix,GT,37.385703,-122.0837083,-0.058000000540167,4.05241e-06,0.1,301.80783,1615936926000
Fix,GT,37.385703,-122.0837083,-0.057999998325482,0.0,0.1,301.8077,1615936927000
Fix,GT,37.385703,-122.0837083,-0.0580000007022172,0.0,0.1,301.8078,1615936928000
Fix,GT,37.385703,-122.0837083,-0.058,0.0,0.1,-58.19207,1615936929000
Fix,GT,37.385703,-122.0837083,-0.0580000014314427,0.0,0.1,301.8081,1615936930000
Fix,GT,37.385703,-122.0837083,-0.0580000003781169,0.0,0.1,301.808,1615936931000
Fix,GT,37.385703,-122.0837083,-0.0579999992977827,0.0009959735,0.099,301.80798,1615936932000
Fix,GT,37.385703,-122.0837083,-0.0580000016745179,0.0010000002,0.1,301.80792,1615936933000
Fix,GT,37.385703,-122.0837083,-0.0580000000270083,0.0009959822,0.1,301.80844,1615936934000
Fix,GT,37.385703,-122.0837083,-0.0579999983794987,0.0010016625,0.1,301.80807,1615936935000
Fix,GT,37.385703,-122.0837083,-0.0580000001890584,4.0092505e-06,0.1,301.8081,1615936936000
Fix,GT,37.385703,-122.0837083,-0.057999999702908,0.001001659,0.1,301.80792,1615936937000
Fix,GT,37.385703,-122.0837083,-0.058000000918284,0.001,0.1,301.80786,1615936938000
Fix,GT,37.385703,-122.0837083,-0.0579999992707744,0.0,0.1,301.80777,1615936939000
Fix,GT,37.385703,-122.0837083,-0.0580000010803341,0.000996008,0.1,301.8076,1615936940000
Fix,GT,37.385703,-122.0837083,-0.0579999994328245,0.0,0.1,301.80795,1615936941000
Fix,GT,37.385703,-122.0837083,-0.0579999983524903,0.0,0.1,301.80832,1615936942000
Fix,GT,37.385703,-122.0837083,-0.0580000007292255,0.0,0.1,301.80823,1615936943000
Fix,GT,37.385703,-122.0837083,-0.0579999990817159,0.0,0.099,301.80814,1615936944000
Fix,GT,37.385703,-122.0837083,-0.0580000014854595,0.0,0.1,301.80795,1615936945000
Fix,GT,37.385703,-122.0837083,-0.0579999998109415,0.0,0.1,301.80795,1615936946000
Fix,GT,37.385703,-122.0837083,-0.0579999993247911,0.0,0.1,301.80817,1615936947000
Fix,GT,37.385703,-122.0837083,-0.0580000011343508,0.0,0.1,301.80807,1615936948000
Fix,GT,37.385703,-122.0837083,-0.0580000006482005,0.0,0.1,301.80798,1615936949000
Fix,GT,37.385703,-122.0837083,-0.0579999990006908,0.0009960511,0.099,301.80844,1615936950000
Fix,GT,37.385703,-122.0837083,-0.0580000008102506,0.0009960555,0.1,301.80853,1615936951000
Fix,GT,37.385703,-122.0837083,-0.057999999162741,0.0,0.1,301.8083,1615936952000
Fix,GT,37.385703,-122.0837083,-0.0580000009452924,0.0009960642,0.1,301.80844,1615936953000
Fix,GT,37.385703,-122.0837083,-0.058000000459142,0.0,0.1,301.8082,1615936954000
Fix,GT,37.385703,-122.0837083,-0.0579999994058162,0.0,0.1,301.8082,1615936955000
Fix,GT,37.385703,-122.0837083,-0.0579999988926574,0.0,0.099,301.8082,1615936956000
Fix,GT,37.385703,-122.0837083,-0.058000001296401,0.0,0.1,301.80826,1615936957000
Fix,GT,37.385703,-122.0837083,-0.0580000002160668,0.0,0.1,301.80817,1615936958000
Fix,GT,37.385703,-122.0837083,-0.0579999985685572,0.0,0.1,301.80835,1615936959000
Fix,GT,37.385703,-122.0837083,-0.0580000009587965,0.0,0.1,301.80835,1615936960000
Fix,GT,37.385703,-122.0837083,-0.0579999998784624,0.0009960986,0.1,301.8083,1615936961000
Fix,GT,37.385703,-122.0837083,-0.0579999988116324,3.89711e-06,0.1,301.8083,1615936962000
Fix,GT,37.385703,-122.0837083,-0.0580000012018717,0.0,0.1,301.80804,1615936963000
Fix,GT,37.385703,-122.0837083,-0.0580000001215375,0.0,0.1,301.80823,1615936964000
Fix,GT,37.385703,-122.0837083,-0.0579999990547075,0.0,0.1,301.80817,1615936965000
Fix,GT,37.385703,-122.0837083,-0.0580000002835877,0.001,0.1,301.8082,1615936966000
Fix,GT,37.385703,-122.0837083,-0.0579999992167577,0.0,0.099,301.80817,1615936967000
Fix,GT,37.385703,-122.0837083,-0.0580000010128133,0.0009961289,0.1,301.80814,1615936968000
Fix,GT,37.385703,-122.0837083,-0.0570038674375973,0.011656621,0.1,301.80975,1615936969000
Fix,GT,37.3857038,-122.0837099,-0.0670000000467989,0.60697293,0.1,301.80063,1615936970000
Fix,GT,37.3857101,-122.0837227,-0.0689999987629708,2.1516685,0.1,301.7636,1615936971000
Fix,GT,37.3857244,-122.0837511,-0.0739961440430488,3.8896062,0.099,302.05927,1615936972000
Fix,GT,37.3857471,-122.0837967,-0.090015401082579,5.5906205,0.1,301.87494,1615936973000
Fix,GT,37.3857779,-122.0838589,-0.0690038458337076,7.3130326,0.1,301.69498,1615936974000
Fix,GT,37.3858161,-122.0839363,-0.071999999128282,8.683217,0.1,301.61444,1615936975000
Fix,GT,37.3858602,-122.084026,-0.0719769777841865,10.003543,0.1,301.4899,1615936976000
Fix,GT,37.3859102,-122.0841284,-0.0719961654145736,11.221586,0.099,301.3544,1615936977000
Fix,GT,37.3859657,-122.0842421,-0.0720000008717179,12.386341,0.1,301.2528,1615936978000
Fix,GT,37.3860257,-122.0843659,-0.0530114712771028,13.090269,0.1,301.2788,1615936979000
Fix,GT,37.386088,-122.084493,-0.0539923622328788,13.326637,0.1,301.6656,1615936980000
Fix,GT,37.386152,-122.0846226,-0.0579923704452812,13.650103,0.1,301.66718,1615936981000
Fix,GT,37.3862179,-122.0847554,-0.0319771342924796,14.084312,0.1,301.8144,1615936982000
Fix,GT,37.386286,-122.0848924,-0.024007612762507,14.471929,0.099,301.91074,1615936983000
Fix,GT,37.3863556,-122.0850326,-0.021019012030214,14.815909,0.1,301.62686,1615936984000
Fix,GT,37.3864267,-122.0851774,-0.010977212062804,15.303217,0.1,301.5095,1615936985000
Fix,GT,37.3865,-122.0853263,0.0109999999282881,15.664426,0.1,301.5903,1615936986000
Fix,GT,37.386575,-122.0854783,-0.0020075787501409,15.981866,0.099,301.72754,1615936987000
Fix,GT,37.3866516,-122.0856331,-0.0290037855627015,16.190922,0.1,301.65503,1615936988000
Fix,GT,37.386728,-122.0857871,-0.0219962191688828,15.925482,0.1,301.82547,1615936989000
Fix,GT,37.386803,-122.085938,-0.0529924464724026,15.556181,0.1,301.82077,1615936990000
Fix,GT,37.3868765,-122.0860852,-0.0470000009629875,15.192711,0.1,302.00516,1615936991000
Fix,GT,37.3869481,-122.0862289,-0.0639849293204024,14.8309145,0.1,301.87018,1615936992000
Fix,GT,37.3870181,-122.0863691,-0.072015053730458,14.461009,0.1,301.77817,1615936993000
Fix,GT,37.3870861,-122.0865061,-0.0889962394237518,14.107821,0.1,301.7552,1615936994000
Fix,GT,37.3871524,-122.0866398,-0.1000300372475758,13.772662,0.1,301.6651,1615936995000
Fix,GT,37.3872169,-122.0867704,-0.1440112544680014,13.445354,0.1,301.6435,1615936996000
Fix,GT,37.3872796,-122.086898,-0.1740187315286603,13.100781,0.1,301.53955,1615936997000
Fix,GT,37.3873407,-122.0870222,-0.2129999938008841,12.753328,0.099,301.4273,1615936998000
Fix,GT,37.3873999,-122.0871434,-0.2400149536496028,12.418771,0.1,301.51483,1615936999000
Fix,GT,37.3874578,-122.0872612,-0.2599925315249711,12.084586,0.1,301.61206,1615937000000
Fix,GT,37.3875146,-122.087376,-0.2759850822500885,11.826582,0.1,301.864,1615937001000
Fix,GT,37.3875705,-122.087488,-0.3050223477946129,11.595889,0.1,301.85608,1615937002000
Fix,GT,37.387625,-122.0875981,-0.3260148748653009,11.309307,0.099,301.77533,1615937003000
Fix,GT,37.3876773,-122.0877029,-0.359000003343448,10.4608135,0.1,301.99112,1615937004000
Fix,GT,37.3877244,-122.0877972,-0.4000445387139916,9.202443,0.1,302.01276,1615937005000
Fix,GT,37.3877641,-122.0878764,-0.4190259498408995,7.252395,0.1,302.05856,1615937006000
Fix,GT,37.3877935,-122.087935,-0.4269999930406921,4.9753027,0.1,302.13754,1615937007000
Fix,GT,37.3878125,-122.0879729,-0.4240037095330189,3.0989385,0.1,302.01553,1615937008000
Fix,GT,37.3878239,-122.0879957,-0.4370036931238137,1.7327558,0.1,301.97583,1615937009000
Fix,GT,37.3878289,-122.0880058,-0.4469999991673976,0.3707762,0.1,301.95856,1615937010000
Fix,GT,37.3878293,-122.0880065,-0.4509999952747021,0.0020008702,0.1,301.95905,1615937011000
Fix,GT,37.3878293,-122.0880065,-0.4469999960451387,0.003150635,0.1,301.95865,1615937012000
Fix,GT,37.3878293,-122.0880065,-0.4469999877191148,0.002236068,0.099,301.95825,1615937013000
Fix,GT,37.3878293,-122.0880065,-0.4470000106156804,0.0010036732,0.1,301.95834,1615937014000
Fix,GT,37.3878293,-122.0880065,-0.4470000113442074,0.001,0.1,301.9582,1615937015000
Fix,GT,37.3878293,-122.0880065,-0.4470000119686592,0.001001518,0.1,301.95813,1615937016000
Fix,GT,37.3878293,-122.0880065,-0.4470000037467107,0.0014126974,0.1,301.95825,1615937017000
Fix,GT,37.3878293,-122.0880065,-0.4470000044752378,0.001,0.1,301.95807,1615937018000
Fix,GT,37.3878293,-122.0880065,-0.4470000050996895,0.0014090493,0.1,301.95804,1615937019000
Fix,GT,37.3878293,-122.0880065,-0.4470000058282167,0.0,0.1,301.95782,1615937020000
