MessageType,Provider,LatitudeDegrees,LongitudeDegrees,AltitudeMeters,SpeedMps,AccuracyMeters,BearingDegrees,UnixTimeMillis
Fix,GT,37.4443867,-122.2326733,11.580999654859305,0.001,0.1,302.5794,1609800004433
Fix,GT,37.4443867,-122.2326733,11.581000345140694,0.0012762502,0.1,302.57977,1609800005433
Fix,GT,37.4443867,-122.2326733,11.581999654829502,0.0006669268,0.1,302.5783,1609800006433
Fix,GT,37.4443867,-122.2326733,11.5820003451705,0.0018243669,0.1,302.5799,1609800007433
Fix,GT,37.4443867,-122.2326733,11.582,0.0019623302,0.1,302.58002,1609800008433
Fix,GT,37.4443867,-122.2326733,11.581999654829502,0.0014142136,0.1,302.5801,1609800009433
Fix,GT,37.4443867,-122.2326733,11.581999654829502,0.0014142136,0.1,302.58054,1609800010433
Fix,GT,37.4443867,-122.2326733,11.583,0.0011379637,0.1,302.58072,1609800011433
Fix,GT,37.4443867,-122.2326733,11.5829996547997,0.0026311278,0.099,302.58105,1609800012433
Fix,GT,37.4443867,-122.2326733,11.5830003452003,0.0036055516,0.1,302.5818,1609800013433
Fix,GT,37.4443879,-122.2326757,11.579,0.7936505,0.1,302.43546,1609800014433
Fix,GT,37.4443939,-122.2326924,11.577,2.327977,0.1,297.44275,1609800015433
Fix,GT,37.4444006,-122.2327229,11.60233307403326,3.0288513,0.1,287.56735,1609800016433
Fix,GT,37.4444015,-122.2327624,11.588,3.932694,0.1,272.5611,1609800017433
Fix,GT,37.4443911,-122.2328133,11.516338950365782,5.319613,0.1,254.2479,1609800018433
Fix,GT,37.4443625,-122.232871,11.325005440294744,6.5080986,0.1,235.27576,1609800019433
Fix,GT,37.4443165,-122.2329257,11.048005437791346,7.4617443,0.1,220.42276,1609800020433
Fix,GT,37.4442582,-122.2329738,10.69734317314625,7.963583,0.1,211.93886,1609800021433
Fix,GT,37.4441966,-122.2330228,10.332007766485216,8.185046,0.1,212.9858,1609800022433
Fix,GT,37.4441379,-122.2330794,10.033673437267542,8.28098,0.1,219.7145,1609800023433
Fix,GT,37.4440893,-122.2331475,9.83233850979805,7.7256193,0.1,230.97137,1609800024433
Fix,GT,37.444056,-122.2332171,9.611336179733277,7.001293,0.1,241.18939,1609800025433
Fix,GT,37.4440304,-122.2332898,9.392673137247565,7.0986395,0.1,247.9963,1609800026433
Fix,GT,37.4440156,-122.2333666,9.032680122375488,6.89881,0.1,258.93765,1609800027433
Fix,GT,37.4440156,-122.2334446,8.736339544802904,6.9792137,0.1,273.78958,1609800028433
Fix,GT,37.4440336,-122.2335229,8.570340835750102,7.870006,0.1,288.9344,1609800029433
Fix,GT,37.4440681,-122.2336114,8.344004129827024,9.321916,0.1,297.8714,1609800030433
Fix,GT,37.4441104,-122.2337036,8.190673379361629,9.44057,0.1,300.4849,1609800031433
Fix,GT,37.4441549,-122.2337942,7.979339282155037,9.40221,0.1,301.9185,1609800032433
Fix,GT,37.4442005,-122.2338835,7.79267103689909,9.355255,0.1,302.7484,1609800033433
Fix,GT,37.4442459,-122.2339704,7.6086723568439485,8.875464,0.1,303.34613,1609800034433
Fix,GT,37.4442866,-122.2340477,7.475338506221771,7.3615937,0.1,303.24213,1609800035433
Fix,GT,37.4443193,-122.2341109,7.334002327263356,6.0970793,0.1,302.38736,1609800036433
Fix,GT,37.4443455,-122.2341637,7.221001551508904,4.8503394,0.1,301.81393,1609800037433
Fix,GT,37.4443662,-122.2342057,7.146002327263355,3.9812312,0.1,301.80087,1609800038433
Fix,GT,37.4443824,-122.2342386,7.082666925251484,2.767108,0.1,301.6956,1609800039433
Fix,GT,37.4443923,-122.2342586,7.031667491286993,1.4620885,0.1,301.62503,1609800040433
Fix,GT,37.4443964,-122.2342667,7.008,0.30686545,0.1,301.59735,1609800041433
Fix,GT,37.4443967,-122.2342674,7.003666925251483,0.0021574397,0.1,301.60248,1609800042433
Fix,GT,37.4443967,-122.2342674,7.003,0.0014117031,0.1,301.6017,1609800043433
Fix,GT,37.4443967,-122.2342674,7.001666925251484,0.0012762495,0.1,301.60043,1609800044433
Fix,GT,37.4443967,-122.2342674,7.002,0.0006661498,0.1,301.5999,1609800045433
Fix,GT,37.4443968,-122.2342674,7.001,0.0024905144,0.1,301.60052,1609800046433
Fix,GT,37.4443968,-122.2342674,7.000999791353941,0.002,0.1,301.60065,1609800047433
Fix,GT,37.4443968,-122.2342674,7.000999791353941,0.0006661496,0.1,301.6009,1609800048433
Fix,GT,37.4443968,-122.2342674,7.000000208616257,0.0020786284,0.1,301.60086,1609800049433
Fix,GT,37.4443968,-122.2342674,7.0,0.002,0.1,301.60095,1609800050433
Fix,GT,37.4443968,-122.2342674,7.0,0.0016093242,0.1,301.60104,1609800051433
Fix,GT,37.4443968,-122.2342674,7.0,0.0016669253,0.1,301.60107,1609800052433
Fix,GT,37.4443968,-122.2342674,7.001,0.0013330749,0.1,301.60104,1609800053433
Fix,GT,37.4443967,-122.2342674,7.000999791353941,0.017377306,0.1,301.59833,1609800054433
Fix,GT,37.4443991,-122.2342725,6.975001551151276,1.4357245,0.1,301.37354,1609800055433
Fix,GT,37.444411,-122.2343026,6.905337729275226,4.414708,0.1,296.90683,1609800056433
Fix,GT,37.4444269,-122.2343617,6.921665374040604,6.160134,0.1,286.73267,1609800057433
Fix,GT,37.4444306,-122.2344369,7.0099968969821935,7.0777326,0.1,269.32797,1609800058433
Fix,GT,37.4444115,-122.2345182,7.1673297586441045,8.007908,0.1,247.70349,1609800059433
Fix,GT,37.4443641,-122.2346002,7.210664598464966,9.8339405,0.1,229.35184,1609800060433
Fix,GT,37.444291,-122.2346794,7.361326871693135,11.513251,0.1,216.4474,1609800061433
Fix,GT,37.4441944,-122.2347512,7.646657620370387,13.857248,0.1,208.73486,1609800062433
Fix,GT,37.4440725,-122.2348321,8.072653740406036,16.612757,0.1,207.58931,1609800063433
Fix,GT,37.4439342,-122.234922,8.660650121927262,17.76734,0.1,207.26578,1609800064433
Fix,GT,37.4437885,-122.2350171,9.065991470634938,18.712002,0.1,207.50443,1609800065433
Fix,GT,37.4436356,-122.2351183,9.36666382354498,19.592224,0.1,207.83739,1609800066433
Fix,GT,37.4434746,-122.2352251,9.502330748677254,20.91812,0.1,207.77704,1609800067433
Fix,GT,37.4433056,-122.2353384,9.6796614985466,21.486942,0.1,208.20837,1609800068433
Fix,GT,37.4431333,-122.2354552,9.904327168852092,21.996307,0.1,208.15074,1609800069433
Fix,GT,37.4429578,-122.2355739,10.22698962125182,22.217398,0.1,208.21886,1609800070433
Fix,GT,37.4427826,-122.2356917,10.7199806240201,21.876493,0.1,207.9865,1609800071433
Fix,GT,37.4426085,-122.2358071,11.520309829235076,21.901922,0.1,207.39801,1609800072433
Fix,GT,37.4424323,-122.2359212,12.609299359619616,22.07359,0.1,207.04216,1609800073433
Fix,GT,37.4422554,-122.236035,13.965965921878816,22.007994,0.1,207.18642,1609800074433
Fix,GT,37.4420803,-122.2361503,15.174637961685658,21.875336,0.1,207.92542,1609800075433
Fix,GT,37.4419084,-122.2362666,16.237307054519654,21.439041,0.1,208.51276,1609800076433
Fix,GT,37.441741,-122.2363834,17.19730805492401,21.182917,0.1,209.24266,1609800077433
Fix,GT,37.4415773,-122.2365035,18.054311419487,20.883823,0.1,210.89264,1609800078433
Fix,GT,37.4414206,-122.2366302,18.965306572794915,20.54635,0.1,213.98097,1609800079433
Fix,GT,37.4412709,-122.2367663,20.037636001467707,20.63877,0.1,217.4731,1609800080433
Fix,GT,37.4411289,-122.2369172,21.0743066482842,20.725618,0.1,222.40646,1609800081433
Fix,GT,37.4409962,-122.2370842,22.267969757437704,21.132463,0.1,227.00124,1609800082433
Fix,GT,37.4408697,-122.2372684,23.44596377009153,22.024755,0.1,230.83875,1609800083433
Fix,GT,37.4407473,-122.2374719,24.77529983317852,23.085304,0.1,234.50684,1609800084433
Fix,GT,37.4406288,-122.2376909,26.20330220741034,23.590393,0.1,236.47664,1609800085433
Fix,GT,37.4405113,-122.2379144,27.55263065671921,23.783484,0.1,235.9674,1609800086433
Fix,GT,37.4403867,-122.2381325,29.03162988507748,23.69037,0.1,232.70618,1609800087433
Fix,GT,37.4402539,-122.238343,30.33629925903677,23.840471,0.1,230.87297,1609800088433
Fix,GT,37.4401152,-122.2385495,31.538970520347355,23.958889,0.1,228.85739,1609800089433
Fix,GT,37.4399689,-122.2387512,32.75763627979159,24.30725,0.1,226.59094,1609800090433
Fix,GT,37.4398144,-122.2389497,33.95997378242016,24.801826,0.1,224.68228,1609800091433
Fix,GT,37.4396519,-122.239146,35.07764379584789,25.274424,0.1,222.73448,1609800092433
Fix,GT,37.4394813,-122.2393367,36.49529268676043,25.49628,0.1,220.61053,1609800093433
Fix,GT,37.4393023,-122.2395205,37.94562875840068,25.714176,0.1,217.57278,1609800094433
Fix,GT,37.4391176,-122.2396905,39.24363881370425,25.049597,0.1,214.9481,1609800095433
Fix,GT,37.4389326,-122.239846,40.34063730537891,24.465328,0.1,212.57928,1609800096433
Fix,GT,37.4387456,-122.2399899,41.345650748968126,24.117746,0.1,210.39189,1609800097433
Fix,GT,37.4385577,-122.2401225,41.9789815235138,23.832932,0.1,208.36499,1609800098433
Fix,GT,37.4383664,-122.2402452,42.51598972016573,23.862068,0.1,205.87988,1609800099433
Fix,GT,37.4381709,-122.2403588,42.90532384288311,24.002567,0.1,203.98064,1609800100433
Fix,GT,37.4379715,-122.2404654,43.13832717612386,24.018324,0.1,202.20738,1609800101433
Fix,GT,37.4377706,-122.2405658,43.29932794243097,24.021374,0.1,201.1056,1609800102433
Fix,GT,37.4375686,-122.2406633,43.35666793733835,24.0041,0.1,200.83812,1609800103433
Fix,GT,37.4373683,-122.2407613,43.66298769950866,23.631744,0.1,201.55438,1609800104433
Fix,GT,37.4371744,-122.2408635,44.0623215508461,23.081806,0.1,203.77704,1609800105433
Fix,GT,37.436989,-122.2409737,44.61865002524853,22.461435,0.1,206.5225,1609800106433
Fix,GT,37.4368147,-122.2410952,45.24398157072067,21.812668,0.1,211.35098,1609800107433
Fix,GT,37.4366552,-122.2412323,46.10130850499869,21.160814,0.1,217.09264,1609800108433
Fix,GT,37.4365127,-122.2413851,46.95964850181341,20.495293,0.1,223.36238,1609800109433
Fix,GT,37.4363879,-122.2415506,47.63598312616348,19.867622,0.1,228.7572,1609800110433
Fix,GT,37.436276,-122.2417209,48.38631237375736,19.186138,0.1,231.31651,1609800111433
Fix,GT,37.4361737,-122.2418896,49.22297853422165,18.30604,0.1,233.7611,1609800112433
Fix,GT,37.4360848,-122.2420566,49.93931314998865,17.241085,0.1,238.43274,1609800113433
Fix,GT,37.4360184,-122.2422255,50.589319288194176,16.186556,0.1,248.49231,1609800114433
Fix,GT,37.4359847,-122.2423972,51.17898697936535,15.337617,0.1,261.87677,1609800115433
Fix,GT,37.4359837,-122.2425666,51.628319294750696,14.956493,0.1,274.97006,1609800116433
Fix,GT,37.4360137,-122.242732,52.34731929802895,15.143985,0.1,287.35638,1609800117433
Fix,GT,37.4360615,-122.2428924,52.99865161764622,15.456709,0.1,291.8599,1609800118433
Fix,GT,37.4361211,-122.2430677,53.84864328843355,18.277294,0.1,293.83282,1609800119433
Fix,GT,37.4361962,-122.2432693,54.9759695173502,21.115482,0.1,295.68704,1609800120433
Fix,GT,37.4362854,-122.2434931,56.28596621149778,22.648764,0.099,297.04523,1609800121433
Fix,GT,37.4363819,-122.2437198,57.564632345616815,22.99668,0.1,298.92664,1609800122433
Fix,GT,37.4364895,-122.2439478,58.96729465734958,23.86472,0.1,302.0801,1609800123433
Fix,GT,37.4366116,-122.2441713,60.37029463282228,24.10352,0.1,306.62668,1609800124433
Fix,GT,37.4367494,-122.2443867,61.8696260369122,24.806467,0.1,310.0793,1609800125433
Fix,GT,37.4368997,-122.2445989,63.455626129001374,25.26809,0.1,312.44345,1609800126433
Fix,GT,37.4370564,-122.2448095,64.8736330268085,25.845469,0.1,313.11563,1609800127433
Fix,GT,37.4372168,-122.2450248,66.10163295969367,26.262661,0.1,312.77197,1609800128433
Fix,GT,37.4373788,-122.2452444,67.22230138430001,26.67796,0.099,312.74704,1609800129433
Fix,GT,37.4375444,-122.2454658,68.33330568683148,27.044918,0.1,313.41602,1609800130433
Fix,GT,37.4377134,-122.2456853,69.44297054830193,26.890232,0.1,314.24216,1609800131433
Fix,GT,37.4378826,-122.2459004,70.58197169798612,26.6106,0.1,314.62994,1609800132433
Fix,GT,37.4380507,-122.2461134,71.66664109140635,26.427814,0.1,314.5507,1609800133433
Fix,GT,37.4382176,-122.246326,72.78963883209228,26.442871,0.1,314.25653,1609800134433
Fix,GT,37.4383842,-122.2465407,73.89730129790306,26.575665,0.1,314.09286,1609800135433
Fix,GT,37.4385524,-122.2467567,75.0046381201148,26.901192,0.1,314.3004,1609800136433
Fix,GT,37.4387234,-122.2469751,76.07464040976762,27.277447,0.1,314.38867,1609800137433
Fix,GT,37.4388968,-122.2471971,77.19663892388343,27.630081,0.1,314.2262,1609800138433
Fix,GT,37.4390709,-122.2474205,78.30464202904702,27.699062,0.1,314.30084,1609800139433
Fix,GT,37.4392464,-122.2476441,79.41763583859802,27.833794,0.099,314.6214,1609800140433
Fix,GT,37.4394238,-122.2478684,80.53897446039319,28.10219,0.1,314.54932,1609800141433
Fix,GT,37.4396016,-122.2480954,81.65463656687736,28.153265,0.1,314.17664,1609800142433
Fix,GT,37.439778,-122.2483233,82.77397209763527,28.095234,0.1,313.95248,1609800143433
Fix,GT,37.4399541,-122.2485521,83.89630445289612,28.189686,0.1,313.8354,1609800144433
Fix,GT,37.4401308,-122.2487814,85.06496810773015,28.214405,0.1,313.99643,1609800145433
Fix,GT,37.4403072,-122.2490095,86.22130706590414,27.998373,0.1,314.0977,1609800146433
Fix,GT,37.4404821,-122.2492355,87.3259695855379,27.763521,0.1,314.00912,1609800147433
Fix,GT,37.4406551,-122.2494597,88.43597032988072,27.47522,0.1,313.85245,1609800148433
Fix,GT,37.4408257,-122.2496829,89.50697298693657,27.288853,0.1,313.5882,1609800149433
Fix,GT,37.4409962,-122.2499064,90.59263917958737,27.422531,0.1,313.66043,1609800150433
Fix,GT,37.4411673,-122.2501307,91.67697303199768,27.568417,0.1,313.62296,1609800151433
Fix,GT,37.4413401,-122.250356,92.77030187776684,27.792408,0.1,313.95352,1609800152433
Fix,GT,37.4415149,-122.250582,93.98930092608929,27.827122,0.1,314.07056,1609800153433
Fix,GT,37.4416887,-122.250807,95.2496355356574,27.580084,0.1,314.01028,1609800154433
Fix,GT,37.4418599,-122.2510296,96.4936391827762,27.184769,0.1,313.84537,1609800155433
Fix,GT,37.4420285,-122.2512511,97.73696799507736,27.101578,0.1,313.32794,1609800156433
Fix,GT,37.4421947,-122.2514759,98.9076400438249,27.040213,0.1,312.25946,1609800157433
Fix,GT,37.4423542,-122.251702,99.989643828243,26.375057,0.1,310.47095,1609800158433
Fix,GT,37.4425032,-122.2519292,101.0376416091323,25.662289,0.1,308.41086,1609800159433
Fix,GT,37.4426421,-122.2521559,102.03297166976331,24.946243,0.1,306.7419,1609800160433
Fix,GT,37.442772,-122.2523813,102.9889754740596,24.252628,0.1,305.06525,1609800161433
Fix,GT,37.4428942,-122.2526039,103.92231464710832,23.585983,0.1,304.0603,1609800162433
Fix,GT,37.4430099,-122.2528227,104.84497699928284,22.875416,0.1,303.06818,1609800163433
Fix,GT,37.4431182,-122.253038,105.74264541256429,22.192509,0.1,301.4533,1609800164433
Fix,GT,37.443219,-122.2532504,106.60398243391514,21.534353,0.1,300.07803,1609800165433
Fix,GT,37.4433122,-122.2534596,107.42131309711934,20.88583,0.1,298.50253,1609800166433
Fix,GT,37.4433985,-122.2536654,108.227980025053,20.25526,0.1,297.1278,1609800167433
Fix,GT,37.4434784,-122.2538668,109.01731711155176,19.545422,0.1,295.82434,1609800168433
Fix,GT,37.4435519,-122.2540636,109.78964517095686,18.923515,0.1,294.484,1609800169433
Fix,GT,37.4436203,-122.254258,110.52298483577373,18.812674,0.1,293.30313,1609800170433
Fix,GT,37.4436867,-122.2544573,111.2703105904162,19.48807,0.1,292.16873,1609800171433
Fix,GT,37.4437511,-122.2546618,112.0306451394558,19.333096,0.1,291.0067,1609800172433
Fix,GT,37.4438124,-122.2548676,112.78631056407096,19.611357,0.1,290.08307,1609800173433
Fix,GT,37.4438718,-122.2550777,113.55664437496662,19.912374,0.1,288.9851,1609800174433
Fix,GT,37.4439284,-122.2552924,114.3646436237693,20.074648,0.1,287.6942,1609800175433
Fix,GT,37.4439817,-122.2555092,115.17598577284814,19.962975,0.1,286.61328,1609800176433
Fix,GT,37.4440308,-122.2557232,115.93698087644576,19.490046,0.1,285.5196,1609800177433
Fix,GT,37.4440755,-122.2559358,116.70131122970582,19.425129,0.1,284.1466,1609800178433
Fix,GT,37.4441163,-122.2561472,117.460982360363,18.982204,0.1,283.21695,1609800179433
Fix,GT,37.4441528,-122.2563537,118.17464576143028,18.484812,0.1,281.8866,1609800180433
Fix,GT,37.4441848,-122.2565568,118.8373212080002,18.192854,0.1,280.61816,1609800181433
Fix,GT,37.4442132,-122.2567593,119.4599853181839,18.248306,0.1,279.54327,1609800182433
Fix,GT,37.444239,-122.2569647,120.05498174622656,18.608894,0.1,278.39743,1609800183433
Fix,GT,37.4442619,-122.257176,120.65131915819646,19.13363,0.1,277.22528,1609800184433
Fix,GT,37.444282,-122.2573933,121.24264863616229,19.515766,0.1,276.13126,1609800185433
Fix,GT,37.444299,-122.257611,121.81231989794968,19.125874,0.1,275.11075,1609800186433
Fix,GT,37.4443126,-122.2578248,122.348654458642,18.950102,0.1,274.01797,1609800187433
Fix,GT,37.444322,-122.2580382,122.82731771671772,18.804487,0.1,272.44855,1609800188433
Fix,GT,37.444327,-122.2582506,123.28031844070554,18.801384,0.1,271.05945,1609800189433
Fix,GT,37.4443279,-122.2584612,123.7049927137792,18.436733,0.1,269.78116,1609800190433
Fix,GT,37.4443259,-122.2586684,124.1009912252426,18.233395,0.1,268.84894,1609800191433
Fix,GT,37.4443213,-122.2588735,124.44332578283549,18.135002,0.1,267.9294,1609800192433
Fix,GT,37.4443136,-122.2590803,124.74766033554076,18.621887,0.1,266.77032,1609800193433
Fix,GT,37.4443022,-122.2592929,125.00265661275388,18.947144,0.099,265.67053,1609800194433
Fix,GT,37.4442881,-122.2595063,125.2159948914051,18.86617,0.1,264.85376,1609800195433
Fix,GT,37.444272,-122.259718,125.4033294429779,18.839422,0.1,264.27515,1609800196433
Fix,GT,37.4442551,-122.2599308,125.56432643160224,19.023054,0.1,264.2511,1609800197433
Fix,GT,37.4442379,-122.2601457,125.6896602486074,19.22326,0.1,264.18253,1609800198433
Fix,GT,37.4442206,-122.2603615,125.79299406579138,19.08558,0.1,264.2103,1609800199433
Fix,GT,37.4442039,-122.2605756,125.85599781650303,18.986753,0.1,264.3655,1609800200433
Fix,GT,37.4441875,-122.260789,125.93999781757591,19.00026,0.1,264.36133,1609800201433
Fix,GT,37.4441709,-122.2610034,126.03799709153176,19.111937,0.1,264.3539,1609800202433
Fix,GT,37.4441537,-122.2612189,126.17666703492404,19.249313,0.1,264.06247,1609800203433
Fix,GT,37.4441359,-122.2614376,126.31666327679156,19.765957,0.1,264.08475,1609800204433
Fix,GT,37.4441177,-122.2616632,126.46999260127544,20.30112,0.1,264.09933,1609800205433
Fix,GT,37.4440989,-122.2618943,126.57499332550168,20.793238,0.1,264.02414,1609800206433
Fix,GT,37.4440792,-122.2621298,126.71499259755016,21.131035,0.1,263.8916,1609800207433
Fix,GT,37.444059,-122.2623692,126.83966706469654,21.417604,0.1,263.83646,1609800208433
Fix,GT,37.4440392,-122.262611,126.9536640110612,21.59783,0.1,264.31577,1609800209433
Fix,GT,37.4440215,-122.2628532,127.0070016130507,21.405737,0.1,264.8569,1609800210433
Fix,GT,37.4440047,-122.2630922,127.08833398500084,21.024162,0.1,264.91928,1609800211433
Fix,GT,37.4439879,-122.2633271,127.2006654613614,20.832378,0.1,264.60345,1609800212433
Fix,GT,37.4439698,-122.263561,127.2819992773533,20.680231,0.1,264.2231,1609800213433
Fix,GT,37.4439515,-122.2637917,127.35899548205734,20.33547,0.1,264.1855,1609800214433
Fix,GT,37.4439348,-122.2640185,127.40633309268952,19.999392,0.1,265.06436,1609800215433
Fix,GT,37.4439223,-122.2642442,127.413000721395,20.132126,0.1,266.6541,1609800216433
Fix,GT,37.4439151,-122.2644732,127.38100144171716,20.448126,0.1,268.30066,1609800217433
Fix,GT,37.4439118,-122.2647061,127.35100072050096,20.796173,0.1,269.2711,1609800218433
Fix,GT,37.4439114,-122.2649432,127.29566383323072,21.190449,0.1,270.0812,1609800219433
Fix,GT,37.4439143,-122.2651849,127.23500215935708,21.5985,0.1,271.34634,1609800220433
Fix,GT,37.4439216,-122.265431,127.11900666591524,21.96208,0.1,272.60553,1609800221433
Fix,GT,37.4439338,-122.26568,126.98734119224548,22.18296,0.1,274.26752,1609800222433
Fix,GT,37.4439519,-122.2659304,126.80734334081411,22.323776,0.1,275.57898,1609800223433
Fix,GT,37.4439741,-122.2661825,126.5900012537241,22.593092,0.1,276.8096,1609800224433
Fix,GT,37.4440012,-122.2664376,126.32901094070075,22.953741,0.1,278.04803,1609800225433
Fix,GT,37.4440334,-122.2666959,126.04100717282296,23.32906,0.1,279.24933,1609800226433
Fix,GT,37.4440695,-122.266956,125.72634472683072,23.329159,0.1,280.31354,1609800227433
Fix,GT,37.4441096,-122.2672137,125.41267033052443,23.15038,0.099,281.3906,1609800228433
Fix,GT,37.4441533,-122.2674682,125.07801160132884,22.9549,0.1,282.76575,1609800229433
Fix,GT,37.4442018,-122.2677193,124.76134096336364,22.770191,0.1,284.091,1609800230433
Fix,GT,37.4442542,-122.267967,124.4600027243495,22.582878,0.1,285.46985,1609800231433
Fix,GT,37.4443118,-122.2682105,124.12000487470628,22.394985,0.1,287.19315,1609800232433
Fix,GT,37.4443741,-122.2684502,123.80333725720644,22.22037,0.1,288.5492,1609800233433
Fix,GT,37.4444402,-122.2686861,123.4793409423828,22.04627,0.1,289.81674,1609800234433
Fix,GT,37.4445103,-122.2689181,123.15900784093142,21.872711,0.1,291.33838,1609800235433
Fix,GT,37.4445843,-122.2691461,122.83400417494776,21.71266,0.1,292.54733,1609800236433
Fix,GT,37.4446612,-122.2693708,122.4460078291297,21.560791,0.1,293.6203,1609800237433
Fix,GT,37.4447405,-122.2695922,122.11634313592316,21.393288,0.1,294.43854,1609800238433
Fix,GT,37.4448219,-122.2698106,121.8466740102172,21.304934,0.1,295.46106,1609800239433
Fix,GT,37.4449069,-122.2700258,121.57200347876548,21.169113,0.1,296.7055,1609800240433
Fix,GT,37.4449946,-122.270237,121.30933948314188,20.992006,0.1,297.9583,1609800241433
Fix,GT,37.4450853,-122.2704439,121.0246725769639,20.806915,0.1,299.25397,1609800242433
Fix,GT,37.4451786,-122.2706465,120.78200136172772,20.635561,0.1,300.45868,1609800243433
Fix,GT,37.4452751,-122.2708471,120.59466755920648,20.940493,0.1,301.34946,1609800244433
Fix,GT,37.4453766,-122.2710513,120.45966973382237,21.647812,0.1,302.2273,1609800245433
Fix,GT,37.4454849,-122.2712594,120.36267190390824,22.348625,0.1,303.7963,1609800246433
Fix,GT,37.4456015,-122.2714701,120.26666473120451,23.041588,0.1,305.2477,1609800247433
Fix,GT,37.4457259,-122.2716833,120.26266690206528,23.715841,0.1,306.75513,1609800248433
Fix,GT,37.4458575,-122.2718977,120.30999788302182,24.048218,0.1,308.1292,1609800249433
Fix,GT,37.4459938,-122.2721093,120.4659964734912,24.113234,0.1,309.44022,1609800250433
Fix,GT,37.4461339,-122.2723179,120.66466055870056,24.171276,0.1,310.51276,1609800251433
Fix,GT,37.4462772,-122.2725239,120.89965985739232,24.208273,0.1,311.3074,1609800252433
Fix,GT,37.4464217,-122.2727289,121.21266276985406,24.217787,0.1,311.32043,1609800253433
Fix,GT,37.4465656,-122.2729354,121.55166278377176,24.317707,0.1,310.98828,1609800254433
Fix,GT,37.4467099,-122.273143,121.88832899543642,24.410402,0.1,310.93375,1609800255433
Fix,GT,37.4468543,-122.2733512,122.30398651754857,24.368431,0.1,310.87518,1609800256433
Fix,GT,37.4469971,-122.2735572,122.7666556645632,23.990654,0.1,311.01404,1609800257433
Fix,GT,37.4471389,-122.273761,123.24165496826171,23.913612,0.1,311.0401,1609800258433
Fix,GT,37.4472806,-122.2739645,123.7816528695822,23.880142,0.1,311.09494,1609800259433
Fix,GT,37.4474222,-122.2741662,124.38498597621916,23.638489,0.1,311.29822,1609800260433
Fix,GT,37.4475619,-122.2743656,125.015647762686,23.36232,0.1,311.16016,1609800261433
Fix,GT,37.4477002,-122.2745636,125.67498085072636,23.246262,0.1,311.0314,1609800262433
Fix,GT,37.4478378,-122.2747615,126.31865526336432,23.210327,0.1,311.2448,1609800263433
Fix,GT,37.447976,-122.2749583,126.98265459120272,23.225166,0.1,311.25824,1609800264433
Fix,GT,37.448115,-122.2751565,127.66365081357957,23.493979,0.1,311.2036,1609800265433
Fix,GT,37.448255,-122.275356,128.35831250515582,23.564888,0.1,311.28503,1609800266433
Fix,GT,37.4483959,-122.2755558,129.04698009118437,23.55304,0.099,311.48303,1609800267433
Fix,GT,37.4485357,-122.2757525,129.6976561010778,23.057636,0.1,311.7357,1609800268433
Fix,GT,37.4486729,-122.2759436,130.3439814568162,22.456806,0.1,312.018,1609800269433
Fix,GT,37.448807,-122.2761292,130.96998604774473,21.882526,0.1,312.10297,1609800270433
Fix,GT,37.4489373,-122.2763108,131.586315233022,21.412226,0.1,311.46176,1609800271433
Fix,GT,37.4490637,-122.2764941,132.1919860584736,21.54396,0.1,310.3326,1609800272433
Fix,GT,37.44919,-122.2766816,132.79299071761966,21.845879,0.1,309.96844,1609800273433
Fix,GT,37.4493168,-122.2768706,133.38231987035277,21.820816,0.1,309.9478,1609800274433
Fix,GT,37.4494428,-122.2770583,133.93164967867733,21.57753,0.1,310.0556,1609800275433
Fix,GT,37.4495677,-122.2772437,134.44498416319487,21.411108,0.099,310.13004,1609800276433
Fix,GT,37.4496919,-122.2774282,134.89398693799973,21.342318,0.1,309.7373,1609800277433
Fix,GT,37.4498143,-122.2776155,135.25398818010092,21.532587,0.1,308.94943,1609800278433
Fix,GT,37.4499372,-122.2778056,135.6669895760417,21.843994,0.1,308.99866,1609800279433
Fix,GT,37.4500625,-122.2779994,136.04199235773086,22.364643,0.1,308.91763,1609800280433
Fix,GT,37.4501915,-122.2781994,136.3903213981092,22.98762,0.1,308.89758,1609800281433
Fix,GT,37.4503227,-122.2784025,136.79599921900035,23.29137,0.1,308.98874,1609800282433
Fix,GT,37.4504568,-122.2786071,137.15599375528095,23.613508,0.1,309.67245,1609800283433
Fix,GT,37.4505943,-122.2788138,137.40832415345312,23.969446,0.099,309.54697,1609800284433
Fix,GT,37.4507323,-122.2790231,137.6236641251445,24.10653,0.1,309.45108,1609800285433
Fix,GT,37.4508709,-122.2792353,137.77766343450546,24.47317,0.1,308.9369,1609800286433
Fix,GT,37.4510091,-122.2794536,137.87933171766997,24.884573,0.1,307.83136,1609800287433
Fix,GT,37.451148,-122.2796808,137.91400341796876,25.893032,0.1,307.14517,1609800288433
Fix,GT,37.451293,-122.27992,137.96333652251957,27.399893,0.1,307.28494,1609800289433
Fix,GT,37.4514477,-122.2801699,138.01233241152764,28.300068,0.1,308.4173,1609800290433
Fix,GT,37.4516086,-122.2804193,137.98000069099663,28.393215,0.1,309.2162,1609800291433
Fix,GT,37.451771,-122.2806664,137.84234135565163,28.278936,0.1,309.4626,1609800292433
Fix,GT,37.4519336,-122.2809131,137.70999934673307,28.45068,0.099,309.51508,1609800293433
Fix,GT,37.4520986,-122.2811624,137.4910055193901,28.970642,0.1,309.62924,1609800294433
Fix,GT,37.4522673,-122.2814158,137.18833453056217,29.358044,0.1,309.9299,1609800295433
Fix,GT,37.4524392,-122.2816713,136.82733798402546,29.815197,0.1,310.4082,1609800296433
Fix,GT,37.4526177,-122.281928,136.39900964391234,30.510994,0.1,311.3931,1609800297433
Fix,GT,37.4528033,-122.2821903,135.89768127545716,31.581268,0.1,311.39175,1609800298433
Fix,GT,37.4529913,-122.2824605,135.3290184789598,31.81773,0.1,310.59985,1609800299433
Fix,GT,37.4531765,-122.2827333,134.68101443958284,31.598114,0.1,310.13364,1609800300433
Fix,GT,37.453359,-122.2830058,133.99235290274024,31.375149,0.1,309.67676,1609800301433
Fix,GT,37.4535384,-122.2832782,133.30868268978594,31.129631,0.1,309.29816,1609800302433
Fix,GT,37.4537154,-122.2835493,132.62201509571076,30.90049,0.1,309.14258,1609800303433
Fix,GT,37.4538911,-122.2838185,131.96168591454625,30.691566,0.1,309.31317,1609800304433
Fix,GT,37.4540666,-122.2840853,131.308682652235,30.49635,0.1,309.48795,1609800305433
Fix,GT,37.4542408,-122.2843503,130.60735274511575,30.272766,0.1,309.26044,1609800306433
Fix,GT,37.4544129,-122.2846139,129.96668125915528,30.04285,0.1,309.1758,1609800307433
Fix,GT,37.4545838,-122.2848756,129.30201186394692,29.809925,0.1,309.27438,1609800308433
Fix,GT,37.4547539,-122.2851347,128.65735128068923,29.596691,0.1,309.4169,1609800309433
Fix,GT,37.454923,-122.2853918,128.01201256000996,29.363197,0.1,309.30728,1609800310433
Fix,GT,37.4550898,-122.2856473,127.36301811388134,29.07402,0.1,309.26352,1609800311433
Fix,GT,37.4552554,-122.2859,126.6816784734726,28.79819,0.1,309.2843,1609800312433
Fix,GT,37.4554191,-122.2861504,126.04634671896696,28.546928,0.1,309.1577,1609800313433
Fix,GT,37.4555817,-122.2863988,125.36901496195792,28.335295,0.1,309.34433,1609800314433
Fix,GT,37.4557439,-122.286645,124.6290132716,28.219177,0.1,309.5026,1609800315433
Fix,GT,37.4559069,-122.2868899,123.91501629209516,28.23787,0.1,309.89316,1609800316433
Fix,GT,37.4560727,-122.2871338,123.2700115311146,28.574656,0.1,310.9963,1609800317433
Fix,GT,37.4562466,-122.2873754,122.80834124058484,29.014666,0.1,312.95068,1609800318433
Fix,GT,37.4564299,-122.2876126,122.44100812673568,29.460032,0.1,314.94443,1609800319433
Fix,GT,37.4566229,-122.2878456,122.20033284881713,30.094475,0.1,317.04187,1609800320433
Fix,GT,37.4568276,-122.288075,122.07133513641358,30.806858,0.1,319.16574,1609800321433
Fix,GT,37.4570418,-122.2882986,122.06466122752428,30.975279,0.099,321.07782,1609800322433
Fix,GT,37.4572627,-122.2885143,122.2093254175782,31.199636,0.1,322.7404,1609800323433
Fix,GT,37.4574901,-122.2887238,122.51932501834632,31.439098,0.1,324.4274,1609800324433
Fix,GT,37.4577244,-122.2889257,122.98799086707832,31.68138,0.1,326.5593,1609800325433
Fix,GT,37.4579661,-122.2891176,123.55898285773397,31.747822,0.099,328.79352,1609800326433
Fix,GT,37.4582143,-122.2892958,124.19465646922588,31.781437,0.1,331.40912,1609800327433
Fix,GT,37.4584685,-122.2894618,124.80431460759044,31.798203,0.1,333.32437,1609800328433
Fix,GT,37.4587264,-122.2896172,125.4776507743597,31.734154,0.1,335.06958,1609800329433
Fix,GT,37.4589873,-122.289763,126.15632103222607,31.696634,0.1,336.78687,1609800330433
Fix,GT,37.4592517,-122.2898975,126.8123190345764,31.651909,0.1,338.90753,1609800331433
Fix,GT,37.4595197,-122.2900193,127.377987275362,31.575531,0.1,341.168,1609800332433
Fix,GT,37.4597894,-122.2901284,128.03398728555442,31.372845,0.1,342.90555,1609800333433
Fix,GT,37.4600601,-122.290226,128.6813197375536,31.195402,0.1,344.78558,1609800334433
Fix,GT,37.4603323,-122.2903121,129.36165286278725,31.104618,0.1,346.8551,1609800335433
Fix,GT,37.4606063,-122.2903833,130.0356535447836,31.033287,0.1,349.61777,1609800336433
Fix,GT,37.4608826,-122.2904407,130.64365355181695,31.15972,0.1,351.80457,1609800337433
Fix,GT,37.461163,-122.2904816,131.24298733991384,31.57138,0.1,354.9211,1609800338433
Fix,GT,37.4614478,-122.2905055,131.86698668432237,31.769083,0.1,357.00253,1609800339433
Fix,GT,37.4617345,-122.2905204,132.6163191086948,31.94459,0.1,357.97775,1609800340433
Fix,GT,37.4620234,-122.2905313,133.4593158339858,32.232147,0.1,358.4561,1609800341433
Fix,GT,37.4623147,-122.2905392,134.17365495219826,32.40954,0.1,358.86578,1609800342433
Fix,GT,37.4626071,-122.2905469,134.8213158274293,32.48748,0.1,358.53513,1609800343433
Fix,GT,37.4628999,-122.2905554,135.47498608613014,32.531437,0.1,358.51895,1609800344433
Fix,GT,37.4631932,-122.2905649,136.1816557165086,32.591034,0.1,358.4119,1609800345433
Fix,GT,37.463486,-122.2905746,136.9663098458946,32.380283,0.099,358.4321,1609800346433
Fix,GT,37.463776,-122.2905855,137.92531394529342,32.01171,0.1,358.00412,1609800347433
Fix,GT,37.4640622,-122.2906009,138.74898200240733,31.576275,0.1,356.92624,1609800348433
Fix,GT,37.4643446,-122.2906236,139.21232453727723,31.238346,0.1,355.55927,1609800349433
Fix,GT,37.4646235,-122.2906542,139.6289879301488,30.905643,0.099,354.26624,1609800350433
Fix,GT,37.4648982,-122.2906925,140.01899627003073,30.405546,0.1,352.94403,1609800351433
Fix,GT,37.4651673,-122.2907379,140.33299276489018,29.874804,0.1,351.54318,1609800352433
Fix,GT,37.4654309,-122.2907906,140.63065833985803,29.365788,0.1,350.42914,1609800353433
Fix,GT,37.4656896,-122.2908462,140.87565440559388,28.884998,0.1,350.15216,1609800354433
Fix,GT,37.4659439,-122.2909016,141.1683236579597,28.401718,0.1,350.29022,1609800355433
Fix,GT,37.4661941,-122.2909551,141.51465639573337,27.918358,0.1,350.2886,1609800356433
Fix,GT,37.4664392,-122.2910083,141.85632168105244,27.193825,0.1,349.85822,1609800357433
Fix,GT,37.466675,-122.291064,142.20266457647085,26.065416,0.1,348.64297,1609800358433
Fix,GT,37.4669008,-122.2911255,142.33100130832196,25.228344,0.1,346.9609,1609800359433
Fix,GT,37.4671166,-122.2911913,142.14501142546536,24.087172,0.1,345.74387,1609800360433
Fix,GT,37.46732,-122.2912587,141.78433933767678,22.525427,0.1,344.74072,1609800361433
Fix,GT,37.4675102,-122.2913257,141.1536867506802,21.48457,0.1,343.86795,1609800362433
Fix,GT,37.4676921,-122.2913948,140.62668448352815,20.691343,0.1,342.30872,1609800363433
Fix,GT,37.4678654,-122.2914692,139.82801953363418,19.981377,0.1,340.16708,1609800364433
Fix,GT,37.4680312,-122.2915457,138.90135394084453,19.086937,0.1,339.55423,1609800365433
Fix,GT,37.4681843,-122.2916154,137.9556829253137,16.948767,0.099,340.3871,1609800366433
Fix,GT,37.4683186,-122.2916729,137.06035064888,14.5592,0.1,341.62817,1609800367433
Fix,GT,37.4684339,-122.2917187,136.35634544420242,12.336468,0.1,342.8563,1609800368433
Fix,GT,37.4685298,-122.2917547,135.9270118293464,9.804046,0.1,343.15387,1609800369433
Fix,GT,37.4686037,-122.2917856,135.69067076891662,7.582793,0.1,340.19974,1609800370433
Fix,GT,37.4686583,-122.2918146,135.59566413500906,5.4228053,0.099,335.95905,1609800371433
Fix,GT,37.4686902,-122.2918355,135.54000064611435,2.535592,0.1,332.42877,1609800372433
Fix,GT,37.4687018,-122.291844,135.52166284295916,0.6138416,0.1,330.9827,1609800373433
Fix,GT,37.4687031,-122.2918448,135.5106709201932,0.12777175,0.1,330.82642,1609800374433
Fix,GT,37.4687078,-122.2918485,135.5009959617555,1.3280692,0.099,330.306,1609800375433
Fix,GT,37.468725,-122.2918621,135.4973297243118,3.2953014,0.1,328.3144,1609800376433
Fix,GT,37.4687586,-122.2918958,135.54099660351872,5.9667664,0.1,319.96332,1609800377433
Fix,GT,37.4687934,-122.2919551,135.7643305490017,6.9882555,0.1,301.58966,1609800378433
Fix,GT,37.468806,-122.292038,135.94399871635437,7.700118,0.1,272.67642,1609800379433
Fix,GT,37.4687831,-122.2921267,135.9273331195712,9.037694,0.1,244.80878,1609800380433
Fix,GT,37.4687269,-122.2922156,135.9626655987501,11.012219,0.1,227.35437,1609800381433
Fix,GT,37.4686492,-122.29231,135.97866623985766,12.806741,0.1,223.4678,1609800382433
Fix,GT,37.4685645,-122.2924112,135.92433567750453,13.016117,0.1,223.45146,1609800383433
Fix,GT,37.4684785,-122.292516,135.74533886945247,13.770254,0.1,224.76642,1609800384433
Fix,GT,37.4683914,-122.2926317,135.43900553283095,14.347202,0.1,227.8595,1609800385433
Fix,GT,37.4683055,-122.2927555,134.999009560287,14.531568,0.1,228.89432,1609800386433
Fix,GT,37.4682192,-122.2928753,134.46401336938143,13.902988,0.1,226.93416,1609800387433
Fix,GT,37.4681347,-122.2929835,133.8376789611578,12.821766,0.1,224.86337,1609800388433
Fix,GT,37.4680573,-122.2930819,133.16134439522028,11.623411,0.1,226.3168,1609800389433
Fix,GT,37.467996,-122.2931797,132.44634771513938,10.57296,0.1,236.13452,1609800390433
Fix,GT,37.467963,-122.2932864,131.61602217590809,10.197537,0.1,256.28116,1609800391433
Fix,GT,37.4679717,-122.2934009,130.77867953526976,10.4219885,0.1,285.72284,1609800392433
Fix,GT,37.468023,-122.2935014,130.59066561305522,11.028687,0.1,309.007,1609800393433
Fix,GT,37.468098,-122.2935966,130.6323370160163,12.892267,0.1,315.9573,1609800394433
Fix,GT,37.468189,-122.2937035,130.79233123087883,14.264816,0.1,317.178,1609800395433
Fix,GT,37.4682864,-122.293814,130.97699055236578,14.962931,0.1,317.4721,1609800396433
Fix,GT,37.4683884,-122.2939304,131.46465163624288,15.625664,0.1,317.45554,1609800397433
Fix,GT,37.468495,-122.2940504,132.11631473580002,16.032145,0.1,318.35193,1609800398433
Fix,GT,37.4686051,-122.2941626,132.86665244293212,15.4337635,0.1,323.32858,1609800399433
Fix,GT,37.4687222,-122.2942469,133.65531096214056,14.624378,0.1,335.80228,1609800400433
Fix,GT,37.4688456,-122.2942872,134.56164896222947,13.980305,0.1,352.18304,1609800401433
Fix,GT,37.4689702,-122.2942788,135.55064344704152,14.004034,0.1,10.093994,1609800402433
Fix,GT,37.4690873,-122.2942223,136.4523131303191,14.087492,0.1,28.099548,1609800403433
Fix,GT,37.4691853,-122.2941218,137.30831564486027,14.223913,0.1,46.53131,1609800404433
Fix,GT,37.4692574,-122.2939846,138.16864443188908,15.013731,0.1,63.20401,1609800405433
Fix,GT,37.4692947,-122.2938225,139.07231319391727,15.09278,0.1,81.36859,1609800406433
Fix,GT,37.4692876,-122.2936545,140.00597840553525,15.04433,0.1,101.30994,1609800407433
Fix,GT,37.4692346,-122.2934961,140.81964527514577,15.640588,0.099,120.61078,1609800408433
Fix,GT,37.4691423,-122.2933561,141.5399833661318,16.735592,0.1,134.2226,1609800409433
Fix,GT,37.4690281,-122.2932214,142.14832072287797,17.995552,0.1,137.73447,1609800410433
Fix,GT,37.4689005,-122.2930816,142.66098583301903,19.833668,0.1,139.78122,1609800411433
Fix,GT,37.4687543,-122.2929343,143.05999628531933,21.780312,0.1,142.43774,1609800412433
Fix,GT,37.4685904,-122.2927828,142.99867120158672,23.404945,0.1,144.61688,1609800413433
Fix,GT,37.4684102,-122.2926314,142.8333410909772,24.618767,0.1,147.61179,1609800414433
Fix,GT,37.468215,-122.2924847,142.61300068745018,25.950834,0.1,150.14948,1609800415433
Fix,GT,37.4680041,-122.2923418,142.3846741992831,27.124424,0.1,152.84546,1609800416433
Fix,GT,37.4677816,-122.2922067,142.14633682441712,27.681622,0.1,155.21179,1609800417433
Fix,GT,37.4675512,-122.292078,141.9150061517954,28.321264,0.1,156.48065,1609800418433
Fix,GT,37.4673119,-122.2919508,141.58868031543494,29.539503,0.1,157.61646,1609800419433
Fix,GT,37.4670591,-122.2918255,141.32300851133465,30.702967,0.1,159.07178,1609800420433
Fix,GT,37.4667961,-122.2917061,141.05733926451205,31.410437,0.1,161.18713,1609800421433
Fix,GT,37.4665249,-122.2915961,140.73700674337147,31.805916,0.1,162.80194,1609800422433
Fix,GT,37.4662492,-122.2914952,140.3886742208004,31.957825,0.1,164.599,1609800423433
Fix,GT,37.4659704,-122.2914044,140.04200133299827,31.992783,0.1,166.13416,1609800424433
Fix,GT,37.4656897,-122.2913227,139.73633446529507,31.979422,0.1,167.59583,1609800425433
Fix,GT,37.4654074,-122.2912513,139.46600316852332,31.897865,0.1,169.36536,1609800426433
Fix,GT,37.4651253,-122.2911914,139.06834825339914,31.680504,0.1,171.38281,1609800427433
Fix,GT,37.4648422,-122.2911431,138.74633508864045,31.746567,0.1,173.00769,1609800428433
Fix,GT,37.4645573,-122.2911052,138.34767890790104,31.883183,0.1,174.81598,1609800429433
Fix,GT,37.4642703,-122.2910782,137.90634697088598,32.022476,0.1,176.50879,1609800430433
Fix,GT,37.4639815,-122.2910607,137.47167476654053,32.14631,0.1,177.66779,1609800431433
Fix,GT,37.4636917,-122.2910475,137.08601258450744,32.207546,0.1,178.01434,1609800432433
Fix,GT,37.4634014,-122.2910356,136.58767839074136,32.280315,0.1,178.17017,1609800433433
Fix,GT,37.4631103,-122.2910245,135.98767493107914,32.325157,0.1,178.18054,1609800434433
Fix,GT,37.4628205,-122.291013,135.39167958068847,32.021038,0.1,178.06885,1609800435433
Fix,GT,37.4625337,-122.2910015,134.84734099197388,31.674112,0.1,178.17139,1609800436433
Fix,GT,37.4622502,-122.2909904,134.5050020311773,31.287636,0.1,178.31476,1609800437433
Fix,GT,37.46197,-122.2909804,134.23667109012604,30.92463,0.1,178.28711,1609800438433
Fix,GT,37.4616931,-122.2909664,133.9290084397793,30.598324,0.1,176.95142,1609800439433
Fix,GT,37.4614193,-122.2909419,133.4343445763588,30.33678,0.1,174.71313,1609800440433
Fix,GT,37.4611485,-122.2909057,132.8296783043146,30.10516,0.1,173.34406,1609800441433
Fix,GT,37.4608802,-122.2908621,132.23201262962817,29.950954,0.1,171.84967,1609800442433
Fix,GT,37.4606142,-122.2908088,131.63667768597605,29.823454,0.1,169.91699,1609800443433
Fix,GT,37.460351,-122.2907442,131.02801591765882,29.690239,0.1,167.76099,1609800444433
Fix,GT,37.460091,-122.290668,130.49567887353896,29.576563,0.1,165.85889,1609800445433
Fix,GT,37.4598341,-122.2905812,129.8533508014679,29.522625,0.1,164.15112,1609800446433
Fix,GT,37.4595785,-122.2904845,129.25701319169997,29.728153,0.1,162.28876,1609800447433
Fix,GT,37.4593234,-122.2903775,128.67100755247475,29.997528,0.1,160.71606,1609800448433
Fix,GT,37.4590685,-122.2902603,128.1366776499152,30.272213,0.1,159.02972,1609800449433
Fix,GT,37.4588137,-122.2901313,127.546678840816,30.731098,0.1,156.91608,1609800450433
Fix,GT,37.458559,-122.2899882,126.89635127940775,31.224258,0.1,154.84094,1609800451433
Fix,GT,37.4583043,-122.2898312,126.2246744710803,31.741049,0.1,152.7345,1609800452433
Fix,GT,37.4580508,-122.2896597,125.59467942428589,32.202442,0.1,150.63873,1609800453433
Fix,GT,37.4577987,-122.2894763,124.99101135545968,32.33046,0.1,149.13165,1609800454433
Fix,GT,37.4575516,-122.2892851,124.46400955963136,32.0998,0.1,147.27924,1609800455433
Fix,GT,37.4573121,-122.2890834,124.0143428042829,31.916,0.1,145.05026,1609800456433
Fix,GT,37.4570803,-122.2888727,123.75833910548688,31.63646,0.1,142.97687,1609800457433
Fix,GT,37.4568558,-122.2886534,123.55366616752744,31.589151,0.1,141.12994,1609800458433
Fix,GT,37.4566367,-122.2884243,123.47133492469789,31.736364,0.1,139.27795,1609800459433
Fix,GT,37.456422,-122.2881854,123.54866328501704,31.944496,0.1,137.41638,1609800460433
Fix,GT,37.4562133,-122.2879361,123.79899712577463,32.0034,0.1,135.30426,1609800461433
Fix,GT,37.4560121,-122.2876771,124.1439959473014,31.982231,0.1,133.20007,1609800462433
Fix,GT,37.4558189,-122.2874092,124.59532299876211,31.951784,0.1,131.10492,1609800463433
Fix,GT,37.4556322,-122.2871342,125.03132597988844,31.96804,0.1,129.7663,1609800464433
Fix,GT,37.4554489,-122.286855,125.29165657421947,32.020912,0.1,129.19983,1609800465433
Fix,GT,37.455266,-122.2865755,125.67565733140704,31.949455,0.1,129.43646,1609800466433
Fix,GT,37.4550825,-122.286298,126.2586575241685,31.880592,0.1,129.70642,1609800467433
Fix,GT,37.4548993,-122.2860204,126.972978343457,31.89987,0.1,129.50027,1609800468433
Fix,GT,37.4547156,-122.2857424,127.680318846941,31.991512,0.1,129.6502,1609800469433
Fix,GT,37.4545314,-122.2854639,128.36465317654608,32.07452,0.1,129.4173,1609800470433
Fix,GT,37.4543477,-122.2851834,129.07698810410497,32.15697,0.1,129.20944,1609800471433
Fix,GT,37.4541639,-122.2849017,129.80565943679213,32.277542,0.1,129.27927,1609800472433
Fix,GT,37.453979,-122.2846198,130.48031617161632,32.250294,0.1,129.52344,1609800473433
Fix,GT,37.4537937,-122.2843404,131.17198574209215,32.131035,0.1,129.74701,1609800474433
Fix,GT,37.4536082,-122.2840603,131.88798515248297,32.322998,0.1,129.51068,1609800475433
Fix,GT,37.4534223,-122.2837774,132.62831374916436,32.539253,0.1,129.29962,1609800476433
Fix,GT,37.4532363,-122.2834922,133.35032464650274,32.61219,0.1,129.14417,1609800477433
Fix,GT,37.4530506,-122.2832067,134.00998694992066,32.67203,0.1,129.15302,1609800478433
Fix,GT,37.4528631,-122.28292,134.6193230576515,32.947353,0.1,129.39575,1609800479433
Fix,GT,37.4526736,-122.2826327,135.17265738463402,33.010883,0.1,129.68225,1609800480433
Fix,GT,37.4524828,-122.2823455,135.67398529750108,33.167236,0.1,129.6593,1609800481433
Fix,GT,37.452293,-122.2820582,136.11733008795977,32.784145,0.1,129.47458,1609800482433
Fix,GT,37.4521059,-122.2817734,136.48499696722627,32.607243,0.1,129.37433,1609800483433
Fix,GT,37.4519191,-122.2814884,136.77299875089523,32.69694,0.1,129.37329,1609800484433
Fix,GT,37.4517319,-122.2812022,137.010995860219,32.817795,0.1,129.14328,1609800485433
Fix,GT,37.4515443,-122.2809143,137.2176598187983,32.957848,0.1,129.2526,1609800486433
Fix,GT,37.4513559,-122.2806272,137.34600291126966,32.825676,0.1,129.56805,1609800487433
Fix,GT,37.4511673,-122.2803427,137.40567036768795,32.67729,0.1,129.80475,1609800488433
Fix,GT,37.4509787,-122.2800597,137.39799881863593,32.633446,0.1,129.7721,1609800489433
Fix,GT,37.4507912,-122.2797744,137.29133140647411,32.720486,0.099,129.14838,1609800490433
Fix,GT,37.4506055,-122.2794894,137.1633407639265,32.3844,0.1,129.21008,1609800491433
Fix,GT,37.4504216,-122.2792078,136.94033435955646,32.043507,0.1,129.17133,1609800492433
Fix,GT,37.4502401,-122.2789289,136.7070058889389,31.69062,0.1,129.1084,1609800493433
Fix,GT,37.4500606,-122.2786526,136.3783373130858,31.39431,0.1,129.16388,1609800494433
Fix,GT,37.4498824,-122.2783793,135.9426716349125,31.100468,0.1,129.349,1609800495433
Fix,GT,37.4497048,-122.2781092,135.54267105346918,30.881842,0.1,129.57904,1609800496433
Fix,GT,37.4495267,-122.2778397,135.01334429597856,31.176361,0.1,129.5368,1609800497433
Fix,GT,37.4493458,-122.2775662,134.49301173853874,31.689295,0.1,129.74493,1609800498433
Fix,GT,37.4491618,-122.2772917,133.84467918395995,31.739365,0.1,130.21191,1609800499433
Fix,GT,37.4489765,-122.2770183,133.13201524150372,31.789423,0.1,130.41507,1609800500433
Fix,GT,37.4487901,-122.2767449,132.32635070836542,31.904366,0.1,130.51447,1609800501433
Fix,GT,37.4486021,-122.2764707,131.4320142186284,32.13315,0.1,130.76154,1609800502433
Fix,GT,37.4484113,-122.2761953,130.5076799273193,32.42671,0.1,131.07568,1609800503433
Fix,GT,37.4482181,-122.2759184,129.59268824911118,32.706886,0.1,131.06671,1609800504433
Fix,GT,37.4480233,-122.2756387,128.66402193313837,33.00857,0.1,131.11075,1609800505433
Fix,GT,37.4478265,-122.275357,127.6970218821466,33.28261,0.1,131.1289,1609800506433
Fix,GT,37.4476282,-122.275073,126.73335556417705,33.531387,0.1,131.20026,1609800507433
Fix,GT,37.4474281,-122.2747874,125.77135552418233,33.735664,0.1,131.25464,1609800508433
Fix,GT,37.4472269,-122.2745003,124.81001920336485,33.940628,0.1,131.27097,1609800509433
Fix,GT,37.4470243,-122.2742115,123.86068003100158,34.055473,0.099,131.28107,1609800510433
Fix,GT,37.4468218,-122.2739235,123.01501452565194,33.929672,0.1,131.40839,1609800511433
Fix,GT,37.4466197,-122.2736364,122.28501219403742,33.85596,0.1,131.3305,1609800512433
Fix,GT,37.4464184,-122.2733496,121.7080123309493,33.700886,0.1,131.24338,1609800513433
Fix,GT,37.4462194,-122.2730647,121.38466787958146,33.329815,0.1,131.14508,1609800514433
Fix,GT,37.446023,-122.2727824,121.13200405591726,33.020527,0.1,131.1608,1609800515433
Fix,GT,37.4458286,-122.2725019,120.98600405216216,32.72956,0.1,130.54846,1609800516433
Fix,GT,37.4456404,-122.272219,120.86367277535795,32.4786,0.1,128.9927,1609800517433
Fix,GT,37.4454606,-122.2719311,120.79533429634571,32.240295,0.1,127.08417,1609800518433
Fix,GT,37.4452899,-122.271638,120.7996657048464,31.999615,0.1,125.16461,1609800519433
Fix,GT,37.4451282,-122.2713399,120.87466037261484,31.796873,0.1,123.1402,1609800520433
Fix,GT,37.4449749,-122.2710375,121.0419959653616,31.634163,0.1,121.83838,1609800521433
Fix,GT,37.444827,-122.2707331,121.3659942433834,31.428516,0.1,120.72702,1609800522433
Fix,GT,37.4446861,-122.2704266,121.68132491225003,31.181194,0.1,118.989716,1609800523433
Fix,GT,37.4445551,-122.2701168,122.0426588090658,30.879007,0.1,116.886475,1609800524433
Fix,GT,37.4444331,-122.2698041,122.4106613138318,30.758568,0.1,115.21161,1609800525433
Fix,GT,37.4443184,-122.2694866,122.69332396006584,30.920845,0.1,113.47583,1609800526433
Fix,GT,37.4442109,-122.2691646,123.00832935318353,30.821938,0.1,111.9263,1609800527433
Fix,GT,37.4441111,-122.2688404,123.44432488057018,30.705536,0.1,110.19241,1609800528433
Fix,GT,37.4440193,-122.268513,123.7673231564164,30.732876,0.099,108.57477,1609800529433
Fix,GT,37.4439342,-122.2681822,124.12366369220614,30.777267,0.1,107.178925,1609800530433
Fix,GT,37.4438553,-122.2678488,124.47732200455664,30.76152,0.1,105.75659,1609800531433
Fix,GT,37.4437841,-122.2675125,124.83432686185836,30.845226,0.1,103.91437,1609800532433
Fix,GT,37.4437216,-122.2671722,125.19099315428736,30.945093,0.1,101.92215,1609800533433
Fix,GT,37.4436679,-122.2668288,125.52666001737116,30.952703,0.1,100.3114,1609800534433
Fix,GT,37.4436214,-122.266484,125.8733268800974,30.985554,0.1,98.84149,1609800535433
Fix,GT,37.4435821,-122.266136,126.16932745319605,31.182789,0.1,97.16196,1609800536433
Fix,GT,37.4435511,-122.2657846,126.4619960191846,31.40784,0.1,95.547,1609800537433
Fix,GT,37.4435272,-122.2654307,126.6696623108387,31.376167,0.1,94.02405,1609800538433
Fix,GT,37.4435109,-122.2650773,126.8316645847559,31.276869,0.1,92.56607,1609800539433
Fix,GT,37.4435023,-122.2647238,126.96233087444304,31.359306,0.1,90.82709,1609800540433
Fix,GT,37.4435027,-122.2643685,126.99266628861427,31.50175,0.1,88.962524,1609800541433
Fix,GT,37.4435115,-122.2640117,126.9116662889719,31.6287,0.1,87.36426,1609800542433
Fix,GT,37.4435291,-122.2636552,126.91133862572909,31.586605,0.1,85.486694,1609800543433
Fix,GT,37.4435557,-122.2633001,126.87033162787556,31.557081,0.1,83.73923,1609800544433
Fix,GT,37.4435904,-122.2629457,126.61834370538593,31.641884,0.1,82.17001,1609800545433
Fix,GT,37.4436306,-122.2625907,126.27700414654612,31.850317,0.1,81.82709,1609800546433
Fix,GT,37.4436702,-122.2622327,125.91700245836375,32.135296,0.1,82.273346,1609800547433
Fix,GT,37.4437084,-122.2618711,125.56767249876262,32.41169,0.1,82.42108,1609800548433
Fix,GT,37.4437468,-122.261507,125.31434082904458,32.57276,0.1,82.28784,1609800549433
Fix,GT,37.4437859,-122.2611413,125.1100076751709,32.73439,0.1,82.20764,1609800550433
Fix,GT,37.4438265,-122.2607738,124.9116659477651,32.918896,0.1,81.76056,1609800551433
Fix,GT,37.443869,-122.2604049,124.69434136649969,32.96073,0.1,81.74896,1609800552433
Fix,GT,37.4439095,-122.2600376,124.38100304731726,32.722763,0.1,82.44125,1609800553433
Fix,GT,37.4439447,-122.2596708,123.94734101986886,32.699005,0.1,83.774994,1609800554433
Fix,GT,37.4439723,-122.2593027,123.43701011407376,32.74392,0.1,85.36496,1609800555433
Fix,GT,37.4439915,-122.2589331,122.91201066577436,32.822796,0.1,87.040436,1609800556433
Fix,GT,37.4440004,-122.258562,122.29467919164895,32.927765,0.1,89.47217,1609800557433
Fix,GT,37.4439972,-122.2581893,121.57335134476423,33.0287,0.1,91.53296,1609800558433
Fix,GT,37.4439829,-122.2578166,120.77402039533854,32.97024,0.1,94.08078,1609800559433
Fix,GT,37.4439557,-122.2574466,119.89068833047152,32.78993,0.1,96.27545,1609800560433
Fix,GT,37.4439186,-122.2570801,118.92701788902282,32.633644,0.1,97.99783,1609800561433
Fix,GT,37.4438735,-122.2567164,117.88668288898468,32.556774,0.099,99.77493,1609800562433
Fix,GT,37.4438184,-122.2563545,116.756354349792,32.65941,0.1,101.87341,1609800563433
Fix,GT,37.4437517,-122.2559945,115.55935655927658,32.79807,0.1,104.34491,1609800564433
Fix,GT,37.4436716,-122.2556377,114.23402562499048,32.818306,0.1,106.98657,1609800565433
Fix,GT,37.44358,-122.2552846,112.86869526511433,32.91545,0.1,108.94791,1609800566433
Fix,GT,37.4434792,-122.254934,111.5230288965404,33.041607,0.1,110.55127,1609800567433
Fix,GT,37.4433699,-122.2545859,110.18335485464334,33.196915,0.099,112.3815,1609800568433
Fix,GT,37.4432511,-122.2542409,108.84902497136594,33.337967,0.1,114.2536,1609800569433
Fix,GT,37.4431218,-122.2539001,107.48735599559546,33.45986,0.1,116.71771,1609800570433
Fix,GT,37.4429802,-122.2535652,106.13335544902084,33.637123,0.1,119.1351,1609800571433
Fix,GT,37.4428272,-122.2532361,104.77302488285304,33.83283,0.1,121.362366,1609800572433
Fix,GT,37.442663,-122.2529132,103.40569226193428,33.915764,0.1,123.670654,1609800573433
Fix,GT,37.4424882,-122.2525991,102.03902178820968,33.86136,0.1,126.04419,1609800574433
Fix,GT,37.4423051,-122.2522942,100.73001793771982,33.740948,0.1,127.86932,1609800575433
Fix,GT,37.4421142,-122.2519983,99.38002476215362,33.627384,0.1,129.8837,1609800576433
Fix,GT,37.4419154,-122.2517124,97.94868993872404,33.527195,0.1,132.31805,1609800577433
Fix,GT,37.4417097,-122.2514359,96.7483574499786,33.403267,0.1,133.40045,1609800578433
Fix,GT,37.4415022,-122.2511638,95.5393567276001,33.279953,0.1,133.89133,1609800579433
Fix,GT,37.441294,-122.2508939,94.2036932081282,33.188065,0.1,133.9491,1609800580433
Fix,GT,37.4410867,-122.2506243,92.86168924865127,33.09677,0.099,133.89789,1609800581433
Fix,GT,37.4408801,-122.2503552,91.5996870675385,33.012543,0.1,133.63574,1609800582433
Fix,GT,37.4406752,-122.2500855,90.26202077424529,32.92113,0.1,133.54242,1609800583433
Fix,GT,37.4404709,-122.2498166,88.96902241691947,32.827667,0.1,133.53116,1609800584433
Fix,GT,37.4402673,-122.2495482,87.65635339805483,32.74353,0.1,133.52798,1609800585433
Fix,GT,37.4400639,-122.2492807,86.3603591080606,32.660175,0.1,133.67096,1609800586433
Fix,GT,37.4398601,-122.2490153,85.1320228034258,32.58166,0.1,134.04852,1609800587433
Fix,GT,37.4396551,-122.2487518,83.86536025488377,32.577473,0.1,134.33643,1609800588433
Fix,GT,37.439449,-122.2484894,82.4006928395629,32.61713,0.1,134.69238,1609800589433
Fix,GT,37.4392415,-122.2482283,81.08235586637258,32.62379,0.1,134.93222,1609800590433
Fix,GT,37.4390336,-122.2479683,79.76502429544927,32.56165,0.1,135.00885,1609800591433
Fix,GT,37.4388262,-122.2477096,78.46402318489552,32.272446,0.1,135.12045,1609800592433
Fix,GT,37.4386214,-122.2474556,77.12502800035477,31.619068,0.1,135.59607,1609800593433
Fix,GT,37.4384179,-122.2472121,75.98068835604191,30.81912,0.1,136.98553,1609800594433
Fix,GT,37.4382151,-122.2469808,74.7133514136076,30.029503,0.1,138.52643,1609800595433
Fix,GT,37.4380126,-122.2467629,73.48069155836106,29.231236,0.1,139.95288,1609800596433
Fix,GT,37.4378121,-122.2465551,72.26602839553357,28.557812,0.1,140.52826,1609800597433
Fix,GT,37.4376153,-122.2463527,71.06601871496439,27.879269,0.1,140.6142,1609800598433
Fix,GT,37.4374241,-122.2461563,69.92868446660042,26.99695,0.1,140.67908,1609800599433
Fix,GT,37.4372392,-122.2459657,68.92068496990204,26.206615,0.1,140.61606,1609800600433
Fix,GT,37.4370583,-122.2457784,67.80168612143397,25.833069,0.099,140.48676,1609800601433
Fix,GT,37.4368818,-122.2455936,66.65335137552023,25.235146,0.1,139.97235,1609800602433
Fix,GT,37.4367099,-122.2454106,65.38535598754882,24.887016,0.1,139.40356,1609800603433
Fix,GT,37.4365421,-122.2452286,64.09535753959418,24.30584,0.1,138.83093,1609800604433
Fix,GT,37.4363811,-122.2450507,62.78768748772144,23.228611,0.1,138.36499,1609800605433
Fix,GT,37.4362282,-122.2448804,61.58568692409992,22.351505,0.1,138.376,1609800606433
Fix,GT,37.4360786,-122.2447151,60.43668636226654,21.829727,0.1,138.56992,1609800607433
Fix,GT,37.4359352,-122.2445568,59.365681401520966,20.320997,0.099,138.60913,1609800608433
Fix,GT,37.4358064,-122.2444147,58.50101315325499,17.767452,0.1,138.66058,1609800609433
Fix,GT,37.4356936,-122.24429,57.87901012775302,15.744415,0.1,138.46771,1609800610433
Fix,GT,37.4355947,-122.2441807,57.50400576579571,13.41637,0.1,138.60233,1609800611433
Fix,GT,37.4355133,-122.244091,57.29200432437658,10.641212,0.1,138.76382,1609800612433
Fix,GT,37.4354509,-122.2440226,57.16066618216038,7.6191177,0.1,138.88321,1609800613433
Fix,GT,37.4354089,-122.2439766,57.09800104296208,5.000316,0.1,138.9242,1609800614433
Fix,GT,37.4353816,-122.2439467,57.05266906100512,3.0803354,0.1,138.91815,1609800615433
Fix,GT,37.4353652,-122.2439286,56.99133302038908,2.1415477,0.1,138.91199,1609800616433
Fix,GT,37.4353493,-122.2439111,56.93666905516386,2.5826135,0.1,138.92813,1609800617433
Fix,GT,37.4353285,-122.2438882,56.89499933996797,3.7085767,0.1,138.9248,1609800618433
Fix,GT,37.4352976,-122.2438542,56.82367008331418,5.4253597,0.1,138.71451,1609800619433
Fix,GT,37.4352576,-122.2438045,56.72800206375122,6.908446,0.1,133.5727,1609800620433
Fix,GT,37.4352187,-122.2437369,56.52233728200197,7.8545637,0.1,122.99606,1609800621433
Fix,GT,37.4351906,-122.2436507,56.34800308382511,8.556162,0.1,107.655914,1609800622433
Fix,GT,37.4351846,-122.2435514,56.15333367538452,8.978602,0.1,87.84473,1609800623433
Fix,GT,37.4352111,-122.2434528,55.92333815282584,9.525492,0.1,64.21942,1609800624433
Fix,GT,37.4352597,-122.2433563,55.58200459998847,10.7185135,0.1,57.027832,1609800625433
Fix,GT,37.4353136,-122.2432492,55.23433979606629,11.694868,0.1,58.142,1609800626433
Fix,GT,37.4353704,-122.243132,54.83067345762253,12.461235,0.1,58.752136,1609800627433
Fix,GT,37.4354284,-122.2430104,54.40667182505131,12.581036,0.1,59.087708,1609800628433
Fix,GT,37.4354858,-122.2428897,54.00933916580677,12.056496,0.1,59.15381,1609800629433
Fix,GT,37.4355364,-122.2427817,53.62567451265454,10.016494,0.1,59.858368,1609800630433
Fix,GT,37.4355766,-122.2426938,53.29400462132692,8.150339,0.1,60.07715,1609800631433
Fix,GT,37.43561,-122.2426218,53.05800302803516,6.372571,0.1,59.494843,1609800632433
Fix,GT,37.4356345,-122.2425713,52.89033618706465,4.11177,0.1,58.644928,1609800633433
Fix,GT,37.4356504,-122.2425398,52.78033310106397,2.3331294,0.1,58.00049,1609800634433
Fix,GT,37.4356575,-122.2425258,52.72700207331777,0.8003218,0.1,57.576355,1609800635433
Fix,GT,37.4356597,-122.2425217,52.712,0.11442543,0.1,57.291534,1609800636433
Fix,GT,37.4356598,-122.2425216,52.71,0.0035519227,0.1,57.279907,1609800637433
Fix,GT,37.4356598,-122.2425216,52.71233473792672,0.001,0.1,57.278656,1609800638433
Fix,GT,37.4356598,-122.2425216,52.715,0.0012762111,0.1,57.2789,1609800639433
Fix,GT,37.4356598,-122.2425216,52.715,0.002,0.1,57.27939,1609800640433
Fix,GT,37.4356598,-122.2425216,52.715,0.0016880292,0.1,57.279846,1609800641433
Fix,GT,37.4356598,-122.2425216,52.71500157102943,0.0027454826,0.1,57.27945,1609800642433
Fix,GT,37.4356598,-122.2425216,52.715,0.0023331684,0.1,57.27948,1609800643433
Fix,GT,37.4356598,-122.2425216,52.71499842897058,0.0009999999,0.1,57.277863,1609800644433
Fix,GT,37.4356598,-122.2425216,52.715,0.0013331689,0.1,57.2782,1609800645433
Fix,GT,37.4356598,-122.2425216,52.715,0.0021574176,0.1,57.279297,1609800646433
Fix,GT,37.4356598,-122.2425216,52.715,0.0023872354,0.1,57.278778,1609800647433
Fix,GT,37.4356598,-122.2425216,52.715,0.002,0.1,57.276855,1609800648433
Fix,GT,37.4356598,-122.2425216,52.71499842897058,0.002,0.1,57.277985,1609800649433
Fix,GT,37.4356598,-122.2425216,52.71499842897058,0.00127621,0.1,57.27832,1609800650433
Fix,GT,37.4356598,-122.2425214,52.708,0.0018242467,0.1,57.27722,1609800651433
Fix,GT,37.4356599,-122.2425214,52.707,0.0011380039,0.1,57.276855,1609800652433
Fix,GT,37.4356599,-122.2425214,52.70700157079101,0.001138004,0.1,57.27658,1609800653433
Fix,GT,37.4356599,-122.2425214,52.707,0.001,0.1,57.276672,1609800654433
Fix,GT,37.4356599,-122.2425214,52.707,0.001,0.1,57.276703,1609800655433
Fix,GT,37.4356599,-122.2425214,52.70700000000001,0.001,0.1,57.276733,1609800656433
Fix,GT,37.4356599,-122.2425214,52.706998429208994,0.001,0.099,57.27664,1609800657433
Fix,GT,37.4356599,-122.2425214,52.70700157079101,0.001,0.1,57.27716,1609800658433
Fix,GT,37.4356599,-122.2425214,52.707,0.001,0.1,57.276825,1609800659433
Fix,GT,37.4356599,-122.2425214,52.707,0.001,0.1,57.276764,1609800660433
Fix,GT,37.4356599,-122.2425214,52.707,0.0013331729,0.1,57.27643,1609800661433
Fix,GT,37.4356599,-122.2425214,52.70700157079101,0.0010000002,0.1,57.276367,1609800662433
Fix,GT,37.4356599,-122.2425214,52.70700000000001,0.002,0.1,57.27658,1609800663433
Fix,GT,37.4356599,-122.2425214,52.707,0.001,0.1,57.27658,1609800664433
Fix,GT,37.4356599,-122.2425214,52.707,0.001,0.1,57.27646,1609800665433
Fix,GT,37.4356599,-122.2425214,52.706998429208994,0.001,0.1,57.27655,1609800666433
Fix,GT,37.4356599,-122.2425214,52.706998429208994,0.0003331741,0.1,57.27661,1609800667433
Fix,GT,37.4356599,-122.2425214,52.706,0.00066682574,0.1,57.277008,1609800668433
Fix,GT,37.4356599,-122.2425214,52.706,0.001,0.1,57.2771,1609800669433
Fix,GT,37.4356599,-122.2425214,52.7059984292388,0.001,0.099,57.2771,1609800670433
Fix,GT,37.4356599,-122.2425214,52.70600157076121,0.0021574162,0.1,57.277252,1609800671433
Fix,GT,37.4356599,-122.2425214,52.7059984292388,0.002078652,0.1,57.27716,1609800672433
Fix,GT,37.4356599,-122.2425214,52.706,0.003054067,0.1,57.2771,1609800673433
Fix,GT,37.4356599,-122.2425214,52.706,0.0025446583,0.1,57.27722,1609800674433
Fix,GT,37.4356599,-122.2425214,52.706,0.0033466325,0.1,57.27719,1609800675433
Fix,GT,37.4356599,-122.2425214,52.704665253520005,0.013273394,0.099,57.274384,1609800676433
Fix,GT,37.4356623,-122.2425178,52.67633569028973,1.0579937,0.1,56.414307,1609800677433
Fix,GT,37.4356774,-122.242501,52.59466871100664,3.2459106,0.1,45.260864,1609800678433
Fix,GT,37.435712,-122.242483,52.50299984917045,4.906858,0.1,22.28894,1609800679433
Fix,GT,37.4357645,-122.2424795,52.35533553075791,6.5421724,0.1,359.456,1609800680433
Fix,GT,37.4358275,-122.2425027,52.21600282096863,7.922625,0.1,338.93723,1609800681433
Fix,GT,37.4358897,-122.2425594,52.011330828666686,9.152911,0.1,317.813,1609800682433
Fix,GT,37.4359413,-122.2426524,52.243995776593685,10.861739,0.1,299.74634,1609800683433
Fix,GT,37.4359873,-122.2427705,52.58399343776704,12.661352,0.1,295.7095,1609800684433
Fix,GT,37.436043,-122.2429135,53.19299034574628,15.241323,0.1,295.9452,1609800685433
Fix,GT,37.4361072,-122.2430778,53.962320083022114,17.128265,0.1,296.05267,1609800686433
Fix,GT,37.4361789,-122.2432602,54.96665117263794,18.896927,0.1,296.27765,1609800687433
Fix,GT,37.4362592,-122.2434602,56.12664815169573,20.714828,0.1,296.90277,1609800688433
Fix,GT,37.4363497,-122.2436741,57.34098042595386,21.954777,0.1,298.9165,1609800689433
Fix,GT,37.4364526,-122.2438916,58.639647158592936,22.903381,0.1,302.0779,1609800690433
Fix,GT,37.4365716,-122.2441108,59.98897861933708,24.057226,0.1,306.24387,1609800691433
Fix,GT,37.4367092,-122.2443282,61.465310429811474,25.108475,0.1,310.0093,1609800692433
Fix,GT,37.4368618,-122.2445456,63.06630955675245,26.170269,0.1,312.1278,1609800693433
Fix,GT,37.4370247,-122.2447675,64.62564220467209,27.112446,0.1,312.7863,1609800694433
Fix,GT,37.4371922,-122.2449925,65.94131479030848,27.236013,0.1,313.0382,1609800695433
Fix,GT,37.4373596,-122.2452162,67.11231701791287,27.094501,0.1,313.23904,1609800696433
Fix,GT,37.4375273,-122.245438,68.22664975523949,27.00256,0.1,313.4973,1609800697433
