MessageType,Provider,LatitudeDegrees,LongitudeDegrees,AltitudeMeters,SpeedMps,AccuracyMeters,BearingDegrees,UnixTimeMillis
Fix,GT,37.3794574,-122.0720822,,0.010548146,0.1,300.98602,1609881147440
Fix,GT,37.3794574,-122.0720822,,0.011614576,0.1,300.98608,1609881148440
Fix,GT,37.3794574,-122.0720823,,0.012165525,0.1,300.98615,1609881149440
Fix,GT,37.3794575,-122.0720824,,0.013545798,0.1,300.98566,1609881150440
Fix,GT,37.3794575,-122.0720825,,0.014865444,0.1,300.98563,1609881151440
Fix,GT,37.3794575,-122.0720827,,0.020789223,0.1,300.98553,1609881152440
Fix,GT,37.3794571,-122.0720818,,0.21242392,0.1,301.09708,1609881153440
Fix,GT,37.3794556,-122.0720778,,0.53461313,0.1,302.89038,1609881154440
Fix,GT,37.3794539,-122.0720709,,0.73019457,0.1,308.51633,1609881155440
Fix,GT,37.3794513,-122.0720617,,0.93268275,0.1,318.45007,1609881156440
Fix,GT,37.3794467,-122.072051,,1.086905,0.1,331.71695,1609881157440
Fix,GT,37.3794395,-122.0720414,,1.1158397,0.1,346.08032,1609881158440
Fix,GT,37.3794307,-122.0720342,,1.0893383,0.1,0.29571533,1609881159440
Fix,GT,37.3794215,-122.0720304,,0.9004008,0.1,13.231537,1609881160440
Fix,GT,37.3794153,-122.0720295,,0.39706323,0.1,21.199371,1609881161440
Fix,GT,37.3794138,-122.0720299,,0.059733935,0.1,23.19336,1609881162440
Fix,GT,37.3794158,-122.0720294,,0.42953548,0.1,23.401825,1609881163440
Fix,GT,37.3794221,-122.0720253,,1.1649573,0.1,25.592041,1609881164440
Fix,GT,37.3794343,-122.0720156,,2.047697,0.1,30.075226,1609881165440
Fix,GT,37.379453,-122.0719998,,2.8837848,0.1,33.42108,1609881166440
Fix,GT,37.379476,-122.0719799,,3.1838462,0.1,35.234314,1609881167440
Fix,GT,37.3794986,-122.0719588,,3.0088673,0.1,37.473602,1609881168440
Fix,GT,37.3795182,-122.0719374,,2.7325563,0.1,41.756226,1609881169440
Fix,GT,37.3795327,-122.0719129,,2.6487756,0.1,52.774902,1609881170440
Fix,GT,37.3795386,-122.0718842,,2.4832973,0.1,72.487274,1609881171440
Fix,GT,37.3795354,-122.0718581,,2.0155306,0.1,92.765625,1609881172440
Fix,GT,37.3795298,-122.0718403,,1.4256926,0.1,104.80667,1609881173440
Fix,GT,37.3795259,-122.0718266,,1.382043,0.1,107.321686,1609881174440
Fix,GT,37.3795242,-122.0718086,,1.9538305,0.1,101.584045,1609881175440
Fix,GT,37.3795278,-122.0717821,,2.8778949,0.1,87.39981,1609881176440
Fix,GT,37.3795399,-122.0717489,,3.5125608,0.1,69.30777,1609881177440
Fix,GT,37.3795595,-122.0717183,,3.3650603,0.1,53.647736,1609881178440
Fix,GT,37.3795802,-122.071696,,2.6746948,0.1,42.987915,1609881179440
Fix,GT,37.3795963,-122.0716818,,1.6587921,0.1,38.031647,1609881180440
Fix,GT,37.3796043,-122.0716749,,0.5949283,0.1,37.194275,1609881181440
Fix,GT,37.3796065,-122.0716732,,0.07912284,0.1,37.202698,1609881182440
Fix,GT,37.3796067,-122.0716731,,0.025371768,0.1,37.20633,1609881183440
Fix,GT,37.3796067,-122.0716732,,0.01963229,0.1,37.2063,1609881184440
Fix,GT,37.3796068,-122.0716733,,0.017774414,0.1,37.206543,1609881185440
Fix,GT,37.3796068,-122.0716733,,0.01601481,0.1,37.20569,1609881186440
Fix,GT,37.3796068,-122.0716733,,0.015364129,0.1,37.20633,1609881187440
Fix,GT,37.3796068,-122.0716733,,0.015745379,0.1,37.20752,1609881188440
Fix,GT,37.3796068,-122.0716733,,0.014893156,0.1,37.207336,1609881189440
Fix,GT,37.3796068,-122.0716733,,0.014060454,0.1,37.207092,1609881190440
Fix,GT,37.3796072,-122.0716732,,0.15353249,0.1,37.203735,1609881191440
Fix,GT,37.3796085,-122.071672,,0.25313026,0.1,37.20114,1609881192440
Fix,GT,37.3796098,-122.0716709,,0.09128003,0.1,37.203003,1609881193440
Fix,GT,37.3796099,-122.0716708,,0.010914212,0.1,37.203278,1609881194440
Fix,GT,37.3796099,-122.0716708,,0.01029563,0.1,37.203217,1609881195440
Fix,GT,37.3796099,-122.0716708,,0.00954928,0.1,37.202637,1609881196440
Fix,GT,37.3796099,-122.0716708,,0.008253206,0.1,37.202362,1609881197440
Fix,GT,37.3796099,-122.0716708,,0.0078102495,0.1,37.202454,1609881198440
Fix,GT,37.3796099,-122.0716708,,0.0078102495,0.1,37.202454,1609881199440
Fix,GT,37.3796099,-122.0716708,,0.007921326,0.1,37.202545,1609881200440
Fix,GT,37.3796099,-122.0716708,,0.008300301,0.1,37.20276,1609881201440
Fix,GT,37.3796099,-122.0716708,,0.008364282,0.1,37.20288,1609881202440
Fix,GT,37.3796099,-122.0716708,,0.0076870974,0.1,37.20282,1609881203440
Fix,GT,37.3796099,-122.0716708,,0.007824305,0.1,37.202698,1609881204440
Fix,GT,37.3796099,-122.0716708,,0.007989122,0.1,37.20233,1609881205440
Fix,GT,37.3796099,-122.0716708,,0.0072111026,0.1,37.20221,1609881206440
Fix,GT,37.3796099,-122.0716708,,0.007475186,0.1,37.20227,1609881207440
Fix,GT,37.3796099,-122.0716708,,0.007546166,0.1,37.20227,1609881208440
Fix,GT,37.3796099,-122.0716708,,0.007211102,0.1,37.202484,1609881209440
Fix,GT,37.3796099,-122.0716708,,0.0072111026,0.1,37.20251,1609881210440
Fix,GT,37.3796099,-122.0716708,,0.0072111026,0.1,37.202637,1609881211440
Fix,GT,37.3796099,-122.0716708,,0.0072111026,0.1,37.20279,1609881212440
Fix,GT,37.3796099,-122.0716708,,0.0071493797,0.1,37.20276,1609881213440
Fix,GT,37.3796099,-122.0716708,,0.00713279,0.1,37.20288,1609881214440
Fix,GT,37.3796099,-122.0716708,,0.0072111026,0.1,37.203125,1609881215440
Fix,GT,37.3796099,-122.0716708,,0.0072111026,0.1,37.20331,1609881216440
Fix,GT,37.3796099,-122.0716708,,0.0072111026,0.1,37.203186,1609881217440
Fix,GT,37.3796099,-122.0716708,,0.006989442,0.1,37.202667,1609881218440
Fix,GT,37.3796099,-122.0716708,,0.006929864,0.1,37.2023,1609881219440
Fix,GT,37.3796099,-122.0716708,,0.0072111026,0.1,37.20218,1609881220440
Fix,GT,37.3796099,-122.0716708,,0.0072111026,0.1,37.20227,1609881221440
Fix,GT,37.3796099,-122.0716708,,0.0072111026,0.1,37.202362,1609881222440
Fix,GT,37.3796099,-122.0716708,,0.006602779,0.1,37.202393,1609881223440
Fix,GT,37.3796099,-122.0716708,,0.005830952,0.1,37.20224,1609881224440
Fix,GT,37.3796099,-122.0716708,,0.005464697,0.1,37.202087,1609881225440
Fix,GT,37.3796099,-122.0716708,,0.005,0.1,37.20218,1609881226440
Fix,GT,37.3796099,-122.0716708,,0.01739477,0.1,37.202118,1609881227440
Fix,GT,37.3796111,-122.0716694,,0.38085353,0.1,37.31778,1609881228440
Fix,GT,37.3796174,-122.0716609,,1.6408341,0.1,41.192505,1609881229440
Fix,GT,37.3796271,-122.0716358,,3.1907494,0.1,56.82846,1609881230440
Fix,GT,37.3796287,-122.071592,,4.4838686,0.1,83.48294,1609881231440
Fix,GT,37.3796146,-122.0715352,,6.0922375,0.1,106.43701,1609881232440
Fix,GT,37.3795872,-122.0714642,,7.83006,0.1,116.16504,1609881233440
Fix,GT,37.3795513,-122.0713785,,9.298042,0.1,117.7681,1609881234440
Fix,GT,37.3795094,-122.0712796,,10.55015,0.1,117.716125,1609881235440
Fix,GT,37.3794624,-122.0711678,,11.806131,0.1,117.600555,1609881236440
Fix,GT,37.3794105,-122.0710442,,12.892448,0.1,117.767975,1609881237440
Fix,GT,37.379354,-122.0709115,,13.688787,0.1,118.11145,1609881238440
Fix,GT,37.3792943,-122.0707729,,14.165729,0.1,118.35416,1609881239440
Fix,GT,37.3792328,-122.0706313,,14.301178,0.1,118.50037,1609881240440
Fix,GT,37.3791717,-122.0704899,,14.081421,0.1,118.22638,1609881241440
Fix,GT,37.3791132,-122.0703515,,13.653332,0.1,117.47452,1609881242440
Fix,GT,37.3790577,-122.0702167,,13.205506,0.1,117.074585,1609881243440
Fix,GT,37.3790039,-122.0700849,,13.09123,0.1,117.15875,1609881244440
Fix,GT,37.3789491,-122.0699519,,13.465209,0.1,117.33554,1609881245440
Fix,GT,37.3788922,-122.0698144,,13.9527855,0.1,117.38168,1609881246440
Fix,GT,37.3788334,-122.0696722,,14.355709,0.1,117.456665,1609881247440
Fix,GT,37.378773,-122.069528,,14.409198,0.1,117.838684,1609881248440
Fix,GT,37.3787129,-122.0693869,,13.831814,0.1,118.23193,1609881249440
Fix,GT,37.3786561,-122.0692555,,12.531768,0.1,118.48285,1609881250440
Fix,GT,37.378605,-122.0691386,,11.086241,0.1,118.813446,1609881251440
Fix,GT,37.3785593,-122.0690353,,9.907373,0.1,119.11853,1609881252440
Fix,GT,37.378517,-122.0689442,,8.716608,0.1,120.957245,1609881253440
Fix,GT,37.3784744,-122.0688689,,7.586685,0.1,128.51361,1609881254440
Fix,GT,37.378427,-122.0688174,,6.515229,0.1,144.18494,1609881255440
Fix,GT,37.3783755,-122.0687957,,5.8178463,0.1,166.74072,1609881256440
Fix,GT,37.378324,-122.0688039,,6.0742464,0.1,190.58846,1609881257440
Fix,GT,37.3782691,-122.0688355,,7.597312,0.1,205.3033,1609881258440
Fix,GT,37.3782017,-122.0688815,,9.384022,0.1,208.14456,1609881259440
Fix,GT,37.3781202,-122.0689308,,10.66449,0.1,204.41373,1609881260440
Fix,GT,37.3780254,-122.0689721,,11.706505,0.1,196.33163,1609881261440
Fix,GT,37.3779179,-122.0689942,,12.653803,0.1,185.82242,1609881262440
Fix,GT,37.377801,-122.0689916,,13.460212,0.1,175.47314,1609881263440
Fix,GT,37.3776794,-122.0689625,,14.194768,0.1,165.51764,1609881264440
Fix,GT,37.3775577,-122.0689044,,14.89625,0.1,155.43243,1609881265440
Fix,GT,37.3774391,-122.0688192,,15.566725,0.1,147.26306,1609881266440
Fix,GT,37.3773235,-122.0687137,,16.235304,0.1,142.0824,1609881267440
Fix,GT,37.3772087,-122.068595,,16.752563,0.1,139.39526,1609881268440
Fix,GT,37.3770931,-122.0684709,,17.028294,0.1,139.63632,1609881269440
Fix,GT,37.3769716,-122.0683508,,17.336937,0.1,143.2977,1609881270440
Fix,GT,37.3768389,-122.0682445,,17.673313,0.1,150.29852,1609881271440
Fix,GT,37.3766937,-122.0681605,,17.933664,0.1,158.5918,1609881272440
Fix,GT,37.3765376,-122.0681016,,18.345474,0.1,166.36664,1609881273440
Fix,GT,37.3763723,-122.0680666,,18.929302,0.1,173.14496,1609881274440
Fix,GT,37.3761992,-122.0680519,,19.600588,0.1,177.73499,1609881275440
Fix,GT,37.3760194,-122.0680491,,20.344639,0.1,180.1759,1609881276440
Fix,GT,37.375833,-122.0680534,,21.051266,0.1,181.65147,1609881277440
Fix,GT,37.3756407,-122.0680623,,21.675306,0.1,182.34482,1609881278440
Fix,GT,37.375443,-122.0680716,,22.253788,0.1,181.89755,1609881279440
Fix,GT,37.3752398,-122.0680778,,22.8522,0.1,180.9752,1609881280440
Fix,GT,37.3750311,-122.0680799,,23.492447,0.1,180.02802,1609881281440
Fix,GT,37.3748166,-122.0680768,,24.148724,0.1,178.6377,1609881282440
Fix,GT,37.3745968,-122.0680656,,24.654976,0.1,176.8031,1609881283440
Fix,GT,37.3743736,-122.0680443,,25.004505,0.1,174.6175,1609881284440
Fix,GT,37.3741489,-122.0680118,,25.239674,0.1,172.35797,1609881285440
Fix,GT,37.3739232,-122.067968,,25.439692,0.1,170.03076,1609881286440
Fix,GT,37.3736981,-122.0679117,,25.524204,0.1,167.4519,1609881287440
Fix,GT,37.3734746,-122.0678426,,25.623806,0.1,165.0119,1609881288440
Fix,GT,37.3732523,-122.0677615,,25.796522,0.1,162.70386,1609881289440
Fix,GT,37.3730311,-122.0676689,,26.008923,0.1,160.49036,1609881290440
Fix,GT,37.3728111,-122.0675647,,26.254162,0.1,158.18481,1609881291440
Fix,GT,37.372592,-122.0674485,,26.590572,0.1,156.0227,1609881292440
Fix,GT,37.3723728,-122.0673218,,26.989292,0.1,154.51447,1609881293440
Fix,GT,37.3721525,-122.0671883,,27.338291,0.1,153.94824,1609881294440
Fix,GT,37.37193,-122.0670526,,27.538107,0.1,154.0315,1609881295440
Fix,GT,37.3717059,-122.0669169,,27.71621,0.1,154.14856,1609881296440
Fix,GT,37.3714803,-122.0667804,,27.875862,0.1,154.14691,1609881297440
Fix,GT,37.3712542,-122.0666436,,27.833012,0.1,154.11407,1609881298440
Fix,GT,37.371029,-122.0665071,,27.699593,0.1,154.0747,1609881299440
Fix,GT,37.3708047,-122.0663708,,27.632383,0.1,153.98846,1609881300440
Fix,GT,37.3705811,-122.0662343,,27.622356,0.1,153.9383,1609881301440
Fix,GT,37.3703574,-122.0660978,,27.607357,0.1,153.97522,1609881302440
Fix,GT,37.3701337,-122.065962,,27.52092,0.1,154.08624,1609881303440
Fix,GT,37.3699109,-122.0658272,,27.410627,0.1,154.21582,1609881304440
Fix,GT,37.3696886,-122.0656933,,27.364878,0.1,154.21564,1609881305440
Fix,GT,37.3694663,-122.0655585,,27.467411,0.1,153.86786,1609881306440
Fix,GT,37.3692437,-122.0654209,,27.643305,0.1,153.43738,1609881307440
Fix,GT,37.36902,-122.0652815,,27.776375,0.1,153.56812,1609881308440
Fix,GT,37.3687947,-122.0651432,,27.905449,0.1,153.9939,1609881309440
Fix,GT,37.3685676,-122.0650058,,28.077765,0.1,154.21582,1609881310440
Fix,GT,37.3683388,-122.0648682,,28.272621,0.1,154.34552,1609881311440
Fix,GT,37.3681082,-122.0647297,,28.456184,0.1,154.23914,1609881312440
Fix,GT,37.3678765,-122.0645901,,28.608456,0.1,154.19202,1609881313440
Fix,GT,37.3676439,-122.0644499,,28.667927,0.1,154.25879,1609881314440
Fix,GT,37.3674108,-122.06431,,28.688251,0.1,154.31146,1609881315440
Fix,GT,37.3671777,-122.0641702,,28.685305,0.1,154.34497,1609881316440
Fix,GT,37.3669445,-122.0640306,,28.669762,0.1,154.45575,1609881317440
Fix,GT,37.3667109,-122.0638924,,28.671486,0.1,154.85663,1609881318440
Fix,GT,37.3664755,-122.0637587,,28.693768,0.1,156.22986,1609881319440
Fix,GT,37.3662369,-122.0636336,,28.749899,0.1,158.1742,1609881320440
Fix,GT,37.3659942,-122.0635188,,28.870506,0.1,160.27502,1609881321440
Fix,GT,37.3657468,-122.0634154,,29.004417,0.1,162.6543,1609881322440
Fix,GT,37.3654952,-122.0633247,,29.094585,0.1,164.98236,1609881323440
Fix,GT,37.3652403,-122.0632471,,29.166195,0.1,167.45288,1609881324440
Fix,GT,37.3649821,-122.0631825,,29.259026,0.1,169.69586,1609881325440
Fix,GT,37.3647215,-122.0631292,,29.311373,0.1,171.59113,1609881326440
Fix,GT,37.3644603,-122.0630873,,29.128563,0.1,173.64655,1609881327440
Fix,GT,37.3642008,-122.063058,,28.706861,0.1,175.84534,1609881328440
Fix,GT,37.3639446,-122.0630414,,28.27092,0.1,178.08899,1609881329440
Fix,GT,37.3636909,-122.0630369,,28.0726,0.1,179.98602,1609881330440
Fix,GT,37.3634372,-122.0630403,,28.327381,0.1,180.86519,1609881331440
Fix,GT,37.3631797,-122.0630461,,28.87003,0.1,181.0044,1609881332440
Fix,GT,37.3629172,-122.0630525,,29.362026,0.1,181.0561,1609881333440
Fix,GT,37.3626514,-122.0630592,,29.638268,0.1,181.05254,1609881334440
Fix,GT,37.3623832,-122.0630657,,29.906456,0.1,180.96178,1609881335440
Fix,GT,37.3621123,-122.0630719,,30.201263,0.1,180.92024,1609881336440
Fix,GT,37.3618395,-122.0630778,,30.341839,0.1,180.9547,1609881337440
Fix,GT,37.3615662,-122.0630844,,30.303474,0.1,181.08208,1609881338440
Fix,GT,37.3612937,-122.0630917,,30.189037,0.1,181.22447,1609881339440
Fix,GT,37.3610223,-122.0630996,,30.100903,0.1,181.19418,1609881340440
Fix,GT,37.3607514,-122.0631069,,30.048096,0.1,181.04213,1609881341440
Fix,GT,37.3604811,-122.063113,,29.96656,0.1,180.87547,1609881342440
Fix,GT,37.3602114,-122.063118,,29.914585,0.1,180.7173,1609881343440
Fix,GT,37.359942,-122.0631218,,29.900564,0.1,180.48195,1609881344440
Fix,GT,37.3596727,-122.0631238,,29.894379,0.1,180.06668,1609881345440
Fix,GT,37.3594035,-122.063122,,29.842243,0.1,179.10193,1609881346440
Fix,GT,37.3591355,-122.0631131,,29.702168,0.1,177.71399,1609881347440
Fix,GT,37.3588687,-122.0630965,,29.59872,0.1,176.544,1609881348440
Fix,GT,37.3586028,-122.0630733,,29.60859,0.1,175.37982,1609881349440
Fix,GT,37.358337,-122.0630433,,29.629555,0.1,174.20465,1609881350440
Fix,GT,37.3580716,-122.0630069,,29.610508,0.1,173.19958,1609881351440
Fix,GT,37.3578071,-122.0629645,,29.628666,0.1,172.13757,1609881352440
Fix,GT,37.3575427,-122.0629156,,29.692677,0.1,170.99359,1609881353440
Fix,GT,37.3572788,-122.0628601,,29.684608,0.1,169.88434,1609881354440
Fix,GT,37.3570165,-122.0627988,,29.542637,0.1,168.96472,1609881355440
Fix,GT,37.3567567,-122.0627331,,29.277546,0.1,168.10944,1609881356440
Fix,GT,37.3565008,-122.0626625,,28.878675,0.1,166.97504,1609881357440
Fix,GT,37.3562494,-122.0625864,,28.54298,0.1,165.818,1609881358440
Fix,GT,37.3560015,-122.0625052,,28.406322,0.1,164.81561,1609881359440
Fix,GT,37.3557556,-122.0624189,,28.232683,0.1,163.89777,1609881360440
Fix,GT,37.355513,-122.0623299,,27.836681,0.1,163.47351,1609881361440
Fix,GT,37.3552751,-122.0622409,,27.266846,0.1,163.20148,1609881362440
Fix,GT,37.3550428,-122.0621521,,26.63071,0.1,162.81683,1609881363440
Fix,GT,37.3548163,-122.0620641,,25.989445,0.1,162.69507,1609881364440
Fix,GT,37.3545952,-122.0619789,,25.363775,0.1,162.96814,1609881365440
Fix,GT,37.3543796,-122.0618973,,24.5132,0.1,163.12976,1609881366440
Fix,GT,37.3541751,-122.0618202,,22.734585,0.1,163.13135,1609881367440
Fix,GT,37.3539896,-122.0617503,,20.286472,0.1,163.17188,1609881368440
Fix,GT,37.3538233,-122.0616873,,18.41956,0.1,163.0282,1609881369440
Fix,GT,37.3536695,-122.0616283,,17.28833,0.1,162.8446,1609881370440
Fix,GT,37.3535246,-122.0615726,,16.241144,0.1,162.7544,1609881371440
Fix,GT,37.3533912,-122.0615208,,14.670401,0.1,162.60223,1609881372440
Fix,GT,37.3532721,-122.0614743,,13.053202,0.1,162.52246,1609881373440
Fix,GT,37.3531654,-122.0614327,,11.74645,0.1,162.76343,1609881374440
Fix,GT,37.3530693,-122.0613968,,10.484783,0.1,163.72375,1609881375440
Fix,GT,37.3529829,-122.0613674,,9.4307785,0.1,165.21008,1609881376440
Fix,GT,37.3529052,-122.0613433,,8.31954,0.1,166.22229,1609881377440
Fix,GT,37.3528377,-122.0613236,,7.014333,0.1,167.0495,1609881378440
Fix,GT,37.3527826,-122.0613087,,5.439738,0.1,167.91681,1609881379440
Fix,GT,37.3527423,-122.0612984,,3.6345549,0.1,168.4483,1609881380440
Fix,GT,37.3527173,-122.0612923,,2.0447621,0.1,168.7669,1609881381440
Fix,GT,37.3527051,-122.0612894,,0.767947,0.1,168.89154,1609881382440
Fix,GT,37.3527015,-122.0612886,,0.18447965,0.1,168.93188,1609881383440
Fix,GT,37.3526989,-122.061288,,0.45359668,0.1,168.95593,1609881384440
Fix,GT,37.352694,-122.0612868,,0.5856412,0.1,168.98944,1609881385440
Fix,GT,37.3526895,-122.0612857,,0.41960084,0.1,169.03052,1609881386440
Fix,GT,37.3526868,-122.0612851,,0.18682277,0.1,169.05774,1609881387440
Fix,GT,37.352686,-122.0612849,,0.03191562,0.1,169.06409,1609881388440
Fix,GT,37.3526859,-122.061285,,0.0013938211,0.1,169.06635,1609881389440
Fix,GT,37.3526859,-122.061285,,0.0022092215,0.1,169.0669,1609881390440
Fix,GT,37.352686,-122.061285,,0.0015448154,0.1,169.06696,1609881391440
Fix,GT,37.352686,-122.061285,,0.002236068,0.1,169.06702,1609881392440
Fix,GT,37.352686,-122.061285,,0.002236068,0.1,169.06702,1609881393440
Fix,GT,37.352686,-122.061285,,0.0021320176,0.1,169.06702,1609881394440
Fix,GT,37.352686,-122.061285,,0.002440765,0.1,169.06714,1609881395440
Fix,GT,37.352686,-122.0612849,,0.0025592353,0.1,169.06726,1609881396440
Fix,GT,37.352686,-122.0612849,,0.0015592352,0.1,169.06726,1609881397440
Fix,GT,37.352686,-122.0612849,,0.02226438,0.1,169.06818,1609881398440
Fix,GT,37.352684,-122.0612844,,0.5517342,0.1,169.1026,1609881399440
Fix,GT,37.3526738,-122.061282,,1.8815057,0.1,169.19788,1609881400440
Fix,GT,37.35265,-122.0612766,,3.48813,0.1,169.26611,1609881401440
Fix,GT,37.3526118,-122.0612675,,5.102438,0.1,169.26025,1609881402440
Fix,GT,37.3525602,-122.0612556,,6.4704943,0.1,169.3504,1609881403440
Fix,GT,37.3524985,-122.0612415,,7.373167,0.1,169.72412,1609881404440
Fix,GT,37.3524306,-122.0612269,,7.814455,0.1,170.32495,1609881405440
Fix,GT,37.3523606,-122.061212,,7.865472,0.1,170.1582,1609881406440
Fix,GT,37.3522922,-122.0611931,,7.661972,0.1,165.90527,1609881407440
Fix,GT,37.3522297,-122.0611618,,7.439377,0.1,154.73059,1609881408440
Fix,GT,37.3521767,-122.0611119,,7.5475554,0.1,139.08417,1609881409440
Fix,GT,37.3521354,-122.0610429,,7.999524,0.1,122.99609,1609881410440
Fix,GT,37.3521084,-122.0609576,,8.499625,0.1,107.900085,1609881411440
Fix,GT,37.3520965,-122.0608603,,9.143377,0.1,96.0029,1609881412440
Fix,GT,37.3520943,-122.0607533,,9.844454,0.1,90.37024,1609881413440
Fix,GT,37.3520951,-122.0606406,,9.929584,0.1,89.15073,1609881414440
Fix,GT,37.3520969,-122.0605333,,8.916523,0.1,88.5459,1609881415440
Fix,GT,37.3520991,-122.0604424,,7.133726,0.1,88.05765,1609881416440
Fix,GT,37.3521012,-122.0603736,,5.079909,0.1,87.69495,1609881417440
Fix,GT,37.3521029,-122.0603268,,3.2557616,0.1,87.438965,1609881418440
Fix,GT,37.352104,-122.060298,,1.9230771,0.1,87.22528,1609881419440
Fix,GT,37.3521046,-122.0602829,,0.83731323,0.1,87.1503,1609881420440
Fix,GT,37.3521048,-122.0602765,,0.3723503,0.1,87.1145,1609881421440
Fix,GT,37.352105,-122.0602722,,0.40057617,0.1,87.07611,1609881422440
Fix,GT,37.3521051,-122.0602686,,0.23059602,0.1,87.043,1609881423440
Fix,GT,37.3521052,-122.0602671,,0.05784146,0.1,87.02823,1609881424440
Fix,GT,37.3521052,-122.060267,,0.0023057878,0.1,87.02643,1609881425440
Fix,GT,37.3521052,-122.060267,,0.00062333484,0.1,87.02524,1609881426440
Fix,GT,37.3521052,-122.060267,,0.001231643,0.1,87.02515,1609881427440
Fix,GT,37.3521052,-122.060267,,0.0009999999,0.1,87.025085,1609881428440
Fix,GT,37.3521052,-122.060267,,0.0009999999,0.1,87.02472,1609881429440
Fix,GT,37.3521052,-122.060267,,0.001,0.1,87.024414,1609881430440
Fix,GT,37.3521052,-122.060267,,0.0011825706,0.1,87.02518,1609881431440
Fix,GT,37.3521052,-122.060267,,0.0012316431,0.1,87.02521,1609881432440
Fix,GT,37.3521052,-122.060267,,0.0010000002,0.1,87.02457,1609881433440
Fix,GT,37.3521052,-122.060267,,0.00055923586,0.1,87.02493,1609881434440
Fix,GT,37.3521052,-122.060267,,0.00044076424,0.1,87.025024,1609881435440
Fix,GT,37.3521052,-122.060267,,0.0011825706,0.1,87.0249,1609881436440
Fix,GT,37.3521052,-122.060267,,0.0012316431,0.1,87.02478,1609881437440
Fix,GT,37.3521052,-122.060267,,0.01564857,0.1,87.02487,1609881438440
Fix,GT,37.3521055,-122.0602649,,0.4348533,0.1,86.64157,1609881439440
Fix,GT,37.3521079,-122.0602552,,1.4647532,0.1,81.95389,1609881440440
Fix,GT,37.3521175,-122.0602344,,2.7680874,0.1,68.527466,1609881441440
Fix,GT,37.3521402,-122.0602069,,4.2865896,0.1,48.398346,1609881442440
Fix,GT,37.3521807,-122.0601821,,5.904023,0.1,26.233551,1609881443440
Fix,GT,37.3522396,-122.0601706,,7.5662775,0.1,6.623596,1609881444440
Fix,GT,37.3523136,-122.0601796,,9.126112,0.1,351.22934,1609881445440
Fix,GT,37.3523977,-122.0602124,,10.587821,0.1,339.94876,1609881446440
Fix,GT,37.3524911,-122.0602639,,12.11405,0.1,335.1446,1609881447440
Fix,GT,37.3525957,-122.0603256,,13.565894,0.1,334.65076,1609881448440
Fix,GT,37.3527116,-122.0603946,,14.864782,0.1,334.4495,1609881449440
Fix,GT,37.3528375,-122.0604694,,16.032269,0.1,334.686,1609881450440
Fix,GT,37.352973,-122.0605485,,17.12601,0.1,335.07315,1609881451440
Fix,GT,37.3531167,-122.0606314,,18.014568,0.1,335.33237,1609881452440
Fix,GT,37.3532673,-122.0607182,,18.77415,0.1,335.17523,1609881453440
Fix,GT,37.3534236,-122.0608104,,19.57761,0.1,334.45844,1609881454440
Fix,GT,37.3535852,-122.0609088,,20.35242,0.1,333.64822,1609881455440
Fix,GT,37.353752,-122.0610141,,21.128702,0.1,332.8802,1609881456440
Fix,GT,37.3539245,-122.0611253,,21.925312,0.1,332.61954,1609881457440
Fix,GT,37.3541035,-122.06124,,22.71051,0.1,333.00757,1609881458440
Fix,GT,37.3542897,-122.061357,,23.53532,0.1,333.51712,1609881459440
Fix,GT,37.3544839,-122.0614756,,24.417814,0.1,334.2641,1609881460440
Fix,GT,37.3546865,-122.0615944,,25.243896,0.1,335.36945,1609881461440
Fix,GT,37.3548978,-122.0617117,,26.009201,0.1,336.6893,1609881462440
Fix,GT,37.3551168,-122.0618254,,26.575268,0.1,338.12512,1609881463440
Fix,GT,37.355342,-122.0619342,,26.973225,0.1,339.51953,1609881464440
Fix,GT,37.3555722,-122.0620374,,27.30122,0.1,341.02515,1609881465440
Fix,GT,37.3558076,-122.0621339,,27.696398,0.1,342.5501,1609881466440
Fix,GT,37.3560488,-122.0622241,,28.165451,0.1,344.00317,1609881467440
Fix,GT,37.3562955,-122.062308,,28.524683,0.1,345.4476,1609881468440
Fix,GT,37.3565461,-122.062385,,28.722431,0.1,346.79642,1609881469440
Fix,GT,37.3567989,-122.0624554,,28.728506,0.1,347.97552,1609881470440
Fix,GT,37.3570521,-122.0625196,,28.613003,0.1,349.01157,1609881471440
Fix,GT,37.3573057,-122.062578,,28.657562,0.1,349.9785,1609881472440
Fix,GT,37.3575613,-122.0626315,,28.855137,0.1,350.8927,1609881473440
Fix,GT,37.3578186,-122.0626795,,28.84743,0.1,352.09064,1609881474440
Fix,GT,37.3580761,-122.0627203,,28.778854,0.1,353.27176,1609881475440
Fix,GT,37.3583336,-122.0627551,,28.736423,0.1,354.19113,1609881476440
Fix,GT,37.3585911,-122.0627847,,28.637447,0.1,355.225,1609881477440
Fix,GT,37.358848,-122.062808,,28.525606,0.1,356.41284,1609881478440
Fix,GT,37.3591045,-122.0628243,,28.49865,0.1,357.58972,1609881479440
Fix,GT,37.3593613,-122.0628338,,28.505589,0.1,358.839,1609881480440
Fix,GT,37.3596181,-122.0628368,,28.522465,0.1,359.90256,1609881481440
Fix,GT,37.3598758,-122.062835,,28.709995,0.1,0.47418213,1609881482440
Fix,GT,37.3601359,-122.0628309,,29.044088,0.1,0.7416687,1609881483440
Fix,GT,37.3603992,-122.0628258,,29.402607,0.1,0.8147888,1609881484440
Fix,GT,37.3606655,-122.0628206,,29.685665,0.1,0.7714844,1609881485440
Fix,GT,37.3609339,-122.0628158,,29.882183,0.1,0.7547302,1609881486440
Fix,GT,37.3612037,-122.0628104,,29.986855,0.1,0.87368774,1609881487440
Fix,GT,37.3614743,-122.0628043,,30.06342,0.1,0.94607544,1609881488440
Fix,GT,37.3617452,-122.0627982,,30.078136,0.1,0.87683105,1609881489440
Fix,GT,37.3620162,-122.0627926,,30.069801,0.1,0.87661743,1609881490440
Fix,GT,37.362287,-122.062787,,30.075802,0.1,0.85723877,1609881491440
Fix,GT,37.3625583,-122.0627818,,30.144875,0.1,0.65283203,1609881492440
Fix,GT,37.3628305,-122.0627779,,30.293613,0.1,0.5029907,1609881493440
Fix,GT,37.3631042,-122.0627737,,30.468681,0.1,0.7319336,1609881494440
Fix,GT,37.3633792,-122.0627686,,30.565325,0.1,0.8599243,1609881495440
Fix,GT,37.3636548,-122.0627646,,30.626331,0.1,0.3718567,1609881496440
Fix,GT,37.3639312,-122.0627662,,30.73995,0.1,358.9527,1609881497440
Fix,GT,37.3642082,-122.0627793,,30.79037,0.1,356.6405,1609881498440
Fix,GT,37.3644839,-122.062807,,30.627804,0.1,354.16202,1609881499440
Fix,GT,37.3647565,-122.0628489,,30.33775,0.1,351.81696,1609881500440
Fix,GT,37.3650245,-122.0629043,,29.976463,0.1,349.41672,1609881501440
Fix,GT,37.3652872,-122.0629724,,29.601194,0.1,347.208,1609881502440
Fix,GT,37.365545,-122.0630516,,29.367275,0.1,345.19797,1609881503440
Fix,GT,37.365799,-122.0631419,,29.298126,0.1,343.03094,1609881504440
Fix,GT,37.3660496,-122.0632446,,29.22478,0.1,340.6437,1609881505440
Fix,GT,37.3662954,-122.0633597,,29.011383,0.1,338.3234,1609881506440
Fix,GT,37.3665355,-122.0634851,,28.765991,0.1,336.47186,1609881507440
Fix,GT,37.366771,-122.0636175,,28.548061,0.1,335.24487,1609881508440
Fix,GT,37.3670032,-122.0637536,,28.369438,0.1,334.49872,1609881509440
Fix,GT,37.3672332,-122.0638914,,28.261578,0.1,334.22726,1609881510440
Fix,GT,37.3674624,-122.0640304,,28.330349,0.1,333.9694,1609881511440
Fix,GT,37.3676925,-122.0641718,,28.549088,0.1,333.63766,1609881512440
Fix,GT,37.3679238,-122.0643147,,28.665997,0.1,333.77866,1609881513440
Fix,GT,37.3681562,-122.0644568,,28.683384,0.1,333.98624,1609881514440
Fix,GT,37.3683886,-122.0645981,,28.627644,0.1,334.0767,1609881515440
Fix,GT,37.3686199,-122.0647378,,28.365433,0.1,334.31845,1609881516440
Fix,GT,37.3688493,-122.064875,,28.056236,0.1,334.44623,1609881517440
Fix,GT,37.3690763,-122.0650104,,27.752174,0.1,334.3493,1609881518440
Fix,GT,37.3693006,-122.0651453,,27.458923,0.1,334.20575,1609881519440
Fix,GT,37.3695226,-122.0652794,,27.266087,0.1,334.15027,1609881520440
Fix,GT,37.3697438,-122.0654134,,27.321909,0.1,334.0478,1609881521440
Fix,GT,37.3699662,-122.0655493,,27.65774,0.1,333.83435,1609881522440
Fix,GT,37.3701912,-122.0656874,,27.93909,0.1,333.80377,1609881523440
Fix,GT,37.3704177,-122.0658262,,28.045574,0.1,333.867,1609881524440
Fix,GT,37.3706453,-122.0659659,,28.19878,0.1,333.80457,1609881525440
Fix,GT,37.3708737,-122.0661059,,28.211876,0.1,333.95786,1609881526440
Fix,GT,37.3711024,-122.0662448,,28.212936,0.1,334.11563,1609881527440
Fix,GT,37.3713315,-122.066384,,28.276178,0.1,333.99872,1609881528440
Fix,GT,37.3715605,-122.0665233,,28.176933,0.1,334.0857,1609881529440
Fix,GT,37.3717886,-122.066661,,28.033432,0.1,334.2996,1609881530440
Fix,GT,37.3720161,-122.0667969,,27.912882,0.1,334.52155,1609881531440
Fix,GT,37.3722423,-122.0669311,,27.631557,0.1,334.67026,1609881532440
Fix,GT,37.3724667,-122.0670628,,27.413948,0.1,334.96896,1609881533440
Fix,GT,37.3726916,-122.067191,,27.489552,0.1,336.01996,1609881534440
Fix,GT,37.372921,-122.0673121,,27.772255,0.1,338.1457,1609881535440
Fix,GT,37.3731562,-122.0674213,,27.878262,0.1,340.91788,1609881536440
Fix,GT,37.373395,-122.0675164,,27.697563,0.1,343.6002,1609881537440
Fix,GT,37.3736348,-122.0675967,,27.412762,0.1,346.23468,1609881538440
Fix,GT,37.3738742,-122.0676622,,26.947033,0.1,348.79654,1609881539440
Fix,GT,37.3741107,-122.0677137,,26.276955,0.1,351.20682,1609881540440
Fix,GT,37.3743419,-122.0677511,,25.376263,0.1,353.8246,1609881541440
Fix,GT,37.3745649,-122.0677739,,24.226131,0.1,356.5373,1609881542440
Fix,GT,37.3747786,-122.067783,,23.3276,0.1,359.45767,1609881543440
Fix,GT,37.3749858,-122.0677756,,22.791977,0.1,3.5784302,1609881544440
Fix,GT,37.3751887,-122.0677492,,22.56097,0.1,7.518921,1609881545440
Fix,GT,37.375389,-122.0677108,,22.381523,0.1,9.295288,1609881546440
Fix,GT,37.375586,-122.0676679,,21.921293,0.1,10.111267,1609881547440
Fix,GT,37.3757765,-122.0676227,,20.932655,0.1,10.993988,1609881548440
Fix,GT,37.3759552,-122.067576,,19.583735,0.1,12.118164,1609881549440
Fix,GT,37.376121,-122.0675246,,18.496035,0.1,15.390991,1609881550440
Fix,GT,37.3762761,-122.0674581,,18.029825,0.1,21.644287,1609881551440
Fix,GT,37.3764205,-122.0673689,,17.741177,0.1,29.637451,1609881552440
Fix,GT,37.3765503,-122.0672561,,17.429718,0.1,38.354004,1609881553440
Fix,GT,37.376664,-122.0671233,,17.1201,0.1,45.983215,1609881554440
Fix,GT,37.3767617,-122.0669763,,16.853481,0.1,53.199707,1609881555440
Fix,GT,37.3768431,-122.0668168,,16.774784,0.1,60.128662,1609881556440
Fix,GT,37.3769116,-122.0666482,,16.70456,0.1,64.51666,1609881557440
Fix,GT,37.3769734,-122.0664778,,16.45402,0.1,66.00891,1609881558440
Fix,GT,37.3770318,-122.0663097,,15.951645,0.1,66.41351,1609881559440
Fix,GT,37.3770874,-122.06615,,14.813796,0.1,66.046265,1609881560440
Fix,GT,37.3771378,-122.0660062,,12.90828,0.1,66.39816,1609881561440
Fix,GT,37.3771776,-122.0658834,,10.483496,0.1,69.21384,1609881562440
Fix,GT,37.3772024,-122.0657843,,8.006711,0.1,74.978546,1609881563440
Fix,GT,37.3772133,-122.0657089,,5.624731,0.1,81.43231,1609881564440
Fix,GT,37.3772167,-122.0656564,,3.6594415,0.1,86.11328,1609881565440
Fix,GT,37.3772171,-122.065622,,2.5983005,0.1,88.53302,1609881566440
Fix,GT,37.3772169,-122.0655946,,2.4803998,0.1,89.725586,1609881567440
Fix,GT,37.377216,-122.0655615,,3.5079126,0.1,91.376465,1609881568440
Fix,GT,37.3772127,-122.065513,,5.070028,0.1,94.57587,1609881569440
Fix,GT,37.3772063,-122.0654486,,6.401623,0.1,96.89514,1609881570440
Fix,GT,37.3771989,-122.0653703,,7.5407534,0.1,96.56708,1609881571440
Fix,GT,37.3771915,-122.06528,,8.496771,0.1,95.651764,1609881572440
Fix,GT,37.3771829,-122.0651801,,9.261857,0.1,96.62848,1609881573440
Fix,GT,37.3771699,-122.0650736,,9.81329,0.1,99.790985,1609881574440
Fix,GT,37.3771495,-122.0649629,,10.326248,0.1,104.63446,1609881575440
Fix,GT,37.3771188,-122.0648489,,10.969714,0.1,110.42096,1609881576440
Fix,GT,37.3770784,-122.0647318,,11.625936,0.1,114.41913,1609881577440
Fix,GT,37.3770325,-122.0646102,,12.176819,0.1,115.37256,1609881578440
Fix,GT,37.3769849,-122.064485,,12.357288,0.1,115.39316,1609881579440
Fix,GT,37.3769375,-122.06436,,12.088998,0.1,115.26904,1609881580440
Fix,GT,37.3768922,-122.0642394,,11.379324,0.1,114.96704,1609881581440
Fix,GT,37.3768515,-122.0641291,,10.020141,0.1,114.66437,1609881582440
Fix,GT,37.3768168,-122.0640349,,8.457063,0.1,114.594666,1609881583440
Fix,GT,37.3767871,-122.0639546,,7.3240213,0.1,114.87134,1609881584440
Fix,GT,37.3767607,-122.0638846,,6.3986354,0.1,115.3013,1609881585440
Fix,GT,37.3767377,-122.0638241,,5.479475,0.1,115.39917,1609881586440
Fix,GT,37.3767184,-122.0637734,,4.3500624,0.1,115.24539,1609881587440
Fix,GT,37.3767049,-122.0637373,,2.6786592,0.1,115.08722,1609881588440
Fix,GT,37.3766979,-122.0637187,,1.0257131,0.1,115.028625,1609881589440
Fix,GT,37.3766961,-122.0637135,,0.16022432,0.1,115.010925,1609881590440
Fix,GT,37.376696,-122.0637133,,0.0021131707,0.1,115.01276,1609881591440
Fix,GT,37.3766959,-122.0637132,,0.002301043,0.1,115.01346,1609881592440
Fix,GT,37.3766959,-122.0637132,,0.0012316433,0.1,115.01404,1609881593440
Fix,GT,37.3766959,-122.0637132,,0.0015448139,0.1,115.01349,1609881594440
Fix,GT,37.3766959,-122.0637132,,0.0021320179,0.1,115.01251,1609881595440
Fix,GT,37.376696,-122.0637132,,0.002,0.1,115.01236,1609881596440
Fix,GT,37.376696,-122.0637132,,0.002,0.1,115.01233,1609881597440
Fix,GT,37.376696,-122.0637132,,0.002,0.1,115.01224,1609881598440
Fix,GT,37.376696,-122.0637132,,0.0021040502,0.1,115.01227,1609881599440
Fix,GT,37.376696,-122.0637132,,0.0018738244,0.1,115.01254,1609881600440
Fix,GT,37.376696,-122.0637132,,0.0016724069,0.1,115.012695,1609881601440
Fix,GT,37.376696,-122.0637132,,0.0015592364,0.1,115.01242,1609881602440
Fix,GT,37.376696,-122.0637132,,0.0014407637,0.1,115.01239,1609881603440
Fix,GT,37.376696,-122.0637132,,0.0015592364,0.1,115.0123,1609881604440
Fix,GT,37.376696,-122.0637132,,0.001,0.1,115.01224,1609881605440
Fix,GT,37.376696,-122.0637132,,0.001,0.1,115.012024,1609881606440
Fix,GT,37.376696,-122.0637132,,0.0014407637,0.1,115.01196,1609881607440
Fix,GT,37.376696,-122.0637132,,0.002,0.1,115.012024,1609881608440
Fix,GT,37.376696,-122.0637132,,0.002,0.1,115.012115,1609881609440
Fix,GT,37.376696,-122.0637132,,0.0021040505,0.1,115.01251,1609881610440
Fix,GT,37.376696,-122.0637132,,0.002236068,0.1,115.01288,1609881611440
Fix,GT,37.376696,-122.0637132,,0.0021320179,0.1,115.0126,1609881612440
Fix,GT,37.376696,-122.0637132,,0.0024407636,0.1,115.01239,1609881613440
Fix,GT,37.376696,-122.0637132,,0.0025592365,0.1,115.01239,1609881614440
Fix,GT,37.376696,-122.0637132,,0.0021040502,0.1,115.01242,1609881615440
Fix,GT,37.376696,-122.0637132,,0.0016912543,0.1,115.0126,1609881616440
Fix,GT,37.376696,-122.0637132,,0.0014407637,0.1,115.012695,1609881617440
Fix,GT,37.376696,-122.0637132,,0.002,0.1,115.012695,1609881618440
Fix,GT,37.376696,-122.0637132,,0.0021040502,0.1,115.01282,1609881619440
Fix,GT,37.376696,-122.0637132,,0.0026443074,0.1,115.01288,1609881620440
Fix,GT,37.376696,-122.0637132,,0.002649988,0.1,115.01282,1609881621440
Fix,GT,37.376696,-122.0637132,,0.0015592366,0.1,115.01288,1609881622440
Fix,GT,37.376696,-122.0637132,,0.0015448139,0.1,115.01291,1609881623440
Fix,GT,37.376696,-122.0637132,,0.0016912543,0.1,115.01285,1609881624440
Fix,GT,37.376696,-122.0637132,,0.001,0.1,115.01285,1609881625440
Fix,GT,37.376696,-122.0637132,,0.001,0.1,115.013,1609881626440
Fix,GT,37.376696,-122.0637132,,0.0011825704,0.1,115.013245,1609881627440
Fix,GT,37.376696,-122.0637132,,0.0012316433,0.1,115.01343,1609881628440
Fix,GT,37.376696,-122.0637132,,0.001,0.1,115.013275,1609881629440
Fix,GT,37.376696,-122.0637132,,0.001,0.1,115.01306,1609881630440
Fix,GT,37.376696,-122.0637132,,0.0011825702,0.1,115.01291,1609881631440
Fix,GT,37.376696,-122.0637132,,0.0012316433,0.1,115.01294,1609881632440
Fix,GT,37.376696,-122.0637132,,0.001,0.1,115.01303,1609881633440
Fix,GT,37.376696,-122.0637132,,0.001,0.1,115.013,1609881634440
Fix,GT,37.376696,-122.0637132,,0.001,0.1,115.013,1609881635440
Fix,GT,37.376696,-122.0637132,,0.0011825702,0.1,115.01312,1609881636440
Fix,GT,37.376696,-122.0637132,,0.0012316433,0.1,115.01312,1609881637440
Fix,GT,37.376696,-122.0637132,,0.0014407636,0.1,115.01312,1609881638440
Fix,GT,37.376696,-122.0637132,,0.0021040502,0.1,115.013214,1609881639440
Fix,GT,37.376696,-122.0637132,,0.002236068,0.1,115.013275,1609881640440
Fix,GT,37.376696,-122.0637132,,0.002236068,0.1,115.013306,1609881641440
Fix,GT,37.376696,-122.0637132,,0.0024971585,0.1,115.013336,1609881642440
Fix,GT,37.376696,-122.0637132,,0.0022050934,0.1,115.013306,1609881643440
Fix,GT,37.376696,-122.0637132,,0.0012316434,0.1,115.013214,1609881644440
Fix,GT,37.376696,-122.0637132,,0.0014407636,0.1,115.01309,1609881645440
Fix,GT,37.376696,-122.0637132,,0.002,0.1,115.01303,1609881646440
Fix,GT,37.376696,-122.0637132,,0.0021040502,0.1,115.01294,1609881647440
Fix,GT,37.376696,-122.0637132,,0.0016912543,0.1,115.01279,1609881648440
Fix,GT,37.376696,-122.0637132,,0.001,0.1,115.01294,1609881649440
Fix,GT,37.376696,-122.0637132,,0.0015448137,0.1,115.01297,1609881650440
Fix,GT,37.376696,-122.0637132,,0.0021320179,0.1,115.01297,1609881651440
Fix,GT,37.376696,-122.0637132,,0.0021040502,0.1,115.01294,1609881652440
Fix,GT,37.376696,-122.0637132,,0.0016912543,0.1,115.01306,1609881653440
Fix,GT,37.376696,-122.0637132,,0.001,0.1,115.01312,1609881654440
Fix,GT,37.376696,-122.0637132,,0.0014407636,0.1,115.01312,1609881655440
Fix,GT,37.376696,-122.0637132,,0.0021040502,0.1,115.01318,1609881656440
Fix,GT,37.376696,-122.0637132,,0.002236068,0.1,115.01312,1609881657440
Fix,GT,37.376696,-122.0637132,,0.002236068,0.1,115.01306,1609881658440
Fix,GT,37.376696,-122.0637132,,0.0016912543,0.1,115.01306,1609881659440
Fix,GT,37.376696,-122.0637132,,0.0014407636,0.1,115.01306,1609881660440
Fix,GT,37.376696,-122.0637132,,0.0017418067,0.1,115.01306,1609881661440
Fix,GT,37.376696,-122.0637132,,0.0012316434,0.1,115.01303,1609881662440
Fix,GT,37.376696,-122.0637132,,0.001,0.1,115.01314,1609881663440
Fix,GT,37.376696,-122.0637132,,0.001,0.1,115.01318,1609881664440
Fix,GT,37.376696,-122.0637132,,0.001,0.1,115.01315,1609881665440
Fix,GT,37.376696,-122.0637132,,0.001,0.1,115.01303,1609881666440
Fix,GT,37.376696,-122.0637132,,0.001,0.1,115.01303,1609881667440
Fix,GT,37.376696,-122.0637132,,0.001,0.1,115.01309,1609881668440
Fix,GT,37.376696,-122.0637132,,0.0011825702,0.1,115.01306,1609881669440
Fix,GT,37.376696,-122.0637132,,0.0012316434,0.1,115.01315,1609881670440
Fix,GT,37.376696,-122.0637132,,0.001,0.1,115.01318,1609881671440
Fix,GT,37.376696,-122.0637132,,0.0015448136,0.1,115.01318,1609881672440
Fix,GT,37.376696,-122.0637132,,0.0016912543,0.1,115.01309,1609881673440
Fix,GT,37.376696,-122.0637132,,0.0014407635,0.1,115.01306,1609881674440
Fix,GT,37.376696,-122.0637132,,0.002,0.1,115.01312,1609881675440
Fix,GT,37.376696,-122.0637132,,0.0025122897,0.1,115.01404,1609881676440
Fix,GT,37.376696,-122.0637132,,0.0033576565,0.1,115.01529,1609881677440
Fix,GT,37.376696,-122.0637132,,0.0028978828,0.1,115.01544,1609881678440
Fix,GT,37.376696,-122.0637132,,0.002,0.1,115.01532,1609881679440
Fix,GT,37.376696,-122.0637132,,0.0027076686,0.1,115.014435,1609881680440
Fix,GT,37.376696,-122.0637132,,0.003001933,0.1,115.013306,1609881681440
Fix,GT,37.3766959,-122.063713,,0.102807984,0.1,115.01184,1609881682440
Fix,GT,37.3766946,-122.0637092,,0.7605129,0.1,114.91107,1609881683440
Fix,GT,37.3766907,-122.0636953,,1.8572012,0.1,112.27252,1609881684440
Fix,GT,37.3766888,-122.0636698,,2.677285,0.1,100.42047,1609881685440
Fix,GT,37.3766979,-122.0636387,,3.2111669,0.1,75.065796,1609881686440
Fix,GT,37.3767225,-122.0636174,,3.5223618,0.1,39.115295,1609881687440
Fix,GT,37.3767553,-122.0636214,,4.064996,0.1,358.8022,1609881688440
Fix,GT,37.3767862,-122.0636551,,5.4560113,0.1,321.59595,1609881689440
Fix,GT,37.376814,-122.0637175,,7.532193,0.1,299.04922,1609881690440
Fix,GT,37.3768456,-122.0638066,,9.787033,0.1,293.7939,1609881691440
Fix,GT,37.3768846,-122.0639184,,11.82024,0.1,293.44662,1609881692440
Fix,GT,37.3769303,-122.0640506,,13.6956835,0.1,293.36118,1609881693440
Fix,GT,37.376983,-122.0642025,,15.591888,0.1,293.2203,1609881694440
Fix,GT,37.3770405,-122.0643732,,17.176224,0.1,292.52234,1609881695440
Fix,GT,37.3771015,-122.06456,,18.516727,0.1,292.03574,1609881696440
Fix,GT,37.3771672,-122.0647607,,19.884205,0.1,292.44556,1609881697440
Fix,GT,37.3772398,-122.0649743,,21.213154,0.1,293.37613,1609881698440
Fix,GT,37.3773191,-122.0652,,22.454662,0.1,293.80475,1609881699440
Fix,GT,37.3774032,-122.0654375,,23.475075,0.1,293.94095,1609881700440
Fix,GT,37.3774907,-122.0656814,,23.768291,0.1,294.3554,1609881701440
Fix,GT,37.3775794,-122.0659233,,23.350576,0.1,294.74945,1609881702440
Fix,GT,37.3776667,-122.0661599,,22.832043,0.1,294.781,1609881703440
Fix,GT,37.3777525,-122.0663914,,22.368052,0.1,294.93976,1609881704440
Fix,GT,37.3778379,-122.0666177,,21.993256,0.1,295.66238,1609881705440
Fix,GT,37.3779255,-122.0668394,,21.877708,0.1,296.8979,1609881706440
Fix,GT,37.3780165,-122.0670585,,21.876915,0.1,297.64963,1609881707440
Fix,GT,37.378108,-122.0672754,,21.527782,0.1,297.86987,1609881708440
Fix,GT,37.3781982,-122.067488,,21.110748,0.1,298.0539,1609881709440
Fix,GT,37.3782873,-122.0676961,,20.712963,0.1,298.1269,1609881710440
Fix,GT,37.3783743,-122.0678991,,20.053436,0.1,298.2814,1609881711440
Fix,GT,37.3784583,-122.0680925,,18.86327,0.1,298.59467,1609881712440
Fix,GT,37.3785366,-122.0682736,,17.55092,0.1,297.8793,1609881713440
Fix,GT,37.3786061,-122.0684424,,16.0203,0.1,296.70508,1609881714440
Fix,GT,37.3786672,-122.0685929,,13.922251,0.1,297.3587,1609881715440
Fix,GT,37.3787248,-122.0687198,,12.136853,0.1,301.80704,1609881716440
Fix,GT,37.3787892,-122.0688233,,11.337898,0.1,311.97214,1609881717440
Fix,GT,37.3788684,-122.0689018,,11.334945,0.1,326.61298,1609881718440
Fix,GT,37.3789633,-122.0689512,,11.677984,0.1,342.71646,1609881719440
Fix,GT,37.379069,-122.0689664,,12.197506,0.1,358.62762,1609881720440
Fix,GT,37.3791786,-122.0689443,,12.607317,0.1,14.58728,1609881721440
Fix,GT,37.3792814,-122.0688832,,12.907954,0.1,31.49231,1609881722440
Fix,GT,37.3793669,-122.0687846,,13.171111,0.1,48.88678,1609881723440
Fix,GT,37.3794258,-122.0686568,,13.263619,0.1,66.65985,1609881724440
Fix,GT,37.3794507,-122.0685127,,13.116356,0.1,84.68497,1609881725440
Fix,GT,37.3794397,-122.0683687,,12.814842,0.1,102.36383,1609881726440
Fix,GT,37.3793961,-122.0682387,,12.499663,0.1,119.25583,1609881727440
Fix,GT,37.3793251,-122.068131,,12.578558,0.1,135.64886,1609881728440
Fix,GT,37.3792295,-122.0680501,,13.374117,0.1,151.487,1609881729440
Fix,GT,37.3791119,-122.0679952,,14.671321,0.1,163.37329,1609881730440
Fix,GT,37.3789763,-122.0679573,,16.216848,0.1,169.0141,1609881731440
Fix,GT,37.3788247,-122.0679261,,17.88158,0.1,171.00574,1609881732440
Fix,GT,37.3786577,-122.0678946,,19.626352,0.1,171.3869,1609881733440
Fix,GT,37.378475,-122.0678606,,21.330296,0.1,171.66534,1609881734440
Fix,GT,37.3782782,-122.0678273,,22.704752,0.1,172.88177,1609881735440
Fix,GT,37.3780699,-122.0677993,,23.786366,0.1,174.55103,1609881736440
Fix,GT,37.3778512,-122.0677793,,24.889551,0.1,176.73102,1609881737440
Fix,GT,37.3776219,-122.0677699,,26.049206,0.1,179.17755,1609881738440
Fix,GT,37.3773818,-122.0677723,,27.24315,0.1,181.55096,1609881739440
Fix,GT,37.3771321,-122.0677879,,28.201057,0.1,183.886,1609881740440
Fix,GT,37.3768758,-122.067815,,28.892563,0.1,185.40135,1609881741440
Fix,GT,37.3766138,-122.0678482,,29.5462,0.1,185.78943,1609881742440
Fix,GT,37.3763466,-122.0678826,,30.02139,0.1,185.79767,1609881743440
Fix,GT,37.3760765,-122.067918,,30.224346,0.1,185.968,1609881744440
Fix,GT,37.3758055,-122.0679537,,30.24712,0.1,185.81245,1609881745440
Fix,GT,37.3755345,-122.0679866,,30.181238,0.1,185.10327,1609881746440
Fix,GT,37.3752638,-122.0680122,,30.053318,0.1,183.4109,1609881747440
Fix,GT,37.374994,-122.0680248,,29.931152,0.1,180.74951,1609881748440
Fix,GT,37.3747247,-122.0680215,,29.85836,0.1,178.04187,1609881749440
Fix,GT,37.3744571,-122.068003,,29.61375,0.1,175.53546,1609881750440
Fix,GT,37.3741937,-122.0679695,,29.177525,0.1,172.87653,1609881751440
Fix,GT,37.3739358,-122.0679211,,28.759293,0.1,170.09619,1609881752440
Fix,GT,37.3736835,-122.0678582,,28.36227,0.1,167.45502,1609881753440
Fix,GT,37.3734375,-122.0677828,,27.88533,0.1,164.97034,1609881754440
Fix,GT,37.3731986,-122.0676955,,27.408638,0.1,162.51239,1609881755440
Fix,GT,37.3729663,-122.0675962,,27.131649,0.1,159.85126,1609881756440
Fix,GT,37.3727397,-122.0674847,,26.96793,0.1,157.38062,1609881757440
Fix,GT,37.3725173,-122.0673627,,26.984035,0.1,155.40369,1609881758440
Fix,GT,37.3722966,-122.0672322,,27.199821,0.1,154.10547,1609881759440
Fix,GT,37.3720751,-122.0670964,,27.556673,0.1,153.69617,1609881760440
Fix,GT,37.3718505,-122.0669582,,27.997986,0.1,153.86755,1609881761440
Fix,GT,37.3716215,-122.0668187,,28.478077,0.1,154.07104,1609881762440
Fix,GT,37.3713883,-122.0666774,,28.982933,0.1,154.16772,1609881763440
Fix,GT,37.3711512,-122.0665343,,29.45605,0.1,154.15857,1609881764440
Fix,GT,37.3709108,-122.0663884,,29.86245,0.1,153.97565,1609881765440
Fix,GT,37.3706674,-122.0662394,,30.21516,0.1,153.78241,1609881766440
Fix,GT,37.3704215,-122.0660882,,30.604362,0.1,153.81299,1609881767440
Fix,GT,37.3701722,-122.0659358,,30.944523,0.1,153.98895,1609881768440
Fix,GT,37.3699204,-122.0657827,,31.17881,0.1,154.07324,1609881769440
Fix,GT,37.3696664,-122.0656286,,31.471424,0.1,154.12543,1609881770440
Fix,GT,37.3694096,-122.0654733,,31.77766,0.1,154.18115,1609881771440
Fix,GT,37.3691509,-122.0653174,,31.90118,0.1,154.26074,1609881772440
Fix,GT,37.3688919,-122.065162,,31.762638,0.1,154.4159,1609881773440
Fix,GT,37.3686349,-122.0650091,,31.35838,0.1,154.57556,1609881774440
Fix,GT,37.3683814,-122.0648582,,30.953308,0.1,154.46167,1609881775440
Fix,GT,37.3681313,-122.0647083,,30.567852,0.1,154.20819,1609881776440
Fix,GT,37.3678849,-122.0645589,,30.18509,0.1,154.01526,1609881777440
Fix,GT,37.3676421,-122.0644105,,29.795034,0.1,153.85822,1609881778440
Fix,GT,37.3674025,-122.0642637,,29.41073,0.1,153.93713,1609881779440
Fix,GT,37.3671653,-122.0641198,,29.11044,0.1,154.25012,1609881780440
Fix,GT,37.366929,-122.063978,,29.126343,0.1,154.37714,1609881781440
Fix,GT,37.3666912,-122.063836,,29.351513,0.1,154.58063,1609881782440
Fix,GT,37.3664502,-122.0636966,,29.577396,0.1,155.89813,1609881783440
Fix,GT,37.3662036,-122.0635666,,29.85752,0.1,158.42029,1609881784440
Fix,GT,37.3659504,-122.0634505,,30.007248,0.1,161.1997,1609881785440
Fix,GT,37.365692,-122.0633488,,30.106642,0.1,163.69507,1609881786440
Fix,GT,37.3654297,-122.0632601,,30.18517,0.1,165.90979,1609881787440
Fix,GT,37.3651646,-122.0631836,,30.200603,0.1,167.91998,1609881788440
Fix,GT,37.3648971,-122.0631189,,30.281284,0.1,170.08704,1609881789440
Fix,GT,37.3646266,-122.0630676,,30.456348,0.1,172.64172,1609881790440
Fix,GT,37.3643533,-122.0630316,,30.533112,0.1,175.23657,1609881791440
Fix,GT,37.3640789,-122.0630102,,30.433392,0.1,177.37799,1609881792440
Fix,GT,37.363806,-122.0630004,,30.12406,0.1,179.12671,1609881793440
Fix,GT,37.3635366,-122.0629995,,29.678192,0.1,180.33354,1609881794440
Fix,GT,37.3632708,-122.0630033,,29.369743,0.1,180.81812,1609881795440
Fix,GT,37.3630066,-122.0630089,,29.308971,0.1,180.99695,1609881796440
Fix,GT,37.362743,-122.0630152,,29.135221,0.1,181.1422,1609881797440
Fix,GT,37.3624824,-122.0630226,,28.75499,0.1,181.29175,1609881798440
Fix,GT,37.3622248,-122.0630298,,28.471806,0.1,181.1227,1609881799440
Fix,GT,37.3619689,-122.0630353,,28.41099,0.1,180.76335,1609881800440
Fix,GT,37.3617125,-122.0630395,,28.538197,0.1,180.64745,1609881801440
Fix,GT,37.3614544,-122.0630438,,28.759064,0.1,180.73444,1609881802440
Fix,GT,37.3611943,-122.0630489,,28.968182,0.1,180.905,1609881803440
Fix,GT,37.3609326,-122.0630548,,29.118843,0.1,180.99686,1609881804440
Fix,GT,37.3606697,-122.0630612,,29.217194,0.1,181.10165,1609881805440
Fix,GT,37.3604063,-122.0630686,,29.263882,0.1,181.25197,1609881806440
Fix,GT,37.3601424,-122.0630756,,29.309692,0.1,181.00415,1609881807440
Fix,GT,37.359878,-122.06308,,29.4183,0.1,180.43497,1609881808440
Fix,GT,37.3596122,-122.0630804,,29.571957,0.1,179.6112,1609881809440
Fix,GT,37.359345,-122.0630752,,29.780132,0.1,178.57385,1609881810440
Fix,GT,37.3590758,-122.0630641,,30.002052,0.1,177.63306,1609881811440
Fix,GT,37.3588047,-122.0630472,,30.230167,0.1,176.53918,1609881812440
Fix,GT,37.3585321,-122.0630234,,30.425146,0.1,175.3872,1609881813440
Fix,GT,37.3582588,-122.0629927,,30.481632,0.1,174.30084,1609881814440
Fix,GT,37.3579861,-122.0629555,,30.361374,0.1,173.1311,1609881815440
Fix,GT,37.357716,-122.0629108,,30.128511,0.1,171.8064,1609881816440
Fix,GT,37.3574489,-122.062859,,29.877378,0.1,170.53589,1609881817440
Fix,GT,37.3571851,-122.0628015,,29.543842,0.1,169.70789,1609881818440
Fix,GT,37.3569251,-122.0627408,,29.185047,0.1,169.19458,1609881819440
Fix,GT,37.3566683,-122.062678,,28.894493,0.1,168.65869,1609881820440
Fix,GT,37.3564145,-122.0626121,,28.676731,0.1,167.7873,1609881821440
Fix,GT,37.3561633,-122.0625408,,28.483606,0.1,166.53009,1609881822440
Fix,GT,37.3559156,-122.0624631,,28.153095,0.1,165.30658,1609881823440
Fix,GT,37.3556736,-122.0623811,,27.484196,0.1,164.40894,1609881824440
Fix,GT,37.3554389,-122.0622971,,26.72465,0.1,163.69324,1609881825440
Fix,GT,37.3552113,-122.0622124,,25.923,0.1,163.2525,1609881826440
Fix,GT,37.3549928,-122.0621293,,24.657581,0.1,163.00012,1609881827440
Fix,GT,37.3547861,-122.0620501,,23.344482,0.1,162.92493,1609881828440
Fix,GT,37.3545894,-122.0619754,,22.319305,0.1,163.21527,1609881829440
Fix,GT,37.3544009,-122.061905,,21.334692,0.1,163.30786,1609881830440
Fix,GT,37.3542209,-122.0618371,,20.360554,0.1,163.06842,1609881831440
Fix,GT,37.3540509,-122.0617723,,19.022182,0.1,162.87372,1609881832440
Fix,GT,37.3538946,-122.061712,,17.248684,0.1,162.76782,1609881833440
Fix,GT,37.3537526,-122.061657,,15.877613,0.1,162.7467,1609881834440
Fix,GT,37.3536191,-122.0616054,,15.251625,0.1,162.86536,1609881835440
Fix,GT,37.3534888,-122.0615556,,15.018065,0.1,162.95917,1609881836440
Fix,GT,37.353361,-122.0615069,,14.522285,0.1,163.01056,1609881837440
Fix,GT,37.3532411,-122.0614616,,13.140726,0.1,163.25159,1609881838440
Fix,GT,37.3531352,-122.0614224,,11.397462,0.1,163.65588,1609881839440
Fix,GT,37.3530425,-122.0613897,,10.049812,0.1,164.50024,1609881840440
Fix,GT,37.3529608,-122.0613628,,8.705241,0.1,165.62549,1609881841440
Fix,GT,37.3528901,-122.0613414,,7.4174166,0.1,166.51318,1609881842440
Fix,GT,37.3528305,-122.0613243,,6.200034,0.1,167.11963,1609881843440
Fix,GT,37.3527822,-122.0613111,,4.822169,0.1,167.53046,1609881844440
Fix,GT,37.3527454,-122.0613011,,3.592101,0.1,167.79443,1609881845440
Fix,GT,37.3527172,-122.0612937,,2.880341,0.1,167.98615,1609881846440
Fix,GT,37.3526942,-122.0612878,,2.3409688,0.1,168.13806,1609881847440
Fix,GT,37.352677,-122.0612834,,1.4611857,0.1,168.25818,1609881848440
Fix,GT,37.3526687,-122.0612814,,0.48139304,0.1,168.31165,1609881849440
Fix,GT,37.3526669,-122.061281,,0.019650988,0.1,168.32257,1609881850440
Fix,GT,37.3526669,-122.061281,,0.0018738239,0.1,168.32715,1609881851440
Fix,GT,37.3526669,-122.061281,,0.0007908788,0.1,168.3258,1609881852440
Fix,GT,37.3526669,-122.061281,,0.0,0.1,168.32556,1609881853440
Fix,GT,37.3526669,-122.061281,,0.0,0.1,168.32556,1609881854440
Fix,GT,37.3526669,-122.061281,,0.0,0.1,168.32562,1609881855440
Fix,GT,37.3526669,-122.061281,,0.0,0.1,168.32562,1609881856440
Fix,GT,37.3526669,-122.061281,,0.00044076427,0.1,168.32556,1609881857440
Fix,GT,37.3526669,-122.061281,,0.0011825706,0.1,168.3255,1609881858440
Fix,GT,37.3526669,-122.061281,,0.0007908788,0.1,168.32556,1609881859440
Fix,GT,37.3526669,-122.061281,,0.0006233348,0.1,168.32574,1609881860440
Fix,GT,37.3526669,-122.061281,,0.001231643,0.1,168.32574,1609881861440
Fix,GT,37.3526669,-122.061281,,0.0005592358,0.1,168.32568,1609881862440
Fix,GT,37.3526669,-122.061281,,0.0,0.1,168.32568,1609881863440
Fix,GT,37.3526669,-122.061281,,0.0,0.1,168.32556,1609881864440
Fix,GT,37.3526669,-122.061281,,0.00044076427,0.1,168.32556,1609881865440
Fix,GT,37.3526669,-122.061281,,0.0011825706,0.1,168.32562,1609881866440
Fix,GT,37.3526669,-122.061281,,0.0007908788,0.1,168.3255,1609881867440
Fix,GT,37.3526669,-122.061281,,0.00044076427,0.1,168.32544,1609881868440
Fix,GT,37.3526669,-122.061281,,0.001,0.1,168.32568,1609881869440
Fix,GT,37.3526669,-122.061281,,0.001,0.1,168.32568,1609881870440
Fix,GT,37.3526668,-122.061281,,0.078444906,0.1,168.33002,1609881871440
Fix,GT,37.3526639,-122.0612802,,0.71039164,0.1,168.35675,1609881872440
Fix,GT,37.3526522,-122.0612773,,2.0656528,0.1,168.41345,1609881873440
Fix,GT,37.3526267,-122.061271,,3.7452543,0.1,168.56085,1609881874440
Fix,GT,37.3525852,-122.0612609,,5.60298,0.1,168.95605,1609881875440
Fix,GT,37.3525279,-122.0612476,,7.2262774,0.1,169.51776,1609881876440
Fix,GT,37.3524592,-122.0612324,,8.125663,0.1,170.02881,1609881877440
Fix,GT,37.3523861,-122.0612168,,8.267503,0.1,170.35968,1609881878440
Fix,GT,37.3523136,-122.0611992,,8.090129,0.1,168.06677,1609881879440
Fix,GT,37.3522452,-122.0611717,,8.001732,0.1,159.19373,1609881880440
Fix,GT,37.3521846,-122.0611241,,8.196868,0.1,143.36115,1609881881440
Fix,GT,37.3521381,-122.0610527,,8.584225,0.1,123.70026,1609881882440
Fix,GT,37.3521113,-122.0609599,,9.289819,0.1,105.28784,1609881883440
Fix,GT,37.3521015,-122.0608513,,10.214126,0.1,94.160645,1609881884440
Fix,GT,37.3520993,-122.0607331,,10.675585,0.1,90.825745,1609881885440
Fix,GT,37.3520988,-122.0606148,,10.115103,0.1,89.94293,1609881886440
Fix,GT,37.3520995,-122.0605085,,8.5677185,0.1,89.266785,1609881887440
Fix,GT,37.3521008,-122.0604225,,6.6418405,0.1,88.64505,1609881888440
Fix,GT,37.3521023,-122.0603583,,4.7858176,0.1,87.95511,1609881889440
Fix,GT,37.3521041,-122.0603151,,3.0008872,0.1,86.79166,1609881890440
Fix,GT,37.3521057,-122.0602893,,1.6182611,0.1,85.58182,1609881891440
Fix,GT,37.3521067,-122.0602762,,0.71107143,0.1,85.121155,1609881892440
Fix,GT,37.352107,-122.0602722,,0.08273571,0.1,85.04468,1609881893440
Fix,GT,37.352107,-122.0602721,,0.003124313,0.1,85.03992,1609881894440
Fix,GT,37.352107,-122.0602721,,0.0017764575,0.1,85.03952,1609881895440
Fix,GT,37.352107,-122.0602721,,0.0022360678,0.1,85.0394,1609881896440
Fix,GT,37.352107,-122.0602721,,0.0022360678,0.1,85.039276,1609881897440
Fix,GT,37.3521071,-122.0602721,,0.0022360678,0.1,85.03931,1609881898440
Fix,GT,37.3521071,-122.0602721,,0.0022360678,0.1,85.03912,1609881899440
Fix,GT,37.3521071,-122.0602721,,0.0018738238,0.1,85.038666,1609881900440
Fix,GT,37.3521071,-122.0602721,,0.0017764575,0.1,85.038635,1609881901440
Fix,GT,37.3521071,-122.0602721,,0.0022360678,0.1,85.0387,1609881902440
Fix,GT,37.3521071,-122.0602721,,0.0022360678,0.1,85.038635,1609881903440
Fix,GT,37.3521071,-122.0602721,,0.0022360678,0.1,85.0387,1609881904440
Fix,GT,37.3521071,-122.0602721,,0.0016912534,0.1,85.038635,1609881905440
Fix,GT,37.3521071,-122.0602721,,0.0009999999,0.1,85.03854,1609881906440
Fix,GT,37.3521071,-122.0602721,,0.0009999999,0.1,85.038574,1609881907440
Fix,GT,37.3521071,-122.0602721,,0.0011825706,0.1,85.03854,1609881908440
Fix,GT,37.3521071,-122.0602721,,0.0014142136,0.1,85.038574,1609881909440
Fix,GT,37.3521071,-122.0602721,,0.0014142136,0.1,85.038574,1609881910440
Fix,GT,37.3521071,-122.0602721,,0.0017764575,0.1,85.03848,1609881911440
Fix,GT,37.3521072,-122.0602717,,0.13393812,0.1,85.02295,1609881912440
Fix,GT,37.3521079,-122.0602663,,0.9916784,0.1,83.96509,1609881913440
Fix,GT,37.3521134,-122.0602477,,2.5785418,0.1,76.40195,1609881914440
Fix,GT,37.3521308,-122.060217,,4.1112823,0.1,58.198425,1609881915440
Fix,GT,37.3521667,-122.0601874,,5.592648,0.1,33.65564,1609881916440
Fix,GT,37.3522218,-122.0601717,,7.287481,0.1,10.789032,1609881917440
Fix,GT,37.3522939,-122.0601767,,8.999888,0.1,353.999,1609881918440
Fix,GT,37.3523784,-122.0602053,,10.534055,0.1,342.07727,1609881919440
Fix,GT,37.3524725,-122.0602535,,12.106208,0.1,336.39188,1609881920440
Fix,GT,37.3525779,-122.0603137,,13.638882,0.1,335.11276,1609881921440
Fix,GT,37.352695,-122.0603829,,15.062445,0.1,334.63025,1609881922440
Fix,GT,37.3528231,-122.0604583,,16.332758,0.1,334.85962,1609881923440
Fix,GT,37.3529615,-122.0605387,,17.544144,0.1,335.1418,1609881924440
Fix,GT,37.3531097,-122.0606244,,18.624569,0.1,335.26917,1609881925440
Fix,GT,37.353266,-122.060715,,19.549515,0.1,335.08392,1609881926440
Fix,GT,37.353429,-122.0608115,,20.5038,0.1,334.36267,1609881927440
Fix,GT,37.3535986,-122.0609152,,21.378197,0.1,333.61182,1609881928440
Fix,GT,37.3537738,-122.0610255,,22.09876,0.1,333.03455,1609881929440
Fix,GT,37.3539537,-122.0611406,,22.758919,0.1,332.712,1609881930440
Fix,GT,37.3541391,-122.0612601,,23.542576,0.1,332.6237,1609881931440
Fix,GT,37.3543313,-122.0613842,,24.481997,0.1,332.84363,1609881932440
Fix,GT,37.3545322,-122.0615099,,25.32265,0.1,334.18857,1609881933440
Fix,GT,37.3547419,-122.0616321,,25.979404,0.1,335.81848,1609881934440
Fix,GT,37.3549582,-122.0617513,,26.475773,0.1,336.47495,1609881935440
Fix,GT,37.3551798,-122.061869,,26.938812,0.1,337.43478,1609881936440
Fix,GT,37.355407,-122.0619829,,27.38456,0.1,338.75153,1609881937440
Fix,GT,37.35564,-122.062092,,27.799103,0.1,340.1345,1609881938440
Fix,GT,37.3558785,-122.0621941,,28.159788,0.1,341.98917,1609881939440
Fix,GT,37.356123,-122.062288,,28.627783,0.1,343.79358,1609881940440
Fix,GT,37.3563743,-122.0623738,,29.22853,0.1,345.54337,1609881941440
Fix,GT,37.3566332,-122.0624525,,29.896498,0.1,346.93973,1609881942440
Fix,GT,37.3568993,-122.0625258,,30.548168,0.1,348.147,1609881943440
Fix,GT,37.3571719,-122.0625932,,31.091896,0.1,349.37622,1609881944440
Fix,GT,37.3574497,-122.0626543,,31.467976,0.1,350.49725,1609881945440
Fix,GT,37.3577307,-122.0627095,,31.659239,0.1,351.59875,1609881946440
Fix,GT,37.3580141,-122.0627573,,31.819702,0.1,352.94257,1609881947440
Fix,GT,37.3582997,-122.0627971,,31.96358,0.1,354.1862,1609881948440
Fix,GT,37.3585873,-122.0628294,,32.143066,0.1,355.4572,1609881949440
Fix,GT,37.3588776,-122.0628539,,32.453545,0.1,356.72858,1609881950440
Fix,GT,37.3591711,-122.0628705,,32.759525,0.1,358.02008,1609881951440
Fix,GT,37.3594674,-122.0628791,,32.9868,0.1,359.23233,1609881952440
Fix,GT,37.3597653,-122.0628805,,33.14687,0.1,0.105529785,1609881953440
Fix,GT,37.3600648,-122.0628776,,33.337322,0.1,0.5739136,1609881954440
Fix,GT,37.3603663,-122.0628727,,33.588844,0.1,0.8110962,1609881955440
Fix,GT,37.3606699,-122.0628664,,33.784756,0.1,0.93063354,1609881956440
Fix,GT,37.3609749,-122.06286,,33.931713,0.1,0.8704529,1609881957440
Fix,GT,37.3612813,-122.0628536,,34.083885,0.1,0.94226074,1609881958440
Fix,GT,37.3615885,-122.0628463,,34.098587,0.1,1.1404114,1609881959440
Fix,GT,37.3618948,-122.0628374,,33.86727,0.1,1.409729,1609881960440
Fix,GT,37.3621983,-122.0628274,,33.537006,0.1,1.3704834,1609881961440
Fix,GT,37.3624989,-122.062819,,33.218254,0.1,0.95028687,1609881962440
Fix,GT,37.3627974,-122.0628136,,33.096626,0.1,0.65060425,1609881963440
Fix,GT,37.3630964,-122.0628094,,33.331642,0.1,0.5102539,1609881964440
Fix,GT,37.3633981,-122.0628064,,33.57675,0.1,0.33746338,1609881965440
Fix,GT,37.3637008,-122.0628063,,33.573364,0.1,359.59238,1609881966440
Fix,GT,37.3640023,-122.0628139,,33.376286,0.1,357.88315,1609881967440
Fix,GT,37.3643011,-122.0628345,,33.1502,0.1,355.61136,1609881968440
Fix,GT,37.3645983,-122.0628701,,33.20186,0.1,353.286,1609881969440
Fix,GT,37.3648956,-122.0629217,,33.45199,0.1,350.7811,1609881970440
Fix,GT,37.3651931,-122.0629907,,33.76911,0.1,348.10464,1609881971440
Fix,GT,37.3654907,-122.0630783,,34.10687,0.1,345.35098,1609881972440
Fix,GT,37.3657871,-122.0631846,,34.368614,0.1,342.6114,1609881973440
Fix,GT,37.3660813,-122.0633082,,34.501774,0.1,340.20544,1609881974440
Fix,GT,37.3663721,-122.0634464,,34.5725,0.1,338.12326,1609881975440
Fix,GT,37.3666591,-122.0635982,,34.587204,0.1,336.02054,1609881976440
Fix,GT,37.366942,-122.0637608,,34.46977,0.1,334.64606,1609881977440
Fix,GT,37.3672218,-122.0639284,,34.401253,0.1,334.09268,1609881978440
Fix,GT,37.3675006,-122.064099,,34.496037,0.1,333.75482,1609881979440
Fix,GT,37.3677799,-122.0642715,,34.64993,0.1,333.62946,1609881980440
Fix,GT,37.3680608,-122.064445,,34.840233,0.1,333.75568,1609881981440
Fix,GT,37.3683435,-122.0646181,,34.99109,0.1,333.99707,1609881982440
Fix,GT,37.3686279,-122.0647905,,35.13746,0.1,334.21353,1609881983440
Fix,GT,37.3689137,-122.0649628,,35.254597,0.1,334.226,1609881984440
Fix,GT,37.3692,-122.0651355,,35.26769,0.1,334.24274,1609881985440
Fix,GT,37.3694865,-122.0653081,,35.28848,0.1,334.24536,1609881986440
Fix,GT,37.3697731,-122.065481,,35.325615,0.1,334.244,1609881987440
Fix,GT,37.37006,-122.065654,,35.364246,0.1,334.21423,1609881988440
Fix,GT,37.3703473,-122.0658277,,35.43693,0.1,334.11038,1609881989440
Fix,GT,37.370635,-122.0660022,,35.53185,0.1,334.0869,1609881990440
Fix,GT,37.3709236,-122.0661773,,35.64241,0.1,334.068,1609881991440
Fix,GT,37.371213,-122.066353,,35.717197,0.1,334.07578,1609881992440
Fix,GT,37.3715023,-122.0665282,,35.57041,0.1,334.17993,1609881993440
Fix,GT,37.3717901,-122.0667017,,35.33765,0.1,334.22485,1609881994440
Fix,GT,37.3720765,-122.0668744,,35.2369,0.1,334.17673,1609881995440
Fix,GT,37.3723623,-122.0670461,,35.08242,0.1,334.5437,1609881996440
Fix,GT,37.3726481,-122.0672115,,34.78841,0.1,335.93866,1609881997440
Fix,GT,37.3729357,-122.067363,,34.473343,0.1,338.49234,1609881998440
Fix,GT,37.373227,-122.0674953,,34.379803,0.1,341.69012,1609881999440
Fix,GT,37.3735242,-122.0676066,,34.508327,0.1,345.09433,1609882000440
Fix,GT,37.3738274,-122.0676953,,34.613976,0.1,348.53732,1609882001440
Fix,GT,37.3741342,-122.0677614,,34.485672,0.1,351.89987,1609882002440
Fix,GT,37.3744412,-122.0678051,,34.103935,0.1,355.19604,1609882003440
Fix,GT,37.3747461,-122.0678257,,33.683598,0.1,358.68005,1609882004440
Fix,GT,37.375048,-122.0678223,,33.37438,0.1,2.3648071,1609882005440
Fix,GT,37.3753466,-122.0677964,,33.077553,0.1,5.2864075,1609882006440
