MessageType,Provider,LatitudeDegrees,LongitudeDegrees,AltitudeMeters,SpeedMps,AccuracyMeters,BearingDegrees,UnixTimeMillis
Fix,GT,37.4443935,-122.2326999,11.69,0.00062580477,0.1,300.7308,1609797014655
Fix,GT,37.4443935,-122.2326999,11.69,0.001,0.1,300.73022,1609797015648
Fix,GT,37.4443935,-122.2326999,11.69,0.00085793005,0.1,300.73148,1609797016660
Fix,GT,37.4443935,-122.2326999,11.69,0.0,0.1,300.73163,1609797017658
Fix,GT,37.4443935,-122.2326999,11.69,0.0013027263,0.1,300.7314,1609797018673
Fix,GT,37.4443935,-122.2326999,11.690000348389148,0.0012680171,0.1,300.73135,1609797019635
Fix,GT,37.4443935,-122.2326999,11.69,0.0012104469,0.1,300.73145,1609797020649
Fix,GT,37.4443935,-122.2326999,11.69,0.001,0.1,300.73184,1609797021651
Fix,GT,37.4443935,-122.2326999,11.69,0.001,0.1,300.7321,1609797022658
Fix,GT,37.4443935,-122.2326999,11.69,0.0016774745,0.1,300.73175,1609797023654
Fix,GT,37.4443935,-122.2326999,11.69,0.0012603917,0.1,300.7315,1609797024637
Fix,GT,37.4443935,-122.2326999,11.69,0.0004924329,0.1,300.7312,1609797025649
Fix,GT,37.4443935,-122.2326999,11.69,0.0018880751,0.1,300.7313,1609797026642
Fix,GT,37.4443935,-122.2326999,11.69,0.0018838226,0.1,300.73132,1609797027657
Fix,GT,37.4443935,-122.2326999,11.69,0.0017985748,0.1,300.73126,1609797028653
Fix,GT,37.4443935,-122.2326999,11.69,0.001964571,0.1,300.73163,1609797029666
Fix,GT,37.4443935,-122.2326999,11.69,0.0017597491,0.1,300.73132,1609797030657
Fix,GT,37.4443935,-122.2326999,11.69,0.0014142136,0.1,300.73117,1609797031652
Fix,GT,37.4443935,-122.2326999,11.69,0.0012527895,0.1,300.7313,1609797032661
Fix,GT,37.4443935,-122.2326999,11.69,0.0012246455,0.1,300.73126,1609797033654
Fix,GT,37.4443935,-122.2326999,11.69,0.0,0.1,300.73102,1609797034666
Fix,GT,37.4443935,-122.2326999,11.69,0.0015201363,0.1,300.73117,1609797035657
Fix,GT,37.4443935,-122.2326999,11.69,0.00050219044,0.1,300.73132,1609797036650
Fix,GT,37.4443935,-122.2326999,11.69,0.0011529182,0.1,300.7311,1609797037663
Fix,GT,37.4443935,-122.2326999,11.689,0.001,0.1,300.73096,1609797038653
Fix,GT,37.4443935,-122.2326999,11.689,0.0012739467,0.1,300.731,1609797039666
Fix,GT,37.4443935,-122.2326999,11.689,0.001,0.1,300.73077,1609797040656
Fix,GT,37.4443935,-122.2326999,11.689,0.001,0.1,300.73074,1609797041651
Fix,GT,37.4443935,-122.2326999,11.689,0.0025967679,0.1,300.7309,1609797042661
Fix,GT,37.4443935,-122.2326999,11.688,0.002656088,0.1,300.73065,1609797043654
Fix,GT,37.4443936,-122.2327001,11.681770740747451,0.11837648,0.1,300.7363,1609797044661
Fix,GT,37.4443957,-122.2327047,11.679,0.814016,0.1,300.7982,1609797045657
Fix,GT,37.4444006,-122.2327157,11.68799808192253,1.5105878,0.1,300.3534,1609797046649
Fix,GT,37.4444071,-122.2327359,11.6917639169693,2.2235262,0.1,294.45154,1609797047661
Fix,GT,37.4444092,-122.2327645,11.689203203201297,2.9440126,0.1,279.5713,1609797048655
Fix,GT,37.4444023,-122.2328019,11.643420085310936,3.8448873,0.1,258.8473,1609797049665
Fix,GT,37.4443829,-122.2328437,11.481035348892211,4.878804,0.1,240.56604,1609797050656
Fix,GT,37.4443528,-122.2328906,11.321637066960337,5.8462677,0.1,229.25507,1609797051651
Fix,GT,37.4443083,-122.2329354,11.062822010576724,6.773115,0.1,216.73776,1609797052659
Fix,GT,37.4442548,-122.2329768,10.743832306861878,7.174626,0.1,210.74196,1609797053655
Fix,GT,37.444199,-122.2330187,10.411403669297696,7.391732,0.1,210.95671,1609797054646
Fix,GT,37.4441431,-122.2330666,10.1517651296854,7.4173565,0.1,215.76317,1609797055655
Fix,GT,37.4440953,-122.2331224,9.977832143068312,7.083625,0.1,225.48393,1609797056650
Fix,GT,37.4440585,-122.2331863,9.795600593745707,6.6525993,0.1,236.67667,1609797057662
Fix,GT,37.4440338,-122.2332522,9.601152547359463,6.3241835,0.1,246.88452,1609797058653
Fix,GT,37.4440185,-122.2333206,9.33670411503315,6.252902,0.1,255.97095,1609797059662
Fix,GT,37.4440124,-122.2333912,8.97847400945425,6.306444,0.1,265.5609,1609797060656
Fix,GT,37.4440186,-122.2334623,8.728287249863147,6.46378,0.1,278.51242,1609797061652
Fix,GT,37.4440386,-122.2335363,8.566470499396324,7.2307806,0.1,291.2437,1609797062661
Fix,GT,37.4440696,-122.2336133,8.38113393676281,8.185818,0.1,297.36374,1609797063652
Fix,GT,37.444108,-122.2336998,8.242539155721664,9.18693,0.1,299.77887,1609797064659
Fix,GT,37.4441528,-122.2337925,8.03828171622753,10.05715,0.1,301.65262,1609797065648
Fix,GT,37.4442007,-122.2338881,7.84376331809163,10.05291,0.1,302.12296,1609797066640
Fix,GT,37.4442495,-122.2339852,7.62809003740549,9.836954,0.1,302.19626,1609797067657
Fix,GT,37.4442948,-122.2340743,7.472826762259006,8.728628,0.1,302.55215,1609797068653
Fix,GT,37.4443332,-122.2341493,7.30517173820734,6.810546,0.1,302.62567,1609797069667
Fix,GT,37.4443611,-122.2342046,7.195895749568939,4.8309784,0.1,302.34494,1609797070659
Fix,GT,37.4443794,-122.2342405,7.112508484870196,2.8420057,0.1,302.37213,1609797071649
Fix,GT,37.4443898,-122.2342607,7.066819695591927,1.4612708,0.1,302.39844,1609797072659
Fix,GT,37.4443941,-122.2342691,7.047465495049954,0.30944407,0.1,302.4074,1609797073653
Fix,GT,37.4443942,-122.2342695,7.042919210553169,0.0017307695,0.1,302.41425,1609797074645
Fix,GT,37.444394,-122.2342695,7.055575727701188,0.0033486327,0.1,302.4132,1609797075657
Fix,GT,37.444394,-122.2342695,7.0579997896552085,0.0009999999,0.1,302.41156,1609797076649
Fix,GT,37.444394,-122.2342695,7.058583625972271,0.00082537177,0.1,302.41177,1609797077658
Fix,GT,37.444394,-122.2342695,7.059,0.001,0.1,302.41193,1609797078653
Fix,GT,37.444394,-122.2342695,7.059000000000001,0.001,0.1,302.41177,1609797079664
Fix,GT,37.444394,-122.2342695,7.059,0.0011805147,0.1,302.41187,1609797080656
Fix,GT,37.444394,-122.2342695,7.059,0.0015081628,0.1,302.41165,1609797081650
Fix,GT,37.444394,-122.2342695,7.059,0.001,0.1,302.41116,1609797082658
Fix,GT,37.444394,-122.2342695,7.059,0.001,0.1,302.4111,1609797083653
Fix,GT,37.444394,-122.2342695,7.059,0.0005517197,0.1,302.41168,1609797084644
Fix,GT,37.444394,-122.2342695,7.059,0.0005474232,0.1,302.41177,1609797085654
Fix,GT,37.444394,-122.2342695,7.0590002103745935,0.0,0.1,302.41183,1609797086648
Fix,GT,37.444394,-122.2342695,7.057417254507541,0.017234948,0.1,302.4116,1609797087658
Fix,GT,37.4443955,-122.2342726,7.044882755398751,0.81280375,0.1,302.44144,1609797088655
Fix,GT,37.4444033,-122.234288,7.01203579056263,2.3462815,0.1,302.5176,1609797089666
Fix,GT,37.444418,-122.234317,6.913774428129196,3.8651438,0.1,302.27533,1609797090658
Fix,GT,37.4444368,-122.2343623,6.959565502166749,5.198432,0.1,296.42432,1609797091650
Fix,GT,37.4444492,-122.2344261,7.024342663228511,6.2481503,0.1,279.98138,1609797092662
Fix,GT,37.4444416,-122.2344984,7.145828442454338,6.8160877,0.1,257.8294,1609797093656
Fix,GT,37.4444099,-122.2345678,7.166353916406631,7.3961744,0.1,234.70221,1609797094662
Fix,GT,37.4443578,-122.2346248,7.235983074903488,8.181686,0.1,217.53667,1609797095659
Fix,GT,37.4442906,-122.2346771,7.374097915291786,9.610207,0.1,210.03902,1609797096653
Fix,GT,37.4442077,-122.2347325,7.627874254882336,11.029162,0.1,207.84517,1609797097662
Fix,GT,37.4441151,-122.234794,7.928954931259154,12.332926,0.1,207.89307,1609797098656
Fix,GT,37.4440137,-122.2348621,8.288826859980821,13.577451,0.1,208.02354,1609797099641
Fix,GT,37.4438992,-122.2349383,8.80765102148056,14.7695465,0.1,207.69911,1609797100656
Fix,GT,37.4437775,-122.2350184,9.134808679878711,15.867516,0.1,207.77425,1609797101651
Fix,GT,37.4436464,-122.2351065,9.402151500463486,16.996355,0.1,208.3396,1609797102653
Fix,GT,37.4435073,-122.2352011,9.528755035161971,17.712532,0.1,208.42114,1609797103664
Fix,GT,37.4433654,-122.2352981,9.655493524193764,17.977608,0.1,208.53055,1609797104663
Fix,GT,37.4432217,-122.2353958,9.830506928920746,17.83592,0.1,208.2079,1609797105679
Fix,GT,37.4430812,-122.2354903,10.013262613475325,17.962051,0.1,207.94707,1609797106667
Fix,GT,37.442939,-122.235585,10.256780947566032,18.139744,0.1,207.74411,1609797107659
Fix,GT,37.4427918,-122.2356824,10.661930408000948,18.29444,0.1,207.65424,1609797108672
Fix,GT,37.4426466,-122.235778,11.279402332305908,18.36733,0.1,207.4576,1609797109666
Fix,GT,37.4425018,-122.235872,12.046754041790962,18.3836,0.1,207.10152,1609797110650
Fix,GT,37.4423523,-122.235968,13.143598733365534,18.348774,0.1,207.04713,1609797111665
Fix,GT,37.4422067,-122.2360619,14.253422741889954,18.16955,0.1,207.32547,1609797112658
Fix,GT,37.4420623,-122.2361582,15.221458109140396,17.763813,0.1,208.17332,1609797113668
Fix,GT,37.4419269,-122.2362499,16.058086908340456,17.36728,0.1,208.38232,1609797114640
Fix,GT,37.4417881,-122.236345,16.869167256355283,17.280764,0.1,208.62114,1609797115657
Fix,GT,37.4416608,-122.2364338,17.552339211463927,17.44682,0.1,209.31119,1609797116587
Fix,GT,37.4414983,-122.2365548,18.49613127028942,17.68235,0.1,211.65999,1609797117781
Fix,GT,37.4413813,-122.2366508,19.27194271439314,17.840462,0.1,214.25093,1609797118655
Fix,GT,37.4412512,-122.2367726,20.22790403974056,17.947132,0.1,218.56285,1609797119661
Fix,GT,37.4411295,-122.2369062,21.09096605193615,18.097565,0.1,222.812,1609797120656
Fix,GT,37.4410119,-122.2370526,22.12348197060824,18.144907,0.1,226.09546,1609797121670
Fix,GT,37.4409054,-122.2372029,23.08311883753538,18.215055,0.1,229.93713,1609797122649
Fix,GT,37.4408025,-122.2373702,24.14793699491024,18.282812,0.1,233.68314,1609797123673
Fix,GT,37.440714,-122.237528,25.152653259594,18.353838,0.1,235.59894,1609797124605
Fix,GT,37.4406079,-122.2377295,26.42890281236172,18.082817,0.1,236.72081,1609797125776
Fix,GT,37.4405279,-122.2378794,27.347220277786256,17.734055,0.1,235.69467,1609797126667
Fix,GT,37.440438,-122.2380385,28.483062536239625,17.028784,0.1,233.83463,1609797127658
Fix,GT,37.4403452,-122.2381898,29.443849466860293,16.334772,0.1,231.45227,1609797128673
Fix,GT,37.4402547,-122.2383283,30.29063911479712,15.891942,0.1,230.38832,1609797129660
Fix,GT,37.4401608,-122.2384684,31.100080256819723,15.87564,0.1,229.70868,1609797130680
Fix,GT,37.440069,-122.2386031,31.88201102328301,15.872572,0.1,229.11131,1609797131667
Fix,GT,37.4399753,-122.2387356,32.69113637256622,15.840305,0.1,227.91823,1609797132656
Fix,GT,37.4398788,-122.2388664,33.50394988417626,15.808465,0.1,226.74165,1609797133653
Fix,GT,37.4397782,-122.2389967,34.2538407484889,15.866449,0.1,225.02943,1609797134666
Fix,GT,37.4396778,-122.2391196,34.94223235040903,15.824599,0.1,223.49948,1609797135649
Fix,GT,37.4395729,-122.2392397,35.747036913037306,15.642704,0.1,221.35991,1609797136652
Fix,GT,37.439465,-122.2393544,36.66766177642346,15.423225,0.1,219.61554,1609797137662
Fix,GT,37.4393587,-122.2394615,37.55233064329624,15.003724,0.1,218.22525,1609797138656
Fix,GT,37.4392533,-122.2395636,38.32687986081838,14.266344,0.1,217.09346,1609797139666
Fix,GT,37.4391544,-122.2396549,39.01320950400829,13.47077,0.1,215.80789,1609797140649
Fix,GT,37.4390571,-122.2397409,39.59207893419266,13.020893,0.1,214.84673,1609797141652
Fix,GT,37.4389587,-122.2398243,40.1923994730711,13.253588,0.1,213.35294,1609797142660
Fix,GT,37.4388552,-122.2399067,40.80426482868194,14.108452,0.1,211.7374,1609797143655
Fix,GT,37.4387424,-122.239992,41.35544080990553,14.990426,0.1,210.63113,1609797144661
Fix,GT,37.4386224,-122.2400777,41.78929781377316,16.064846,0.1,209.02907,1609797145649
Fix,GT,37.4384897,-122.2401659,42.209974692463874,17.1115,0.1,207.22124,1609797146653
Fix,GT,37.4383468,-122.2402556,42.57586713647842,18.023626,0.1,206.04779,1609797147662
Fix,GT,37.4381992,-122.2403432,42.87211321353912,18.394627,0.1,204.62842,1609797148656
Fix,GT,37.4380452,-122.2404277,43.067835088133805,18.47872,0.1,202.75662,1609797149666
Fix,GT,37.4378952,-122.2405048,43.19142903363705,18.088108,0.1,201.71262,1609797150649
Fix,GT,37.4377426,-122.2405783,43.33736352825165,17.602839,0.1,200.35135,1609797151666
Fix,GT,37.4375966,-122.240646,43.39279260134697,17.203587,0.1,200.23325,1609797152660
Fix,GT,37.4374517,-122.2407148,43.54120377725363,16.696747,0.1,200.91925,1609797153674
Fix,GT,37.4373145,-122.240782,43.7770553483963,16.53209,0.1,201.45312,1609797154661
Fix,GT,37.4371743,-122.2408541,44.083526857256885,16.990974,0.1,202.81096,1609797155668
Fix,GT,37.4370312,-122.2409349,44.5107002196908,17.770315,0.1,205.23325,1609797156667
Fix,GT,37.436888,-122.2410268,45.015868954420085,18.00351,0.1,208.19028,1609797157662
Fix,GT,37.4367575,-122.2411225,45.61452882153168,17.504564,0.1,212.08878,1609797158605
Fix,GT,37.4366118,-122.2412561,46.44160627502203,16.654373,0.1,219.14777,1609797159778
Fix,GT,37.4365158,-122.2413656,46.99305769479275,16.067955,0.1,224.1735,1609797160658
Fix,GT,37.4364182,-122.2414968,47.51823234820366,15.319808,0.1,228.63306,1609797161668
Fix,GT,37.4363335,-122.2416254,47.9975370156765,14.613774,0.1,230.65056,1609797162654
Fix,GT,37.4362524,-122.2417523,48.6040644145608,13.838882,0.1,231.48221,1609797163665
Fix,GT,37.436179,-122.2418727,49.18781557738781,13.100029,0.1,233.14232,1609797164660
Fix,GT,37.4361136,-122.241989,49.69675641769171,12.004642,0.1,235.70268,1609797165655
Fix,GT,37.4360605,-122.2420962,50.20819010531902,10.136034,0.1,239.45432,1609797166660
Fix,GT,37.4360231,-122.2421884,50.54803860211373,8.021373,0.1,244.83136,1609797167663
Fix,GT,37.4360011,-122.242262,50.79148329007625,5.7825284,0.1,250.68137,1609797168674
Fix,GT,37.4359893,-122.2423178,50.96684504187107,4.9298577,0.1,255.34653,1609797169640
Fix,GT,37.4359809,-122.2423723,51.14441569566726,5.0025454,0.1,259.59302,1609797170657
Fix,GT,37.4359761,-122.2424343,51.30922252005339,6.113088,0.1,265.24963,1609797171654
Fix,GT,37.4359771,-122.2425135,51.48658022993803,7.8861566,0.1,272.55594,1609797172659
Fix,GT,37.4359879,-122.2426114,51.81780401623249,9.66041,0.1,279.6108,1609797173655
Fix,GT,37.4360156,-122.2427375,52.36856668150425,11.563551,0.1,288.35214,1609797174742
Fix,GT,37.4360435,-122.242828,52.70899968957901,12.586099,0.1,292.03845,1609797175455
Fix,GT,37.4361037,-122.2429953,53.50397325265408,14.527184,0.1,294.99738,1609797176651
Fix,GT,37.4361632,-122.2431531,54.31509896218777,16.072605,0.1,295.13873,1609797177661
Fix,GT,37.4362274,-122.2433228,55.292956717371936,17.353458,0.1,295.40585,1609797178654
Fix,GT,37.4362971,-122.2435025,56.32957061761618,17.868958,0.1,295.8562,1609797179649
Fix,GT,37.436368,-122.2436835,57.37160135287046,17.557934,0.1,296.3587,1609797180657
Fix,GT,37.436442,-122.2438587,58.42971925544739,17.757195,0.1,299.24203,1609797181653
Fix,GT,37.4365279,-122.2440335,59.5290951962471,18.28279,0.1,303.33313,1609797182662
Fix,GT,37.4366254,-122.2442017,60.60484909689426,18.715927,0.1,307.86853,1609797183656
Fix,GT,37.4367333,-122.2443641,61.728465645730495,19.193336,0.1,310.79013,1609797184643
Fix,GT,37.4368511,-122.2445308,62.96854617154599,19.663197,0.1,311.84674,1609797185657
Fix,GT,37.4369705,-122.2446948,64.15638538864255,20.11852,0.1,312.58112,1609797186646
Fix,GT,37.4370959,-122.2448653,65.25643246638775,20.533756,0.1,312.35162,1609797187655
Fix,GT,37.4372235,-122.2450411,66.21602334904671,20.968105,0.1,312.30536,1609797188669
Fix,GT,37.4373524,-122.2452176,67.10691827535629,21.775803,0.1,312.5627,1609797189660
Fix,GT,37.4374881,-122.2454004,68.02473969233036,22.667608,0.1,313.21936,1609797190655
Fix,GT,37.4376327,-122.2455904,68.97230529123544,23.528343,0.1,313.94092,1609797191661
Fix,GT,37.4377822,-122.2457815,69.96212163925172,24.105034,0.1,314.63828,1609797192654
Fix,GT,37.4379394,-122.2459805,71.04498808902503,24.527542,0.1,314.60303,1609797193672
Fix,GT,37.4380941,-122.2461757,72.04325979208946,24.720577,0.1,315.03995,1609797194662
Fix,GT,37.4382551,-122.2463774,73.07804236459732,24.975431,0.1,314.93646,1609797195678
Fix,GT,37.4384126,-122.2465752,74.12100483816863,25.198818,0.1,314.7089,1609797196665
Fix,GT,37.4385734,-122.2467786,75.1505335674882,25.492107,0.1,314.5968,1609797197665
Fix,GT,37.4387372,-122.2469864,76.16899407845736,25.779991,0.1,314.4896,1609797198674
Fix,GT,37.4388995,-122.2471928,77.2069201002717,26.171204,0.1,314.3734,1609797199661
Fix,GT,37.439067,-122.2474074,78.27625941848754,26.564352,0.1,314.177,1609797200669
Fix,GT,37.4392349,-122.2476239,79.35846356916429,26.939875,0.1,314.02057,1609797201668
Fix,GT,37.4394042,-122.2478422,80.44217771399022,27.293316,0.1,314.12634,1609797202662
Fix,GT,37.4395786,-122.2480681,81.553549223423,27.642082,0.1,313.74255,1609797203675
Fix,GT,37.4397501,-122.248293,82.65435438203811,27.943367,0.1,313.6268,1609797204666
Fix,GT,37.4399276,-122.2485245,83.7825713634491,28.261173,0.1,313.97922,1609797205678
Fix,GT,37.4401043,-122.2487541,84.946540538311,28.56603,0.1,313.76437,1609797206672
Fix,GT,37.4402807,-122.2489848,86.1164137390256,28.803024,0.1,313.64743,1609797207657
Fix,GT,37.440463,-122.2492225,87.27686143368483,29.050634,0.1,313.87402,1609797208666
Fix,GT,37.4406443,-122.2494588,88.44470369505883,29.042412,0.1,313.85083,1609797209665
Fix,GT,37.4408242,-122.2496921,89.57004624271394,29.03611,0.1,313.9825,1609797210654
Fix,GT,37.4410055,-122.2499261,90.71465609261394,29.0256,0.1,314.1113,1609797211649
Fix,GT,37.44119,-122.2501645,91.86654398941994,29.035439,0.1,313.97534,1609797212661
Fix,GT,37.4413704,-122.2503993,93.02364969164132,28.97981,0.1,313.76617,1609797213656
Fix,GT,37.4415526,-122.2506369,94.32070192337036,28.890865,0.1,314.03033,1609797214664
Fix,GT,37.4417318,-122.2508689,95.61230982100965,28.802975,0.1,313.94672,1609797215655
Fix,GT,37.4419089,-122.2511011,96.91721268516778,28.719025,0.1,313.4978,1609797216644
Fix,GT,37.442089,-122.2513419,98.22823210459948,28.606749,0.1,312.67966,1609797217663
Fix,GT,37.4422619,-122.2515833,99.45069745707512,28.453465,0.1,311.21927,1609797218670
Fix,GT,37.4424261,-122.251825,100.55680183690784,28.365484,0.1,309.47626,1609797219659
Fix,GT,37.4425845,-122.2520749,101.68586273527146,28.295279,0.1,307.56046,1609797220657
Fix,GT,37.4427368,-122.2523324,102.80615147501231,28.167995,0.1,305.55234,1609797221662
Fix,GT,37.4428799,-122.2525905,103.89860168987512,28.068998,0.1,304.01486,1609797222652
Fix,GT,37.4430217,-122.2528617,105.03011789733172,27.982927,0.1,302.4613,1609797223676
Fix,GT,37.4431519,-122.2531273,106.1173038766384,27.922237,0.1,300.68506,1609797224663
Fix,GT,37.4432762,-122.2533987,107.20293912923336,27.879892,0.1,299.02985,1609797225656
Fix,GT,37.4433962,-122.2536787,108.30803932762146,27.783592,0.1,297.35916,1609797226666
Fix,GT,37.443507,-122.2539578,109.41442311537264,27.672688,0.1,295.55597,1609797227662
Fix,GT,37.4436113,-122.2542426,110.52009344482424,27.573246,0.1,293.76907,1609797228666
Fix,GT,37.4437072,-122.2545277,111.5976717822552,27.486927,0.1,291.91077,1609797229661
Fix,GT,37.4437948,-122.2548137,112.65519483327866,27.424982,0.1,290.20746,1609797230649
Fix,GT,37.4438788,-122.2551111,113.74272651219368,27.352264,0.1,288.79477,1609797231668
Fix,GT,37.4439547,-122.2554014,114.84298047876356,27.285904,0.1,287.42728,1609797232658
Fix,GT,37.4440258,-122.2557013,115.92302282905578,27.230463,0.1,285.55658,1609797233673
Fix,GT,37.4440865,-122.2559942,116.97540897154808,27.07495,0.1,283.5511,1609797234660
Fix,GT,37.4441397,-122.2562915,118.00573109853268,26.968899,0.1,281.86053,1609797235658
Fix,GT,37.4441865,-122.2565864,118.97574693721532,26.881075,0.1,280.60883,1609797236647
Fix,GT,37.4442288,-122.2568894,119.90056381982566,26.819643,0.1,279.18915,1609797237661
Fix,GT,37.4442639,-122.2571907,120.75659164518116,26.79836,0.1,277.43713,1609797238666
Fix,GT,37.4442913,-122.257488,121.55618862748146,26.784649,0.1,275.64542,1609797239655
Fix,GT,37.444311,-122.2577898,122.32610798549652,26.807144,0.1,273.83978,1609797240655
Fix,GT,37.444324,-122.2580963,123.01028230285644,26.78956,0.1,272.1512,1609797241669
Fix,GT,37.4443296,-122.2583964,123.63913875484468,26.75454,0.1,270.51276,1609797242661
Fix,GT,37.4443276,-122.2587022,124.22282785862684,26.778826,0.1,268.57242,1609797243673
Fix,GT,37.4443176,-122.2590023,124.6954668965936,26.903658,0.1,266.7621,1609797244663
Fix,GT,37.4443015,-122.2593021,125.06543022432923,27.046059,0.1,265.46393,1609797245649
Fix,GT,37.4442803,-122.259609,125.3624687051773,27.171852,0.1,264.57684,1609797246655
Fix,GT,37.4442562,-122.2599142,125.6023303786516,27.321426,0.1,264.08105,1609797247651
Fix,GT,37.4442303,-122.260228,125.78044407594204,27.655254,0.1,263.99512,1609797248667
Fix,GT,37.4442051,-122.2605389,125.89270064914226,27.974987,0.1,264.22952,1609797249661
Fix,GT,37.4441807,-122.2608542,126.01163656282424,28.32397,0.1,264.43433,1609797250657
Fix,GT,37.4441553,-122.2611769,126.19110339313744,28.484974,0.1,264.08203,1609797251667
Fix,GT,37.4441296,-122.2614942,126.40609518885611,28.592995,0.1,264.22266,1609797252656
Fix,GT,37.444104,-122.2618212,126.5975405603051,28.732347,0.1,264.35147,1609797253670
Fix,GT,37.4440793,-122.2621423,126.76585644328594,28.898556,0.1,264.4293,1609797254661
Fix,GT,37.4440545,-122.2624643,126.92793399837612,29.042568,0.1,264.20547,1609797255649
Fix,GT,37.444028,-122.2627973,127.04034222197534,29.250393,0.1,264.31265,1609797256665
Fix,GT,37.4440025,-122.2631265,127.14185440719127,29.447021,0.1,264.31183,1609797257662
Fix,GT,37.4439753,-122.2634614,127.2978732523918,29.649323,0.1,263.99915,1609797258671
Fix,GT,37.4439487,-122.263792,127.4178829793334,29.739817,0.1,264.38232,1609797259660
Fix,GT,37.4439262,-122.2641222,127.46538168266414,29.784407,0.1,265.81555,1609797260646
Fix,GT,37.4439124,-122.2644644,127.44016509175302,29.94173,0.1,268.0614,1609797261662
Fix,GT,37.4439078,-122.264803,127.3984170501232,30.140709,0.1,269.6625,1609797262659
Fix,GT,37.4439102,-122.2651488,127.30496912926436,30.28133,0.1,271.28128,1609797263671
Fix,GT,37.4439211,-122.2654885,127.15142774409055,30.385246,0.1,273.16833,1609797264663
Fix,GT,37.4439408,-122.2658269,126.94643087354302,30.59053,0.1,275.07764,1609797265648
Fix,GT,37.4439707,-122.2661779,126.64980713033675,30.639668,0.1,276.8394,1609797266668
Fix,GT,37.4440074,-122.2665179,126.29167984795568,30.675909,0.1,278.29523,1609797267658
Fix,GT,37.4440504,-122.2668587,125.90463995933531,30.71816,0.1,279.624,1609797268653
Fix,GT,37.4441008,-122.267196,125.4970721219778,30.740475,0.1,281.5484,1609797269641
Fix,GT,37.4441616,-122.2675377,125.03472025358676,30.774536,0.1,283.42654,1609797270648
Fix,GT,37.4442308,-122.2678741,124.6072378771901,30.805649,0.1,285.39825,1609797271646
Fix,GT,37.4443094,-122.2682086,124.1610230091214,30.86757,0.1,287.26764,1609797272648
Fix,GT,37.4443976,-122.2685455,123.70550254535677,30.907372,0.1,288.97195,1609797273663
Fix,GT,37.4444928,-122.2688735,123.26648377394676,30.91742,0.1,290.82568,1609797274662
Fix,GT,37.4445951,-122.2691937,122.80330988413095,30.866665,0.1,292.7395,1609797275650
Fix,GT,37.4447083,-122.2695186,122.25685245668888,30.833496,0.1,294.24356,1609797276667
Fix,GT,37.4448249,-122.2698316,121.8626113629937,30.871374,0.1,295.79767,1609797277659
Fix,GT,37.4449517,-122.2701479,121.45020737713575,30.971954,0.1,297.48978,1609797278672
Fix,GT,37.4450839,-122.2704542,121.05704985427856,31.105404,0.1,299.22012,1609797279664
Fix,GT,37.4452241,-122.2707552,120.73467502284048,31.209003,0.1,301.1047,1609797280655
Fix,GT,37.4453744,-122.2710561,120.50770889467,31.26516,0.1,302.77097,1609797281660
Fix,GT,37.44553,-122.2713476,120.36977019238472,31.154732,0.1,304.65414,1609797282654
Fix,GT,37.4456921,-122.2716318,120.3135027244985,31.0181,0.1,306.30334,1609797283649
Fix,GT,37.4458609,-122.2719092,120.3596557111144,30.894276,0.1,308.09995,1609797284647
Fix,GT,37.4460374,-122.2721837,120.5818292839527,30.776974,0.1,309.5254,1609797285659
Fix,GT,37.446216,-122.2724464,120.86574889338016,30.6325,0.1,311.04614,1609797286653
Fix,GT,37.4463994,-122.2727073,121.22975120067596,30.414091,0.1,311.34375,1609797287661
Fix,GT,37.4465784,-122.2729631,121.64750075399874,30.16937,0.1,311.0821,1609797288655
Fix,GT,37.4467583,-122.2732213,122.08281443357468,29.837025,0.1,311.10843,1609797289666
Fix,GT,37.4469325,-122.2734701,122.61201896762849,29.28915,0.1,311.1563,1609797290656
Fix,GT,37.4471047,-122.2737177,123.18504180037976,28.599623,0.1,311.15475,1609797291661
Fix,GT,37.4472721,-122.2739563,123.80597123539448,27.948748,0.1,311.29123,1609797292656
Fix,GT,37.4474393,-122.2741944,124.51580620706082,27.297798,0.1,311.24976,1609797293672
Fix,GT,37.4475987,-122.2744212,125.24565631312132,26.61856,0.1,311.2743,1609797294664
Fix,GT,37.4477565,-122.2746464,125.9953788791895,25.899134,0.1,311.29868,1609797295675
Fix,GT,37.4479087,-122.274863,126.70835467600824,25.380564,0.1,311.27716,1609797296672
Fix,GT,37.4480567,-122.2750742,127.43333073604109,25.004642,0.1,311.25214,1609797297660
Fix,GT,37.448204,-122.2752835,128.13503300893308,24.835419,0.1,311.4924,1609797298652
Fix,GT,37.4483531,-122.2754937,128.8735199354887,24.821877,0.1,311.62317,1609797299655
Fix,GT,37.4485038,-122.2757067,129.5855530589819,24.825897,0.1,311.22614,1609797300670
Fix,GT,37.4486505,-122.2759171,130.28155012249948,24.87315,0.1,310.94968,1609797301666
Fix,GT,37.4487972,-122.2761292,130.99397241997718,25.118639,0.1,310.85736,1609797302660
Fix,GT,37.4489474,-122.276347,131.73037337684633,25.361332,0.1,310.68265,1609797303670
Fix,GT,37.4490953,-122.2765635,132.4471983151436,25.629593,0.1,310.37967,1609797304659
Fix,GT,37.4492438,-122.2767823,133.14337741142512,25.834805,0.1,310.225,1609797305647
Fix,GT,37.4493987,-122.2770108,133.81337306338548,26.141478,0.1,310.2706,1609797306669
Fix,GT,37.4495501,-122.2772348,134.44995092236996,26.215595,0.1,310.13272,1609797307660
Fix,GT,37.4497042,-122.2774648,134.99663160610197,26.296818,0.1,309.71594,1609797308674
Fix,GT,37.449854,-122.2776912,135.45218501085043,26.534145,0.1,309.54852,1609797309659
Fix,GT,37.4500097,-122.2779274,135.93047600960733,26.75946,0.1,309.49573,1609797310676
Fix,GT,37.450162,-122.2781588,136.34883914899825,26.753143,0.1,309.35187,1609797311668
Fix,GT,37.4503133,-122.2783892,136.80424255043266,26.695507,0.1,309.4487,1609797312657
Fix,GT,37.4504662,-122.2786209,137.19179768514633,26.66423,0.1,309.55,1609797313654
Fix,GT,37.4506179,-122.2788495,137.46543105351924,26.703377,0.1,309.63245,1609797314641
Fix,GT,37.4507731,-122.2790841,137.68030663490293,26.719748,0.1,309.5076,1609797315651
Fix,GT,37.4509295,-122.279321,137.83864057028293,26.815065,0.1,309.51514,1609797316668
Fix,GT,37.4510825,-122.2795532,137.89981606328487,26.926414,0.1,309.39755,1609797317660
Fix,GT,37.4512392,-122.2797919,137.93025064754485,27.013763,0.1,309.41208,1609797318675
Fix,GT,37.4513925,-122.2800257,137.95090241849422,27.114439,0.1,309.2585,1609797319665
Fix,GT,37.4515373,-122.2802467,137.93907951259612,27.2414,0.1,309.33984,1609797320596
Fix,GT,37.451724,-122.2805312,137.8703521773815,27.472961,0.1,309.3639,1609797321788
Fix,GT,37.4518613,-122.2807399,137.74286672365665,27.753462,0.1,309.4983,1609797322655
Fix,GT,37.4520246,-122.2809877,137.57837290668488,28.10209,0.1,309.36133,1609797323674
Fix,GT,37.4521837,-122.2812307,137.33504585510494,28.276335,0.1,309.22836,1609797324661
Fix,GT,37.452348,-122.2814819,137.04206554758548,28.277184,0.1,309.2862,1609797325677
Fix,GT,37.4525086,-122.2817266,136.67516582906245,28.17881,0.1,309.42865,1609797326670
Fix,GT,37.4526687,-122.2819704,136.27982216620444,28.155487,0.1,309.2935,1609797327663
Fix,GT,37.4528282,-122.2822142,135.85631232059,28.094437,0.1,309.29468,1609797328654
Fix,GT,37.4529893,-122.2824601,135.3509636926055,27.940252,0.1,309.33527,1609797329660
Fix,GT,37.4531516,-122.2827076,134.78363275879622,27.913534,0.1,309.3697,1609797330676
Fix,GT,37.453311,-122.2829497,134.1894112854004,27.937916,0.1,309.61987,1609797331671
Fix,GT,37.4534709,-122.28319,133.58019439715147,28.050325,0.1,309.6723,1609797332661
Fix,GT,37.4536351,-122.2834376,132.95520934569836,28.21374,0.1,309.62885,1609797333673
Fix,GT,37.453796,-122.2836817,132.33280924165248,28.398335,0.1,309.379,1609797334663
Fix,GT,37.4539578,-122.2839284,131.73143683552743,28.599007,0.1,309.34402,1609797335655
Fix,GT,37.4541214,-122.2841789,131.09212768429518,28.826511,0.1,309.17056,1609797336653
Fix,GT,37.4542876,-122.2844337,130.43618959993125,29.002342,0.1,309.15558,1609797337661
Fix,GT,37.4544538,-122.2846893,129.8136292960048,28.998901,0.1,309.19852,1609797338667
Fix,GT,37.4546188,-122.284941,129.17391947460175,29.00565,0.1,309.35544,1609797339661
Fix,GT,37.4547859,-122.2851959,128.54282133066653,29.024458,0.1,309.36902,1609797340667
Fix,GT,37.4549528,-122.2854491,127.88928586280346,28.993795,0.1,309.69897,1609797341669
Fix,GT,37.4551178,-122.2856983,127.25220452666284,29.009563,0.1,309.534,1609797342658
Fix,GT,37.4552871,-122.2859548,126.57822070664167,29.04101,0.1,309.50507,1609797343673
Fix,GT,37.4554521,-122.2862065,125.91361030989884,29.071507,0.1,309.19644,1609797344665
Fix,GT,37.45562,-122.2864632,125.20133658659458,28.953463,0.1,309.28748,1609797345677
Fix,GT,37.4557854,-122.2867132,124.43329564356804,28.802418,0.1,309.82968,1609797346673
Fix,GT,37.4559497,-122.2869589,123.72782561385633,28.776886,0.1,309.9034,1609797347658
Fix,GT,37.4561193,-122.2872078,123.1311354150772,28.790201,0.1,311.36804,1609797348665
Fix,GT,37.4562912,-122.2874421,122.7247271631956,28.787363,0.1,313.72064,1609797349643
Fix,GT,37.456476,-122.2876766,122.36735182577372,28.791946,0.1,315.51617,1609797350656
Fix,GT,37.4566673,-122.2879033,122.17378381359578,28.77763,0.1,317.47327,1609797351671
Fix,GT,37.4568601,-122.2881167,122.0723626036644,28.743515,0.1,319.4111,1609797352663
Fix,GT,37.457062,-122.2883258,122.08059179770946,28.669565,0.1,321.24356,1609797353675
Fix,GT,37.4572632,-122.2885226,122.22234466779231,28.567377,0.1,322.6346,1609797354664
Fix,GT,37.4574682,-122.2887123,122.503658780396,28.436396,0.1,324.3633,1609797355656
Fix,GT,37.4576802,-122.2888945,122.89985895168782,28.335064,0.1,326.59525,1609797356661
Fix,GT,37.4578937,-122.2890638,123.36710786437988,28.334072,0.1,328.44656,1609797357651
Fix,GT,37.4581181,-122.2892309,123.94992712217568,28.355064,0.1,330.06223,1609797358672
Fix,GT,37.4583401,-122.2893844,124.50827855730056,28.368755,0.1,332.01413,1609797359664
Fix,GT,37.4585697,-122.2895315,125.10773966932295,28.398966,0.1,333.63657,1609797360672
Fix,GT,37.4587959,-122.2896648,125.70281756800412,28.303204,0.1,335.6363,1609797361650
Fix,GT,37.4590321,-122.2897933,126.27660253167151,28.2492,0.1,337.30084,1609797362661
Fix,GT,37.4592676,-122.2899106,126.87382131576538,28.263641,0.1,339.17462,1609797363656
Fix,GT,37.4595092,-122.2900201,127.37454656380416,28.360603,0.1,340.82928,1609797364663
Fix,GT,37.4597501,-122.2901201,127.97496983766555,28.464281,0.1,342.35852,1609797365655
Fix,GT,37.4599995,-122.2902135,128.56101799839735,28.536667,0.1,344.21487,1609797366668
Fix,GT,37.4602456,-122.2902942,129.1015731496811,28.60725,0.1,346.7466,1609797367655
Fix,GT,37.4605025,-122.290363,129.8193952190876,28.652288,0.1,348.8105,1609797368673
Fix,GT,37.4607546,-122.2904201,130.3892967220545,28.527008,0.1,350.61765,1609797369667
Fix,GT,37.4610043,-122.2904655,130.93311371523143,28.20293,0.1,352.63327,1609797370654
Fix,GT,37.461258,-122.2905009,131.49411321723463,27.940441,0.1,354.71228,1609797371663
Fix,GT,37.4615088,-122.2905223,132.03760959625242,27.976269,0.1,357.3468,1609797372662
Fix,GT,37.4617628,-122.2905314,132.72731446218492,27.928438,0.1,358.85458,1609797373671
Fix,GT,37.4620112,-122.2905365,133.44474120914936,27.799572,0.1,358.93698,1609797374660
Fix,GT,37.4622575,-122.2905432,134.05254790115356,27.726606,0.1,358.6645,1609797375645
Fix,GT,37.462511,-122.2905496,134.63892033171652,27.620977,0.1,358.8195,1609797376662
Fix,GT,37.4627586,-122.2905556,135.15709938097,27.581146,0.1,358.74515,1609797377658
Fix,GT,37.4630109,-122.2905623,135.72031626337767,27.536026,0.1,358.63034,1609797378675
Fix,GT,37.4632566,-122.2905697,136.33412919586897,27.396236,0.1,358.40253,1609797379667
Fix,GT,37.4634974,-122.290579,137.0096446837187,27.000244,0.1,358.0238,1609797380649
Fix,GT,37.4637369,-122.2905903,137.8096901491284,26.376348,0.1,357.69485,1609797381646
Fix,GT,37.4639764,-122.2906027,138.54836216139793,25.997328,0.1,357.5693,1609797382662
Fix,GT,37.4642079,-122.2906165,139.01296833503244,25.771626,0.1,356.93176,1609797383657
Fix,GT,37.4644414,-122.2906358,139.37123387002947,25.675945,0.1,355.53467,1609797384667
Fix,GT,37.4646677,-122.2906615,139.7030058324337,25.685556,0.1,354.18655,1609797385650
Fix,GT,37.4648979,-122.2906943,140.03446408104895,25.631207,0.1,352.73996,1609797386651
Fix,GT,37.4651283,-122.2907345,140.30269017767907,25.443375,0.1,351.45847,1609797387662
Fix,GT,37.4653558,-122.2907797,140.56783687770366,25.218128,0.1,350.4715,1609797388671
Fix,GT,37.4655626,-122.2908243,140.8022614080552,24.866585,0.1,350.17786,1609797389602
Fix,GT,37.4658172,-122.290879,141.06184714257716,24.272305,0.1,350.4745,1609797390768
Fix,GT,37.46601,-122.2909185,141.30752689927817,23.829983,0.1,350.82587,1609797391670
Fix,GT,37.4662227,-122.290961,141.6099671766162,23.339394,0.1,350.92697,1609797392683
Fix,GT,37.4664262,-122.2910031,141.88521104955674,22.855856,0.1,350.08218,1609797393674
Fix,GT,37.4666237,-122.2910494,142.1986317562461,22.369858,0.1,348.79474,1609797394661
Fix,GT,37.4668213,-122.2911018,142.3859194316864,21.963545,0.1,347.26178,1609797395672
Fix,GT,37.467012,-122.2911595,142.34567556262016,21.645567,0.1,345.8553,1609797396671
Fix,GT,37.4671982,-122.2912204,142.06935975551605,21.423506,0.1,345.04044,1609797397664
Fix,GT,37.4673855,-122.291285,141.640714245975,21.290241,0.1,344.2598,1609797398674
Fix,GT,37.4675671,-122.2913498,141.0150516703129,20.783646,0.1,343.90228,1609797399668
Fix,GT,37.4677432,-122.2914167,140.438577791214,19.89554,0.1,342.298,1609797400671
Fix,GT,37.4679046,-122.2914866,139.6856911598444,18.662172,0.1,340.10397,1609797401652
Fix,GT,37.4680571,-122.2915571,138.81258138304952,17.098486,0.1,339.62018,1609797402658
Fix,GT,37.4681948,-122.2916193,137.94658386147023,15.480585,0.1,340.48804,1609797403656
Fix,GT,37.4683201,-122.2916733,137.1143078595996,13.6311455,0.1,341.30325,1609797404662
Fix,GT,37.4684268,-122.291717,136.4595794917941,11.312263,0.1,342.0648,1609797405659
Fix,GT,37.4685133,-122.2917513,136.06061052274703,8.907736,0.1,342.36288,1609797406654
Fix,GT,37.4685788,-122.291779,135.81815508294105,6.3359747,0.1,340.8565,1609797407663
Fix,GT,37.4686221,-122.2917992,135.70437283849716,4.0686865,0.1,339.1943,1609797408657
Fix,GT,37.4686494,-122.2918143,135.66402500528096,2.4900486,0.1,336.59424,1609797409665
Fix,GT,37.4686653,-122.2918239,135.6254275315404,1.3356245,0.1,335.1683,1609797410752
Fix,GT,37.4686717,-122.2918279,135.60849772208928,0.9216528,0.1,334.53265,1609797411450
Fix,GT,37.4686762,-122.2918309,135.59638243955374,0.03508518,0.1,334.06754,1609797412661
Fix,GT,37.4686762,-122.2918309,135.589,0.0017511154,0.1,334.06775,1609797413657
Fix,GT,37.4686762,-122.2918309,135.588,0.0019388498,0.1,334.06546,1609797414664
Fix,GT,37.4686762,-122.2918309,135.587,0.002087555,0.1,334.0653,1609797415659
Fix,GT,37.4686762,-122.2918308,135.587,0.0011968242,0.1,334.06427,1609797416652
Fix,GT,37.4686762,-122.2918308,135.588,0.0014142136,0.1,334.0641,1609797417662
Fix,GT,37.4686762,-122.2918308,135.589,0.0012254387,0.1,334.0649,1609797418654
Fix,GT,37.4686762,-122.2918308,135.587,0.0019478032,0.1,334.06494,1609797419664
Fix,GT,37.4686762,-122.2918308,135.587,0.0014142136,0.1,334.06448,1609797420658
Fix,GT,37.4686763,-122.2918308,135.585,0.001,0.1,334.0647,1609797421651
Fix,GT,37.4686763,-122.2918308,135.584,0.001,0.1,334.065,1609797422662
Fix,GT,37.4686763,-122.2918308,135.584,0.0012252656,0.1,334.06467,1609797423754
Fix,GT,37.4686763,-122.2918308,135.583,0.0006223741,0.1,334.0651,1609797424462
Fix,GT,37.4686763,-122.2918308,135.582,0.00050058396,0.1,334.065,1609797425649
Fix,GT,37.4686763,-122.2918308,135.58199595934153,0.0005913619,0.1,334.06503,1609797426640
Fix,GT,37.4686763,-122.2918308,135.581,0.001,0.1,334.06387,1609797427633
Fix,GT,37.4686764,-122.2918308,135.57730625742676,0.08716754,0.1,334.05402,1609797428656
Fix,GT,37.4686807,-122.2918337,135.565,1.0970103,0.1,333.59048,1609797429665
Fix,GT,37.4686937,-122.2918427,135.54323043638468,2.278527,0.1,332.047,1609797430658
Fix,GT,37.4687172,-122.2918613,135.53452259403468,3.9291973,0.1,328.2246,1609797431652
Fix,GT,37.4687497,-122.2918945,135.58445868968963,5.2362695,0.1,319.69785,1609797432661
Fix,GT,37.4687797,-122.2919458,135.78653078049422,6.005601,0.1,302.54584,1609797433657
Fix,GT,37.4687917,-122.2920144,135.93628298449516,6.480848,0.1,277.29077,1609797434665
Fix,GT,37.4687799,-122.2920902,135.9907847905159,7.471277,0.1,254.08414,1609797435660
Fix,GT,37.4687454,-122.292168,136.01907914996147,8.494737,0.1,236.41241,1609797436651
Fix,GT,37.4686858,-122.2922535,136.03881973314284,9.822216,0.1,226.8937,1609797437754
Fix,GT,37.4686314,-122.2923211,136.02990247344968,10.931632,0.1,224.19572,1609797438572
Fix,GT,37.468567,-122.2923998,135.99866169184446,11.328392,0.1,224.12936,1609797439461
Fix,GT,37.4684733,-122.2925144,135.81512861859798,11.184719,0.1,224.37408,1609797440751
Fix,GT,37.4683574,-122.2926682,135.36872800683977,11.043974,0.1,228.9686,1609797442437
Fix,GT,37.4682938,-122.2927645,135.01788794887068,11.067829,0.1,230.44844,1609797443437
Fix,GT,37.4682288,-122.29286,134.59614794272184,11.160748,0.1,228.3242,1609797444437
Fix,GT,37.4681586,-122.2929513,134.08930789220332,11.296089,0.1,224.79001,1609797445437
Fix,GT,37.4680852,-122.2930394,133.4989598596096,10.989988,0.1,223.58507,1609797446437
Fix,GT,37.4680207,-122.2931247,132.9057958652973,9.786473,0.1,229.07361,1609797447437
Fix,GT,37.4679754,-122.2932127,132.27282377171517,8.886972,0.1,241.42624,1609797448437
Fix,GT,37.4679529,-122.2933103,131.45628771591186,9.171414,0.1,260.28894,1609797449437
Fix,GT,37.4679667,-122.293414,130.8166039826274,9.347045,0.1,288.32797,1609797450437
Fix,GT,37.4680154,-122.293502,130.65811211669447,9.8048,0.1,309.94565,1609797451437
Fix,GT,37.4680828,-122.2935872,130.69574400758745,11.418997,0.1,315.94458,1609797452437
Fix,GT,37.4681636,-122.29368,130.8047200409174,12.904356,0.1,317.6338,1609797453437
Fix,GT,37.4682552,-122.2937826,130.9130441185236,14.294693,0.1,318.26022,1609797454437
Fix,GT,37.4683551,-122.2938921,131.31859631687402,14.941317,0.1,318.89117,1609797455437
Fix,GT,37.4684573,-122.294002,131.8430603713393,14.892886,0.1,319.62213,1609797456437
Fix,GT,37.4685596,-122.2941072,132.4709204008281,14.374867,0.1,321.14777,1609797457437
Fix,GT,37.4686606,-122.2942018,133.1716444160342,13.565411,0.1,325.66934,1609797458437
Fix,GT,37.468766,-122.2942683,133.99324448400736,12.601376,0.1,339.0861,1609797459437
Fix,GT,37.4688732,-122.2942937,134.83674054276943,11.630473,0.1,355.14465,1609797460437
Fix,GT,37.4689748,-122.2942832,135.6335284615755,11.1707115,0.1,9.469391,1609797461437
Fix,GT,37.4690701,-122.2942422,136.36578040519356,11.177477,0.1,23.941956,1609797462437
Fix,GT,37.4691546,-122.2941731,137.08792854064703,11.218897,0.1,37.85443,1609797463437
Fix,GT,37.4692236,-122.2940792,137.7735524588823,11.382273,0.1,52.163666,1609797464437
Fix,GT,37.4692728,-122.2939648,138.45141251057387,11.587075,0.1,66.94287,1609797465437
Fix,GT,37.4692988,-122.2938362,139.1007845349312,11.856689,0.1,80.608246,1609797466437
Fix,GT,37.4692991,-122.2937008,139.8222725827694,12.077301,0.1,94.85016,1609797467437
Fix,GT,37.4692717,-122.2935668,140.53892871537806,12.449404,0.1,110.0181,1609797468437
Fix,GT,37.4692144,-122.2934423,141.1999484770298,13.015307,0.1,125.76166,1609797469437
Fix,GT,37.4691307,-122.2933312,141.7284886159301,14.060869,0.1,136.17245,1609797470437
Fix,GT,37.469032,-122.2932211,142.20123265254497,15.268082,0.1,139.0664,1609797471437
Fix,GT,37.4689225,-122.2931049,142.6285083385706,16.590685,0.1,140.11185,1609797472437
Fix,GT,37.4688023,-122.2929813,143.02490854468942,17.896606,0.1,141.22513,1609797473437
Fix,GT,37.4686694,-122.2928531,143.11625171676278,19.33016,0.1,143.33868,1609797474437
Fix,GT,37.4685222,-122.2927217,142.9930478515625,20.776718,0.1,145.51215,1609797475437
Fix,GT,37.4683607,-122.2925889,142.83328416261077,21.939941,0.1,147.84686,1609797476437
Fix,GT,37.4681862,-122.2924599,142.634187800169,23.028082,0.1,150.81775,1609797477437
Fix,GT,37.4679984,-122.2923354,142.42541985458138,24.148453,0.1,152.99103,1609797478437
Fix,GT,37.4677979,-122.2922132,142.20130382442474,25.316055,0.1,154.67346,1609797479437
Fix,GT,37.4675864,-122.2920921,142.00969975316525,26.240274,0.1,156.00256,1609797480437
Fix,GT,37.4673662,-122.2919754,141.73109567832947,26.809647,0.1,158.01526,1609797481437
Fix,GT,37.4671385,-122.2918662,141.4204198474288,27.237144,0.1,159.83417,1609797482437
Fix,GT,37.4668694,-122.2917461,141.17848625063894,27.51888,0.1,160.73041,1609797483594
Fix,GT,37.4665879,-122.291626,140.85064249718187,27.698154,0.1,161.6029,1609797484789
Fix,GT,37.4663807,-122.2915423,140.61335654520988,27.769833,0.1,162.69226,1609797485660
Fix,GT,37.466152,-122.2914578,140.33194437992574,27.854881,0.1,164.36517,1609797486611
Fix,GT,37.4658818,-122.2913697,140.025836869359,27.901922,0.1,166.28064,1609797487723
Fix,GT,37.4656234,-122.2912975,139.76448102784155,27.931225,0.1,168.38678,1609797488775
Fix,GT,37.4654025,-122.2912457,139.5393640743494,27.98488,0.1,170.11853,1609797489667
Fix,GT,37.4651542,-122.2911955,139.19940453243254,28.201546,0.1,171.21075,1609797490661
Fix,GT,37.4649032,-122.2911495,138.9011972283125,28.363869,0.1,172.1955,1609797491656
Fix,GT,37.4646478,-122.2911115,138.57797941952944,28.48328,0.1,174.10535,1609797492660
Fix,GT,37.4643874,-122.2910822,138.20316722989082,28.57429,0.1,175.6117,1609797493677
Fix,GT,37.4641333,-122.2910618,137.80817293155192,28.661917,0.1,176.78552,1609797494664
Fix,GT,37.4638798,-122.2910466,137.4600745230615,28.68806,0.1,177.68884,1609797495646
Fix,GT,37.4636161,-122.2910354,137.08932590234278,28.745138,0.1,178.18323,1609797496666
Fix,GT,37.4633575,-122.2910258,136.62680031323433,28.819286,0.1,178.32593,1609797497664
Fix,GT,37.4630948,-122.291016,136.08086898428203,28.837318,0.1,178.20276,1609797498675
Fix,GT,37.4628378,-122.2910065,135.55237881958482,28.788311,0.1,178.36584,1609797499666
Fix,GT,37.4625829,-122.2909986,135.03972420692446,28.641485,0.1,178.74878,1609797500650
Fix,GT,37.4623217,-122.2909914,134.70486867487432,28.45599,0.1,178.64374,1609797501667
Fix,GT,37.4620697,-122.2909831,134.4457092938423,28.275955,0.1,178.27808,1609797502653
Fix,GT,37.4618176,-122.2909718,134.20525747433305,28.102863,0.1,177.66302,1609797503646
Fix,GT,37.4615428,-122.2909538,133.79291165462135,27.962524,0.1,176.1419,1609797504736
Fix,GT,37.4613633,-122.2909359,133.42977955150604,27.916283,0.1,174.83508,1609797505452
Fix,GT,37.4610645,-122.290895,132.75225473636388,27.876392,0.1,172.74927,1609797506648
Fix,GT,37.4608131,-122.2908496,132.15481381720303,27.944313,0.1,170.97186,1609797507659
Fix,GT,37.4605652,-122.2907957,131.6041234230995,28.075392,0.1,169.45087,1609797508656
Fix,GT,37.4603137,-122.2907316,131.0249343723059,28.255112,0.1,167.60693,1609797509667
Fix,GT,37.4600698,-122.2906591,130.50345341271162,28.414566,0.1,165.76831,1609797510650
Fix,GT,37.4598216,-122.290575,129.87780610346795,28.617966,0.1,164.01746,1609797511651
Fix,GT,37.4595858,-122.2904855,129.33285982802883,28.809605,0.1,162.32849,1609797512603
Fix,GT,37.4591317,-122.2902866,128.32270382356643,29.133575,0.1,159.0069,1609797514445
Fix,GT,37.4588503,-122.2901434,127.66496793398866,29.270365,0.1,157.05371,1609797515600
Fix,GT,37.4585814,-122.2899945,126.99841001829505,29.376808,0.1,155.22498,1609797516712
Fix,GT,37.4583427,-122.2898498,126.35819731898606,29.442673,0.1,153.32507,1609797517713
Fix,GT,37.4581013,-122.2896921,125.76606633579732,29.488873,0.1,151.57257,1609797518738
Fix,GT,37.4578725,-122.2895308,125.2129487351179,29.523075,0.1,149.75763,1609797519725
Fix,GT,37.4576424,-122.2893566,124.70040085887908,29.5574,0.1,147.98773,1609797520735
Fix,GT,37.4574208,-122.2891762,124.24131980380416,29.573961,0.1,145.92792,1609797521727
Fix,GT,37.4571912,-122.2889735,123.91383285558224,29.538206,0.1,143.80377,1609797522781
Fix,GT,37.4570021,-122.2887944,123.70049182271958,29.497837,0.1,142.25977,1609797523672
Fix,GT,37.4567957,-122.2885881,123.56497333407404,29.424267,0.1,140.617,1609797524667
Fix,GT,37.4565919,-122.28837,123.51198981666565,29.311573,0.1,138.48096,1609797525679
Fix,GT,37.4563982,-122.2881498,123.60037455177306,29.121904,0.1,136.95978,1609797526672
Fix,GT,37.4562094,-122.2879212,123.83593323755264,28.93499,0.1,135.09021,1609797527676
Fix,GT,37.4560284,-122.2876897,124.14135553181173,28.735731,0.1,133.87659,1609797528671
Fix,GT,37.4558545,-122.2874551,124.54328165721893,28.51712,0.1,131.89362,1609797529661
Fix,GT,37.455688,-122.2872136,124.94587554895878,28.355335,0.1,129.96048,1609797530655
Fix,GT,37.4555341,-122.28698,125.1936726438254,28.32673,0.099,129.26135,1609797531602
Fix,GT,37.4553431,-122.286688,125.52358506202698,28.423635,0.1,129.4461,1609797532779
Fix,GT,37.4551973,-122.2864668,125.91502796244622,28.455553,0.1,129.52267,1609797533673
Fix,GT,37.4550353,-122.286221,126.46385737884044,28.441738,0.1,129.42505,1609797534664
Fix,GT,37.454874,-122.285975,127.12704326784612,28.407421,0.1,129.34149,1609797535655
Fix,GT,37.45471,-122.2857252,127.74098395788668,28.34318,0.1,129.39374,1609797536664
Fix,GT,37.4545482,-122.2854785,128.34468944621085,28.30321,0.1,129.34814,1609797537662
Fix,GT,37.4543845,-122.2852283,128.98815681171416,28.247448,0.1,129.3125,1609797538675
Fix,GT,37.4542245,-122.2849849,129.59480640763044,28.178864,0.1,129.61935,1609797539664
Fix,GT,37.4540611,-122.2847376,130.21711524629595,28.090944,0.1,129.51532,1609797540675
Fix,GT,37.4539011,-122.2844948,130.8009258031845,28.03111,0.1,129.50253,1609797541668
Fix,GT,37.4537415,-122.2842525,131.40370085573198,27.977009,0.1,129.43182,1609797542661
Fix,GT,37.4535829,-122.284011,132.02715128636362,27.923542,0.1,129.38702,1609797543651
Fix,GT,37.4534225,-122.2837661,132.67663193076848,27.866688,0.1,129.22675,1609797544657
Fix,GT,37.4532599,-122.2835173,133.30272069168092,27.82296,0.1,129.30005,1609797545679
Fix,GT,37.4531024,-122.2832765,133.86979344415664,27.76818,0.1,129.32129,1609797546671
Fix,GT,37.4529452,-122.283037,134.38891704708337,27.746284,0.1,129.51459,1609797547660
Fix,GT,37.4527832,-122.2827917,134.8907807973623,27.787762,0.1,129.54028,1609797548675
Fix,GT,37.4526252,-122.2825521,135.33549664473534,27.82713,0.1,129.47144,1609797549664
Fix,GT,37.4524627,-122.2823054,135.7728114004135,27.870071,0.1,129.47488,1609797550681
Fix,GT,37.4523139,-122.2820794,136.11225386044384,27.961864,0.1,129.47357,1609797551610
Fix,GT,37.4521261,-122.2817927,136.48562590497733,28.065163,0.1,129.21295,1609797552782
Fix,GT,37.4519923,-122.2815879,136.7243863439262,28.134607,0.1,129.30496,1609797553616
Fix,GT,37.4518037,-122.2813004,136.97111349016427,28.26594,0.1,129.4195,1609797554784
Fix,GT,37.451659,-122.2810803,137.14792166781424,28.38512,0.1,129.40515,1609797555675
Fix,GT,37.4514968,-122.2808334,137.28148756861685,28.518936,0.1,129.41489,1609797556670
Fix,GT,37.4513446,-122.2806013,137.3763268708661,28.521809,0.1,129.3757,1609797557602
Fix,GT,37.4511602,-122.2803201,137.43266308772564,28.468502,0.1,129.3653,1609797558733
Fix,GT,37.4509888,-122.2800585,137.4293118095398,28.449041,0.1,129.36456,1609797559786
Fix,GT,37.4508539,-122.2798529,137.3495932404101,28.479261,0.1,129.43634,1609797560614
Fix,GT,37.4506744,-122.2795805,137.23881664812566,28.533646,0.1,129.5777,1609797561710
Fix,GT,37.4504985,-122.2793143,137.04999328684806,28.605263,0.1,129.556,1609797562782
Fix,GT,37.4503546,-122.2790957,136.8451282969117,28.66938,0.1,129.43005,1609797563658
Fix,GT,37.4501889,-122.278843,136.6170028140545,28.752575,0.1,129.33276,1609797564666
Fix,GT,37.4500241,-122.2785913,136.25107826811077,28.868343,0.1,129.26288,1609797565667
Fix,GT,37.4498598,-122.2783398,135.8974494550824,28.856047,0.1,129.284,1609797566663
Fix,GT,37.4496964,-122.2780911,135.52726112788915,28.782604,0.1,129.5727,1609797567652
Fix,GT,37.4495278,-122.2778361,135.02830378526448,28.75674,0.1,129.66766,1609797568671
Fix,GT,37.4493632,-122.2775889,134.5621695510149,28.729671,0.1,129.88007,1609797569663
Fix,GT,37.4491982,-122.2773423,133.98614853930474,28.742859,0.1,129.93085,1609797570654
Fix,GT,37.449029,-122.2770893,133.34123464977742,28.774086,0.1,130.01462,1609797571670
Fix,GT,37.4488628,-122.2768432,132.64303236097098,28.780407,0.1,130.3216,1609797572662
Fix,GT,37.4486924,-122.2765932,131.8816792306304,28.808182,0.1,130.55887,1609797573673
Fix,GT,37.4485246,-122.2763493,131.04893476039172,28.867006,0.1,130.86896,1609797574661
Fix,GT,37.4483553,-122.2761059,130.2425390238762,28.87275,0.1,131.24435,1609797575651
Fix,GT,37.4481836,-122.2758616,129.43123760432007,28.850187,0.1,131.32062,1609797576650
Fix,GT,37.4480091,-122.2756142,128.59235377049447,28.837032,0.1,131.40192,1609797577663
Fix,GT,37.4478387,-122.2753712,127.75055379962922,28.829449,0.1,131.10895,1609797578656
Fix,GT,37.4476694,-122.2751284,126.92562284475564,28.816288,0.1,131.09024,1609797579647
Fix,GT,37.447497,-122.274881,126.09440689229966,28.81044,0.1,131.08524,1609797580656
Fix,GT,37.4473268,-122.2746373,125.27518324673176,28.805992,0.1,131.31125,1609797581651
Fix,GT,37.4471532,-122.2743908,124.4359361999035,28.83037,0.1,131.35516,1609797582661
Fix,GT,37.4469827,-122.2741474,123.65081387043,28.86431,0.1,131.23065,1609797583655
Fix,GT,37.4468084,-122.2738994,122.93531203460694,28.887623,0.1,131.31104,1609797584668
Fix,GT,37.4466378,-122.2736571,122.30925699424743,28.888275,0.1,131.42664,1609797585658
Fix,GT,37.4464663,-122.2734132,121.79501330423356,28.832169,0.1,131.28918,1609797586655
Fix,GT,37.446294,-122.2731674,121.44580288887023,28.710032,0.1,131.2435,1609797587661
Fix,GT,37.446125,-122.272925,121.21378081727028,28.56977,0.1,131.02939,1609797588656
Fix,GT,37.4459579,-122.2726856,120.9995556150675,28.41872,0.1,131.25214,1609797589644
Fix,GT,37.4457888,-122.2724397,120.89165008699894,28.19254,0.1,130.12842,1609797590660
Fix,GT,37.445629,-122.2721964,120.80021246552468,28.078972,0.1,128.7273,1609797591652
Fix,GT,37.4454738,-122.271945,120.73877840042114,28.061752,0.1,126.800476,1609797592655
Fix,GT,37.4453232,-122.2716861,120.71823023241755,28.101103,0.1,125.392944,1609797593665
Fix,GT,37.4451886,-122.2714433,120.76779032248258,28.174417,0.1,124.25537,1609797594595
Fix,GT,37.445022,-122.2711253,120.92465133810045,28.0847,0.1,122.2457,1609797595792
Fix,GT,37.4449053,-122.2708881,121.14097401583194,27.996918,0.1,121.1662,1609797596672
Fix,GT,37.4447788,-122.2706183,121.425247900486,27.923306,0.1,119.69934,1609797597663
Fix,GT,37.4446559,-122.2703416,121.7278409087658,27.822945,0.1,118.36655,1609797598668
Fix,GT,37.4445414,-122.2700673,122.06628786468508,27.69486,0.1,116.87326,1609797599655
Fix,GT,37.4444294,-122.2697801,122.4163803910017,27.56006,0.1,115.175385,1609797600679
Fix,GT,37.4443279,-122.2694993,122.65733412086963,27.471802,0.1,113.67041,1609797601671
Fix,GT,37.4442326,-122.2692187,122.92770059061051,27.361765,0.1,112.41922,1609797602655
Fix,GT,37.4441415,-122.268929,123.2905106883645,27.172255,0.1,110.64627,1609797603666
Fix,GT,37.4440582,-122.2686422,123.65590499138833,27.077776,0.1,109.27142,1609797604662
Fix,GT,37.443981,-122.2683551,123.95182512271404,26.990444,0.1,107.93628,1609797605654
Fix,GT,37.4439082,-122.2680587,124.2657852395773,26.923317,0.1,106.36441,1609797606672
Fix,GT,37.4438439,-122.2677704,124.5793982489109,26.863602,0.1,104.91504,1609797607657
Fix,GT,37.4437832,-122.2674714,124.8846375633478,26.799627,0.1,103.62384,1609797608675
Fix,GT,37.4437296,-122.2671795,125.19807362747191,26.757431,0.1,102.24823,1609797609665
Fix,GT,37.4436818,-122.266885,125.49633226025104,26.711502,0.1,100.85791,1609797610661
Fix,GT,37.4436391,-122.2665884,125.80180969935654,26.655203,0.1,99.57413,1609797611660
Fix,GT,37.4436019,-122.2662884,126.0851558791399,26.5985,0.1,98.0531,1609797612669
Fix,GT,37.4435712,-122.2659889,126.35363118863106,26.565126,0.1,96.672485,1609797613675
Fix,GT,37.4435468,-122.2656936,126.58360468029976,26.548985,0.1,95.187805,1609797614664
Fix,GT,37.4435287,-122.2653985,126.75414429569244,26.56657,0.1,93.72446,1609797615650
Fix,GT,37.4435158,-122.2651001,126.88848893499376,26.732693,0.1,92.45456,1609797616643
Fix,GT,37.4435083,-122.2647911,127.0018974980116,26.963669,0.1,91.07907,1609797617662
Fix,GT,37.4435065,-122.2644864,127.04883232700824,27.214058,0.1,89.78949,1609797618658
Fix,GT,37.4435107,-122.2641746,126.99131664705276,27.504894,0.1,88.31598,1609797619667
Fix,GT,37.4435211,-122.2638679,127.03752758973836,27.737173,0.1,86.72131,1609797620650
Fix,GT,37.4435387,-122.2635562,126.96937672376632,27.968773,0.1,85.18271,1609797621643
Fix,GT,37.4435649,-122.2632337,126.90929296660424,28.224117,0.1,83.1416,1609797622665
Fix,GT,37.4435976,-122.2629178,126.64981392347812,28.541874,0.1,82.22156,1609797623658
Fix,GT,37.4436328,-122.2625981,126.34763254624605,28.755884,0.1,82.0408,1609797624655
Fix,GT,37.4436683,-122.2622773,126.0160054192543,28.879211,0.1,82.24606,1609797625649
Fix,GT,37.4437035,-122.2619471,125.67807773280144,29.041552,0.1,82.26459,1609797626667
Fix,GT,37.4437381,-122.2616222,125.42830570071936,29.178112,0.1,82.292114,1609797627663
Fix,GT,37.4437733,-122.2612912,125.23697402071952,29.269247,0.1,82.31116,1609797628675
Fix,GT,37.4438083,-122.2609657,125.05226971054076,29.313326,0.1,82.10498,1609797629667
Fix,GT,37.4438446,-122.2606433,124.89249368429184,29.314104,0.1,81.76233,1609797630650
Fix,GT,37.4438819,-122.2603133,124.67139450788495,29.29311,0.1,81.97574,1609797631656
Fix,GT,37.4439172,-122.2599863,124.37068964898586,29.135696,0.1,82.43713,1609797632655
Fix,GT,37.4439494,-122.2596547,123.978079880476,28.844759,0.1,83.60458,1609797633674
Fix,GT,37.4439743,-122.2593357,123.53803373801708,28.582088,0.1,85.08865,1609797634662
Fix,GT,37.4439919,-122.2590167,123.08790565490722,28.358114,0.1,86.84076,1609797635656
Fix,GT,37.4440015,-122.2586984,122.57512590515614,28.209637,0.1,88.637726,1609797636653
Fix,GT,37.4440036,-122.2583758,121.99037920260427,28.310715,0.1,90.39618,1609797637663
Fix,GT,37.4439971,-122.2580571,121.3563272408843,28.463287,0.1,92.41965,1609797638657
Fix,GT,37.4439807,-122.2577327,120.62801280498503,28.611282,0.1,94.51825,1609797639665
Fix,GT,37.4439569,-122.2574114,119.85499626368284,28.711048,0.1,95.765564,1609797640661
Fix,GT,37.4439267,-122.2570912,119.02924701631068,28.833014,0.1,97.735016,1609797641653
Fix,GT,37.4438887,-122.2567854,118.1629952976955,28.969318,0.1,99.89053,1609797642601
Fix,GT,37.4438305,-122.2564065,116.98943392038343,29.124302,0.1,101.79376,1609797643776
Fix,GT,37.4437785,-122.2561202,116.04505775976182,29.244944,0.1,103.77817,1609797644666
Fix,GT,37.443712,-122.2558022,114.92399401772022,29.395866,0.1,105.49011,1609797645658
Fix,GT,37.4436367,-122.2554845,113.70760797905922,29.569702,0.1,107.47467,1609797646653
Fix,GT,37.4435518,-122.2551637,112.49628611993788,29.756939,0.1,109.012085,1609797647661
Fix,GT,37.4434599,-122.2548479,111.28153798568248,29.932297,0.1,110.93793,1609797648658
Fix,GT,37.443358,-122.254532,110.06288185602426,30.027191,0.1,112.90225,1609797649663
Fix,GT,37.4432493,-122.2542237,108.86020138686897,30.066267,0.1,114.68707,1609797650656
Fix,GT,37.4431321,-122.2539191,107.63300690948964,30.069626,0.1,116.74866,1609797651651
Fix,GT,37.4430046,-122.2536154,106.40214336180688,30.04852,0.1,118.68796,1609797652661
Fix,GT,37.4428713,-122.253322,105.18979272282124,30.021744,0.1,120.5741,1609797653656
Fix,GT,37.4427278,-122.2530302,103.98037856310606,29.998219,0.1,122.56616,1609797654667
Fix,GT,37.4425788,-122.2527501,102.7908818153739,29.97116,0.1,124.699585,1609797655661
Fix,GT,37.442422,-122.2524774,101.57753017127514,29.95586,0.1,126.70679,1609797656654
Fix,GT,37.4422571,-122.2522069,100.47524166107178,29.889648,0.1,128.09262,1609797657661
Fix,GT,37.4420872,-122.2519459,99.23591102600098,30.04233,0.1,130.2207,1609797658657
Fix,GT,37.441905,-122.2516874,97.92978337472675,30.42543,0.1,132.48724,1609797659667
Fix,GT,37.4417174,-122.2514366,96.83812063878776,30.82496,0.1,133.5221,1609797660660
Fix,GT,37.4415221,-122.2511811,95.70611749982834,31.204115,0.1,133.81,1609797661670
Fix,GT,37.4413278,-122.2509275,94.4630562454462,31.576275,0.1,133.73407,1609797662661
Fix,GT,37.4411304,-122.2506701,93.19583696949482,31.848614,0.1,133.81006,1609797663658
Fix,GT,37.4409294,-122.250408,91.94577786111832,32.02617,0.1,133.87958,1609797664665
Fix,GT,37.4407297,-122.2501485,90.65956687223913,32.094254,0.1,133.92093,1609797665660
Fix,GT,37.440532,-122.2498912,89.43037432551384,32.10695,0.1,133.86499,1609797666645
Fix,GT,37.4403292,-122.2496272,88.1047464454174,32.04293,0.1,133.776,1609797667657
Fix,GT,37.4401296,-122.2493658,86.84319396996499,32.010914,0.1,133.63998,1609797668657
Fix,GT,37.4399323,-122.2491075,85.63472034862636,31.940956,0.1,133.71927,1609797669647
Fix,GT,37.4397302,-122.2488446,84.39109044122696,31.885197,0.1,133.95554,1609797670659
Fix,GT,37.439532,-122.2485887,83.04830423462391,31.864279,0.1,134.22073,1609797671650
Fix,GT,37.4393284,-122.2483288,81.66922495639324,31.807184,0.1,134.67297,1609797672663
Fix,GT,37.4391274,-122.2480765,80.4131968011856,31.718689,0.1,135.06161,1609797673656
Fix,GT,37.4389231,-122.2478217,79.08062812113762,31.603325,0.1,135.10663,1609797674666
Fix,GT,37.4387237,-122.2475738,77.87519891929625,30.94302,0.1,135.15851,1609797675661
Fix,GT,37.4385298,-122.2473343,76.63357715773583,29.757687,0.1,135.68634,1609797676652
Fix,GT,37.4383391,-122.2471086,75.52724043524265,28.025902,0.1,137.94247,1609797677660
Fix,GT,37.4381539,-122.246907,74.40303088796139,26.734024,0.1,139.78607,1609797678656
Fix,GT,37.4379694,-122.2467164,73.24448590922356,25.87473,0.1,140.7221,1609797679665
Fix,GT,37.4377922,-122.2465351,72.13374823993443,25.116549,0.1,140.48352,1609797680661
Fix,GT,37.4376197,-122.2463567,71.12454149466754,24.915531,0.1,140.31659,1609797681654
Fix,GT,37.4374457,-122.2461766,70.07880147457124,24.739529,0.1,140.55371,1609797682662
Fix,GT,37.4372753,-122.2460008,69.14885640144347,24.596828,0.1,140.55835,1609797683656
Fix,GT,37.437103,-122.2458224,68.10286672234535,24.37547,0.1,140.51407,1609797684667
Fix,GT,37.4369376,-122.2456501,67.08723788267373,23.571854,0.1,140.18411,1609797685661
Fix,GT,37.4367794,-122.2454837,65.96462703979014,22.62664,0.1,139.90347,1609797686654
Fix,GT,37.4366264,-122.2453195,64.78392479324341,21.58044,0.1,138.94867,1609797687663
Fix,GT,37.4364856,-122.2451636,63.64050527238847,20.208008,0.1,138.26868,1609797688659
Fix,GT,37.436355,-122.2450176,62.605291013240816,18.225965,0.1,138.3305,1609797689667
Fix,GT,37.4362397,-122.2448894,61.6924018330574,16.186909,0.1,138.38641,1609797690661
Fix,GT,37.4361293,-122.244766,60.844367817163466,13.998381,0.1,138.22388,1609797691752
Fix,GT,37.4360649,-122.2446943,60.338279262661935,12.859365,0.1,138.31323,1609797692463
Fix,GT,37.4359697,-122.2445872,59.609055037736894,11.110603,0.1,138.1239,1609797693654
Fix,GT,37.4358974,-122.2445062,59.09399175930024,10.288532,0.1,138.20004,1609797694668
Fix,GT,37.4358297,-122.2444305,58.63368240934611,9.945795,0.1,138.4801,1609797695658
Fix,GT,37.4357637,-122.2443578,58.215576179146765,9.777697,0.1,138.64038,1609797696653
Fix,GT,37.4356968,-122.2442845,57.88163837313652,9.772814,0.1,138.88873,1609797697661
Fix,GT,37.4356318,-122.2442137,57.62533307516575,9.398577,0.1,138.97455,1609797698654
Fix,GT,37.4355683,-122.2441453,57.40862482336164,9.315246,0.1,139.35889,1609797699646
Fix,GT,37.4355174,-122.2440905,57.29216673469544,9.257389,0.1,139.49988,1609797700448
Fix,GT,37.4354542,-122.2440229,57.158623346626754,9.169319,0.1,139.37946,1609797701448
Fix,GT,37.4353923,-122.2439553,57.07065283882618,9.060022,0.1,138.87015,1609797702448
Fix,GT,37.4353318,-122.2438885,56.93668232434988,8.735943,0.1,138.73325,1609797703448
Fix,GT,37.4352757,-122.2438251,56.80710946169495,8.024187,0.1,137.4006,1609797704448
Fix,GT,37.4352294,-122.2437614,56.63138904094696,7.3675957,0.1,129.72125,1609797705448
Fix,GT,37.435197,-122.2436911,56.47865115186572,7.0958915,0.1,116.53696,1609797706448
Fix,GT,37.435182,-122.2436141,56.319251771628856,7.0667057,0.1,99.03195,1609797707448
Fix,GT,37.4351911,-122.243536,56.16062504565716,7.1389055,0.1,75.95587,1609797708448
Fix,GT,37.435221,-122.2434615,55.94887680396438,7.765313,0.1,61.255005,1609797709448
Fix,GT,37.4352584,-122.2433817,55.677958496809005,8.642246,0.1,59.00476,1609797710448
Fix,GT,37.4353007,-122.2432936,55.38793070912361,9.554172,0.1,59.229767,1609797711448
