MessageType,Provider,LatitudeDegrees,LongitudeDegrees,AltitudeMeters,SpeedMps,AccuracyMeters,BearingDegrees,UnixTimeMillis
Fix,GT,34.2296186,-118.4014049,227.2939973539496,0.0020009454,0.1,136.17072,1639069611000
Fix,GT,34.2296186,-118.4014049,227.29400603299496,0.0020009447,0.1,136.1709,1639069612000
Fix,GT,34.2296186,-118.4014049,227.2940011642622,0.0014174989,0.1,136.17087,1639069613000
Fix,GT,34.2296186,-118.4014049,227.29399407284708,0.002828427,0.1,136.17084,1639069614000
Fix,GT,34.2296186,-118.4014049,227.2950027519045,0.0042426405,0.1,136.17108,1639069615000
Fix,GT,34.2296186,-118.4014049,227.29500187093012,0.0078112544,0.1,136.17096,1639069616000
Fix,GT,34.2296186,-118.4014049,227.29700433958,0.0042489693,0.1,136.17041,1639069617000
Fix,GT,34.2296186,-118.4014049,227.2979994707806,0.0051042116,0.1,136.17017,1639069618000
Fix,GT,34.2296186,-118.4014049,227.29799460196216,0.0022415158,0.1,136.17029,1639069619000
Fix,GT,34.2296186,-118.4014049,227.29800328116025,0.0041210484,0.1,136.17062,1639069620000
Fix,GT,34.2296186,-118.4014049,227.2979961896204,0.0036076067,0.1,136.1706,1639069621000
Fix,GT,34.2296186,-118.4014049,227.29800486881845,0.002831511,0.1,136.17062,1639069622000
Fix,GT,34.2296186,-118.4014049,227.298,0.002241498,0.1,136.17053,1639069623000
Fix,GT,34.2296186,-118.4014049,227.29899523700448,0.0036055513,0.1,136.17047,1639069624000
Fix,GT,34.2296186,-118.4014049,227.2990039162408,0.004123106,0.1,136.1705,1639069625000
Fix,GT,34.2296185,-118.4014049,227.2989967188253,0.004472136,0.1,136.17035,1639069626000
Fix,GT,34.2296185,-118.4014049,227.299005503906,0.0050990195,0.1,136.17041,1639069627000
Fix,GT,34.2296185,-118.4014049,227.30000063506887,0.0041308445,0.1,136.1706,1639069628000
Fix,GT,34.2296184,-118.4014049,227.2999957662076,0.005388871,0.1,136.17029,1639069629000
Fix,GT,34.2296184,-118.4014049,227.3010044455016,0.005830952,0.1,136.17004,1639069630000
Fix,GT,34.2296184,-118.4014048,227.30199957661705,0.0086056,0.1,136.17157,1639069631000
Fix,GT,34.2296183,-118.4014048,227.30300603323383,0.008,0.1,136.1735,1639069632000
Fix,GT,34.2296183,-118.4014048,227.30500116431853,0.0126541415,0.1,136.17252,1639069633000
Fix,GT,34.2296179,-118.4014039,227.3039962953665,0.3404266,0.1,136.07513,1639069634000
Fix,GT,34.2296135,-118.4013973,227.3029988258313,1.3086047,0.1,134.06601,1639069635000
Fix,GT,34.2296037,-118.4013808,227.30098781450323,2.3253398,0.1,129.5097,1639069636000
Fix,GT,34.2295884,-118.4013545,227.29599872288293,3.6492062,0.1,126.68994,1639069637000
Fix,GT,34.2295651,-118.4013157,227.28299777694045,5.10578,0.1,126.63605,1639069638000
Fix,GT,34.2295347,-118.4012661,227.2679889986832,6.010719,0.1,127.211,1639069639000
Fix,GT,34.2295013,-118.4012156,227.2439837305811,5.85912,0.1,129.94424,1639069640000
Fix,GT,34.2294674,-118.4011714,227.24496558016352,4.9785542,0.1,134.23074,1639069641000
Fix,GT,34.2294444,-118.4011374,227.17500486618377,3.140257,0.1,129.3825,1639069642000
Fix,GT,34.2294409,-118.401103,227.17399772559804,2.852104,0.1,102.76648,1639069643000
Fix,GT,34.2294591,-118.4010688,227.1989951862011,3.523374,0.1,63.52359,1639069644000
Fix,GT,34.2294967,-118.4010548,227.2409905623654,4.205987,0.1,18.966705,1639069645000
Fix,GT,34.2295424,-118.4010719,227.23800581987663,5.7404532,0.1,341.5736,1639069646000
Fix,GT,34.2295926,-118.4011113,227.28704210118136,7.274331,0.1,325.93015,1639069647000
Fix,GT,34.2296489,-118.4011571,227.37002787676383,7.569107,0.1,325.9568,1639069648000
Fix,GT,34.229706,-118.4011967,227.43001134009893,6.9879127,0.1,331.5743,1639069649000
Fix,GT,34.2297611,-118.4012169,227.45797383317355,5.91399,0.1,345.6556,1639069650000
Fix,GT,34.229812,-118.4012131,227.41704612167112,5.562557,0.1,5.0990906,1639069651000
Fix,GT,34.2298613,-118.4011899,227.49303352040096,6.6458416,0.1,22.2677,1639069652000
Fix,GT,34.2299157,-118.4011426,227.58504217605804,8.394279,0.1,36.932922,1639069653000
Fix,GT,34.2299739,-118.4010739,227.6590040718464,9.77118,0.099,44.758484,1639069654000
Fix,GT,34.2300384,-118.4009902,227.6519603340507,11.19222,0.1,46.488342,1639069655000
Fix,GT,34.2301091,-118.4008947,227.54094006173824,12.41483,0.099,47.881195,1639069656000
Fix,GT,34.230186,-118.4007874,227.32987940447708,13.681553,0.1,48.744293,1639069657000
Fix,GT,34.2302677,-118.4006681,226.9648438786473,14.824697,0.1,50.788788,1639069658000
Fix,GT,34.2303508,-118.400534,226.468773733363,15.996664,0.1,54.067017,1639069659000
Fix,GT,34.2304309,-118.4003838,225.8797633283944,16.769728,0.1,58.85492,1639069660000
Fix,GT,34.2304996,-118.400221,225.2857802091968,17.127525,0.1,65.10925,1639069661000
Fix,GT,34.2305549,-118.4000415,224.70775254371577,18.32071,0.1,72.03345,1639069662000
Fix,GT,34.2305942,-118.3998421,224.06875139844533,19.46438,0.1,79.224,1639069663000
Fix,GT,34.2306147,-118.3996272,223.45180594425136,20.480267,0.1,85.79028,1639069664000
Fix,GT,34.2306145,-118.3994002,223.0919031179845,21.484697,0.099,92.64203,1639069665000
Fix,GT,34.2305935,-118.3991633,223.07907845454804,22.482094,0.1,97.17944,1639069666000
Fix,GT,34.2305651,-118.3989164,223.2000392124872,23.476196,0.1,97.66272,1639069667000
Fix,GT,34.2305338,-118.3986593,223.28098097988035,24.34573,0.1,98.19446,1639069668000
Fix,GT,34.2304992,-118.3983952,223.34102926017067,24.944988,0.1,98.83255,1639069669000
Fix,GT,34.2304619,-118.3981244,223.403009201692,25.64323,0.1,99.29736,1639069670000
Fix,GT,34.2304205,-118.3978448,223.4510215853616,26.676825,0.1,100.288635,1639069671000
Fix,GT,34.2303736,-118.3975565,223.51900312974303,27.406023,0.1,101.06418,1639069672000
Fix,GT,34.2303217,-118.3972637,223.58002083423733,27.745602,0.1,102.47299,1639069673000
Fix,GT,34.2302618,-118.396971,223.66502972323445,27.765028,0.1,104.361145,1639069674000
Fix,GT,34.2301987,-118.3966813,223.6709945369512,27.42966,0.1,104.28235,1639069675000
Fix,GT,34.2301337,-118.3963963,223.6899859551862,27.043053,0.1,106.101746,1639069676000
Fix,GT,34.2300595,-118.3961188,223.64296957521745,26.817656,0.1,109.07422,1639069677000
Fix,GT,34.2299729,-118.3958458,223.50494811697024,27.203188,0.1,111.91998,1639069678000
Fix,GT,34.2298745,-118.3955706,223.33994688602863,28.042048,0.1,113.82611,1639069679000
Fix,GT,34.2297658,-118.3952921,223.1759255357664,28.623758,0.1,115.728,1639069680000
Fix,GT,34.2296477,-118.3950116,223.0559525831069,29.317003,0.099,117.17709,1639069681000
Fix,GT,34.2295228,-118.3947257,222.96698000431127,30.290678,0.1,117.467896,1639069682000
Fix,GT,34.2293929,-118.3944302,222.8879623972913,31.254051,0.1,117.60736,1639069683000
Fix,GT,34.2292587,-118.3941272,222.7989913628297,32.01669,0.1,117.957184,1639069684000
Fix,GT,34.2291197,-118.3938206,222.65792706952945,32.20643,0.1,118.864136,1639069685000
Fix,GT,34.2289763,-118.3935177,222.46191791292367,32.12873,0.1,119.78693,1639069686000
Fix,GT,34.2288313,-118.3932151,222.3129342867406,32.151375,0.1,119.56561,1639069687000
Fix,GT,34.228687,-118.3929134,222.16695784332788,31.991993,0.1,119.70813,1639069688000
Fix,GT,34.2285428,-118.3926132,222.0439456219096,31.858946,0.1,119.74426,1639069689000
Fix,GT,34.2283995,-118.3923154,221.9229506839188,31.578299,0.1,119.77948,1639069690000
Fix,GT,34.228258,-118.3920198,221.7999532292576,31.283905,0.1,119.55621,1639069691000
Fix,GT,34.2281179,-118.3917248,221.6739507411504,31.468151,0.1,119.42218,1639069692000
Fix,GT,34.2279763,-118.391426,221.5569759438336,31.932686,0.1,119.398865,1639069693000
Fix,GT,34.2278353,-118.3911213,221.42997104792204,32.305187,0.1,118.15582,1639069694000
Fix,GT,34.2276974,-118.3908107,221.31293799477208,32.55819,0.1,117.88602,1639069695000
Fix,GT,34.2275574,-118.3904991,221.12190045397287,32.731205,0.1,118.48221,1639069696000
Fix,GT,34.2274143,-118.390189,220.8689127526512,32.580967,0.1,119.13208,1639069697000
Fix,GT,34.2272707,-118.389881,220.5858932143608,32.567047,0.1,118.9747,1639069698000
Fix,GT,34.2271303,-118.3895692,220.3259367036252,32.773403,0.1,117.502106,1639069699000
Fix,GT,34.226999,-118.3892502,220.1479655347252,32.833477,0.1,115.1246,1639069700000
Fix,GT,34.2268788,-118.3889241,220.01897047894545,32.88332,0.099,112.3584,1639069701000
Fix,GT,34.2267709,-118.3885919,219.8929568675565,32.84874,0.1,110.05432,1639069702000
Fix,GT,34.2266748,-118.3882546,219.76896314607467,32.837383,0.1,107.4693,1639069703000
Fix,GT,34.2265916,-118.3879126,219.8010693414216,32.79079,0.1,104.8465,1639069704000
Fix,GT,34.2265219,-118.3875675,220.08815116132564,32.638,0.1,102.11386,1639069705000
Fix,GT,34.2264655,-118.3872209,220.627238755686,32.405582,0.1,99.71057,1639069706000
Fix,GT,34.2264214,-118.3868747,221.40234299256144,32.125084,0.1,97.40881,1639069707000
Fix,GT,34.2263896,-118.3865297,222.3453438622104,31.821121,0.1,95.02106,1639069708000
Fix,GT,34.2263707,-118.3861861,223.2913387809805,31.66877,0.1,92.15683,1639069709000
Fix,GT,34.2263659,-118.3858421,224.2193507598264,31.740057,0.1,89.5809,1639069710000
Fix,GT,34.2263728,-118.3854969,225.12930374692428,31.876804,0.1,87.38245,1639069711000
Fix,GT,34.2263866,-118.3851505,225.9783289117441,32.02652,0.1,87.06845,1639069712000
Fix,GT,34.2264003,-118.3848022,226.8443164237765,32.250046,0.1,87.03995,1639069713000
Fix,GT,34.2264145,-118.384452,227.72433588882305,32.327778,0.1,86.90085,1639069714000
Fix,GT,34.226429,-118.3841019,228.65835501432045,32.224876,0.1,86.91049,1639069715000
Fix,GT,34.2264439,-118.3837531,229.6273365059998,32.189804,0.1,86.67474,1639069716000
Fix,GT,34.2264597,-118.3834042,230.58435191369665,32.17453,0.099,86.67755,1639069717000
Fix,GT,34.2264751,-118.3830558,231.54836772372573,32.111954,0.1,86.7435,1639069718000
Fix,GT,34.2264909,-118.3827085,232.5173527904791,31.92839,0.099,86.43552,1639069719000
Fix,GT,34.2265075,-118.382364,233.4673833252138,31.627005,0.1,86.44183,1639069720000
Fix,GT,34.226524,-118.3820243,234.41333785861872,31.090508,0.1,86.42969,1639069721000
Fix,GT,34.2265398,-118.3816909,235.3203288670396,30.43822,0.1,86.51904,1639069722000
Fix,GT,34.226555,-118.3813639,236.20629028513653,29.894907,0.1,86.55374,1639069723000
Fix,GT,34.2265696,-118.381043,236.97324621008383,29.344759,0.1,86.62863,1639069724000
Fix,GT,34.2265839,-118.3807279,237.64117145155623,28.826435,0.1,86.632935,1639069725000
Fix,GT,34.2265974,-118.380418,238.03713591214083,28.459084,0.1,86.84766,1639069726000
Fix,GT,34.2266109,-118.3801085,238.317090835409,28.711884,0.099,86.41467,1639069727000
Fix,GT,34.2266264,-118.3797956,238.3839729818932,28.921244,0.1,86.335205,1639069728000
Fix,GT,34.2266412,-118.3794837,238.3008967079143,28.641146,0.099,86.678986,1639069729000
Fix,GT,34.226654,-118.3791741,237.9398157739213,28.575397,0.1,86.94504,1639069730000
Fix,GT,34.2266649,-118.3788638,237.37775147084704,28.589653,0.1,87.81915,1639069731000
Fix,GT,34.2266683,-118.3785524,236.71079108417408,28.854256,0.1,89.97067,1639069732000
Fix,GT,34.2266597,-118.3782389,236.15078135324225,28.945257,0.1,93.10629,1639069733000
Fix,GT,34.2266378,-118.3779237,235.59280539947747,29.44627,0.1,95.568085,1639069734000
Fix,GT,34.2266033,-118.3776058,235.04081220165173,29.562166,0.1,98.6994,1639069735000
Fix,GT,34.2265546,-118.3772907,234.4818024923112,29.5668,0.1,101.582184,1639069736000
Fix,GT,34.2264932,-118.3769791,233.90578818079504,29.488977,0.1,104.32294,1639069737000
Fix,GT,34.2264198,-118.3766716,233.3558008846324,29.467436,0.1,106.9917,1639069738000
Fix,GT,34.2263348,-118.3763697,232.798803253016,29.328821,0.1,109.67255,1639069739000
Fix,GT,34.2262376,-118.3760737,232.2378123569209,29.388672,0.1,112.74722,1639069740000
Fix,GT,34.2261272,-118.3757833,231.68480523577887,29.52744,0.1,115.68695,1639069741000
Fix,GT,34.2260043,-118.3754984,231.1157682475513,29.620398,0.1,118.419556,1639069742000
Fix,GT,34.2258702,-118.3752211,230.5468118182076,29.584383,0.1,121.28015,1639069743000
Fix,GT,34.2257249,-118.374952,229.985784345282,29.56326,0.1,124.03589,1639069744000
Fix,GT,34.2255693,-118.3746925,229.35375463493028,29.43002,0.099,126.90228,1639069745000
Fix,GT,34.225404,-118.3744441,228.66077429417427,29.28956,0.1,129.77567,1639069746000
Fix,GT,34.2252299,-118.3742061,228.02280044555525,29.169188,0.1,132.11053,1639069747000
Fix,GT,34.22505,-118.3739765,227.4467815087638,29.02853,0.1,133.75427,1639069748000
Fix,GT,34.2248682,-118.373751,226.8497626231413,28.871931,0.1,133.79016,1639069749000
Fix,GT,34.2246875,-118.3735266,226.21077154149864,28.75154,0.1,133.91461,1639069750000
Fix,GT,34.2245066,-118.3733016,225.53575626228377,29.029745,0.1,133.73392,1639069751000
Fix,GT,34.2243238,-118.3730731,224.84877926397127,29.4067,0.1,133.67218,1639069752000
Fix,GT,34.2241402,-118.3728427,224.18278173847403,29.410067,0.1,133.57098,1639069753000
Fix,GT,34.2239565,-118.3726121,223.5847984422988,29.457844,0.099,133.68414,1639069754000
Fix,GT,34.2237723,-118.3723825,223.0418137737773,29.34652,0.1,133.9148,1639069755000
Fix,GT,34.2235901,-118.3721527,222.53781760864217,29.175459,0.1,133.15298,1639069756000
Fix,GT,34.2234134,-118.3719194,222.03080600287765,28.997475,0.1,131.20874,1639069757000
Fix,GT,34.2232456,-118.3716792,221.46678379794025,28.84202,0.1,128.91528,1639069758000
Fix,GT,34.223086,-118.3714322,220.82076997608644,28.794184,0.1,126.57504,1639069759000
Fix,GT,34.2229361,-118.3711766,220.1537725014396,28.86592,0.1,123.6423,1639069760000
Fix,GT,34.2227976,-118.3709113,219.4747597001653,28.935158,0.1,120.74658,1639069761000
Fix,GT,34.2226683,-118.3706364,218.7967644565548,29.228983,0.099,118.11392,1639069762000
Fix,GT,34.2225492,-118.3703534,218.1217730102204,29.19357,0.1,115.57556,1639069763000
Fix,GT,34.22244,-118.3700656,217.4497707784884,29.098145,0.1,113.32385,1639069764000
Fix,GT,34.2223424,-118.369773,216.79175716153063,28.983751,0.1,110.25894,1639069765000
Fix,GT,34.2222572,-118.3694742,216.1157761536355,29.22714,0.1,107.47461,1639069766000
Fix,GT,34.2221845,-118.3691694,215.4377598994025,29.180243,0.1,104.424194,1639069767000
Fix,GT,34.2221243,-118.3688612,214.7467647088729,29.13593,0.1,101.90076,1639069768000
Fix,GT,34.2220754,-118.3685511,214.07475899425123,29.009258,0.099,99.35495,1639069769000
Fix,GT,34.2220378,-118.3682403,213.37675690699044,28.840418,0.1,97.07593,1639069770000
Fix,GT,34.2220096,-118.3679287,212.65274777266848,28.971918,0.1,95.01413,1639069771000
Fix,GT,34.2219903,-118.3676139,211.8957351356931,29.180128,0.1,93.37155,1639069772000
Fix,GT,34.2219741,-118.3672969,211.1427503691613,29.338797,0.1,93.41843,1639069773000
Fix,GT,34.2219561,-118.3669788,210.5498490219505,29.382477,0.1,93.77612,1639069774000
Fix,GT,34.2219379,-118.3666612,210.20192805107777,29.290087,0.1,93.48859,1639069775000
Fix,GT,34.2219209,-118.3663448,210.07796314955152,29.126287,0.099,93.50351,1639069776000
Fix,GT,34.2219034,-118.3660304,209.98296563084372,28.952522,0.1,93.69641,1639069777000
Fix,GT,34.2218855,-118.3657177,209.89897234463007,28.844028,0.1,93.704346,1639069778000
Fix,GT,34.2218678,-118.3654057,209.80696861746208,28.793629,0.1,93.446655,1639069779000
Fix,GT,34.2218514,-118.3650937,209.71396625407644,28.865774,0.1,93.362976,1639069780000
Fix,GT,34.2218345,-118.3647802,209.61596734628267,29.036007,0.1,93.532104,1639069781000
Fix,GT,34.2218169,-118.3644649,209.5289636800736,29.196672,0.1,93.64261,1639069782000
Fix,GT,34.2217987,-118.3641481,209.4269613679368,29.281687,0.1,93.76352,1639069783000
Fix,GT,34.2217801,-118.3638316,209.28694314737712,29.193731,0.1,93.83191,1639069784000
Fix,GT,34.2217616,-118.3635161,209.11192017230903,29.099354,0.099,93.66632,1639069785000
Fix,GT,34.221744,-118.3632008,208.88493036390213,29.138147,0.1,93.55505,1639069786000
Fix,GT,34.2217265,-118.362885,208.6389053553038,29.199612,0.1,93.53836,1639069787000
Fix,GT,34.2217089,-118.3625683,208.3689099280168,29.312475,0.1,93.6463,1639069788000
Fix,GT,34.2216905,-118.3622499,208.09690903179907,29.524767,0.1,93.704254,1639069789000
Fix,GT,34.2216724,-118.3619294,207.804886236924,29.58357,0.1,93.581665,1639069790000
Fix,GT,34.221654,-118.3616094,207.4788860523861,29.573248,0.1,93.68375,1639069791000
Fix,GT,34.2216347,-118.3612889,207.1378851394553,29.624971,0.1,94.345276,1639069792000
Fix,GT,34.221608,-118.3609701,206.8078897671841,29.444023,0.1,96.528015,1639069793000
Fix,GT,34.2215697,-118.3606555,206.5068998264931,29.19364,0.1,99.62854,1639069794000
Fix,GT,34.2215169,-118.3603467,206.2359036616981,28.960232,0.1,102.74054,1639069795000
Fix,GT,34.2214528,-118.3600435,205.9619048084328,28.765228,0.1,105.0412,1639069796000
Fix,GT,34.2213777,-118.3597446,205.74497063066227,28.820724,0.1,107.8681,1639069797000
Fix,GT,34.2212899,-118.3594496,205.7210260877013,28.989923,0.1,110.773346,1639069798000
Fix,GT,34.22119,-118.3591584,205.9041018062574,29.064192,0.1,113.34668,1639069799000
Fix,GT,34.221079,-118.3588748,206.2801333230175,28.74502,0.099,116.44299,1639069800000
Fix,GT,34.2209566,-118.3586019,206.647113888654,28.448452,0.1,119.36496,1639069801000
Fix,GT,34.2208249,-118.3583388,207.0261271302174,28.223032,0.1,121.94888,1639069802000
Fix,GT,34.2206841,-118.3580833,207.3981361093032,28.336039,0.1,124.36514,1639069803000
Fix,GT,34.2205334,-118.3578345,207.7851167645632,28.470076,0.1,126.94144,1639069804000
Fix,GT,34.2203726,-118.3575925,208.17514257081007,28.523703,0.1,129.72894,1639069805000
Fix,GT,34.2202032,-118.3573626,208.5571288617793,28.14872,0.1,132.56042,1639069806000
Fix,GT,34.2200273,-118.3571454,208.92412845795184,27.85062,0.1,135.17114,1639069807000
Fix,GT,34.2198444,-118.3569395,209.30114620253443,27.642824,0.1,137.94202,1639069808000
Fix,GT,34.2196552,-118.3567469,209.691140311234,27.454422,0.1,140.90204,1639069809000
Fix,GT,34.2194585,-118.3565647,210.1811982483109,27.638813,0.1,143.13947,1639069810000
Fix,GT,34.2192577,-118.3563902,210.72917425738743,27.285927,0.1,144.39758,1639069811000
Fix,GT,34.2190588,-118.35622,211.2031482456117,26.88197,0.099,144.15729,1639069812000
Fix,GT,34.2188622,-118.35605,211.59813148461376,26.849743,0.1,143.9866,1639069813000
Fix,GT,34.2186654,-118.3558792,211.90510340171303,26.980024,0.1,143.9693,1639069814000
Fix,GT,34.2184676,-118.3557072,212.09702276224456,27.172516,0.1,143.97968,1639069815000
Fix,GT,34.2182678,-118.3555344,212.1239920225572,27.41707,0.1,144.11542,1639069816000
Fix,GT,34.2180661,-118.3553603,212.0239786947323,27.605639,0.1,144.29083,1639069817000
Fix,GT,34.2178637,-118.3551873,211.91186416284967,27.446583,0.1,144.18427,1639069818000
Fix,GT,34.2176639,-118.3550137,211.59287737286044,27.246878,0.1,143.87683,1639069819000
Fix,GT,34.2174649,-118.3548397,211.1938444215227,27.367638,0.1,143.6159,1639069820000
Fix,GT,34.2172664,-118.3546623,210.68480770725665,27.416773,0.1,142.94025,1639069821000
Fix,GT,34.2170698,-118.3544804,210.0197855647781,27.688215,0.1,141.655,1639069822000
Fix,GT,34.216873,-118.3542895,209.3097390792016,28.332474,0.1,140.23526,1639069823000
Fix,GT,34.2166774,-118.3540907,208.50973363670752,28.39838,0.1,139.1131,1639069824000
Fix,GT,34.2164852,-118.3538872,207.7157331309766,28.36277,0.1,137.86566,1639069825000
Fix,GT,34.2162977,-118.3536782,206.8887000085157,28.328127,0.1,136.3078,1639069826000
Fix,GT,34.2161134,-118.3534644,205.8936562674125,28.535484,0.1,135.51685,1639069827000
Fix,GT,34.2159281,-118.3532465,204.8616621206503,28.868948,0.099,135.27808,1639069828000
Fix,GT,34.2157427,-118.3530266,203.9457712417892,28.858162,0.1,134.96027,1639069829000
Fix,GT,34.2155583,-118.3528059,203.23679219835367,28.867125,0.1,134.8421,1639069830000
Fix,GT,34.215374,-118.3525831,202.6608362156532,29.155804,0.1,134.47461,1639069831000
Fix,GT,34.2151876,-118.3523573,202.2368727699779,29.359058,0.1,134.77112,1639069832000
Fix,GT,34.2150002,-118.3521338,201.9529417651068,29.186731,0.1,135.2558,1639069833000
Fix,GT,34.2148129,-118.3519119,201.8189822344549,29.077436,0.1,135.05707,1639069834000
Fix,GT,34.2146272,-118.3516907,201.7329680955289,28.920364,0.1,134.99762,1639069835000
Fix,GT,34.2144418,-118.3514697,201.64496784385943,28.96557,0.099,135.01575,1639069836000
Fix,GT,34.2142567,-118.3512496,201.5689821154247,28.737127,0.1,134.96207,1639069837000
Fix,GT,34.2140737,-118.3510301,201.49497835344405,28.574087,0.1,134.7095,1639069838000
Fix,GT,34.2138919,-118.3508122,201.4119652182795,28.36573,0.1,134.92957,1639069839000
Fix,GT,34.2137107,-118.3505967,201.31596218995725,28.192488,0.1,135.19482,1639069840000
Fix,GT,34.213529,-118.3503822,201.2249489545869,28.307234,0.1,135.34564,1639069841000
Fix,GT,34.2133457,-118.3501655,201.1309727583612,28.689795,0.1,135.22174,1639069842000
Fix,GT,34.2131611,-118.349947,201.0539824726619,28.67839,0.1,135.26501,1639069843000
Fix,GT,34.2129766,-118.3497291,200.9679672016061,28.713139,0.1,135.14014,1639069844000
Fix,GT,34.2127926,-118.3495094,200.87097596552968,28.82822,0.099,134.8807,1639069845000
Fix,GT,34.2126081,-118.3492885,200.7959866705674,28.840855,0.1,134.84601,1639069846000
Fix,GT,34.2124232,-118.3490672,200.70096495246327,28.949171,0.1,134.99127,1639069847000
Fix,GT,34.2122375,-118.3488461,200.5449209030252,29.016613,0.1,135.16937,1639069848000
Fix,GT,34.2120518,-118.3486256,200.32785726001305,28.879187,0.1,135.25931,1639069849000
Fix,GT,34.2118656,-118.3484049,199.9068628122145,29.061155,0.1,134.94595,1639069850000
Fix,GT,34.2116798,-118.3481825,199.41584275917828,29.084158,0.1,135.09,1639069851000
Fix,GT,34.2114931,-118.3479611,198.81178389899063,29.045538,0.099,134.992,1639069852000
Fix,GT,34.2113065,-118.3477392,198.11575626368915,29.198042,0.1,135.19336,1639069853000
Fix,GT,34.2111177,-118.3475167,197.35675226944684,29.4061,0.1,135.50964,1639069854000
Fix,GT,34.2109269,-118.3472941,196.5847356055384,29.542303,0.1,135.64862,1639069855000
Fix,GT,34.2107347,-118.3470714,195.81373683177927,29.6093,0.1,136.01788,1639069856000
Fix,GT,34.2105414,-118.3468502,194.9687027854696,29.582794,0.1,136.29633,1639069857000
Fix,GT,34.210347,-118.3466304,194.18078228072685,29.620485,0.1,136.60791,1639069858000
Fix,GT,34.2101513,-118.3464114,193.40175149292685,29.646814,0.099,137.07568,1639069859000
Fix,GT,34.2099543,-118.3461935,192.6948090126733,29.737501,0.1,137.57532,1639069860000
Fix,GT,34.2097534,-118.3459794,192.123840223772,29.744719,0.1,138.67554,1639069861000
Fix,GT,34.2095507,-118.3457697,191.68786823835967,29.550718,0.1,139.38971,1639069862000
Fix,GT,34.2093465,-118.3455651,191.37892860843263,29.409525,0.1,140.71478,1639069863000
Fix,GT,34.20914,-118.3453669,191.20495197933403,29.208847,0.1,141.5214,1639069864000
Fix,GT,34.2089323,-118.3451743,191.1049721211176,28.946636,0.1,142.6853,1639069865000
Fix,GT,34.2087237,-118.3449884,191.0339712809054,28.654705,0.1,143.68494,1639069866000
Fix,GT,34.2085148,-118.3448081,190.93897859932065,28.376398,0.1,144.46967,1639069867000
Fix,GT,34.2083057,-118.3446327,190.84397262469588,28.230202,0.1,145.24652,1639069868000
Fix,GT,34.2080945,-118.3444618,190.76597490156465,28.24799,0.1,146.29242,1639069869000
Fix,GT,34.2078813,-118.3442953,190.6879664227544,28.09291,0.1,147.12354,1639069870000
Fix,GT,34.2076682,-118.3441331,190.59396744550205,27.90528,0.1,147.71051,1639069871000
Fix,GT,34.2074545,-118.3439756,190.5049653491762,27.699379,0.1,148.72968,1639069872000
Fix,GT,34.20724,-118.3438234,190.41996003082247,27.618109,0.1,149.62509,1639069873000
Fix,GT,34.2070238,-118.3436735,190.3229603969995,27.747927,0.1,149.87653,1639069874000
Fix,GT,34.2068058,-118.3435235,190.17694254887684,27.938759,0.1,150.14929,1639069875000
Fix,GT,34.2065868,-118.3433744,189.9338963945247,27.82361,0.1,150.08203,1639069876000
Fix,GT,34.2063692,-118.3432253,189.65187862147368,27.738985,0.1,150.00992,1639069877000
Fix,GT,34.2061524,-118.3430768,189.32288096959005,27.605486,0.099,150.12732,1639069878000
Fix,GT,34.2059363,-118.3429291,188.90688208029047,27.572283,0.1,150.16412,1639069879000
Fix,GT,34.2057203,-118.3427816,188.48586751356,27.490715,0.1,150.18811,1639069880000
Fix,GT,34.205505,-118.3426354,188.064865501876,27.354773,0.1,150.44385,1639069881000
Fix,GT,34.2052895,-118.3424908,187.6378678750354,27.478174,0.1,150.67432,1639069882000
Fix,GT,34.2050723,-118.3423458,187.21388770264457,27.530273,0.1,150.68536,1639069883000
Fix,GT,34.2048562,-118.3422007,186.76490128452005,27.380295,0.1,150.54059,1639069884000
Fix,GT,34.2046414,-118.3420561,186.36886934115364,27.210941,0.099,150.62646,1639069885000
Fix,GT,34.2044278,-118.3419128,185.95386117431568,27.060347,0.1,150.48447,1639069886000
Fix,GT,34.2042159,-118.3417691,185.54087648747395,26.903664,0.1,150.14838,1639069887000
Fix,GT,34.204005,-118.3416248,185.1358695386066,26.876122,0.1,150.12302,1639069888000
Fix,GT,34.2037948,-118.3414808,184.7268799827583,26.76685,0.1,150.10922,1639069889000
Fix,GT,34.2035856,-118.3413377,184.3108406795063,26.619087,0.1,150.20477,1639069890000
Fix,GT,34.2033773,-118.3411961,183.87687097362505,26.46988,0.1,150.36761,1639069891000
Fix,GT,34.2031704,-118.3410559,183.4718690137528,26.085669,0.1,150.32538,1639069892000
Fix,GT,34.2029683,-118.3409187,183.07386527315344,25.368355,0.099,150.25293,1639069893000
Fix,GT,34.20277,-118.3407836,182.6829001857848,25.283749,0.1,150.17316,1639069894000
Fix,GT,34.2025701,-118.3406479,182.2898581084013,25.663786,0.1,150.49307,1639069895000
Fix,GT,34.2023651,-118.3405122,181.8728728498081,26.242903,0.1,151.19159,1639069896000
Fix,GT,34.202155,-118.3403764,181.4428694627537,26.700857,0.1,151.63046,1639069897000
Fix,GT,34.2019411,-118.3402359,181.0178780159168,27.444675,0.1,150.43848,1639069898000
Fix,GT,34.2017215,-118.3400842,180.61783615068788,28.728123,0.1,149.58252,1639069899000
Fix,GT,34.2014929,-118.3399265,180.14086368843192,29.552902,0.1,150.45245,1639069900000
Fix,GT,34.2012588,-118.3397724,179.7338842657183,29.586098,0.1,151.68286,1639069901000
Fix,GT,34.2010233,-118.3396237,179.41987441827658,29.398752,0.1,152.29895,1639069902000
Fix,GT,34.2007891,-118.3394771,179.1919165934534,29.184898,0.1,151.99298,1639069903000
Fix,GT,34.2005575,-118.3393302,179.03892535138107,28.904528,0.1,152.04169,1639069904000
Fix,GT,34.2003265,-118.3391848,178.9600088545466,28.9929,0.1,152.21228,1639069905000
Fix,GT,34.2000959,-118.3390387,179.02107083604577,28.761192,0.1,151.7887,1639069906000
Fix,GT,34.1998676,-118.33889,179.26811260920437,28.931358,0.1,150.80112,1639069907000
Fix,GT,34.1996407,-118.3387323,179.500116561451,29.05936,0.099,149.08887,1639069908000
Fix,GT,34.1994181,-118.3385682,179.66199439582883,28.856903,0.1,147.65002,1639069909000
Fix,GT,34.1992001,-118.3383966,179.54198628265107,28.932549,0.1,145.84003,1639069910000
Fix,GT,34.1989854,-118.338218,179.43896306255294,28.866978,0.1,144.61877,1639069911000
Fix,GT,34.1987755,-118.3380352,179.3219501717754,28.5703,0.1,143.06787,1639069912000
Fix,GT,34.198573,-118.3378464,179.05795885654956,28.279469,0.1,141.09067,1639069913000
Fix,GT,34.1983788,-118.3376493,178.6798933711583,28.122475,0.1,138.15643,1639069914000
Fix,GT,34.1981926,-118.3374394,178.15180034602642,28.48454,0.1,135.3382,1639069915000
Fix,GT,34.1980122,-118.3372156,177.5107711467999,28.98177,0.1,132.80054,1639069916000
Fix,GT,34.1978347,-118.3369805,176.69473621604547,29.562492,0.1,131.4075,1639069917000
Fix,GT,34.1976585,-118.3367352,175.73366228363943,30.152674,0.1,130.00192,1639069918000
Fix,GT,34.1974831,-118.3364822,174.56660953896633,30.51696,0.1,129.45993,1639069919000
Fix,GT,34.1973074,-118.3362268,173.30260973079177,30.59235,0.1,129.39679,1639069920000
Fix,GT,34.1971311,-118.335971,172.08268275065535,30.673069,0.1,129.36679,1639069921000
Fix,GT,34.1969552,-118.3357146,171.10675309735163,30.597,0.1,129.25586,1639069922000
Fix,GT,34.1967796,-118.3354594,170.36277836022478,30.47586,0.1,129.58527,1639069923000
Fix,GT,34.1966039,-118.335206,169.6177899211482,30.356768,0.099,129.69675,1639069924000
Fix,GT,34.1964289,-118.3349535,168.91277439965404,30.233196,0.1,129.45273,1639069925000
Fix,GT,34.1962585,-118.3346984,168.2488145315931,30.170805,0.1,127.425415,1639069926000
Fix,GT,34.1960944,-118.3344344,167.7008843606636,30.663298,0.1,125.93887,1639069927000
Fix,GT,34.1959315,-118.3341619,167.31088127315186,31.117008,0.1,125.14929,1639069928000
Fix,GT,34.1957714,-118.3338853,166.98591816734313,30.994576,0.1,124.10129,1639069929000
Fix,GT,34.1956149,-118.3336064,166.6778658799217,31.201914,0.099,123.682556,1639069930000
Fix,GT,34.1954552,-118.3333235,166.17384566402924,31.938795,0.1,124.043396,1639069931000
Fix,GT,34.1952914,-118.3330323,165.60382021583712,32.82428,0.1,123.418396,1639069932000
Fix,GT,34.1951281,-118.3327343,165.1478998016864,32.931797,0.1,122.96307,1639069933000
Fix,GT,34.1949657,-118.3324349,164.79288623781505,33.020607,0.1,122.70303,1639069934000
Fix,GT,34.1948036,-118.3321338,164.44189429191758,33.02573,0.1,122.71469,1639069935000
Fix,GT,34.1946413,-118.3318351,164.08889843567928,32.751255,0.1,123.20831,1639069936000
Fix,GT,34.1944767,-118.3315423,163.7148921275318,32.452465,0.1,124.43649,1639069937000
Fix,GT,34.1943073,-118.3312572,163.351887438403,32.211845,0.099,126.58606,1639069938000
Fix,GT,34.1941279,-118.3309809,163.0419261564426,32.488716,0.1,128.51758,1639069939000
Fix,GT,34.1939425,-118.3307076,162.83395377040887,32.468792,0.1,129.38013,1639069940000
Fix,GT,34.1937565,-118.3304376,162.7119797328757,32.282276,0.1,129.19208,1639069941000
Fix,GT,34.1935717,-118.3301687,162.62097366120017,31.990778,0.1,129.57501,1639069942000
Fix,GT,34.1933865,-118.3299058,162.70601212192884,31.553154,0.1,130.57916,1639069943000
Fix,GT,34.1931997,-118.329651,162.75000440401422,31.120344,0.1,131.70728,1639069944000
Fix,GT,34.1930119,-118.3294024,162.78001556683145,30.944622,0.1,132.44626,1639069945000
Fix,GT,34.1928202,-118.3291571,162.8300195285869,31.027443,0.099,133.39624,1639069946000
Fix,GT,34.1926267,-118.3289166,162.8499836037862,30.700186,0.1,134.22375,1639069947000
Fix,GT,34.1924333,-118.3286811,162.8390096179107,30.33668,0.1,134.52484,1639069948000
Fix,GT,34.1922417,-118.3284492,162.81998451111278,29.85942,0.1,134.612,1639069949000
Fix,GT,34.192057,-118.3282255,162.76197976608785,28.18637,0.1,134.60919,1639069950000
Fix,GT,34.1918798,-118.3280117,162.64308083296194,27.603148,0.1,134.73877,1639069951000
Fix,GT,34.1917069,-118.3278036,162.56789425386026,26.613188,0.1,134.84195,1639069952000
Fix,GT,34.1915385,-118.327602,162.1179475973216,26.131117,0.1,134.94287,1639069953000
Fix,GT,34.1913732,-118.3274024,161.88194580798296,25.831596,0.1,134.60547,1639069954000
Fix,GT,34.1912098,-118.3272045,161.53690482947815,25.603691,0.1,134.56696,1639069955000
Fix,GT,34.1910483,-118.3270073,161.13888581414264,25.516304,0.1,134.3031,1639069956000
Fix,GT,34.1908878,-118.3268091,160.69085908391142,25.603731,0.1,134.08887,1639069957000
Fix,GT,34.190728,-118.326607,160.1088314783941,25.719088,0.1,132.85333,1639069958000
Fix,GT,34.1905707,-118.3264021,159.47080969984782,25.677187,0.1,132.29926,1639069959000
Fix,GT,34.1904152,-118.3261963,158.79379248213073,25.616379,0.1,131.88348,1639069960000
Fix,GT,34.1902608,-118.3259899,157.95977081666888,25.593987,0.1,131.81366,1639069961000
Fix,GT,34.1901057,-118.3257846,157.2027807617616,25.641005,0.1,132.18845,1639069962000
Fix,GT,34.1899481,-118.3255759,156.46378856438912,26.337538,0.1,131.81833,1639069963000
Fix,GT,34.1897898,-118.3253619,155.6977670188099,26.450499,0.1,131.15503,1639069964000
Fix,GT,34.1896321,-118.3251458,154.76969404950995,26.669111,0.1,130.96231,1639069965000
Fix,GT,34.1894719,-118.3249246,153.7527383234743,27.35842,0.099,130.77176,1639069966000
Fix,GT,34.1893076,-118.3246975,152.81970704351832,28.193956,0.1,130.73688,1639069967000
Fix,GT,34.1891382,-118.324464,152.13183387174877,28.933813,0.1,130.96277,1639069968000
Fix,GT,34.1889621,-118.3242288,151.53188120991854,29.390535,0.1,132.65228,1639069969000
Fix,GT,34.1887795,-118.3239937,151.07388396877238,29.983833,0.1,132.80292,1639069970000
Fix,GT,34.1885941,-118.3237544,150.6798979023313,30.17086,0.1,132.52515,1639069971000
Fix,GT,34.1884111,-118.3235139,150.41691902330123,29.923752,0.1,131.92072,1639069972000
Fix,GT,34.1882317,-118.3232735,150.23894572667638,29.74676,0.099,131.40262,1639069973000
Fix,GT,34.188054,-118.3230327,150.09801526617773,29.565908,0.1,131.4596,1639069974000
Fix,GT,34.1878779,-118.3227949,150.2330559335947,29.158064,0.1,131.44135,1639069975000
Fix,GT,34.1877037,-118.3225612,150.39704854821414,28.730051,0.1,131.97162,1639069976000
Fix,GT,34.187531,-118.3223322,150.58003136619692,28.296053,0.1,132.2344,1639069977000
Fix,GT,34.1873579,-118.32211,150.66702679558404,27.866077,0.1,133.72412,1639069978000
Fix,GT,34.1871838,-118.3218954,150.66399594550975,27.36495,0.1,134.34799,1639069979000
Fix,GT,34.1870159,-118.3216868,150.72903923096462,26.012848,0.1,133.26447,1639069980000
Fix,GT,34.186862,-118.3214855,150.78802775279317,24.447775,0.1,131.78745,1639069981000
Fix,GT,34.1867206,-118.3212897,150.83503721746803,23.531681,0.1,129.68356,1639069982000
Fix,GT,34.1865907,-118.3210905,150.95803114218356,23.122858,0.1,126.59656,1639069983000
Fix,GT,34.1864692,-118.3208897,151.17110644282073,22.66061,0.1,126.006744,1639069984000
Fix,GT,34.1863502,-118.3206932,151.57513124236672,22.140768,0.1,125.74719,1639069985000
Fix,GT,34.1862363,-118.3205004,152.14018584837902,21.367313,0.1,124.68533,1639069986000
Fix,GT,34.1861312,-118.3203151,152.77816440297383,19.868383,0.1,124.02533,1639069987000
Fix,GT,34.1860354,-118.3201447,153.4111918541456,18.075138,0.1,123.650024,1639069988000
Fix,GT,34.1859496,-118.3199899,154.0861871427705,16.256063,0.1,123.29233,1639069989000
Fix,GT,34.1858732,-118.3198514,154.7211796093313,14.528132,0.1,123.25049,1639069990000
Fix,GT,34.1858042,-118.319726,155.28712924028935,13.178446,0.1,123.06384,1639069991000
Fix,GT,34.1857434,-118.3196152,155.63909682723624,11.215001,0.099,123.11978,1639069992000
Fix,GT,34.1856921,-118.3195219,155.88406273636198,9.650983,0.1,123.21005,1639069993000
Fix,GT,34.1856466,-118.3194388,156.06103877555114,8.700468,0.1,123.07764,1639069994000
Fix,GT,34.1856062,-118.3193648,156.15502747125177,7.567867,0.1,123.01138,1639069995000
Fix,GT,34.1855722,-118.3193029,156.20700791696504,5.9933863,0.1,123.18527,1639069996000
Fix,GT,34.1855464,-118.319256,156.24800460059706,4.4373083,0.1,123.34888,1639069997000
Fix,GT,34.1855267,-118.3192204,156.28100437564285,3.4635746,0.1,123.46329,1639069998000
Fix,GT,34.1855116,-118.3191932,156.30099983725694,2.6027923,0.099,123.30643,1639069999000
Fix,GT,34.1855005,-118.3191728,156.31101011275663,1.8277738,0.1,123.20105,1639070000000
Fix,GT,34.185494,-118.3191611,156.3240056174945,0.7377324,0.1,123.18811,1639070001000
Fix,GT,34.1854923,-118.3191581,156.32799835303845,0.0050661573,0.1,123.17554,1639070002000
Fix,GT,34.1854923,-118.3191581,156.32499774337046,0.0014216241,0.1,123.17966,1639070003000
Fix,GT,34.1854923,-118.3191582,156.32599752497114,0.003601164,0.1,123.17743,1639070004000
Fix,GT,34.1854923,-118.3191582,156.32699577786497,0.001413083,0.099,123.17749,1639070005000
Fix,GT,34.1854923,-118.3191582,156.32699555947866,0.0014142134,0.1,123.177246,1639070006000
Fix,GT,34.1854923,-118.3191582,156.32700465890764,0.0028284271,0.1,123.1774,1639070007000
Fix,GT,34.1854923,-118.3191582,156.32800287543796,0.0042447,0.1,123.1774,1639070008000
Fix,GT,34.1854921,-118.319158,156.32600384463206,0.17024066,0.1,123.17917,1639070009000
Fix,GT,34.1854894,-118.3191529,156.33100518820805,1.071729,0.1,123.13547,1639070010000
Fix,GT,34.185481,-118.3191376,156.34500340150623,2.2576256,0.1,122.99664,1639070011000
Fix,GT,34.1854675,-118.3191124,156.35300161452685,3.301226,0.099,122.85132,1639070012000
Fix,GT,34.1854477,-118.3190759,156.34398517244028,4.773192,0.1,122.9064,1639070013000
Fix,GT,34.1854199,-118.3190253,156.32599850770316,6.368661,0.1,123.52426,1639070014000
Fix,GT,34.1853854,-118.3189629,156.28798480483402,7.457438,0.1,123.80646,1639070015000
Fix,GT,34.1853469,-118.3188931,156.27905846314133,8.039247,0.1,123.91235,1639070016000
Fix,GT,34.185306,-118.3188162,156.3749959698273,8.712959,0.1,122.105835,1639070017000
Fix,GT,34.1852687,-118.3187296,156.4390318548898,9.26478,0.1,114.98566,1639070018000
Fix,GT,34.1852444,-118.3186292,156.5079280405375,9.838052,0.1,102.25772,1639070019000
Fix,GT,34.1852397,-118.3185179,156.26394510999415,10.590119,0.1,89.611725,1639070020000
Fix,GT,34.1852495,-118.318401,156.0559422804725,11.148916,0.1,82.166626,1639070021000
Fix,GT,34.1852708,-118.318279,155.8429483375717,11.608362,0.1,76.389465,1639070022000
Fix,GT,34.1853007,-118.3181582,155.61893245003628,11.586964,0.099,71.84662,1639070023000
Fix,GT,34.1853365,-118.3180405,155.38594002168625,11.406429,0.1,69.24112,1639070024000
Fix,GT,34.1853728,-118.3179316,155.14494098762006,9.953709,0.1,67.74188,1639070025000
Fix,GT,34.1854038,-118.3178416,154.92794465020785,7.9805,0.1,67.48749,1639070026000
Fix,GT,34.1854278,-118.3177709,154.7459520358097,6.1879063,0.1,67.66791,1639070027000
Fix,GT,34.1854462,-118.3177164,154.59996625955262,4.715639,0.1,67.68292,1639070028000
Fix,GT,34.1854601,-118.3176753,154.4919790476791,3.4760892,0.1,67.726654,1639070029000
Fix,GT,34.1854694,-118.3176475,154.42099059231973,2.0118346,0.1,67.8454,1639070030000
Fix,GT,34.1854741,-118.3176332,154.38499303457002,0.9541224,0.1,67.86981,1639070031000
Fix,GT,34.1854762,-118.3176268,154.36899920927965,0.3151768,0.1,67.770996,1639070032000
Fix,GT,34.1854764,-118.3176262,154.36499744819594,0.003606917,0.1,67.770355,1639070033000
Fix,GT,34.1854764,-118.3176262,154.36499726849144,0.005,0.1,67.769714,1639070034000
Fix,GT,34.1854763,-118.3176262,154.36599813976815,0.0028247042,0.1,67.76752,1639070035000
Fix,GT,34.1854763,-118.3176263,154.3660044926419,0.0014142136,0.1,67.7673,1639070036000
Fix,GT,34.1854763,-118.3176263,154.3660027315263,0.0014142136,0.1,67.76727,1639070037000
Fix,GT,34.1854763,-118.3176263,154.3660010063518,0.0028268734,0.1,67.767334,1639070038000
Fix,GT,34.1854763,-118.3176263,154.366,0.0031622776,0.1,67.76734,1639070039000
Fix,GT,34.1854763,-118.3176263,154.36600057505817,0.0031647915,0.1,67.7673,1639070040000
Fix,GT,34.1854763,-118.3176263,154.36599726847373,0.0041231057,0.1,67.76706,1639070041000
Fix,GT,34.1854763,-118.3176263,154.3659970528269,0.0041231057,0.1,67.76697,1639070042000
Fix,GT,34.1854763,-118.3176263,154.36600452858303,0.0050990195,0.1,67.76718,1639070043000
Fix,GT,34.1854763,-118.3176263,154.36600276746742,0.0041231057,0.1,67.76718,1639070044000
Fix,GT,34.1854763,-118.3176263,154.366,0.0031622776,0.1,67.76709,1639070045000
Fix,GT,34.1854763,-118.3176263,154.36599973924388,0.0036055513,0.1,67.76703,1639070046000
Fix,GT,34.1854763,-118.3176263,154.36600061099932,0.0042426405,0.1,67.76697,1639070047000
Fix,GT,34.1854763,-118.3176263,154.3630003953448,0.006401642,0.1,67.76691,1639070048000
Fix,GT,34.1854763,-118.3176263,154.3609986342811,0.006709505,0.1,67.766846,1639070049000
Fix,GT,34.1854764,-118.3176263,154.35999841865154,0.0072111026,0.099,67.76697,1639070050000
Fix,GT,34.1854764,-118.3176263,154.35899823896423,0.006710546,0.1,67.76703,1639070051000
Fix,GT,34.1854765,-118.3176262,154.35598616767675,0.14755121,0.1,67.766754,1639070052000
Fix,GT,34.1854799,-118.3176163,154.3159808171727,2.2346306,0.1,67.677246,1639070053000
Fix,GT,34.1854927,-118.3175805,154.23098055852995,4.8336663,0.1,66.784485,1639070054000
Fix,GT,34.1855144,-118.3175213,154.07095212142983,7.0906253,0.1,65.84131,1639070055000
Fix,GT,34.1855445,-118.3174439,153.83592737934717,8.490103,0.1,64.448975,1639070056000
Fix,GT,34.1855807,-118.3173555,153.50989651703813,9.530802,0.1,63.128357,1639070057000
Fix,GT,34.1856201,-118.3172615,153.1479005226046,9.805639,0.1,63.194336,1639070058000
Fix,GT,34.1856591,-118.3171653,152.82392956248765,9.930363,0.1,63.979797,1639070059000
Fix,GT,34.1856958,-118.3170664,152.46488711776095,10.082324,0.1,66.72009,1639070060000
Fix,GT,34.1857296,-118.3169586,151.9558054949362,11.622906,0.1,70.03522,1639070061000
Fix,GT,34.1857652,-118.3168264,151.33391855752654,13.726616,0.1,72.366516,1639070062000
Fix,GT,34.1858025,-118.3166836,151.3280389525795,13.6957855,0.1,71.48386,1639070063000
Fix,GT,34.1858434,-118.316548,151.7081173226421,12.687447,0.1,68.133514,1639070064000
Fix,GT,34.1858883,-118.3164268,152.2181585570611,11.776991,0.1,64.062164,1639070065000
Fix,GT,34.1859378,-118.3163193,152.77415561648456,10.802941,0.1,58.592834,1639070066000
Fix,GT,34.1859884,-118.3162272,153.25011374768755,9.417914,0.1,55.871002,1639070067000
Fix,GT,34.1860276,-118.3161451,153.65118665179705,8.121315,0.1,63.190735,1639070068000
Fix,GT,34.1860431,-118.3160647,154.15809794742054,7.4589143,0.1,81.20752,1639070069000
Fix,GT,34.1860326,-118.3159833,154.5780794016039,8.221391,0.1,104.27939,1639070070000
Fix,GT,34.1859917,-118.3159026,154.80599449207287,9.495496,0.1,125.466064,1639070071000
Fix,GT,34.1859277,-118.3158241,154.75598171461792,10.874453,0.1,135.80649,1639070072000
Fix,GT,34.1858523,-118.3157422,154.6949890847225,11.409271,0.099,137.04974,1639070073000
Fix,GT,34.1857777,-118.3156586,154.6439963994138,11.122036,0.1,135.98965,1639070074000
Fix,GT,34.1857088,-118.3155774,154.588978660726,10.235223,0.1,134.2716,1639070075000
Fix,GT,34.1856482,-118.3155021,154.51498096944763,8.935884,0.1,133.06384,1639070076000
Fix,GT,34.1855965,-118.3154377,154.46599076221884,7.5239096,0.1,133.7796,1639070077000
Fix,GT,34.1855469,-118.3153916,154.38394433317868,6.855259,0.1,144.8779,1639070078000
Fix,GT,34.1854884,-118.3153698,154.17295569502005,7.1091847,0.1,166.69275,1639070079000
Fix,GT,34.1854216,-118.3153832,153.82189181186772,8.342017,0.1,194.2835,1639070080000
Fix,GT,34.1853506,-118.3154319,153.5949547858988,9.974779,0.1,212.78392,1639070081000
Fix,GT,34.1852758,-118.3155026,153.34993576506386,11.012489,0.1,217.3747,1639070082000
Fix,GT,34.1851925,-118.3155708,153.08191486918366,11.234468,0.1,211.81268,1639070083000
Fix,GT,34.1851027,-118.3156265,152.76489249732018,10.987755,0.1,204.20676,1639070084000
Fix,GT,34.1850104,-118.3156631,152.49295020698753,10.471313,0.099,194.82388,1639070085000
Fix,GT,34.1849218,-118.3156763,152.26595761119037,9.1801605,0.1,182.8243,1639070086000
Fix,GT,34.1848466,-118.3156672,152.09597815029557,7.422192,0.1,171.64038,1639070087000
Fix,GT,34.1847881,-118.3156555,151.94296812137986,5.6929097,0.1,171.04248,1639070088000
Fix,GT,34.1847468,-118.3156481,151.8219851603408,3.70833,0.1,172.29895,1639070089000
Fix,GT,34.1847187,-118.3156439,151.72296532882288,2.6340249,0.1,172.99475,1639070090000
Fix,GT,34.1846986,-118.3156404,151.64898726617733,1.8675839,0.1,172.9054,1639070091000
Fix,GT,34.1846835,-118.3156379,151.5949944189079,1.8197296,0.1,173.82135,1639070092000
Fix,GT,34.1846642,-118.3156419,151.52098536287875,2.7187157,0.1,186.08658,1639070093000
Fix,GT,34.1846368,-118.3156495,151.42297144384682,3.344557,0.1,191.21103,1639070094000
Fix,GT,34.1846071,-118.3156393,151.3299810247007,3.0023046,0.1,166.52545,1639070095000
Fix,GT,34.1845906,-118.3156052,151.22699752289896,3.2587147,0.1,127.302,1639070096000
Fix,GT,34.184596,-118.3155631,151.19597056034996,3.3400204,0.1,86.88861,1639070097000
Fix,GT,34.1846213,-118.3155346,151.11298870121408,3.437039,0.1,47.473877,1639070098000
Fix,GT,34.1846579,-118.315531,151.15602510746777,3.804358,0.1,6.5016785,1639070099000
Fix,GT,34.1846947,-118.3155477,151.27904647684375,4.537757,0.1,341.01797,1639070100000
Fix,GT,34.1847404,-118.3155651,151.4500624786564,6.2784934,0.1,343.4032,1639070101000
Fix,GT,34.1848046,-118.3155775,151.67607911086384,8.148218,0.1,352.46274,1639070102000
Fix,GT,34.1848846,-118.3155817,151.96710052542926,9.45748,0.1,358.4619,1639070103000
Fix,GT,34.1849744,-118.3155784,152.2940736829194,10.456278,0.1,2.7761536,1639070104000
Fix,GT,34.1850669,-118.3155635,152.63709508105788,10.24143,0.1,9.671265,1639070105000
Fix,GT,34.1851509,-118.3155343,152.92806313290168,9.268934,0.1,18.225494,1639070106000
Fix,GT,34.1852216,-118.3154935,153.222051487294,8.286697,0.1,27.58606,1639070107000
Fix,GT,34.1852781,-118.3154457,153.4370344204819,7.3984537,0.099,36.44461,1639070108000
Fix,GT,34.1853291,-118.3153925,153.61905220523082,7.9643617,0.1,41.405273,1639070109000
Fix,GT,34.1853868,-118.3153332,153.85006631213798,8.539591,0.1,39.55423,1639070110000
Fix,GT,34.1854516,-118.315284,154.09003344021107,8.189822,0.1,28.816986,1639070111000
Fix,GT,34.185522,-118.315262,154.31905225994157,7.8177752,0.1,9.984192,1639070112000
Fix,GT,34.1855955,-118.3152733,154.5190194794806,8.378117,0.1,347.72083,1639070113000
Fix,GT,34.1856666,-118.3153196,154.64598357178875,9.210869,0.1,326.1834,1639070114000
Fix,GT,34.1857335,-118.3153891,154.65101748384583,10.447266,0.1,318.13757,1639070115000
Fix,GT,34.1858053,-118.3154696,154.70402435534822,11.034182,0.1,317.0321,1639070116000
Fix,GT,34.1858772,-118.3155511,154.735019367259,10.855554,0.1,316.68253,1639070117000
Fix,GT,34.1859469,-118.3156311,154.7839860133929,10.473986,0.1,316.2045,1639070118000
Fix,GT,34.1860121,-118.3157067,154.8110189118525,9.421161,0.099,315.9554,1639070119000
Fix,GT,34.1860675,-118.3157719,154.87501630712558,7.661976,0.1,315.44128,1639070120000
Fix,GT,34.1861099,-118.3158243,154.92400664332882,5.8423944,0.1,313.92502,1639070121000
Fix,GT,34.1861398,-118.315863,154.94900251022355,3.924356,0.1,312.74588,1639070122000
Fix,GT,34.1861588,-118.3158882,154.96700762004616,2.388519,0.1,312.32605,1639070123000
Fix,GT,34.1861692,-118.3159023,154.97900353627745,1.0226784,0.1,312.10898,1639070124000
Fix,GT,34.1861723,-118.3159065,154.98000331656053,0.10928201,0.1,312.04956,1639070125000
Fix,GT,34.1861723,-118.3159065,154.9789999702871,0.0050019436,0.1,312.04974,1639070126000
Fix,GT,34.1861722,-118.3159065,154.9780020928504,0.004472136,0.1,312.04993,1639070127000
Fix,GT,34.1861722,-118.3159065,154.97900342796677,0.00283024,0.1,312.0494,1639070128000
Fix,GT,34.1861722,-118.3159065,154.97900169594146,0.0014132487,0.1,312.0495,1639070129000
Fix,GT,34.1861722,-118.3159065,154.9790014794383,0.00141325,0.1,312.0498,1639070130000
Fix,GT,34.1861722,-118.3159065,154.97900126293513,0.0010009623,0.1,312.04974,1639070131000
Fix,GT,34.1861722,-118.3159065,154.97899949482596,0.0014132527,0.1,312.04984,1639070132000
Fix,GT,34.1861722,-118.3159065,154.97899931440668,0.0014142136,0.1,312.0499,1639070133000
Fix,GT,34.1861722,-118.3159065,154.9789990979035,0.0014132553,0.1,312.05,1639070134000
Fix,GT,34.1861722,-118.3159065,154.97899732979434,0.0014142136,0.1,312.05,1639070135000
Fix,GT,34.1861722,-118.3159065,154.9789971132912,0.002236068,0.099,312.0503,1639070136000
Fix,GT,34.1861722,-118.3159065,154.97899689678803,0.002236068,0.099,312.05038,1639070137000
Fix,GT,34.1861722,-118.3159065,154.9789982679747,0.0014142136,0.1,312.05066,1639070138000
Fix,GT,34.1861722,-118.3159065,154.97899649986556,0.0014142134,0.1,312.05057,1639070139000
Fix,GT,34.1861722,-118.3159065,154.97899628336242,0.0014142134,0.1,312.05072,1639070140000
Fix,GT,34.1861722,-118.3159065,154.97899606685922,0.0014142136,0.099,312.0507,1639070141000
Fix,GT,34.1861722,-118.3159065,154.9789974019621,0.0014142136,0.099,312.05103,1639070142000
Fix,GT,34.1861722,-118.3159065,154.97899722154276,0.001998662,0.1,312.05112,1639070143000
Fix,GT,34.1861722,-118.3159065,154.9789985566456,0.002,0.1,312.05136,1639070144000
Fix,GT,34.1861722,-118.3159065,154.97899834014245,0.0014155479,0.1,312.0516,1639070145000
Fix,GT,34.1861722,-118.3159065,154.97899967524526,0.0020005372,0.1,312.05164,1639070146000
Fix,GT,34.1861722,-118.3159065,154.97899945874212,0.0014155442,0.1,312.0517,1639070147000
Fix,GT,34.1861722,-118.3159065,154.97899927832282,0.002236068,0.1,312.05157,1639070148000
Fix,GT,34.1861722,-118.3159065,154.97899751021365,0.0022342065,0.1,312.0518,1639070149000
Fix,GT,34.1861722,-118.3159065,154.9789972937105,0.001998675,0.1,312.05194,1639070150000
Fix,GT,34.1861722,-118.3159065,154.9789970772073,0.0020005333,0.1,312.0521,1639070151000
Fix,GT,34.1861722,-118.3159065,154.97899996391615,0.0014155348,0.1,312.0522,1639070152000
Fix,GT,34.1861722,-118.3159065,154.97899978349685,0.0014132807,0.1,312.05237,1639070153000
Fix,GT,34.1861722,-118.3159065,154.97899956699368,0.0010009316,0.1,312.05252,1639070154000
Fix,GT,34.1861722,-118.3159065,154.97900090209652,0.0019977542,0.1,312.05255,1639070155000
Fix,GT,34.1861722,-118.3159065,154.97900223719935,0.0014132847,0.1,312.05276,1639070156000
Fix,GT,34.1861722,-118.3159065,154.9790020206962,0.0014142136,0.1,312.0529,1639070157000
Fix,GT,34.1861722,-118.3159065,154.97900180419305,0.0014142136,0.1,312.05298,1639070158000
Fix,GT,34.1861722,-118.3159065,154.97900162377374,0.0014142136,0.1,312.0532,1639070159000
Fix,GT,34.1861722,-118.3159065,154.97900140727057,0.0014142136,0.1,312.0532,1639070160000
Fix,GT,34.1861722,-118.3159065,154.9790027423734,0.0014142137,0.1,312.05347,1639070161000
Fix,GT,34.1861722,-118.3159065,154.97900097426424,0.0014142136,0.1,312.05353,1639070162000
Fix,GT,34.1861722,-118.3159065,154.97900075776107,0.0014142136,0.1,312.05374,1639070163000
Fix,GT,34.1861722,-118.3159065,154.9790005773418,0.0014142136,0.1,312.05386,1639070164000
Fix,GT,34.1861722,-118.3159065,154.9790019124446,0.0014132967,0.1,312.05402,1639070165000
Fix,GT,34.1861722,-118.3159065,154.97900169594146,0.0010000002,0.1,312.05417,1639070166000
Fix,GT,34.1861722,-118.3159065,154.9790014794383,0.001,0.1,312.05438,1639070167000
Fix,GT,34.1861722,-118.3159065,154.9790028145411,0.0014155046,0.1,312.05447,1639070168000
Fix,GT,34.1861722,-118.3159065,154.97900263412183,0.001,0.1,312.0545,1639070169000
Fix,GT,34.1861722,-118.3159065,154.97900086601263,0.001,0.1,312.05472,1639070170000
Fix,GT,34.1861722,-118.3159065,154.9790022011155,0.001,0.1,312.05496,1639070171000
Fix,GT,34.1861722,-118.3159065,154.97900198461235,0.001,0.1,312.05515,1639070172000
Fix,GT,34.1861722,-118.3159065,154.97900176810916,0.001,0.1,312.05518,1639070173000
Fix,GT,34.1861722,-118.3159065,154.97900158768988,0.0014142136,0.1,312.05533,1639070174000
Fix,GT,34.1861722,-118.3159065,154.9790013711867,0.0014160064,0.1,312.0555,1639070175000
Fix,GT,34.1861722,-118.3159065,154.97900270628952,0.0014142136,0.1,312.05566,1639070176000
Fix,GT,34.1861722,-118.3159065,154.9790040413924,0.0028271389,0.1,312.05582,1639070177000
Fix,GT,34.1861722,-118.3159065,154.97900382488922,0.004242381,0.1,312.0561,1639070178000
Fix,GT,34.1861722,-118.3159065,154.97899595860764,0.0028271426,0.1,312.05597,1639070179000
Fix,GT,34.1861722,-118.3159065,154.9789957421045,0.0044692997,0.1,312.05566,1639070180000
Fix,GT,34.1861722,-118.3159065,154.97900321146358,0.005,0.1,312.05588,1639070181000
Fix,GT,34.1861722,-118.3159065,154.97900144335443,0.0058321874,0.1,312.05603,1639070182000
Fix,GT,34.1861722,-118.3159065,154.97899815972315,0.0064031244,0.1,312.05637,1639070183000
Fix,GT,34.1861722,-118.3159065,154.97899639161398,0.0056584603,0.099,312.05664,1639070184000
Fix,GT,34.1861722,-118.3159065,154.97900230936708,0.005830952,0.1,312.0569,1639070185000
Fix,GT,34.1861722,-118.3159066,154.9790020928639,0.0050990195,0.1,312.05692,1639070186000
Fix,GT,34.1861722,-118.3159065,154.97900036083865,0.0036069164,0.1,312.05707,1639070187000
Fix,GT,34.1861722,-118.3159065,154.97900169594146,0.0070001525,0.1,312.05716,1639070188000
Fix,GT,34.1861722,-118.3159065,154.9789999278323,0.015232445,0.1,312.05737,1639070189000
Fix,GT,34.1861721,-118.3159065,154.97800184434092,0.026080951,0.1,312.05746,1639070190000
Fix,GT,34.1861721,-118.3159066,154.97800104642522,0.042014893,0.1,312.05753,1639070191000
Fix,GT,34.1861719,-118.3159067,154.97700241758744,0.061041676,0.1,312.05704,1639070192000
Fix,GT,34.186174,-118.3159107,154.9590037522372,1.2374462,0.1,311.99896,1639070193000
Fix,GT,34.1861879,-118.3159312,154.96600198444585,3.536436,0.1,311.29123,1639070194000
Fix,GT,34.1862105,-118.3159722,154.9600144694722,5.447324,0.1,303.99036,1639070195000
Fix,GT,34.1862306,-118.3160402,154.8989946467304,7.449973,0.1,286.9289,1639070196000
Fix,GT,34.186231,-118.3161282,154.75899233011157,8.517196,0.1,265.841,1639070197000
Fix,GT,34.1862049,-118.3162232,154.48291018370026,9.758765,0.1,247.40303,1639070198000
Fix,GT,34.1861614,-118.3163237,153.93585119853378,11.115616,0.1,241.54544,1639070199000
Fix,GT,34.1861093,-118.3164357,153.11687142538557,12.505515,0.1,240.68216,1639070200000
Fix,GT,34.1860547,-118.3165607,152.4518567154538,13.45366,0.1,243.3374,1639070201000
Fix,GT,34.1860043,-118.3166948,151.79490488493255,13.664705,0.1,246.66687,1639070202000
Fix,GT,34.1859598,-118.3168332,151.37895561533932,13.704466,0.1,250.02505,1639070203000
Fix,GT,34.1859257,-118.3169726,151.19706138503437,13.040724,0.1,255.5364,1639070204000
Fix,GT,34.1859049,-118.3171065,151.86014600659908,12.1598215,0.1,260.6747,1639070205000
Fix,GT,34.1858902,-118.317234,152.39609563275798,11.718773,0.1,261.989,1639070206000
Fix,GT,34.1858757,-118.3173607,152.80108905340543,11.825214,0.1,261.01166,1639070207000
Fix,GT,34.1858593,-118.3174872,153.21007422761713,11.801797,0.1,261.3354,1639070208000
Fix,GT,34.1858545,-118.3176148,153.52004076102423,11.945608,0.1,270.98425,1639070209000
Fix,GT,34.1858722,-118.3177442,153.80405757244304,12.491233,0.1,283.22504,1639070210000
Fix,GT,34.1859138,-118.3178756,154.04002216063904,13.562089,0.1,294.14343,1639070211000
Fix,GT,34.1859739,-118.3180151,154.01998014856667,15.55719,0.1,297.6669,1639070212000
Fix,GT,34.1860445,-118.3181729,153.83994293957903,17.357925,0.1,297.9058,1639070213000
Fix,GT,34.1861202,-118.3183463,153.42689399302168,18.791216,0.1,297.0031,1639070214000
Fix,GT,34.1861997,-118.3185351,152.7478138936765,20.171413,0.1,296.3094,1639070215000
Fix,GT,34.1862824,-118.3187367,151.75177503303115,21.222694,0.1,295.95938,1639070216000
Fix,GT,34.1863689,-118.3189491,150.58277316226065,22.499796,0.1,295.72208,1639070217000
Fix,GT,34.1864593,-118.3191756,149.56282642399051,23.69224,0.1,295.30887,1639070218000
Fix,GT,34.1865523,-118.319411,148.76985763546384,24.392538,0.1,295.1426,1639070219000
Fix,GT,34.1866475,-118.319653,148.2079396672547,24.942875,0.1,295.3965,1639070220000
Fix,GT,34.1867481,-118.3198988,147.98396802063007,25.563005,0.1,296.57544,1639070221000
Fix,GT,34.1868568,-118.3201456,147.9660328535624,25.815037,0.099,298.77933,1639070222000
Fix,GT,34.1869726,-118.3203866,148.04797786394718,25.56183,0.099,300.7224,1639070223000
Fix,GT,34.187093,-118.3206211,148.0209878046049,25.309914,0.1,302.1527,1639070224000
Fix,GT,34.1872182,-118.3208512,148.02300579361338,25.484985,0.1,303.81674,1639070225000
Fix,GT,34.187352,-118.3210791,148.23403457082551,25.959171,0.1,305.9665,1639070226000
Fix,GT,34.1874944,-118.3213041,148.7241139540579,26.21811,0.1,307.94427,1639070227000
Fix,GT,34.1876424,-118.3215262,149.12207186223708,26.246042,0.1,308.9911,1639070228000
Fix,GT,34.1877933,-118.3217455,149.49207354360516,26.27922,0.1,309.45517,1639070229000
Fix,GT,34.1879438,-118.3219665,149.8820817680834,26.445078,0.099,308.83945,1639070230000
Fix,GT,34.1880938,-118.3221896,150.27006891470404,26.362434,0.1,308.97327,1639070231000
Fix,GT,34.1882445,-118.3224087,150.58406858929945,26.115631,0.1,310.09772,1639070232000
Fix,GT,34.188397,-118.3226221,150.87703985587112,25.77594,0.1,310.8307,1639070233000
Fix,GT,34.1885488,-118.3228311,151.13805001484045,25.442621,0.1,310.97836,1639070234000
Fix,GT,34.1887003,-118.3230387,151.3630497170482,25.543877,0.099,311.0865,1639070235000
Fix,GT,34.1888518,-118.3232473,151.55802014855666,25.427814,0.1,311.029,1639070236000
Fix,GT,34.1890024,-118.3234533,151.75003772812477,25.18991,0.1,311.19727,1639070237000
Fix,GT,34.1891522,-118.3236584,151.97905091445963,25.218967,0.1,311.08902,1639070238000
Fix,GT,34.1893026,-118.3238644,152.29608816038095,25.32993,0.1,311.05487,1639070239000
Fix,GT,34.1894532,-118.3240713,152.68406418864103,25.372744,0.1,311.0202,1639070240000
Fix,GT,34.189604,-118.3242783,153.1450918818049,25.34163,0.1,311.04807,1639070241000
Fix,GT,34.1897534,-118.3244837,153.68111117891013,24.961004,0.1,310.914,1639070242000
Fix,GT,34.1898994,-118.3246863,154.27314610892233,24.508224,0.1,310.59518,1639070243000
Fix,GT,34.1900441,-118.3248865,154.9361284695887,24.445107,0.1,310.9908,1639070244000
Fix,GT,34.1901906,-118.3250849,155.6311558148861,24.555182,0.1,311.75058,1639070245000
Fix,GT,34.1903387,-118.3252807,156.4151498503764,24.19045,0.099,312.46637,1639070246000
Fix,GT,34.1904862,-118.3254706,157.19013960756735,23.773222,0.099,313.21536,1639070247000
Fix,GT,34.1906336,-118.3256561,157.8941329880571,23.493313,0.1,313.84308,1639070248000
Fix,GT,34.1907806,-118.3258372,158.52712480043607,23.207222,0.1,314.35568,1639070249000
Fix,GT,34.1909268,-118.3260147,159.11711312087576,22.924574,0.1,314.48666,1639070250000
Fix,GT,34.191071,-118.3261908,159.69509335842775,22.589903,0.1,314.1889,1639070251000
Fix,GT,34.1912122,-118.326364,160.19809880919476,22.131477,0.1,314.16675,1639070252000
Fix,GT,34.1913505,-118.3265332,160.7280968210895,21.580185,0.1,314.62335,1639070253000
Fix,GT,34.1914858,-118.326695,161.22605021045638,20.761242,0.1,315.26273,1639070254000
Fix,GT,34.1916167,-118.3268512,161.81011145693716,20.222507,0.1,314.87744,1639070255000
Fix,GT,34.1917458,-118.3270058,162.23205180674418,20.252407,0.1,314.965,1639070256000
Fix,GT,34.191875,-118.3271601,162.47407997304154,20.069925,0.1,315.08304,1639070257000
Fix,GT,34.1920023,-118.3273133,162.84106812531445,19.893751,0.1,314.52728,1639070258000
Fix,GT,34.1921283,-118.3274672,163.18205824510332,19.94436,0.099,314.58383,1639070259000
Fix,GT,34.1922544,-118.3276201,163.45504837768527,19.746738,0.1,314.60886,1639070260000
Fix,GT,34.1923801,-118.3277729,163.72205377615757,19.935097,0.1,314.37857,1639070261000
Fix,GT,34.1925055,-118.3279266,163.92903826238566,19.708437,0.1,314.305,1639070262000
Fix,GT,34.1926291,-118.3280779,164.13003606558195,19.391716,0.1,314.2045,1639070263000
Fix,GT,34.1927494,-118.3282282,164.28204361726205,19.097046,0.099,313.4679,1639070264000
Fix,GT,34.1928671,-118.3283783,164.40001362923184,18.960472,0.1,313.08893,1639070265000
Fix,GT,34.1929839,-118.3285295,164.43100231621685,19.025614,0.1,312.6103,1639070266000
Fix,GT,34.1931,-118.3286817,164.42397758207085,19.170692,0.1,312.1979,1639070267000
Fix,GT,34.1932161,-118.3288362,164.37498470358085,19.159153,0.1,311.85812,1639070268000
Fix,GT,34.1933315,-118.3289925,164.31297072045783,19.471855,0.099,311.1853,1639070269000
Fix,GT,34.1934481,-118.3291539,164.20799345075665,19.958464,0.1,310.63043,1639070270000
Fix,GT,34.1935664,-118.3293209,164.0819707912691,20.469751,0.1,310.15338,1639070271000
Fix,GT,34.1936863,-118.3294929,163.91296314014272,20.844282,0.1,309.70425,1639070272000
Fix,GT,34.1938058,-118.3296668,163.75197255172768,20.745066,0.1,309.2717,1639070273000
Fix,GT,34.193923,-118.3298409,163.5929705099594,20.545124,0.1,308.62598,1639070274000
Fix,GT,34.1940377,-118.3300162,163.54800774139164,20.698927,0.1,307.77383,1639070275000
Fix,GT,34.1941524,-118.3301967,163.5810054449035,21.20347,0.1,307.03357,1639070276000
Fix,GT,34.1942681,-118.3303833,163.6250163269079,21.70054,0.1,306.31946,1639070277000
Fix,GT,34.1943844,-118.3305748,163.71102349045643,21.885134,0.1,305.94788,1639070278000
Fix,GT,34.1944999,-118.3307662,163.8380398408221,21.696928,0.1,305.74283,1639070279000
Fix,GT,34.1946128,-118.3309567,164.01204323141323,21.487923,0.1,305.0086,1639070280000
Fix,GT,34.1947232,-118.3311492,164.2260392683883,21.524637,0.1,304.10468,1639070281000
Fix,GT,34.1948318,-118.331344,164.42702776155468,21.843122,0.1,303.5072,1639070282000
Fix,GT,34.1949424,-118.3315447,164.53902200681716,22.523836,0.1,303.33585,1639070283000
Fix,GT,34.1950549,-118.3317508,164.6400109429867,22.7879,0.1,303.02997,1639070284000
Fix,GT,34.1951666,-118.3319576,164.72099810157124,22.67991,0.1,302.71732,1639070285000
Fix,GT,34.1952772,-118.3321645,164.76800351628057,22.679974,0.099,302.42505,1639070286000
Fix,GT,34.1953866,-118.3323723,164.9350451607816,22.634722,0.1,301.9757,1639070287000
Fix,GT,34.1954948,-118.3325789,165.18104301980838,22.408802,0.1,302.10565,1639070288000
Fix,GT,34.195603,-118.3327858,165.40803181460126,22.716282,0.1,301.8881,1639070289000
Fix,GT,34.1957122,-118.3329965,165.65304698995254,23.035046,0.1,301.68744,1639070290000
Fix,GT,34.1958231,-118.3332102,165.87804140949203,23.41275,0.1,301.9378,1639070291000
Fix,GT,34.1959371,-118.3334233,166.06402683416147,23.26252,0.1,303.12863,1639070292000
Fix,GT,34.1960531,-118.3336317,166.29403929763032,23.050955,0.099,304.0315,1639070293000
Fix,GT,34.1961719,-118.3338385,166.51003900757837,23.300592,0.1,305.02182,1639070294000
Fix,GT,34.1962951,-118.3340417,166.7680424112363,23.060678,0.1,306.57846,1639070295000
