MessageType,Provider,LatitudeDegrees,LongitudeDegrees,AltitudeMeters,SpeedMps,AccuracyMeters,BearingDegrees,UnixTimeMillis
Fix,GT,37.4150387,-122.0790445,-23.261000341200035,0.0064022993,0.1,337.56638,1639594135000
Fix,GT,37.4150387,-122.0790445,-23.26099978065712,0.0056568542,0.1,337.56604,1639594136000
Fix,GT,37.4150387,-122.0790445,-23.261000603869903,0.005000721,0.1,337.56662,1639594137000
Fix,GT,37.4150387,-122.0790445,-23.26100004332699,0.0056561353,0.1,337.56616,1639594138000
Fix,GT,37.4150387,-122.0790445,-23.261000636365143,0.005,0.1,337.56567,1639594139000
Fix,GT,37.4150387,-122.0790445,-23.26100007582223,0.0044718864,0.1,337.56345,1639594140000
Fix,GT,37.4150387,-122.0790445,-23.26099974816188,0.0058300514,0.1,337.5648,1639594141000
Fix,GT,37.4150387,-122.0790445,-23.2610005740826,0.0056568542,0.1,337.56378,1639594142000
Fix,GT,37.4150387,-122.0790445,-23.26100024371431,0.0058304723,0.1,337.56448,1639594143000
Fix,GT,37.4150387,-122.0790445,-23.260999683171395,0.0028301906,0.1,337.5639,1639594144000
Fix,GT,37.4150387,-122.0790445,-23.26099958839361,0.005000702,0.1,337.56378,1639594145000
Fix,GT,37.4150387,-122.0790445,-23.26100064719689,0.0050000004,0.1,337.56406,1639594146000
Fix,GT,37.4150387,-122.0790445,-23.26100054971117,0.005,0.1,337.56384,1639594147000
Fix,GT,37.4150387,-122.0790445,-23.26100022205081,0.005,0.1,337.56384,1639594148000
Fix,GT,37.4150387,-122.0790445,-23.26100012727303,0.0058300756,0.1,337.5638,1639594149000
Fix,GT,37.4150387,-122.0790445,-23.260999796904738,0.0042434363,0.1,337.5639,1639594150000
Fix,GT,37.4150387,-122.0790445,-23.260999935009515,0.0050006877,0.1,337.56424,1639594151000
Fix,GT,37.4150387,-122.0790445,-23.26099983752379,0.005,0.1,337.56415,1639594152000
Fix,GT,37.4150387,-122.0790445,-23.260999975628568,0.005,0.1,337.564,1639594153000
Fix,GT,37.4150387,-122.0790445,-23.260999880850783,0.005,0.1,337.5642,1639594154000
Fix,GT,37.4150387,-122.0790445,-23.26099978336505,0.005,0.099,337.5641,1639594155000
Fix,GT,37.4150387,-122.0790445,-23.26099968858727,0.0042426405,0.1,337.5641,1639594156000
Fix,GT,37.4150387,-122.0790445,-23.260999823984108,0.0042426405,0.1,337.56387,1639594157000
Fix,GT,37.4150387,-122.0790445,-23.26099972920632,0.0036055513,0.099,337.56406,1639594158000
Fix,GT,37.4150387,-122.0790445,-23.26099963442853,0.0036055513,0.1,337.56406,1639594159000
Fix,GT,37.4150387,-122.0790445,-23.26100000270793,0.0031622776,0.1,337.56418,1639594160000
Fix,GT,37.4150387,-122.0790445,-23.260999907930145,0.0036051031,0.1,337.56403,1639594161000
Fix,GT,37.4150387,-122.0790445,-23.26100027620955,0.002236068,0.1,337.5641,1639594162000
Fix,GT,37.4150387,-122.0790445,-23.261000414314328,0.003,0.1,337.56403,1639594163000
Fix,GT,37.4150387,-122.0790445,-23.26099939613009,0.0020010003,0.1,337.56403,1639594164000
Fix,GT,37.4150387,-122.0790445,-23.26099953423487,0.003,0.099,337.56412,1639594165000
Fix,GT,37.4150387,-122.0790445,-23.260999669631712,0.0031622776,0.1,337.5639,1639594166000
Fix,GT,37.4150387,-122.0790445,-23.26100004061905,0.0031622776,0.1,337.56403,1639594167000
Fix,GT,37.4150387,-122.0790445,-23.26100017601589,0.0031622776,0.1,337.56387,1639594168000
Fix,GT,37.4150387,-122.0790445,-23.26100031412067,0.0036055513,0.1,337.564,1639594169000
Fix,GT,37.4150387,-122.0790445,-23.261000449517507,0.0044699484,0.1,337.56378,1639594170000
Fix,GT,37.4150387,-122.0790445,-23.26099943268724,0.00412396,0.099,337.56268,1639594171000
Fix,GT,37.4150387,-122.0790445,-23.260999570792016,0.0028291817,0.1,337.56427,1639594172000
Fix,GT,37.4150387,-122.0790445,-23.26099993907142,0.006401034,0.1,337.56516,1639594173000
Fix,GT,37.4150387,-122.0790445,-23.261000308704794,0.0028284271,0.1,337.5655,1639594174000
Fix,GT,37.4150387,-122.0790445,-23.26100067833817,0.0053860666,0.1,337.5644,1639594175000
Fix,GT,37.4150387,-122.0790445,-23.260999894390466,0.0058305254,0.1,337.5647,1639594176000
Fix,GT,37.4150387,-122.0790445,-23.261000031141272,0.006324085,0.1,337.5644,1639594177000
Fix,GT,37.4150387,-122.0790445,-23.261000400774645,0.005830952,0.1,337.56378,1639594178000
Fix,GT,37.4150387,-122.0790445,-23.260999615472976,0.006324918,0.1,337.56357,1639594179000
Fix,GT,37.4150387,-122.0790445,-23.26100021798891,0.0063245557,0.1,337.5632,1639594180000
Fix,GT,37.4150387,-122.0790445,-23.261000587622288,0.0063245553,0.1,337.5631,1639594181000
Fix,GT,37.4150387,-122.0790445,-23.260999570792016,0.0053851646,0.099,337.56302,1639594182000
Fix,GT,37.4150387,-122.0790445,-23.26100017330796,0.0063245553,0.1,337.56302,1639594183000
Fix,GT,37.4150387,-122.0790445,-23.26100054158736,0.005385165,0.1,337.56296,1639594184000
Fix,GT,37.4150387,-122.0790445,-23.26099952475709,0.0053851646,0.1,337.56262,1639594185000
Fix,GT,37.4150387,-122.0790445,-23.26100012727303,0.004123427,0.1,337.5623,1639594186000
Fix,GT,37.4150387,-122.0790445,-23.260999343325324,0.0044718157,0.1,337.56235,1639594187000
Fix,GT,37.4150387,-122.0790445,-23.2609997129587,0.003605551,0.1,337.56204,1639594188000
Fix,GT,37.4150387,-122.0790445,-23.26100031412067,0.0036043057,0.1,337.56238,1639594189000
Fix,GT,37.4150387,-122.0790445,-23.260999530172963,0.0022360678,0.1,337.5621,1639594190000
Fix,GT,37.4150387,-122.0790445,-23.260999899806336,0.002236068,0.1,337.5621,1639594191000
Fix,GT,37.4150387,-122.0790445,-23.26099934738723,0.0014138413,0.1,337.5619,1639594192000
Fix,GT,37.4150387,-122.0790445,-23.261999949901018,8.9520006e-07,0.1,337.56183,1639594193000
Fix,GT,37.4150387,-122.0790445,-23.264999397380453,0.0,0.099,337.56174,1639594194000
Fix,GT,37.4150387,-122.0790445,-23.268001120952658,0.0014138458,0.1,337.56177,1639594195000
Fix,GT,37.4150386,-122.0790442,-23.19999414403981,0.0020008844,0.1,337.5614,1639594196000
Fix,GT,37.4150386,-122.0790442,-23.19300004995038,0.0058303075,0.1,337.55948,1639594197000
Fix,GT,37.4150386,-122.0790442,-23.19500240510109,0.0063221706,0.1,337.56076,1639594198000
Fix,GT,37.4150386,-122.0790442,-23.209000742518693,0.0041261567,0.1,337.56256,1639594199000
Fix,GT,37.4150386,-122.0790441,-23.22099931742175,0.008061517,0.1,337.56335,1639594200000
Fix,GT,37.4150386,-122.0790441,-23.222000785248124,0.007282336,0.1,337.5594,1639594201000
Fix,GT,37.4150385,-122.079044,-23.231999367132783,0.014035135,0.099,337.5614,1639594202000
Fix,GT,37.4150385,-122.0790439,-23.237001919833187,0.003181091,0.1,337.56952,1639594203000
Fix,GT,37.415041,-122.0790446,-23.262002215957093,0.6253365,0.1,338.71045,1639594204000
Fix,GT,37.415048,-122.0790467,-23.285004744970937,0.85366243,0.1,341.0177,1639594205000
Fix,GT,37.4150577,-122.0790507,-23.32600394027901,1.5167264,0.099,340.7065,1639594206000
Fix,GT,37.4150762,-122.0790592,-23.39300307207252,2.8481278,0.1,340.29425,1639594207000
Fix,GT,37.4151058,-122.0790716,-23.414008393682543,4.020376,0.1,340.84738,1639594208000
Fix,GT,37.4151427,-122.0790874,-23.38999547324231,4.414201,0.1,340.83856,1639594209000
Fix,GT,37.4151791,-122.0791034,-23.38401602041442,4.1243567,0.1,340.4278,1639594210000
Fix,GT,37.4152127,-122.0791188,-23.36500765276281,3.7881405,0.1,339.8859,1639594211000
Fix,GT,37.4152441,-122.07913,-23.354002338934222,3.4049826,0.1,344.41525,1639594212000
Fix,GT,37.4152733,-122.0791303,-23.32399940629041,3.004167,0.1,357.78882,1639594213000
Fix,GT,37.4152993,-122.0791224,-23.296999556049705,2.873676,0.1,9.95459,1639594214000
Fix,GT,37.4153245,-122.0791154,-23.32300716733513,2.8653882,0.1,11.122681,1639594215000
Fix,GT,37.4153471,-122.0791104,-23.36300275183457,2.0991924,0.1,10.155365,1639594216000
Fix,GT,37.4153646,-122.0791069,-23.408002767001165,2.014071,0.1,9.349884,1639594217000
Fix,GT,37.4153846,-122.0790999,-23.43799921526405,2.7306395,0.1,13.996796,1639594218000
Fix,GT,37.4154097,-122.07908,-23.49699742141686,3.7378945,0.1,30.637909,1639594219000
Fix,GT,37.4154337,-122.079039,-23.490004530132573,5.124645,0.1,53.737946,1639594220000
Fix,GT,37.4154519,-122.0789766,-23.57198886179505,6.5193744,0.1,70.559326,1639594221000
Fix,GT,37.4154706,-122.0789001,-23.6580064589195,7.659816,0.1,72.66922,1639594222000
Fix,GT,37.4154912,-122.0788158,-23.76900665349606,7.946244,0.1,72.95343,1639594223000
Fix,GT,37.4155109,-122.0787326,-23.860011394554864,7.387765,0.1,73.51929,1639594224000
Fix,GT,37.4155278,-122.0786575,-23.9830096971548,6.4423566,0.1,74.27728,1639594225000
Fix,GT,37.4155406,-122.0785933,-24.07101475993556,5.2959247,0.1,76.14749,1639594226000
Fix,GT,37.4155478,-122.0785431,-24.174005857996992,3.6112788,0.1,80.24777,1639594227000
Fix,GT,37.4155499,-122.0785124,-24.259001649850283,1.938028,0.099,83.51996,1639594228000
Fix,GT,37.4155507,-122.0784984,-24.3060048063593,0.6650522,0.1,84.06949,1639594229000
Fix,GT,37.415551,-122.0784944,-24.35000164611265,0.050612163,0.1,84.16156,1639594230000
Fix,GT,37.4155509,-122.0784941,-24.37400054570695,0.012529338,0.1,84.16611,1639594231000
Fix,GT,37.4155507,-122.0784932,-24.385999907964084,0.012081698,0.1,84.16513,1639594232000
Fix,GT,37.4155506,-122.0784917,-24.390002581937186,0.007279021,0.1,84.16519,1639594233000
Fix,GT,37.4155506,-122.0784919,-24.42100197740487,0.006082701,0.1,84.16461,1639594234000
Fix,GT,37.4155505,-122.0784921,-24.44400187963772,0.0050990195,0.1,84.164795,1639594235000
Fix,GT,37.4155505,-122.0784923,-24.458001293239185,0.004122394,0.1,84.16467,1639594236000
Fix,GT,37.4155505,-122.0784925,-24.474001931783512,0.003162895,0.1,84.16455,1639594237000
Fix,GT,37.4155505,-122.0784927,-24.492001339979588,0.0022354652,0.1,84.16373,1639594238000
Fix,GT,37.4155505,-122.0784929,-24.510002216686672,0.0010025343,0.1,84.1658,1639594239000
Fix,GT,37.4155505,-122.0784932,-24.530002114587404,0.0014131864,0.099,84.16513,1639594240000
Fix,GT,37.4155505,-122.0784934,-24.5510017679343,0.002235474,0.099,84.16464,1639594241000
Fix,GT,37.4155505,-122.0784936,-24.57300166529417,0.0014148045,0.1,84.16412,1639594242000
Fix,GT,37.4155505,-122.0784937,-24.597002782249824,0.0022374184,0.1,84.163605,1639594243000
Fix,GT,37.4155505,-122.0784939,-24.62200268043182,0.004471888,0.1,84.16342,1639594244000
Fix,GT,37.4155504,-122.0784939,-24.647004241956395,0.0030136034,0.1,84.16547,1639594245000
Fix,GT,37.4155507,-122.0784909,-24.69500483821379,0.65102446,0.1,84.23596,1639594246000
Fix,GT,37.4155516,-122.078478,-24.75500514874235,1.6966183,0.1,84.39502,1639594247000
Fix,GT,37.4155526,-122.0784524,-24.8040038798782,2.904854,0.099,86.31348,1639594248000
Fix,GT,37.4155538,-122.078412,-24.900005649907747,4.269215,0.1,87.60889,1639594249000
Fix,GT,37.4155526,-122.0783568,-25.00300741041213,5.298334,0.1,92.2551,1639594250000
Fix,GT,37.4155414,-122.0782969,-25.09701165620139,5.5570083,0.1,106.065796,1639594251000
Fix,GT,37.4155123,-122.0782436,-25.18000100436149,5.8057685,0.1,128.38077,1639594252000
Fix,GT,37.4154641,-122.0782102,-25.145007891698857,6.4163055,0.1,155.8728,1639594253000
Fix,GT,37.4154012,-122.0782039,-25.16100512946211,7.555479,0.1,178.38446,1639594254000
Fix,GT,37.4153269,-122.0782084,-25.137997286778585,8.910303,0.1,182.79134,1639594255000
Fix,GT,37.4152412,-122.0782139,-25.212998375480005,10.190552,0.1,182.19029,1639594256000
Fix,GT,37.4151456,-122.0782166,-25.13799305422832,10.865894,0.1,181.10825,1639594257000
Fix,GT,37.4150464,-122.0782174,-25.053994904676216,11.120085,0.1,180.4108,1639594258000
Fix,GT,37.4149471,-122.0782174,-24.95699138707296,10.870029,0.1,180.35257,1639594259000
Fix,GT,37.4148507,-122.0782181,-24.87399183747958,10.525867,0.1,180.85257,1639594260000
Fix,GT,37.4147575,-122.0782196,-24.773000580348832,10.14603,0.1,180.85582,1639594261000
Fix,GT,37.4146674,-122.0782199,-24.718988021077067,9.856981,0.1,180.46172,1639594262000
Fix,GT,37.4145801,-122.0782207,-24.600994684107544,9.466542,0.099,180.55444,1639594263000
Fix,GT,37.4144973,-122.0782212,-24.458997918371,8.881233,0.1,180.38184,1639594264000
Fix,GT,37.4144214,-122.0782215,-24.358994964290414,7.9110103,0.099,180.26534,1639594265000
Fix,GT,37.4143547,-122.0782218,-24.273997678205955,6.894023,0.099,180.31104,1639594266000
Fix,GT,37.4142976,-122.0782219,-24.21299454536545,5.776927,0.1,180.3802,1639594267000
Fix,GT,37.4142509,-122.0782219,-24.153997530061982,4.53393,0.099,180.36142,1639594268000
Fix,GT,37.4142163,-122.078222,-24.12099793467624,3.1849322,0.1,180.53444,1639594269000
Fix,GT,37.4141919,-122.0782218,-24.093999818196057,2.3189907,0.1,180.40059,1639594270000
Fix,GT,37.414174,-122.0782216,-24.07899840254704,1.690008,0.1,180.17433,1639594271000
Fix,GT,37.4141621,-122.0782213,-24.06999965533213,0.9490555,0.1,180.00418,1639594272000
Fix,GT,37.4141569,-122.0782211,-24.066999464862395,0.20436828,0.1,179.91907,1639594273000
Fix,GT,37.4141567,-122.078221,-24.071000337669105,0.013038405,0.1,179.91644,1639594274000
Fix,GT,37.4141567,-122.078221,-24.070999536230403,0.010197611,0.1,179.91583,1639594275000
Fix,GT,37.4141567,-122.078221,-24.07100065011811,0.007000636,0.1,179.9137,1639594276000
Fix,GT,37.4141567,-122.078221,-24.07099984727829,0.00608335,0.1,179.91351,1639594277000
Fix,GT,37.4141567,-122.078221,-24.07099928543053,0.0050990195,0.099,179.91345,1639594278000
Fix,GT,37.4141567,-122.078221,-24.07100015972729,0.0041228016,0.1,179.91333,1639594279000
Fix,GT,37.4141567,-122.078221,-24.071000079863648,0.0031622776,0.1,179.91309,1639594280000
Fix,GT,37.4141567,-122.078221,-24.070999759007947,0.0028288781,0.1,179.91357,1639594281000
Fix,GT,37.4141567,-122.078221,-24.07100063190359,0.002236858,0.1,179.91351,1639594282000
Fix,GT,37.4141567,-122.078221,-24.07100031104789,0.0014142136,0.1,179.91333,1639594283000
Fix,GT,37.4141567,-122.078221,-24.071000231184243,0.0036043026,0.1,179.91309,1639594284000
Fix,GT,37.4141567,-122.078221,-24.07099991032854,0.0014142136,0.1,179.91321,1639594285000
Fix,GT,37.4141567,-122.078221,-24.07099983046489,0.0019994373,0.099,179.91327,1639594286000
Fix,GT,37.4141567,-122.078221,-24.07100070336054,0.0014134228,0.1,179.91315,1639594287000
Fix,GT,37.4141567,-122.078221,-24.071000141512776,0.0022359367,0.1,179.91302,1639594288000
Fix,GT,37.4141567,-122.078221,-24.070999820657075,0.0020001305,0.099,179.91345,1639594289000
Fix,GT,37.4141567,-122.078221,-24.071000694953835,0.002235617,0.1,179.91357,1639594290000
Fix,GT,37.4141567,-122.078221,-24.07100061368908,0.0014145329,0.1,179.91333,1639594291000
Fix,GT,37.4141567,-122.0782209,-24.066999992146737,0.0014142136,0.1,179.91309,1639594292000
Fix,GT,37.4141566,-122.0782208,-24.0600002128724,0.0019996848,0.1,179.91321,1639594293000
Fix,GT,37.4141566,-122.0782208,-24.06000013304525,0.002236068,0.1,179.91309,1639594294000
Fix,GT,37.4141566,-122.0782208,-24.060000294100025,0.0010000002,0.1,179.91351,1639594295000
Fix,GT,37.4141566,-122.0782208,-24.05900045513589,0.001413995,0.1,179.91357,1639594296000
Fix,GT,37.4141566,-122.0782208,-24.05699984988058,0.004000065,0.1,179.91412,1639594297000
Fix,GT,37.4141566,-122.0782208,-24.05400029402669,0.0060010413,0.1,179.91382,1639594298000
Fix,GT,37.4141566,-122.0782207,-24.052000455003466,0.010297619,0.1,179.91284,1639594299000
Fix,GT,37.4141547,-122.0782205,-24.048999861706047,0.49319655,0.1,179.88,1639594300000
Fix,GT,37.4141481,-122.0782203,-24.03499951454613,0.95812273,0.1,179.76306,1639594301000
Fix,GT,37.414137,-122.0782199,-24.01699849083944,1.6054662,0.1,179.6875,1639594302000
Fix,GT,37.4141185,-122.0782195,-23.98499691020232,2.5736094,0.1,179.69934,1639594303000
Fix,GT,37.414089,-122.0782192,-23.924997087949887,4.0222526,0.1,179.86023,1639594304000
Fix,GT,37.4140461,-122.0782187,-23.84999403380917,5.478414,0.1,179.71863,1639594305000
Fix,GT,37.4139918,-122.0782176,-23.70999348578881,6.519799,0.1,179.68964,1639594306000
Fix,GT,37.4139284,-122.0782173,-23.572994476976223,7.535203,0.099,180.12733,1639594307000
Fix,GT,37.4138573,-122.0782173,-23.4849893152921,8.234207,0.1,180.4234,1639594308000
Fix,GT,37.4137797,-122.0782176,-23.35400086594533,9.017195,0.1,180.28217,1639594309000
Fix,GT,37.4136951,-122.0782168,-23.179983598229647,9.7344675,0.1,179.85938,1639594310000
Fix,GT,37.4136044,-122.0782165,-22.9189822031706,10.408035,0.1,180.38577,1639594311000
Fix,GT,37.4135082,-122.0782166,-22.60198293795946,10.884022,0.1,180.22546,1639594312000
Fix,GT,37.4134082,-122.0782162,-22.184969695430947,11.351168,0.099,180.05728,1639594313000
Fix,GT,37.4133028,-122.078216,-21.56096493021388,11.94501,0.1,180.47739,1639594314000
Fix,GT,37.4131939,-122.0782165,-20.81796265848732,12.287074,0.1,180.41747,1639594315000
Fix,GT,37.4130804,-122.0782163,-20.05196074511728,12.804021,0.1,180.43254,1639594316000
Fix,GT,37.4129649,-122.0782169,-19.15796150910866,12.835127,0.1,180.57602,1639594317000
Fix,GT,37.4128506,-122.0782178,-18.26995843330345,12.474633,0.1,180.73262,1639594318000
Fix,GT,37.4127401,-122.0782181,-17.408965047552655,12.094002,0.1,180.4206,1639594319000
Fix,GT,37.4126318,-122.0782184,-16.575963104459692,11.954055,0.1,180.55685,1639594320000
Fix,GT,37.412524,-122.0782191,-15.826970938537096,12.012203,0.1,180.70367,1639594321000
Fix,GT,37.4124167,-122.0782203,-15.129972719175974,11.662744,0.099,181.01266,1639594322000
Fix,GT,37.4123144,-122.0782225,-14.605979974550834,11.055916,0.1,181.46483,1639594323000
Fix,GT,37.4122161,-122.0782256,-14.161984958828718,10.919607,0.1,181.95355,1639594324000
Fix,GT,37.4121186,-122.0782288,-13.8019873215018,10.6253605,0.1,181.7232,1639594325000
Fix,GT,37.412025,-122.0782307,-13.514990172710794,10.219171,0.1,181.17555,1639594326000
Fix,GT,37.4119319,-122.0782314,-13.31799427137291,10.569046,0.1,180.36523,1639594327000
Fix,GT,37.4118339,-122.0782316,-13.196996226845076,11.134059,0.1,180.46017,1639594328000
Fix,GT,37.4117334,-122.0782323,-13.139000079576158,11.078188,0.1,180.58192,1639594329000
Fix,GT,37.4116344,-122.0782336,-13.189001262481236,10.929042,0.099,180.97078,1639594330000
Fix,GT,37.4115364,-122.0782355,-13.342006864423864,10.782269,0.1,181.00067,1639594331000
Fix,GT,37.41144,-122.0782382,-13.553015882774258,10.664331,0.1,181.83427,1639594332000
Fix,GT,37.4113444,-122.0782462,-13.843014914812754,10.569347,0.1,184.91737,1639594333000
Fix,GT,37.4112524,-122.0782621,-14.19401579222962,9.936841,0.1,189.54799,1639594334000
Fix,GT,37.4111673,-122.0782885,-14.656017176493304,9.636457,0.1,196.38216,1639594335000
Fix,GT,37.4110892,-122.078333,-15.23502411505769,9.345292,0.1,208.087,1639594336000
Fix,GT,37.411024,-122.0783969,-16.011031324324662,9.0942335,0.1,221.20348,1639594337000
Fix,GT,37.4109734,-122.0784781,-16.722029310429704,9.132605,0.1,236.07501,1639594338000
Fix,GT,37.4109424,-122.0785767,-17.67603389950149,9.612558,0.1,252.61032,1639594339000
Fix,GT,37.4109353,-122.0786878,-18.60103596109495,10.122148,0.1,269.69135,1639594340000
Fix,GT,37.4109531,-122.0788028,-19.56002240162302,10.574935,0.1,285.51617,1639594341000
Fix,GT,37.4109979,-122.0789101,-20.22301624758064,10.875442,0.1,301.77917,1639594342000
Fix,GT,37.4110648,-122.0790015,-20.75601732321363,11.037927,0.1,316.34857,1639594343000
Fix,GT,37.4111479,-122.0790711,-21.18401175103057,11.116823,0.1,329.77374,1639594344000
Fix,GT,37.4112409,-122.079117,-21.44901272337741,11.047754,0.1,341.5341,1639594345000
Fix,GT,37.4113389,-122.0791375,-21.724010276229585,10.994806,0.099,353.95468,1639594346000
Fix,GT,37.4114376,-122.0791288,-22.00500914382836,10.943156,0.1,8.0780945,1639594347000
Fix,GT,37.4115303,-122.0790883,-22.27200272538769,10.7977705,0.1,24.05246,1639594348000
Fix,GT,37.4116089,-122.0790171,-22.26000553297936,10.793614,0.1,39.946472,1639594349000
Fix,GT,37.4116716,-122.0789215,-22.39700359243201,11.218,0.1,54.47824,1639594350000
Fix,GT,37.4117138,-122.0788053,-22.40600270336191,11.427691,0.1,70.01114,1639594351000
Fix,GT,37.4117303,-122.0786773,-22.37499773247729,11.6206665,0.1,85.2681,1639594352000
Fix,GT,37.4117198,-122.0785452,-22.326999773829943,11.977706,0.1,100.29187,1639594353000
Fix,GT,37.4116846,-122.0784127,-22.23099982660206,12.815204,0.1,111.23224,1639594354000
Fix,GT,37.4116334,-122.0782745,-22.22699698041141,13.977306,0.1,116.25159,1639594355000
Fix,GT,37.4115716,-122.0781288,-22.160994698168768,15.148447,0.1,118.25342,1639594356000
Fix,GT,37.4115035,-122.0779745,-22.107996832504696,15.785831,0.1,119.25217,1639594357000
Fix,GT,37.4114322,-122.0778208,-22.036999679216592,15.680018,0.1,120.31149,1639594358000
Fix,GT,37.4113588,-122.0776687,-21.93400058123329,15.802277,0.1,121.53174,1639594359000
Fix,GT,37.4112831,-122.0775153,-21.809000510413373,16.142754,0.1,121.77496,1639594360000
Fix,GT,37.411204,-122.0773571,-21.71499362910332,16.86193,0.1,122.06766,1639594361000
Fix,GT,37.4111231,-122.0771916,-21.563997478226984,17.367353,0.1,120.95816,1639594362000
Fix,GT,37.4110434,-122.077021,-21.43899483947354,17.399027,0.1,120.3909,1639594363000
Fix,GT,37.4109646,-122.0768521,-21.29999937795711,17.13767,0.099,120.29367,1639594364000
Fix,GT,37.4108893,-122.0766845,-21.186994403891035,16.83384,0.1,118.93344,1639594365000
Fix,GT,37.4108183,-122.076517,-21.103993998526885,16.803179,0.1,117.60208,1639594366000
Fix,GT,37.4107484,-122.0763464,-20.81898930719081,17.196743,0.1,117.29895,1639594367000
Fix,GT,37.4106765,-122.0761735,-20.39998547047778,17.182964,0.1,117.74075,1639594368000
Fix,GT,37.4106053,-122.0760023,-19.840981900569894,17.072042,0.1,117.52237,1639594369000
Fix,GT,37.4105349,-122.0758305,-19.14698183115659,17.070318,0.1,117.1864,1639594370000
Fix,GT,37.4104656,-122.0756594,-18.422975742085136,17.033785,0.1,117.16376,1639594371000
Fix,GT,37.4103958,-122.0754892,-17.614976444844388,16.808456,0.1,117.525635,1639594372000
Fix,GT,37.4103265,-122.0753217,-16.776977382109095,16.694479,0.1,117.372925,1639594373000
Fix,GT,37.4102594,-122.0751551,-15.939979010074108,16.476246,0.1,116.65057,1639594374000
Fix,GT,37.4101928,-122.0749886,-15.192980871696722,16.615162,0.1,117.173004,1639594375000
Fix,GT,37.4101233,-122.074821,-14.502982559220223,16.83622,0.1,118.08191,1639594376000
Fix,GT,37.4100504,-122.0746549,-13.844985438375009,16.78908,0.1,119.285706,1639594377000
Fix,GT,37.4099765,-122.0744888,-13.204983027128256,16.891947,0.1,119.61426,1639594378000
Fix,GT,37.4099018,-122.0743252,-12.605986583917678,16.426294,0.1,120.4628,1639594379000
Fix,GT,37.4098298,-122.074165,-12.101986864449223,16.227226,0.1,118.946106,1639594380000
Fix,GT,37.4097623,-122.0740019,-11.631991695630871,16.279995,0.1,117.002045,1639594381000
Fix,GT,37.4097014,-122.0738371,-11.261994774264316,15.862731,0.1,113.97052,1639594382000
Fix,GT,37.4096487,-122.0736724,-10.999995047836752,15.682494,0.1,111.31348,1639594383000
Fix,GT,37.4096007,-122.073505,-10.877996326995593,15.747576,0.1,109.079895,1639594384000
Fix,GT,37.4095568,-122.0733341,-10.766000207720063,16.172497,0.1,107.50934,1639594385000
Fix,GT,37.4095139,-122.0731571,-10.74299877039867,16.49541,0.1,106.82916,1639594386000
Fix,GT,37.4094708,-122.0729771,-10.785001848546743,16.644367,0.099,107.07175,1639594387000
Fix,GT,37.4094247,-122.0727997,-10.91000283224632,16.434544,0.1,108.93228,1639594388000
Fix,GT,37.4093736,-122.0726252,-11.100005773731464,16.591469,0.1,111.17648,1639594389000
Fix,GT,37.4093136,-122.0724482,-11.302004236645327,17.500181,0.1,114.52261,1639594390000
Fix,GT,37.4092434,-122.0722681,-11.524006421564144,17.982738,0.1,117.25238,1639594391000
Fix,GT,37.4091664,-122.0720869,-11.79900757872169,18.29831,0.1,118.67859,1639594392000
Fix,GT,37.4090867,-122.0719041,-12.25600980540634,18.595388,0.1,118.97797,1639594393000
Fix,GT,37.4090051,-122.0717173,-12.834011680759025,19.141262,0.1,118.77637,1639594394000
Fix,GT,37.4089212,-122.0715272,-13.467012784974532,19.267204,0.099,119.23721,1639594395000
Fix,GT,37.408837,-122.0713355,-14.13801300688999,19.591452,0.1,118.719635,1639594396000
Fix,GT,37.4087516,-122.0711375,-14.84101146397652,20.14948,0.099,118.86572,1639594397000
Fix,GT,37.4086639,-122.0709374,-15.58401347872999,20.237717,0.1,119.22388,1639594398000
Fix,GT,37.4085758,-122.0707356,-16.32001248073655,20.47995,0.099,118.716,1639594399000
Fix,GT,37.4084908,-122.07053,-16.93401080988307,20.492695,0.1,116.56146,1639594400000
Fix,GT,37.4084142,-122.0703195,-17.494006925449156,20.518475,0.1,113.52167,1639594401000
Fix,GT,37.4083452,-122.0701036,-17.970005905741505,20.694324,0.1,110.86224,1639594402000
Fix,GT,37.408283,-122.0698827,-18.335005230711104,20.759092,0.099,108.87927,1639594403000
Fix,GT,37.4082248,-122.0696598,-18.657005432549457,20.80618,0.1,108.02817,1639594404000
Fix,GT,37.4081685,-122.069435,-18.741001656795007,20.905634,0.1,107.29974,1639594405000
Fix,GT,37.408113,-122.0692089,-18.70799704893681,20.887075,0.1,107.32715,1639594406000
Fix,GT,37.4080576,-122.0689853,-18.62399159154025,20.552652,0.1,107.48697,1639594407000
Fix,GT,37.4080035,-122.0687658,-18.50199943600161,20.164011,0.1,107.32306,1639594408000
Fix,GT,37.4079502,-122.06855,-18.51000004947005,19.82007,0.1,107.57428,1639594409000
Fix,GT,37.407897,-122.0683388,-18.54000073506229,19.398914,0.1,107.53198,1639594410000
Fix,GT,37.4078473,-122.0681334,-18.520000551636794,18.542969,0.1,106.60071,1639594411000
Fix,GT,37.4078031,-122.0679365,-18.576000719261515,17.409657,0.1,105.6557,1639594412000
Fix,GT,37.4077636,-122.0677589,-18.62400126999903,15.598176,0.1,105.62784,1639594413000
Fix,GT,37.4077297,-122.0675889,-18.71900144589993,15.539593,0.1,103.14642,1639594414000
Fix,GT,37.4077005,-122.0674137,-18.78799995625997,16.24906,0.1,101.64502,1639594415000
Fix,GT,37.407669,-122.0672287,-18.87300250150563,17.302855,0.1,102.82944,1639594416000
Fix,GT,37.4076313,-122.0670321,-19.030002746415448,18.42933,0.1,104.276855,1639594417000
Fix,GT,37.4075874,-122.0668247,-19.13700081343708,19.566494,0.1,104.87985,1639594418000
Fix,GT,37.4075416,-122.0666052,-19.115999247581524,20.610367,0.1,104.9787,1639594419000
Fix,GT,37.4074915,-122.0663748,-19.073001118740315,21.712362,0.1,105.67047,1639594420000
Fix,GT,37.4074375,-122.0661323,-19.07300024801869,22.869432,0.1,105.58661,1639594421000
Fix,GT,37.4073818,-122.0658773,-19.0170015319482,23.933691,0.099,105.282196,1639594422000
Fix,GT,37.4073241,-122.0656112,-18.860997345584767,24.872849,0.1,105.36572,1639594423000
Fix,GT,37.4072638,-122.0653361,-18.83899850017356,25.662554,0.1,105.54785,1639594424000
Fix,GT,37.407201,-122.0650529,-18.808999644678487,26.39714,0.1,105.67737,1639594425000
Fix,GT,37.4071363,-122.0647624,-18.80600071469736,27.008648,0.1,105.61514,1639594426000
Fix,GT,37.4070704,-122.0644649,-18.84399823214749,27.657564,0.1,105.776,1639594427000
Fix,GT,37.4070025,-122.0641615,-18.793000034184267,28.132483,0.1,105.60828,1639594428000
Fix,GT,37.4069341,-122.0638526,-18.785000291565662,28.617077,0.1,105.51987,1639594429000
Fix,GT,37.4068654,-122.0635396,-18.78999881482421,28.841007,0.099,105.37549,1639594430000
Fix,GT,37.4067966,-122.0632237,-18.829000083004008,29.109911,0.1,105.388,1639594431000
Fix,GT,37.4067274,-122.0629049,-18.879000390037827,29.45646,0.1,105.223785,1639594432000
Fix,GT,37.4066574,-122.0625814,-18.909000554235373,29.899364,0.1,105.3172,1639594433000
Fix,GT,37.4065859,-122.0622533,-18.91300022129476,30.305082,0.1,105.404724,1639594434000
Fix,GT,37.4065133,-122.0619218,-18.94499945533529,30.617407,0.1,105.55441,1639594435000
Fix,GT,37.406439,-122.0615864,-18.99100019451281,30.981226,0.1,105.58145,1639594436000
Fix,GT,37.4063644,-122.0612484,-18.99399932475362,31.084042,0.1,105.484924,1639594437000
Fix,GT,37.4062904,-122.0609079,-18.97999938482508,31.368258,0.1,105.19098,1639594438000
Fix,GT,37.4062166,-122.0605652,-18.92500033474512,31.527363,0.1,105.22421,1639594439000
Fix,GT,37.4061418,-122.06022,-18.847999585661388,31.797308,0.1,105.31073,1639594440000
Fix,GT,37.406066,-122.0598731,-18.843999992261136,31.895243,0.1,105.552795,1639594441000
Fix,GT,37.4059889,-122.0595257,-18.776999519317183,31.93614,0.1,105.638824,1639594442000
Fix,GT,37.4059118,-122.0591781,-18.718000302583185,31.919563,0.1,105.45703,1639594443000
Fix,GT,37.4058359,-122.0588309,-18.70699972135756,31.747671,0.1,105.46228,1639594444000
Fix,GT,37.4057602,-122.0584876,-18.67700031552912,31.366907,0.1,105.610596,1639594445000
Fix,GT,37.4056851,-122.0581472,-18.68799958719136,31.211622,0.099,105.52484,1639594446000
Fix,GT,37.4056106,-122.0578075,-18.70000011735758,31.175137,0.1,105.38107,1639594447000
Fix,GT,37.4055361,-122.0574678,-18.69699955334072,31.25314,0.1,105.52417,1639594448000
Fix,GT,37.4054608,-122.0571274,-18.72700022399457,31.228636,0.1,105.60913,1639594449000
Fix,GT,37.4053858,-122.0567881,-18.749,31.112637,0.1,105.56381,1639594449999
Fix,GT,37.4053107,-122.0564497,-18.75399998664856,31.084,0.1,105.881714,1639594450999
Fix,GT,37.4052332,-122.0561124,-18.775,31.082436,0.1,106.464905,1639594451999
Fix,GT,37.4051526,-122.055776,-18.74900002014637,31.122675,0.1,107.16843,1639594452999
Fix,GT,37.405069,-122.0554411,-18.77199978542328,30.936357,0.1,107.73709,1639594453999
Fix,GT,37.4049839,-122.0551106,-18.651000218510628,30.582417,0.1,108.19284,1639594454999
Fix,GT,37.4048974,-122.054784,-18.56000002014637,30.362423,0.1,108.710815,1639594455999
Fix,GT,37.404809,-122.0544606,-18.563001177191733,30.15064,0.1,109.25534,1639594456999
Fix,GT,37.4047189,-122.0541405,-18.0910015591383,29.951391,0.1,109.618835,1639594457999
Fix,GT,37.4046294,-122.0538218,-17.377002387344834,29.900166,0.1,109.306366,1639594458999
Fix,GT,37.4045405,-122.053503,-16.401003664255143,29.881945,0.1,109.339264,1639594459999
Fix,GT,37.4044521,-122.0531856,-15.261004175901412,29.644884,0.1,109.32901,1639594460999
Fix,GT,37.4043651,-122.0528705,-14.138004190444947,29.403292,0.1,109.05902,1639594461999
Fix,GT,37.40428,-122.0525573,-13.213004019498824,29.191502,0.1,109.06183,1639594462999
Fix,GT,37.4041958,-122.052246,-12.543002445459368,29.025675,0.1,108.69556,1639594463999
Fix,GT,37.4041137,-122.0519356,-12.038002168297767,28.854563,0.1,108.226746,1639594464999
Fix,GT,37.4040346,-122.0516272,-11.654001720428468,28.451683,0.1,107.732666,1639594465999
Fix,GT,37.4039592,-122.0513227,-11.4429998857975,28.01114,0.1,107.06738,1639594466999
Fix,GT,37.4038871,-122.0510216,-11.535998729526996,27.673082,0.1,106.61786,1639594467999
Fix,GT,37.4038172,-122.0507227,-11.836998404085636,27.492002,0.1,106.349396,1639594468999
Fix,GT,37.4037495,-122.0504249,-12.18999724584818,27.377226,0.1,105.81149,1639594469999
Fix,GT,37.4036834,-122.0501266,-12.79099498939514,27.444374,0.1,105.48996,1639594470999
Fix,GT,37.4036178,-122.0498267,-13.63799364376068,27.645494,0.1,105.39288,1639594471999
Fix,GT,37.4035518,-122.0495256,-14.49399311965704,27.614735,0.1,105.490295,1639594472999
Fix,GT,37.4034856,-122.0492254,-15.419992177426815,27.551102,0.1,105.58319,1639594473999
Fix,GT,37.403419,-122.0489258,-16.464991433739662,27.529152,0.1,105.599365,1639594474999
Fix,GT,37.4033531,-122.048626,-17.46399196100235,27.505783,0.1,105.38327,1639594475999
Fix,GT,37.403288,-122.0483268,-18.277994466185568,27.411747,0.1,105.309296,1639594476999
Fix,GT,37.4032236,-122.0480287,-18.86699604964257,27.259583,0.1,105.39078,1639594477999
Fix,GT,37.4031583,-122.0477332,-19.21099707639217,27.061422,0.1,105.65686,1639594478999
Fix,GT,37.4030925,-122.04744,-19.341998891294,26.858702,0.1,105.87518,1639594479999
Fix,GT,37.4030271,-122.047149,-19.36500093770027,26.719404,0.1,105.75525,1639594480999
Fix,GT,37.4029627,-122.0468584,-19.290001720428464,26.664078,0.1,105.58472,1639594481999
Fix,GT,37.4028989,-122.0465699,-19.24500110805035,26.336718,0.1,105.54956,1639594482999
Fix,GT,37.4028361,-122.0462852,-19.2070002282858,25.949356,0.1,105.49509,1639594483999
Fix,GT,37.4027745,-122.0460046,-19.16000070524216,25.59421,0.1,105.461426,1639594484999
Fix,GT,37.4027138,-122.0457278,-19.12100048351288,25.238276,0.1,105.45334,1639594485999
Fix,GT,37.4026547,-122.0454558,-19.09000012421608,24.530664,0.1,105.197266,1639594486999
Fix,GT,37.4025984,-122.0451941,-19.05300025522709,23.585064,0.1,105.11612,1639594487999
Fix,GT,37.402544,-122.0449387,-19.0230001309514,23.216963,0.1,105.11377,1639594488999
Fix,GT,37.4024894,-122.0446863,-19.015000134229663,23.156271,0.1,105.412964,1639594489999
Fix,GT,37.4024345,-122.0444334,-19.022000137627124,23.277557,0.1,105.3327,1639594490999
Fix,GT,37.4023792,-122.04418,-19.023000140964985,23.158506,0.1,105.50177,1639594491999
Fix,GT,37.4023234,-122.0439288,-19.04299913418293,23.097385,0.1,105.7789,1639594492999
Fix,GT,37.4022672,-122.0436751,-19.03800059080124,23.53774,0.1,105.40643,1639594493999
Fix,GT,37.4022114,-122.0434175,-19.054999849021435,23.699383,0.1,105.241486,1639594494999
Fix,GT,37.4021555,-122.0431588,-19.064,23.683926,0.1,105.26953,1639594495999
Fix,GT,37.4020997,-122.0429018,-19.09799968469143,23.486217,0.1,105.352844,1639594496999
Fix,GT,37.4020441,-122.0426473,-19.143999516844747,23.229156,0.1,105.383606,1639594497999
Fix,GT,37.4019893,-122.0423956,-19.209998520493507,23.023567,0.1,105.34836,1639594498999
Fix,GT,37.4019341,-122.0421446,-19.27999932932854,23.076902,0.1,105.60043,1639594499999
Fix,GT,37.4018788,-122.0418945,-19.330999144673346,22.897308,0.1,105.5853,1639594500999
Fix,GT,37.4018238,-122.0416442,-19.39599843037129,23.136713,0.1,105.40076,1639594501999
Fix,GT,37.4017687,-122.0413915,-19.477999644517897,23.154287,0.1,105.43198,1639594502999
Fix,GT,37.4017136,-122.0411406,-19.56999836975336,22.903812,0.1,105.41495,1639594503999
Fix,GT,37.4016597,-122.0408923,-19.58999963104725,22.719683,0.1,105.19833,1639594504999
Fix,GT,37.4016063,-122.0406448,-19.58,22.683022,0.1,105.27319,1639594505999
Fix,GT,37.4015525,-122.0403973,-19.57,22.742992,0.1,105.32776,1639594506999
Fix,GT,37.4014986,-122.0401486,-19.52800019448995,22.91465,0.1,105.21527,1639594507999
Fix,GT,37.4014441,-122.0398969,-19.50900296741724,23.257383,0.1,105.388855,1639594508999
Fix,GT,37.4013878,-122.0396428,-19.484001207351685,23.453848,0.1,105.62463,1639594509999
Fix,GT,37.4013311,-122.0393864,-19.446001227021217,23.65425,0.1,105.38422,1639594510999
Fix,GT,37.4012749,-122.0391282,-19.421000207841395,23.729456,0.1,105.31793,1639594511999
Fix,GT,37.4012182,-122.03887,-19.39399894410372,23.699715,0.1,105.43509,1639594512999
Fix,GT,37.4011613,-122.038612,-19.38100064373016,23.695585,0.1,105.46985,1639594513999
Fix,GT,37.4011047,-122.0383541,-19.37099956417084,23.659883,0.1,105.396484,1639594514999
Fix,GT,37.4010482,-122.0380976,-19.372,23.4409,0.1,105.484375,1639594515999
Fix,GT,37.4009928,-122.0378472,-19.385996856570245,22.336914,0.1,105.609314,1639594516999
Fix,GT,37.4009391,-122.0376086,-19.469998632431032,21.690218,0.1,105.874664,1639594517999
Fix,GT,37.4008866,-122.0373749,-19.51999838113785,21.339293,0.1,105.701965,1639594518999
Fix,GT,37.4008332,-122.0371452,-19.60499765336513,21.024132,0.1,106.8064,1639594519999
Fix,GT,37.4007766,-122.0369205,-19.728991907954214,20.686268,0.1,107.720276,1639594520999
Fix,GT,37.4007201,-122.0366997,-19.812995898246765,20.313963,0.1,107.65796,1639594521999
Fix,GT,37.4006666,-122.0364835,-19.934997553825376,19.756262,0.1,106.83533,1639594522999
Fix,GT,37.4006167,-122.0362745,-20.050994543671607,18.756748,0.1,106.3988,1639594523999
Fix,GT,37.4005716,-122.0360791,-20.130999748647213,17.24305,0.1,105.770874,1639594524999
Fix,GT,37.4005311,-122.0359002,-20.20199872654677,15.6347065,0.1,105.90869,1639594525999
Fix,GT,37.4004929,-122.0357415,-20.288997677207,13.544111,0.1,107.3555,1639594526999
Fix,GT,37.4004559,-122.0356123,-20.360999215900897,10.489401,0.1,111.37323,1639594527999
Fix,GT,37.4004221,-122.0355187,-20.490995235323904,7.989593,0.1,115.45624,1639594528999
Fix,GT,37.4003895,-122.0354431,-20.55999973201752,7.364299,0.1,119.076904,1639594529999
Fix,GT,37.4003537,-122.0353754,-20.63299647206068,6.9154406,0.1,124.62497,1639594530999
Fix,GT,37.400314,-122.0353193,-20.646000824153425,6.411793,0.1,132.98138,1639594531999
Fix,GT,37.4002701,-122.0352739,-20.60100222444534,6.181374,0.1,141.33911,1639594532999
Fix,GT,37.4002231,-122.0352385,-20.55200309467316,5.9239798,0.1,149.36389,1639594533999
Fix,GT,37.4001755,-122.035213,-20.49800056946278,5.5681405,0.1,157.0149,1639594534999
Fix,GT,37.4001236,-122.0351961,-20.433002592623232,6.4122868,0.1,165.69604,1639594535999
Fix,GT,37.4000642,-122.0351891,-20.375002039432527,6.757192,0.1,175.45178,1639594536999
Fix,GT,37.4000024,-122.0351927,-20.29000324219465,6.9247265,0.1,183.3306,1639594537999
Fix,GT,37.3999394,-122.0352106,-20.238000894248486,7.4084835,0.1,194.2849,1639594538999
Fix,GT,37.399876,-122.0352451,-20.14800150680542,7.8794365,0.1,204.90031,1639594539999
Fix,GT,37.3998155,-122.0352944,-20.06700091409683,8.01343,0.1,214.38336,1639594540999
Fix,GT,37.3997612,-122.0353525,-19.983002156674864,7.8187838,0.1,220.6945,1639594541999
Fix,GT,37.3997114,-122.0354148,-19.92000124573708,7.8792787,0.1,225.27565,1639594542999
Fix,GT,37.3996641,-122.0354845,-19.855000314712527,8.294227,0.1,229.80989,1639594543999
Fix,GT,37.3996186,-122.0355619,-19.778003180503845,8.727356,0.1,234.04996,1639594544999
Fix,GT,37.3995761,-122.0356478,-19.64600546461344,8.986008,0.1,238.9877,1639594545999
Fix,GT,37.3995401,-122.0357368,-19.514004222214226,8.656755,0.1,243.69528,1639594546999
Fix,GT,37.3995114,-122.0358253,-19.29600557911396,8.2528,0.1,248.47055,1639594547999
Fix,GT,37.3994895,-122.035912,-19.07600762361288,7.835431,0.1,252.97516,1639594548999
Fix,GT,37.3994736,-122.0359978,-18.82500803518296,7.773927,0.1,257.3651,1639594549999
Fix,GT,37.3994638,-122.0360833,-18.577010144114496,7.5670743,0.1,262.5036,1639594550999
Fix,GT,37.3994615,-122.0361717,-18.28300990104676,8.060073,0.1,269.24347,1639594551999
Fix,GT,37.3994693,-122.0362611,-17.994010344386098,7.8266187,0.1,278.05164,1639594552999
Fix,GT,37.3994889,-122.036347,-17.666010444521905,8.042023,0.1,287.8307,1639594553999
Fix,GT,37.3995224,-122.036429,-17.25001230418682,8.218655,0.1,299.51733,1639594554999
Fix,GT,37.3995696,-122.0365021,-16.892013128578665,8.40609,0.1,311.2446,1639594555999
Fix,GT,37.3996292,-122.0365652,-16.52801611739397,8.835183,0.1,322.01355,1639594556999
Fix,GT,37.3997003,-122.0366136,-16.17001409858465,9.143315,0.1,334.42673,1639594557999
Fix,GT,37.399781,-122.0366405,-15.841010582089424,9.286104,0.1,347.8897,1639594558999
Fix,GT,37.3998659,-122.0366449,-15.556008836269378,9.588111,0.1,0.4897766,1639594559999
Fix,GT,37.3999532,-122.0366249,-15.283011145472525,10.062772,0.1,13.585571,1639594560999
Fix,GT,37.4000382,-122.0365777,-15.077004873096945,10.523166,0.1,27.570435,1639594561999
Fix,GT,37.400116,-122.0365038,-14.80900945329666,11.169732,0.1,40.855347,1639594562999
Fix,GT,37.4001851,-122.0364049,-14.521009919762612,12.199322,0.1,51.336243,1639594563999
Fix,GT,37.4002521,-122.0362874,-14.277007697343826,13.36819,0.1,54.378815,1639594564999
Fix,GT,37.4003226,-122.0361576,-13.993010094881058,14.287433,0.1,56.040375,1639594565999
Fix,GT,37.4003925,-122.036016,-13.782006656229496,15.268836,0.1,58.595398,1639594566999
Fix,GT,37.4004654,-122.0358625,-13.660001974403858,16.457106,0.1,58.95755,1639594567999
Fix,GT,37.4005453,-122.0356967,-13.560001991093158,17.854446,0.1,58.359467,1639594568999
Fix,GT,37.4006315,-122.0355171,-13.530000803232191,19.263151,0.1,59.267548,1639594569999
Fix,GT,37.4007194,-122.0353235,-13.626996760368348,20.104637,0.1,60.666565,1639594570999
Fix,GT,37.400807,-122.0351189,-13.787995101213456,21.053358,0.1,62.040283,1639594571999
Fix,GT,37.4008945,-122.0349027,-14.049990532517434,21.879454,0.1,63.535522,1639594572999
Fix,GT,37.4009805,-122.0346771,-14.43798381626606,22.252481,0.1,64.91742,1639594573999
Fix,GT,37.401063,-122.0344476,-14.910975738286972,22.417728,0.1,65.99365,1639594574999
Fix,GT,37.4011437,-122.0342141,-15.49797470498085,22.556473,0.1,66.65811,1639594575999
Fix,GT,37.4012227,-122.0339792,-16.1999630266428,22.6821,0.1,67.13782,1639594576999
Fix,GT,37.4013013,-122.03374,-16.976965734481812,23.10566,0.1,67.741974,1639594577999
Fix,GT,37.4013787,-122.0334968,-17.849963309168817,23.232237,0.1,68.4043,1639594578999
Fix,GT,37.4014545,-122.0332507,-18.7389608451128,23.546524,0.1,68.946686,1639594579999
Fix,GT,37.4015288,-122.0329999,-19.50097238504887,23.71774,0.1,69.9267,1639594580999
Fix,GT,37.4016002,-122.0327467,-20.085977474808693,23.92084,0.1,70.66855,1639594581999
Fix,GT,37.4016708,-122.0324874,-20.47398442262412,24.641783,0.1,71.30432,1639594582999
Fix,GT,37.4017406,-122.032221,-20.66699237710237,24.840714,0.1,72.01532,1639594583999
Fix,GT,37.4018086,-122.0319542,-20.82599232137204,24.836823,0.1,71.76984,1639594584999
Fix,GT,37.4018805,-122.0316854,-20.999993629693986,25.457193,0.1,70.89093,1639594585999
Fix,GT,37.4019569,-122.0314098,-21.12799083161354,26.16048,0.1,70.48883,1639594586999
Fix,GT,37.4020353,-122.0311294,-21.33999076485634,26.497383,0.1,70.6192,1639594587999
Fix,GT,37.4021147,-122.0308437,-21.57599348950386,26.985657,0.1,70.71466,1639594588999
Fix,GT,37.4021932,-122.0305529,-21.75499203765392,27.397856,0.1,71.619934,1639594589999
Fix,GT,37.4022696,-122.0302568,-21.909983959794047,27.622782,0.1,72.17529,1639594590999
Fix,GT,37.4023438,-122.0299591,-22.099989548921588,27.60231,0.1,72.75659,1639594591999
Fix,GT,37.4024175,-122.0296615,-22.240997608065605,27.580242,0.1,72.44275,1639594592999
Fix,GT,37.4024917,-122.0293637,-22.287000963568687,27.651152,0.1,72.50543,1639594593999
Fix,GT,37.402565,-122.029067,-22.07701746439934,27.331108,0.1,72.63699,1639594594999
Fix,GT,37.4026371,-122.0287738,-21.58902686530352,26.996534,0.1,72.621216,1639594595999
Fix,GT,37.402709,-122.0284851,-20.90203589689732,26.578182,0.1,72.34302,1639594596999
Fix,GT,37.4027807,-122.0281993,-20.01804555249214,26.559113,0.1,72.51437,1639594597999
Fix,GT,37.4028516,-122.0279136,-19.19903688704968,26.34537,0.1,72.60986,1639594598999
Fix,GT,37.4029206,-122.0276301,-18.539033617377285,26.18056,0.1,73.22272,1639594599999
Fix,GT,37.4029856,-122.0273477,-17.97802677291632,25.794374,0.1,74.11417,1639594600999
Fix,GT,37.4030466,-122.0270693,-17.605016271591186,25.377548,0.1,74.8353,1639594601999
Fix,GT,37.4031044,-122.0267923,-17.405018935322765,25.362339,0.1,75.40173,1639594602999
Fix,GT,37.4031594,-122.0265155,-17.30500206041336,25.126024,0.1,76.226685,1639594603999
Fix,GT,37.4032116,-122.0262395,-17.322009851515293,25.186317,0.1,76.680084,1639594604999
Fix,GT,37.403263,-122.02596,-17.500987997710705,25.595629,0.1,77.12244,1639594605999
Fix,GT,37.4033121,-122.0256769,-17.795982671141623,25.68451,0.1,77.93756,1639594606999
Fix,GT,37.4033582,-122.0253919,-18.264976747989653,25.854794,0.1,78.58508,1639594607999
Fix,GT,37.403404,-122.0251039,-18.800964897751804,26.152925,0.1,78.781555,1639594608999
Fix,GT,37.4034485,-122.0248127,-19.503961466312408,26.281538,0.1,79.021545,1639594609999
Fix,GT,37.4034935,-122.0245215,-20.353950460910795,26.234362,0.1,78.80005,1639594610999
Fix,GT,37.403539,-122.0242306,-21.31395014834404,26.330173,0.1,78.87268,1639594611999
Fix,GT,37.403585,-122.0239378,-22.26494603073597,26.53903,0.1,78.47635,1639594612999
Fix,GT,37.4036343,-122.0236426,-23.162946797251703,26.876352,0.1,77.727234,1639594613999
Fix,GT,37.4036873,-122.0233448,-23.862967994451523,27.109781,0.1,76.970795,1639594614999
Fix,GT,37.4037424,-122.0230467,-24.37797779130936,27.011261,0.1,76.65369,1639594615999
Fix,GT,37.4037989,-122.0227516,-24.62999273878336,26.709484,0.1,76.15738,1639594616999
Fix,GT,37.4038562,-122.0224602,-24.71599438107014,26.529278,0.1,75.79132,1639594617999
Fix,GT,37.403916,-122.0221679,-24.82599095726013,27.124935,0.1,75.187836,1639594618999
Fix,GT,37.4039798,-122.0218645,-25.01598976576328,28.404173,0.1,75.216095,1639594619999
Fix,GT,37.4040459,-122.0215476,-25.12699599665403,29.51847,0.1,74.870056,1639594620999
Fix,GT,37.4041161,-122.0212205,-25.25599827444553,30.457327,0.1,74.64838,1639594621999
Fix,GT,37.4041888,-122.0208833,-25.26900115716457,31.371733,0.1,74.69672,1639594622999
Fix,GT,37.4042643,-122.0205378,-25.29499592655897,32.04422,0.1,74.30533,1639594623999
Fix,GT,37.4043427,-122.0201854,-25.4249976592064,32.72818,0.1,74.17935,1639594624999
Fix,GT,37.4044234,-122.0198259,-25.51299470317364,33.362423,0.1,73.93451,1639594625999
Fix,GT,37.4045064,-122.0194618,-25.59699822419882,33.712116,0.1,73.7959,1639594626999
Fix,GT,37.4045907,-122.0190929,-25.588998809456825,34.245068,0.1,73.784515,1639594627999
Fix,GT,37.4046764,-122.0187183,-25.62100239419937,34.72253,0.1,73.87045,1639594628999
Fix,GT,37.404762,-122.0183411,-25.641990368843075,34.6145,0.1,74.12976,1639594629999
Fix,GT,37.4048455,-122.0179659,-25.74898607844114,34.351845,0.1,74.31799,1639594630999
Fix,GT,37.4049291,-122.0175941,-25.84000608623028,34.069614,0.1,73.885254,1639594631999
Fix,GT,37.4050138,-122.0172257,-25.965985926270488,33.807026,0.1,73.671265,1639594632999
Fix,GT,37.405098,-122.0168604,-26.01600553768873,33.54789,0.1,73.77771,1639594633999
Fix,GT,37.4051809,-122.0164966,-26.10099628818035,33.45377,0.1,73.914215,1639594634999
Fix,GT,37.405263,-122.0161343,-26.12499564617872,33.162994,0.1,73.794586,1639594635999
Fix,GT,37.4053451,-122.0157767,-26.176996248483658,32.748413,0.1,73.54675,1639594636999
Fix,GT,37.4054285,-122.0154218,-26.252994970798493,32.87106,0.1,72.93414,1639594637999
Fix,GT,37.4055172,-122.0150645,-26.29500379192829,33.535057,0.1,72.20532,1639594638999
Fix,GT,37.4056105,-122.0146989,-26.301997458457947,34.4641,0.1,72.1427,1639594639999
Fix,GT,37.4057046,-122.0143229,-26.342,35.237934,0.1,72.66376,1639594640999
Fix,GT,37.4057981,-122.01394,-26.401987159967423,35.644585,0.1,72.8179,1639594641999
Fix,GT,37.4058909,-122.0135531,-26.463991610586643,35.822826,0.1,73.442566,1639594642999
Fix,GT,37.4059803,-122.0131643,-26.51099740552902,35.83547,0.1,73.9751,1639594643999
Fix,GT,37.4060684,-122.0127745,-26.554996087908744,35.87011,0.1,73.934204,1639594644999
Fix,GT,37.4061562,-122.0123862,-26.63099737858772,35.527946,0.1,74.03885,1639594645999
Fix,GT,37.406243,-122.0120022,-26.74599802392721,35.209255,0.1,73.95999,1639594646999
Fix,GT,37.4063295,-122.0116207,-26.848997351884844,35.01846,0.1,73.899536,1639594647999
Fix,GT,37.4064161,-122.0112415,-26.92499534243345,34.844585,0.1,73.77084,1639594648999
Fix,GT,37.4065026,-122.0108641,-27.01898863303661,34.704678,0.1,73.73746,1639594649999
Fix,GT,37.406589,-122.0104875,-27.1679845443964,34.70446,0.1,73.74576,1639594650999
Fix,GT,37.4066758,-122.0101101,-27.35998446625471,34.91553,0.1,73.709595,1639594651999
Fix,GT,37.4067629,-122.009729,-27.495989819228647,35.267307,0.1,73.95703,1639594652999
Fix,GT,37.4068499,-122.0093439,-27.50999795383215,35.572952,0.1,74.02231,1639594653999
Fix,GT,37.4069376,-122.0089565,-27.487002056360243,35.67572,0.1,73.99756,1639594654999
Fix,GT,37.4070243,-122.0085687,-27.18401377463341,35.64389,0.1,74.14493,1639594655999
Fix,GT,37.4071109,-122.0081816,-26.90801038104296,35.54099,0.1,74.00357,1639594656999
Fix,GT,37.407198,-122.0077956,-26.665020165085792,35.533585,0.1,73.88339,1639594657999
Fix,GT,37.4072858,-122.0074083,-26.419016769886017,35.768578,0.1,73.93036,1639594658999
Fix,GT,37.4073744,-122.0070189,-26.197006318747995,35.898914,0.1,73.812744,1639594659999
Fix,GT,37.4074628,-122.0066286,-26.07901481384039,35.936302,0.1,74.13071,1639594660999
Fix,GT,37.4075492,-122.0062379,-26.098990786910058,35.851727,0.1,74.45993,1639594661999
Fix,GT,37.4076335,-122.0058475,-26.1409843338728,35.762714,0.1,74.683716,1639594662999
Fix,GT,37.4077183,-122.0054577,-26.43897138261796,35.830566,0.1,74.433655,1639594663999
Fix,GT,37.4078047,-122.0050668,-26.828968376636503,35.97589,0.1,74.20953,1639594664999
Fix,GT,37.4078912,-122.0046745,-27.156982670784,36.10259,0.1,74.39029,1639594665999
Fix,GT,37.4079772,-122.0042809,-27.46498041290045,36.131508,0.1,74.46524,1639594666999
Fix,GT,37.4080632,-122.0038876,-27.67998323792219,36.087204,0.1,74.43524,1639594667999
Fix,GT,37.4081491,-122.0034947,-27.808986090779303,36.035686,0.1,74.53323,1639594668999
Fix,GT,37.408234,-122.0031021,-27.84400220638513,35.980526,0.1,74.68164,1639594669999
Fix,GT,37.4083188,-122.0027105,-27.86099704480171,35.863087,0.1,74.560425,1639594670999
Fix,GT,37.4084038,-122.0023205,-27.88198886793852,35.72708,0.1,74.42703,1639594671999
Fix,GT,37.4084884,-122.0019335,-27.91199627232552,35.290043,0.1,74.489624,1639594672999
Fix,GT,37.4085722,-122.0015504,-27.95099550712109,35.115955,0.1,74.43036,1639594673999
Fix,GT,37.4086557,-122.0011675,-27.96799473494292,35.152153,0.1,74.5672,1639594674999
Fix,GT,37.4087394,-122.0007841,-28.01600226664543,35.255756,0.1,74.44159,1639594675999
Fix,GT,37.4088237,-122.0003993,-28.03599772334099,35.40072,0.1,74.44928,1639594676999
Fix,GT,37.4089085,-122.0000126,-28.03800457298756,35.584385,0.1,74.46054,1639594677999
Fix,GT,37.4089921,-121.9996241,-28.059990813970565,35.64596,0.1,74.801056,1639594678999
Fix,GT,37.4090756,-121.9992349,-28.07499615550041,35.70232,0.1,74.664734,1639594679999
Fix,GT,37.4091591,-121.9988453,-28.14599768328667,35.721447,0.1,74.85162,1639594680999
Fix,GT,37.4092419,-121.998455,-28.17799767327309,35.781887,0.1,74.810486,1639594681999
Fix,GT,37.4093259,-121.9980649,-28.239006230831148,35.75486,0.1,74.59268,1639594682999
Fix,GT,37.4094113,-121.9976753,-28.18599921774864,35.799133,0.1,74.278595,1639594683999
Fix,GT,37.4094969,-121.9972853,-28.17700157117844,35.803703,0.1,74.55188,1639594684999
Fix,GT,37.4095816,-121.9968951,-28.20699211013317,35.812862,0.1,74.59735,1639594685999
Fix,GT,37.409666,-121.9965048,-28.23400396162272,35.766544,0.1,74.5238,1639594686999
Fix,GT,37.4097508,-121.9961154,-28.256992839574817,35.720383,0.1,74.630005,1639594687999
Fix,GT,37.4098349,-121.9957263,-28.302002396821976,35.6485,0.1,74.66559,1639594688999
Fix,GT,37.4099191,-121.9953382,-28.308004011690617,35.56462,0.1,74.55548,1639594689999
Fix,GT,37.4100028,-121.9949509,-28.290996777534485,35.487267,0.1,74.691925,1639594690999
Fix,GT,37.4100863,-121.9945642,-28.331990292549136,35.481644,0.1,74.53772,1639594691999
Fix,GT,37.4101711,-121.9941774,-28.315007310628893,35.560955,0.1,74.46228,1639594692999
Fix,GT,37.4102557,-121.9937895,-28.337995921552185,35.628147,0.1,74.466705,1639594693999
Fix,GT,37.4103405,-121.9934018,-28.337996723890303,35.44294,0.1,74.49014,1639594694999
Fix,GT,37.410425,-121.9930174,-28.30900246691704,35.256626,0.1,74.3233,1639594695999
Fix,GT,37.4105095,-121.9926329,-28.281997522890567,35.32589,0.1,74.574036,1639594696999
Fix,GT,37.4105925,-121.9922485,-28.265004145205022,35.184464,0.1,74.63989,1639594697999
Fix,GT,37.4106756,-121.9918655,-28.207999167680736,35.09611,0.1,74.60611,1639594698999
Fix,GT,37.410758,-121.9914833,-28.090009192228315,35.018696,0.1,74.71216,1639594699999
Fix,GT,37.4108406,-121.9911019,-27.881015942037106,34.94473,0.1,74.60663,1639594700999
Fix,GT,37.4109236,-121.9907212,-27.85000336956978,34.99505,0.1,74.46118,1639594701999
Fix,GT,37.4110082,-121.9903389,-27.71701099449396,35.23781,0.1,74.220184,1639594702999
Fix,GT,37.4110945,-121.989955,-27.541018679499626,35.343517,0.1,74.14841,1639594703999
Fix,GT,37.4111821,-121.9895705,-27.3050272769928,35.41634,0.1,73.54797,1639594704999
Fix,GT,37.4112728,-121.9891895,-26.896034229755404,34.937527,0.1,72.824585,1639594705999
Fix,GT,37.4113664,-121.9888148,-26.412046393632888,34.698677,0.1,72.05615,1639594706999
Fix,GT,37.4114644,-121.9884413,-25.83804570823908,34.94227,0.1,71.224,1639594707999
Fix,GT,37.4115659,-121.9880663,-25.27004415363073,35.151127,0.1,70.80902,1639594708999
Fix,GT,37.4116714,-121.987692,-24.74504606205225,35.14829,0.1,69.92267,1639594709999
Fix,GT,37.4117811,-121.9873198,-24.24204100716114,34.964096,0.1,69.23895,1639594710999
Fix,GT,37.4118924,-121.986953,-23.907009633481504,34.60604,0.1,68.82312,1639594711999
Fix,GT,37.4120061,-121.9865882,-23.56603516435623,34.759266,0.1,68.205414,1639594712999
Fix,GT,37.4121242,-121.9862238,-23.300029122710228,34.871155,0.1,67.32706,1639594713999
Fix,GT,37.4122452,-121.9858603,-23.239006200492383,34.879005,0.1,66.95987,1639594714999
Fix,GT,37.41237,-121.9854977,-23.232996443510054,35.087513,0.1,65.99237,1639594715999
Fix,GT,37.4125008,-121.9851352,-23.357987505555155,35.346325,0.1,64.95657,1639594716999
Fix,GT,37.4126364,-121.9847729,-23.53397222840786,35.528336,0.1,64.52124,1639594717999
Fix,GT,37.4127749,-121.9844095,-23.657985612869265,35.778225,0.1,64.10751,1639594718999
Fix,GT,37.4129164,-121.9840444,-23.810980145573616,36.08778,0.1,63.69641,1639594719999
Fix,GT,37.4130613,-121.9836783,-23.986984601199623,36.263725,0.1,63.146515,1639594720999
Fix,GT,37.4132096,-121.9833139,-24.049995454251768,36.07729,0.1,62.525085,1639594721999
Fix,GT,37.4133589,-121.9829549,-24.273966237962245,35.62233,0.1,62.038788,1639594722999
Fix,GT,37.413509,-121.9826017,-24.493982599318027,35.220295,0.1,61.677704,1639594723999
Fix,GT,37.4136579,-121.9822529,-24.74998437321186,34.882294,0.1,61.623352,1639594724999
Fix,GT,37.413806,-121.9819065,-25.01997140061855,34.702724,0.1,61.720062,1639594725999
Fix,GT,37.4139529,-121.9815613,-25.18399629664421,34.557323,0.1,61.67395,1639594726999
Fix,GT,37.4140999,-121.9812171,-25.11801207929849,34.641617,0.1,61.74539,1639594727999
Fix,GT,37.4142465,-121.9808707,-24.87302890980244,34.801956,0.1,61.97882,1639594728999
Fix,GT,37.4143926,-121.9805233,-24.49703275692463,34.66529,0.1,62.04898,1639594729999
Fix,GT,37.4145378,-121.9801777,-24.144026297330853,34.49902,0.1,62.07248,1639594730999
Fix,GT,37.4146825,-121.9798334,-23.746041473865507,34.47963,0.1,61.87863,1639594731999
Fix,GT,37.4148286,-121.9794891,-23.34001608073711,34.581974,0.1,61.787445,1639594732999
Fix,GT,37.4149753,-121.9791444,-22.96003417348862,34.564556,0.1,61.70984,1639594733999
Fix,GT,37.4151213,-121.9788002,-22.59103905421496,34.463814,0.1,61.99057,1639594734999
Fix,GT,37.4152656,-121.9784555,-22.2010411053896,34.44329,0.1,62.106842,1639594735999
Fix,GT,37.4154105,-121.9781113,-21.82003933036328,34.485775,0.1,61.824158,1639594736999
Fix,GT,37.4155569,-121.9777667,-21.46904042983055,34.651695,0.1,61.680115,1639594737999
Fix,GT,37.4157042,-121.977421,-21.12500869303942,34.74199,0.1,61.917786,1639594738999
Fix,GT,37.4158511,-121.9770738,-20.674080451130862,34.83601,0.1,61.82071,1639594739999
Fix,GT,37.415998,-121.9767259,-20.30902820622921,34.833885,0.1,61.963196,1639594740999
Fix,GT,37.4161448,-121.9763784,-20.029030256807804,34.800335,0.1,61.80835,1639594741999
Fix,GT,37.4162913,-121.9760306,-19.836015669822693,34.829075,0.1,62.06009,1639594742999
Fix,GT,37.4164373,-121.9756821,-19.67801375699043,34.86275,0.1,61.97589,1639594743999
Fix,GT,37.4165846,-121.9753342,-19.558005915880205,34.8386,0.1,61.832428,1639594744999
Fix,GT,37.4167315,-121.974989,-19.55699109560251,34.421745,0.1,61.731903,1639594745999
Fix,GT,37.4168764,-121.9746469,-19.64898014688492,34.21051,0.1,61.921722,1639594746999
Fix,GT,37.4170202,-121.974305,-19.8829790841341,34.30327,0.1,61.917725,1639594747999
Fix,GT,37.4171658,-121.9739621,-20.09197201871872,34.42912,0.1,61.790527,1639594748999
Fix,GT,37.4173108,-121.9736179,-20.42695487719774,34.492855,0.1,62.039856,1639594749999
Fix,GT,37.4174553,-121.9732725,-20.897951711654663,34.55393,0.1,62.03195,1639594750999
Fix,GT,37.417601,-121.972927,-21.35696971964836,34.68907,0.1,61.749725,1639594751999
Fix,GT,37.4177494,-121.9725796,-21.72994936287403,35.049988,0.1,61.49881,1639594752999
Fix,GT,37.4178983,-121.9722299,-22.19095631110668,35.00654,0.1,62.04193,1639594753999
Fix,GT,37.4180431,-121.9718799,-22.728946993350984,34.84848,0.1,62.878967,1639594754999
Fix,GT,37.418179,-121.9715244,-23.260941706299786,35.000546,0.1,65.52988,1639594755999
Fix,GT,37.4183029,-121.9711601,-23.68395998233557,35.070995,0.1,67.778625,1639594756999
Fix,GT,37.4184151,-121.9707895,-23.939991764545443,35.114567,0.1,70.473755,1639594757999
Fix,GT,37.4185123,-121.9704124,-23.8730268535614,35.01928,0.1,73.11694,1639594758999
Fix,GT,37.4185954,-121.9700317,-23.67701864993572,34.85956,0.1,75.85013,1639594759999
Fix,GT,37.4186638,-121.9696484,-23.4970187100172,34.668297,0.1,78.65134,1639594760999
Fix,GT,37.4187154,-121.9692633,-23.312012513399125,34.4925,0.1,81.680725,1639594761999
Fix,GT,37.4187529,-121.9688773,-23.188004184246065,34.347733,0.1,83.8714,1639594762999
Fix,GT,37.4187792,-121.9684905,-23.14300839567185,34.405838,0.1,85.77313,1639594763999
Fix,GT,37.4187981,-121.968102,-23.13502000313997,34.490963,0.1,87.12219,1639594764999
Fix,GT,37.4188105,-121.9677127,-23.204978877305983,34.459126,0.1,87.505585,1639594765999
Fix,GT,37.4188242,-121.9673243,-23.38092054402828,34.43616,0.1,87.06879,1639594766999
Fix,GT,37.4188377,-121.966935,-23.62400318843126,34.504818,0.1,87.42462,1639594767999
Fix,GT,37.4188499,-121.9665471,-23.846960552513604,34.189754,0.1,87.474,1639594768999
Fix,GT,37.418861,-121.966163,-24.26594331407547,33.867695,0.1,87.77472,1639594769999
Fix,GT,37.4188725,-121.9657811,-24.795949577271937,33.89487,0.1,87.33362,1639594770999
Fix,GT,37.4188858,-121.9653964,-25.290940811097624,34.295303,0.1,87.27698,1639594771999
Fix,GT,37.4188995,-121.9650072,-25.8119298325181,34.60627,0.1,87.201935,1639594772999
Fix,GT,37.4189134,-121.9646164,-26.307919865608213,34.643917,0.1,87.21869,1639594773999
Fix,GT,37.4189265,-121.9642252,-26.572979362666608,34.667404,0.1,87.568726,1639594774999
Fix,GT,37.4189388,-121.9638338,-26.837989104866985,34.682045,0.1,87.372925,1639594775999
Fix,GT,37.418953,-121.9634429,-27.015983607232567,34.570698,0.1,86.895355,1639594776999
Fix,GT,37.4189681,-121.9630533,-27.125985748767853,34.52361,0.1,86.99884,1639594777999
Fix,GT,37.4189834,-121.962663,-27.333965914666653,34.68101,0.1,86.94653,1639594778999
Fix,GT,37.4189987,-121.9622704,-27.595969119787217,34.926544,0.1,87.07654,1639594779999
Fix,GT,37.4190134,-121.9618757,-27.826972343444822,34.992783,0.1,87.091034,1639594780999
Fix,GT,37.4190285,-121.9614801,-28.10900110960007,35.123554,0.1,86.87262,1639594781999
Fix,GT,37.4190461,-121.9610833,-28.262977741241457,35.196205,0.1,86.00372,1639594782999
Fix,GT,37.4190687,-121.9606869,-28.37799107027054,35.173653,0.1,85.336914,1639594783999
Fix,GT,37.4190946,-121.9602912,-28.51599328231811,35.11576,0.1,84.7384,1639594784999
Fix,GT,37.4191234,-121.9598963,-28.64498877048492,35.088142,0.1,84.290955,1639594785999
Fix,GT,37.4191549,-121.9595018,-28.79698085206748,35.116364,0.1,83.900696,1639594786999
Fix,GT,37.419187,-121.9591064,-28.794010166645048,35.23995,0.1,84.066315,1639594787999
Fix,GT,37.4192184,-121.9587103,-28.602004531860352,35.206516,0.1,84.08014,1639594788999
Fix,GT,37.4192492,-121.9583147,-28.688989773273462,35.145397,0.1,84.34967,1639594789999
Fix,GT,37.4192781,-121.9579197,-28.715995441198352,35.082485,0.1,84.70123,1639594790999
Fix,GT,37.4193044,-121.9575251,-28.774005715191365,35.029076,0.1,85.698975,1639594791999
Fix,GT,37.4193235,-121.9571308,-28.775008024215698,34.834995,0.1,86.87363,1639594792999
Fix,GT,37.4193352,-121.9567399,-28.813011496543883,34.40634,0.1,88.326996,1639594793999
Fix,GT,37.4193401,-121.9563527,-28.740016142725946,34.192852,0.1,89.44986,1639594794999
Fix,GT,37.4193398,-121.9559674,-28.644012719631192,33.99666,0.1,90.16055,1639594795999
Fix,GT,37.4193387,-121.9555848,-28.51801275634765,33.762062,0.1,89.864685,1639594796999
Fix,GT,37.4193374,-121.9552043,-28.48700465226173,33.590954,0.1,90.18277,1639594797999
Fix,GT,37.4193355,-121.9548259,-28.47199300158024,33.422623,0.1,90.088715,1639594798999
Fix,GT,37.4193342,-121.9544488,-28.463998830258845,33.377174,0.1,89.920654,1639594799999
Fix,GT,37.4193341,-121.954071,-28.484,33.497036,0.1,89.63406,1639594800999
Fix,GT,37.4193349,-121.953692,-28.46000235283375,33.607044,0.1,89.6839,1639594801999
Fix,GT,37.4193353,-121.9533128,-28.45599174171686,33.492325,0.1,89.53049,1639594802999
Fix,GT,37.4193363,-121.9529353,-28.44800828164816,33.359024,0.1,89.69589,1639594803999
Fix,GT,37.4193357,-121.9525586,-28.445003559470177,33.36927,0.1,89.94794,1639594804999
Fix,GT,37.4193354,-121.9521809,-28.506980962753296,33.499,0.1,89.75836,1639594805999
Fix,GT,37.4193359,-121.9518023,-28.5680095448494,33.508064,0.1,89.68335,1639594806999
Fix,GT,37.419336,-121.9514244,-28.53001435804367,33.3892,0.1,89.98639,1639594807999
Fix,GT,37.4193354,-121.9510479,-28.5709964004755,33.25602,0.1,89.84906,1639594808999
Fix,GT,37.4193359,-121.9506727,-28.55400120317936,33.201103,0.1,89.65216,1639594809999
Fix,GT,37.4193366,-121.9502973,-28.542007239460947,33.20314,0.1,89.65823,1639594810999
Fix,GT,37.4193363,-121.9499228,-28.51700241971016,33.123398,0.1,90.166046,1639594811999
Fix,GT,37.4193343,-121.9495478,-28.43701455831528,33.2688,0.1,90.256744,1639594812999
Fix,GT,37.4193323,-121.9491718,-28.3780158149004,33.28031,0.1,90.04678,1639594813999
Fix,GT,37.4193314,-121.9487957,-28.27802927827835,33.31805,0.1,90.03577,1639594814999
