MessageType,Provider,LatitudeDegrees,LongitudeDegrees,AltitudeMeters,SpeedMps,AccuracyMeters,BearingDegrees,UnixTimeMillis
Fix,GT,37.4160299,-122.0809401,-26.594999325057724,0.0,0.1,180.91408,1640722632000
Fix,GT,37.4160299,-122.0809401,-26.594999969039343,0.0,0.1,180.91425,1640722633000
Fix,GT,37.4160299,-122.0809401,-26.594999294097068,0.0022330766,0.1,180.91469,1640722634000
Fix,GT,37.4160299,-122.0809401,-26.59400047677616,0.0019978702,0.1,180.9143,1640722635000
Fix,GT,37.4160299,-122.0809401,-26.594000068110883,0.0030005896,0.1,180.91441,1640722636000
Fix,GT,37.4160299,-122.0809401,-26.594000712068286,0.0031589172,0.1,180.91483,1640722637000
Fix,GT,37.4160299,-122.0809401,-26.59400366790337,0.0028296371,0.1,180.91455,1640722638000
Fix,GT,37.4160299,-122.0809401,-26.59499936840264,0.0022330922,0.1,180.91408,1640722639000
Fix,GT,37.4160298,-122.0809401,-26.595000544907524,0.006314721,0.1,180.9139,1640722640000
Fix,GT,37.4160298,-122.0809401,-26.594999876157377,0.0058260425,0.1,180.9146,1640722641000
Fix,GT,37.4160298,-122.0809401,-26.59499946747673,0.008060646,0.1,180.91444,1640722642000
Fix,GT,37.4160298,-122.0809401,-26.595000377719987,0.0072141713,0.1,180.91443,1640722643000
Fix,GT,37.4160298,-122.0809401,-26.594999969039343,0.008946035,0.1,180.91464,1640722644000
Fix,GT,37.4160298,-122.0809401,-26.5949993002892,0.01029563,0.1,180.91484,1640722645000
Fix,GT,37.4160298,-122.0809401,-26.595000476794084,0.011665024,0.1,180.91505,1640722646000
Fix,GT,37.4160298,-122.0809401,-26.593999801859265,0.015804498,0.1,180.91531,1640722647000
Fix,GT,37.4160298,-122.0809401,-26.59400298559596,0.020514332,0.1,180.91795,1640722648000
Fix,GT,37.416029,-122.08094,-26.599996993596434,0.3574125,0.1,180.91354,1640722649000
Fix,GT,37.416023,-122.0809392,-26.592996588625017,0.97825146,0.1,179.23419,1640722650000
Fix,GT,37.4160112,-122.0809345,-26.574988774684257,1.6328113,0.099,171.0451,1640722651000
Fix,GT,37.4159937,-122.0809247,-26.5680075500058,2.4249058,0.1,161.28699,1640722652000
Fix,GT,37.415972,-122.0809141,-26.602046371519567,2.6080477,0.1,159.94629,1640722653000
Fix,GT,37.4159497,-122.080905,-26.650974914741703,2.616002,0.1,161.8678,1640722654000
Fix,GT,37.4159274,-122.0808955,-26.44698877995461,2.500974,0.1,161.73962,1640722655000
Fix,GT,37.4159053,-122.0808851,-26.47898969709221,2.8607156,0.1,159.78748,1640722656000
Fix,GT,37.4158797,-122.0808632,-26.46895680646109,3.743454,0.1,146.35995,1640722657000
Fix,GT,37.4158588,-122.0808223,-26.435982863850427,4.40291,0.1,122.03259,1640722658000
Fix,GT,37.4158478,-122.0807721,-26.407982740894195,4.439894,0.1,104.43671,1640722659000
Fix,GT,37.4158433,-122.080722,-26.40398157332605,4.3317933,0.1,95.88049,1640722660000
Fix,GT,37.4158411,-122.0806759,-26.38098171585425,3.6307404,0.1,93.05652,1640722661000
Fix,GT,37.4158396,-122.080642,-26.3439679915614,2.3758547,0.1,92.68512,1640722662000
Fix,GT,37.4158386,-122.0806214,-26.29197873519687,1.2713108,0.1,92.61047,1640722663000
Fix,GT,37.4158381,-122.08061,-26.258975098715165,1.0747911,0.1,92.41696,1640722664000
Fix,GT,37.4158388,-122.0805932,-26.22697824395565,1.8918675,0.1,88.463135,1640722665000
Fix,GT,37.4158462,-122.0805672,-26.17096132699028,2.770344,0.1,74.15436,1640722666000
Fix,GT,37.4158639,-122.0805359,-26.08595420211833,3.8080325,0.1,55.64734,1640722667000
Fix,GT,37.4158964,-122.0805057,-26.03101026863465,4.867352,0.1,34.109406,1640722668000
Fix,GT,37.4159392,-122.0804882,-26.029006357322448,4.738076,0.1,15.932556,1640722669000
Fix,GT,37.4159765,-122.0804812,-25.975978455115108,3.5514293,0.1,7.2030334,1640722670000
Fix,GT,37.4160048,-122.080478,-25.9449231456942,3.0484962,0.1,4.2549133,1640722671000
Fix,GT,37.4160316,-122.0804754,-25.92604216350149,3.1038635,0.1,3.0189514,1640722672000
Fix,GT,37.4160643,-122.0804724,-25.899024525280577,4.2432256,0.1,2.9249573,1640722673000
Fix,GT,37.4161079,-122.0804689,-25.886989756342025,5.4764314,0.1,2.7337952,1640722674000
Fix,GT,37.4161623,-122.0804655,-25.91499014810659,6.217572,0.1,2.3608704,1640722675000
Fix,GT,37.4162181,-122.0804624,-25.924996979486195,6.0941997,0.1,1.8035889,1640722676000
Fix,GT,37.4162723,-122.0804607,-25.869996843796457,5.9290147,0.1,0.59017944,1640722677000
Fix,GT,37.4163247,-122.0804601,-25.8870073832518,5.4598184,0.1,0.008422852,1640722678000
Fix,GT,37.4163695,-122.0804599,-25.930014432748315,4.3716497,0.1,359.75024,1640722679000
Fix,GT,37.4164036,-122.0804598,-25.982024937702807,3.0725138,0.1,359.6536,1640722680000
Fix,GT,37.4164256,-122.0804597,-26.17108333680406,1.9177271,0.1,359.58432,1640722681000
Fix,GT,37.4164391,-122.0804596,-26.324058647626547,1.0430014,0.1,359.551,1640722682000
Fix,GT,37.4164451,-122.0804595,-26.44305206530215,0.40990898,0.1,359.55124,1640722683000
Fix,GT,37.4164479,-122.0804595,-26.542045501166022,0.2500008,0.1,359.5548,1640722684000
Fix,GT,37.4164506,-122.0804595,-26.63604770836048,0.4432537,0.1,359.55276,1640722685000
Fix,GT,37.4164556,-122.0804597,-26.734051218733192,0.64255315,0.1,359.6271,1640722686000
Fix,GT,37.416463,-122.0804594,-26.830037804493447,0.9251945,0.1,0.6779785,1640722687000
Fix,GT,37.4164726,-122.0804582,-26.92105532525806,1.3051993,0.1,2.976532,1640722688000
Fix,GT,37.4164867,-122.0804531,-27.02004510235833,1.9520648,0.1,11.501495,1640722689000
Fix,GT,37.416504,-122.0804373,-27.115000372478967,2.8018143,0.1,29.934052,1640722690000
Fix,GT,37.4165205,-122.0804064,-27.15100419966504,3.9478776,0.1,53.42227,1640722691000
Fix,GT,37.4165308,-122.0803552,-27.190992448008384,5.5995955,0.099,76.656006,1640722692000
Fix,GT,37.4165316,-122.0802825,-27.20699941088003,7.4095597,0.099,90.169556,1640722693000
Fix,GT,37.4165277,-122.080191,-27.203002675961702,8.716821,0.099,92.93707,1640722694000
Fix,GT,37.4165224,-122.0800869,-27.16096873116493,9.7022295,0.099,93.40155,1640722695000
Fix,GT,37.4165158,-122.0799728,-27.114982504947108,10.541561,0.099,93.95038,1640722696000
Fix,GT,37.4165075,-122.0798499,-27.058969601964115,11.26418,0.1,94.57562,1640722697000
Fix,GT,37.4164982,-122.07972,-27.026993800594937,11.775727,0.1,94.96289,1640722698000
Fix,GT,37.4164885,-122.0795861,-26.97099598665209,11.963485,0.1,94.729065,1640722699000
Fix,GT,37.4164794,-122.0794526,-26.969992998220025,11.735491,0.1,94.70398,1640722700000
Fix,GT,37.4164705,-122.0793219,-26.97602385800262,11.550105,0.1,94.543,1640722701000
Fix,GT,37.4164617,-122.0791913,-26.99999246622948,11.567837,0.1,94.61575,1640722702000
Fix,GT,37.4164529,-122.0790623,-27.019006375488825,11.320058,0.1,94.723755,1640722703000
Fix,GT,37.4164443,-122.0789367,-27.043993273550186,11.003722,0.1,94.72366,1640722704000
Fix,GT,37.416436,-122.0788146,-27.06498667579703,10.699113,0.1,94.99072,1640722705000
Fix,GT,37.4164269,-122.0786976,-27.102005935058,10.0167465,0.1,95.584076,1640722706000
Fix,GT,37.4164178,-122.0785904,-27.083006596445102,9.041718,0.1,96.00568,1640722707000
Fix,GT,37.4164095,-122.0784945,-27.11100698638777,8.008014,0.1,96.41693,1640722708000
Fix,GT,37.4164013,-122.0784113,-27.109960424915887,6.792363,0.1,97.11078,1640722709000
Fix,GT,37.416394,-122.0783435,-27.06697265268373,5.3003774,0.1,97.54175,1640722710000
Fix,GT,37.4163883,-122.0782936,-27.0970266172234,3.6352677,0.1,98.32507,1640722711000
Fix,GT,37.4163838,-122.0782631,-27.14199690418015,1.9378384,0.1,100.86719,1640722712000
Fix,GT,37.4163814,-122.0782501,-27.13000732126273,0.500838,0.1,102.49936,1640722713000
Fix,GT,37.4163813,-122.0782485,-27.12799636213109,0.071435966,0.099,102.74127,1640722714000
Fix,GT,37.4163818,-122.0782492,-27.116997041606343,0.0873234,0.1,102.74066,1640722715000
Fix,GT,37.4163821,-122.0782491,-27.112000770125537,0.28545803,0.1,102.875244,1640722716000
Fix,GT,37.4163794,-122.0782398,-27.09098680133396,1.4836406,0.1,106.45532,1640722717000
Fix,GT,37.4163689,-122.0782221,-27.07900408241339,2.568313,0.1,120.445984,1640722718000
Fix,GT,37.4163437,-122.0782045,-27.02700590777793,3.971776,0.1,147.16669,1640722719000
Fix,GT,37.4163007,-122.0781976,-26.98195026451,5.9072795,0.1,172.17444,1640722720000
Fix,GT,37.416239,-122.0781967,-26.90899068330833,7.8135996,0.1,178.97534,1640722721000
Fix,GT,37.4161634,-122.078199,-26.87299002435152,8.834172,0.1,181.65964,1640722722000
Fix,GT,37.4160838,-122.0782042,-26.82596429333836,8.751187,0.1,182.79037,1640722723000
Fix,GT,37.4160064,-122.0782103,-26.76599636669503,8.48591,0.1,183.18005,1640722724000
Fix,GT,37.4159312,-122.0782167,-26.72597397965752,8.2546,0.1,183.327,1640722725000
Fix,GT,37.4158581,-122.0782218,-26.70096978795342,7.938253,0.1,182.52663,1640722726000
Fix,GT,37.4157911,-122.0782242,-26.641983628777087,6.7704296,0.1,180.7372,1640722727000
Fix,GT,37.4157379,-122.078225,-26.624002674139568,4.9113493,0.1,180.48001,1640722728000
Fix,GT,37.415704,-122.0782254,-26.595986405715347,2.6456802,0.1,180.17076,1640722729000
Fix,GT,37.4156889,-122.0782256,-26.602003181113627,0.7817483,0.1,180.15053,1640722730000
Fix,GT,37.4156871,-122.0782258,-26.62000056401361,0.01753381,0.1,180.1685,1640722731000
Fix,GT,37.4156874,-122.078226,-26.628002900650955,0.026416862,0.1,180.16788,1640722732000
Fix,GT,37.4156875,-122.078226,-26.63400382076902,0.02282391,0.1,180.16698,1640722733000
Fix,GT,37.4156876,-122.0782261,-26.693156052862296,0.018788295,0.1,180.16733,1640722734000
Fix,GT,37.4156885,-122.0782268,-26.94900055843522,0.016155494,0.1,180.1676,1640722735000
Fix,GT,37.4156885,-122.0782268,-26.94899961725227,0.013601471,0.099,180.16797,1640722736000
Fix,GT,37.4156885,-122.0782268,-26.94900055216067,0.011401754,0.1,180.16817,1640722737000
Fix,GT,37.4156885,-122.0782268,-26.948999880783497,0.010439521,0.1,180.16858,1640722738000
Fix,GT,37.4156885,-122.0782268,-26.948999209406324,0.009055385,0.1,180.16893,1640722739000
Fix,GT,37.4156885,-122.0782268,-26.9490004141205,0.0070000007,0.1,180.16922,1640722740000
Fix,GT,37.4156885,-122.0782268,-26.94900001254911,0.006,0.1,180.16942,1640722741000
Fix,GT,37.4156885,-122.0782268,-26.948999341171938,0.0050990195,0.099,180.16977,1640722742000
Fix,GT,37.4156885,-122.0782268,-26.949000545886115,0.0050999424,0.1,180.17021,1640722743000
Fix,GT,37.4156885,-122.0782268,-26.948999604703165,0.004472136,0.099,180.17061,1640722744000
Fix,GT,37.4156885,-122.0782268,-26.94899920313177,0.005,0.1,180.1709,1640722745000
Fix,GT,37.4156885,-122.0782268,-26.94900040784595,0.004242641,0.1,180.17117,1640722746000
Fix,GT,37.4156885,-122.0782268,-26.94900000627456,0.0042426405,0.1,180.17155,1640722747000
Fix,GT,37.4156885,-122.0782268,-26.948999874508942,0.0036055513,0.1,180.1718,1640722748000
Fix,GT,37.4156885,-122.0782268,-26.94899947293755,0.0036055513,0.099,180.17226,1640722749000
Fix,GT,37.4156885,-122.0782268,-26.949,0.0036055513,0.1,-179.82738,1640722750000
Fix,GT,37.4156885,-122.0782268,-26.94900000627456,0.0031622776,0.1,180.17299,1640722751000
Fix,GT,37.4156885,-122.0782268,-26.948999334897383,0.003163692,0.1,180.17331,1640722752000
Fix,GT,37.4156885,-122.0782268,-26.94899920313177,0.0031622774,0.1,180.17365,1640722753000
Fix,GT,37.4156885,-122.0782268,-26.94899986823439,0.0031622776,0.1,180.17403,1640722754000
Fix,GT,37.4156885,-122.0782268,-26.948999466663,0.003605551,0.1,180.17432,1640722755000
Fix,GT,37.4156885,-122.0782268,-26.948999334897383,0.0028284271,0.099,180.17477,1640722756000
Fix,GT,37.4156885,-122.0782268,-26.94899947293755,0.002236068,0.1,180.17513,1640722757000
Fix,GT,37.4156885,-122.0782268,-26.94899961097771,0.0028265503,0.1,180.17532,1640722758000
Fix,GT,37.4156885,-122.0782268,-26.94899947921209,0.002236068,0.1,180.1757,1640722759000
Fix,GT,37.4156885,-122.0782268,-26.948999347446485,0.002236068,0.099,180.176,1640722760000
Fix,GT,37.4156885,-122.0782268,-26.948999215680875,0.002236068,0.1,180.17642,1640722761000
Fix,GT,37.4156885,-122.0782268,-26.94900068392628,0.0022360682,0.1,180.17688,1640722762000
Fix,GT,37.4156885,-122.0782268,-26.949002365220803,0.0022334794,0.1,180.17728,1640722763000
Fix,GT,37.4156886,-122.0782268,-26.988003836979622,0.0014129105,0.1,180.17749,1640722764000
Fix,GT,37.4156886,-122.0782268,-26.99100055930554,0.0014142136,0.1,180.17787,1640722765000
Fix,GT,37.4156886,-122.0782268,-26.991000697560843,0.0014142137,0.1,180.1783,1640722766000
Fix,GT,37.4156886,-122.0782268,-26.99100056558987,0.002236068,0.1,180.17863,1640722767000
Fix,GT,37.4156886,-122.0782268,-26.991000433618904,0.0014142136,0.1,180.17911,1640722768000
Fix,GT,37.4156886,-122.0782268,-26.99100030164793,0.0014142136,0.1,180.17941,1640722769000
Fix,GT,37.4156886,-122.0782268,-26.99099989945069,0.0010012938,0.1,180.18004,1640722770000
Fix,GT,37.4156886,-122.0782268,-26.991,0.001,0.1,-179.81967,1640722771000
Fix,GT,37.4156886,-122.0782268,-26.99099963550875,0.001,0.1,180.18065,1640722772000
Fix,GT,37.4156886,-122.0782268,-26.99099976747972,0.0009999999,0.1,180.18108,1640722773000
Fix,GT,37.4156886,-122.0782268,-26.991,0.001,0.1,-179.81836,1640722774000
Fix,GT,37.4156886,-122.0782268,-26.9910003142166,0.0014142136,0.1,180.18199,1640722775000
Fix,GT,37.4156886,-122.0782268,-26.99100045247189,0.0014142136,0.1,180.18217,1640722776000
Fix,GT,37.4156886,-122.0782268,-26.9910005907272,0.0014142136,0.1,180.18275,1640722777000
Fix,GT,37.4156886,-122.0782268,-26.990999390419805,0.0014142134,0.099,180.18309,1640722778000
Fix,GT,37.4156886,-122.0782268,-26.990999798901377,0.0014167527,0.099,180.18352,1640722779000
Fix,GT,37.4156886,-122.0782268,-26.99099993087235,0.0014142136,0.1,180.18399,1640722780000
Fix,GT,37.4156886,-122.0782268,-26.99100033935392,0.0014142136,0.1,180.1845,1640722781000
Fix,GT,37.4156886,-122.0782268,-26.991000747835496,0.0014142137,0.1,180.185,1640722782000
Fix,GT,37.4156886,-122.0782268,-26.99099981775437,0.002236068,0.1,180.18535,1640722783000
Fix,GT,37.4156886,-122.0782268,-26.991000226235947,0.002,0.1,180.18597,1640722784000
Fix,GT,37.4156886,-122.0782268,-26.99099928987049,0.002,0.099,180.18634,1640722785000
Fix,GT,37.4156886,-122.0782268,-26.99099996857834,0.003,0.1,180.18675,1640722786000
Fix,GT,37.4156886,-122.0782268,-26.991000647286185,0.004123106,0.1,180.18713,1640722787000
Fix,GT,37.4156886,-122.0782268,-26.990999717205064,0.004472136,0.1,180.18773,1640722788000
Fix,GT,37.4156886,-122.0782268,-26.99100039591291,0.0053865253,0.1,180.18842,1640722789000
Fix,GT,37.4156886,-122.0782268,-26.990999459547456,0.0072111026,0.1,180.18886,1640722790000
Fix,GT,37.4156881,-122.0782268,-26.99599431919725,0.29825267,0.1,180.19003,1640722791000
Fix,GT,37.4156774,-122.0782268,-27.00398758466542,2.4697976,0.099,180.26965,1640722792000
Fix,GT,37.4156445,-122.078227,-26.96800372792734,4.889926,0.1,180.34476,1640722793000
Fix,GT,37.4155887,-122.0782277,-26.93798459411459,7.475213,0.1,180.56055,1640722794000
Fix,GT,37.4155088,-122.0782292,-26.901038761062544,10.143441,0.1,180.7132,1640722795000
Fix,GT,37.415407,-122.0782307,-26.885997293174032,12.390003,0.1,180.41537,1640722796000
Fix,GT,37.4152884,-122.0782315,-26.751930410747416,13.959791,0.1,180.21855,1640722797000
Fix,GT,37.4151569,-122.0782327,-26.62292709345976,15.007458,0.1,180.38235,1640722798000
Fix,GT,37.4150223,-122.0782341,-26.45693414563849,14.804168,0.1,180.28654,1640722799000
Fix,GT,37.4148904,-122.0782335,-26.26594339780416,14.442294,0.1,179.69318,1640722800000
Fix,GT,37.4147614,-122.0782331,-26.086954856680705,14.152879,0.1,179.71802,1640722801000
Fix,GT,37.4146357,-122.0782323,-25.89899058452435,13.742846,0.1,179.66437,1640722802000
Fix,GT,37.4145143,-122.0782319,-25.716933733682147,13.208844,0.1,179.74731,1640722803000
Fix,GT,37.4143977,-122.0782317,-25.52991846657777,12.629835,0.1,179.71045,1640722804000
Fix,GT,37.4142887,-122.0782309,-25.362946650883185,11.442769,0.1,179.54468,1640722805000
Fix,GT,37.4141931,-122.0782302,-25.224970256829405,9.78255,0.1,179.79944,1640722806000
Fix,GT,37.4141125,-122.0782303,-25.10895176782832,8.075489,0.1,179.95673,1640722807000
Fix,GT,37.4140483,-122.0782303,-24.98695470034238,6.0673213,0.1,179.95514,1640722808000
Fix,GT,37.4140049,-122.0782302,-24.873975985683035,3.5572572,0.1,180.1154,1640722809000
Fix,GT,37.413983,-122.0782303,-24.82698185421433,1.51157,0.099,180.13371,1640722810000
Fix,GT,37.4139754,-122.0782302,-24.80199933591345,0.28481597,0.1,180.111,1640722811000
Fix,GT,37.413975,-122.0782302,-24.802000704509204,0.009050119,0.1,180.09933,1640722812000
Fix,GT,37.4139751,-122.0782302,-24.79800059469463,0.0070059267,0.1,180.10107,1640722813000
Fix,GT,37.4139752,-122.0782302,-24.795999497725628,0.0059973337,0.1,180.09981,1640722814000
Fix,GT,37.4139752,-122.0782302,-24.797999636254737,0.005,0.1,180.10045,1640722815000
Fix,GT,37.4139752,-122.0782302,-24.800999769022688,0.004,0.1,180.10085,1640722816000
Fix,GT,37.4139752,-122.0782302,-24.800999659308467,0.0031617992,0.099,180.10127,1640722817000
Fix,GT,37.4139752,-122.0782302,-24.80099979212041,0.003158855,0.1,180.10126,1640722818000
Fix,GT,37.4139752,-122.0782302,-24.800999930706805,0.002236068,0.1,180.10167,1640722819000
Fix,GT,37.4139752,-122.0782302,-24.801000317593804,0.002233654,0.1,180.10187,1640722820000
Fix,GT,37.4139752,-122.0782302,-24.80100045040576,0.0022378059,0.1,180.10193,1640722821000
Fix,GT,37.4139752,-122.0782301,-24.80099985563918,0.0022360678,0.1,180.10219,1640722822000
Fix,GT,37.4139752,-122.0782301,-24.80099974015052,0.0028266937,0.1,180.10248,1640722823000
Fix,GT,37.4139752,-122.0782301,-24.80100012703752,0.0028284271,0.1,180.1026,1640722824000
Fix,GT,37.4139752,-122.0782301,-24.80100050815008,0.0014166125,0.1,180.10263,1640722825000
Fix,GT,37.4139752,-122.0782301,-24.799999665096404,0.002236068,0.1,180.10281,1640722826000
Fix,GT,37.4139752,-122.0782301,-24.80100054279668,0.0031622776,0.1,180.10313,1640722827000
Fix,GT,37.4139753,-122.0782302,-24.80399969969317,0.0030029078,0.1,180.10316,1640722828000
Fix,GT,37.4139753,-122.0782302,-24.80400057751313,0.004123106,0.1,180.1034,1640722829000
Fix,GT,37.4139753,-122.0782303,-24.80399997689948,0.004472136,0.1,180.10359,1640722830000
Fix,GT,37.4139753,-122.0782303,-24.80400036383327,0.0058296607,0.1,180.10374,1640722831000
Fix,GT,37.4139753,-122.0782303,-24.80299951490853,0.0076260855,0.1,180.10355,1640722832000
Fix,GT,37.4139744,-122.0782302,-24.806999901810894,0.42034587,0.1,180.09625,1640722833000
Fix,GT,37.4139632,-122.0782302,-24.79198849712592,2.147529,0.1,179.98224,1640722834000
Fix,GT,37.4139354,-122.0782301,-24.73899177405984,4.0485435,0.1,179.94647,1640722835000
Fix,GT,37.4138909,-122.0782299,-24.64600631351955,6.014069,0.1,179.92993,1640722836000
Fix,GT,37.4138254,-122.0782297,-24.54895371773233,8.442681,0.1,179.82959,1640722837000
Fix,GT,37.4137395,-122.0782298,-24.444896737152945,10.486424,0.1,179.89124,1640722838000
Fix,GT,37.4136388,-122.0782299,-24.163926155711525,11.938475,0.1,179.97168,1640722839000
Fix,GT,37.4135241,-122.0782301,-23.80688270738069,13.491457,0.1,180.13158,1640722840000
Fix,GT,37.4133963,-122.0782308,-23.24178482147958,14.824384,0.1,180.10349,1640722841000
Fix,GT,37.4132579,-122.078231,-22.38873735348788,15.764214,0.1,179.99951,1640722842000
Fix,GT,37.4131145,-122.0782314,-21.41072575923032,16.028013,0.1,180.04724,1640722843000
Fix,GT,37.4129703,-122.078231,-20.31170385336131,15.935028,0.1,179.83301,1640722844000
Fix,GT,37.4128272,-122.0782307,-19.18666392864636,15.856055,0.1,179.82678,1640722845000
Fix,GT,37.4126844,-122.0782305,-18.10663357901945,15.828984,0.1,179.96185,1640722846000
Fix,GT,37.4125415,-122.0782308,-17.042744488927536,15.936079,0.1,180.20949,1640722847000
Fix,GT,37.4123973,-122.0782317,-16.13079277873924,16.073496,0.1,180.46129,1640722848000
Fix,GT,37.412252,-122.078234,-15.41280508183688,16.054403,0.1,180.8871,1640722849000
Fix,GT,37.4121097,-122.0782374,-14.873878618265037,15.50908,0.1,181.16953,1640722850000
Fix,GT,37.4119708,-122.0782403,-14.48092388579808,15.53909,0.1,180.96802,1640722851000
Fix,GT,37.411831,-122.0782427,-14.283971717956945,15.364017,0.1,180.78773,1640722852000
Fix,GT,37.4116941,-122.0782443,-14.243011689394711,15.027273,0.1,180.53894,1640722853000
Fix,GT,37.4115601,-122.0782456,-14.384070538884728,14.6964,0.1,180.63388,1640722854000
Fix,GT,37.4114307,-122.0782471,-14.67614032299258,13.894061,0.1,180.84215,1640722855000
Fix,GT,37.4113127,-122.0782534,-15.020109066310573,12.354475,0.099,184.41887,1640722856000
Fix,GT,37.4112082,-122.0782746,-15.459181692023762,11.330229,0.1,193.23244,1640722857000
Fix,GT,37.4111158,-122.0783176,-16.088156828664243,10.865832,0.1,205.42928,1640722858000
Fix,GT,37.4110366,-122.0783866,-16.90726571029937,10.830067,0.1,219.75409,1640722859000
Fix,GT,37.4109752,-122.0784796,-17.751265123809688,10.82817,0.1,236.62723,1640722860000
Fix,GT,37.4109409,-122.0785936,-18.83326711201179,11.124239,0.1,256.4061,1640722861000
Fix,GT,37.4109413,-122.0787189,-19.89533345557168,11.429865,0.099,277.1527,1640722862000
Fix,GT,37.4109737,-122.0788414,-20.84221162903495,11.689531,0.1,293.61417,1640722863000
Fix,GT,37.411032,-122.0789505,-21.51116963760089,11.7793255,0.1,308.96353,1640722864000
Fix,GT,37.4111111,-122.0790399,-22.02811665360024,12.146488,0.1,322.51318,1640722865000
Fix,GT,37.4112083,-122.0791044,-22.332049298543485,12.351406,0.1,337.05106,1640722866000
Fix,GT,37.411315,-122.0791381,-22.609110192934285,12.242312,0.099,350.65033,1640722867000
Fix,GT,37.4114233,-122.0791347,-22.92808003301872,12.066513,0.1,7.735901,1640722868000
Fix,GT,37.4115231,-122.0790891,-23.24002167942002,11.823023,0.1,26.705994,1640722869000
Fix,GT,37.4116047,-122.0790079,-23.26704083251161,11.6846,0.099,43.838745,1640722870000
Fix,GT,37.4116664,-122.0789006,-23.445013409501406,11.921148,0.1,58.767883,1640722871000
Fix,GT,37.4117045,-122.0787768,-23.44097232210403,11.837486,0.1,73.92923,1640722872000
Fix,GT,37.4117149,-122.0786442,-23.338975238577927,12.033004,0.1,89.45743,1640722873000
Fix,GT,37.4116973,-122.0785089,-23.25696444771066,12.491726,0.1,103.92755,1640722874000
Fix,GT,37.4116544,-122.0783737,-23.11897581047705,13.515475,0.1,114.199615,1640722875000
Fix,GT,37.4115987,-122.0782302,-23.07398144168733,14.750404,0.1,115.795166,1640722876000
Fix,GT,37.4115345,-122.0780763,-23.02396658299397,16.042141,0.099,117.767334,1640722877000
Fix,GT,37.4114617,-122.0779117,-22.939964037247936,17.292067,0.1,119.41269,1640722878000
Fix,GT,37.4113783,-122.077739,-22.851966946471485,18.447433,0.1,121.86847,1640722879000
Fix,GT,37.4112855,-122.0775601,-22.65298637820408,19.352524,0.1,122.71976,1640722880000
Fix,GT,37.4111907,-122.0773716,-22.522921382038387,20.053074,0.1,121.26459,1640722881000
Fix,GT,37.4110965,-122.077174,-22.339929748846217,20.645813,0.1,120.11505,1640722882000
Fix,GT,37.4110025,-122.0769689,-22.14699246123433,21.197916,0.1,119.183136,1640722883000
Fix,GT,37.4109083,-122.0767568,-21.975978207945825,21.744793,0.1,118.51044,1640722884000
Fix,GT,37.4108146,-122.0765375,-21.810946402583504,22.26071,0.1,117.43237,1640722885000
Fix,GT,37.4107214,-122.0763122,-21.375843284961768,22.640375,0.1,116.89508,1640722886000
Fix,GT,37.4106275,-122.0760833,-20.737749588566366,22.904684,0.1,116.951996,1640722887000
Fix,GT,37.4105332,-122.075852,-19.808755818585865,23.07623,0.1,116.64557,1640722888000
Fix,GT,37.4104394,-122.0756189,-18.78872594542033,23.168411,0.1,116.44623,1640722889000
Fix,GT,37.4103451,-122.0753851,-17.616697276830674,23.180414,0.1,116.77472,1640722890000
Fix,GT,37.4102492,-122.0751526,-16.44371033550799,23.19397,0.099,117.21759,1640722891000
Fix,GT,37.4101527,-122.074921,-15.4237566185405,22.94228,0.1,117.66095,1640722892000
Fix,GT,37.4100551,-122.0746963,-14.495780640592333,22.39577,0.1,118.88257,1640722893000
Fix,GT,37.4099565,-122.0744788,-13.660775977221553,21.900938,0.1,119.81253,1640722894000
Fix,GT,37.4098593,-122.0742664,-12.927810600172496,21.44837,0.099,119.38962,1640722895000
Fix,GT,37.4097689,-122.0740549,-12.329808527315969,21.070213,0.1,116.93002,1640722896000
Fix,GT,37.4096876,-122.0738394,-11.833912111114712,21.142395,0.1,113.862854,1640722897000
Fix,GT,37.4096163,-122.0736164,-11.50798958619684,21.389828,0.1,110.354675,1640722898000
Fix,GT,37.4095535,-122.073386,-11.321968133149667,21.681374,0.099,107.4353,1640722899000
Fix,GT,37.4094967,-122.0731499,-11.269973872425034,21.958809,0.1,106.1087,1640722900000
Fix,GT,37.4094401,-122.0729132,-11.344023732348813,21.755243,0.1,107.138245,1640722901000
Fix,GT,37.4093768,-122.0726826,-11.524047173004597,21.479511,0.1,110.22589,1640722902000
Fix,GT,37.4093019,-122.0724586,-11.753071120372972,21.619715,0.099,114.61688,1640722903000
Fix,GT,37.4092139,-122.0722387,-12.063097050041891,21.988474,0.099,117.759766,1640722904000
Fix,GT,37.4091182,-122.0720187,-12.46713939821534,22.444822,0.1,118.91495,1640722905000
Fix,GT,37.4090184,-122.0717946,-13.098173017269932,23.012304,0.1,119.03662,1640722906000
Fix,GT,37.4089167,-122.0715654,-13.858207333918427,23.365704,0.1,119.024994,1640722907000
Fix,GT,37.4088144,-122.0713344,-14.66219639863912,23.385687,0.1,118.83276,1640722908000
Fix,GT,37.4087131,-122.0711032,-15.476211604136276,23.310162,0.1,118.772125,1640722909000
Fix,GT,37.4086128,-122.0708724,-16.319237182955256,23.215492,0.1,118.32608,1640722910000
Fix,GT,37.4085142,-122.0706416,-17.12619297990948,23.161911,0.1,117.88663,1640722911000
Fix,GT,37.4084203,-122.0704066,-17.765119422713294,23.393663,0.1,114.8786,1640722912000
Fix,GT,37.4083389,-122.0701606,-18.305153875517657,23.730423,0.1,110.70526,1640722913000
Fix,GT,37.408268,-122.0699054,-18.7451298718818,24.10622,0.1,108.10843,1640722914000
Fix,GT,37.4082018,-122.0696435,-19.130989472285844,24.51607,0.1,107.324066,1640722915000
Fix,GT,37.4081353,-122.0693773,-19.15796409932338,24.873032,0.1,107.26776,1640722916000
Fix,GT,37.408068,-122.0691075,-19.069969055362044,25.159918,0.1,107.23352,1640722917000
Fix,GT,37.4080002,-122.0688355,-18.904935473501684,25.246235,0.1,107.31964,1640722918000
Fix,GT,37.4079323,-122.0685635,-18.88599477468431,25.24487,0.1,107.259674,1640722919000
Fix,GT,37.4078666,-122.06829,-18.90198680047808,25.318682,0.099,105.91489,1640722920000
Fix,GT,37.4078077,-122.0680133,-18.911010818372947,25.30372,0.1,104.2547,1640722921000
Fix,GT,37.4077535,-122.0677372,-18.982026135675607,25.071548,0.1,103.332306,1640722922000
Fix,GT,37.4077004,-122.0674612,-19.103015592273326,25.221241,0.1,103.89935,1640722923000
Fix,GT,37.4076444,-122.067184,-19.235043655663727,25.452118,0.1,104.47781,1640722924000
Fix,GT,37.4075853,-122.0669048,-19.43100007238612,25.662764,0.1,104.94513,1640722925000
Fix,GT,37.4075247,-122.0666244,-19.40697958087921,25.774305,0.1,105.17236,1640722926000
Fix,GT,37.4074631,-122.0663433,-19.38002267297753,25.843403,0.1,105.33426,1640722927000
Fix,GT,37.4074015,-122.0660614,-19.358992026287133,25.916811,0.1,105.11746,1640722928000
Fix,GT,37.4073397,-122.0657788,-19.292918451581148,25.963558,0.1,105.213806,1640722929000
Fix,GT,37.4072783,-122.0654956,-19.14597198750568,26.031643,0.1,105.08432,1640722930000
Fix,GT,37.4072172,-122.0652112,-19.10794661088777,26.102993,0.1,105.02933,1640722931000
Fix,GT,37.4071555,-122.0649264,-19.068979708160736,26.147064,0.1,105.184296,1640722932000
Fix,GT,37.407093,-122.0646409,-19.060951864960604,26.29204,0.099,105.285645,1640722933000
Fix,GT,37.4070296,-122.0643537,-19.03495438599726,26.453836,0.1,105.445404,1640722934000
Fix,GT,37.4069662,-122.0640647,-18.989997223365584,26.625597,0.1,105.239746,1640722935000
Fix,GT,37.4069031,-122.0637744,-18.98898476322158,26.623907,0.1,105.12344,1640722936000
Fix,GT,37.4068404,-122.0634843,-18.98303497482953,26.600601,0.1,105.005005,1640722937000
Fix,GT,37.406778,-122.0631939,-19.02301496823784,26.657774,0.1,105.03851,1640722938000
Fix,GT,37.4067154,-122.0629028,-19.073025090086507,26.734842,0.1,104.98834,1640722939000
Fix,GT,37.4066523,-122.0626109,-19.09202035655454,26.801579,0.1,105.2428,1640722940000
Fix,GT,37.4065884,-122.0623187,-19.09400257877214,26.857428,0.1,105.2789,1640722941000
Fix,GT,37.4065246,-122.0620258,-19.132002691178585,26.911898,0.1,105.10211,1640722942000
Fix,GT,37.4064606,-122.0617323,-19.1380179493134,26.966053,0.1,105.30548,1640722943000
Fix,GT,37.4063958,-122.0614383,-19.17300197468279,27.027882,0.099,105.3595,1640722944000
Fix,GT,37.4063308,-122.0611438,-19.171000557949533,27.077923,0.1,105.45911,1640722945000
Fix,GT,37.4062654,-122.0608488,-19.15200717072026,27.144318,0.1,105.336,1640722946000
Fix,GT,37.406201,-122.0605528,-19.12598993923422,27.191513,0.1,105.02847,1640722947000
Fix,GT,37.4061373,-122.0602557,-19.068987409207967,27.259262,0.1,104.86627,1640722948000
Fix,GT,37.4060735,-122.059958,-19.06602479078248,27.338612,0.1,105.0412,1640722949000
Fix,GT,37.4060088,-122.0596597,-19.051992999310137,27.379108,0.1,105.13208,1640722950000
Fix,GT,37.4059437,-122.0593611,-19.034984796054665,27.428036,0.1,105.330475,1640722951000
Fix,GT,37.4058781,-122.0590622,-18.996994965959807,27.46404,0.099,105.17999,1640722952000
Fix,GT,37.4058128,-122.0587626,-19.030997548480983,27.535252,0.1,105.271515,1640722953000
Fix,GT,37.4057468,-122.0584626,-19.032995028788,27.576275,0.1,105.2959,1640722954000
Fix,GT,37.4056807,-122.0581621,-19.063005141734845,27.61329,0.1,105.3974,1640722955000
Fix,GT,37.4056139,-122.0578613,-19.092994718281552,27.657679,0.1,105.429474,1640722956000
Fix,GT,37.4055476,-122.0575601,-19.081999920028263,27.690632,0.1,105.25336,1640722957000
Fix,GT,37.4054816,-122.0572581,-19.118995355197228,27.767075,0.1,105.158264,1640722958000
Fix,GT,37.405416,-122.0569551,-19.11700297315372,27.833824,0.1,105.22882,1640722959000
Fix,GT,37.4053496,-122.0566516,-19.13900214137044,27.889318,0.1,105.34442,1640722960000
Fix,GT,37.4052823,-122.0563478,-19.184995167414424,27.950573,0.1,105.6167,1640722961000
Fix,GT,37.4052127,-122.0560442,-19.17398336752248,27.980648,0.1,106.34946,1640722962000
Fix,GT,37.4051398,-122.0557416,-19.1790222384464,28.011982,0.1,107.1369,1640722963000
Fix,GT,37.405064,-122.0554397,-19.20198754060176,28.034792,0.1,107.68234,1640722964000
Fix,GT,37.4049858,-122.0551386,-19.0789707883962,28.01223,0.1,108.2034,1640722965000
Fix,GT,37.4049056,-122.05484,-18.993995238211003,27.757217,0.1,108.86026,1640722966000
Fix,GT,37.4048234,-122.0545449,-19.06397371077724,27.597483,0.1,109.45163,1640722967000
Fix,GT,37.404741,-122.0542513,-18.70588497180632,27.527435,0.1,109.26367,1640722968000
Fix,GT,37.4046586,-122.0539578,-18.127829353769307,27.573431,0.1,109.25348,1640722969000
Fix,GT,37.4045762,-122.0536636,-17.346779772632523,27.65574,0.1,109.20093,1640722970000
Fix,GT,37.4044935,-122.0533682,-16.347737304864914,27.778072,0.1,109.22931,1640722971000
Fix,GT,37.4044106,-122.0530716,-15.264763427796307,27.859135,0.1,109.25885,1640722972000
Fix,GT,37.4043278,-122.0527735,-14.253771175447383,28.063244,0.1,108.907776,1640722973000
Fix,GT,37.4042458,-122.0524717,-13.459824116216508,28.38566,0.1,108.59415,1640722974000
Fix,GT,37.4041642,-122.052166,-12.875875987064092,28.69463,0.1,108.18704,1640722975000
Fix,GT,37.404084,-122.0518562,-12.423923868730665,28.926346,0.1,107.685455,1640722976000
Fix,GT,37.404005,-122.0515446,-11.996000159203076,28.964067,0.1,107.40234,1640722977000
Fix,GT,37.4039279,-122.0512319,-11.933021535662933,28.98469,0.1,106.83981,1640722978000
Fix,GT,37.4038531,-122.050918,-12.070118002695963,29.04157,0.1,106.38742,1640722979000
Fix,GT,37.4037793,-122.0506027,-12.440073310828302,29.160446,0.1,105.95715,1640722980000
Fix,GT,37.4037077,-122.0502848,-12.927139392560347,29.312658,0.1,105.4299,1640722981000
Fix,GT,37.4036374,-122.0499652,-13.737213897408918,29.41315,0.099,105.1604,1640722982000
Fix,GT,37.4035677,-122.0496441,-14.643225688857491,29.5019,0.1,105.18933,1640722983000
Fix,GT,37.4034973,-122.0493224,-15.611244377518071,29.56617,0.1,105.1662,1640722984000
Fix,GT,37.4034269,-122.049,-16.713269076617436,29.6317,0.099,105.30133,1640722985000
Fix,GT,37.4033562,-122.0486769,-17.80923404288176,29.686752,0.1,105.10333,1640722986000
Fix,GT,37.4032854,-122.0483534,-18.71414668229967,29.713226,0.099,105.28772,1640722987000
Fix,GT,37.4032142,-122.04803,-19.351091194542125,29.67124,0.1,105.31195,1640722988000
Fix,GT,37.403143,-122.0477078,-19.704048701344057,29.513517,0.1,105.34946,1640722989000
Fix,GT,37.4030728,-122.0473876,-19.838998008277265,29.290005,0.1,105.1976,1640722990000
Fix,GT,37.4030036,-122.0470694,-19.808960021637382,29.121292,0.099,105.10574,1640722991000
Fix,GT,37.4029345,-122.0467527,-19.726016215736745,29.04194,0.1,105.24881,1640722992000
Fix,GT,37.4028652,-122.0464367,-19.686982004258784,28.99476,0.1,105.29901,1640722993000
Fix,GT,37.4027955,-122.0461213,-19.6619859975446,28.952854,0.1,105.36023,1640722994000
Fix,GT,37.4027265,-122.0458062,-19.60898673139676,28.908518,0.1,105.15811,1640722995000
Fix,GT,37.4026584,-122.0454923,-19.56699781088485,28.647116,0.1,104.97272,1640722996000
Fix,GT,37.4025915,-122.0451821,-19.525983362776923,28.277494,0.099,104.976135,1640722997000
Fix,GT,37.4025256,-122.0448757,-19.50200725104288,27.910099,0.1,105.09808,1640722998000
Fix,GT,37.4024599,-122.0445736,-19.504999909172763,27.537262,0.1,105.084595,1640722999000
Fix,GT,37.402395,-122.0442755,-19.500006516984897,27.173586,0.1,105.23605,1640723000000
Fix,GT,37.4023306,-122.0439816,-19.513025692904368,26.812807,0.1,105.17163,1640723001000
Fix,GT,37.4022674,-122.0436914,-19.51999305467354,26.45489,0.1,105.15735,1640723002000
Fix,GT,37.4022046,-122.0434051,-19.53801103187516,26.120573,0.099,105.21442,1640723003000
Fix,GT,37.4021426,-122.0431224,-19.556009449439124,25.795778,0.1,105.26422,1640723004000
Fix,GT,37.4020814,-122.0428432,-19.59702033558628,25.482437,0.1,105.210144,1640723005000
Fix,GT,37.4020213,-122.0425673,-19.64901304306905,25.17335,0.099,105.10391,1640723006000
Fix,GT,37.4019618,-122.0422946,-19.719025056500456,24.884296,0.1,105.19568,1640723007000
Fix,GT,37.4019027,-122.0420251,-19.79800666644028,24.634426,0.1,105.26163,1640723008000
Fix,GT,37.4018439,-122.0417576,-19.85301747836149,24.524532,0.099,105.31613,1640723009000
Fix,GT,37.4017852,-122.0414907,-19.94801611812366,24.50426,0.1,105.2204,1640723010000
Fix,GT,37.401727,-122.0412239,-20.01903832855913,24.482372,0.1,105.10364,1640723011000
Fix,GT,37.401669,-122.0409573,-20.076992868078875,24.453596,0.099,105.20184,1640723012000
Fix,GT,37.4016106,-122.040691,-20.06799360777624,24.45007,0.1,105.29431,1640723013000
Fix,GT,37.4015527,-122.040426,-20.050002108628863,24.197735,0.099,105.08826,1640723014000
Fix,GT,37.401496,-122.040164,-20.007986189169344,23.851862,0.1,105.05603,1640723015000
Fix,GT,37.4014397,-122.0399061,-19.98097597526852,23.460796,0.1,105.2374,1640723016000
Fix,GT,37.4013842,-122.0396524,-19.953980201421302,23.160368,0.1,105.24008,1640723017000
Fix,GT,37.4013291,-122.0394006,-19.91200424643047,23.100918,0.1,105.19821,1640723018000
Fix,GT,37.4012746,-122.039149,-19.88498195794924,23.073395,0.1,104.98755,1640723019000
Fix,GT,37.4012202,-122.0388977,-19.84202165032085,23.065119,0.1,105.115295,1640723020000
Fix,GT,37.4011655,-122.0386468,-19.829989111581817,22.962078,0.1,105.226776,1640723021000
Fix,GT,37.4011111,-122.0383975,-19.811995896066072,22.80512,0.1,105.175476,1640723022000
Fix,GT,37.4010571,-122.0381505,-19.813995640199632,22.536531,0.1,105.313354,1640723023000
Fix,GT,37.4010035,-122.037907,-19.81201081267256,22.221659,0.1,105.3714,1640723024000
Fix,GT,37.4009501,-122.0376665,-19.882023928080685,22.035519,0.1,105.45093,1640723025000
Fix,GT,37.4008968,-122.037427,-19.93799506286532,22.029139,0.1,105.589966,1640723026000
Fix,GT,37.4008426,-122.0371886,-20.00502032354241,21.843946,0.1,106.28369,1640723027000
Fix,GT,37.400785,-122.0369544,-20.083046306915577,21.576939,0.1,107.68329,1640723028000
Fix,GT,37.4007253,-122.0367243,-20.20102847049292,21.300503,0.1,107.9191,1640723029000
Fix,GT,37.4006672,-122.0364969,-20.325015057812443,21.028296,0.1,107.403534,1640723030000
Fix,GT,37.400613,-122.0362718,-20.4450127858466,20.539753,0.099,106.11566,1640723031000
Fix,GT,37.4005643,-122.0360547,-20.51502378161252,19.284307,0.099,105.27673,1640723032000
Fix,GT,37.4005206,-122.0358538,-20.589015393476,17.525415,0.1,105.38913,1640723033000
Fix,GT,37.4004774,-122.0356756,-20.665032042283563,15.475809,0.1,108.89282,1640723034000
Fix,GT,37.4004256,-122.035523,-20.820042739836506,14.173983,0.1,116.35214,1640723035000
Fix,GT,37.4003593,-122.0353897,-20.951073901877272,13.816528,0.1,125.93567,1640723036000
Fix,GT,37.4002737,-122.0352812,-20.943978539010043,13.431887,0.1,141.224,1640723037000
Fix,GT,37.4001692,-122.0352116,-20.83297377920733,13.147227,0.1,158.64948,1640723038000
Fix,GT,37.4000543,-122.0351868,-20.698935236293124,13.075126,0.1,177.43457,1640723039000
Fix,GT,37.3999391,-122.0352096,-20.626982731713447,13.094258,0.1,195.3712,1640723040000
Fix,GT,37.3998339,-122.0352722,-20.45597840549052,13.038527,0.1,211.3251,1640723041000
Fix,GT,37.3997427,-122.0353634,-20.318997641689144,12.956294,0.099,222.05504,1640723042000
Fix,GT,37.399664,-122.0354688,-20.22399156895932,12.794708,0.1,229.92738,1640723043000
Fix,GT,37.3995954,-122.0355865,-20.09997464855388,13.143626,0.1,236.50966,1640723044000
Fix,GT,37.3995371,-122.0357166,-19.89395332175493,13.426489,0.1,243.58524,1640723045000
Fix,GT,37.3994916,-122.0358569,-19.5649086683658,13.5378,0.1,251.05962,1640723046000
Fix,GT,37.3994622,-122.0360042,-19.123911068982444,13.503024,0.1,259.35757,1640723047000
Fix,GT,37.3994515,-122.0361542,-18.65890497767972,13.279145,0.1,269.2016,1640723048000
Fix,GT,37.399468,-122.0362976,-18.14489164696168,12.630386,0.099,285.02136,1640723049000
Fix,GT,37.3995138,-122.0364216,-17.59689002084406,11.836081,0.1,300.96765,1640723050000
Fix,GT,37.3995804,-122.03652,-17.08193512176839,11.321901,0.1,315.96167,1640723051000
Fix,GT,37.399664,-122.0365913,-16.608898543051446,11.441309,0.1,331.37665,1640723052000
Fix,GT,37.399761,-122.0366326,-16.14891791164689,11.454077,0.1,347.01337,1640723053000
Fix,GT,37.3998626,-122.0366387,-15.771947692156072,11.354613,0.1,2.73526,1640723054000
Fix,GT,37.3999611,-122.0366099,-15.4579623923935,11.372561,0.1,18.604828,1640723055000
Fix,GT,37.40005,-122.036547,-15.16495015797601,11.601415,0.1,34.798492,1640723056000
Fix,GT,37.4001273,-122.0364539,-14.933930800295434,12.408053,0.099,47.881104,1640723057000
Fix,GT,37.400197,-122.0363379,-14.570941735808038,13.35172,0.1,53.97992,1640723058000
Fix,GT,37.400268,-122.0362092,-14.322929295960815,14.380673,0.1,55.101776,1640723059000
Fix,GT,37.4003419,-122.0360669,-14.047950285026804,15.740307,0.1,57.808533,1640723060000
Fix,GT,37.400417,-122.0359071,-13.856985858850646,17.127745,0.1,60.023132,1640723061000
Fix,GT,37.4004943,-122.0357303,-13.746998255903833,18.61246,0.1,61.374664,1640723062000
Fix,GT,37.4005766,-122.0355376,-13.728991469604429,20.090904,0.1,61.169678,1640723063000
Fix,GT,37.4006677,-122.035332,-13.815026794245464,21.507256,0.1,60.21219,1640723064000
Fix,GT,37.4007659,-122.0351157,-13.960024779224767,22.568348,0.1,60.03351,1640723065000
Fix,GT,37.4008653,-122.0348878,-14.21409064374445,23.43317,0.1,61.98291,1640723066000
Fix,GT,37.4009608,-122.0346474,-14.62013370630797,24.145819,0.1,64.25815,1640723067000
Fix,GT,37.4010524,-122.0343969,-15.149139734858643,24.600946,0.1,65.661316,1640723068000
Fix,GT,37.4011416,-122.0341411,-15.787171413569478,24.82855,0.1,66.54709,1640723069000
Fix,GT,37.4012282,-122.0338811,-16.61117324980721,25.09981,0.1,67.50217,1640723070000
Fix,GT,37.4013135,-122.0336167,-17.50120584628405,25.405058,0.1,67.92761,1640723071000
Fix,GT,37.401398,-122.033348,-18.501169158404696,25.761742,0.1,68.61368,1640723072000
Fix,GT,37.4014804,-122.0330738,-19.36315090972744,26.114119,0.1,69.54224,1640723073000
Fix,GT,37.4015602,-122.0327948,-20.024115326687696,26.363676,0.1,70.43561,1640723074000
Fix,GT,37.4016374,-122.0325124,-20.458072938468305,26.488659,0.1,71.171875,1640723075000
Fix,GT,37.4017122,-122.0322274,-20.6740367674483,26.684828,0.1,71.89615,1640723076000
Fix,GT,37.4017849,-122.0319388,-20.84404994067247,26.938112,0.099,72.4863,1640723077000
Fix,GT,37.4018569,-122.0316468,-21.02104214319913,27.180964,0.1,72.41608,1640723078000
Fix,GT,37.4019305,-122.0313527,-21.184052473685703,27.410513,0.1,72.29932,1640723079000
Fix,GT,37.402005,-122.0310562,-21.438050521926257,27.664442,0.1,72.25293,1640723080000
Fix,GT,37.40208,-122.0307569,-21.658031468966044,27.898094,0.1,72.41144,1640723081000
Fix,GT,37.4021552,-122.0304549,-21.8290377757065,28.13679,0.1,72.41547,1640723082000
Fix,GT,37.4022311,-122.0301504,-22.005036079210694,28.355236,0.1,72.500275,1640723083000
Fix,GT,37.4023072,-122.0298435,-22.18202043597028,28.565327,0.1,72.49707,1640723084000
Fix,GT,37.4023844,-122.0295345,-22.290007731689137,28.76367,0.099,72.27698,1640723085000
Fix,GT,37.4024625,-122.029224,-22.22796615186776,28.869286,0.099,72.22839,1640723086000
Fix,GT,37.4025409,-122.0289127,-21.882871390324084,28.914728,0.1,72.26245,1640723087000
Fix,GT,37.4026186,-122.0286012,-21.2188352807276,28.874388,0.1,72.47217,1640723088000
Fix,GT,37.4026958,-122.0282904,-20.339816367483465,28.750586,0.1,72.56293,1640723089000
Fix,GT,37.4027721,-122.0279811,-19.39082687423448,28.599976,0.1,72.66214,1640723090000
Fix,GT,37.4028464,-122.0276734,-18.67585983865917,28.295391,0.099,73.18048,1640723091000
Fix,GT,37.4029175,-122.027368,-18.025874516018668,28.047626,0.1,73.90439,1640723092000
Fix,GT,37.4029846,-122.0270636,-17.572933016163997,27.895512,0.1,74.83319,1640723093000
Fix,GT,37.4030486,-122.0267591,-17.34796867935732,27.872719,0.1,75.32333,1640723094000
Fix,GT,37.4031097,-122.0264537,-17.256012035647405,27.914824,0.1,76.11371,1640723095000
Fix,GT,37.4031678,-122.0261464,-17.323050650071234,28.001732,0.1,76.84943,1640723096000
Fix,GT,37.4032231,-122.0258371,-17.561070507044903,28.1521,0.1,77.502014,1640723097000
Fix,GT,37.403276,-122.0255249,-18.03807757571037,28.36919,0.1,78.15573,1640723098000
Fix,GT,37.4033268,-122.0252096,-18.538105286091564,28.562195,0.1,78.595764,1640723099000
Fix,GT,37.4033765,-122.0248923,-19.26316260983132,28.705849,0.1,78.67239,1640723100000
Fix,GT,37.4034271,-122.0245733,-20.122207128867043,28.872467,0.1,78.54291,1640723101000
Fix,GT,37.4034778,-122.0242523,-21.193166363067228,29.082745,0.1,78.60791,1640723102000
Fix,GT,37.4035294,-122.0239287,-22.166192327514057,29.338078,0.1,78.38336,1640723103000
Fix,GT,37.4035831,-122.0236032,-23.123159876640887,29.507769,0.1,77.92752,1640723104000
Fix,GT,37.40364,-122.0232768,-23.791151128823635,29.617931,0.1,76.99063,1640723105000
Fix,GT,37.4037021,-122.0229513,-24.30305157952476,29.643661,0.1,76.134766,1640723106000
Fix,GT,37.4037663,-122.0226263,-24.514029425119865,29.619888,0.1,75.815796,1640723107000
Fix,GT,37.4038316,-122.0223021,-24.60502283583628,29.57133,0.1,75.58298,1640723108000
Fix,GT,37.4038974,-122.0219787,-24.80506514475261,29.524578,0.1,75.39557,1640723109000
Fix,GT,37.4039633,-122.021656,-25.06302449863544,29.447079,0.1,75.278656,1640723110000
Fix,GT,37.4040305,-122.0213348,-25.21404601522442,29.376879,0.1,74.86841,1640723111000
Fix,GT,37.4040989,-122.0210149,-25.28200339408638,29.270657,0.099,74.4476,1640723112000
Fix,GT,37.4041692,-122.020697,-25.2470000235131,29.151222,0.1,74.26721,1640723113000
Fix,GT,37.4042402,-122.0203805,-25.375025253466795,29.059576,0.1,73.83838,1640723114000
Fix,GT,37.4043125,-122.0200657,-25.48301871583541,28.937885,0.1,73.76645,1640723115000
Fix,GT,37.4043843,-122.019752,-25.56602124677505,28.881392,0.1,73.68207,1640723116000
Fix,GT,37.4044565,-122.0194385,-25.635994069791977,28.933605,0.1,73.67819,1640723117000
Fix,GT,37.4045287,-122.0191248,-25.590000643478707,28.808311,0.1,73.835724,1640723118000
Fix,GT,37.4045997,-122.0188138,-25.64398644435068,28.458067,0.1,73.75421,1640723119000
Fix,GT,37.4046701,-122.018507,-25.61802824335685,28.059933,0.1,73.749725,1640723120000
Fix,GT,37.4047394,-122.0182046,-25.666019888691256,27.655031,0.1,73.8551,1640723121000
Fix,GT,37.404807,-122.0179063,-25.777004045710434,27.258806,0.1,73.944275,1640723122000
Fix,GT,37.4048741,-122.0176122,-25.8649978746837,26.924295,0.099,73.70404,1640723123000
Fix,GT,37.404941,-122.0173219,-25.96002107535373,26.592089,0.1,73.639984,1640723124000
Fix,GT,37.4050086,-122.0170355,-26.05500326695212,26.308365,0.1,72.797455,1640723125000
Fix,GT,37.4050788,-122.0167518,-26.10200949866476,26.324568,0.1,72.38641,1640723126000
Fix,GT,37.4051502,-122.0164678,-26.14700519530988,26.392479,0.1,72.10785,1640723127000
Fix,GT,37.4052218,-122.0161832,-26.157004304040573,26.45445,0.1,72.47949,1640723128000
Fix,GT,37.405291,-122.015897,-26.18799661371624,26.505833,0.1,73.07477,1640723129000
Fix,GT,37.4053585,-122.0156101,-26.248016181816464,26.494516,0.1,73.351654,1640723130000
Fix,GT,37.4054255,-122.0153229,-26.30601685100537,26.512646,0.1,73.482605,1640723131000
Fix,GT,37.405492,-122.0150347,-26.3359924784,26.675488,0.099,73.45749,1640723132000
Fix,GT,37.4055596,-122.0147443,-26.370005952509818,26.896893,0.1,73.55798,1640723133000
Fix,GT,37.4056272,-122.0144512,-26.435010794039933,27.149689,0.1,73.61731,1640723134000
Fix,GT,37.4056953,-122.0141553,-26.46300498451525,27.376093,0.1,73.69882,1640723135000
Fix,GT,37.4057634,-122.0138572,-26.532002056059778,27.52489,0.1,73.71237,1640723136000
Fix,GT,37.4058322,-122.0135578,-26.593004794130103,27.650509,0.1,73.67377,1640723137000
Fix,GT,37.4059013,-122.0132571,-26.629002149182607,27.772465,0.1,73.72888,1640723138000
Fix,GT,37.4059705,-122.0129548,-26.68301080965996,27.908535,0.1,73.80347,1640723139000
Fix,GT,37.4060395,-122.012651,-26.74099039607681,28.059511,0.099,73.82626,1640723140000
Fix,GT,37.4061095,-122.012345,-26.80103958192095,28.331398,0.1,73.73041,1640723141000
Fix,GT,37.4061808,-122.0120361,-26.88199411015644,28.58368,0.1,73.53586,1640723142000
Fix,GT,37.4062533,-122.0117246,-26.968018617819062,28.879187,0.1,73.585785,1640723143000
Fix,GT,37.406326,-122.0114098,-27.00703375203,29.148285,0.1,73.73218,1640723144000
Fix,GT,37.4063985,-122.0110923,-27.11002087010862,29.31098,0.099,73.82904,1640723145000
Fix,GT,37.4064713,-122.0107734,-27.202021824176192,29.42169,0.1,73.881775,1640723146000
Fix,GT,37.406544,-122.0104532,-27.330033574364144,29.54024,0.1,73.97034,1640723147000
Fix,GT,37.4066168,-122.0101315,-27.50703138186189,29.661545,0.1,73.99051,1640723148000
Fix,GT,37.40669,-122.0098085,-27.683014663086738,29.778828,0.1,73.87897,1640723149000
Fix,GT,37.4067641,-122.0094847,-27.750984023329107,29.877695,0.1,73.75281,1640723150000
Fix,GT,37.4068381,-122.00916,-27.692990459205586,29.918243,0.1,73.83472,1640723151000
Fix,GT,37.406912,-122.0088347,-27.601970414670767,29.941488,0.1,73.92633,1640723152000
Fix,GT,37.4069853,-122.0085093,-27.368943550350146,29.914764,0.1,73.98654,1640723153000
Fix,GT,37.4070589,-122.0081843,-27.12996605651907,29.920425,0.1,73.818665,1640723154000
Fix,GT,37.407133,-122.0078594,-26.95096886155149,29.911392,0.1,73.84592,1640723155000
Fix,GT,37.4072072,-122.0075347,-26.74897005104134,29.899553,0.1,73.79004,1640723156000
Fix,GT,37.4072812,-122.0072098,-26.55095195737924,29.8916,0.1,73.85272,1640723157000
Fix,GT,37.4073549,-122.0068849,-26.404988155680943,29.914625,0.1,74.039825,1640723158000
Fix,GT,37.4074281,-122.0065591,-26.309006628008326,30.045176,0.1,74.04645,1640723159000
Fix,GT,37.4075012,-122.0062313,-26.37299935832376,30.234312,0.1,74.252106,1640723160000
Fix,GT,37.4075739,-122.005901,-26.40503137745778,30.438002,0.1,74.41965,1640723161000
Fix,GT,37.4076465,-122.0055681,-26.645049377364803,30.667786,0.099,74.49875,1640723162000
Fix,GT,37.4077193,-122.0052325,-26.956069428130984,30.920948,0.1,74.58008,1640723163000
Fix,GT,37.407793,-122.004894,-27.31003952279024,31.198654,0.1,74.4191,1640723164000
Fix,GT,37.4078677,-122.0045528,-27.62202854323317,31.4319,0.1,74.45465,1640723165000
Fix,GT,37.4079428,-122.0042093,-27.867048564996686,31.630825,0.1,74.3956,1640723166000
Fix,GT,37.4080187,-122.0038638,-28.072034476760773,31.830534,0.1,74.36029,1640723167000
Fix,GT,37.408095,-122.0035161,-28.17802185716259,31.99249,0.1,74.44519,1640723168000
Fix,GT,37.408171,-122.0031676,-28.23400617118832,31.961737,0.1,74.50595,1640723169000
Fix,GT,37.4082464,-122.0028194,-28.254008886728087,31.926342,0.1,74.63776,1640723170000
Fix,GT,37.4083212,-122.0024712,-28.28400484047155,31.927122,0.1,74.66046,1640723171000
Fix,GT,37.4083961,-122.002123,-28.31800277700648,31.931387,0.1,74.612976,1640723172000
Fix,GT,37.4084714,-122.0017747,-28.37100746014016,31.956053,0.1,74.56125,1640723173000
Fix,GT,37.4085472,-122.0014263,-28.38899868032569,31.968508,0.1,74.43796,1640723174000
Fix,GT,37.4086234,-122.001078,-28.43001340490068,31.987265,0.1,74.53555,1640723175000
Fix,GT,37.408699,-122.0007293,-28.46500744402397,31.990347,0.1,74.46008,1640723176000
Fix,GT,37.4087754,-122.0003808,-28.500013455295004,31.995043,0.1,74.30893,1640723177000
Fix,GT,37.4088521,-122.0000324,-28.525011393019465,32.002686,0.1,74.37692,1640723178000
Fix,GT,37.4089283,-121.9996836,-28.56700576575892,32.025425,0.1,74.54404,1640723179000
Fix,GT,37.4090041,-121.9993347,-28.589008704618315,32.00139,0.1,74.47998,1640723180000
Fix,GT,37.4090797,-121.9989862,-28.64302789793816,31.947237,0.1,74.72043,1640723181000
Fix,GT,37.4091541,-121.9986384,-28.701012369867883,31.796036,0.1,74.74896,1640723182000
Fix,GT,37.409228,-121.9982923,-28.72999907380622,31.641304,0.1,74.78961,1640723183000
Fix,GT,37.4093019,-121.9979477,-28.717991837771027,31.546116,0.1,74.51126,1640723184000
Fix,GT,37.409377,-121.9976044,-28.73900654668617,31.479567,0.1,74.36926,1640723185000
Fix,GT,37.4094522,-121.9972619,-28.724012714522427,31.417171,0.099,74.32611,1640723186000
Fix,GT,37.4095273,-121.9969202,-28.745015584530776,31.339827,0.1,74.42749,1640723187000
Fix,GT,37.4096019,-121.9965791,-28.808004042031943,31.296097,0.1,74.42459,1640723188000
Fix,GT,37.4096765,-121.9962373,-28.79802433654013,31.487156,0.1,74.397095,1640723189000
Fix,GT,37.4097519,-121.9958932,-28.836010913764127,31.679491,0.099,74.44919,1640723190000
Fix,GT,37.409827,-121.9955477,-28.84298620375188,31.725607,0.1,74.67877,1640723191000
Fix,GT,37.4099014,-121.9952015,-28.85901316749445,31.751642,0.1,74.65466,1640723192000
Fix,GT,37.4099761,-121.9948554,-28.86000146944087,31.738169,0.1,74.666016,1640723193000
Fix,GT,37.4100507,-121.9945096,-28.89600753415353,31.66591,0.099,74.59296,1640723194000
Fix,GT,37.4101256,-121.994165,-28.886997327505263,31.59856,0.1,74.49533,1640723195000
Fix,GT,37.4102002,-121.9938207,-28.90901139270235,31.586824,0.1,74.578735,1640723196000
Fix,GT,37.4102746,-121.9934765,-28.879994994853504,31.559269,0.1,74.579834,1640723197000
Fix,GT,37.4103495,-121.9931327,-28.835999711302108,31.52304,0.099,74.49353,1640723198000
Fix,GT,37.4104245,-121.9927896,-28.8029945601672,31.479284,0.1,74.515686,1640723199000
Fix,GT,37.4104986,-121.9924466,-28.796995915031992,31.43444,0.1,74.615906,1640723200000
Fix,GT,37.4105728,-121.9921043,-28.75198603593686,31.369211,0.1,74.559204,1640723201000
Fix,GT,37.4106471,-121.9917629,-28.72798569568084,31.294998,0.1,74.46442,1640723202000
Fix,GT,37.4107211,-121.9914224,-28.611965113931102,31.193785,0.1,74.58856,1640723203000
Fix,GT,37.4107942,-121.9910829,-28.440988456550286,31.07857,0.1,74.748474,1640723204000
Fix,GT,37.4108678,-121.9907446,-28.36597722815093,30.996948,0.1,74.24844,1640723205000
Fix,GT,37.4109428,-121.9904079,-28.202958085371183,30.901424,0.1,74.24524,1640723206000
Fix,GT,37.4110174,-121.9900723,-28.01099225156195,30.770248,0.1,74.20947,1640723207000
Fix,GT,37.4110927,-121.9897388,-27.853959109271408,30.596224,0.1,73.74692,1640723208000
Fix,GT,37.4111706,-121.9894083,-27.56594949579751,30.412014,0.099,72.83969,1640723209000
Fix,GT,37.4112517,-121.9890812,-27.1999475032005,30.250547,0.1,72.40973,1640723210000
Fix,GT,37.4113337,-121.9887563,-26.74091961048124,30.067434,0.1,71.97867,1640723211000
Fix,GT,37.4114178,-121.9884345,-26.26193311584333,29.912632,0.1,71.405396,1640723212000
Fix,GT,37.4115036,-121.988115,-25.78092392834928,29.768475,0.099,70.94177,1640723213000
Fix,GT,37.411592,-121.9877984,-25.3289286541919,29.634987,0.1,70.22815,1640723214000
Fix,GT,37.4116821,-121.9874847,-24.89593920937367,29.336437,0.1,69.79288,1640723215000
Fix,GT,37.4117732,-121.9871763,-24.51594846746977,28.91076,0.1,69.13364,1640723216000
Fix,GT,37.4118655,-121.9868732,-24.22691483245801,28.512508,0.1,68.624054,1640723217000
Fix,GT,37.411959,-121.9865757,-23.979997180097737,28.100864,0.1,67.98715,1640723218000
Fix,GT,37.4120534,-121.9862838,-23.74395140340552,27.679117,0.1,67.42975,1640723219000
Fix,GT,37.4121483,-121.9859972,-23.647987694684414,27.261505,0.099,67.103,1640723220000
Fix,GT,37.4122433,-121.9857155,-23.65801040560042,26.890614,0.1,66.70569,1640723221000
Fix,GT,37.4123363,-121.9854375,-23.662012762239662,26.516563,0.1,68.141785,1640723222000
Fix,GT,37.4124221,-121.9851584,-23.713998840745425,26.512424,0.1,68.658356,1640723223000
Fix,GT,37.4125125,-121.9848801,-23.78002136920323,26.682665,0.1,66.79242,1640723224000
Fix,GT,37.4126097,-121.9846024,-23.91298343993212,27.0275,0.1,65.35651,1640723225000
Fix,GT,37.4127145,-121.9843236,-23.96501765594247,27.536774,0.1,63.8873,1640723226000
Fix,GT,37.4128263,-121.9840427,-24.10102077579638,28.041687,0.1,63.005768,1640723227000
Fix,GT,37.4129411,-121.9837573,-24.244023107655,28.498621,0.1,62.980347,1640723228000
Fix,GT,37.4130579,-121.9834693,-24.371994696293022,28.688334,0.1,62.71643,1640723229000
Fix,GT,37.4131769,-121.9831807,-24.42001841010712,28.83248,0.1,62.17743,1640723230000
Fix,GT,37.4132982,-121.9828907,-24.630052144428483,29.156343,0.1,62.118042,1640723231000
Fix,GT,37.4134216,-121.9825982,-24.83303248159506,29.451141,0.1,61.771362,1640723232000
Fix,GT,37.4135473,-121.9823034,-25.12104708096629,29.696114,0.1,61.6846,1640723233000
Fix,GT,37.4136734,-121.9820067,-25.413045423073694,29.837185,0.1,61.80002,1640723234000
Fix,GT,37.4138,-121.9817085,-25.710046255649416,29.964247,0.1,61.69693,1640723235000
Fix,GT,37.4139269,-121.9814095,-25.803997737263792,29.99497,0.1,61.78955,1640723236000
Fix,GT,37.4140539,-121.9811104,-25.698976950645097,29.979458,0.1,61.677246,1640723237000
Fix,GT,37.4141806,-121.9808117,-25.4939740133984,29.929836,0.1,61.85379,1640723238000
Fix,GT,37.4143067,-121.9805135,-25.14795047686877,29.838297,0.1,61.772064,1640723239000
Fix,GT,37.414433,-121.9802164,-24.853978091079973,29.759031,0.1,61.672363,1640723240000
Fix,GT,37.4145585,-121.9799198,-24.48596649108967,29.68383,0.1,61.894714,1640723241000
Fix,GT,37.4146828,-121.9796237,-24.18192751417076,29.580904,0.1,62.00766,1640723242000
Fix,GT,37.4148071,-121.9793281,-23.84996651705052,29.577139,0.1,61.90747,1640723243000
Fix,GT,37.4149316,-121.9790329,-23.513956473353783,29.551159,0.099,61.827454,1640723244000
Fix,GT,37.4150563,-121.978738,-23.1919507807158,29.543379,0.1,61.863525,1640723245000
Fix,GT,37.4151807,-121.9784429,-22.842953699404024,29.563099,0.1,61.865143,1640723246000
Fix,GT,37.4153056,-121.9781476,-22.5189494693582,29.608608,0.099,61.849243,1640723247000
Fix,GT,37.4154306,-121.9778518,-22.265879792111924,29.6497,0.1,61.821533,1640723248000
Fix,GT,37.4155561,-121.977556,-21.87993080932868,29.681385,0.1,61.742645,1640723249000
Fix,GT,37.4156825,-121.9772596,-21.56591554622771,29.80695,0.1,61.642212,1640723250000
Fix,GT,37.4158089,-121.9769621,-21.19695806981518,29.890505,0.1,61.78369,1640723251000
Fix,GT,37.4159356,-121.9766632,-20.89495690332353,30.030457,0.1,61.758057,1640723252000
Fix,GT,37.4160628,-121.9763629,-20.65696678553476,30.18465,0.1,61.7713,1640723253000
Fix,GT,37.4161908,-121.9760609,-20.46097662164504,30.353575,0.1,61.80597,1640723254000
Fix,GT,37.4163192,-121.975757,-20.29099040507339,30.531578,0.1,61.905487,1640723255000
Fix,GT,37.4164482,-121.9754517,-20.190978011228022,30.613451,0.1,61.76007,1640723256000
Fix,GT,37.4165776,-121.9751467,-20.15600048102577,30.540648,0.1,61.805267,1640723257000
Fix,GT,37.4167062,-121.974842,-20.18001292107673,30.478374,0.1,61.94922,1640723258000
Fix,GT,37.4168339,-121.9745375,-20.3100197597011,30.45018,0.1,62.1351,1640723259000
Fix,GT,37.4169609,-121.9742327,-20.51404590886901,30.43342,0.1,62.21881,1640723260000
Fix,GT,37.4170879,-121.9739282,-20.68504043121892,30.420595,0.1,62.06955,1640723261000
Fix,GT,37.4172159,-121.9736244,-20.979052647653617,30.425472,0.1,61.76181,1640723262000
Fix,GT,37.4173447,-121.9733208,-21.35808537489362,30.439674,0.1,61.75769,1640723263000
Fix,GT,37.4174736,-121.9730171,-21.769081218433097,30.479828,0.1,61.648956,1640723264000
Fix,GT,37.4176033,-121.9727133,-22.148972065378683,30.507505,0.1,61.653015,1640723265000
Fix,GT,37.4177326,-121.9724087,-22.4910781998192,30.578611,0.1,61.832825,1640723266000
Fix,GT,37.417861,-121.9721025,-22.959068215273085,30.699177,0.1,62.259613,1640723267000
Fix,GT,37.4179868,-121.9717929,-23.513084228544965,30.823782,0.1,63.38672,1640723268000
Fix,GT,37.4181071,-121.9714784,-24.080066875240647,30.937637,0.1,65.0517,1640723269000
Fix,GT,37.4182185,-121.9711578,-24.50404522354249,30.982319,0.099,67.39972,1640723270000
Fix,GT,37.4183189,-121.9708315,-24.75201705407165,30.973322,0.1,69.808105,1640723271000
Fix,GT,37.4184094,-121.970501,-24.759971614037525,30.894348,0.1,71.98178,1640723272000
Fix,GT,37.4184872,-121.9701668,-24.594985231438653,30.800154,0.1,75.08252,1640723273000
Fix,GT,37.418552,-121.9698288,-24.416993685321884,30.798761,0.1,77.31445,1640723274000
Fix,GT,37.4186065,-121.9694878,-24.25798057274089,30.802607,0.1,79.51892,1640723275000
Fix,GT,37.4186502,-121.9691442,-24.08797657131404,30.812462,0.1,81.80676,1640723276000
Fix,GT,37.4186826,-121.9687986,-23.979999293882283,30.849642,0.1,84.188324,1640723277000
Fix,GT,37.4187048,-121.968451,-23.8969864003138,30.89347,0.1,86.15674,1640723278000
Fix,GT,37.4187192,-121.9681026,-23.789010058561107,30.923891,0.099,87.16431,1640723279000
Fix,GT,37.4187315,-121.9677533,-23.814028339018577,30.972795,0.1,87.31177,1640723280000
Fix,GT,37.4187432,-121.9674033,-23.89402188468236,31.059134,0.1,87.35556,1640723281000
Fix,GT,37.4187554,-121.9670521,-24.22797865873808,31.176672,0.099,87.22473,1640723282000
Fix,GT,37.4187679,-121.9666992,-24.350035941096724,31.381636,0.1,87.29205,1640723283000
Fix,GT,37.4187797,-121.9663435,-24.670055743565086,31.632977,0.1,87.462036,1640723284000
Fix,GT,37.4187912,-121.9659851,-25.14908168068948,31.860584,0.1,87.441895,1640723285000
Fix,GT,37.4188028,-121.9656247,-25.65306071755942,31.977674,0.1,87.47296,1640723286000
Fix,GT,37.4188145,-121.9652636,-26.118062026269264,32.00801,0.1,87.37741,1640723287000
Fix,GT,37.4188265,-121.9649021,-26.62403736960108,32.04554,0.1,87.33356,1640723288000
Fix,GT,37.4188387,-121.9645403,-27.04001311219996,32.058434,0.1,87.27814,1640723289000
Fix,GT,37.4188512,-121.9641786,-27.320032447473498,32.029385,0.1,87.230835,1640723290000
Fix,GT,37.4188641,-121.9638174,-27.50501853465021,31.968973,0.1,87.21002,1640723291000
Fix,GT,37.4188768,-121.963457,-27.65301350130513,31.87623,0.1,87.29053,1640723292000
Fix,GT,37.4188898,-121.9630978,-27.777006051403703,31.804667,0.1,87.042786,1640723293000
Fix,GT,37.418903,-121.9627392,-27.9800261773892,31.746862,0.099,87.21335,1640723294000
Fix,GT,37.4189154,-121.9623811,-28.23702601910848,31.704067,0.1,87.28317,1640723295000
Fix,GT,37.4189275,-121.9620236,-28.43403523261124,31.643057,0.1,87.24078,1640723296000
Fix,GT,37.4189405,-121.9616667,-28.661040355848616,31.597713,0.1,86.965454,1640723297000
Fix,GT,37.4189558,-121.9613104,-28.86701543711126,31.54626,0.1,86.26935,1640723298000
Fix,GT,37.4189747,-121.9609552,-29.023018197063124,31.485792,0.1,85.65289,1640723299000
Fix,GT,37.4189958,-121.9606009,-29.13501710654213,31.41327,0.099,85.34735,1640723300000
Fix,GT,37.4190182,-121.9602474,-29.264003325533587,31.368301,0.1,85.02069,1640723301000
Fix,GT,37.4190432,-121.9598946,-29.30700876336521,31.33787,0.1,84.36679,1640723302000
Fix,GT,37.4190708,-121.9595422,-29.43803144401288,31.34925,0.1,83.98004,1640723303000
Fix,GT,37.4190998,-121.9591899,-29.51999097862653,31.340738,0.1,83.70505,1640723304000
Fix,GT,37.4191293,-121.9588381,-29.41597865331336,31.28165,0.1,83.8136,1640723305000
Fix,GT,37.4191572,-121.9584866,-29.459014154839327,31.268255,0.1,84.19562,1640723306000
Fix,GT,37.4191845,-121.958135,-29.49400637258403,31.262344,0.1,84.20923,1640723307000
Fix,GT,37.4192111,-121.9577835,-29.53400321275368,31.246147,0.1,84.618164,1640723308000
Fix,GT,37.4192348,-121.9574319,-29.562995886961,31.211536,0.1,85.45978,1640723309000
Fix,GT,37.4192517,-121.9570803,-29.577003359179013,31.185614,0.1,87.220795,1640723310000
Fix,GT,37.4192611,-121.9567284,-29.56399752989109,31.156887,0.1,88.54535,1640723311000
