MessageType,Provider,LatitudeDegrees,LongitudeDegrees,AltitudeMeters,SpeedMps,AccuracyMeters,BearingDegrees,UnixTimeMillis
Fix,GT,37.4444969,-122.2323148,11.750999697843785,0.0,0.099,78.690125,1615921154000
Fix,GT,37.4444969,-122.2323148,11.75099982694845,0.0,0.099,78.68991,1615921155000
Fix,GT,37.4444969,-122.2323148,11.750999944596144,5.199149e-07,0.1,78.68988,1615921156000
Fix,GT,37.4444969,-122.2323148,11.751000318024772,0.002236068,0.1,78.6897,1615921157000
Fix,GT,37.4444969,-122.2323148,11.752000203164762,0.002236013,0.1,78.689575,1615921158000
Fix,GT,37.4444969,-122.2323148,11.752000332280414,0.002000055,0.1,78.690125,1615921159000
Fix,GT,37.4444969,-122.2323148,11.751999749464334,0.0022357805,0.1,78.690186,1615921160000
Fix,GT,37.4444969,-122.2323148,11.751999878751,0.0009997674,0.1,78.690125,1615921161000
Fix,GT,37.4444969,-122.2323148,11.75200000786665,0.0,0.1,78.69028,1615921162000
Fix,GT,37.4444969,-122.2323148,11.752000113724383,3.2892768e-07,0.1,78.6904,1615921163000
Fix,GT,37.4444969,-122.2323148,11.752000219411102,0.0014138847,0.1,78.69107,1615921164000
Fix,GT,37.4444969,-122.2323148,11.752000348697766,0.0,0.1,78.69086,1615921165000
Fix,GT,37.4444969,-122.2323148,11.75199978931062,2.3261902e-07,0.1,78.690704,1615921166000
Fix,GT,37.4444969,-122.2323148,11.75199993039726,0.001,0.1,78.69086,1615921167000
Fix,GT,37.4444969,-122.2323148,11.752000059683924,0.001,0.1,78.690796,1615921168000
Fix,GT,37.4444969,-122.2323148,11.75200020059955,0.0009997674,0.1,78.69089,1615921169000
Fix,GT,37.4444969,-122.2323148,11.752000341686188,0.0,0.1,78.6911,1615921170000
Fix,GT,37.4444969,-122.2323148,11.751999758699094,0.0,0.1,78.6911,1615921171000
Fix,GT,37.4444969,-122.2323148,11.751999911414693,0.0,0.1,78.69092,1615921172000
Fix,GT,37.4444969,-122.2323148,11.752000029072398,0.0,0.1,78.69089,1615921173000
Fix,GT,37.4444969,-122.2323148,11.75200014655909,0.0,0.1,78.69125,1615921174000
Fix,GT,37.4444969,-122.2323148,11.752000275845756,2.3272001e-07,0.1,78.69153,1615921175000
Fix,GT,37.4444969,-122.2323148,11.751999716287596,0.001,0.099,78.691345,1615921176000
Fix,GT,37.4444969,-122.2323148,11.751999857374235,0.0009997673,0.1,78.69141,1615921177000
Fix,GT,37.4444969,-122.2323148,11.7519999866609,2.3275501e-07,0.1,78.69141,1615921178000
Fix,GT,37.4444969,-122.2323148,11.752000104147593,0.001,0.1,78.69159,1615921179000
Fix,GT,37.4444969,-122.2323148,11.752000233434256,0.0010000966,0.1,78.69165,1615921180000
Fix,GT,37.4444969,-122.2323148,11.751999662247137,0.0014142136,0.099,78.69159,1615921181000
Fix,GT,37.4444969,-122.2323148,11.751999814962735,0.0014142136,0.099,78.69162,1615921182000
Fix,GT,37.4444969,-122.2323148,11.751999932449428,0.0014142136,0.099,78.69177,1615921183000
Fix,GT,37.4444969,-122.2323148,11.752000050107132,0.0014141172,0.1,78.69174,1615921184000
Fix,GT,37.4444969,-122.2323148,11.752000179222785,0.001,0.1,78.691895,1615921185000
Fix,GT,37.4444969,-122.2323148,11.752000320309424,0.0010000966,0.1,78.69174,1615921186000
Fix,GT,37.4444969,-122.2323148,11.751999772551237,0.001414117,0.1,78.691925,1615921187000
Fix,GT,37.4444969,-122.2323148,11.751999925437849,0.0010000966,0.1,78.6918,1615921188000
Fix,GT,37.4444969,-122.2323148,11.75200004292454,0.001414117,0.1,78.691864,1615921189000
Fix,GT,37.4444969,-122.2323148,11.752000160411232,0.0009997672,0.1,78.691925,1615921190000
Fix,GT,37.4444969,-122.2323148,11.752000301497873,2.3290102e-07,0.1,78.691864,1615921191000
Fix,GT,37.4444969,-122.2323148,11.751999753739684,0.0009997671,0.1,78.691864,1615921192000
Fix,GT,37.4444969,-122.2323148,11.751999894826325,0.0,0.1,78.69183,1615921193000
Fix,GT,37.4444969,-122.2323148,11.75200002411299,2.3293701e-07,0.1,78.691925,1615921194000
Fix,GT,37.4444969,-122.2323148,11.752000153399656,0.001,0.1,78.69208,1615921195000
Fix,GT,37.4444969,-122.2323148,11.752000306115251,0.001,0.1,78.69223,1615921196000
Fix,GT,37.4444969,-122.2323148,11.751999746728108,0.001,0.1,78.69238,1615921197000
Fix,GT,37.4444969,-122.2323148,11.751999887643732,0.0009997671,0.1,78.692474,1615921198000
Fix,GT,37.4444969,-122.2323148,11.752000016930396,0.0,0.1,78.692505,1615921199000
Fix,GT,37.4444969,-122.2323148,11.752000146217064,0.0,0.1,78.69232,1615921200000
Fix,GT,37.4444969,-122.2323148,11.7520002873037,0.0,0.1,78.69226,1615921201000
Fix,GT,37.4444969,-122.2323148,11.751999716116584,2.3303002e-07,0.099,78.69241,1615921202000
Fix,GT,37.4444969,-122.2323148,11.751999845403247,0.001,0.1,78.692444,1615921203000
Fix,GT,37.4444969,-122.2323148,11.751999998118846,0.001,0.1,78.69235,1615921204000
Fix,GT,37.4444969,-122.2323148,11.75200012740551,0.001,0.1,78.692444,1615921205000
Fix,GT,37.4444969,-122.2323148,11.752000256692178,0.001,0.1,78.692566,1615921206000
Fix,GT,37.4444969,-122.2323148,11.751999720733965,0.0010000967,0.1,78.692535,1615921207000
Fix,GT,37.4444969,-122.2323148,11.75199987344956,0.0014142136,0.1,78.69269,1615921208000
Fix,GT,37.4444969,-122.2323148,11.7520000145362,0.0014141169,0.1,78.69278,1615921209000
Fix,GT,37.4444969,-122.2323148,11.752000143822864,0.0010000002,0.1,78.69275,1615921210000
Fix,GT,37.4444969,-122.2323148,11.752000296538464,0.000999767,0.1,78.69278,1615921211000
Fix,GT,37.4444969,-122.2323148,11.751999760580247,2.33153e-07,0.1,78.69284,1615921212000
Fix,GT,37.4444969,-122.2323148,11.751999901666888,0.0009997669,0.1,78.693054,1615921213000
Fix,GT,37.4444969,-122.2323148,11.752000030953552,3.2976067e-07,0.1,78.69266,1615921214000
Fix,GT,37.4444969,-122.2323148,11.75200016024022,0.0014143501,0.1,78.69238,1615921215000
Fix,GT,37.4444969,-122.2323148,11.752000289526883,0.0020001933,0.1,78.69272,1615921216000
Fix,GT,37.4444969,-122.2323148,11.751999741768698,0.0028286083,0.1,78.69299,1615921217000
Fix,GT,37.4444969,-122.2323148,11.751999871055364,0.0036056999,0.1,78.69318,1615921218000
Fix,GT,37.4444969,-122.2323148,11.75200000034203,0.0042426405,0.1,78.693146,1615921219000
Fix,GT,37.4444969,-122.2323148,11.752000129628694,0.004242492,0.1,78.69324,1615921220000
Fix,GT,37.4444969,-122.2323148,11.752000294144263,0.003605177,0.1,78.6933,1615921221000
Fix,GT,37.4444969,-122.2323148,11.751999524914048,0.0020002334,0.1,78.6936,1615921222000
Fix,GT,37.4444969,-122.2323148,11.750999887482292,0.003002119,0.1,78.69354,1615921223000
Fix,GT,37.4444969,-122.2323147,11.750999107000895,0.01208451,0.1,78.69333,1615921224000
Fix,GT,37.444497,-122.2323147,11.746999469481874,0.018363122,0.1,78.69345,1615921225000
Fix,GT,37.4444972,-122.2323145,11.744000321971251,0.042333815,0.1,78.693634,1615921226000
Fix,GT,37.4444995,-122.2323146,11.743992308100683,0.6585371,0.099,78.680176,1615921227000
Fix,GT,37.444509,-122.2323165,11.71199500399307,1.3295078,0.099,77.51276,1615921228000
Fix,GT,37.4445244,-122.2323215,11.690992845490344,1.4683797,0.1,70.539185,1615921229000
Fix,GT,37.4445413,-122.2323311,11.65999674204082,1.4341949,0.1,57.885437,1615921230000
Fix,GT,37.4445529,-122.2323412,11.645000644962668,0.5726466,0.1,48.36197,1615921231000
Fix,GT,37.4445546,-122.2323417,11.64899940758718,0.12096674,0.1,47.539368,1615921232000
Fix,GT,37.4445535,-122.2323391,11.647002815023312,0.9000076,0.1,46.33658,1615921233000
Fix,GT,37.4445478,-122.2323303,11.658992917876924,1.9559836,0.1,36.153748,1615921234000
Fix,GT,37.4445415,-122.232315,11.628004716848954,2.8701348,0.1,17.176208,1615921235000
Fix,GT,37.4445387,-122.2322867,11.646997182905324,3.8410757,0.1,359.2546,1615921236000
Fix,GT,37.4445419,-122.2322444,11.635978890629106,4.159865,0.1,353.016,1615921237000
Fix,GT,37.444547,-122.232198,11.54594962244379,4.2002926,0.1,352.3902,1615921238000
Fix,GT,37.4445514,-122.2321455,11.32996607657615,4.3968735,0.1,359.40662,1615921239000
Fix,GT,37.4445456,-122.2320848,11.183990257090716,4.794135,0.1,18.21463,1615921240000
Fix,GT,37.4445194,-122.2320244,11.140989046715813,5.336568,0.1,40.398804,1615921241000
Fix,GT,37.4444839,-122.2319794,11.094986177507495,5.3542786,0.1,44.938416,1615921242000
Fix,GT,37.4444566,-122.231941,11.035992626128078,5.1293697,0.1,30.450226,1615921243000
Fix,GT,37.4444437,-122.231902,11.003976397975029,4.8393006,0.1,4.3698425,1615921244000
Fix,GT,37.444448,-122.2318674,10.901965163963991,4.7159443,0.099,330.26077,1615921245000
Fix,GT,37.4444677,-122.2318427,10.753960145591176,4.771458,0.1,296.1664,1615921246000
Fix,GT,37.4444956,-122.2318369,10.583980393057688,4.8205237,0.1,261.74994,1615921247000
Fix,GT,37.4445215,-122.2318519,10.50000573665346,4.675931,0.1,228.1588,1615921248000
Fix,GT,37.4445371,-122.231882,10.524021037902331,4.45244,0.1,199.55144,1615921249000
Fix,GT,37.4445424,-122.2319211,10.6130254634055,4.0925417,0.1,183.3205,1615921250000
Fix,GT,37.4445423,-122.2319627,10.72302514532936,3.637417,0.1,179.70111,1615921251000
Fix,GT,37.4445412,-122.2320008,10.831020613493848,3.215028,0.1,178.6977,1615921252000
Fix,GT,37.44454,-122.2320352,10.919013279733614,2.9356067,0.1,178.66888,1615921253000
Fix,GT,37.4445391,-122.2320677,10.975006938941515,2.8093426,0.1,179.24902,1615921254000
Fix,GT,37.4445386,-122.232099,11.006016407220407,2.6561484,0.1,179.8424,1615921255000
Fix,GT,37.4445384,-122.2321282,11.077027546316458,2.4150143,0.1,180.71387,1615921256000
Fix,GT,37.4445387,-122.2321554,11.195034470875864,2.4746113,0.1,181.61331,1615921257000
Fix,GT,37.4445392,-122.2321847,11.342028310880384,2.7524981,0.1,181.34422,1615921258000
Fix,GT,37.4445399,-122.2322175,11.462025689054922,3.142189,0.1,180.62883,1615921259000
Fix,GT,37.44454,-122.2322549,11.573002696159197,3.5261688,0.1,179.80963,1615921260000
Fix,GT,37.4445398,-122.2322972,11.584970563229277,3.9269843,0.1,179.25616,1615921261000
Fix,GT,37.4445392,-122.2323407,11.459029401714911,3.767384,0.1,178.25665,1615921262000
Fix,GT,37.4445379,-122.2323797,11.584035622955648,3.3076053,0.1,176.92847,1615921263000
Fix,GT,37.4445356,-122.2324139,11.735024303081444,3.1858592,0.1,173.06628,1615921264000
Fix,GT,37.4445315,-122.2324473,11.84003311950466,3.1657622,0.1,169.13342,1615921265000
Fix,GT,37.4445255,-122.2324801,11.982032820734194,3.1289935,0.1,165.57068,1615921266000
Fix,GT,37.4445181,-122.2325126,12.122040931921102,3.06805,0.1,163.39648,1615921267000
Fix,GT,37.4445098,-122.2325448,12.29603966295879,3.0437846,0.099,162.25366,1615921268000
Fix,GT,37.4445008,-122.2325776,12.467041459943053,3.297527,0.099,160.84387,1615921269000
Fix,GT,37.4444899,-122.2326129,12.645044664695684,3.6611211,0.1,157.99622,1615921270000
Fix,GT,37.4444762,-122.2326511,12.836027070388448,4.0950103,0.1,154.44641,1615921271000
Fix,GT,37.4444582,-122.2326936,12.950959432025208,4.839976,0.1,150.26941,1615921272000
Fix,GT,37.4444347,-122.2327391,12.775966093812135,5.3076124,0.1,142.92859,1615921273000
Fix,GT,37.4444051,-122.2327838,12.631960631583585,5.333743,0.1,138.86273,1615921274000
Fix,GT,37.4443735,-122.2328273,12.463959610124862,5.2859244,0.1,136.94043,1615921275000
Fix,GT,37.4443411,-122.2328682,12.290948524018692,5.3124056,0.1,132.61664,1615921276000
Fix,GT,37.444306,-122.2329053,12.069942806858178,5.380474,0.1,127.23627,1615921277000
Fix,GT,37.4442675,-122.2329388,11.826934762972408,5.50052,0.1,122.105896,1615921278000
Fix,GT,37.4442259,-122.2329697,11.54894850887927,5.4636583,0.1,119.248505,1615921279000
Fix,GT,37.4441838,-122.2330001,11.328961279293129,5.241526,0.1,119.8739,1615921280000
Fix,GT,37.4441437,-122.2330314,11.162974069168486,4.8022914,0.1,124.07028,1615921281000
Fix,GT,37.444109,-122.2330641,11.05098032629094,4.3795176,0.1,129.88873,1615921282000
Fix,GT,37.4440786,-122.2331005,10.967973915978554,4.343188,0.1,136.87253,1615921283000
Fix,GT,37.4440522,-122.2331408,10.85697123719612,4.1957607,0.1,143.91425,1615921284000
Fix,GT,37.4440311,-122.2331822,10.733973715599523,3.9056451,0.1,150.47913,1615921285000
Fix,GT,37.4440152,-122.2332222,10.620971988166623,3.4056444,0.1,155.78088,1615921286000
Fix,GT,37.4440043,-122.2332547,10.49997571803462,2.8158092,0.1,156.7478,1615921287000
Fix,GT,37.4439958,-122.2332806,10.396985931167656,1.9999392,0.1,157.77747,1615921288000
Fix,GT,37.443991,-122.2332964,10.336994270172667,0.93543154,0.1,158.59204,1615921289000
Fix,GT,37.44399,-122.2333005,10.311999789047782,0.022801168,0.1,158.85388,1615921290000
Fix,GT,37.44399,-122.2333006,10.309999776754994,0.012804421,0.099,158.85602,1615921291000
Fix,GT,37.4439901,-122.2333007,10.30999992108409,0.004999297,0.099,158.85547,1615921292000
Fix,GT,37.4439901,-122.2333007,10.31000005521113,0.002,0.1,158.85608,1615921293000
Fix,GT,37.4439901,-122.2333007,10.309999944632056,0.0020000553,0.1,158.85669,1615921294000
Fix,GT,37.4439901,-122.2333007,10.308999698468456,0.0022362848,0.1,158.85693,1615921295000
Fix,GT,37.4439901,-122.2333007,10.308999832432468,0.0031620606,0.1,158.85718,1615921296000
Fix,GT,37.4439901,-122.2333007,10.308999966396485,0.00223651,0.1,158.85748,1615921297000
Fix,GT,37.4439902,-122.2333007,10.309000090159431,0.0041247588,0.1,158.85785,1615921298000
Fix,GT,37.4439902,-122.2333007,10.309000448189384,0.0111815855,0.1,158.85803,1615921299000
Fix,GT,37.4439902,-122.2333007,10.309999733396252,0.016495744,0.1,158.8584,1615921300000
Fix,GT,37.4439903,-122.2333007,10.310000101666256,0.030678935,0.1,158.86041,1615921301000
Fix,GT,37.4439905,-122.2333008,10.310996731405584,0.04448954,0.1,158.86084,1615921302000
Fix,GT,37.4439905,-122.2333023,10.2969832746053,0.49228218,0.1,158.96185,1615921303000
Fix,GT,37.4439872,-122.2333157,10.22496676788086,2.039042,0.1,159.18903,1615921304000
Fix,GT,37.4439796,-122.2333458,10.081976827912031,3.0466905,0.1,164.11267,1615921305000
Fix,GT,37.4439731,-122.2333899,9.983962662546416,3.8741014,0.1,174.80804,1615921306000
Fix,GT,37.4439758,-122.2334487,9.824964410654427,5.101474,0.1,191.72519,1615921307000
Fix,GT,37.4439955,-122.2335198,9.672943908225513,7.0890636,0.1,204.52164,1615921308000
Fix,GT,37.4440312,-122.2336032,9.432965119403931,8.9978695,0.1,210.23402,1615921309000
Fix,GT,37.4440758,-122.2336964,9.282945197352005,10.211064,0.099,210.62909,1615921310000
Fix,GT,37.4441265,-122.2338004,9.04994744408934,11.045093,0.1,211.92111,1615921311000
Fix,GT,37.4441804,-122.2339063,8.825948494737474,11.087541,0.1,212.61594,1615921312000
Fix,GT,37.4442321,-122.2340066,8.60596194855716,9.948417,0.1,212.36673,1615921313000
Fix,GT,37.4442762,-122.2340935,8.442960151392471,8.324231,0.1,212.22536,1615921314000
Fix,GT,37.4443124,-122.234165,8.273967990713658,6.5584664,0.1,212.18759,1615921315000
Fix,GT,37.444339,-122.2342178,8.137981923096465,4.5727797,0.1,212.32832,1615921316000
Fix,GT,37.4443576,-122.2342542,8.060993978347208,3.0765998,0.1,212.41882,1615921317000
Fix,GT,37.4443686,-122.2342756,8.03499900682742,1.4684728,0.1,212.45602,1615921318000
Fix,GT,37.444373,-122.2342841,8.029998624433281,0.4803214,0.1,212.44644,1615921319000
Fix,GT,37.4443739,-122.234286,8.025000119969686,0.0041226074,0.1,212.44037,1615921320000
Fix,GT,37.4443739,-122.234286,8.026000685406208,0.0020002346,0.1,212.44225,1615921321000
Fix,GT,37.4443739,-122.234286,8.029000555219113,0.003,0.1,212.44188,1615921322000
Fix,GT,37.4443739,-122.234286,8.031000190492282,0.0029997656,0.1,212.4424,1615921323000
Fix,GT,37.4443738,-122.234286,8.030999824232888,0.002,0.1,212.44267,1615921324000
Fix,GT,37.4443738,-122.234286,8.030999928711477,0.0019997656,0.1,212.4431,1615921325000
Fix,GT,37.4443738,-122.234286,8.0310000330732,0.0009997655,0.1,212.44347,1615921326000
Fix,GT,37.4443738,-122.234286,8.031000129488007,3.318028e-07,0.1,212.44377,1615921327000
Fix,GT,37.4443738,-122.234286,8.031000452470035,0.0014144065,0.1,212.44408,1615921328000
Fix,GT,37.4443738,-122.234286,8.032000078140365,0.0022362068,0.1,212.44455,1615921329000
Fix,GT,37.4443738,-122.234286,8.033000190588384,0.0028286094,0.1,212.44484,1615921330000
Fix,GT,37.4443739,-122.234286,8.034000303064401,0.0036058787,0.1,212.44489,1615921331000
Fix,GT,37.4443739,-122.234286,8.03500042363722,0.004999822,0.1,212.44508,1615921332000
Fix,GT,37.4443739,-122.234286,8.036000065257117,0.0042424905,0.099,212.44553,1615921333000
Fix,GT,37.4443739,-122.2342861,8.037000412475537,0.0036052298,0.099,212.44577,1615921334000
Fix,GT,37.4443739,-122.2342861,8.039000274151215,0.0022367402,0.1,212.44608,1615921335000
Fix,GT,37.4443739,-122.2342861,8.040000832095144,0.0051006787,0.1,212.44656,1615921336000
Fix,GT,37.4443739,-122.2342861,8.043000465378194,0.012167796,0.1,212.44675,1615921337000
Fix,GT,37.4443738,-122.2342861,8.046000788602132,0.02184331,0.1,212.44708,1615921338000
Fix,GT,37.4443737,-122.234286,8.050000666496825,0.03454422,0.1,212.44722,1615921339000
Fix,GT,37.4443735,-122.2342859,8.052999605298233,0.05326899,0.1,212.44771,1615921340000
Fix,GT,37.4443733,-122.2342861,8.050993135452286,0.23699096,0.1,212.44713,1615921341000
Fix,GT,37.4443776,-122.2342954,8.020984291228975,1.82614,0.1,212.39212,1615921342000
Fix,GT,37.4443899,-122.2343214,7.955016324167154,3.7232463,0.1,209.36499,1615921343000
Fix,GT,37.4444042,-122.2343612,8.025019011728087,5.166441,0.1,196.81589,1615921344000
Fix,GT,37.4444103,-122.2344148,8.106032043257757,6.132363,0.1,177.65894,1615921345000
Fix,GT,37.4443997,-122.2344754,8.242013129548491,6.9367614,0.1,156.56323,1615921346000
Fix,GT,37.4443673,-122.2345373,8.297032022133616,8.197159,0.1,136.7698,1615921347000
Fix,GT,37.4443084,-122.2345965,8.434054437341198,10.030508,0.1,122.504425,1615921348000
Fix,GT,37.4442239,-122.2346559,8.666079442702816,11.8016405,0.1,118.14349,1615921349000
Fix,GT,37.4441245,-122.2347209,9.004093444980636,13.130757,0.1,117.4877,1615921350000
Fix,GT,37.4440137,-122.2347921,9.401126870543813,14.518435,0.099,117.16492,1615921351000
Fix,GT,37.4438922,-122.2348708,9.942076254620597,15.830386,0.1,117.51233,1615921352000
Fix,GT,37.4437603,-122.2349571,10.267057602282613,17.096437,0.1,117.445465,1615921353000
Fix,GT,37.4436194,-122.2350493,10.512041775152817,18.215385,0.1,117.430756,1615921354000
Fix,GT,37.4434698,-122.2351473,10.689040823261251,19.187103,0.1,117.43375,1615921355000
Fix,GT,37.4433136,-122.2352504,10.864049657013323,19.843285,0.1,117.72998,1615921356000
Fix,GT,37.4431546,-122.2353563,11.076064148047692,19.978285,0.1,117.78497,1615921357000
Fix,GT,37.4429972,-122.235462,11.349081691379428,19.683624,0.1,118.11206,1615921358000
Fix,GT,37.442841,-122.2355676,11.69615213075542,19.732706,0.1,118.01724,1615921359000
Fix,GT,37.4426846,-122.2356726,12.342176966338304,19.656063,0.1,117.61813,1615921360000
Fix,GT,37.4425287,-122.2357758,13.096244139850633,19.406416,0.1,117.43738,1615921361000
Fix,GT,37.4423766,-122.2358751,14.135263606073451,18.654764,0.1,117.10095,1615921362000
Fix,GT,37.4422311,-122.2359694,15.2562302219556,17.688847,0.1,117.170044,1615921363000
Fix,GT,37.4420931,-122.2360598,16.234186236067327,16.868286,0.1,117.47589,1615921364000
Fix,GT,37.4419616,-122.2361472,17.02819608638843,16.16419,0.1,117.79373,1615921365000
Fix,GT,37.4418348,-122.236234,17.863173762743884,15.853887,0.1,119.09366,1615921366000
Fix,GT,37.4417112,-122.2363241,18.602165587100565,15.757408,0.1,120.41998,1615921367000
Fix,GT,37.4415886,-122.2364163,19.30517502897585,16.067347,0.1,120.6102,1615921368000
Fix,GT,37.4414627,-122.236514,20.04720162025801,16.744246,0.1,121.706726,1615921369000
Fix,GT,37.4413329,-122.2366212,20.906226324092408,17.502838,0.1,124.36438,1615921370000
Fix,GT,37.4412025,-122.236743,21.86921859362465,18.239902,0.1,128.4635,1615921371000
Fix,GT,37.441074,-122.2368826,22.79825752930362,19.118135,0.1,132.53421,1615921372000
Fix,GT,37.4409484,-122.2370395,23.891257887288432,19.807842,0.099,136.50266,1615921373000
Fix,GT,37.440828,-122.2372112,24.990263869280504,20.297012,0.099,140.43292,1615921374000
Fix,GT,37.4407147,-122.2373971,26.11328849581929,20.74219,0.1,144.23611,1615921375000
Fix,GT,37.4406079,-122.2375925,27.33925640210016,21.0152,0.1,146.15302,1615921376000
Fix,GT,37.4405029,-122.2377926,28.42730033075274,21.333704,0.1,146.49622,1615921377000
Fix,GT,37.4403953,-122.2379928,29.70028390936985,21.55552,0.1,144.75034,1615921378000
Fix,GT,37.4402803,-122.238189,30.909259296606468,21.769106,0.1,142.12842,1615921379000
Fix,GT,37.4401569,-122.23838,32.0122585413389,21.982655,0.1,139.83939,1615921380000
Fix,GT,37.4400269,-122.238568,33.11026786573621,22.190266,0.1,138.38855,1615921381000
Fix,GT,37.4398925,-122.238753,34.24625339365,22.226215,0.1,136.82007,1615921382000
Fix,GT,37.4397538,-122.2389327,35.327241360427855,22.22501,0.1,134.88367,1615921383000
Fix,GT,37.4396107,-122.239106,36.35529024130608,21.957335,0.1,133.07507,1615921384000
Fix,GT,37.4394686,-122.2392729,37.58928273615333,21.351963,0.1,132.66162,1615921385000
Fix,GT,37.4393272,-122.2394295,38.78924564067031,20.728062,0.1,129.68274,1615921386000
Fix,GT,37.439184,-122.2395721,39.8292189070263,20.213173,0.1,127.26465,1615921387000
Fix,GT,37.4390384,-122.2397069,40.76321989698842,20.147633,0.1,125.445496,1615921388000
Fix,GT,37.4388894,-122.2398354,41.69918630221981,20.222933,0.1,123.36456,1615921389000
Fix,GT,37.4387357,-122.2399585,42.490134038651455,20.411324,0.1,121.829865,1615921390000
Fix,GT,37.4385775,-122.2400764,43.05711648198941,20.666798,0.1,119.18182,1615921391000
Fix,GT,37.4384132,-122.2401848,43.54708249042021,20.838667,0.099,116.05533,1615921392000
Fix,GT,37.4382435,-122.2402832,43.901052724412914,20.771029,0.1,113.53882,1615921393000
Fix,GT,37.4380734,-122.2403738,44.1260359609547,20.376373,0.1,112.223694,1615921394000
Fix,GT,37.4379051,-122.2404579,44.27704242765704,19.93064,0.1,111.10541,1615921395000
Fix,GT,37.4377395,-122.2405372,44.45301115643607,19.496742,0.099,110.431854,1615921396000
Fix,GT,37.4375767,-122.2406141,44.50504720008973,19.114248,0.099,110.661865,1615921397000
Fix,GT,37.4374153,-122.2406921,44.70707892135562,19.354736,0.1,111.14795,1615921398000
Fix,GT,37.4372515,-122.2407743,45.041106839630416,19.640116,0.1,112.28406,1615921399000
Fix,GT,37.437088,-122.2408634,45.49111552503711,19.667437,0.1,114.612335,1615921400000
Fix,GT,37.43693,-122.2409632,45.98713397421681,19.194933,0.1,118.71698,1615921401000
Fix,GT,37.4367832,-122.241075,46.55915743132483,18.449732,0.1,123.66785,1615921402000
Fix,GT,37.4366505,-122.2411985,47.22816224480992,17.722286,0.1,129.3905,1615921403000
Fix,GT,37.4365324,-122.241331,47.91513432089779,17.111197,0.1,133.26318,1615921404000
Fix,GT,37.4364242,-122.2414658,48.48114579679499,16.478468,0.1,135.4444,1615921405000
Fix,GT,37.4363248,-122.2415991,49.10515938917885,15.601119,0.1,137.6152,1615921406000
Fix,GT,37.436236,-122.2417274,49.78414476787192,14.169885,0.1,139.39252,1615921407000
Fix,GT,37.4361589,-122.2418468,50.39811921871571,12.964947,0.1,141.72266,1615921408000
Fix,GT,37.4360911,-122.241963,50.90112790800716,12.130821,0.1,145.4137,1615921409000
Fix,GT,37.4360344,-122.2420786,51.43808611496957,11.462454,0.1,150.90884,1615921410000
Fix,GT,37.4359896,-122.2421957,51.80809150042533,10.927558,0.1,158.17688,1615921411000
Fix,GT,37.4359601,-122.2423197,52.19808191344887,11.125895,0.1,168.78418,1615921412000
Fix,GT,37.4359492,-122.2424534,52.54408684665098,11.625567,0.1,179.80957,1615921413000
Fix,GT,37.4359594,-122.2425912,52.90814202759997,11.906694,0.099,190.13176,1615921414000
Fix,GT,37.4359851,-122.2427274,53.51613375595942,12.405636,0.099,196.184,1615921415000
Fix,GT,37.4360234,-122.2428652,54.0861532689766,12.935523,0.1,201.5945,1615921416000
Fix,GT,37.4360713,-122.2430043,54.73617450411173,13.658516,0.1,203.9652,1615921417000
Fix,GT,37.4361248,-122.2431472,55.47319552484294,14.069615,0.1,205.48096,1615921418000
Fix,GT,37.4361816,-122.2432906,56.296190753979815,14.104712,0.1,206.32787,1615921419000
Fix,GT,37.4362385,-122.243432,57.110183177199886,13.964686,0.1,205.99368,1615921420000
Fix,GT,37.4362944,-122.2435726,57.88919195132927,13.846225,0.1,206.02058,1615921421000
Fix,GT,37.4363506,-122.2437122,58.70219891995449,13.794344,0.1,206.87447,1615921422000
Fix,GT,37.4364095,-122.243852,59.54120466217398,14.076032,0.1,208.08691,1615921423000
Fix,GT,37.4364742,-122.243992,60.41619092119258,14.216084,0.1,211.96967,1615921424000
Fix,GT,37.4365474,-122.2441272,61.23020327313215,14.329687,0.1,215.93166,1615921425000
Fix,GT,37.4366268,-122.2442567,62.093200484722914,14.270404,0.1,218.59904,1615921426000
Fix,GT,37.4367078,-122.2443787,62.94120050377799,13.629095,0.1,220.21994,1615921427000
Fix,GT,37.436787,-122.2444929,63.785184647739015,13.086912,0.1,221.2745,1615921428000
Fix,GT,37.4368645,-122.244601,64.57417290763213,12.652183,0.1,222.10391,1615921429000
Fix,GT,37.4369415,-122.2447055,65.3101564656854,12.429595,0.1,223.1004,1615921430000
Fix,GT,37.4370192,-122.2448077,65.97314890305941,12.582201,0.1,223.4114,1615921431000
Fix,GT,37.4371,-122.2449143,66.60015875365511,13.779736,0.1,223.23459,1615921432000
Fix,GT,37.4371901,-122.2450338,67.2651596574405,15.267369,0.099,223.10454,1615921433000
Fix,GT,37.4372879,-122.2451647,67.94716620170637,16.448717,0.1,222.50426,1615921434000
Fix,GT,37.4373898,-122.245304,68.65316716814887,17.029236,0.1,222.1172,1615921435000
Fix,GT,37.4374946,-122.2454489,69.35917580343767,17.639729,0.1,222.05222,1615921436000
Fix,GT,37.4376026,-122.245597,70.0981680760314,17.646606,0.099,222.7733,1615921437000
Fix,GT,37.43771,-122.2457406,70.81817229134217,17.137325,0.099,223.31787,1615921438000
Fix,GT,37.4378157,-122.2458787,71.55217543721317,16.764812,0.099,224.16397,1615921439000
Fix,GT,37.4379222,-122.2460155,72.29616670386366,17.18591,0.1,223.94794,1615921440000
Fix,GT,37.4380321,-122.2461596,72.99919340646485,18.339735,0.1,222.74199,1615921441000
Fix,GT,37.4381475,-122.2463177,73.81120046007501,19.665817,0.1,221.9878,1615921442000
Fix,GT,37.4382698,-122.2464886,74.66722173052484,21.031408,0.1,221.31454,1615921443000
Fix,GT,37.4383988,-122.246673,75.60922405743366,22.445759,0.1,221.15901,1615921444000
Fix,GT,37.438538,-122.2468688,76.55722924007904,23.856852,0.1,222.35342,1615921445000
Fix,GT,37.4386905,-122.2470713,77.52325035046265,25.252054,0.1,224.41014,1615921446000
Fix,GT,37.4388568,-122.2472782,78.57425696693691,26.613747,0.1,225.71265,1615921447000
Fix,GT,37.4390331,-122.2474932,79.66826768104008,27.987007,0.1,225.38596,1615921448000
Fix,GT,37.4392162,-122.2477205,80.80328204103037,29.21012,0.1,224.84131,1615921449000
Fix,GT,37.4394047,-122.2479583,81.99528974343332,30.207905,0.1,224.40833,1615921450000
Fix,GT,37.4395983,-122.248206,83.21529449443801,31.225243,0.1,224.06104,1615921451000
Fix,GT,37.4397973,-122.2484633,84.471317546869,32.248253,0.1,223.84795,1615921452000
Fix,GT,37.4400023,-122.2487295,85.82032527660449,33.233334,0.1,223.95232,1615921453000
Fix,GT,37.440214,-122.2490023,87.1973210808468,33.980827,0.1,224.13356,1615921454000
Fix,GT,37.4404279,-122.2492785,88.55131966902013,34.109684,0.1,223.81259,1615921455000
Fix,GT,37.4406408,-122.2495563,89.89432365796165,34.141834,0.099,223.6118,1615921456000
Fix,GT,37.440853,-122.2498354,91.27131467316082,34.107105,0.1,223.42596,1615921457000
Fix,GT,37.4410634,-122.2501129,92.6053091749046,33.5559,0.1,223.47763,1615921458000
Fix,GT,37.44127,-122.2503849,93.91133273222808,32.989006,0.1,223.72626,1615921459000
Fix,GT,37.441475,-122.2506521,95.31132928087732,32.65862,0.1,223.84778,1615921460000
Fix,GT,37.4416777,-122.250917,96.7153295724679,32.300884,0.1,223.75493,1615921461000
Fix,GT,37.4418783,-122.2511798,98.11532740150142,32.174744,0.1,223.90414,1615921462000
Fix,GT,37.4420774,-122.2514426,99.50031466333508,32.047523,0.1,223.17442,1615921463000
Fix,GT,37.442272,-122.2517089,100.82630668535992,32.04391,0.1,221.53014,1615921464000
Fix,GT,37.4424583,-122.2519825,102.11329950538162,31.912836,0.1,218.9671,1615921465000
Fix,GT,37.4426329,-122.2522665,103.39029411144506,31.790272,0.1,216.06247,1615921466000
Fix,GT,37.4427965,-122.2525585,104.63929035339534,31.571772,0.1,213.95444,1615921467000
Fix,GT,37.4429517,-122.2528564,105.86529566282576,31.622004,0.1,212.18347,1615921468000
Fix,GT,37.4430994,-122.2531612,107.10829354554252,31.646519,0.1,210.26958,1615921469000
Fix,GT,37.4432389,-122.2534721,108.33629482336129,31.681393,0.1,208.43915,1615921470000
Fix,GT,37.4433713,-122.2537887,109.59130226487984,31.781155,0.1,206.77364,1615921471000
Fix,GT,37.4434962,-122.2541116,110.87130359293394,31.989384,0.1,204.88939,1615921472000
Fix,GT,37.4436136,-122.2544426,112.15030484453315,32.29929,0.1,202.86632,1615921473000
Fix,GT,37.4437221,-122.2547817,113.42830279368908,32.58047,0.099,200.7277,1615921474000
Fix,GT,37.4438214,-122.2551291,114.71931420730868,32.93359,0.1,198.6219,1615921475000
Fix,GT,37.4439119,-122.2554844,116.05231134253675,33.27592,0.1,196.71793,1615921476000
Fix,GT,37.4439937,-122.2558469,117.3663173871346,33.585114,0.1,194.78117,1615921477000
Fix,GT,37.4440663,-122.2562159,118.6992982651012,33.8713,0.1,192.7658,1615921478000
Fix,GT,37.4441291,-122.2565902,119.94527190025336,34.02119,0.099,190.81711,1615921479000
Fix,GT,37.4441815,-122.256969,121.1042537058192,34.230843,0.099,188.60022,1615921480000
Fix,GT,37.4442224,-122.2573521,122.1802379013988,34.369686,0.1,186.32811,1615921481000
Fix,GT,37.4442511,-122.2577385,123.18320946725756,34.552525,0.1,183.95966,1615921482000
Fix,GT,37.4442671,-122.258128,124.05918738205509,34.702858,0.1,181.56308,1615921483000
Fix,GT,37.4442707,-122.2585196,124.86616130086112,34.78089,0.1,179.39221,1615921484000
Fix,GT,37.4442621,-122.258911,125.55612435219084,34.714584,0.1,177.14948,1615921485000
Fix,GT,37.4442423,-122.2593014,126.08309864835616,34.69897,0.1,175.28522,1615921486000
Fix,GT,37.4442143,-122.2596912,126.49507461081583,34.641056,0.1,174.33148,1615921487000
Fix,GT,37.4441827,-122.2600788,126.79904822711184,34.278027,0.1,173.89056,1615921488000
Fix,GT,37.4441504,-122.2604612,127.01703483264528,33.769764,0.1,174.02252,1615921489000
Fix,GT,37.4441202,-122.2608385,127.17205069170365,33.359898,0.1,174.40973,1615921490000
Fix,GT,37.4440923,-122.2612126,127.38705768640725,33.095436,0.1,174.73859,1615921491000
Fix,GT,37.444066,-122.2615831,127.62404703857116,32.727158,0.1,174.75543,1615921492000
Fix,GT,37.4440391,-122.2619489,127.80904547923338,32.309906,0.1,174.5108,1615921493000
Fix,GT,37.4440112,-122.2623097,128.01203872634966,31.865795,0.1,174.28534,1615921494000
Fix,GT,37.4439832,-122.2626656,128.180025947174,31.4405,0.1,174.20801,1615921495000
Fix,GT,37.4439555,-122.2630169,128.28703661743833,31.030231,0.1,174.23468,1615921496000
Fix,GT,37.4439282,-122.2633634,128.43202365958064,30.604158,0.099,174.21198,1615921497000
Fix,GT,37.4439012,-122.2637052,128.54702625608022,30.185257,0.099,174.28168,1615921498000
Fix,GT,37.4438766,-122.264043,128.66700271227722,29.761183,0.1,175.27844,1615921499000
Fix,GT,37.4438587,-122.2643775,128.6799915716704,29.372917,0.1,177.49701,1615921500000
Fix,GT,37.443852,-122.2647083,128.6399835318653,29.051521,0.1,179.42188,1615921501000
Fix,GT,37.4438528,-122.2650381,128.5589639255632,29.233534,0.1,180.9044,1615921502000
Fix,GT,37.4438613,-122.2653702,128.41995422394123,29.404076,0.1,182.7842,1615921503000
Fix,GT,37.4438778,-122.265704,128.23294131065097,29.647991,0.1,184.2624,1615921504000
Fix,GT,37.4439012,-122.2660394,127.98492684080368,29.779703,0.1,185.78288,1615921505000
Fix,GT,37.4439328,-122.2663751,127.6699148579906,29.881733,0.1,187.71985,1615921506000
Fix,GT,37.4439738,-122.2667106,127.29789340060552,29.948103,0.1,189.84514,1615921507000
Fix,GT,37.4440236,-122.2670443,126.85989742289438,30.063843,0.1,191.06029,1615921508000
Fix,GT,37.4440782,-122.2673794,126.43189893949416,30.384346,0.1,192.20207,1615921509000
Fix,GT,37.444141,-122.2677159,126.00390246611066,30.563679,0.1,194.16965,1615921510000
Fix,GT,37.4442127,-122.2680508,125.583898160482,30.644102,0.1,195.99214,1615921511000
Fix,GT,37.4442935,-122.2683837,125.13889325905852,30.740696,0.1,197.98555,1615921512000
Fix,GT,37.4443836,-122.2687137,124.69789346995692,30.840326,0.1,199.7875,1615921513000
Fix,GT,37.4444824,-122.2690414,124.24987884718298,31.074467,0.1,201.61172,1615921514000
Fix,GT,37.4445897,-122.2693698,123.73289740020006,31.62577,0.1,203.05365,1615921515000
Fix,GT,37.4447064,-122.2697001,123.28690456276529,32.17555,0.1,204.86392,1615921516000
Fix,GT,37.4448346,-122.2700308,122.89488694877524,32.657883,0.1,207.07448,1615921517000
Fix,GT,37.4449736,-122.2703604,122.4229059633592,33.189648,0.1,208.9046,1615921518000
Fix,GT,37.4451248,-122.2706894,122.02493243515087,33.889526,0.1,211.14015,1615921519000
Fix,GT,37.4452893,-122.2710181,121.73296293960006,34.651577,0.1,212.81151,1615921520000
Fix,GT,37.4454641,-122.2713488,121.56298501478967,35.40089,0.099,214.28775,1615921521000
Fix,GT,37.4456502,-122.2716797,121.51002027087976,36.09475,0.1,216.20474,1615921522000
Fix,GT,37.4458487,-122.2720081,121.59906620293548,36.67105,0.1,218.14337,1615921523000
Fix,GT,37.4460593,-122.2723332,121.87509257551028,37.24205,0.1,220.2526,1615921524000
Fix,GT,37.4462804,-122.2726546,122.25611285935554,37.78233,0.1,221.30658,1615921525000
Fix,GT,37.4465081,-122.2729761,122.7471350836103,38.27226,0.1,221.72546,1615921526000
Fix,GT,37.4467388,-122.2733002,123.32517073162327,38.73499,0.1,221.27786,1615921527000
Fix,GT,37.4469708,-122.2736324,124.04620045878256,39.4398,0.1,220.87201,1615921528000
Fix,GT,37.4472061,-122.2739713,124.88624787583854,40.055145,0.1,221.0698,1615921529000
Fix,GT,37.4474454,-122.2743137,125.9202682496632,40.435432,0.1,221.25201,1615921530000
Fix,GT,37.4476872,-122.2746572,127.06527189328104,40.61097,0.1,221.45938,1615921531000
Fix,GT,37.4479303,-122.2750013,128.21928222921193,40.756275,0.1,221.3049,1615921532000
Fix,GT,37.4481732,-122.2753473,129.40928700990287,40.856815,0.1,221.15479,1615921533000
Fix,GT,37.4484164,-122.2756947,130.61227782275222,40.93271,0.1,221.26228,1615921534000
Fix,GT,37.4486605,-122.2760422,131.7692747062555,41.017662,0.1,221.15714,1615921535000
Fix,GT,37.4489032,-122.2763912,132.93827025397934,40.9631,0.1,220.76422,1615921536000
Fix,GT,37.4491438,-122.2767411,134.08125003238908,40.823494,0.1,220.53224,1615921537000
Fix,GT,37.4493819,-122.2770916,135.132223661141,40.725914,0.1,219.91974,1615921538000
Fix,GT,37.4496165,-122.2774447,136.06517679673502,40.676132,0.1,219.43295,1615921539000
Fix,GT,37.4498497,-122.2777989,136.793152034758,40.57989,0.099,219.38751,1615921540000
Fix,GT,37.4500818,-122.278153,137.44416070397546,40.611073,0.1,219.2809,1615921541000
Fix,GT,37.4503145,-122.2785086,138.1241236665865,40.759895,0.1,219.3149,1615921542000
Fix,GT,37.4505481,-122.2788654,138.64107728313533,40.95553,0.1,219.3505,1615921543000
Fix,GT,37.4507842,-122.2792233,138.9550314020323,41.242535,0.1,219.69287,1615921544000
Fix,GT,37.4510228,-122.2795826,139.10300538590093,41.4908,0.1,219.64426,1615921545000
Fix,GT,37.4512624,-122.2799441,139.1349968453145,41.68152,0.1,219.65639,1615921546000
Fix,GT,37.4515022,-122.2803067,139.12396350695946,41.71772,0.1,219.45555,1615921547000
Fix,GT,37.451741,-122.2806709,138.96495594913063,41.74922,0.1,219.23795,1615921548000
Fix,GT,37.4519793,-122.2810358,138.7658976605637,41.667873,0.1,219.36095,1615921549000
Fix,GT,37.4522178,-122.2813984,138.34988175130448,41.505856,0.1,219.63464,1615921550000
Fix,GT,37.4524562,-122.281759,137.85985585242722,41.412083,0.1,219.53554,1615921551000
Fix,GT,37.4526937,-122.2821194,137.25383530266996,41.37161,0.1,219.4758,1615921552000
Fix,GT,37.4529311,-122.2824805,136.5538060773845,41.459526,0.1,219.33298,1615921553000
Fix,GT,37.4531687,-122.2828432,135.7227788138358,41.670956,0.1,219.32365,1615921554000
Fix,GT,37.4534075,-122.2832085,134.80377864312436,41.91882,0.1,219.21754,1615921555000
Fix,GT,37.4536469,-122.2835757,133.87778584468307,42.02105,0.1,219.23245,1615921556000
Fix,GT,37.4538873,-122.2839431,132.97477520506015,42.057884,0.1,219.49097,1615921557000
Fix,GT,37.4541288,-122.2843095,132.0197867411597,42.072506,0.1,219.54982,1615921558000
Fix,GT,37.4543708,-122.2846761,131.106774416615,42.123123,0.1,219.59322,1615921559000
Fix,GT,37.4546131,-122.2850424,130.16777991570805,42.101925,0.1,219.61412,1615921560000
Fix,GT,37.4548547,-122.2854086,129.2447791938477,42.054916,0.1,219.4977,1615921561000
Fix,GT,37.4550955,-122.2857738,128.31277859549382,41.729233,0.1,219.5434,1615921562000
Fix,GT,37.4553343,-122.2861355,127.37076288363907,41.377113,0.099,219.57039,1615921563000
Fix,GT,37.4555707,-122.2864944,126.3877511055034,41.02835,0.099,219.4247,1615921564000
Fix,GT,37.455806,-122.2868503,125.34878791656251,40.749996,0.1,219.90353,1615921565000
Fix,GT,37.4560432,-122.2872007,124.45785928972178,40.48809,0.1,221.04228,1615921566000
Fix,GT,37.4562871,-122.2875402,123.86092198132384,40.173428,0.1,223.65155,1615921567000
Fix,GT,37.4565426,-122.287862,123.5209632860254,39.98126,0.1,226.53677,1615921568000
Fix,GT,37.4568102,-122.2881673,123.37900935049402,40.043755,0.1,229.50069,1615921569000
Fix,GT,37.4570903,-122.2884551,123.42407252669553,40.058712,0.1,232.31427,1615921570000
Fix,GT,37.4573796,-122.2887262,123.72913334474512,39.901817,0.1,234.27075,1615921571000
Fix,GT,37.4576753,-122.2889826,124.28317254670336,39.633873,0.1,236.83206,1615921572000
Fix,GT,37.4579781,-122.2892199,124.99518149225656,39.38617,0.1,239.53214,1615921573000
Fix,GT,37.4582875,-122.2894378,125.76918824196837,39.16846,0.1,242.15143,1615921574000
Fix,GT,37.458603,-122.2896368,126.56419441053724,38.993687,0.1,244.72855,1615921575000
Fix,GT,37.4589232,-122.2898184,127.37819668790044,38.807793,0.1,246.9245,1615921576000
Fix,GT,37.4592471,-122.2899823,128.19416219739648,38.41519,0.1,249.436,1615921577000
Fix,GT,37.4595715,-122.2901262,128.8901775518634,37.773033,0.1,251.77106,1615921578000
Fix,GT,37.4598953,-122.2902514,129.64317374386144,37.23704,0.1,254.07466,1615921579000
Fix,GT,37.4602178,-122.2903611,130.3742126642826,36.80543,0.1,255.75598,1615921580000
Fix,GT,37.4605405,-122.2904547,131.2621765389063,36.542194,0.1,258.52164,1615921581000
Fix,GT,37.4608662,-122.2905275,131.99216766382102,36.583366,0.099,261.8398,1615921582000
Fix,GT,37.4611944,-122.2905789,132.71117900223172,36.681995,0.1,263.69598,1615921583000
Fix,GT,37.4615248,-122.2906175,133.4712114005709,36.769474,0.1,265.84195,1615921584000
Fix,GT,37.4618562,-122.2906409,134.36120870512966,36.711376,0.1,267.72638,1615921585000
Fix,GT,37.4621867,-122.2906538,135.23418012245148,36.59507,0.1,268.59943,1615921586000
Fix,GT,37.4625155,-122.2906618,135.9801611978767,36.338787,0.099,268.67953,1615921587000
Fix,GT,37.4628401,-122.2906706,136.6731679617069,35.710648,0.099,268.58127,1615921588000
Fix,GT,37.4631591,-122.2906788,137.38717817737452,35.018997,0.1,269.29752,1615921589000
Fix,GT,37.4634718,-122.2906804,138.13721578064076,34.29914,0.1,270.29596,1615921590000
Fix,GT,37.4637773,-122.2906785,139.03819452152928,33.54791,0.1,270.11066,1615921591000
Fix,GT,37.4640758,-122.290681,139.8421092419416,32.8211,0.1,268.85693,1615921592000
Fix,GT,37.4643679,-122.290692,140.31510801012985,32.18244,0.1,267.61432,1615921593000
Fix,GT,37.4646538,-122.2907119,140.77409875062654,31.548904,0.1,265.76874,1615921594000
Fix,GT,37.4649334,-122.2907425,141.1870829742627,30.933964,0.1,263.89917,1615921595000
Fix,GT,37.4652068,-122.2907838,141.52607801428385,30.343105,0.1,262.25357,1615921596000
Fix,GT,37.4654743,-122.2908327,141.83706213214458,29.824276,0.1,261.01047,1615921597000
Fix,GT,37.4657378,-122.2908885,142.10906931097884,29.63053,0.1,259.7585,1615921598000
Fix,GT,37.4659995,-122.2909485,142.40408588078446,29.334913,0.1,260.028,1615921599000
Fix,GT,37.4662579,-122.2910048,142.76208117087722,28.781078,0.1,260.31537,1615921600000
Fix,GT,37.4665088,-122.2910596,143.093081134895,27.783857,0.1,259.5475,1615921601000
Fix,GT,37.4667501,-122.2911196,143.41599515782352,26.99642,0.1,257.72583,1615921602000
Fix,GT,37.4669847,-122.291187,143.4059181851505,26.596777,0.1,256.35507,1615921603000
Fix,GT,37.4672148,-122.2912598,143.06485449347383,25.943583,0.1,255.1888,1615921604000
Fix,GT,37.4674327,-122.2913342,142.44986014359353,24.2715,0.1,254.04636,1615921605000
Fix,GT,37.4676351,-122.2914101,141.8508006310529,22.886404,0.099,252.31854,1615921606000
Fix,GT,37.4678245,-122.2914895,141.02977041208936,21.453209,0.099,250.41583,1615921607000
Fix,GT,37.4679968,-122.2915678,140.07477243316046,19.302534,0.1,249.54768,1615921608000
Fix,GT,37.4681512,-122.29164,139.12178028996482,17.434687,0.1,249.43698,1615921609000
Fix,GT,37.4682917,-122.2917054,138.1948300587987,15.480032,0.1,250.31856,1615921610000
Fix,GT,37.4684127,-122.2917579,137.4698929277788,12.740941,0.1,251.79195,1615921611000
Fix,GT,37.4685128,-122.2917984,137.0369419983586,10.493861,0.1,252.48454,1615921612000
Fix,GT,37.4685916,-122.2918296,136.80297894366964,7.8600726,0.1,251.9399,1615921613000
Fix,GT,37.468645,-122.2918536,136.71599144528932,5.0091963,0.1,247.95181,1615921614000
Fix,GT,37.4686724,-122.2918688,136.6740039448914,2.144738,0.1,244.64542,1615921615000
Fix,GT,37.4686833,-122.2918758,136.6769974372778,0.6893226,0.1,243.8353,1615921616000
Fix,GT,37.4686876,-122.291879,136.68000207554738,0.6913762,0.1,243.58176,1615921617000
Fix,GT,37.4686914,-122.2918818,136.69500191085038,0.19419786,0.1,243.28185,1615921618000
Fix,GT,37.4686949,-122.2918848,136.70300842061232,1.024579,0.1,242.80267,1615921619000
Fix,GT,37.4687098,-122.2918957,136.7320260323967,3.2548776,0.1,237.31488,1615921620000
Fix,GT,37.4687332,-122.2919197,136.8280351559985,4.767705,0.1,221.79333,1615921621000
Fix,GT,37.468753,-122.2919622,136.98903731056703,6.2797184,0.1,196.75455,1615921622000
Fix,GT,37.4687562,-122.2920254,137.15101272919614,7.4792786,0.1,170.71167,1615921623000
Fix,GT,37.4687339,-122.2921039,137.20299482560733,9.123102,0.1,152.48505,1615921624000
Fix,GT,37.4686866,-122.2921946,137.17299326908488,10.969183,0.1,142.22052,1615921625000
Fix,GT,37.4686176,-122.292294,137.12897215944918,12.908456,0.099,136.48688,1615921626000
Fix,GT,37.468531,-122.2924047,137.02493667289633,14.474757,0.1,135.34192,1615921627000
Fix,GT,37.4684369,-122.2925226,136.76291092101056,14.844952,0.1,135.26184,1615921628000
Fix,GT,37.4683442,-122.2926429,136.38488631608524,14.640434,0.1,137.5141,1615921629000
Fix,GT,37.4682557,-122.2927647,135.89686629703502,14.378925,0.1,138.05453,1615921630000
Fix,GT,37.4681723,-122.2928799,135.31985301854672,13.217593,0.099,136.5553,1615921631000
Fix,GT,37.4680955,-122.2929813,134.71484213306894,11.574064,0.099,135.90244,1615921632000
Fix,GT,37.4680284,-122.293071,134.05685746804042,9.961085,0.1,138.18884,1615921633000
Fix,GT,37.4679752,-122.2931601,133.45582939909818,8.9306965,0.1,149.5792,1615921634000
Fix,GT,37.467942,-122.2932604,132.72881958461545,8.831515,0.1,165.77344,1615921635000
Fix,GT,37.4679374,-122.2933727,131.9879383224232,8.982581,0.1,189.59244,1615921636000
Fix,GT,37.4679697,-122.2934804,131.73801492959873,9.724171,0.1,211.60352,1615921637000
Fix,GT,37.4680345,-122.2935802,131.80302701105214,11.963721,0.1,224.85931,1615921638000
Fix,GT,37.4681228,-122.2936807,131.91203466829356,14.020122,0.1,228.49731,1615921639000
Fix,GT,37.4682238,-122.2937916,132.0471095186752,15.773815,0.1,227.97377,1615921640000
Fix,GT,37.4683326,-122.293912,132.52213902245228,16.148354,0.1,228.15022,1615921641000
Fix,GT,37.4684414,-122.2940295,133.1141574555908,15.507607,0.1,229.29385,1615921642000
Fix,GT,37.4685484,-122.2941373,133.77617481880426,14.7373,0.1,231.958,1615921643000
Fix,GT,37.4686561,-122.294233,134.5042117723326,13.951019,0.1,238.4326,1615921644000
Fix,GT,37.4687715,-122.2943,135.38022120968236,13.030654,0.1,252.23032,1615921645000
Fix,GT,37.4688899,-122.2943263,136.32320612162778,12.386134,0.1,268.12817,1615921646000
Fix,GT,37.4690077,-122.2943087,137.1961990689393,12.719082,0.1,285.24158,1615921647000
Fix,GT,37.4691214,-122.294244,138.032182689344,13.276046,0.1,303.36966,1615921648000
Fix,GT,37.4692166,-122.2941343,138.79319401837256,13.976696,0.1,321.3707,1615921649000
Fix,GT,37.4692849,-122.2939861,139.59521477504077,15.081757,0.1,338.14062,1615921650000
Fix,GT,37.4693188,-122.2938052,140.4782393045324,16.08306,0.099,355.7693,1615921651000
Fix,GT,37.4693071,-122.2936149,141.4912206036051,16.123096,0.1,14.147888,1615921652000
Fix,GT,37.469248,-122.2934378,142.41816682693644,16.450891,0.1,32.42801,1615921653000
Fix,GT,37.4691464,-122.2932852,143.1121257176281,17.614044,0.1,46.41931,1615921654000
Fix,GT,37.4690213,-122.2931489,143.62610256272924,19.020372,0.1,50.230865,1615921655000
Fix,GT,37.4688794,-122.2930062,144.07104720774535,21.160954,0.1,52.18393,1615921656000
Fix,GT,37.4687185,-122.2928552,144.27696319805804,23.304667,0.1,53.975952,1615921657000
Fix,GT,37.4685373,-122.292696,144.12395417658857,25.625853,0.1,56.036835,1615921658000
Fix,GT,37.4683333,-122.2925322,143.92594070776806,27.734123,0.1,58.865356,1615921659000
Fix,GT,37.4681086,-122.2923711,143.66493204468375,29.454865,0.1,61.74115,1615921660000
Fix,GT,37.4678656,-122.2922136,143.3969438984259,31.116234,0.1,63.271606,1615921661000
Fix,GT,37.4676062,-122.2920554,143.171910642572,32.737823,0.1,65.14365,1615921662000
Fix,GT,37.4673291,-122.291901,142.79993423710422,34.396576,0.1,67.16907,1615921663000
Fix,GT,37.4670347,-122.2917523,142.5189217031606,35.748104,0.1,69.467834,1615921664000
Fix,GT,37.4667249,-122.2916147,142.17891119606793,37.061066,0.1,71.377014,1615921665000
Fix,GT,37.4664033,-122.2914809,141.8239059751686,38.09425,0.1,71.94537,1615921666000
Fix,GT,37.4660693,-122.2913541,141.4399101065327,39.03021,0.1,74.93799,1615921667000
Fix,GT,37.465724,-122.291248,141.0649119355381,39.551613,0.1,78.0061,1615921668000
Fix,GT,37.4653737,-122.2911616,140.68989473668958,39.368465,0.1,80.1568,1615921669000
Fix,GT,37.4650245,-122.2910917,140.23589851942444,38.941853,0.099,82.14282,1615921670000
Fix,GT,37.4646778,-122.2910374,139.82687405395183,38.454994,0.1,83.94342,1615921671000
Fix,GT,37.4643341,-122.2909983,139.30787753766256,37.973923,0.1,86.06198,1615921672000
Fix,GT,37.463994,-122.2909746,138.795887939936,37.48183,0.1,87.72034,1615921673000
Fix,GT,37.4636584,-122.2909601,138.3198581740372,37.02305,0.1,88.3118,1615921674000
Fix,GT,37.4633268,-122.2909491,137.7118357154286,36.61438,0.099,88.54666,1615921675000
Fix,GT,37.462999,-122.2909385,137.0368273261003,36.18266,0.099,88.52515,1615921676000
Fix,GT,37.4626747,-122.2909289,136.31988299010166,35.805443,0.1,88.77554,1615921677000
Fix,GT,37.4623546,-122.2909197,135.82890876151055,35.115086,0.1,88.55249,1615921678000
Fix,GT,37.4620451,-122.2909087,135.43891707188612,33.554077,0.1,88.1604,1615921679000
Fix,GT,37.4617511,-122.2908943,135.07687486532086,31.86785,0.1,87.17374,1615921680000
Fix,GT,37.46147,-122.2908728,134.5658513758789,30.8982,0.1,85.54309,1615921681000
Fix,GT,37.4611983,-122.2908409,133.9498520261132,29.86215,0.1,83.37689,1615921682000
Fix,GT,37.460937,-122.290798,133.32986342113284,28.884382,0.1,81.59042,1615921683000
Fix,GT,37.4606841,-122.2907469,132.7508658236277,28.088598,0.1,79.94037,1615921684000
Fix,GT,37.4604385,-122.290688,132.17586968813282,27.695402,0.1,78.158966,1615921685000
Fix,GT,37.4601967,-122.2906197,131.6428612259408,27.508062,0.1,76.28473,1615921686000
Fix,GT,37.4599581,-122.2905426,131.06786616770916,27.3486,0.1,74.613464,1615921687000
Fix,GT,37.4597224,-122.2904571,130.50587179173996,27.283648,0.1,73.01019,1615921688000
Fix,GT,37.4594883,-122.2903638,129.9608812307227,27.32238,0.1,71.44409,1615921689000
Fix,GT,37.4592569,-122.2902624,129.44887789935615,27.232912,0.1,69.940216,1615921690000
Fix,GT,37.4590286,-122.2901531,128.94986831779923,27.238146,0.1,68.16727,1615921691000
Fix,GT,37.4588009,-122.2900345,128.4048600643822,27.737175,0.1,66.53784,1615921692000
Fix,GT,37.4585718,-122.2899054,127.81785859054251,28.080793,0.1,64.82089,1615921693000
Fix,GT,37.4583442,-122.2897662,127.218869319669,28.284845,0.1,62.914856,1615921694000
Fix,GT,37.4581188,-122.2896164,126.65787103844194,28.517,0.099,61.04126,1615921695000
Fix,GT,37.4578959,-122.2894577,126.12987721718343,28.455599,0.1,59.621277,1615921696000
Fix,GT,37.4576775,-122.2892923,125.62189451890988,28.374084,0.1,57.88669,1615921697000
Fix,GT,37.4574622,-122.2891182,125.17992832271815,28.627941,0.1,56.365173,1615921698000
Fix,GT,37.4572495,-122.2889351,124.87295350833044,28.849434,0.1,54.456635,1615921699000
Fix,GT,37.4570396,-122.288741,124.66497281251856,29.211407,0.099,52.505737,1615921700000
Fix,GT,37.4568327,-122.2885353,124.56298461039852,29.561762,0.099,50.444855,1615921701000
Fix,GT,37.4566299,-122.2883185,124.5030248729328,29.74034,0.1,48.475006,1615921702000
Fix,GT,37.4564326,-122.2880932,124.60606085139058,29.55283,0.1,46.578857,1615921703000
Fix,GT,37.4562426,-122.2878621,124.85207923896448,29.46021,0.1,44.971527,1615921704000
Fix,GT,37.4560582,-122.2876237,125.16810058701084,29.479803,0.1,43.055023,1615921705000
Fix,GT,37.4558811,-122.2873786,125.59810341374758,29.179392,0.1,41.1604,1615921706000
Fix,GT,37.4557118,-122.2871304,126.03308109823988,28.705101,0.1,39.97058,1615921707000
Fix,GT,37.4555482,-122.2868831,126.36908632504692,28.274687,0.1,39.52826,1615921708000
Fix,GT,37.4553859,-122.286638,126.72112233852104,28.121208,0.1,39.718292,1615921709000
Fix,GT,37.4552243,-122.2863944,127.217135443594,27.929602,0.1,39.55771,1615921710000
Fix,GT,37.4550646,-122.286152,127.7941557624494,27.778442,0.1,39.436493,1615921711000
Fix,GT,37.4549053,-122.2859092,128.45014424334482,27.917322,0.1,39.172302,1615921712000
Fix,GT,37.454746,-122.285664,129.05214987177615,28.104961,0.1,39.096985,1615921713000
Fix,GT,37.4545848,-122.2854167,129.67115442469225,28.403505,0.1,39.35022,1615921714000
Fix,GT,37.4544213,-122.2851675,130.30315207724934,28.704258,0.1,39.35385,1615921715000
Fix,GT,37.4542562,-122.2849159,130.95115087448795,28.991617,0.1,39.390137,1615921716000
Fix,GT,37.4540884,-122.2846603,131.58814886031857,29.591553,0.1,39.325806,1615921717000
Fix,GT,37.4539172,-122.2843999,132.21016290964067,30.023376,0.1,39.600616,1615921718000
Fix,GT,37.4537439,-122.2841386,132.88415972893426,30.08751,0.1,39.69998,1615921719000
Fix,GT,37.4535706,-122.2838773,133.53816633311155,30.056469,0.099,39.617188,1615921720000
Fix,GT,37.4533983,-122.2836163,134.2461382237002,29.947868,0.099,39.449127,1615921721000
Fix,GT,37.4532269,-122.2833555,134.8301485715541,29.888088,0.1,39.300262,1615921722000
Fix,GT,37.4530566,-122.2830949,135.45113175328683,29.640783,0.1,39.3179,1615921723000
Fix,GT,37.4528883,-122.2828383,135.9951209352005,29.146917,0.1,39.39685,1615921724000
Fix,GT,37.4527228,-122.2825864,136.48710065815624,28.629318,0.1,39.35959,1615921725000
Fix,GT,37.45256,-122.282339,136.9220907922522,28.119223,0.1,39.560577,1615921726000
Fix,GT,37.4523994,-122.2820968,137.30907145052623,27.626339,0.1,39.67206,1615921727000
Fix,GT,37.4522413,-122.281858,137.60907132421218,27.399225,0.1,39.660187,1615921728000
Fix,GT,37.4520826,-122.281619,137.90105582928518,27.703714,0.1,39.718994,1615921729000
Fix,GT,37.4519218,-122.2813766,138.12204648637564,28.184072,0.1,39.398926,1615921730000
Fix,GT,37.4517588,-122.2811272,138.3320368772047,28.840408,0.1,39.139404,1615921731000
Fix,GT,37.4515936,-122.2808733,138.49502727011242,29.07383,0.1,39.1037,1615921732000
Fix,GT,37.4514286,-122.2806199,138.61101564903413,28.797544,0.1,39.19586,1615921733000
Fix,GT,37.4512651,-122.2803696,138.67100224747657,28.478008,0.1,39.278168,1615921734000
Fix,GT,37.4511027,-122.2801205,138.6669848554393,28.574636,0.1,39.136414,1615921735000
Fix,GT,37.4509391,-122.2798683,138.6179772695834,29.00789,0.1,38.959015,1615921736000
Fix,GT,37.4507722,-122.2796116,138.5309620468127,29.573883,0.1,39.369354,1615921737000
Fix,GT,37.4506015,-122.2793519,138.3729447599152,29.970037,0.1,39.487396,1615921738000
Fix,GT,37.450429,-122.2790893,138.13594459556435,30.241928,0.1,39.387573,1615921739000
Fix,GT,37.450255,-122.2788242,137.8918992738647,30.490252,0.099,39.58252,1615921740000
Fix,GT,37.4500791,-122.2785592,137.48690462984885,30.419235,0.1,39.946716,1615921741000
Fix,GT,37.449904,-122.2782966,137.09790185514046,30.159082,0.1,39.861633,1615921742000
Fix,GT,37.4497305,-122.2780364,136.6898803625237,29.889616,0.1,39.857758,1615921743000
Fix,GT,37.4495585,-122.2777775,136.18488160979047,29.852304,0.1,39.57498,1615921744000
Fix,GT,37.4493856,-122.2775157,135.6788416550755,30.484617,0.099,39.555054,1615921745000
Fix,GT,37.4492076,-122.2772469,135.03383187380976,31.268417,0.099,39.826294,1615921746000
Fix,GT,37.4490262,-122.276976,134.34180792516855,31.2725,0.099,40.096863,1615921747000
Fix,GT,37.4488451,-122.2767058,133.5437946477869,31.19636,0.1,40.054688,1615921748000
Fix,GT,37.4486637,-122.2764364,132.6837847075509,31.239088,0.1,40.447327,1615921749000
Fix,GT,37.4484786,-122.2761674,131.77578272368447,31.61026,0.1,41.113068,1615921750000
Fix,GT,37.448289,-122.2758967,130.8857748209039,32.123062,0.1,41.452667,1615921751000
Fix,GT,37.4480955,-122.2756228,129.95676931663587,32.647568,0.1,41.427277,1615921752000
Fix,GT,37.4479,-122.275345,128.99776917620795,32.917297,0.1,41.390594,1615921753000
Fix,GT,37.4477036,-122.2750662,128.03177442166083,32.867195,0.1,41.464844,1615921754000
Fix,GT,37.447508,-122.2747886,127.08077325310208,32.69453,0.1,41.35724,1615921755000
Fix,GT,37.447314,-122.274512,126.1507750127562,32.518017,0.1,41.29834,1615921756000
Fix,GT,37.4471205,-122.2742364,125.22279800660957,32.474487,0.1,41.3555,1615921757000
Fix,GT,37.4469275,-122.2739615,124.38382637784316,32.340096,0.1,41.3291,1615921758000
Fix,GT,37.4467356,-122.2736877,123.65685629053873,32.17069,0.1,41.25937,1615921759000
Fix,GT,37.446545,-122.2734152,123.04889434912457,31.983986,0.1,41.209503,1615921760000
Fix,GT,37.446356,-122.2731441,122.59492510339332,31.750261,0.1,41.05005,1615921761000
Fix,GT,37.4461693,-122.2728743,122.29393437767702,31.521782,0.1,40.85089,1615921762000
Fix,GT,37.4459842,-122.2726045,122.02496308969464,31.513643,0.1,40.762207,1615921763000
Fix,GT,37.4457994,-122.2723346,121.86997559522985,31.408327,0.1,40.331726,1615921764000
Fix,GT,37.4456205,-122.272063,121.76099181898007,31.114481,0.1,38.566437,1615921765000
Fix,GT,37.44545,-122.2717859,121.7140037911937,31.012962,0.099,36.489166,1615921766000
Fix,GT,37.4452883,-122.2715037,121.74102662465457,30.649681,0.1,34.73535,1615921767000
Fix,GT,37.4451352,-122.2712192,121.85705149984074,30.226173,0.1,33.14383,1615921768000
Fix,GT,37.4449905,-122.2709338,122.07107722426316,29.817175,0.1,31.645935,1615921769000
Fix,GT,37.4448534,-122.2706459,122.38607377298317,29.745407,0.1,29.857788,1615921770000
Fix,GT,37.4447239,-122.2703535,122.68108186955055,29.560593,0.1,28.083618,1615921771000
Fix,GT,37.4446026,-122.2700593,123.035080575769,29.181925,0.1,26.510864,1615921772000
Fix,GT,37.444489,-122.2697655,123.37806248164978,28.739927,0.1,25.219727,1615921773000
Fix,GT,37.4443822,-122.2694721,123.63907405777628,28.546309,0.1,23.714874,1615921774000
Fix,GT,37.444282,-122.2691757,123.9421042628102,28.5839,0.1,22.112335,1615921775000
Fix,GT,37.4441883,-122.2688761,124.3640690384301,28.489092,0.1,20.64853,1615921776000
Fix,GT,37.4441011,-122.2685749,124.6650778530694,28.408428,0.1,19.061432,1615921777000
Fix,GT,37.444021,-122.2682721,124.99707358628598,28.14752,0.1,17.481598,1615921778000
Fix,GT,37.4439485,-122.2679704,125.30507424634185,27.730932,0.1,15.92218,1615921779000
Fix,GT,37.4438838,-122.2676713,125.6100822354305,27.284254,0.1,14.36676,1615921780000
Fix,GT,37.4438261,-122.2673748,125.94307294214588,26.852262,0.1,13.1521,1615921781000
Fix,GT,37.4437738,-122.2670802,126.23107103087568,26.799786,0.1,11.800781,1615921782000
Fix,GT,37.4437272,-122.2667822,126.53607291400972,27.156502,0.1,10.340179,1615921783000
Fix,GT,37.4436854,-122.2664747,126.84206841752592,28.151304,0.1,8.974762,1615921784000
Fix,GT,37.4436488,-122.2661589,127.12406850459718,28.375526,0.1,7.54422,1615921785000
Fix,GT,37.4436182,-122.2658407,127.40005212770778,28.54929,0.1,6.125,1615921786000
Fix,GT,37.4435936,-122.265518,127.60204184750468,28.938574,0.1,4.6072083,1615921787000
Fix,GT,37.4435763,-122.2651915,127.78702895743191,29.01141,0.1,2.8699646,1615921788000
Fix,GT,37.4435669,-122.2648664,127.91201510673352,28.71797,0.1,1.1712952,1615921789000
Fix,GT,37.4435647,-122.2645444,127.9729972834788,28.408197,0.1,359.66385,1615921790000
Fix,GT,37.4435693,-122.2642259,127.9539979694156,28.119825,0.1,358.10062,1615921791000
Fix,GT,37.4435799,-122.2639098,127.93198202177258,28.014194,0.099,356.8558,1615921792000
Fix,GT,37.4435971,-122.2635939,127.86899376785468,28.274767,0.099,355.22604,1615921793000
Fix,GT,37.4436214,-122.2632729,127.84894889476936,29.0084,0.1,353.71567,1615921794000
Fix,GT,37.4436524,-122.2629431,127.6359341723362,29.884142,0.1,352.5314,1615921795000
Fix,GT,37.4436894,-122.2626049,127.35692918791337,30.592825,0.1,351.82208,1615921796000
Fix,GT,37.4437283,-122.2622592,127.0519278251072,31.143826,0.1,352.0388,1615921797000
Fix,GT,37.443767,-122.2619074,126.76594305912084,31.684116,0.1,352.13147,1615921798000
Fix,GT,37.4438055,-122.2615516,126.5369492620622,31.791126,0.1,352.2315,1615921799000
Fix,GT,37.4438443,-122.2611949,126.32795329594224,32.039192,0.1,352.06232,1615921800000
Fix,GT,37.4438842,-122.2608351,126.12995695868756,32.228775,0.1,351.99072,1615921801000
Fix,GT,37.4439231,-122.2604745,125.94193465229468,32.073193,0.1,352.4175,1615921802000
Fix,GT,37.4439602,-122.2601166,125.65490447897808,31.781355,0.1,352.64648,1615921803000
Fix,GT,37.4439951,-122.2597615,125.26789323436196,31.516626,0.1,353.30606,1615921804000
Fix,GT,37.4440255,-122.2594072,124.82788365560808,31.445238,0.1,354.52087,1615921805000
Fix,GT,37.4440478,-122.2590522,124.34286540761738,31.333614,0.1,356.79865,1615921806000
Fix,GT,37.444059,-122.2586984,123.77684751377136,31.141754,0.1,358.8173,1615921807000
Fix,GT,37.4440607,-122.2583468,123.12982706945832,30.94432,0.1,0.65301514,1615921808000
Fix,GT,37.444053,-122.2579961,122.42280929611292,30.977633,0.1,2.6915588,1615921809000
Fix,GT,37.4440351,-122.2576459,121.6357945124187,30.900629,0.1,4.8031006,1615921810000
Fix,GT,37.4440077,-122.2572981,120.78177946855936,30.799267,0.1,6.673584,1615921811000
Fix,GT,37.4439709,-122.2569525,119.85976019062382,30.725975,0.1,8.829803,1615921812000
Fix,GT,37.4439237,-122.2566094,118.8517341585246,30.69896,0.099,10.860474,1615921813000
Fix,GT,37.4438674,-122.2562688,117.75872403911484,30.666069,0.1,12.845459,1615921814000
Fix,GT,37.4438017,-122.2559314,116.6187009020386,30.647116,0.1,14.811401,1615921815000
Fix,GT,37.4437271,-122.2555969,115.37770036266149,30.65409,0.1,16.616394,1615921816000
Fix,GT,37.4436441,-122.2552655,114.12970279996412,30.651031,0.1,18.529053,1615921817000
Fix,GT,37.4435515,-122.2549378,112.88670496934792,30.691008,0.1,20.736542,1615921818000
Fix,GT,37.4434497,-122.2546144,111.64769612387492,30.69016,0.1,22.489014,1615921819000
Fix,GT,37.4433401,-122.2542952,110.3947040903788,30.633392,0.1,24.413483,1615921820000
Fix,GT,37.4432223,-122.2539815,109.16969710222052,30.566223,0.1,26.263794,1615921821000
Fix,GT,37.4430962,-122.2536737,107.91070573665304,30.485958,0.1,28.4104,1615921822000
Fix,GT,37.4429616,-122.2533727,106.68271685840202,30.41292,0.1,30.339905,1615921823000
Fix,GT,37.4428194,-122.2530782,105.495704569729,30.341599,0.1,32.237976,1615921824000
Fix,GT,37.4426699,-122.2527905,104.2787018432222,30.275642,0.1,34.25287,1615921825000
Fix,GT,37.4425124,-122.2525101,103.04471993389647,30.216381,0.1,36.332306,1615921826000
Fix,GT,37.4423476,-122.2522377,101.8807195944046,30.148752,0.1,38.242554,1615921827000
Fix,GT,37.4421766,-122.2519721,100.71068093608388,30.199457,0.1,39.72223,1615921828000
Fix,GT,37.4419986,-122.2517104,99.37571965071756,30.480497,0.1,41.431213,1615921829000
Fix,GT,37.4418137,-122.2514545,98.22173148882338,30.463076,0.1,43.06137,1615921830000
Fix,GT,37.4416254,-122.2512043,97.11271266453451,30.39188,0.1,43.602295,1615921831000
Fix,GT,37.4414363,-122.2509563,95.92070489235071,30.320787,0.1,43.819458,1615921832000
Fix,GT,37.4412465,-122.2507095,94.69170807666796,30.368645,0.1,44.064484,1615921833000
Fix,GT,37.4410554,-122.2504623,93.47171505792775,30.590565,0.099,44.046173,1615921834000
Fix,GT,37.4408635,-122.250213,92.29969600669668,30.76214,0.1,43.881134,1615921835000
Fix,GT,37.440671,-122.2499624,91.04469798071312,30.79183,0.1,43.91333,1615921836000
Fix,GT,37.4404782,-122.2497112,89.79370860055676,31.009083,0.1,43.80954,1615921837000
Fix,GT,37.4402841,-122.2494583,88.5827053064497,31.052113,0.1,44.003967,1615921838000
Fix,GT,37.4400893,-122.2492068,87.35372864249828,30.990908,0.1,44.18225,1615921839000
Fix,GT,37.4398952,-122.2489559,86.21770232583228,30.918585,0.099,43.957703,1615921840000
