MessageType,Provider,LatitudeDegrees,LongitudeDegrees,AltitudeMeters,SpeedMps,AccuracyMeters,BearingDegrees,UnixTimeMillis
Fix,GT,34.2725501,-118.6156772,322.4509950449527,4.17529e-06,0.099,263.691,1638907816000
Fix,GT,34.2725501,-118.6156772,322.45100105107065,0.0,0.1,263.6912,1638907817000
Fix,GT,34.2725501,-118.6156772,322.4509911409761,0.0009958311,0.1,263.69153,1638907818000
Fix,GT,34.2725501,-118.6156772,322.45099714709403,4.1657004e-06,0.1,263.6911,1638907819000
Fix,GT,34.2725501,-118.6156772,322.4510031532119,4.1625003e-06,0.1,263.69135,1638907820000
Fix,GT,34.2725501,-118.6156772,322.45099309296444,0.0,0.1,263.69153,1638907821000
Fix,GT,34.2725501,-118.6156772,322.4510024024472,0.0009958439,0.1,263.69165,1638907822000
Fix,GT,34.2725501,-118.6156772,322.4510084085651,0.0014166464,0.1,263.6918,1638907823000
Fix,GT,34.2725501,-118.6156772,322.4509983483176,5.868604e-06,0.1,263.69183,1638907824000
Fix,GT,34.2725501,-118.6156772,322.4510043544355,0.0010017176,0.1,263.692,1638907825000
Fix,GT,34.2725501,-118.6156772,322.4509944443409,0.0009958567,0.1,263.69168,1638907826000
Fix,GT,34.2725501,-118.6156772,322.4510004504589,0.001,0.1,263.69177,1638907827000
Fix,GT,34.2725501,-118.6156772,322.4510096097887,0.001416637,0.1,263.6919,1638907828000
Fix,GT,34.2725501,-118.6156772,322.45099969969414,0.0010041337,0.1,263.69196,1638907829000
Fix,GT,34.2725501,-118.6156772,322.4510090091769,0.002236068,0.1,263.6922,1638907830000
Fix,GT,34.2725501,-118.6156772,322.4519957957044,0.002232676,0.1,263.6922,1638907831000
Fix,GT,34.2725501,-118.6156772,322.45200907924254,0.009437133,0.1,263.68948,1638907832000
Fix,GT,34.2725501,-118.6156772,322.4529876205567,0.0031584606,0.1,263.69186,1638907833000
Fix,GT,34.2725501,-118.6156772,322.45299774769177,0.007054972,0.1,263.69324,1638907834000
Fix,GT,34.2725501,-118.6156772,322.4530070572323,0.001005086,0.1,263.6936,1638907835000
Fix,GT,34.2725501,-118.6156772,322.4529969969224,0.0031584695,0.1,263.69308,1638907836000
Fix,GT,34.2725501,-118.6156772,322.4530030030776,0.003161611,0.1,263.69434,1638907837000
Fix,GT,34.2725501,-118.6156772,322.45400900926074,0.0042293295,0.1,263.6939,1638907838000
Fix,GT,34.2725501,-118.6156772,322.4549957956653,0.0022326969,0.1,263.69327,1638907839000
Fix,GT,34.2725501,-118.6156772,322.4560018018633,0.0020009675,0.1,263.6937,1638907840000
Fix,GT,34.2725501,-118.6156772,322.4579918915648,0.0019999999,0.099,263.69373,1638907841000
Fix,GT,34.2725502,-118.6156772,322.45899789780657,0.0041231057,0.099,263.69397,1638907842000
Fix,GT,34.2725501,-118.6156772,322.4600072075426,0.0063245557,0.1,263.6938,1638907843000
Fix,GT,34.2725501,-118.6156772,322.46099399369587,0.008544004,0.1,263.69373,1638907844000
Fix,GT,34.2725501,-118.6156772,322.463,0.011692034,0.1,263.69385,1638907845000
Fix,GT,34.27255,-118.6156773,322.4650050802976,0.018779177,0.1,263.691,1638907846000
Fix,GT,34.2725499,-118.6156773,322.46499594569434,0.01838642,0.1,263.69122,1638907847000
Fix,GT,34.2725498,-118.6156774,322.465001952073,0.025637206,0.1,263.69186,1638907848000
Fix,GT,34.2725495,-118.6156776,322.46399204157296,0.029151933,0.099,263.51907,1638907849000
Fix,GT,34.2725494,-118.6156777,322.4629980479391,0.033845566,0.1,263.51395,1638907850000
Fix,GT,34.2725483,-118.6156793,322.4720243715937,0.41783312,0.1,261.79092,1638907851000
Fix,GT,34.272544,-118.6156857,322.51601429392025,0.73944527,0.1,253.69833,1638907852000
Fix,GT,34.2725386,-118.6156918,322.54301232134645,0.6374473,0.1,245.17819,1638907853000
Fix,GT,34.2725351,-118.615695,322.55200285379965,0.13068861,0.1,240.22762,1638907854000
Fix,GT,34.2725346,-118.615695,322.54400886157896,0.04597927,0.1,240.0712,1638907855000
Fix,GT,34.2725343,-118.615695,322.5359915969768,0.0405216,0.1,240.0726,1638907856000
Fix,GT,34.2725339,-118.6156949,322.5269976078318,0.04472499,0.1,240.0762,1638907857000
Fix,GT,34.2725336,-118.6156947,322.5169836577973,0.05263079,0.1,240.07668,1638907858000
Fix,GT,34.2725332,-118.6156943,322.50399370948554,0.06435922,0.1,240.07642,1638907859000
Fix,GT,34.2725328,-118.6156937,322.49099568498923,0.08001213,0.1,240.07672,1638907860000
Fix,GT,34.2725323,-118.615693,322.47597756724804,0.08217425,0.1,240.02858,1638907861000
Fix,GT,34.2725281,-118.615695,322.4669876148999,0.6656891,0.1,234.40598,1638907862000
Fix,GT,34.27252,-118.6156983,322.45398975577854,0.8768555,0.1,223.64607,1638907863000
Fix,GT,34.2725079,-118.6156998,322.38293949042446,1.299858,0.099,208.25746,1638907864000
Fix,GT,34.2724917,-118.6156958,322.35001874234763,1.6998508,0.1,187.68643,1638907865000
Fix,GT,34.2724732,-118.6156816,322.3950086693931,2.2853036,0.1,161.948,1638907866000
Fix,GT,34.2724582,-118.6156532,322.3779617878133,3.1740804,0.1,131.85818,1638907867000
Fix,GT,34.2724513,-118.6156104,322.20989966497564,4.311846,0.1,103.45978,1638907868000
Fix,GT,34.2724541,-118.6155554,321.94587768256434,5.529454,0.1,87.30823,1638907869000
Fix,GT,34.2724576,-118.6154889,321.6568717641416,6.767469,0.1,86.3569,1638907870000
Fix,GT,34.2724622,-118.6154089,321.2918418558337,7.9291325,0.1,85.787384,1638907871000
Fix,GT,34.2724679,-118.6153175,320.8568321176097,8.997182,0.1,85.37903,1638907872000
Fix,GT,34.2724766,-118.6152151,320.4578429264748,9.928216,0.1,83.336,1638907873000
Fix,GT,34.2724895,-118.6151033,320.03080840338066,10.856091,0.1,81.53073,1638907874000
Fix,GT,34.2725035,-118.6149841,319.4957834977093,11.2753935,0.099,81.95416,1638907875000
Fix,GT,34.2725166,-118.6148614,318.91981280124566,11.535546,0.1,82.477264,1638907876000
Fix,GT,34.2725285,-118.6147356,318.3436964143785,11.783298,0.1,83.31027,1638907877000
Fix,GT,34.2725404,-118.6146078,317.7177255787253,11.800062,0.1,83.27844,1638907878000
Fix,GT,34.2725521,-118.6144835,317.1007492013229,11.218204,0.1,82.985016,1638907879000
Fix,GT,34.2725629,-118.6143675,316.4487505979687,10.270642,0.1,83.149994,1638907880000
Fix,GT,34.2725712,-118.6142618,315.82773064449896,9.294781,0.1,84.821686,1638907881000
Fix,GT,34.2725735,-118.6141625,315.22775656302787,9.227831,0.1,88.98422,1638907882000
Fix,GT,34.2725665,-118.6140625,314.4917120120041,9.346331,0.1,97.02338,1638907883000
Fix,GT,34.2725403,-118.6139654,313.71868642307817,9.670269,0.1,111.69849,1638907884000
Fix,GT,34.2724943,-118.613878,312.9307591998512,9.519119,0.1,125.45764,1638907885000
Fix,GT,34.2724357,-118.6138018,312.3528016734067,9.754714,0.1,134.24945,1638907886000
Fix,GT,34.272367,-118.6137345,311.87578815259786,10.008526,0.099,142.97028,1638907887000
Fix,GT,34.2722885,-118.6136791,311.3557822940233,10.285238,0.1,151.93854,1638907888000
Fix,GT,34.2722035,-118.6136309,310.762749744338,10.594478,0.1,154.45209,1638907889000
Fix,GT,34.2721182,-118.6135766,310.1637793546896,10.646735,0.1,150.90704,1638907890000
Fix,GT,34.2720389,-118.6135146,309.6437951509133,10.386692,0.099,145.09583,1638907891000
Fix,GT,34.271965,-118.6134442,309.1748286080063,10.476841,0.1,139.95523,1638907892000
Fix,GT,34.2718964,-118.6133636,308.63577086511253,10.732598,0.1,133.97931,1638907893000
Fix,GT,34.2718336,-118.6132718,308.07076627261847,11.22768,0.1,127.35684,1638907894000
Fix,GT,34.2717776,-118.6131655,307.58083103744497,11.861058,0.1,120.19534,1638907895000
Fix,GT,34.2717312,-118.6130458,307.18988315846394,12.265555,0.1,112.438446,1638907896000
Fix,GT,34.2717006,-118.6129198,306.9099167568688,11.677907,0.1,103.26312,1638907897000
Fix,GT,34.2716877,-118.6127958,306.72194301729087,11.345194,0.1,94.38428,1638907898000
Fix,GT,34.2716903,-118.6126735,306.65598041635985,11.158062,0.1,85.28458,1638907899000
Fix,GT,34.2717113,-118.6125526,306.6690000917688,11.630212,0.1,74.86786,1638907900000
Fix,GT,34.2717444,-118.612428,306.67695860807345,12.422701,0.1,71.6864,1638907901000
Fix,GT,34.2717803,-118.6122958,306.67001422693585,13.193728,0.1,72.15759,1638907902000
Fix,GT,34.271817,-118.6121541,306.6529782710732,14.239282,0.1,72.64984,1638907903000
Fix,GT,34.2718544,-118.6120002,306.6259948535412,15.341215,0.1,74.13376,1638907904000
Fix,GT,34.2718904,-118.6118329,306.5719503488913,16.464981,0.099,75.63818,1638907905000
Fix,GT,34.2719274,-118.6116548,306.5269747137595,17.309439,0.1,75.44208,1638907906000
Fix,GT,34.2719675,-118.6114698,306.4690309414252,17.87373,0.1,74.835815,1638907907000
Fix,GT,34.2720107,-118.6112808,306.4979446204135,18.23872,0.1,74.02603,1638907908000
Fix,GT,34.2720569,-118.6110879,306.4079542487534,18.685526,0.1,73.288055,1638907909000
Fix,GT,34.2721052,-118.6108935,306.478052991129,18.585403,0.1,73.06534,1638907910000
Fix,GT,34.272152,-118.6107013,306.5079668328219,18.29388,0.1,73.67325,1638907911000
Fix,GT,34.2721937,-118.6105104,306.48199964320804,18.17602,0.1,76.05783,1638907912000
Fix,GT,34.2722279,-118.6103176,306.4320123554745,18.200563,0.1,78.900696,1638907913000
Fix,GT,34.2722536,-118.6101216,306.3408924554409,18.39056,0.1,82.09253,1638907914000
Fix,GT,34.2722709,-118.6099229,306.02287123456784,18.41145,0.1,84.88739,1638907915000
Fix,GT,34.2722816,-118.6097241,305.5027528561752,18.168219,0.1,86.38574,1638907916000
Fix,GT,34.2722899,-118.6095299,304.7646742679593,17.670244,0.099,86.85208,1638907917000
Fix,GT,34.2722977,-118.6093391,303.7745393989905,17.532099,0.1,86.87161,1638907918000
Fix,GT,34.2723059,-118.609149,302.6055761940675,17.540737,0.1,86.480804,1638907919000
Fix,GT,34.2723147,-118.60896,301.5366205828823,17.256502,0.1,86.54309,1638907920000
Fix,GT,34.2723224,-118.6087748,300.5096461261767,16.974825,0.1,87.066956,1638907921000
Fix,GT,34.2723284,-118.6085915,299.52963198118283,16.849794,0.1,87.79233,1638907922000
Fix,GT,34.2723296,-118.6084089,298.4835693578245,16.777727,0.1,90.45517,1638907923000
Fix,GT,34.2723214,-118.6082276,297.414601286718,16.744108,0.1,94.64447,1638907924000
Fix,GT,34.2723018,-118.6080474,296.33662389777226,16.80732,0.1,99.1199,1638907925000
Fix,GT,34.2722733,-118.6078679,295.4106823899923,16.871342,0.1,101.23547,1638907926000
Fix,GT,34.2722421,-118.6076887,294.6708148810938,16.801058,0.1,101.51532,1638907927000
Fix,GT,34.2722147,-118.6075097,294.1598645822422,16.7401,0.1,98.99194,1638907928000
Fix,GT,34.2721967,-118.6073293,293.77387553915634,16.689077,0.1,95.04544,1638907929000
Fix,GT,34.2721905,-118.6071482,293.5129107254818,16.645733,0.1,90.020874,1638907930000
Fix,GT,34.2721974,-118.6069683,293.2939162636772,16.47906,0.1,85.31616,1638907931000
Fix,GT,34.2722142,-118.6067921,293.3360603052825,16.144634,0.1,81.975464,1638907932000
Fix,GT,34.272241,-118.6066221,293.59314554273715,15.668685,0.1,76.9259,1638907933000
Fix,GT,34.2722774,-118.6064614,294.06920382939467,14.819738,0.1,73.62622,1638907934000
Fix,GT,34.2723143,-118.6063116,294.66322726199826,14.0190525,0.1,73.03049,1638907935000
Fix,GT,34.2723487,-118.6061695,295.3583021874465,13.23474,0.1,74.00052,1638907936000
Fix,GT,34.2723765,-118.6060352,296.2283453711867,12.291976,0.1,76.699615,1638907937000
Fix,GT,34.272396,-118.6059093,297.16034303119875,11.347096,0.1,80.59619,1638907938000
Fix,GT,34.2724054,-118.605792,298.0303445192049,10.4909115,0.1,85.611145,1638907939000
Fix,GT,34.2724075,-118.605681,298.8502912278415,10.009326,0.1,89.13803,1638907940000
Fix,GT,34.2724054,-118.6055749,299.6612859845217,9.5210495,0.1,91.72211,1638907941000
Fix,GT,34.2723993,-118.6054734,300.4203056478826,9.307507,0.1,94.36951,1638907942000
Fix,GT,34.2723891,-118.6053749,301.1842621519785,8.876474,0.1,97.58673,1638907943000
Fix,GT,34.2723761,-118.6052846,301.88624345218955,8.031252,0.1,99.93768,1638907944000
Fix,GT,34.2723615,-118.6052049,302.44820823768174,6.850434,0.1,102.72162,1638907945000
Fix,GT,34.2723473,-118.6051415,302.9121460656393,5.185891,0.1,104.84808,1638907946000
Fix,GT,34.2723365,-118.6050969,303.2351133026734,3.3826277,0.1,105.58484,1638907947000
Fix,GT,34.2723298,-118.6050707,303.43104455466937,1.8141593,0.1,106.15274,1638907948000
Fix,GT,34.2723266,-118.6050592,303.520015702612,0.4736416,0.1,106.37717,1638907949000
Fix,GT,34.2723263,-118.6050582,303.5259913061192,0.014131866,0.1,106.40665,1638907950000
Fix,GT,34.2723262,-118.6050582,303.52700748931056,0.0063210386,0.1,106.40637,1638907951000
Fix,GT,34.2723262,-118.6050582,303.5299943463132,0.002236068,0.1,106.40637,1638907952000
Fix,GT,34.2723262,-118.6050582,303.53100069851337,0.0014126655,0.1,106.40643,1638907953000
Fix,GT,34.2723262,-118.6050582,303.5320026148474,0.0042386064,0.1,106.40668,1638907954000
Fix,GT,34.2723262,-118.6050582,303.5320082685714,0.005,0.1,106.40686,1638907955000
Fix,GT,34.2723262,-118.6050582,303.5319927915018,0.0056568542,0.1,106.40704,1638907956000
Fix,GT,34.2723262,-118.6050582,303.53199844522584,0.005657503,0.1,106.40692,1638907957000
Fix,GT,34.2723262,-118.6050582,303.53200713782667,0.0064031244,0.1,106.407166,1638907958000
Fix,GT,34.2723262,-118.6050582,303.5319977385103,0.007210582,0.1,106.40738,1638907959000
Fix,GT,34.2723262,-118.6050582,303.532003462906,0.006404258,0.1,106.4075,1638907960000
Fix,GT,34.2723262,-118.6050582,303.5319940635897,0.005830952,0.099,106.40753,1638907961000
Fix,GT,34.2723262,-118.6050582,303.5319966784371,0.0053837365,0.1,106.40732,1638907962000
Fix,GT,34.2723262,-118.6050582,303.5320053710378,0.0058293003,0.1,106.40756,1638907963000
Fix,GT,34.2723262,-118.6050582,303.5319959717216,0.005381784,0.1,106.407684,1638907964000
Fix,GT,34.2723262,-118.6050582,303.5320046643224,0.004472136,0.1,106.40787,1638907965000
Fix,GT,34.2723262,-118.6050582,303.5319922261294,0.004998049,0.1,106.40811,1638907966000
Fix,GT,34.2723262,-118.6050582,303.532,0.004472136,0.1,106.40811,1638907967000
Fix,GT,34.2723262,-118.6050582,303.53200353357755,0.003607902,0.1,106.40805,1638907968000
Fix,GT,34.2723262,-118.6050582,303.53199109538457,0.004240292,0.1,106.40793,1638907969000
Fix,GT,34.2723262,-118.6050582,303.5319967491086,0.004472136,0.1,106.4079,1638907970000
Fix,GT,34.2723262,-118.6050582,303.532005512381,0.0036055513,0.1,106.40796,1638907971000
Fix,GT,34.2723262,-118.6050582,303.53199611306474,0.0036078936,0.099,106.40814,1638907972000
Fix,GT,34.2723262,-118.6050582,303.53200480566545,0.0036055513,0.1,106.408295,1638907973000
Fix,GT,34.2723262,-118.6050582,303.5320074205128,0.0036078896,0.1,106.4082,1638907974000
Fix,GT,34.2723262,-118.6050582,303.5319949823199,0.0036055513,0.1,106.408325,1638907975000
Fix,GT,34.2723262,-118.6050582,303.5319975971672,0.0031639016,0.1,106.40811,1638907976000
Fix,GT,34.2723262,-118.6050582,303.5320002120146,0.0028312718,0.1,106.40848,1638907977000
Fix,GT,34.2723262,-118.6050582,303.5320058657387,0.0041263127,0.1,106.40784,1638907978000
Fix,GT,34.2723262,-118.6050582,303.53200848058606,0.0036074426,0.1,106.40811,1638907979000
Fix,GT,34.2723262,-118.6050582,303.5319990812698,0.0036078773,0.1,106.40878,1638907980000
Fix,GT,34.2723262,-118.6050582,303.53200784454214,0.0036055513,0.1,106.40805,1638907981000
Fix,GT,34.2723262,-118.6050582,303.53199236747247,0.0031670516,0.1,106.408264,1638907982000
Fix,GT,34.2723262,-118.6050582,303.53199802119656,0.0044689802,0.1,106.40817,1638907983000
Fix,GT,34.2723262,-118.6050582,303.53200367492065,0.0049980795,0.1,106.40845,1638907984000
Fix,GT,34.2723262,-118.6050582,303.53199731448103,0.0036078673,0.1,106.40878,1638907985000
Fix,GT,34.2723262,-118.6050582,303.5320090459585,0.004245391,0.1,106.40851,1638907986000
Fix,GT,34.2723262,-118.6050582,303.5319996466422,0.0042426405,0.1,106.40863,1638907987000
Fix,GT,34.2723262,-118.6050582,303.53200530036634,0.0042426405,0.1,106.40863,1638907988000
Fix,GT,34.2723262,-118.6050582,303.5320079152137,0.0050000004,0.1,106.40979,1638907989000
Fix,GT,34.2723262,-118.6050582,303.53199851589744,0.0049972585,0.1,106.40979,1638907990000
Fix,GT,34.2723262,-118.6050582,303.53200720849816,0.0049972613,0.1,106.40997,1638907991000
Fix,GT,34.2723262,-118.6050582,303.5319978091819,0.005,0.1,106.410065,1638907992000
Fix,GT,34.2723262,-118.6050582,303.53200650178263,0.0042453744,0.1,106.40997,1638907993000
Fix,GT,34.2723262,-118.6050582,303.53199109538457,0.0042426405,0.099,106.40982,1638907994000
Fix,GT,34.2723262,-118.6050582,303.53199674910866,0.0044690133,0.099,106.408295,1638907995000
Fix,GT,34.2723262,-118.6050582,303.53200240283275,0.0028312248,0.1,106.40866,1638907996000
Fix,GT,34.2723262,-118.6050582,303.5320050176801,0.0028262967,0.1,106.408875,1638907997000
Fix,GT,34.2723262,-118.6050582,303.5319925794871,0.00360063,0.099,106.408936,1638907998000
Fix,GT,34.2723262,-118.6050582,303.5319982332112,0.0028263002,0.1,106.409,1638907999000
Fix,GT,34.2723262,-118.6050582,303.5320038869353,0.0014192865,0.1,106.408875,1638908000000
Fix,GT,34.2723262,-118.6050582,303.5319914487424,0.0014142136,0.1,106.408936,1638908001000
Fix,GT,34.2723262,-118.6050582,303.5319971024664,0.0022331253,0.1,106.40851,1638908002000
Fix,GT,34.2723262,-118.6050582,303.532002826862,0.0028284271,0.1,106.408875,1638908003000
Fix,GT,34.2723262,-118.6050582,303.5320084805861,0.0036055513,0.1,106.40857,1638908004000
Fix,GT,34.2723262,-118.6050582,303.5319990812698,0.0044753966,0.1,106.40848,1638908005000
Fix,GT,34.2723262,-118.6050582,303.5330077738962,0.0063245557,0.1,106.40845,1638908006000
Fix,GT,34.2723262,-118.6050582,303.53399533564686,0.009486832,0.1,106.40845,1638908007000
Fix,GT,34.2723263,-118.6050582,303.5350009894115,0.012652502,0.1,106.40842,1638908008000
Fix,GT,34.2723263,-118.6050582,303.53600664321334,0.018684976,0.1,106.4082,1638908009000
Fix,GT,34.2723264,-118.6050581,303.5369977599373,0.027665587,0.099,106.40817,1638908010000
Fix,GT,34.2723265,-118.6050581,303.5389937807601,0.052100126,0.1,106.40805,1638908011000
Fix,GT,34.2723258,-118.6050538,303.56302485542227,0.97679204,0.1,106.43762,1638908012000
Fix,GT,34.2723218,-118.6050353,303.69707303070044,2.5837264,0.1,106.4259,1638908013000
Fix,GT,34.2723143,-118.6049976,303.9991535172004,4.446053,0.1,104.5499,1638908014000
Fix,GT,34.2723081,-118.6049439,304.41916568823063,5.5792456,0.099,97.88098,1638908015000
Fix,GT,34.2723113,-118.6048739,304.96924802306995,7.103861,0.1,84.84219,1638908016000
Fix,GT,34.2723341,-118.6047961,305.691270140578,7.7728176,0.1,66.913086,1638908017000
Fix,GT,34.2723796,-118.6047254,306.5113064312134,8.743803,0.1,47.871887,1638908018000
Fix,GT,34.2724494,-118.6046642,307.37334408735944,10.23195,0.1,32.615417,1638908019000
Fix,GT,34.2725392,-118.6046132,308.3383479220057,11.646026,0.1,22.695679,1638908020000
Fix,GT,34.2726442,-118.6045733,309.32333409718257,12.75115,0.1,15.500732,1638908021000
Fix,GT,34.2727622,-118.6045399,310.3654090762956,14.11564,0.1,12.039154,1638908022000
Fix,GT,34.2728936,-118.6045123,311.4643823170946,15.41746,0.1,8.900726,1638908023000
Fix,GT,34.2730364,-118.6044894,312.6194017977687,16.5164,0.1,6.873352,1638908024000
Fix,GT,34.2731898,-118.6044731,313.8114315267261,17.562714,0.1,3.666565,1638908025000
Fix,GT,34.2733505,-118.604468,315.045418606302,18.123251,0.1,359.78372,1638908026000
Fix,GT,34.2735164,-118.6044756,316.3264899213084,18.729673,0.1,356.3797,1638908027000
Fix,GT,34.2736884,-118.6044946,317.6635059001579,19.527416,0.1,353.7585,1638908028000
Fix,GT,34.2738655,-118.6045203,319.0304749404162,19.954512,0.099,352.52023,1638908029000
Fix,GT,34.2740451,-118.6045499,320.3864592242912,20.078064,0.1,351.73862,1638908030000
Fix,GT,34.2742211,-118.6045802,321.6934767737214,19.326202,0.1,351.6933,1638908031000
Fix,GT,34.2743897,-118.6046086,323.0334544517251,18.425777,0.1,351.96448,1638908032000
Fix,GT,34.2745498,-118.6046341,324.32242311001664,17.416092,0.1,352.45923,1638908033000
Fix,GT,34.2746992,-118.6046573,325.55441830922894,15.871282,0.1,352.4247,1638908034000
Fix,GT,34.2748339,-118.6046782,326.70637882068104,14.321504,0.1,352.45596,1638908035000
Fix,GT,34.2749531,-118.6046971,327.68232583182123,12.248746,0.1,352.17343,1638908036000
Fix,GT,34.275052,-118.6047133,328.4862427165788,9.921417,0.1,352.00598,1638908037000
Fix,GT,34.2751307,-118.6047262,329.1482136076503,7.7856364,0.1,352.11392,1638908038000
Fix,GT,34.2751914,-118.604736,329.65115144207186,5.880721,0.1,352.09607,1638908039000
Fix,GT,34.2752369,-118.6047433,330.0251056998053,4.467307,0.099,352.11435,1638908040000
Fix,GT,34.2752725,-118.604749,330.32408424628244,3.5451136,0.1,352.06363,1638908041000
Fix,GT,34.2753011,-118.6047537,330.54707651058584,2.9554734,0.1,351.97577,1638908042000
Fix,GT,34.2753273,-118.6047582,330.76308274480533,2.9765902,0.1,351.75705,1638908043000
Fix,GT,34.2753549,-118.6047628,330.996085872109,3.3054202,0.1,351.81592,1638908044000
Fix,GT,34.2753887,-118.6047685,331.275116857714,4.426996,0.1,351.7854,1638908045000
Fix,GT,34.2754349,-118.6047764,331.6561570733804,5.8667183,0.1,351.72238,1638908046000
Fix,GT,34.2754916,-118.6047861,332.13317071378043,6.70308,0.1,351.62323,1638908047000
Fix,GT,34.2755515,-118.6047965,332.62715613791346,6.5722356,0.1,351.6423,1638908048000
Fix,GT,34.2756103,-118.6048065,333.1171827834361,6.611511,0.1,351.72787,1638908049000
Fix,GT,34.275671,-118.6048166,333.6131826698007,7.2252812,0.1,351.83194,1638908050000
Fix,GT,34.2757387,-118.6048279,334.1841922101439,7.754413,0.1,351.83682,1638908051000
Fix,GT,34.2758092,-118.6048397,334.7772085205433,8.035382,0.1,351.96872,1638908052000
Fix,GT,34.2758828,-118.6048513,335.381221416566,8.511163,0.1,352.23434,1638908053000
Fix,GT,34.2759629,-118.6048635,336.02424502495165,9.329754,0.1,352.62222,1638908054000
Fix,GT,34.2760495,-118.6048759,336.72124438914705,10.013505,0.1,353.1115,1638908055000
Fix,GT,34.2761416,-118.604888,337.45825383902627,10.448885,0.1,353.74643,1638908056000
Fix,GT,34.2762349,-118.6048986,338.1642224706281,10.28646,0.1,354.55215,1638908057000
Fix,GT,34.2763274,-118.6049073,338.7952083911407,10.268226,0.1,355.56607,1638908058000
Fix,GT,34.276416,-118.6049128,339.36117371168035,9.222035,0.1,357.21875,1638908059000
Fix,GT,34.2764931,-118.6049149,339.80613572648025,8.040039,0.1,358.72662,1638908060000
Fix,GT,34.2765615,-118.6049149,340.1661181627887,7.1968293,0.1,359.82025,1638908061000
Fix,GT,34.2766238,-118.6049136,340.49711430562525,6.6549683,0.1,0.85354614,1638908062000
Fix,GT,34.2766833,-118.6049112,340.7811171435348,6.628245,0.1,1.6098328,1638908063000
Fix,GT,34.2767444,-118.6049079,341.0721064544504,7.003353,0.1,2.2782288,1638908064000
Fix,GT,34.2768092,-118.6049033,341.3650755326238,7.2325068,0.1,3.0217285,1638908065000
Fix,GT,34.2768724,-118.6048978,341.6150953298116,6.803595,0.1,4.0197754,1638908066000
Fix,GT,34.2769311,-118.6048914,341.84605426180923,6.2365212,0.1,4.8799744,1638908067000
Fix,GT,34.2769846,-118.6048846,342.03105720203365,5.685945,0.1,5.557556,1638908068000
Fix,GT,34.2770333,-118.6048777,342.192043323559,5.2883067,0.1,6.0997925,1638908069000
Fix,GT,34.2770806,-118.6048704,342.3270395290129,5.3278265,0.1,7.045807,1638908070000
Fix,GT,34.2771283,-118.6048592,342.4700422651252,5.518226,0.1,11.3029785,1638908071000
Fix,GT,34.2771751,-118.6048382,342.53800495880654,5.685343,0.1,21.204071,1638908072000
Fix,GT,34.2772166,-118.6048011,342.48698450406505,6.0152,0.1,38.843414,1638908073000
Fix,GT,34.2772465,-118.6047446,342.3509136915356,6.5069575,0.1,60.338013,1638908074000
Fix,GT,34.2772572,-118.6046737,342.18995688606174,7.071053,0.1,82.5614,1638908075000
Fix,GT,34.2772518,-118.6045919,342.11501989936835,8.205399,0.099,95.237,1638908076000
Fix,GT,34.2772343,-118.6044967,342.33408313239994,9.799429,0.1,103.37457,1638908077000
Fix,GT,34.2772087,-118.6043878,342.78916580721153,11.059978,0.1,105.03955,1638908078000
Fix,GT,34.2771798,-118.6042639,343.2981720004275,12.732843,0.1,105.10962,1638908079000
Fix,GT,34.2771459,-118.6041218,343.842171677649,14.461646,0.1,105.78125,1638908080000
Fix,GT,34.2771075,-118.6039625,344.37015075809506,16.017076,0.099,105.760315,1638908081000
Fix,GT,34.2770664,-118.6037946,344.82511699135364,16.058485,0.1,106.26843,1638908082000
Fix,GT,34.2770247,-118.6036306,345.15709659000066,15.4955845,0.1,106.865814,1638908083000
Fix,GT,34.2769838,-118.6034725,345.38805646966955,15.02083,0.1,107.03903,1638908084000
Fix,GT,34.2769426,-118.6033171,345.5280529106189,15.214927,0.1,107.60022,1638908085000
Fix,GT,34.2768981,-118.603154,345.58298917930483,16.525389,0.1,107.91211,1638908086000
Fix,GT,34.2768495,-118.6029759,345.5219458444328,17.935438,0.1,107.98706,1638908087000
Fix,GT,34.276797,-118.6027869,345.33689621769565,18.524788,0.1,108.42981,1638908088000
Fix,GT,34.2767422,-118.6025957,345.1038688174598,18.884464,0.099,108.98508,1638908089000
Fix,GT,34.2766835,-118.6023972,344.6508159843981,19.970196,0.1,109.82083,1638908090000
Fix,GT,34.2766185,-118.6021923,344.0667532125469,20.321121,0.1,111.22034,1638908091000
Fix,GT,34.2765498,-118.6019874,343.42979277508914,20.370441,0.1,111.97742,1638908092000
Fix,GT,34.2764799,-118.6017828,342.7817624764796,20.37819,0.099,112.0697,1638908093000
Fix,GT,34.2764096,-118.601576,342.1247790840343,20.9328,0.1,111.83948,1638908094000
Fix,GT,34.2763371,-118.6013591,341.42578880448264,22.144482,0.1,111.76135,1638908095000
Fix,GT,34.2762598,-118.601131,340.7287390431036,23.163923,0.1,112.13922,1638908096000
Fix,GT,34.276177,-118.6008941,339.97175547058043,24.208937,0.1,113.00775,1638908097000
Fix,GT,34.2760874,-118.6006482,339.1947257789373,25.265575,0.1,113.69937,1638908098000
Fix,GT,34.2759924,-118.6003936,338.38072254278137,26.005735,0.1,114.03046,1638908099000
Fix,GT,34.2758959,-118.6001356,337.5407256057784,26.110107,0.1,113.57172,1638908100000
Fix,GT,34.2758027,-118.5998731,336.7037386687961,26.566555,0.1,112.39752,1638908101000
Fix,GT,34.2757099,-118.599603,335.8717186261374,27.17239,0.099,112.15234,1638908102000
Fix,GT,34.2756163,-118.5993297,335.0167153590247,27.302711,0.1,112.28256,1638908103000
Fix,GT,34.2755207,-118.599054,334.1497023395449,27.64289,0.1,112.71686,1638908104000
Fix,GT,34.2754211,-118.5987778,333.28172166630577,27.921694,0.1,113.5199,1638908105000
Fix,GT,34.2753188,-118.5984978,332.3936920729605,28.377434,0.099,113.42682,1638908106000
Fix,GT,34.2752152,-118.5982156,331.4746952491014,28.450806,0.1,113.80646,1638908107000
Fix,GT,34.2751102,-118.5979337,330.5657049592782,28.459324,0.1,113.968994,1638908108000
Fix,GT,34.2750045,-118.5976504,329.64669843820855,28.730803,0.1,113.95288,1638908109000
Fix,GT,34.2748977,-118.5973655,328.7047047924912,28.904652,0.1,114.10306,1638908110000
Fix,GT,34.2747893,-118.5970768,327.7606981765351,29.424036,0.1,114.05554,1638908111000
Fix,GT,34.2746798,-118.5967851,326.8257142570403,29.552385,0.1,114.14566,1638908112000
Fix,GT,34.2745699,-118.5964901,326.00580765670026,30.093178,0.1,113.54355,1638908113000
Fix,GT,34.274461,-118.5961888,325.4898783187955,30.277287,0.099,113.28839,1638908114000
Fix,GT,34.2743534,-118.5958878,325.10492308799274,30.071222,0.1,112.94211,1638908115000
Fix,GT,34.2742495,-118.5955869,324.68485521655526,30.052689,0.1,111.80603,1638908116000
Fix,GT,34.2741503,-118.5952804,324.20487424957656,30.567444,0.1,110.45935,1638908117000
Fix,GT,34.274055,-118.5949651,323.78685147689305,31.195656,0.099,109.203094,1638908118000
Fix,GT,34.2739641,-118.5946431,323.42988975507603,31.3831,0.1,108.15094,1638908119000
Fix,GT,34.2738772,-118.5943192,323.15895033334635,31.272217,0.1,107.37097,1638908120000
Fix,GT,34.2737947,-118.5939947,322.9389212017581,31.275896,0.1,106.243805,1638908121000
Fix,GT,34.2737191,-118.5936672,322.6839176825658,31.257229,0.1,104.56467,1638908122000
Fix,GT,34.2736513,-118.5933377,322.44992057707907,31.277916,0.1,102.81183,1638908123000
Fix,GT,34.2735913,-118.5930065,322.2028979192076,31.179234,0.1,101.6243,1638908124000
Fix,GT,34.2735361,-118.5926733,321.86986573869365,31.40509,0.1,100.568146,1638908125000
Fix,GT,34.2734858,-118.5923364,321.51688771147604,31.582306,0.1,99.438354,1638908126000
Fix,GT,34.2734422,-118.5919968,321.26192239640886,31.708385,0.099,97.63727,1638908127000
Fix,GT,34.2734076,-118.5916544,321.0249158192426,31.731422,0.1,96.025085,1638908128000
Fix,GT,34.2733791,-118.5913128,320.75593453879304,31.493355,0.1,95.230774,1638908129000
Fix,GT,34.2733552,-118.5909729,320.52291513438945,31.381216,0.1,93.91376,1638908130000
Fix,GT,34.2733381,-118.5906322,320.28389259423403,31.477018,0.099,92.58887,1638908131000
Fix,GT,34.2733275,-118.5902895,319.8678923711539,31.669724,0.1,91.50552,1638908132000
Fix,GT,34.2733198,-118.5899462,319.42083836414434,31.558256,0.1,91.1163,1638908133000
Fix,GT,34.2733141,-118.5896043,318.8648601832036,31.439806,0.1,90.67847,1638908134000
Fix,GT,34.2733101,-118.5892638,318.54290097836895,31.241816,0.099,90.313324,1638908135000
Fix,GT,34.2733073,-118.588926,318.2769227646952,30.995808,0.1,90.42755,1638908136000
Fix,GT,34.2733041,-118.5885908,318.04793502907546,30.752802,0.1,90.407196,1638908137000
Fix,GT,34.2733005,-118.5882582,317.83894723418587,30.504412,0.099,90.64438,1638908138000
Fix,GT,34.2732961,-118.587928,317.662937452384,30.423628,0.099,90.62097,1638908139000
Fix,GT,34.2732924,-118.5875955,317.49194656579874,30.94787,0.1,90.53287,1638908140000
Fix,GT,34.2732883,-118.5872548,317.3219493951816,31.829588,0.1,90.60971,1638908141000
Fix,GT,34.273284,-118.586905,317.2309709352413,32.418293,0.1,90.59729,1638908142000
Fix,GT,34.2732795,-118.5865535,317.14898311685585,32.227947,0.1,90.6604,1638908143000
Fix,GT,34.2732753,-118.5862102,317.05296076747686,30.975704,0.1,90.52722,1638908144000
Fix,GT,34.2732715,-118.5858779,316.9829760232216,30.414183,0.1,90.394165,1638908145000
Fix,GT,34.2732687,-118.5855484,316.8919725877295,30.322742,0.1,90.33307,1638908146000
Fix,GT,34.273266,-118.5852184,316.8179847503497,30.501513,0.1,90.36572,1638908147000
Fix,GT,34.2732628,-118.584886,316.7419812735333,30.72533,0.1,90.52899,1638908148000
Fix,GT,34.2732586,-118.5845509,316.65498076375104,31.007273,0.1,90.67346,1638908149000
Fix,GT,34.2732537,-118.5842137,316.5609742613779,30.994883,0.1,90.91049,1638908150000
Fix,GT,34.2732486,-118.5838774,316.48997701373366,31.043144,0.1,90.504364,1638908151000
Fix,GT,34.2732458,-118.5835379,316.4129797647796,31.490992,0.1,90.10907,1638908152000
Fix,GT,34.2732451,-118.5831922,316.3329732230097,32.22026,0.1,89.698425,1638908153000
Fix,GT,34.2732461,-118.5828378,316.24199447198725,33.081676,0.1,89.41925,1638908154000
Fix,GT,34.2732494,-118.5824742,316.16200014624184,33.782543,0.1,88.434265,1638908155000
Fix,GT,34.2732591,-118.5821081,316.1019905166456,33.613636,0.1,87.71396,1638908156000
Fix,GT,34.2732692,-118.5817448,316.05999957125914,33.334282,0.1,88.03754,1638908157000
Fix,GT,34.2732796,-118.5813834,315.9979868107289,33.35839,0.1,87.37341,1638908158000
Fix,GT,34.2732931,-118.5810202,315.9349864727389,33.47778,0.1,87.361084,1638908159000
Fix,GT,34.2733039,-118.580658,315.8629611635157,33.34696,0.099,87.95743,1638908160000
Fix,GT,34.2733127,-118.580295,315.790997704085,33.65862,0.099,88.24289,1638908161000
Fix,GT,34.2733206,-118.5799268,315.71697903667064,34.18062,0.1,88.362274,1638908162000
Fix,GT,34.2733276,-118.5795528,315.6459754146007,34.722862,0.1,88.53412,1638908163000
Fix,GT,34.2733345,-118.5791727,315.5649690393973,35.314724,0.1,88.49405,1638908164000
Fix,GT,34.2733418,-118.5787864,315.4779716848726,35.824078,0.099,88.43414,1638908165000
Fix,GT,34.273349,-118.578395,315.37995599182693,36.286694,0.1,88.44995,1638908166000
Fix,GT,34.2733565,-118.5779993,315.2559373835411,36.592407,0.1,88.400696,1638908167000
Fix,GT,34.2733658,-118.5776004,315.17101018167847,36.841324,0.1,87.990265,1638908168000
Fix,GT,34.2733759,-118.5772002,315.0679641488716,36.930847,0.1,88.078735,1638908169000
Fix,GT,34.2733854,-118.5767982,314.97098522710894,37.147022,0.1,88.13223,1638908170000
Fix,GT,34.2733941,-118.576394,314.87497579810906,37.29418,0.1,88.54147,1638908171000
Fix,GT,34.2734002,-118.5759892,314.77698168910666,37.263947,0.1,88.84842,1638908172000
Fix,GT,34.273405,-118.5755852,314.6719656698928,37.195026,0.1,89.06085,1638908173000
Fix,GT,34.2734083,-118.5751818,314.57801700666545,37.09418,0.1,89.32971,1638908174000
Fix,GT,34.2734102,-118.5747788,314.46193797999547,37.141262,0.1,89.59137,1638908175000
Fix,GT,34.2734112,-118.574375,314.380959019352,37.255215,0.1,89.58151,1638908176000
Fix,GT,34.2734126,-118.57397,314.26594662179053,37.302105,0.1,89.652374,1638908177000
Fix,GT,34.2734123,-118.573566,314.180000310363,37.081036,0.1,89.87915,1638908178000
Fix,GT,34.2734115,-118.5731645,314.0979758901596,36.891136,0.1,89.95224,1638908179000
Fix,GT,34.2734091,-118.5727647,314.0089756104239,36.776222,0.1,90.45361,1638908180000
Fix,GT,34.2734037,-118.5723658,313.8839814846923,36.709423,0.1,90.83496,1638908181000
Fix,GT,34.273397,-118.5719679,313.7869746606657,36.568054,0.1,90.92645,1638908182000
Fix,GT,34.2733905,-118.5715716,313.70098052738376,36.445004,0.1,90.86688,1638908183000
Fix,GT,34.2733839,-118.5711768,313.6249863911332,36.230865,0.1,91.05249,1638908184000
Fix,GT,34.2733756,-118.5707855,313.5419734916836,35.875027,0.1,91.391785,1638908185000
Fix,GT,34.2733657,-118.5703981,313.454970231045,35.527016,0.1,91.76495,1638908186000
Fix,GT,34.2733536,-118.5700144,313.35796713089945,35.193737,0.1,92.03967,1638908187000
Fix,GT,34.273341,-118.5696334,313.2409609100276,35.13074,0.1,91.921906,1638908188000
Fix,GT,34.2733283,-118.5692499,313.12597855987445,35.56701,0.1,92.22772,1638908189000
Fix,GT,34.2733128,-118.5688626,313.0419961764407,35.72879,0.1,92.801575,1638908190000
Fix,GT,34.273295,-118.5684769,312.96395376771363,35.410473,0.1,92.85739,1638908191000
Fix,GT,34.2732778,-118.5680944,312.8689535395641,35.180416,0.1,92.96915,1638908192000
Fix,GT,34.2732595,-118.5677126,312.7449621331152,35.298676,0.1,93.09613,1638908193000
Fix,GT,34.2732396,-118.5673306,312.63797638264293,35.118793,0.1,93.543365,1638908194000
Fix,GT,34.2732182,-118.5669522,312.5759493044042,34.73262,0.099,93.68396,1638908195000
Fix,GT,34.2731964,-118.5665776,312.4330319464251,34.517765,0.099,93.85739,1638908196000
Fix,GT,34.273174,-118.5662021,312.40298451860696,34.888878,0.1,93.82547,1638908197000
Fix,GT,34.2731508,-118.5658229,312.31098132201936,35.05844,0.1,94.21118,1638908198000
Fix,GT,34.2731248,-118.5654451,312.2269868094935,34.742817,0.1,94.62155,1638908199000
Fix,GT,34.2730992,-118.5650711,312.1439829483039,34.422436,0.099,94.21475,1638908200000
Fix,GT,34.2730757,-118.5646998,312.0789562161211,34.153576,0.1,94.15808,1638908201000
Fix,GT,34.2730515,-118.5643294,311.97297677054723,34.405594,0.1,94.27954,1638908202000
Fix,GT,34.2730261,-118.5639553,311.9229765465245,34.58754,0.1,94.744965,1638908203000
Fix,GT,34.2729977,-118.5635823,311.84596398412805,34.420666,0.099,95.49719,1638908204000
Fix,GT,34.2729656,-118.5632104,311.769966703672,34.394524,0.1,95.925476,1638908205000
Fix,GT,34.2729317,-118.5628407,311.6779575201317,34.126427,0.1,96.19394,1638908206000
Fix,GT,34.2728965,-118.5624733,311.5759690918769,34.01178,0.1,96.37869,1638908207000
Fix,GT,34.2728618,-118.5621069,311.48297784695825,33.87379,0.1,96.28613,1638908208000
Fix,GT,34.2728263,-118.5617434,311.40497472238445,33.531235,0.1,96.74463,1638908209000
Fix,GT,34.2727892,-118.5613833,311.3089743208103,33.38015,0.1,96.80121,1638908210000
Fix,GT,34.272753,-118.5610232,311.1599354020134,33.342865,0.1,96.58276,1638908211000
Fix,GT,34.2727169,-118.5606653,310.910906367125,33.05537,0.1,96.770874,1638908212000
Fix,GT,34.2726805,-118.5603107,310.5758919219691,32.766323,0.1,96.91516,1638908213000
Fix,GT,34.2726436,-118.559959,310.1258532170541,32.525948,0.1,96.90213,1638908214000
Fix,GT,34.2726079,-118.5596097,309.59683023892967,32.307537,0.1,96.70694,1638908215000
Fix,GT,34.2725727,-118.5592625,308.988819010105,32.13175,0.1,96.76727,1638908216000
Fix,GT,34.2725376,-118.5589164,308.2827718655076,32.188076,0.1,96.72873,1638908217000
Fix,GT,34.2725032,-118.5585685,307.4237809303992,32.27051,0.1,96.45099,1638908218000
Fix,GT,34.2724698,-118.5582201,306.5337609067522,32.31206,0.1,96.354675,1638908219000
Fix,GT,34.2724364,-118.557872,305.71370809981875,32.203754,0.099,96.49921,1638908220000
Fix,GT,34.2724024,-118.5575254,304.83774849116435,32.090206,0.099,96.60681,1638908221000
Fix,GT,34.2723679,-118.55718,303.9957830319736,31.972168,0.1,96.76279,1638908222000
Fix,GT,34.272333,-118.5568361,303.26983766773435,31.835058,0.1,96.87039,1638908223000
Fix,GT,34.2722978,-118.5564939,302.6478198661665,31.67472,0.099,96.88391,1638908224000
Fix,GT,34.272265,-118.556153,302.1088632773673,31.583607,0.1,95.90863,1638908225000
Fix,GT,34.2722371,-118.5558105,301.6839003859028,31.802834,0.1,95.030396,1638908226000
Fix,GT,34.272215,-118.555466,301.3709401162155,31.774601,0.1,93.31482,1638908227000
Fix,GT,34.2722037,-118.5551216,301.13794563641306,31.705475,0.1,90.878815,1638908228000
Fix,GT,34.272205,-118.5547779,300.9769674510769,31.547333,0.099,88.47186,1638908229000
Fix,GT,34.2722162,-118.5544349,300.9190071272666,31.76214,0.1,86.75745,1638908230000
Fix,GT,34.2722365,-118.5540881,300.99204963541825,32.238453,0.1,84.97266,1638908231000
Fix,GT,34.2722663,-118.5537386,301.142032264072,32.43741,0.1,83.05786,1638908232000
Fix,GT,34.2723057,-118.5533886,301.282063055262,32.5197,0.1,81.13928,1638908233000
Fix,GT,34.2723543,-118.5530423,301.4120345500596,32.140606,0.1,79.5329,1638908234000
Fix,GT,34.2724104,-118.5527021,301.5550365199938,31.728642,0.1,77.68048,1638908235000
Fix,GT,34.2724765,-118.552369,301.7240507765058,31.315048,0.1,75.1167,1638908236000
Fix,GT,34.2725529,-118.552044,301.8520357247577,30.906513,0.099,73.11978,1638908237000
Fix,GT,34.2726363,-118.5517258,301.9310187054893,30.528801,0.1,71.71329,1638908238000
Fix,GT,34.2727241,-118.5514135,301.97201564495634,30.19644,0.1,70.43518,1638908239000
Fix,GT,34.272815,-118.5511103,302.01500050880713,28.998632,0.1,69.80655,1638908240000
Fix,GT,34.272903,-118.5508205,302.0490059154043,27.91288,0.099,69.72891,1638908241000
Fix,GT,34.2729878,-118.5505408,302.08900850427267,27.07144,0.1,69.784546,1638908242000
Fix,GT,34.2730702,-118.5502677,302.121013902464,26.48295,0.1,69.88443,1638908243000
Fix,GT,34.273151,-118.5499989,302.17302210036945,26.170025,0.1,69.89325,1638908244000
Fix,GT,34.2732306,-118.5497332,302.2530218801704,25.856934,0.1,69.96585,1638908245000
Fix,GT,34.2733089,-118.5494698,302.3350180981953,25.732176,0.099,70.15524,1638908246000
Fix,GT,34.2733872,-118.5492063,302.4060209085175,25.822777,0.1,69.97717,1638908247000
Fix,GT,34.2734667,-118.5489418,302.48703217640525,26.01058,0.1,69.78778,1638908248000
Fix,GT,34.2735479,-118.5486744,302.5700225401856,26.476696,0.099,69.584625,1638908249000
Fix,GT,34.2736304,-118.5484021,302.67703093031054,26.898418,0.1,69.948395,1638908250000
Fix,GT,34.2737124,-118.5481237,302.7890365350991,27.51805,0.1,70.59277,1638908251000
Fix,GT,34.2737921,-118.547838,302.932055791124,27.982988,0.1,71.83496,1638908252000
Fix,GT,34.2738658,-118.5475463,303.1020491323024,28.17394,0.1,73.8905,1638908253000
Fix,GT,34.2739311,-118.5472486,303.27004587680887,28.586895,0.1,75.802246,1638908254000
Fix,GT,34.2739913,-118.5469435,303.4910874870415,29.1055,0.1,77.029175,1638908255000
Fix,GT,34.2740456,-118.5466336,303.7920777842777,29.223536,0.1,78.70114,1638908256000
Fix,GT,34.2740924,-118.546321,304.13209439623193,29.296131,0.1,80.351105,1638908257000
Fix,GT,34.2741326,-118.546006,304.5371278483425,29.436918,0.1,81.68707,1638908258000
Fix,GT,34.2741662,-118.5456891,305.0121465922473,29.309813,0.1,83.30823,1638908259000
Fix,GT,34.2741922,-118.5453736,305.534147689974,29.106424,0.1,84.90225,1638908260000
Fix,GT,34.2742105,-118.5450607,306.10515288597395,28.678211,0.1,86.47818,1638908261000
Fix,GT,34.2742234,-118.5447515,306.6781495189094,28.408451,0.099,86.95456,1638908262000
Fix,GT,34.2742368,-118.5444435,307.1891063147935,28.322529,0.1,86.655304,1638908263000
Fix,GT,34.2742504,-118.5441382,307.68815245600507,28.090601,0.1,86.66046,1638908264000
Fix,GT,34.2742648,-118.5438326,308.145107159199,28.300314,0.1,86.39899,1638908265000
Fix,GT,34.274279,-118.5435257,308.5661127754529,28.22823,0.1,86.79309,1638908266000
Fix,GT,34.2742917,-118.5432203,308.9310934583237,28.15686,0.1,86.91815,1638908267000
Fix,GT,34.2743047,-118.5429141,309.2800725033329,28.294926,0.1,86.83765,1638908268000
Fix,GT,34.274318,-118.5426068,309.57705326800374,28.384594,0.1,86.83707,1638908269000
Fix,GT,34.2743309,-118.5422983,309.8090527646137,28.511644,0.1,87.079865,1638908270000
Fix,GT,34.2743425,-118.5419883,310.0540611880692,28.687332,0.1,87.2948,1638908271000
Fix,GT,34.2743547,-118.5416752,310.2020235168338,28.988394,0.1,86.893005,1638908272000
Fix,GT,34.2743684,-118.5413601,310.28501620970763,29.108522,0.1,86.7818,1638908273000
Fix,GT,34.2743823,-118.5410441,310.3380215658888,29.17144,0.1,86.8512,1638908274000
Fix,GT,34.2743959,-118.5407275,310.3950168951554,29.230322,0.1,86.85864,1638908275000
Fix,GT,34.2744095,-118.54041,310.40200834005554,29.337242,0.1,86.8689,1638908276000
Fix,GT,34.2744238,-118.540091,310.3359813124095,29.50673,0.1,86.43512,1638908277000
Fix,GT,34.2744411,-118.5397686,310.2269713254492,30.038511,0.1,85.84589,1638908278000
Fix,GT,34.2744622,-118.5394401,310.1219632542897,30.599525,0.099,84.8663,1638908279000
Fix,GT,34.2744892,-118.5391072,309.99396914286655,31.011265,0.1,83.71057,1638908280000
Fix,GT,34.2745219,-118.538772,309.87895958695003,31.003405,0.1,82.683136,1638908281000
Fix,GT,34.2745602,-118.5384388,309.7349711849217,30.993637,0.1,81.17804,1638908282000
Fix,GT,34.274606,-118.538106,309.5859662661399,31.132942,0.1,79.8436,1638908283000
Fix,GT,34.2746574,-118.5377728,309.43895898736247,31.293966,0.1,78.74072,1638908284000
Fix,GT,34.2747151,-118.5374394,309.3039621208289,31.326902,0.1,77.451294,1638908285000
Fix,GT,34.2747785,-118.537109,309.1410053185923,31.157167,0.1,76.258545,1638908286000
Fix,GT,34.2748471,-118.536782,309.0509708870938,30.981134,0.1,75.17383,1638908287000
Fix,GT,34.2749206,-118.5364568,309.0200086434185,31.099134,0.1,74.06821,1638908288000
Fix,GT,34.2750001,-118.5361322,309.078033016366,31.219315,0.1,72.87747,1638908289000
Fix,GT,34.2750847,-118.5358091,309.21303367430744,31.10405,0.099,71.726746,1638908290000
Fix,GT,34.275175,-118.5354912,309.39606062001644,30.747425,0.1,70.26788,1638908291000
Fix,GT,34.2752707,-118.5351803,309.69307956722423,30.303234,0.1,68.826965,1638908292000
Fix,GT,34.2753703,-118.5348767,310.01610598403124,29.817564,0.1,67.624695,1638908293000
Fix,GT,34.2754733,-118.5345822,310.39309579487144,29.041748,0.099,66.49158,1638908294000
Fix,GT,34.2755783,-118.534296,310.782098337746,28.582327,0.1,65.616974,1638908295000
Fix,GT,34.2756847,-118.5340159,311.1420713834565,28.162148,0.1,64.90527,1638908296000
Fix,GT,34.2757922,-118.5337398,311.4600771593177,27.98081,0.1,64.75061,1638908297000
Fix,GT,34.2758982,-118.5334661,311.799106567156,27.643482,0.1,64.65515,1638908298000
Fix,GT,34.2760049,-118.5331958,312.125062110947,27.5516,0.1,64.21289,1638908299000
Fix,GT,34.2761125,-118.5329255,312.4230893517528,27.688114,0.1,64.2012,1638908300000
Fix,GT,34.2762209,-118.5326525,312.759108188987,28.069141,0.1,64.21167,1638908301000
Fix,GT,34.2763304,-118.5323756,313.1550894903876,28.299175,0.099,64.52707,1638908302000
Fix,GT,34.2764386,-118.5320974,313.52109781953834,28.30309,0.099,64.6839,1638908303000
Fix,GT,34.2765477,-118.531819,313.8920910060899,28.404423,0.1,64.35852,1638908304000
Fix,GT,34.2766579,-118.53154,314.24208847513006,28.5088,0.1,64.3042,1638908305000
Fix,GT,34.2767687,-118.5312596,314.5820858499519,28.736944,0.1,64.27463,1638908306000
Fix,GT,34.2768811,-118.5309768,314.92209996461264,28.933695,0.1,64.18796,1638908307000
Fix,GT,34.276994,-118.5306927,315.2540719640858,29.117313,0.1,64.177704,1638908308000
Fix,GT,34.2771078,-118.5304064,315.55508813478144,29.300375,0.1,64.23819,1638908309000
Fix,GT,34.2772208,-118.5301182,315.8190570286648,29.377783,0.1,64.668945,1638908310000
Fix,GT,34.2773329,-118.5298291,316.0380804174966,29.402534,0.1,64.79147,1638908311000
Fix,GT,34.2774436,-118.5295394,316.2800590312555,29.270857,0.1,65.61713,1638908312000
Fix,GT,34.2775479,-118.529248,316.4880570843294,29.212395,0.1,67.30249,1638908313000
Fix,GT,34.2776433,-118.5289543,316.7230468310325,28.880983,0.1,69.41785,1638908314000
Fix,GT,34.2777291,-118.5286608,316.90304752034024,28.475695,0.1,71.11093,1638908315000
Fix,GT,34.2778071,-118.5283675,317.0350271031125,28.3024,0.1,72.84924,1638908316000
Fix,GT,34.2778773,-118.5280718,317.1150266398587,28.387512,0.1,74.61032,1638908317000
Fix,GT,34.2779404,-118.5277722,317.1319976053192,28.606857,0.1,76.41803,1638908318000
Fix,GT,34.2779967,-118.5274664,317.1059804192963,29.09394,0.1,78.20148,1638908319000
Fix,GT,34.2780448,-118.5271544,317.01897036329683,29.382763,0.1,80.16116,1638908320000
Fix,GT,34.2780845,-118.5268378,316.8919577786345,29.591131,0.1,82.071655,1638908321000
Fix,GT,34.278116,-118.5265172,316.7029932434533,29.93552,0.1,83.813324,1638908322000
Fix,GT,34.2781392,-118.5261925,316.49093789239623,30.087349,0.1,85.82828,1638908323000
Fix,GT,34.2781537,-118.5258645,316.1809116544695,30.453472,0.1,87.58316,1638908324000
Fix,GT,34.2781597,-118.5255321,315.82389157211753,30.836334,0.1,89.44833,1638908325000
Fix,GT,34.2781579,-118.5251949,315.4268981984938,31.274982,0.1,90.57266,1638908326000
Fix,GT,34.2781537,-118.5248547,314.9958934214783,31.301706,0.1,90.50366,1638908327000
Fix,GT,34.2781505,-118.5245158,314.4978584504602,31.103786,0.099,90.42346,1638908328000
Fix,GT,34.278147,-118.5241788,313.90282587112347,31.006996,0.1,90.54773,1638908329000
Fix,GT,34.2781444,-118.5238411,313.2138212725469,31.141563,0.1,90.11304,1638908330000
Fix,GT,34.2781427,-118.5235035,312.46581408041527,31.026894,0.1,90.23044,1638908331000
Fix,GT,34.2781398,-118.5231674,311.6828018530703,30.882116,0.1,90.47296,1638908332000
Fix,GT,34.2781361,-118.5228318,310.89079632287616,30.962475,0.1,90.66098,1638908333000
Fix,GT,34.2781301,-118.5224945,310.1157891941494,31.140371,0.1,91.55292,1638908334000
Fix,GT,34.27812,-118.5221557,309.3148021889348,31.32978,0.1,92.033936,1638908335000
Fix,GT,34.2781075,-118.5218159,308.5168081895727,31.290148,0.1,92.67572,1638908336000
Fix,GT,34.2780911,-118.5214773,307.71678586076456,31.200191,0.1,93.67871,1638908337000
Fix,GT,34.2780701,-118.5211399,306.9237993748833,31.16382,0.1,94.33594,1638908338000
Fix,GT,34.2780466,-118.5208011,306.1188078379857,31.469238,0.1,94.76712,1638908339000
Fix,GT,34.2780209,-118.5204588,305.31680821306725,31.871506,0.1,95.12442,1638908340000
Fix,GT,34.2779932,-118.5201118,304.4938030378316,32.35183,0.1,95.391235,1638908341000
Fix,GT,34.2779642,-118.5197602,303.67880091741586,32.60865,0.1,95.425476,1638908342000
Fix,GT,34.2779361,-118.5194083,302.8517807440045,32.46363,0.1,95.23233,1638908343000
Fix,GT,34.2779079,-118.5190587,302.0268080914668,32.24718,0.1,95.37634,1638908344000
Fix,GT,34.2778798,-118.518711,301.23279793388883,32.097122,0.099,95.20807,1638908345000
Fix,GT,34.277853,-118.5183646,300.50282610867123,31.962416,0.099,95.009766,1638908346000
Fix,GT,34.2778273,-118.5180199,299.81382944513115,31.710186,0.1,94.986725,1638908347000
Fix,GT,34.2778011,-118.5176807,299.1128377063712,31.059013,0.1,95.42456,1638908348000
Fix,GT,34.2777747,-118.5173473,298.4188306172527,30.721827,0.1,94.98602,1638908349000
Fix,GT,34.2777515,-118.5170152,297.6838240572559,30.709044,0.1,94.34021,1638908350000
Fix,GT,34.2777308,-118.5166827,296.95882495901174,30.666351,0.1,93.9415,1638908351000
Fix,GT,34.2777127,-118.5163512,296.2598302544188,30.53178,0.1,93.24481,1638908352000
Fix,GT,34.2776979,-118.5160199,295.60483844206294,30.536964,0.1,92.644714,1638908353000
Fix,GT,34.277686,-118.5156892,294.9708436468211,30.449944,0.1,92.02847,1638908354000
Fix,GT,34.2776769,-118.5153578,294.3488610833148,30.64406,0.1,91.45999,1638908355000
Fix,GT,34.2776707,-118.5150234,293.75386623851955,30.968508,0.1,90.708374,1638908356000
Fix,GT,34.2776678,-118.5146865,293.1598441299917,31.009676,0.099,90.216034,1638908357000
Fix,GT,34.2776672,-118.5143501,292.56686930968425,30.921974,0.1,89.724396,1638908358000
Fix,GT,34.2776687,-118.5140142,291.96386280356205,31.022045,0.1,89.34473,1638908359000
Fix,GT,34.2776724,-118.5136756,291.36583643851753,31.333326,0.1,88.76721,1638908360000
Fix,GT,34.2776784,-118.5133355,290.7298372145165,31.305132,0.1,88.48389,1638908361000
Fix,GT,34.2776859,-118.5129945,290.03282584223336,31.562935,0.1,88.13153,1638908362000
Fix,GT,34.2776949,-118.5126501,289.3138146843761,31.87967,0.1,87.83887,1638908363000
Fix,GT,34.2777052,-118.5123025,288.5838203114308,32.18934,0.1,87.84534,1638908364000
Fix,GT,34.2777142,-118.5119508,287.8838617143207,32.62325,0.1,88.03845,1638908365000
Fix,GT,34.2777235,-118.5115967,287.25185712721526,32.58167,0.1,87.947296,1638908366000
Fix,GT,34.2777335,-118.5112435,286.6378503897539,32.48743,0.1,87.73801,1638908367000
Fix,GT,34.277744,-118.5108918,286.0568651655708,32.310036,0.1,87.72098,1638908368000
Fix,GT,34.2777543,-118.5105423,285.5008505204734,32.10794,0.1,87.81256,1638908369000
Fix,GT,34.2777644,-118.5101949,284.96186758793607,31.94256,0.1,87.758606,1638908370000
Fix,GT,34.2777744,-118.5098476,284.43187786075566,32.096233,0.1,87.7962,1638908371000
Fix,GT,34.2777842,-118.5094988,283.9198952874297,32.12829,0.1,87.91873,1638908372000
Fix,GT,34.2777935,-118.5091508,283.4048666206971,32.036026,0.1,88.01999,1638908373000
Fix,GT,34.2778025,-118.5088019,282.9228740171176,32.255913,0.1,87.89496,1638908374000
Fix,GT,34.2778124,-118.5084505,282.4158862296285,32.497105,0.099,87.76453,1638908375000
Fix,GT,34.2778227,-118.5080964,281.948882104577,32.750526,0.1,87.88754,1638908376000
Fix,GT,34.2778326,-118.5077396,281.4908806824586,32.946068,0.1,87.83896,1638908377000
Fix,GT,34.2778432,-118.5073829,281.0038694464513,32.781242,0.1,87.65149,1638908378000
Fix,GT,34.2778543,-118.507027,280.49389814071685,32.86636,0.1,87.57822,1638908379000
Fix,GT,34.277865,-118.5066693,280.0288963842322,33.072746,0.1,87.8974,1638908380000
Fix,GT,34.2778743,-118.5063091,279.5228680694718,33.27798,0.1,88.0499,1638908381000
Fix,GT,34.2778836,-118.505947,279.0088777449092,33.372643,0.1,87.879456,1638908382000
Fix,GT,34.2778938,-118.5055855,278.50388788479194,33.27046,0.1,87.871704,1638908383000
Fix,GT,34.2779039,-118.5052245,278.00987235627207,33.190136,0.1,87.75513,1638908384000
Fix,GT,34.2779144,-118.5048654,277.5098772776965,32.959953,0.1,87.78458,1638908385000
Fix,GT,34.2779245,-118.5045088,277.00687555514,32.7481,0.1,87.8071,1638908386000
Fix,GT,34.2779344,-118.5041547,276.4838757596244,32.48574,0.1,87.88229,1638908387000
Fix,GT,34.2779439,-118.5038035,276.0149021657067,32.262768,0.1,87.87616,1638908388000
Fix,GT,34.2779541,-118.503453,275.51888824772647,32.376575,0.1,87.54816,1638908389000
Fix,GT,34.2779652,-118.5031004,275.02887908478897,32.610737,0.1,87.645966,1638908390000
Fix,GT,34.2779757,-118.5027452,274.5058591640508,32.852207,0.1,88.05414,1638908391000
Fix,GT,34.2779832,-118.5023874,273.8578527935031,33.048992,0.1,88.832214,1638908392000
Fix,GT,34.2779838,-118.5020293,273.2718693240816,32.931446,0.1,90.421326,1638908393000
Fix,GT,34.2779753,-118.5016712,272.7548811557644,33.096073,0.1,92.34866,1638908394000
Fix,GT,34.277957,-118.501311,272.24687246195066,33.415604,0.1,94.18973,1638908395000
Fix,GT,34.2779291,-118.5009492,271.7378842516411,33.420734,0.1,96.000854,1638908396000
Fix,GT,34.2778918,-118.5005904,271.21589329168205,33.211063,0.1,97.850464,1638908397000
Fix,GT,34.2778452,-118.5002347,270.70788889666926,33.181866,0.1,99.54349,1638908398000
Fix,GT,34.2777898,-118.4998796,270.19887065263885,33.40716,0.099,101.34131,1638908399000
Fix,GT,34.2777248,-118.4995242,269.67287777062603,33.597073,0.099,103.1398,1638908400000
Fix,GT,34.2776503,-118.4991697,269.1608871689297,33.807697,0.1,104.83197,1638908401000
Fix,GT,34.2775659,-118.4988153,268.7429203126086,33.990406,0.1,106.86386,1638908402000
Fix,GT,34.2774712,-118.4984655,268.4649461594317,33.866108,0.099,108.71921,1638908403000
Fix,GT,34.2773674,-118.4981195,268.33398332598665,33.88587,0.1,110.540436,1638908404000
Fix,GT,34.277255,-118.4977786,268.35101664766574,33.649162,0.1,112.31064,1638908405000
Fix,GT,34.277135,-118.4974455,268.51606007939574,33.224903,0.1,114.1691,1638908406000
Fix,GT,34.2770077,-118.4971219,268.82507296198514,32.75879,0.099,116.05408,1638908407000
Fix,GT,34.276874,-118.4968078,269.2441093570711,32.268684,0.099,117.78906,1638908408000
Fix,GT,34.2767348,-118.4965032,269.7961506404215,31.852634,0.1,119.49866,1638908409000
Fix,GT,34.2765891,-118.4962062,270.4651550329877,31.738903,0.1,121.08945,1638908410000
Fix,GT,34.276437,-118.4959139,271.13515489007904,31.830212,0.1,122.6608,1638908411000
Fix,GT,34.2762777,-118.4956277,271.766118616052,31.588812,0.099,124.47449,1638908412000
Fix,GT,34.2761121,-118.4953504,272.2731131057008,31.40196,0.1,126.389404,1638908413000
Fix,GT,34.2759403,-118.4950803,272.7010547789091,31.237665,0.1,128.12915,1638908414000
Fix,GT,34.275763,-118.4948196,273.01107154011635,30.874653,0.1,130.0216,1638908415000
Fix,GT,34.2755801,-118.4945681,273.25704904190314,30.804308,0.1,131.80737,1638908416000
Fix,GT,34.2753925,-118.4943223,273.5080207697991,30.650326,0.1,132.7731,1638908417000
Fix,GT,34.2752021,-118.4940817,273.5920842839051,30.553745,0.1,133.87823,1638908418000
Fix,GT,34.2750106,-118.4938463,273.9300213244222,30.163925,0.099,134.35434,1638908419000
Fix,GT,34.274821,-118.4936145,274.1318358562384,29.772625,0.1,134.50983,1638908420000
Fix,GT,34.2746337,-118.4933849,273.9359844470601,29.596237,0.1,134.11914,1638908421000
Fix,GT,34.2744461,-118.4931542,273.7258259004301,29.920809,0.1,134.3234,1638908422000
Fix,GT,34.2742559,-118.4929235,273.4078997615131,29.884508,0.099,134.65948,1638908423000
Fix,GT,34.2740663,-118.4926937,272.9969178588618,29.864302,0.1,134.38666,1638908424000
Fix,GT,34.2738769,-118.4924606,272.63791148702427,30.263218,0.1,134.02628,1638908425000
Fix,GT,34.2736854,-118.4922237,272.19392112884674,30.56772,0.1,134.10022,1638908426000
Fix,GT,34.2734918,-118.4919861,271.7518814197525,30.735466,0.1,134.32681,1638908427000
Fix,GT,34.2732963,-118.491747,271.1298593940837,31.142967,0.099,134.229,1638908428000
Fix,GT,34.2730987,-118.4915029,270.46785800007524,31.643532,0.1,133.82526,1638908429000
Fix,GT,34.2728986,-118.4912546,269.80686101965074,32.096355,0.1,134.30777,1638908430000
Fix,GT,34.2726939,-118.4910046,269.0788082661168,32.56029,0.1,134.29688,1638908431000
Fix,GT,34.2724874,-118.4907507,268.3998571268544,32.93428,0.099,134.12988,1638908432000
Fix,GT,34.2722785,-118.4904935,267.7958729051836,33.313858,0.1,134.13525,1638908433000
Fix,GT,34.2720678,-118.4902352,267.0658270637472,33.363487,0.1,134.36258,1638908434000
Fix,GT,34.2718559,-118.4899758,266.3768849177093,33.64377,0.1,134.28766,1638908435000
Fix,GT,34.2716434,-118.4897162,265.78389828138404,33.50411,0.099,134.34851,1638908436000
Fix,GT,34.2714323,-118.4894575,265.2609138396187,33.275654,0.1,134.28967,1638908437000
Fix,GT,34.2712226,-118.4892012,264.8639101637104,33.00151,0.1,134.32166,1638908438000
Fix,GT,34.2710148,-118.488947,264.4749823552631,32.717857,0.1,134.36902,1638908439000
Fix,GT,34.2708086,-118.488695,264.2339846216112,32.515022,0.099,134.36746,1638908440000
Fix,GT,34.270603,-118.4884431,264.0079630605783,32.57938,0.1,134.19214,1638908441000
Fix,GT,34.2703968,-118.4881898,263.85197407038504,32.810608,0.1,134.20987,1638908442000
Fix,GT,34.2701882,-118.4879344,263.7069742127736,33.138588,0.1,134.37424,1638908443000
Fix,GT,34.2699791,-118.4876784,263.5939660906405,32.938293,0.099,134.22589,1638908444000
Fix,GT,34.2697713,-118.4874241,263.4659537509592,32.866436,0.1,134.38214,1638908445000
Fix,GT,34.2695631,-118.4871693,263.3349755114272,32.98204,0.1,134.31158,1638908446000
Fix,GT,34.2693545,-118.4869144,263.23399721227673,32.85556,0.1,134.46826,1638908447000
Fix,GT,34.2691465,-118.4866617,263.09200156285425,32.696148,0.099,134.5108,1638908448000
Fix,GT,34.2689405,-118.4864102,263.0990295996754,32.349274,0.1,134.10394,1638908449000
Fix,GT,34.2687383,-118.4861599,263.1980087042013,32.031727,0.1,134.01599,1638908450000
Fix,GT,34.2685372,-118.4859092,263.2190131011326,32.209614,0.1,133.75842,1638908451000
Fix,GT,34.2683356,-118.4856564,263.19500416121537,32.37461,0.1,133.57953,1638908452000
Fix,GT,34.2681351,-118.4854001,263.1699829314836,32.449013,0.1,132.49106,1638908453000
Fix,GT,34.267941,-118.4851378,263.1359764452316,32.28712,0.1,130.52963,1638908454000
Fix,GT,34.2677546,-118.4848683,263.1100091153488,32.300198,0.1,128.86115,1638908455000
Fix,GT,34.2675756,-118.4845927,262.9679821057846,32.089523,0.1,126.871826,1638908456000
Fix,GT,34.2674066,-118.4843117,262.7429182939185,31.794903,0.099,124.6597,1638908457000
Fix,GT,34.2672485,-118.484025,262.4600335306328,31.536222,0.1,122.27469,1638908458000
Fix,GT,34.2671014,-118.4837341,262.4789828230673,31.239552,0.1,120.34183,1638908459000
Fix,GT,34.2669624,-118.4834393,262.3199840209901,31.215162,0.1,118.503204,1638908460000
Fix,GT,34.2668313,-118.4831389,262.22797490308903,31.303133,0.099,116.80121,1638908461000
Fix,GT,34.266707,-118.4828315,262.14097508533,31.663258,0.1,114.90698,1638908462000
Fix,GT,34.2665898,-118.4825158,262.0699979545111,32.0192,0.1,112.9957,1638908463000
Fix,GT,34.2664813,-118.4821917,262.00898602833416,32.259975,0.1,110.66809,1638908464000
Fix,GT,34.2663827,-118.4818614,261.84694478630087,32.394768,0.1,108.65994,1638908465000
Fix,GT,34.2662922,-118.4815255,261.73297603391484,32.652664,0.1,107.16583,1638908466000
Fix,GT,34.2662091,-118.4811833,261.64197831856114,33.000362,0.1,105.000946,1638908467000
Fix,GT,34.2661384,-118.4808356,261.5129618123383,32.84865,0.1,102.2262,1638908468000
Fix,GT,34.2660817,-118.4804871,261.47405428977964,32.502674,0.1,99.977844,1638908469000
Fix,GT,34.2660339,-118.4801409,261.4630018723202,32.150536,0.1,98.6893,1638908470000
Fix,GT,34.2659938,-118.4797963,261.1709339975696,31.941135,0.1,97.15906,1638908471000
Fix,GT,34.2659637,-118.4794528,261.0719908937453,31.63732,0.1,94.52457,1638908472000
Fix,GT,34.2659457,-118.4791116,260.95894292708886,31.322458,0.099,92.563446,1638908473000
Fix,GT,34.265936,-118.4787732,260.7449623462428,31.03649,0.1,91.2749,1638908474000
Fix,GT,34.2659313,-118.4784377,260.54196877785114,30.763668,0.1,90.36575,1638908475000
Fix,GT,34.2659293,-118.4781053,260.45495196574177,30.480597,0.1,90.20624,1638908476000
Fix,GT,34.2659268,-118.4777756,260.2059507099967,30.245129,0.1,90.51474,1638908477000
Fix,GT,34.2659239,-118.4774486,260.0219586360859,29.999104,0.099,90.29108,1638908478000
Fix,GT,34.2659212,-118.477123,259.9399614817901,30.013508,0.1,90.36279,1638908479000
Fix,GT,34.2659187,-118.4767971,259.7139597402308,29.9381,0.1,90.26224,1638908480000
Fix,GT,34.2659165,-118.4764727,259.4629599928749,29.91112,0.1,90.217865,1638908481000
Fix,GT,34.2659151,-118.476147,259.27184116181684,30.042097,0.099,89.906006,1638908482000
Fix,GT,34.2659144,-118.4758203,258.82388090705854,30.164467,0.1,90.13315,1638908483000
Fix,GT,34.2659125,-118.475492,258.1268649933036,30.334583,0.1,90.075775,1638908484000
Fix,GT,34.2659114,-118.4751611,257.532874069314,30.611277,0.1,90.00821,1638908485000
Fix,GT,34.2659094,-118.4748272,256.91686779618124,30.927752,0.099,90.38721,1638908486000
Fix,GT,34.2659062,-118.4744889,256.2178297425434,31.402271,0.1,90.489044,1638908487000
Fix,GT,34.2659032,-118.4741453,255.38982518923515,31.908173,0.1,90.20865,1638908488000
Fix,GT,34.2659017,-118.4737959,254.5088170240524,32.41046,0.1,90.08026,1638908489000
Fix,GT,34.2658999,-118.4734417,253.58280086482688,32.829853,0.099,90.20386,1638908490000
Fix,GT,34.2658975,-118.4730834,252.73786983469688,33.170456,0.1,90.318054,1638908491000
Fix,GT,34.2658949,-118.4727218,252.1098883052189,33.427094,0.1,90.272,1638908492000
Fix,GT,34.2658924,-118.4723578,251.64693934605268,33.63134,0.1,90.27719,1638908493000
Fix,GT,34.2658901,-118.4719916,251.36096967077253,33.765907,0.1,90.174286,1638908494000
Fix,GT,34.2658886,-118.4716256,251.2910179749816,33.587307,0.1,90.07251,1638908495000
Fix,GT,34.2658869,-118.4712621,251.409035108902,33.457546,0.1,90.11224,1638908496000
Fix,GT,34.265885,-118.4708986,251.7220751021132,33.5141,0.1,90.2561,1638908497000
Fix,GT,34.2658824,-118.4705338,252.2221189599836,33.669224,0.1,90.28107,1638908498000
Fix,GT,34.26588,-118.4701676,252.9301726331064,33.78579,0.1,90.2045,1638908499000
Fix,GT,34.2658769,-118.4698005,253.8111889919713,33.823627,0.1,90.55081,1638908500000
Fix,GT,34.2658727,-118.4694334,254.76718818069853,33.80215,0.1,90.41449,1638908501000
Fix,GT,34.2658697,-118.4690667,255.66515786524585,33.719578,0.1,90.3475,1638908502000
Fix,GT,34.265867,-118.4687021,256.5401629499719,33.440945,0.1,90.22687,1638908503000
Fix,GT,34.2658649,-118.4683406,257.3511668791105,33.09856,0.1,90.15335,1638908504000
