MessageType,Provider,LatitudeDegrees,LongitudeDegrees,AltitudeMeters,SpeedMps,AccuracyMeters,BearingDegrees,UnixTimeMillis
Fix,GT,37.4443857,-122.2326742,11.581000345140694,0.0012590063,0.1,302.57977,1609800005437
Fix,GT,37.4443857,-122.2326742,11.582,0.0006252963,0.1,302.57834,1609800006437
Fix,GT,37.4443857,-122.2326742,11.581999654829502,0.0017729085,0.1,302.57993,1609800007437
Fix,GT,37.4443857,-122.2326742,11.581999654829502,0.0019281158,0.1,302.58002,1609800008437
Fix,GT,37.4443857,-122.2326742,11.581999654829502,0.0014142136,0.1,302.58008,1609800009437
Fix,GT,37.4443857,-122.2326742,11.582,0.0014142136,0.1,302.5805,1609800010437
Fix,GT,37.4443857,-122.2326742,11.583,0.0011552074,0.1,302.5807,1609800011437
Fix,GT,37.4443857,-122.2326742,11.583,0.0026064678,0.1,302.58102,1609800012437
Fix,GT,37.4443857,-122.2326742,11.5830003452003,0.0036055513,0.1,302.58185,1609800013437
Fix,GT,37.4443869,-122.2326767,11.579000345081091,0.8003583,0.1,302.42996,1609800014437
Fix,GT,37.4443929,-122.2326934,11.577,2.333026,0.1,297.4092,1609800015437
Fix,GT,37.4443995,-122.2327236,11.602375049442053,3.0308046,0.1,287.51294,1609800016437
Fix,GT,37.4444002,-122.2327627,11.588000345349313,3.9366188,0.1,272.48938,1609800017437
Fix,GT,37.4443898,-122.2328132,11.515382156163454,5.3254695,0.1,254.1663,1609800018437
Fix,GT,37.4443613,-122.2328704,11.324131220936776,6.512458,0.1,235.2056,1609800019437
Fix,GT,37.4443154,-122.2329247,11.047131220936777,7.4638557,0.1,220.37433,1609800020437
Fix,GT,37.4442571,-122.2329727,10.69576125919819,7.964696,0.1,211.92857,1609800021437
Fix,GT,37.4441957,-122.2330217,10.330758887052536,8.185765,0.1,213.00087,1609800022437
Fix,GT,37.4441368,-122.2330786,10.032632707387208,8.281029,0.1,219.76657,1609800023437
Fix,GT,37.4440881,-122.2331469,9.831505924701691,7.7208385,0.1,231.01541,1609800024437
Fix,GT,37.4440546,-122.2332167,9.610878546118736,7.001733,0.1,241.2138,1609800025437
Fix,GT,37.4440291,-122.2332896,9.39163268828392,7.0981417,0.1,248.03265,1609800026437
Fix,GT,37.4440142,-122.2333667,9.03051541042328,6.8995504,0.1,258.98813,1609800027437
Fix,GT,37.4440144,-122.2334452,8.735382078796626,6.979852,0.1,273.86038,1609800028437
Fix,GT,37.4440326,-122.2335239,8.56913359773159,7.8781843,0.1,288.98187,1609800029437
Fix,GT,37.4440671,-122.2336126,8.343379697263241,9.323816,0.1,297.89258,1609800030437
Fix,GT,37.4441096,-122.2337048,8.189632416307926,9.439972,0.1,300.49255,1609800031437
Fix,GT,37.4441541,-122.2337955,7.978382061719895,9.402263,0.1,301.92258,1609800032437
Fix,GT,37.4441997,-122.2338848,7.792004749298096,9.354676,0.1,302.75,1609800033437
Fix,GT,37.444245,-122.2339717,7.607756759226322,8.8710375,0.1,303.34805,1609800034437
Fix,GT,37.4442858,-122.2340489,7.474505941390991,7.354459,0.1,303.24127,1609800035437
Fix,GT,37.4443183,-122.2341122,7.33362767469883,6.092779,0.1,302.38196,1609800036437
Fix,GT,37.4443445,-122.2341648,7.22075199893117,4.845437,0.1,301.81284,1609800037437
Fix,GT,37.4443652,-122.2342067,7.1456276763081545,3.9781423,0.1,301.79956,1609800038437
Fix,GT,37.4443815,-122.2342397,7.082625297427177,2.7605982,0.1,301.6953,1609800039437
Fix,GT,37.4443914,-122.2342596,7.031501399666071,1.457032,0.1,301.6248,1609800040437
Fix,GT,37.4443954,-122.2342677,7.008000000000001,0.30395046,0.1,301.59735,1609800041437
Fix,GT,37.4443957,-122.2342684,7.003625089079141,0.0021476129,0.1,301.60248,1609800042437
Fix,GT,37.4443957,-122.2342684,7.002999791294337,0.0014631572,0.1,301.60168,1609800043437
Fix,GT,37.4443957,-122.2342684,7.001625089377164,0.0012590069,0.1,301.60043,1609800044437
Fix,GT,37.4443957,-122.2342684,7.002,0.00074940384,0.1,301.5999,1609800045437
Fix,GT,37.4443958,-122.2342684,7.000999791353942,0.0025223147,0.1,301.60062,1609800046437
Fix,GT,37.4443958,-122.2342684,7.000999791353942,0.002,0.1,301.60068,1609800047437
Fix,GT,37.4443958,-122.2342684,7.001000000000001,0.00074940384,0.1,301.6009,1609800048437
Fix,GT,37.4443958,-122.2342684,7.0,0.0020884553,0.1,301.6009,1609800049437
Fix,GT,37.4443958,-122.2342684,7.000000208616257,0.002,0.1,301.60095,1609800050437
Fix,GT,37.4443958,-122.2342684,7.0,0.0016337088,0.1,301.60104,1609800051437
Fix,GT,37.4443958,-122.2342684,6.999999791383743,0.0016252984,0.1,301.60107,1609800052437
Fix,GT,37.4443958,-122.2342684,7.000999791353942,0.0013747015,0.1,301.60104,1609800053437
Fix,GT,37.4443957,-122.2342684,7.00100020864606,0.01802353,0.1,301.5983,1609800054437
Fix,GT,37.4443982,-122.2342734,6.9747515839636325,1.448291,0.1,301.367,1609800055437
Fix,GT,37.44441,-122.2343035,6.904630077540874,4.4273458,0.1,296.87656,1609800056437
Fix,GT,37.4444257,-122.2343626,6.921873299926519,6.164852,0.1,286.67557,1609800057437
Fix,GT,37.4444293,-122.2344373,7.010496414422988,7.080818,0.1,269.24292,1609800058437
Fix,GT,37.4444101,-122.2345181,7.167871114075185,8.014656,0.1,247.61212,1609800059437
Fix,GT,37.4443629,-122.2345996,7.210997823238373,9.841041,0.1,229.29399,1609800060437
Fix,GT,37.4442899,-122.2346786,7.362367524087429,11.51783,0.1,216.39441,1609800061437
Fix,GT,37.4441932,-122.2347501,7.6481143030524255,13.870661,0.1,208.71852,1609800062437
Fix,GT,37.4440712,-122.2348311,8.07473528677225,16.621128,0.1,207.5869,1609800063437
Fix,GT,37.443933,-122.234921,8.663355291604995,17.772448,0.1,207.26573,1609800064437
Fix,GT,37.4437872,-122.2350162,9.06736512196064,18.716206,0.1,207.5065,1609800065437
Fix,GT,37.4436344,-122.2351173,9.367121706008913,19.595755,0.1,207.83672,1609800066437
Fix,GT,37.4434733,-122.2352243,9.502747004270551,20.92315,0.1,207.77666,1609800067437
Fix,GT,37.4433042,-122.2353376,9.680494007349012,21.488092,0.1,208.20984,1609800068437
Fix,GT,37.4431319,-122.2354543,9.905367506206035,21.99791,0.1,208.14915,1609800069437
Fix,GT,37.4429565,-122.2355731,10.228613307356834,22.217844,0.1,208.21654,1609800070437
Fix,GT,37.4427812,-122.2356909,10.723102514147758,21.875694,0.1,207.98524,1609800071437
Fix,GT,37.442607,-122.2358062,11.5240977063179,21.902557,0.1,207.39676,1609800072437
Fix,GT,37.4424309,-122.2359202,12.614834730803969,22.073936,0.1,207.04118,1609800073437
Fix,GT,37.4422541,-122.2360341,13.971460401296616,22.007488,0.1,207.1878,1609800074437
Fix,GT,37.4420789,-122.2361493,15.17934063988924,21.873707,0.1,207.92867,1609800075437
Fix,GT,37.441907,-122.2362656,16.24146998310089,21.436878,0.1,208.51573,1609800076437
Fix,GT,37.4417396,-122.2363825,17.201469983100893,21.182396,0.1,209.24484,1609800077437
Fix,GT,37.441576,-122.2365027,18.05784949070216,20.88263,0.1,210.90607,1609800078437
Fix,GT,37.4414191,-122.2366295,18.96971818840504,20.545444,0.1,213.99275,1609800079437
Fix,GT,37.4412694,-122.2367657,20.042589279890063,20.640465,0.1,217.49068,1609800080437
Fix,GT,37.4411274,-122.2369168,21.07871818840504,20.726812,0.1,222.42801,1609800081437
Fix,GT,37.4409946,-122.2370839,22.27296397972107,21.134674,0.1,227.01741,1609800082437
Fix,GT,37.4408682,-122.2372683,23.45170857667923,22.029297,0.1,230.8528,1609800083437
Fix,GT,37.4407457,-122.2374719,24.78083433651924,23.089382,0.1,234.51852,1609800084437
Fix,GT,37.4406272,-122.2376911,26.208462779045103,23.590967,0.1,236.47882,1609800085437
Fix,GT,37.4405097,-122.2379146,27.55845797634125,23.78343,0.1,235.95595,1609800086437
Fix,GT,37.4403851,-122.2381325,29.037582101404663,23.68934,0.1,232.698,1609800087437
Fix,GT,37.4402523,-122.2383429,30.341959185123443,23.840897,0.1,230.86824,1609800088437
Fix,GT,37.4401136,-122.2385494,31.543591687858104,23.959782,0.1,228.84851,1609800089437
Fix,GT,37.4399674,-122.238751,32.76271337938309,24.308949,0.1,226.58243,1609800090437
Fix,GT,37.4398129,-122.2389494,33.96421938884258,24.80359,0.1,224.67427,1609800091437
Fix,GT,37.4396502,-122.2391457,35.08134724840522,25.275425,0.1,222.72595,1609800092437
Fix,GT,37.4394798,-122.2393363,36.50170270162821,25.498226,0.1,220.60248,1609800093437
Fix,GT,37.4393007,-122.2395201,37.95195438337326,25.713043,0.1,217.56165,1609800094437
Fix,GT,37.439116,-122.23969,39.248339922577145,25.046432,0.1,214.93953,1609800095437
Fix,GT,37.4389312,-122.2398453,40.34558929407597,24.46465,0.1,212.57051,1609800096437
Fix,GT,37.4387441,-122.2399892,41.34823139691353,24.115265,0.1,210.38274,1609800097437
Fix,GT,37.4385563,-122.2401216,41.98197839641571,23.83267,0.1,208.35562,1609800098437
Fix,GT,37.438365,-122.2402443,42.51786022979021,23.862453,0.1,205.87096,1609800099437
Fix,GT,37.4381695,-122.2403578,42.90686390036345,24.003716,0.1,203.97556,1609800100437
Fix,GT,37.4379702,-122.2404644,43.13911801305413,24.018394,0.1,202.20135,1609800101437
Fix,GT,37.4377691,-122.2405647,43.29999519920349,24.02134,0.1,201.10403,1609800102437
Fix,GT,37.4375672,-122.2406623,43.35625299930573,24.003387,0.1,200.83835,1609800103437
Fix,GT,37.437367,-122.2407602,43.66498560333252,23.62964,0.1,201.5604,1609800104437
Fix,GT,37.437173,-122.2408625,44.06423620319367,23.079166,0.1,203.7868,1609800105437
Fix,GT,37.4369875,-122.2409727,44.62135418123007,22.459198,0.1,206.53603,1609800106437
Fix,GT,37.4368133,-122.2410944,45.24697840929032,21.809612,0.1,211.36644,1609800107437
Fix,GT,37.4366537,-122.2412317,46.105345924079415,21.157928,0.1,217.11813,1609800108437
Fix,GT,37.4365112,-122.2413847,46.96260371339321,20.492619,0.1,223.38776,1609800109437
Fix,GT,37.4363864,-122.2415503,47.638730216383934,19.864786,0.1,228.77324,1609800110437
Fix,GT,37.4362745,-122.2417206,48.38972399136424,19.18272,0.1,231.32494,1609800111437
Fix,GT,37.4361722,-122.2418894,49.226473367244,18.30181,0.1,233.7755,1609800112437
Fix,GT,37.4360833,-122.2420566,49.94259984385967,17.2364,0.1,238.46307,1609800113437
Fix,GT,37.4360169,-122.2422257,50.59160852676629,16.182026,0.1,248.54446,1609800114437
Fix,GT,37.4359833,-122.2423978,51.18110820159316,15.334506,0.1,261.93304,1609800115437
Fix,GT,37.4359825,-122.2425675,51.630608533322814,14.956476,0.1,275.02557,1609800116437
Fix,GT,37.4360127,-122.2427333,52.34960697543621,15.144746,0.1,287.3872,1609800117437
Fix,GT,37.4360606,-122.2428938,53.00110733926296,15.466265,0.1,291.86862,1609800118437
Fix,GT,37.4361202,-122.2430693,53.852722283661365,18.288963,0.1,293.8419,1609800119437
Fix,GT,37.4361954,-122.243271,54.98121393978596,21.127172,0.1,295.69363,1609800120437
Fix,GT,37.4362847,-122.2434948,56.291212306380274,22.647923,0.1,297.05258,1609800121437
Fix,GT,37.4363812,-122.2437216,57.569961708068845,22.999916,0.1,298.9364,1609800122437
Fix,GT,37.4364888,-122.2439497,58.97333162242174,23.866467,0.1,302.09796,1609800123437
Fix,GT,37.4366112,-122.2441732,60.37633162242175,24.10551,0.1,306.6469,1609800124437
Fix,GT,37.4367491,-122.2443887,61.876576898127794,24.809727,0.1,310.09232,1609800125437
Fix,GT,37.4368994,-122.244601,63.46195644965768,25.268534,0.1,312.4489,1609800126437
Fix,GT,37.4370562,-122.2448115,64.87945624044538,25.848127,0.1,313.11584,1609800127437
Fix,GT,37.4372165,-122.2450269,66.1068357001245,26.264656,0.1,312.7694,1609800128437
Fix,GT,37.4373786,-122.2452465,67.2272127712667,26.679152,0.1,312.74875,1609800129437
Fix,GT,37.4375442,-122.2454679,68.3378404378295,27.046097,0.1,313.41882,1609800130437
Fix,GT,37.4377133,-122.2456874,69.44746779417991,26.88878,0.1,314.24487,1609800131437
Fix,GT,37.4378825,-122.2459025,70.58696634310485,26.60969,0.1,314.63037,1609800132437
Fix,GT,37.4380506,-122.2461154,71.67084706157445,26.426834,0.1,314.55136,1609800133437
Fix,GT,37.4382175,-122.2463281,72.79421944138409,26.44333,0.1,314.25507,1609800134437
Fix,GT,37.438384,-122.2465428,73.90221491765976,26.576471,0.1,314.09393,1609800135437
Fix,GT,37.4385523,-122.2467588,75.00934142440558,26.902954,0.1,314.30112,1609800136437
Fix,GT,37.4387232,-122.2469772,76.07934145134688,27.279545,0.1,314.38846,1609800137437
Fix,GT,37.4388967,-122.2471993,77.20121736824512,27.630081,0.1,314.2265,1609800138437
Fix,GT,37.4390709,-122.2474227,78.30909327733518,27.699532,0.1,314.30096,1609800139437
Fix,GT,37.4392463,-122.2476463,79.42234151870012,27.834616,0.1,314.62302,1609800140437
Fix,GT,37.4394238,-122.2478706,80.54359453359245,28.102898,0.1,314.5478,1609800141437
Fix,GT,37.4396016,-122.2480974,81.65921503090858,28.152573,0.1,314.17404,1609800142437
Fix,GT,37.4397779,-122.2483254,82.77858971500396,28.094913,0.1,313.95215,1609800143437
Fix,GT,37.439954,-122.2485543,83.90109351781011,28.189987,0.1,313.83566,1609800144437
Fix,GT,37.4401306,-122.2487836,85.069840452075,28.21366,0.1,313.99707,1609800145437
Fix,GT,37.440307,-122.2490116,86.22609362822772,27.99728,0.1,314.0979,1609800146437
Fix,GT,37.4404819,-122.2492376,87.33059486818314,27.762379,0.1,314.00937,1609800147437
Fix,GT,37.440655,-122.2494619,88.44046818041801,27.474113,0.1,313.85104,1609800148437
Fix,GT,37.4408256,-122.2496851,89.51146553006768,27.28913,0.1,313.58765,1609800149437
Fix,GT,37.440996,-122.2499084,90.59721764361858,27.422794,0.1,313.6608,1609800150437
Fix,GT,37.4411672,-122.2501327,91.68146825766564,27.569304,0.1,313.623,1609800151437
Fix,GT,37.44134,-122.2503582,92.77508846750854,27.793606,0.1,313.95465,1609800152437
Fix,GT,37.4415148,-122.2505842,93.9947118536234,27.826422,0.1,314.07098,1609800153437
Fix,GT,37.4416885,-122.2508091,95.25483551689982,27.57855,0.1,314.01035,1609800154437
Fix,GT,37.4418598,-122.2510317,96.49871138837936,27.18333,0.1,313.84445,1609800155437
Fix,GT,37.4420283,-122.2512532,97.74184075194596,27.102116,0.1,313.32468,1609800156437
Fix,GT,37.4421944,-122.251478,98.9125931378305,27.037973,0.1,312.25488,1609800157437
Fix,GT,37.4423539,-122.2517042,99.99396960687636,26.372028,0.1,310.46185,1609800158437
Fix,GT,37.4425029,-122.2519312,101.04184851482512,25.659184,0.1,308.40256,1609800159437
Fix,GT,37.4426417,-122.2521579,102.03721719107033,24.94337,0.1,306.73462,1609800160437
Fix,GT,37.4427716,-122.2523832,102.99309613299371,24.249874,0.1,305.0602,1609800161437
Fix,GT,37.4428937,-122.2526058,103.92597744980456,23.583065,0.1,304.05646,1609800162437
Fix,GT,37.4430093,-122.2528246,104.8488479102254,22.872543,0.1,303.06317,1609800163437
Fix,GT,37.4431176,-122.2530398,105.74622496461868,22.189789,0.1,301.44638,1609800164437
Fix,GT,37.4432183,-122.2532522,106.607475566864,21.531733,0.1,300.07132,1609800165437
Fix,GT,37.4433116,-122.2534614,107.42472615349293,20.883242,0.1,298.497,1609800166437
Fix,GT,37.4433978,-122.253667,108.23135145878793,20.252558,0.1,297.12238,1609800167437
Fix,GT,37.4434776,-122.2538684,109.02060530000924,19.542725,0.1,295.81927,1609800168437
Fix,GT,37.4435511,-122.2540651,109.79272850644588,18.921127,0.1,294.47842,1609800169437
Fix,GT,37.4436193,-122.2542596,110.5261065247357,18.81315,0.1,293.29898,1609800170437
Fix,GT,37.4436859,-122.2544588,111.27360539540648,19.488873,0.1,292.16376,1609800171437
Fix,GT,37.4437502,-122.2546632,112.0337318775654,19.333406,0.1,291.00275,1609800172437
Fix,GT,37.4438115,-122.2548691,112.7895987431109,19.61191,0.1,290.07922,1609800173437
Fix,GT,37.4438709,-122.2550792,113.55985607135295,19.9147,0.1,288.97845,1609800174437
Fix,GT,37.4439276,-122.2552939,114.36797682571412,20.075634,0.1,287.6898,1609800175437
Fix,GT,37.4439807,-122.2555107,115.17898257708548,19.961027,0.1,286.60855,1609800176437
Fix,GT,37.4440298,-122.2557245,115.940223957628,19.489174,0.1,285.5138,1609800177437
Fix,GT,37.4440744,-122.2559371,116.70448147296906,19.424545,0.1,284.14075,1609800178437
Fix,GT,37.4441153,-122.2561484,117.46398265376686,18.979717,0.1,283.2129,1609800179437
Fix,GT,37.4441517,-122.2563549,118.177604449749,18.483234,0.1,281.8813,1609800180437
Fix,GT,37.4441836,-122.2565581,118.83997794055938,18.191818,0.1,280.61322,1609800181437
Fix,GT,37.4442121,-122.2567605,119.46248619496822,18.249088,0.1,279.5385,1609800182437
Fix,GT,37.4442378,-122.2569659,120.05747906163336,18.611216,0.1,278.3929,1609800183437
Fix,GT,37.4442607,-122.2571772,120.65372962254288,19.13563,0.1,277.22058,1609800184437
Fix,GT,37.4442809,-122.2573945,121.2451079300642,19.515194,0.1,276.1273,1609800185437
Fix,GT,37.4442979,-122.2576121,121.814609087348,19.124123,0.1,275.10657,1609800186437
Fix,GT,37.4443113,-122.257826,122.3507318866849,18.950607,0.1,274.01254,1609800187437
Fix,GT,37.4443209,-122.2580392,122.82935716176031,18.804094,0.1,272.44257,1609800188437
Fix,GT,37.4443257,-122.2582516,123.28224036619068,18.80114,0.1,271.05377,1609800189437
Fix,GT,37.4443267,-122.2584622,123.70686197519302,18.435196,0.1,269.7768,1609800190437
Fix,GT,37.4443246,-122.2586692,124.10249327507616,18.232838,0.1,268.84564,1609800191437
Fix,GT,37.44432,-122.2588744,124.44461973297597,18.135391,0.1,267.92477,1609800192437
Fix,GT,37.4443123,-122.2590812,124.7487387531698,18.624937,0.1,266.7646,1609800193437
Fix,GT,37.444301,-122.2592938,125.00373874247074,18.947649,0.1,265.6666,1609800194437
Fix,GT,37.4442867,-122.2595071,125.21686891424656,18.865198,0.1,264.85104,1609800195437
Fix,GT,37.4442707,-122.2597187,125.403991625607,18.840075,0.1,264.2736,1609800196437
Fix,GT,37.4442538,-122.2599316,125.5648674902618,19.023666,0.1,264.25168,1609800197437
Fix,GT,37.4442367,-122.2601466,125.6901218109131,19.223999,0.1,264.1828,1609800198437
Fix,GT,37.4442194,-122.2603624,125.7933723896742,19.085054,0.1,264.21112,1609800199437
Fix,GT,37.4442026,-122.2605764,125.85636863869428,18.98634,0.1,264.36597,1609800200437
Fix,GT,37.4441861,-122.2607898,125.9403761420846,19.000591,0.1,264.36078,1609800201437
Fix,GT,37.4441695,-122.2610042,126.03849276167156,19.112453,0.1,264.3529,1609800202437
Fix,GT,37.4441523,-122.2612198,126.17724969679116,19.25023,0.1,264.0628,1609800203437
Fix,GT,37.4441345,-122.2614385,126.31724593615532,19.769285,0.1,264.08575,1609800204437
Fix,GT,37.4441163,-122.2616642,126.4706168782711,20.302845,0.1,264.09897,1609800205437
Fix,GT,37.4440975,-122.2618953,126.57550028917194,20.794704,0.1,264.02255,1609800206437
Fix,GT,37.4440779,-122.2621308,126.71561687096953,21.132595,0.1,263.89102,1609800207437
Fix,GT,37.4440577,-122.2623702,126.84024215909838,21.418476,0.1,263.83646,1609800208437
Fix,GT,37.4440378,-122.2626119,126.95411802586914,21.598183,0.1,264.31885,1609800209437
Fix,GT,37.4440201,-122.2628541,127.0073723896742,21.404472,0.1,264.85788,1609800210437
Fix,GT,37.4440035,-122.263093,127.08886744174362,21.0223,0.1,264.91904,1609800211437
Fix,GT,37.4439866,-122.263328,127.2008773407936,20.83291,0.1,264.60077,1609800212437
Fix,GT,37.4439685,-122.2635619,127.2821279232502,20.678967,0.1,264.22253,1609800213437
Fix,GT,37.4439503,-122.2637927,127.35912792554498,20.33376,0.1,264.1847,1609800214437
Fix,GT,37.4439334,-122.2640193,127.40637850698828,19.998892,0.1,265.07043,1609800215437
Fix,GT,37.443921,-122.2642451,127.4128796672523,20.133593,0.1,266.66095,1609800216437
Fix,GT,37.4439139,-122.2644742,127.38075553634762,20.449356,0.1,268.30588,1609800217437
Fix,GT,37.4439106,-122.2647071,127.35087207445504,20.797735,0.1,269.27512,1609800218437
Fix,GT,37.4439101,-122.2649443,127.29550495377184,21.192118,0.1,270.0844,1609800219437
Fix,GT,37.443913,-122.265186,127.23462381753326,21.600212,0.1,271.35168,1609800220437
Fix,GT,37.4439203,-122.2654322,127.11849969223142,21.963268,0.1,272.60977,1609800221437
Fix,GT,37.4439326,-122.2656814,126.98662993061544,22.183372,0.1,274.27563,1609800222437
Fix,GT,37.4439507,-122.2659317,126.80626131957769,22.32462,0.1,275.5835,1609800223437
Fix,GT,37.443973,-122.2661838,126.58913486301898,22.59441,0.1,276.81592,1609800224437
Fix,GT,37.4440001,-122.2664389,126.32775493320824,22.955122,0.1,278.054,1609800225437
Fix,GT,37.4440324,-122.2666972,126.03975869750975,23.33026,0.1,279.25256,1609800226437
Fix,GT,37.4440684,-122.2669573,125.72500927734376,23.32864,0.1,280.31903,1609800227437
Fix,GT,37.4441084,-122.2672152,125.41138398373128,23.149525,0.1,281.39563,1609800228437
Fix,GT,37.4441523,-122.2674698,125.07663456332683,22.954107,0.1,282.77164,1609800229437
Fix,GT,37.4442008,-122.2677208,124.76000555217266,22.76949,0.1,284.09485,1609800230437
Fix,GT,37.4442532,-122.2679685,124.4588865299821,22.582115,0.1,285.47894,1609800231437
Fix,GT,37.4443109,-122.2682121,124.11851042413711,22.394304,0.1,287.1995,1609800232437
Fix,GT,37.4443732,-122.2684518,123.8020055730939,22.21965,0.1,288.5539,1609800233437
Fix,GT,37.4444392,-122.2686877,123.47801294142008,22.04567,0.1,289.82294,1609800234437
Fix,GT,37.4445095,-122.2689198,123.15763087782264,21.87199,0.1,291.3438,1609800235437
Fix,GT,37.4445834,-122.2691478,122.83263820767402,21.712048,0.1,292.5514,1609800236437
Fix,GT,37.4446604,-122.2693725,122.44463819611072,21.55991,0.1,293.6267,1609800237437
Fix,GT,37.4447397,-122.2695938,122.11525751924516,21.392666,0.1,294.44144,1609800238437
Fix,GT,37.4448212,-122.2698123,121.84538396525384,21.30509,0.1,295.46616,1609800239437
Fix,GT,37.4449061,-122.2700275,121.5707550535202,21.168188,0.1,296.71152,1609800240437
Fix,GT,37.4449939,-122.2702387,121.30826113712789,20.991346,0.1,297.9631,1609800241437
Fix,GT,37.4450845,-122.2704457,121.02363583934309,20.806122,0.1,299.2598,1609800242437
Fix,GT,37.445178,-122.2706482,120.7811274740696,20.635496,0.1,300.46313,1609800243437
Fix,GT,37.4452745,-122.2708489,120.59388049709796,20.94308,0.1,301.35278,1609800244437
Fix,GT,37.445376,-122.2710531,120.45912517145275,21.65094,0.1,302.23178,1609800245437
Fix,GT,37.4454844,-122.2712613,120.3623734382987,22.351398,0.1,303.804,1609800246437
Fix,GT,37.445601,-122.2714719,120.26637344115974,23.044453,0.1,305.25513,1609800247437
Fix,GT,37.4457254,-122.2716853,120.26262170511484,23.718634,0.1,306.761,1609800248437
Fix,GT,37.4458571,-122.2718996,120.31037598180772,24.048435,0.1,308.1345,1609800249437
Fix,GT,37.4459935,-122.2721113,120.46661707150936,24.113686,0.1,309.44562,1609800250437
Fix,GT,37.4461336,-122.2723199,120.6657424776554,24.171368,0.1,310.51688,1609800251437
Fix,GT,37.4462769,-122.272526,120.9008702133596,24.208399,0.1,311.30975,1609800252437
Fix,GT,37.4464214,-122.272731,121.21399074172972,24.218117,0.1,311.3171,1609800253437
Fix,GT,37.4465653,-122.2729375,121.55299436488748,24.318254,0.1,310.98834,1609800254437
Fix,GT,37.4467096,-122.2731449,121.88974379226563,24.410479,0.1,310.93347,1609800255437
Fix,GT,37.446854,-122.2733532,122.3057378435135,24.366993,0.1,310.87466,1609800256437
Fix,GT,37.4469968,-122.2735592,122.76861505037547,23.989803,0.1,311.0144,1609800257437
Fix,GT,37.4471386,-122.273763,123.24373552203178,23.913717,0.1,311.03998,1609800258437
Fix,GT,37.4472803,-122.2739664,123.78411159911752,23.879593,0.1,311.09616,1609800259437
Fix,GT,37.4474219,-122.2741682,124.38748261928558,23.637232,0.1,311.29837,1609800260437
Fix,GT,37.4475616,-122.2743675,125.0183561631441,23.361763,0.1,311.1596,1609800261437
Fix,GT,37.4476999,-122.2745656,125.67772712662816,23.245934,0.1,311.03085,1609800262437
Fix,GT,37.4478375,-122.2747634,126.3213561476469,23.210222,0.1,311.24646,1609800263437
Fix,GT,37.4479757,-122.2749602,126.98548026943206,23.225986,0.1,311.2577,1609800264437
Fix,GT,37.4481147,-122.2751584,127.66648406735064,23.49432,0.1,311.20355,1609800265437
Fix,GT,37.4482547,-122.275358,128.3613538056016,23.565742,0.1,311.2859,1609800266437
Fix,GT,37.4483956,-122.2755578,129.04985495871304,23.55164,0.1,311.48392,1609800267437
Fix,GT,37.4485354,-122.2757544,129.7002319844961,23.055271,0.1,311.73706,1609800268437
Fix,GT,37.4486726,-122.2759455,130.3466066901684,22.454393,0.1,312.01837,1609800269437
Fix,GT,37.4488066,-122.2761312,130.97248255848882,21.88018,0.1,312.1033,1609800270437
Fix,GT,37.4489369,-122.2763127,131.58886117967964,21.411598,0.1,311.45557,1609800271437
Fix,GT,37.4490633,-122.2764959,132.19448648142816,21.545532,0.1,310.33063,1609800272437
Fix,GT,37.4491897,-122.2766835,132.79536236545442,21.846136,0.1,309.9679,1609800273437
Fix,GT,37.4493165,-122.2768725,133.38473310875892,21.82006,0.1,309.94797,1609800274437
Fix,GT,37.4494424,-122.2770602,133.9339876771271,21.576496,0.1,310.0556,1609800275437
Fix,GT,37.4495673,-122.2772455,134.44711414298416,21.41067,0.1,310.13022,1609800276437
Fix,GT,37.4496915,-122.27743,134.89561362814902,21.342522,0.1,309.73218,1609800277437
Fix,GT,37.4498138,-122.2776174,135.25611012911796,21.533712,0.1,308.94833,1609800278437
Fix,GT,37.4499368,-122.2778074,135.66886187058685,21.846207,0.1,308.99887,1609800279437
Fix,GT,37.4500621,-122.2780013,136.0433653678298,22.369106,0.1,308.91736,1609800280437
Fix,GT,37.4501911,-122.2782014,136.39174007189274,22.988754,0.1,308.89886,1609800281437
Fix,GT,37.4503224,-122.2784043,136.7968647894263,23.292732,0.1,308.98956,1609800282437
Fix,GT,37.4504565,-122.2786091,137.15711302298308,23.614933,0.1,309.6753,1609800283437
Fix,GT,37.4505939,-122.2788158,137.40924766489866,23.970205,0.1,309.5459,1609800284437
Fix,GT,37.450732,-122.2790251,137.62411768296363,24.107307,0.1,309.44974,1609800285437
Fix,GT,37.4508705,-122.2792373,137.77824179974198,24.474344,0.1,308.9331,1609800286437
Fix,GT,37.4510088,-122.2794555,137.87961884295942,24.886225,0.1,307.82742,1609800287437
Fix,GT,37.4511477,-122.2796827,137.9141241222024,25.897572,0.1,307.14398,1609800288437
Fix,GT,37.4512927,-122.2799221,137.96350294059516,27.406761,0.1,307.28564,1609800289437
Fix,GT,37.4514475,-122.2801719,138.0124988286495,28.301704,0.1,308.42273,1609800290437
Fix,GT,37.4516083,-122.2804214,137.97987587887047,28.392805,0.1,309.21826,1609800291437
Fix,GT,37.4517708,-122.2806685,137.8416258735955,28.278595,0.1,309.4627,1609800292437
Fix,GT,37.4519333,-122.2809152,137.70938350081445,28.45255,0.1,309.5151,1609800293437
Fix,GT,37.4520984,-122.2811645,137.49000294104218,28.973757,0.1,309.62958,1609800294437
Fix,GT,37.4522671,-122.2814179,137.1873817476034,29.358936,0.1,309.93134,1609800295437
Fix,GT,37.452439,-122.2816734,136.82575707572698,29.816864,0.1,310.4145,1609800296437
Fix,GT,37.4526175,-122.2819302,136.39726233172416,30.513805,0.1,311.3946,1609800297437
Fix,GT,37.4528031,-122.2821925,135.89575946250557,31.584126,0.1,311.38797,1609800298437
Fix,GT,37.4529912,-122.2824627,135.3263935126066,31.817738,0.1,310.59653,1609800299437
Fix,GT,37.4531764,-122.2827355,134.67839351636172,31.597479,0.1,310.13168,1609800300437
Fix,GT,37.4533589,-122.283008,133.98951998591423,31.374151,0.1,309.67462,1609800301437
Fix,GT,37.4535383,-122.2832803,133.3057705862522,31.128643,0.1,309.29776,1609800302437
Fix,GT,37.4537152,-122.2835516,132.61926941382887,30.899435,0.1,309.143,1609800303437
Fix,GT,37.453891,-122.2838207,131.95889078053833,30.690922,0.1,309.31485,1609800304437
Fix,GT,37.4540665,-122.2840875,131.3057706029415,30.495438,0.1,309.48828,1609800305437
Fix,GT,37.4542405,-122.2843525,130.60452001833914,30.271664,0.1,309.26013,1609800306437
Fix,GT,37.4544127,-122.2846161,129.96401884460448,30.041885,0.1,309.17645,1609800307437
Fix,GT,37.4545835,-122.2848777,129.29914532506464,29.809181,0.1,309.27448,1609800308437
Fix,GT,37.4547537,-122.2851369,128.65476826310157,29.595675,0.1,309.41693,1609800309437
Fix,GT,37.4549228,-122.2853939,128.0090212173462,29.361938,0.1,309.30695,1609800310437
Fix,GT,37.4550895,-122.2856494,127.3603973671496,29.072828,0.1,309.26437,1609800311437
Fix,GT,37.4552551,-122.2859021,126.6795153298378,28.797268,0.1,309.2866,1609800312437
Fix,GT,37.4554189,-122.2861526,126.0438923934698,28.54602,0.1,309.15802,1609800313437
Fix,GT,37.4555815,-122.286401,125.36626572212576,28.334484,0.1,309.3451,1609800314437
Fix,GT,37.4557437,-122.2866471,124.6259008320272,28.219328,0.1,309.5032,1609800315437
Fix,GT,37.4559065,-122.2868921,123.9120249260366,28.238453,0.1,309.89514,1609800316437
Fix,GT,37.4560725,-122.287136,123.26789003503322,28.57666,0.1,311.00336,1609800317437
Fix,GT,37.4562465,-122.2873776,122.80688898161054,29.016495,0.1,312.96054,1609800318437
Fix,GT,37.4564299,-122.2876147,122.43951061725616,29.46185,0.1,314.95212,1609800319437
Fix,GT,37.4566229,-122.2878479,122.19975048735736,30.097591,0.1,317.05124,1609800320437
Fix,GT,37.4568278,-122.2880772,122.07099872153998,30.80854,0.1,319.1736,1609800321437
Fix,GT,37.457042,-122.2883008,122.06499763965608,30.975279,0.1,321.08472,1609800322437
Fix,GT,37.4572629,-122.2885165,122.21011939418317,31.200516,0.1,322.7457,1609800323437
Fix,GT,37.4574903,-122.2887261,122.52086408340932,31.440357,0.1,324.435,1609800324437
Fix,GT,37.4577248,-122.2889279,122.99036184901,31.682201,0.1,326.56827,1609800325437
Fix,GT,37.4579665,-122.2891198,123.56148598095774,31.74772,0.1,328.8035,1609800326437
Fix,GT,37.4582147,-122.2892979,124.19722801220418,31.781837,0.1,331.4182,1609800327437
Fix,GT,37.4584691,-122.2894638,124.80710151931645,31.797844,0.1,333.33188,1609800328437
Fix,GT,37.4587269,-122.2896194,125.4806003279388,31.734043,0.1,335.07672,1609800329437
Fix,GT,37.458988,-122.2897651,126.158605024904,31.696411,0.1,336.79526,1609800330437
Fix,GT,37.4592524,-122.2898996,126.81498113250731,31.651882,0.1,338.91656,1609800331437
Fix,GT,37.4595204,-122.2900213,127.38035819613933,31.574482,0.1,341.1779,1609800332437
Fix,GT,37.4597902,-122.2901304,128.03636201298235,31.372284,0.1,342.91296,1609800333437
Fix,GT,37.4600611,-122.2902279,128.6838531807065,31.195107,0.1,344.792,1609800334437
Fix,GT,37.4603332,-122.290314,129.3642355786264,31.104225,0.1,346.86584,1609800335437
Fix,GT,37.4606072,-122.2903852,130.03810373702646,31.032928,0.1,349.62454,1609800336437
Fix,GT,37.4608836,-122.2904425,130.6461076170802,31.160883,0.1,351.81705,1609800337437
Fix,GT,37.4611642,-122.2904833,131.2453582097292,31.572664,0.1,354.93347,1609800338437
Fix,GT,37.4614491,-122.2905072,131.86948232960702,31.76962,0.1,357.0085,1609800339437
Fix,GT,37.4617358,-122.290522,132.61972586023808,31.945614,0.1,357.97787,1609800340437
Fix,GT,37.4620247,-122.2905329,133.46259777855877,32.23333,0.1,358.45828,1609800341437
Fix,GT,37.462316,-122.2905409,134.17660011956096,32.409935,0.1,358.86484,1609800342437
Fix,GT,37.4626084,-122.2905485,134.8238570641875,32.487522,0.1,358.53528,1609800343437
Fix,GT,37.4629012,-122.290557,135.47760244116188,32.53187,0.1,358.5176,1609800344437
Fix,GT,37.4631945,-122.2905665,136.18448001408578,32.590878,0.1,358.41275,1609800345437
Fix,GT,37.4634873,-122.2905762,136.9699700679481,32.37886,0.1,358.43167,1609800346437
Fix,GT,37.4637773,-122.2905871,137.92897416734695,32.009846,0.1,358.00122,1609800347437
Fix,GT,37.4640634,-122.2906026,138.75160238114,31.574707,0.1,356.92102,1609800348437
Fix,GT,37.4643457,-122.2906253,139.2139882721901,31.236946,0.1,355.55386,1609800349437
Fix,GT,37.4646246,-122.290656,139.63048528942466,30.904076,0.1,354.26004,1609800350437
Fix,GT,37.4648992,-122.2906942,140.0204852820933,30.403429,0.1,352.93848,1609800351437
Fix,GT,37.4651683,-122.2907397,140.33436952123046,29.872713,0.1,351.5363,1609800352437
Fix,GT,37.4654319,-122.2907925,140.63223469161989,29.363943,0.1,350.42682,1609800353437
Fix,GT,37.4656905,-122.290848,140.87798782399298,28.883114,0.1,350.15152,1609800354437
Fix,GT,37.4659448,-122.2909035,141.16936769396068,28.399979,0.1,350.2912,1609800355437
Fix,GT,37.466195,-122.2909569,141.51660705465076,27.916409,0.1,350.2882,1609800356437
Fix,GT,37.46644,-122.2910101,141.8577358496487,27.18938,0.1,349.85443,1609800357437
Fix,GT,37.4666757,-122.2910659,142.2038707790971,26.061,0.1,348.6358,1609800358437
Fix,GT,37.4669015,-122.2911274,142.33075174880028,25.223633,0.1,346.95602,1609800359437
Fix,GT,37.4671173,-122.2911932,142.1436388500631,24.082687,0.1,345.73837,1609800360437
Fix,GT,37.4673206,-122.2912606,141.7823929066956,22.51875,0.1,344.7375,1609800361437
Fix,GT,37.4675108,-122.2913275,141.1506462292075,21.480984,0.1,343.8632,1609800362437
Fix,GT,37.4676925,-122.2913967,140.62327383184433,20.68809,0.1,342.2996,1609800363437
Fix,GT,37.4678657,-122.2914711,139.82427613544465,19.978348,0.1,340.16364,1609800364437
Fix,GT,37.4680315,-122.2915476,138.8973984157443,19.080208,0.1,339.55695,1609800365437
Fix,GT,37.4681845,-122.2916172,137.95177725219727,16.938862,0.1,340.3922,1609800366437
Fix,GT,37.4683188,-122.2916746,137.05702725741267,14.549299,0.1,341.63284,1609800367437
Fix,GT,37.4684342,-122.2917203,136.35401213935015,12.327141,0.1,342.8605,1609800368437
Fix,GT,37.4685298,-122.2917565,135.92551446148752,9.793823,0.1,343.15045,1609800369437
Fix,GT,37.4686036,-122.2917872,135.68987644451855,7.574887,0.1,340.1825,1609800370437
Fix,GT,37.468658,-122.2918162,135.59537297931314,5.411748,0.1,335.9413,1609800371437
Fix,GT,37.4686897,-122.2918371,135.539875864923,2.524789,0.1,332.41797,1609800372437
Fix,GT,37.4687013,-122.2918454,135.52162528800963,0.6077968,0.1,330.98062,1609800373437
Fix,GT,37.4687025,-122.2918463,135.5106252878308,0.13076878,0.1,330.8258,1609800374437
Fix,GT,37.4687073,-122.2918499,135.501,1.3355436,0.1,330.30124,1609800375437
Fix,GT,37.4687245,-122.2918636,135.49725057470798,3.3059149,0.1,328.29907,1609800376437
Fix,GT,37.4687581,-122.2918973,135.5408799009025,5.9749107,0.1,319.90573,1609800377437
Fix,GT,37.4687924,-122.2919562,135.76487531617283,6.9938965,0.1,301.48804,1609800378437
Fix,GT,37.4688048,-122.2920386,135.94424827945232,7.7017107,0.1,272.5492,1609800379437
Fix,GT,37.4687817,-122.2921265,135.9273747137189,9.0459585,0.1,244.71432,1609800380437
Fix,GT,37.4687256,-122.292215,135.96287762218714,11.020504,0.1,227.31633,1609800381437
Fix,GT,37.4686479,-122.2923093,135.97874537599083,12.810187,0.1,223.46645,1609800382437
Fix,GT,37.4685631,-122.2924105,135.92388219121096,13.016708,0.1,223.45183,1609800383437
Fix,GT,37.4684772,-122.2925155,135.7442574169636,13.77392,0.1,224.77599,1609800384437
Fix,GT,37.4683901,-122.2926312,135.43713782632352,14.349735,0.1,227.87068,1609800385437
Fix,GT,37.4683042,-122.292755,134.99714183261992,14.529852,0.1,228.88847,1609800386437
Fix,GT,37.4682178,-122.2928748,134.461392919302,13.899055,0.1,226.92253,1609800387437
Fix,GT,37.4681333,-122.2929828,133.83527047082782,12.816708,0.1,224.86154,1609800388437
Fix,GT,37.468056,-122.2930813,133.1583951524496,11.617577,0.1,226.3377,1609800389437
Fix,GT,37.4679948,-122.2931794,132.4435192847252,10.569621,0.1,236.195,1609800390437
Fix,GT,37.4679617,-122.2932866,131.61165867322683,10.199784,0.1,256.38583,1609800391437
Fix,GT,37.4679706,-122.2934019,130.77613836687803,10.422966,0.1,285.84973,1609800392437
Fix,GT,37.4680223,-122.2935028,130.59087358617782,11.034943,0.1,309.0637,1609800393437
Fix,GT,37.4680975,-122.2935982,130.632374717474,12.905458,0.1,315.9643,1609800394437
Fix,GT,37.4681886,-122.2937052,130.79274717772006,14.266499,0.1,317.1835,1609800395437
Fix,GT,37.468286,-122.2938157,130.97886231315135,14.96648,0.1,317.47058,1609800396437
Fix,GT,37.468388,-122.2939321,131.4668561576605,15.629054,0.1,317.45685,1609800397437
Fix,GT,37.4684946,-122.2940522,132.11922636786102,16.031734,0.1,318.36093,1609800398437
Fix,GT,37.468605,-122.2941644,132.8694808895588,15.43066,0.1,323.36575,1609800399437
Fix,GT,37.4687222,-122.2942486,133.65897530031205,14.620326,0.1,335.86652,1609800400437
Fix,GT,37.468846,-122.2942888,134.5659708342552,13.979002,0.1,352.2571,1609800401437
Fix,GT,37.468971,-122.2942803,135.55447825753689,14.00417,0.1,10.170929,1609800402437
Fix,GT,37.4690884,-122.2942233,136.4563437808454,14.088179,0.1,28.17456,1609800403437
Fix,GT,37.4691866,-122.2941223,137.31184713467957,14.225602,0.1,46.602966,1609800404437
Fix,GT,37.4692588,-122.2939846,138.17309510135652,15.013771,0.1,63.276337,1609800405437
Fix,GT,37.4692961,-122.293822,139.07635206535457,15.092048,0.1,81.44919,1609800406437
Fix,GT,37.4692887,-122.2936533,140.00948074239494,15.046221,0.1,101.393585,1609800407437
Fix,GT,37.4692354,-122.2934945,140.8231018719077,15.643772,0.1,120.68567,1609800408437
Fix,GT,37.4691427,-122.2933543,141.54248329520226,16.74085,0.1,134.25235,1609800409437
Fix,GT,37.4690284,-122.2932197,142.1508580313325,17.999897,0.1,137.74109,1609800410437
Fix,GT,37.4689007,-122.2930797,142.66298665618896,19.842403,0.1,139.79166,1609800411437
Fix,GT,37.4687544,-122.2929323,143.0607450003624,21.788084,0.1,142.44678,1609800412437
Fix,GT,37.4685903,-122.2927808,142.99775610542298,23.41183,0.1,144.62677,1609800413437
Fix,GT,37.46841,-122.2926294,142.83263397020102,24.622936,0.1,147.625,1609800414437
Fix,GT,37.4682147,-122.2924827,142.61200239643455,25.95692,0.1,150.16138,1609800415437
Fix,GT,37.4680037,-122.2923397,142.38400867384672,27.127691,0.1,152.8573,1609800416437
Fix,GT,37.4677811,-122.2922048,142.1456339416206,27.683212,0.1,155.21729,1609800417437
Fix,GT,37.4675506,-122.292076,141.91375829696656,28.323643,0.1,156.48541,1609800418437
Fix,GT,37.4673113,-122.2919488,141.58676271378994,29.544233,0.1,157.62366,1609800419437
Fix,GT,37.4670583,-122.2918235,141.3221308003664,30.705643,0.1,159.07788,1609800420437
Fix,GT,37.4667953,-122.2917042,141.05613300484418,31.413155,0.1,161.19604,1609800421437
Fix,GT,37.466524,-122.2915942,140.73563410699367,31.806755,0.1,162.80774,1609800422437
Fix,GT,37.4662482,-122.2914933,140.38713520646095,31.958008,0.1,164.6062,1609800423437
Fix,GT,37.4659694,-122.2914024,140.04088244473934,31.9928,0.1,166.14062,1609800424437
Fix,GT,37.4656886,-122.2913209,139.7352571643591,31.97958,0.1,167.60107,1609800425437
Fix,GT,37.4654063,-122.2912494,139.4645099155903,31.896544,0.1,169.37329,1609800426437
Fix,GT,37.4651242,-122.2911896,139.06613544496895,31.680271,0.1,171.38995,1609800427437
Fix,GT,37.4648412,-122.2911414,138.74513711330297,31.747105,0.1,173.01318,1609800428437
Fix,GT,37.4645561,-122.2911035,138.34601100301742,31.883636,0.1,174.82367,1609800429437
Fix,GT,37.464269,-122.2910765,137.90438792294265,32.023235,0.1,176.51532,1609800430437
Fix,GT,37.4639802,-122.291059,137.4700068949163,32.14664,0.1,177.6706,1609800431437
Fix,GT,37.4636904,-122.2910458,137.08426153814793,32.20784,0.1,178.0152,1609800432437
Fix,GT,37.4634001,-122.291034,136.5852699996531,32.280594,0.1,178.17065,1609800433437
Fix,GT,37.463109,-122.2910229,135.98514174324276,32.324306,0.1,178.1806,1609800434437
Fix,GT,37.4628192,-122.2910114,135.38901755905152,32.01983,0.1,178.06842,1609800435437
Fix,GT,37.4625324,-122.2909999,134.8457644414306,31.672577,0.1,178.17249,1609800436437
Fix,GT,37.4622489,-122.2909888,134.50375421747566,31.286236,0.1,178.31573,1609800437437
Fix,GT,37.4619688,-122.2909787,134.23576002949477,30.923256,0.1,178.28406,1609800438437
Fix,GT,37.4616919,-122.2909648,133.92726550117135,30.597149,0.1,176.94385,1609800439437
Fix,GT,37.4614182,-122.2909402,133.43201932302117,30.335827,0.1,174.70251,1609800440437
Fix,GT,37.4611475,-122.2909039,132.827265892148,30.104446,0.1,173.33948,1609800441437
Fix,GT,37.4608792,-122.2908603,132.2293961979747,29.95039,0.1,171.84155,1609800442437
Fix,GT,37.4606133,-122.2908069,131.63438613831997,29.822887,0.1,169.90979,1609800443437
Fix,GT,37.4603501,-122.2907423,131.0255203331709,29.689735,0.1,167.75116,1609800444437
Fix,GT,37.4600901,-122.2906661,130.49314169961215,29.57635,0.1,165.849,1609800445437
Fix,GT,37.4598333,-122.2905792,129.8505147433281,29.523136,0.1,164.14471,1609800446437
Fix,GT,37.4595777,-122.2904826,129.25426421365142,29.729366,0.1,162.28058,1609800447437
Fix,GT,37.4593226,-122.2903754,128.66864059776069,29.998281,0.1,160.70941,1609800448437
Fix,GT,37.4590678,-122.2902583,128.13439004719257,30.273844,0.1,159.02197,1609800449437
Fix,GT,37.458813,-122.2901292,127.54414169234038,30.732868,0.1,156.90619,1609800450437
Fix,GT,37.4585583,-122.2899861,126.89339442878962,31.226425,0.1,154.83221,1609800451437
Fix,GT,37.4583037,-122.289829,126.22226586794856,31.742905,0.1,152.72498,1609800452437
Fix,GT,37.4580502,-122.2896574,125.59202125120164,32.204536,0.1,150.63245,1609800453437
Fix,GT,37.4577981,-122.289474,124.98864058756828,32.329628,0.1,149.12622,1609800454437
Fix,GT,37.4575512,-122.2892829,124.4620131263733,32.09922,0.1,147.26926,1609800455437
Fix,GT,37.4573118,-122.2890813,124.01313293224572,31.915154,0.1,145.04312,1609800456437
Fix,GT,37.45708,-122.2888705,123.75713293224574,31.635662,0.1,142.96857,1609800457437
Fix,GT,37.4568555,-122.2886511,123.55300805923342,31.589703,0.1,141.12097,1609800458437
Fix,GT,37.4566366,-122.2884221,123.47100218868256,31.7368,0.1,139.26999,1609800459437
Fix,GT,37.456422,-122.2881832,123.54937034803628,31.945408,0.1,137.4082,1609800460437
Fix,GT,37.4562133,-122.2879338,123.8003659657836,32.003292,0.1,135.29349,1609800461437
Fix,GT,37.4560121,-122.2876748,124.145610624969,31.982008,0.1,133.19104,1609800462437
Fix,GT,37.455819,-122.287407,124.59748576426506,31.951942,0.1,131.09723,1609800463437
Fix,GT,37.4556323,-122.2871319,125.03286114156246,31.968355,0.1,129.76202,1609800464437
Fix,GT,37.455449,-122.2868527,125.29298750302196,32.02102,0.1,129.19879,1609800465437
Fix,GT,37.4552661,-122.2865732,125.677615871042,31.949001,0.1,129.43799,1609800466437
Fix,GT,37.4550826,-122.2862957,126.26135718983411,31.880325,0.1,129.70453,1609800467437
Fix,GT,37.4548994,-122.2860182,126.97672154852748,31.900478,0.1,129.5011,1609800468437
Fix,GT,37.4547157,-122.2857402,127.68335498911142,31.991581,0.1,129.65155,1609800469437
Fix,GT,37.4545315,-122.2854616,128.36748135972024,32.074867,0.1,129.41528,1609800470437
Fix,GT,37.4543479,-122.2851812,129.07948354554176,32.157413,0.1,129.20929,1609800471437
Fix,GT,37.4541641,-122.2848994,129.80798464250566,32.27817,0.1,129.28033,1609800472437
Fix,GT,37.4539792,-122.2846176,130.48310273191333,32.249325,0.1,129.52478,1609800473437
Fix,GT,37.4537939,-122.2843382,131.17498415243625,32.131744,0.1,129.74664,1609800474437
Fix,GT,37.4536083,-122.2840581,131.89110048645733,32.323822,0.1,129.5094,1609800475437
Fix,GT,37.4534224,-122.2837753,132.6315993666351,32.540073,0.1,129.29947,1609800476437
Fix,GT,37.4532364,-122.2834899,133.3529864049256,32.611805,0.1,129.14401,1609800477437
Fix,GT,37.4530507,-122.2832044,134.01272788530588,32.67312,0.1,129.15381,1609800478437
Fix,GT,37.4528632,-122.2829177,134.62148973077535,32.948547,0.1,129.3966,1609800479437
Fix,GT,37.4526737,-122.2826304,135.17460806167128,33.011124,0.1,129.68323,1609800480437
Fix,GT,37.4524829,-122.2823432,135.6762392064929,33.16777,0.1,129.6589,1609800481437
Fix,GT,37.4522932,-122.2820559,136.11886077588795,32.782158,0.1,129.47397,1609800482437
Fix,GT,37.452106,-122.2817712,136.48649417200684,32.607494,0.1,129.37411,1609800483437
Fix,GT,37.4519192,-122.2814861,136.77411350110174,32.697277,0.1,129.37344,1609800484437
Fix,GT,37.451732,-122.2811999,137.01186922591924,32.818447,0.1,129.14282,1609800485437
Fix,GT,37.4515446,-122.280912,137.21824615061283,32.958138,0.1,129.25403,1609800486437
Fix,GT,37.4513561,-122.2806249,137.346252443254,32.824986,0.1,129.5694,1609800487437
Fix,GT,37.4511674,-122.2803404,137.40574945008757,32.676853,0.1,129.80447,1609800488437
Fix,GT,37.4509788,-122.2800574,137.39824834954737,32.63434,0.1,129.76877,1609800489437
Fix,GT,37.4507913,-122.2797721,137.29087802714108,32.719296,0.1,129.1471,1609800490437
Fix,GT,37.4506057,-122.2794872,137.16262559187413,32.382797,0.1,129.21173,1609800491437
Fix,GT,37.4504218,-122.2792056,136.9392530759871,32.042004,0.1,129.17096,1609800492437
Fix,GT,37.4502403,-122.2789266,136.70575418403746,31.689312,0.1,129.10718,1609800493437
Fix,GT,37.4500608,-122.2786504,136.37663628542424,31.393589,0.1,129.16412,1609800494437
Fix,GT,37.4498825,-122.278377,135.94076266717911,31.098999,0.1,129.34991,1609800495437
Fix,GT,37.449705,-122.278107,135.54088683849574,30.88158,0.1,129.57916,1609800496437
Fix,GT,37.4495269,-122.2778375,135.01101139163973,31.178709,0.1,129.5369,1609800497437
Fix,GT,37.4493459,-122.277564,134.4905165116787,31.690355,0.1,129.74585,1609800498437
Fix,GT,37.4491621,-122.2772895,133.84201761245728,31.739193,0.1,130.21161,1609800499437
Fix,GT,37.4489766,-122.2770161,133.1287754266262,31.789978,0.1,130.41599,1609800500437
Fix,GT,37.4487902,-122.2767426,132.3226455345452,31.904575,0.1,130.51486,1609800501437
Fix,GT,37.4486022,-122.2764684,131.4281544805169,32.134384,0.1,130.76263,1609800502437
Fix,GT,37.4484114,-122.2761931,130.50402029272914,32.427814,0.1,131.07697,1609800503437
Fix,GT,37.4482182,-122.275916,129.5888961443901,32.708103,0.1,131.0664,1609800504437
Fix,GT,37.4480234,-122.2756365,128.66015054875612,33.009766,0.1,131.11127,1609800505437
Fix,GT,37.4478266,-122.2753547,127.6931543470323,33.28356,0.1,131.1286,1609800506437
Fix,GT,37.4476281,-122.2750707,126.72939730614424,33.532166,0.1,131.20068,1609800507437
Fix,GT,37.4474282,-122.2747851,125.76740107554198,33.736496,0.1,131.25467,1609800508437
Fix,GT,37.4472269,-122.2744979,124.8059021616578,33.94161,0.1,131.27081,1609800509437
Fix,GT,37.4470244,-122.2742091,123.85702782803774,34.054764,0.1,131.2815,1609800510437
Fix,GT,37.4468219,-122.2739212,123.0118955680728,33.929558,0.1,131.40833,1609800511437
Fix,GT,37.4466197,-122.273634,122.28239226967096,33.855583,0.1,131.32953,1609800512437
Fix,GT,37.4464185,-122.2733473,121.70614095908402,33.69943,0.1,131.24377,1609800513437
Fix,GT,37.4462195,-122.2730624,121.38362823152542,33.328194,0.1,131.1442,1609800514437
Fix,GT,37.4460231,-122.2727802,121.13113436239956,33.019753,0.1,131.15967,1609800515437
Fix,GT,37.4458288,-122.2724997,120.98512714505196,32.728672,0.1,130.54181,1609800516437
Fix,GT,37.4456405,-122.2722168,120.86313215991856,32.477512,0.1,128.98529,1609800517437
Fix,GT,37.4454608,-122.2719288,120.79512996840477,32.239162,0.1,127.076385,1609800518437
Fix,GT,37.4452902,-122.2716356,120.7998736320734,31.998926,0.1,125.158875,1609800519437
Fix,GT,37.4451285,-122.2713377,120.87524617147446,31.795982,0.1,123.13104,1609800520437
Fix,GT,37.4449752,-122.2710353,121.04286925846338,31.633661,0.1,121.83536,1609800521437
Fix,GT,37.4448274,-122.270731,121.36724180138113,31.427193,0.1,120.72003,1609800522437
Fix,GT,37.4446867,-122.2704245,121.68237179619076,31.179688,0.1,118.98053,1609800523437
Fix,GT,37.4445556,-122.2701147,122.04436743563414,30.878082,0.1,116.87909,1609800524437
Fix,GT,37.4444338,-122.269802,122.41261216950416,30.758694,0.1,115.204895,1609800525437
Fix,GT,37.444319,-122.2694846,122.69536162352564,30.921118,0.1,113.46875,1609800526437
Fix,GT,37.4442116,-122.2691626,123.0099927471578,30.82135,0.1,111.91968,1609800527437
Fix,GT,37.4441119,-122.2688383,123.4453681782484,30.7053,0.1,110.185425,1609800528437
Fix,GT,37.4440202,-122.2685111,123.7687407244444,30.733322,0.1,108.569336,1609800529437
Fix,GT,37.443935,-122.2681803,124.12511545789242,30.777363,0.1,107.173035,1609800530437
Fix,GT,37.4438562,-122.2678469,124.4789890971184,30.761473,0.1,105.75018,1609800531437
Fix,GT,37.443785,-122.2675106,124.83574073863028,30.845924,0.1,103.90689,1609800532437
Fix,GT,37.4437226,-122.2671703,125.19249019598962,30.945335,0.1,101.91293,1609800533437
Fix,GT,37.4436689,-122.2668271,125.52811921209096,30.952612,0.1,100.30475,1609800534437
Fix,GT,37.4436224,-122.2664821,125.87474074673652,30.986284,0.1,98.83496,1609800535437
Fix,GT,37.4435833,-122.2661343,126.17061280614138,31.183645,0.1,97.15466,1609800536437
Fix,GT,37.4435523,-122.2657829,126.46287305653097,31.408733,0.1,95.54144,1609800537437
Fix,GT,37.4435285,-122.2654289,126.67061497041584,31.375689,0.1,94.018036,1609800538437
Fix,GT,37.4435121,-122.2650757,126.83212578901647,31.276836,0.1,92.55884,1609800539437
Fix,GT,37.4435036,-122.2647222,126.96287525066734,31.359785,0.1,90.819214,1609800540437
Fix,GT,37.443504,-122.2643671,126.99275324112178,31.502487,0.1,88.95538,1609800541437
Fix,GT,37.4435127,-122.2640102,126.91174567434192,31.628723,0.1,87.35675,1609800542437
Fix,GT,37.4435305,-122.2636538,126.91100217342375,31.586311,0.1,85.479614,1609800543437
Fix,GT,37.443557,-122.2632986,126.86988176926972,31.557056,0.1,83.733246,1609800544437
Fix,GT,37.4435918,-122.2629443,126.61688450455664,31.642227,0.1,82.164246,1609800545437
Fix,GT,37.443632,-122.2625893,126.27526516798136,31.85144,0.1,81.82944,1609800546437
Fix,GT,37.4436716,-122.2622313,125.9156377094686,32.136246,0.1,82.27374,1609800547437
Fix,GT,37.4437098,-122.2618697,125.5663871562183,32.412777,0.1,82.421234,1609800548437
Fix,GT,37.4437482,-122.2615056,125.31350169214606,32.57353,0.1,82.2876,1609800549437
Fix,GT,37.4437874,-122.2611399,125.1091306977272,32.735195,0.1,82.20688,1609800550437
Fix,GT,37.4438279,-122.2607725,124.91100434112548,32.91949,0.1,81.759094,1609800551437
Fix,GT,37.4438704,-122.2604036,124.69338495609163,32.959557,0.1,81.75101,1609800552437
Fix,GT,37.4439109,-122.2600361,124.3795060571134,32.722145,0.1,82.4451,1609800553437
Fix,GT,37.4439461,-122.2596692,123.94563242614272,32.698948,0.1,83.78015,1609800554437
Fix,GT,37.4439737,-122.2593012,123.4347683224976,32.74428,0.1,85.37152,1609800555437
Fix,GT,37.4439929,-122.2589315,122.90963679653404,32.823277,0.1,87.048676,1609800556437
Fix,GT,37.4440017,-122.2585603,122.2918968217969,32.928364,0.1,89.48212,1609800557437
Fix,GT,37.4439985,-122.2581877,121.5701458916664,33.029316,0.1,91.53943,1609800558437
Fix,GT,37.4439841,-122.2578148,120.77027441883088,32.969604,0.1,94.09207,1609800559437
Fix,GT,37.4439568,-122.2574448,119.88665488916637,32.789257,0.1,96.28305,1609800560437
Fix,GT,37.4439197,-122.2570783,118.92302603530884,32.633034,0.1,98.00342,1609800561437
Fix,GT,37.4438745,-122.2567145,117.8822822458744,32.55712,0.1,99.7832,1609800562437
Fix,GT,37.4438195,-122.2563526,116.75165214142204,32.659966,0.1,101.884186,1609800563437
Fix,GT,37.4437526,-122.2559925,115.55415542888642,32.798428,0.1,104.35571,1609800564437
Fix,GT,37.4436724,-122.2556356,114.228283991158,32.81829,0.1,106.996216,1609800565437
Fix,GT,37.4435807,-122.2552825,112.86303685092926,32.915936,0.1,108.95593,1609800566437
Fix,GT,37.4434799,-122.254932,111.51728405550122,33.042183,0.1,110.55829,1609800567437
Fix,GT,37.4433705,-122.2545838,110.17778957408666,33.19738,0.1,112.38956,1609800568437
Fix,GT,37.4432517,-122.2542386,108.84341480514408,33.338326,0.1,114.26166,1609800569437
Fix,GT,37.4431224,-122.2538979,107.4815346841216,33.46038,0.1,116.72748,1609800570437
Fix,GT,37.4429807,-122.2535631,106.12765891259907,33.63809,0.1,119.14426,1609800571437
Fix,GT,37.4428276,-122.2532338,104.76741152364016,33.83338,0.1,121.372894,1609800572437
Fix,GT,37.4426633,-122.2529108,103.39991259753704,33.915604,0.1,123.68109,1609800573437
Fix,GT,37.4424885,-122.2525968,102.03340846118331,33.860924,0.1,126.052246,1609800574437
Fix,GT,37.4423052,-122.2522918,100.72527780848742,33.74022,0.1,127.87683,1609800575437
Fix,GT,37.4421144,-122.251996,99.37440850824116,33.626987,0.1,129.8927,1609800576437
Fix,GT,37.4419155,-122.2517102,97.94340929871798,33.52692,0.1,132.32703,1609800577437
Fix,GT,37.4417098,-122.2514337,96.74352842620016,33.40261,0.1,133.40344,1609800578437
Fix,GT,37.4415021,-122.2511614,95.53403453826904,33.279224,0.1,133.89224,1609800579437
Fix,GT,37.4412939,-122.2508916,94.19828506243228,33.187332,0.1,133.94867,1609800580437
Fix,GT,37.4410866,-122.250622,92.85591247326136,33.096443,0.1,133.89795,1609800581437
Fix,GT,37.4408801,-122.250353,91.59440923058986,33.01199,0.1,133.63364,1609800582437
Fix,GT,37.4406752,-122.2500832,90.25665974658727,32.920536,0.1,133.5426,1609800583437
Fix,GT,37.4404709,-122.2498143,88.9632871543169,32.8272,0.1,133.53021,1609800584437
Fix,GT,37.4402673,-122.2495459,87.65115602204203,32.743,0.1,133.52945,1609800585437
Fix,GT,37.440064,-122.2492785,86.35503183737399,32.659832,0.1,133.67242,1609800586437
Fix,GT,37.4398601,-122.249013,85.12678639054299,32.58162,0.1,134.05112,1609800587437
Fix,GT,37.4396551,-122.2487495,83.85916500931978,32.577564,0.1,134.3377,1609800588437
Fix,GT,37.4394489,-122.2484871,82.3946663621664,32.617302,0.1,134.69379,1609800589437
Fix,GT,37.4392414,-122.2482261,81.0771585201621,32.62361,0.1,134.932,1609800590437
Fix,GT,37.4390335,-122.247966,79.75941355213523,32.561035,0.1,135.00879,1609800591437
Fix,GT,37.4388263,-122.2477074,78.45866187483072,32.27051,0.1,135.12045,1609800592437
Fix,GT,37.4386214,-122.2474533,77.11854173088074,31.615665,0.1,135.6034,1609800593437
Fix,GT,37.4384179,-122.2472099,75.97565733933449,30.81631,0.1,136.9881,1609800594437
Fix,GT,37.4382151,-122.2469786,74.70915420657397,30.026321,0.1,138.53241,1609800595437
Fix,GT,37.4380124,-122.2467608,73.4754089050889,29.22732,0.1,139.9578,1609800596437
Fix,GT,37.437812,-122.246553,72.25991420942545,28.553856,0.1,140.52542,1609800597437
Fix,GT,37.4376152,-122.2463506,71.06165510380268,27.875847,0.1,140.61444,1609800598437
Fix,GT,37.4374241,-122.2461542,69.92452872532606,26.9934,0.1,140.6806,1609800599437
Fix,GT,37.4372392,-122.2459636,68.91640242415667,26.204617,0.1,140.6159,1609800600437
Fix,GT,37.4370584,-122.2457763,67.79665719509126,25.83027,0.1,140.48596,1609800601437
Fix,GT,37.4368818,-122.2455915,66.64865305536985,25.232859,0.1,139.97098,1609800602437
Fix,GT,37.43671,-122.2454085,65.38003206574916,24.886343,0.1,139.39978,1609800603437
Fix,GT,37.4365421,-122.2452266,64.08966138696671,24.302122,0.1,138.82895,1609800604437
Fix,GT,37.4363811,-122.2450487,62.78277944359184,23.22296,0.1,138.36523,1609800605437
Fix,GT,37.4362282,-122.2448784,61.58090733578801,22.349566,0.1,138.37753,1609800606437
Fix,GT,37.4360788,-122.2447131,60.43202968025207,21.826368,0.1,138.57031,1609800607437
Fix,GT,37.4359355,-122.2445549,59.361774887800216,20.310972,0.1,138.60999,1609800608437
Fix,GT,37.4358067,-122.2444128,58.49789484834672,17.756826,0.1,138.66034,1609800609437
Fix,GT,37.4356939,-122.2442883,57.87701097324491,15.736214,0.1,138.46667,1609800610437
Fix,GT,37.4355951,-122.244179,57.50263372540474,13.405196,0.1,138.60254,1609800611437
Fix,GT,37.4355137,-122.2440894,57.29137896341085,10.629702,0.1,138.76434,1609800612437
Fix,GT,37.4354515,-122.2440211,57.16037514495849,7.60528,0.1,138.88312,1609800613437
Fix,GT,37.4354095,-122.2439752,57.09775158393383,4.9914303,0.1,138.92456,1609800614437
Fix,GT,37.4353824,-122.2439453,57.05250105571747,3.072709,0.1,138.91815,1609800615437
Fix,GT,37.4353659,-122.2439272,56.99100211048126,2.1429205,0.1,138.9119,1609800616437
Fix,GT,37.4353501,-122.2439099,56.93649935752154,2.5858595,0.1,138.92822,1609800617437
Fix,GT,37.4353292,-122.2438869,56.89474988523126,3.7152414,0.1,138.92474,1609800618437
Fix,GT,37.4352982,-122.2438528,56.82325094005465,5.432642,0.1,138.70953,1609800619437
Fix,GT,37.4352583,-122.2438031,56.7275031592846,6.911888,0.1,133.53342,1609800620437
Fix,GT,37.4352196,-122.2437356,56.52138273522258,7.8581276,0.1,122.94391,1609800621437
Fix,GT,37.4351917,-122.2436498,56.34725473248959,8.558777,0.1,107.5845,1609800622437
Fix,GT,37.4351859,-122.243551,56.15325052535535,8.979639,0.1,87.742065,1609800623437
Fix,GT,37.4352124,-122.243453,55.9217599772215,9.529145,0.1,64.143005,1609800624437
Fix,GT,37.435261,-122.2433566,55.580882082641125,10.722235,0.1,57.029022,1609800625437
Fix,GT,37.435315,-122.2432495,55.23275996816158,11.698466,0.1,58.146637,1609800626437
Fix,GT,37.4353718,-122.2431322,54.82900885236264,12.46233,0.1,58.75415,1609800627437
Fix,GT,37.4354298,-122.2430107,54.40501048326493,12.581463,0.1,59.08841,1609800628437
Fix,GT,37.4354871,-122.2428899,54.007511521101,12.05052,0.1,59.15573,1609800629437
Fix,GT,37.4355377,-122.242782,53.62413467937708,10.007355,0.1,59.862152,1609800630437
Fix,GT,37.4355779,-122.2426942,53.29325629359484,8.146487,0.1,60.07715,1609800631437
Fix,GT,37.4356113,-122.2426224,53.05725470244885,6.363513,0.1,59.49051,1609800632437
Fix,GT,37.4356357,-122.2425719,52.88962943714857,4.1055408,0.1,58.641754,1609800633437
Fix,GT,37.4356515,-122.2425405,52.780002086639406,2.3244746,0.1,57.999023,1609800634437
Fix,GT,37.4356587,-122.2425265,52.72687578195334,0.7972479,0.1,57.57489,1609800635437
Fix,GT,37.4356609,-122.2425224,52.71200157094002,0.11215651,0.1,57.291138,1609800636437
Fix,GT,37.435661,-122.2425224,52.71,0.003642202,0.1,57.279938,1609800637437
Fix,GT,37.435661,-122.2425224,52.712373169153935,0.0009999999,0.1,57.278656,1609800638437
Fix,GT,37.435661,-122.2425224,52.715,0.0012589911,0.1,57.2789,1609800639437
Fix,GT,37.435661,-122.2425224,52.715,0.002,0.1,57.27939,1609800640437
Fix,GT,37.435661,-122.2425224,52.714998428970574,0.0017221957,0.1,57.279846,1609800641437
Fix,GT,37.435661,-122.2425224,52.71500157102943,0.0027137238,0.1,57.27951,1609800642437
Fix,GT,37.435661,-122.2425224,52.715,0.0023747408,0.1,57.27948,1609800643437
Fix,GT,37.435661,-122.2425224,52.71500157102943,0.001,0.1,57.277893,1609800644437
Fix,GT,37.435661,-122.2425224,52.71500157102943,0.0013747412,0.1,57.27826,1609800645437
Fix,GT,37.435661,-122.2425224,52.715,0.0021476038,0.1,57.279327,1609800646437
Fix,GT,37.435661,-122.2425224,52.71500157102943,0.0024355536,0.1,57.27884,1609800647437
Fix,GT,37.435661,-122.2425224,52.715,0.002,0.1,57.276825,1609800648437
Fix,GT,37.435661,-122.2425224,52.714998428970574,0.002,0.1,57.277985,1609800649437
Fix,GT,37.435661,-122.2425224,52.715,0.0012589905,0.1,57.27829,1609800650437
Fix,GT,37.435661,-122.2425222,52.708,0.0017728616,0.1,57.27719,1609800651437
Fix,GT,37.4356611,-122.2425222,52.707,0.0011552232,0.1,57.276855,1609800652437
Fix,GT,37.4356611,-122.2425222,52.70700000000001,0.0011552233,0.1,57.27658,1609800653437
Fix,GT,37.4356611,-122.2425222,52.707,0.001,0.1,57.27664,1609800654437
Fix,GT,37.4356611,-122.2425222,52.707,0.001,0.1,57.276703,1609800655437
Fix,GT,37.4356611,-122.2425222,52.70700000000001,0.001,0.1,57.276703,1609800656437
Fix,GT,37.4356611,-122.2425222,52.707,0.001,0.1,57.27664,1609800657437
Fix,GT,37.4356611,-122.2425222,52.707,0.001,0.1,57.27713,1609800658437
Fix,GT,37.4356611,-122.2425222,52.706998429208994,0.0009999999,0.1,57.276825,1609800659437
Fix,GT,37.4356611,-122.2425222,52.707,0.001,0.1,57.276764,1609800660437
Fix,GT,37.4356611,-122.2425222,52.70700157079101,0.0013747434,0.1,57.27646,1609800661437
Fix,GT,37.4356611,-122.2425222,52.70700000000001,0.001,0.1,57.276367,1609800662437
Fix,GT,37.4356611,-122.2425222,52.707,0.002,0.1,57.27655,1609800663437
Fix,GT,37.4356611,-122.2425222,52.706998429208994,0.001,0.1,57.27658,1609800664437
Fix,GT,37.4356611,-122.2425222,52.70700000000001,0.001,0.1,57.27646,1609800665437
Fix,GT,37.4356611,-122.2425222,52.707,0.001,0.1,57.27655,1609800666437
Fix,GT,37.4356611,-122.2425222,52.707,0.000374744,0.1,57.27664,1609800667437
Fix,GT,37.4356611,-122.2425222,52.706,0.0006252559,0.1,57.277008,1609800668437
Fix,GT,37.4356611,-122.2425222,52.7060015707612,0.0010000002,0.1,57.2771,1609800669437
Fix,GT,37.4356611,-122.2425222,52.7059984292388,0.001,0.1,57.2771,1609800670437
Fix,GT,37.4356611,-122.2425222,52.7060015707612,0.0021476028,0.1,57.277252,1609800671437
Fix,GT,37.4356611,-122.2425222,52.706,0.0020884653,0.1,57.27716,1609800672437
Fix,GT,37.4356611,-122.2425222,52.70600157076121,0.0030608128,0.1,57.2771,1609800673437
Fix,GT,37.4356611,-122.2425222,52.706,0.00258316,0.1,57.27722,1609800674437
Fix,GT,37.4356611,-122.2425222,52.70600157076121,0.0033143284,0.1,57.27719,1609800675437
Fix,GT,37.4356611,-122.2425222,52.70462682580947,0.013955013,0.1,57.27411,1609800676437
Fix,GT,37.4356634,-122.2425185,52.67612784472108,1.0660985,0.1,56.397614,1609800677437
Fix,GT,37.4356785,-122.242502,52.59412831407785,3.2519708,0.1,45.183655,1609800678437
Fix,GT,37.4357128,-122.2424844,52.50262729328871,4.913766,0.1,22.192078,1609800679437
Fix,GT,37.4357648,-122.2424812,52.35475512653589,6.5484056,0.1,359.36566,1609800680437
Fix,GT,37.4358273,-122.2425044,52.21525613701344,7.9268713,0.1,338.8517,1609800681437
Fix,GT,37.4358892,-122.242561,52.01199592876434,9.159431,0.1,317.71906,1609800682437
Fix,GT,37.4359404,-122.2426538,52.24511968892813,10.869023,0.1,299.6959,1609800683437
Fix,GT,37.4359864,-122.2427719,52.58574088847638,12.674332,0.1,295.71075,1609800684437
Fix,GT,37.4360421,-122.2429149,53.19598170089722,15.247939,0.1,295.94434,1609800685437
Fix,GT,37.4361063,-122.2430793,53.96585340195894,17.13454,0.1,296.054,1609800686437
Fix,GT,37.4361781,-122.2432618,54.971223709583285,18.90427,0.1,296.27917,1609800687437
Fix,GT,37.4362584,-122.2434618,56.131596473276616,20.722258,0.1,296.90787,1609800688437
Fix,GT,37.436349,-122.2436759,57.346218036651614,21.957321,0.1,298.92984,1609800689437
Fix,GT,37.436452,-122.2438934,58.64534026253223,22.90812,0.1,302.09375,1609800690437
Fix,GT,37.4365713,-122.2441127,59.99471679952741,24.061474,0.1,306.2633,1609800691437
Fix,GT,37.4367089,-122.2443302,61.47146067392826,25.112762,0.1,310.0206,1609800692437
Fix,GT,37.4368615,-122.2445477,63.07320983174444,26.174515,0.1,312.1336,1609800693437
Fix,GT,37.4370245,-122.2447695,64.63171496161817,27.113796,0.1,312.78787,1609800694437
Fix,GT,37.437192,-122.2449946,65.94683937233687,27.235004,0.1,313.03766,1609800695437
Fix,GT,37.4373595,-122.2452184,67.1167251882255,27.09373,0.1,313.24142,1609800696437
Fix,GT,37.4375272,-122.2454401,68.23122422277928,27.002495,0.1,313.49847,1609800697437
Fix,GT,37.4376955,-122.2456599,69.32546861582995,26.94908,0.1,313.91162,1609800698437
