MessageType,Provider,LatitudeDegrees,LongitudeDegrees,AltitudeMeters,SpeedMps,AccuracyMeters,BearingDegrees,UnixTimeMillis
Fix,GT,37.4443847,-122.2326751,11.581,0.0011699877,0.1,302.57944,1609800004658
Fix,GT,37.4443847,-122.2326751,11.581,0.00046024306,0.1,302.57965,1609800005646
Fix,GT,37.4443847,-122.2326751,11.582,0.00068856194,0.1,302.5788,1609800006651
Fix,GT,37.4443847,-122.2326751,11.582,0.0014142136,0.1,302.58,1609800007662
Fix,GT,37.4443847,-122.2326751,11.582,0.0014142136,0.1,302.58008,1609800008651
Fix,GT,37.4443847,-122.2326751,11.582,0.0013608017,0.1,302.5804,1609800009663
Fix,GT,37.4443847,-122.2326751,11.582,0.0019941845,0.1,302.581,1609800010645
Fix,GT,37.4443847,-122.2326751,11.583,0.0012097579,0.1,302.58057,1609800011649
Fix,GT,37.4443847,-122.2326751,11.583,0.00080159825,0.1,302.58102,1609800012659
Fix,GT,37.4443847,-122.2326751,11.583,0.011751713,0.1,302.58313,1609800013650
Fix,GT,37.4443868,-122.2326797,11.581372123003009,1.1483803,0.1,301.99725,1609800014645
Fix,GT,37.4443932,-122.2326996,11.578455489724874,2.573517,0.1,295.65393,1609800015645
Fix,GT,37.4443991,-122.2327317,11.600505210071802,3.1651566,0.1,284.66156,1609800016649
Fix,GT,37.444398,-122.232773,11.595366748332978,4.1808662,0.1,268.74063,1609800017659
Fix,GT,37.4443841,-122.2328249,11.465045627832412,5.6165576,0.1,249.86554,1609800018651
Fix,GT,37.4443521,-122.2328812,11.275823761969804,6.73488,0.1,231.76472,1609800019646
Fix,GT,37.4443026,-122.2329346,10.983027032732965,7.569722,0.1,217.81961,1609800020656
Fix,GT,37.4442433,-122.2329815,10.61743645220995,8.018152,0.1,211.55592,1609800021650
Fix,GT,37.4441812,-122.2330324,10.258040750324724,8.213354,0.1,214.02037,1609800022662
Fix,GT,37.4441244,-122.2330914,9.97661406993866,8.27154,0.1,222.5046,1609800023651
Fix,GT,37.4440788,-122.2331607,9.792820156872272,7.45457,0.1,233.18442,1609800024645
Fix,GT,37.4440472,-122.2332317,9.587204771995545,7.0122614,0.1,242.56143,1609800025658
Fix,GT,37.4440235,-122.2333056,9.329915951609612,7.0628867,0.1,250.1217,1609800026653
Fix,GT,37.4440114,-122.2333842,8.929525849819184,6.940021,0.1,261.83713,1609800027664
Fix,GT,37.4440157,-122.2334622,8.70362733888626,7.013711,0.1,277.54688,1609800028653
Fix,GT,37.444038,-122.233544,8.507312818408012,8.341387,0.1,291.60278,1609800029666
Fix,GT,37.4440754,-122.233634,8.299590908527374,9.406134,0.1,298.8896,1609800030660
Fix,GT,37.4441178,-122.2337251,8.136766806006431,9.424768,0.1,300.88626,1609800031648
Fix,GT,37.4441632,-122.2338164,7.932951283693313,9.401444,0.1,302.13586,1609800032661
Fix,GT,37.4442085,-122.2339047,7.759768602013587,9.319147,0.1,302.83127,1609800033651
Fix,GT,37.444253,-122.2339896,7.570361525416374,8.644281,0.1,303.39075,1609800034643
Fix,GT,37.4442926,-122.2340647,7.436789889276028,7.0008407,0.1,303.21286,1609800035655
Fix,GT,37.4443235,-122.2341253,7.311583169609308,5.8621383,0.1,302.1268,1609800036649
Fix,GT,37.4443485,-122.2341758,7.208884475052356,4.5870285,0.1,301.78543,1609800037662
Fix,GT,37.4443682,-122.2342156,7.122912059307099,3.802565,0.1,301.73425,1609800038650
Fix,GT,37.4443833,-122.2342462,7.073301185429097,2.418236,0.1,301.67316,1609800039667
Fix,GT,37.4443918,-122.2342633,7.023310988664627,1.1916411,0.1,301.6126,1609800040656
Fix,GT,37.4443947,-122.2342691,7.008,0.15731163,0.1,301.59955,1609800041650
Fix,GT,37.4443947,-122.2342693,7.004,0.0012602473,0.1,301.60254,1609800042662
Fix,GT,37.4443947,-122.2342693,7.003,0.002236068,0.1,301.60086,1609800043650
Fix,GT,37.4443947,-122.2342693,7.000999791353941,0.0,0.1,301.6004,1609800044644
Fix,GT,37.4443947,-122.2342693,7.002,0.0014204368,0.1,301.60016,1609800045598
Fix,GT,37.4443948,-122.2342693,7.001,0.0015629819,0.1,301.6011,1609800046769
Fix,GT,37.4443948,-122.2342693,7.00100020864606,0.001,0.1,301.60107,1609800047602
Fix,GT,37.4443948,-122.2342693,7.001,0.0012870783,0.1,301.60092,1609800048771
Fix,GT,37.4443948,-122.2342693,7.0,0.002032924,0.1,301.60114,1609800049586
Fix,GT,37.4443948,-122.2342693,6.999999791383743,0.002,0.1,301.60086,1609800050720
Fix,GT,37.4443948,-122.2342693,7.000000208616257,0.002,0.1,301.60098,1609800051712
Fix,GT,37.4443948,-122.2342693,7.0,0.002,0.1,301.60107,1609800052723
Fix,GT,37.4443947,-122.2342693,7.000999947838486,0.0011329217,0.099,301.6011,1609800053710
Fix,GT,37.444395,-122.2342697,6.99240823417902,0.3137161,0.1,301.60318,1609800054786
Fix,GT,37.4443988,-122.2342783,6.966811384558677,2.1303315,0.1,300.85474,1609800055659
Fix,GT,37.4444115,-122.2343118,6.875351642608642,4.8889236,0.1,295.71207,1609800056593
Fix,GT,37.4444279,-122.2343874,6.95503126001358,6.505706,0.1,281.55923,1609800057783
Fix,GT,37.4444262,-122.2344545,7.041262352943421,7.240163,0.1,264.79892,1609800058651
Fix,GT,37.4444008,-122.2345361,7.183335911273957,8.416643,0.1,242.73642,1609800059666
Fix,GT,37.4443481,-122.2346164,7.235485763669015,10.223756,0.1,226.4409,1609800060656
Fix,GT,37.4442705,-122.2346927,7.419131666898727,11.754424,0.1,213.8638,1609800061650
Fix,GT,37.4441672,-122.2347658,7.7236239695549,14.550627,0.1,207.98761,1609800062662
Fix,GT,37.4440416,-122.2348487,8.176632010459901,17.006706,0.1,207.48224,1609800063653
Fix,GT,37.4438996,-122.2349411,8.79200945663452,17.995592,0.1,207.27303,1609800064666
Fix,GT,37.4437537,-122.2350365,9.149722150564196,18.938633,0.1,207.59547,1609800065656
Fix,GT,37.4436002,-122.2351382,9.404655512154102,19.822044,0.1,207.76556,1609800066650
Fix,GT,37.4434353,-122.2352477,9.527243591666222,21.133871,0.1,207.84097,1609800067660
Fix,GT,37.4432669,-122.2353612,9.729565824747086,21.562286,0.1,208.26701,1609800068652
Fix,GT,37.4430912,-122.2354801,9.958646392643452,22.076187,0.1,208.15721,1609800069666
Fix,GT,37.4429165,-122.2355981,10.31361723136902,22.191761,0.1,208.1246,1609800070660
Fix,GT,37.4427438,-122.2357141,10.87031608608365,21.840473,0.1,207.88406,1609800071648
Fix,GT,37.4425669,-122.2358306,11.728581176936624,21.945847,0.1,207.30753,1609800072662
Fix,GT,37.4423924,-122.2359433,12.90213617992401,22.085243,0.1,207.02852,1609800073651
Fix,GT,37.442213,-122.236059,14.272191622018813,21.98404,0.1,207.28203,1609800074667
Fix,GT,37.4420396,-122.236174,15.424551049172878,21.791912,0.1,208.06284,1609800075660
Fix,GT,37.4418703,-122.2362892,16.441162034869194,21.342037,0.1,208.68274,1609800076651
Fix,GT,37.4417015,-122.2364079,17.404264960825444,21.139355,0.1,209.48572,1609800077662
Fix,GT,37.4415502,-122.2365209,18.18908403617144,20.835638,0.1,211.40155,1609800078594
Fix,GT,37.4413654,-122.2366746,19.331824121832845,20.4893,0.1,215.03677,1609800079787
Fix,GT,37.4412361,-122.2367968,20.301261888980868,20.689453,0.1,218.47148,1609800080659
Fix,GT,37.4410973,-122.2369502,21.32469904589653,20.774445,0.1,223.46541,1609800081651
Fix,GT,37.4409647,-122.237123,22.529688943862915,21.256458,0.1,227.89261,1609800082663
Fix,GT,37.4408405,-122.2373095,23.745845080792904,22.27393,0.1,231.64737,1609800083651
Fix,GT,37.4407244,-122.2375075,25.008791686892508,23.250801,0.099,234.9548,1609800084606
Fix,GT,37.4405862,-122.2377666,26.665344958066942,23.64104,0.1,236.71896,1609800085779
Fix,GT,37.4404828,-122.2379611,27.87505361574888,23.76456,0.1,235.33545,1609800086650
Fix,GT,37.4403544,-122.2381798,29.36654109764099,23.677862,0.1,232.28957,1609800087664
Fix,GT,37.4402219,-122.2383871,30.6192373816967,23.867825,0.1,230.439,1609800088653
Fix,GT,37.44008,-122.2385947,31.81630981016159,24.020626,0.1,228.35251,1609800089665
Fix,GT,37.4399329,-122.2387942,33.04139137125015,24.404882,0.1,226.19965,1609800090659
Fix,GT,37.439778,-122.2389906,34.212638071835045,24.908344,0.1,224.31332,1609800091650
Fix,GT,37.4396115,-122.2391883,35.35889149427413,25.299093,0.1,222.26793,1609800092663
Fix,GT,37.4394412,-122.2393756,36.82172885298729,25.606527,0.1,220.13185,1609800093652
Fix,GT,37.4392577,-122.2395593,38.28951356256008,25.63324,0.1,216.94298,1609800094667
Fix,GT,37.4390741,-122.2397244,39.49732857954502,24.885948,0.1,214.47804,1609800095659
Fix,GT,37.4388907,-122.2398757,40.58735028260946,24.44188,0.1,212.12976,1609800096650
Fix,GT,37.4387014,-122.2400185,41.50868175178766,23.992077,0.1,209.92305,1609800097661
Fix,GT,37.4385149,-122.2401476,42.11829650831223,23.830303,0.1,207.84512,1609800098652
Fix,GT,37.4383209,-122.240269,42.61942061126232,23.880093,0.1,205.4107,1609800099661
Fix,GT,37.4381253,-122.2403805,42.95578121066093,24.053383,0.1,203.59895,1609800100657
Fix,GT,37.4379272,-122.2404846,43.15550851872564,24.01827,0.1,201.90674,1609800101649
Fix,GT,37.437723,-122.2405855,43.32843518328667,24.015753,0.1,200.99428,1609800102663
Fix,GT,37.4375234,-122.2406819,43.37045534706115,23.955559,0.1,200.83789,1609800103652
Fix,GT,37.4373332,-122.2407756,43.72975130221248,23.548096,0.099,201.87425,1609800104606
Fix,GT,37.4371078,-122.240898,44.25481205892563,22.872864,0.1,204.58662,1609800105780
Fix,GT,37.4369486,-122.2409961,44.74789751845599,22.337042,0.1,207.27876,1609800106650
Fix,GT,37.4367753,-122.2411228,45.436333503484725,21.664764,0.1,212.36586,1609800107663
Fix,GT,37.4366206,-122.2412622,46.31556770157814,21.01125,0.1,218.37894,1609800108652
Fix,GT,37.4364806,-122.2414205,47.12886210113764,20.346035,0.1,224.66983,1609800109665
Fix,GT,37.4363597,-122.2415873,47.7930960829854,19.720737,0.1,229.53204,1609800110660
Fix,GT,37.4362508,-122.2417562,48.580485954046246,19.010183,0.1,231.72174,1609800111652
Fix,GT,37.4361498,-122.241926,49.3703455324173,18.086416,0.1,234.64337,1609800112661
Fix,GT,37.4360657,-122.2420918,50.116401440501214,17.004778,0.1,240.1684,1609800113651
Fix,GT,37.4360053,-122.2422634,50.71909305906296,15.937325,0.1,251.39146,1609800114659
Fix,GT,37.4359793,-122.2424341,51.27443102127313,15.184383,0.1,264.7688,1609800115649
Fix,GT,37.4359851,-122.2426017,51.7423436896205,14.989893,0.1,277.80746,1609800116639
Fix,GT,37.4360216,-122.2427704,52.474219518005846,15.175562,0.1,288.75058,1609800117663
Fix,GT,37.4360711,-122.2429298,53.168410458326335,16.080019,0.1,292.25595,1609800118652
Fix,GT,37.4361422,-122.2431337,54.187724030494685,19.223019,0.1,294.53323,1609800119767
Fix,GT,37.436196,-122.2432758,55.00521990525722,21.180687,0.1,295.72388,1609800120456
Fix,GT,37.4363036,-122.243544,56.5628217958808,22.64189,0.1,297.4029,1609800121650
Fix,GT,37.4364032,-122.2437735,57.87722486829757,23.193476,0.1,299.47714,1609800122662
Fix,GT,37.436505,-122.2439843,59.18414260590076,23.92696,0.1,302.72476,1609800123585
Fix,GT,37.4366541,-122.2442454,60.86874827158451,24.302773,0.1,308.1777,1609800124765
Fix,GT,37.4367697,-122.2444214,62.12086985260248,24.929401,0.1,310.57068,1609800125585
Fix,GT,37.4369499,-122.2446718,63.9586000738144,25.352457,0.1,312.85687,1609800126769
Fix,GT,37.4370911,-122.2448604,65.18733461678028,25.980225,0.1,313.0741,1609800127660
Fix,GT,37.4372504,-122.2450748,66.3612685790062,26.365305,0.1,312.6848,1609800128652
Fix,GT,37.4374154,-122.2452983,67.49901602399349,26.759714,0.1,312.877,1609800129666
Fix,GT,37.4375786,-122.2455152,68.56486434304713,27.081682,0.1,313.60645,1609800130646
Fix,GT,37.437748,-122.245734,69.66782348132134,26.821194,0.1,314.38083,1609800131647
Fix,GT,37.4379195,-122.2459515,70.85620052671433,26.56456,0.1,314.6517,1609800132662
Fix,GT,37.4380855,-122.2461621,71.92962427777051,26.39072,0.1,314.60538,1609800133651
Fix,GT,37.4382514,-122.2463741,73.02161862015723,26.471691,0.1,314.19455,1609800134646
Fix,GT,37.4384188,-122.2465898,74.14686420595646,26.627525,0.1,314.1562,1609800135650
Fix,GT,37.4385874,-122.246806,75.23541138312221,26.986256,0.1,314.32355,1609800136648
Fix,GT,37.4387612,-122.2470279,76.32958450710773,27.403818,0.1,314.374,1609800137662
Fix,GT,37.4389333,-122.2472486,77.4395857015252,27.624332,0.1,314.251,1609800138652
Fix,GT,37.4391099,-122.2474749,78.56159682893752,27.726576,0.1,314.33447,1609800139665
Fix,GT,37.4392831,-122.247695,79.66507826131583,27.876331,0.1,314.67627,1609800140650
Fix,GT,37.4394605,-122.2479196,80.7758623535633,28.13908,0.1,314.49445,1609800141648
Fix,GT,37.4396406,-122.24815,81.91554329651595,28.126324,0.1,314.0697,1609800142663
Fix,GT,37.4398151,-122.2483759,83.02582386696338,28.099167,0.1,313.92606,1609800143653
Fix,GT,37.4399826,-122.2485938,84.09523176728189,28.200598,0.1,313.86066,1609800144605
Fix,GT,37.44019,-122.2488627,85.46346148109436,28.154696,0.1,314.03403,1609800145778
Fix,GT,37.4403439,-122.2490612,86.47312872695923,27.943909,0.1,314.0608,1609800146651
Fix,GT,37.4405201,-122.2492891,87.5845523148179,27.695412,0.1,314.0379,1609800147661
Fix,GT,37.4406909,-122.2495108,88.67532526683807,27.419989,0.1,313.77307,1609800148651
Fix,GT,37.4408599,-122.2497321,89.7307967492938,27.316467,0.1,313.58353,1609800149643
Fix,GT,37.4410328,-122.2499589,90.83610193622113,27.447805,0.1,313.67023,1609800150657
Fix,GT,37.4412028,-122.2501815,91.90456684303282,27.608782,0.1,313.65088,1609800151648
Fix,GT,37.441378,-122.2504096,93.03388405036928,27.857136,0.1,314.005,1609800152659
Fix,GT,37.4415514,-122.2506337,94.26496511697768,27.793468,0.1,314.08258,1609800153652
Fix,GT,37.4417235,-122.2508566,95.50888698264956,27.493446,0.1,313.98703,1609800154644
Fix,GT,37.4418967,-122.251082,96.7730392061472,27.115337,0.1,313.78876,1609800155660
Fix,GT,37.4420533,-122.2512888,97.92016229724884,27.12131,0.1,313.182,1609800156592
Fix,GT,37.4422399,-122.2515436,99.24536067005992,26.869593,0.099,311.92484,1609800157722
Fix,GT,37.4423949,-122.2517673,100.27943047207594,26.173285,0.1,309.87482,1609800158710
Fix,GT,37.4425512,-122.2520112,101.4017046047449,25.409994,0.1,307.75177,1609800159785
Fix,GT,37.4426619,-122.2521946,102.1943366163969,24.832613,0.1,306.44183,1609800160595
Fix,GT,37.4428117,-122.2524582,103.31875070655346,24.028973,0.1,304.70016,1609800161768
Fix,GT,37.4429187,-122.2526552,104.1250528651476,23.42607,0.1,303.82333,1609800162657
Fix,GT,37.443032,-122.2528715,105.0443802538514,22.730822,0.1,302.78235,1609800163649
Fix,GT,37.4431402,-122.2530894,105.939271499753,22.037262,0.1,301.09805,1609800164665
Fix,GT,37.4432387,-122.2532997,106.79029073596,21.387905,0.1,299.67508,1609800165658
Fix,GT,37.4433293,-122.253506,107.59968406984213,20.751064,0.1,298.20767,1609800166648
Fix,GT,37.4434153,-122.2537135,108.41360919857026,20.105333,0.1,296.8258,1609800167662
Fix,GT,37.4434927,-122.2539116,109.18731284737586,19.40136,0.1,295.56323,1609800168651
Fix,GT,37.4435645,-122.2541062,109.943012375772,18.82246,0.1,294.19324,1609800169645
Fix,GT,37.4436329,-122.254303,110.69000501710175,18.880333,0.1,293.0696,1609800170656
Fix,GT,37.4436948,-122.2544904,111.39134507644177,19.522287,0.1,291.98615,1609800171588
Fix,GT,37.4437703,-122.2547344,112.29466785001756,19.378588,0.1,290.6665,1609800172782
Fix,GT,37.4438234,-122.2549148,112.9581072037816,19.648972,0.1,289.8706,1609800173653
Fix,GT,37.443883,-122.2551287,113.74019723892212,20.015205,0.1,288.68762,1609800174666
Fix,GT,37.4439384,-122.2553421,114.54577927953004,20.101936,0.1,287.45984,1609800175657
Fix,GT,37.4439903,-122.2555569,115.3280268394053,19.850311,0.1,286.3792,1609800176648
Fix,GT,37.4440362,-122.2557601,116.06763419109024,19.467806,0.1,285.28632,1609800177602
Fix,GT,37.4440873,-122.2560089,116.96750229406358,19.33378,0.1,283.79068,1609800178772
Fix,GT,37.4441221,-122.2561922,117.6136919091642,18.859936,0.1,282.9715,1609800179645
Fix,GT,37.4441578,-122.2564,118.32946355056762,18.401525,0.1,281.59732,1609800180656
Fix,GT,37.444187,-122.2565893,118.9367763170004,18.171665,0.1,280.44543,1609800181590
Fix,GT,37.4442201,-122.2568313,119.66938832867146,18.329088,0.1,279.17645,1609800182782
Fix,GT,37.4442417,-122.257011,120.18755733668804,18.72124,0.1,278.14474,1609800183651
Fix,GT,37.4442644,-122.2572265,120.78642758345605,19.24905,0.1,276.96555,1609800184665
Fix,GT,37.4442838,-122.2574433,121.37399668812752,19.470165,0.1,275.90747,1609800185659
Fix,GT,37.4442999,-122.257658,121.9345567818284,19.034386,0.1,274.89594,1609800186650
Fix,GT,37.4443128,-122.2578744,122.4587474233508,18.966694,0.1,273.70374,1609800187663
Fix,GT,37.4443206,-122.2580723,122.90223527872564,18.792667,0.1,272.2245,1609800188591
Fix,GT,37.4443253,-122.258326,123.44238330459596,18.70797,0.1,270.55408,1609800189787
Fix,GT,37.4443252,-122.258509,123.80247909349202,18.366682,0.1,269.5579,1609800190662
Fix,GT,37.4443226,-122.2587136,124.18304191184043,18.205976,0.1,268.6752,1609800191652
Fix,GT,37.4443173,-122.258921,124.51697603601218,18.17381,0.1,267.67923,1609800192664
Fix,GT,37.4443089,-122.2591266,124.80472857797145,18.791286,0.1,266.49286,1609800193652
Fix,GT,37.4442967,-122.2593421,125.05544185847045,18.969345,0.1,265.4417,1609800194664
Fix,GT,37.4442831,-122.2595413,125.2507142737508,18.834114,0.1,264.7412,1609800195598
Fix,GT,37.4442638,-122.25979,125.46222109639643,18.8964,0.1,264.19238,1609800196773
Fix,GT,37.4442487,-122.2599802,125.59109055250885,19.067646,0.1,264.2893,1609800197664
Fix,GT,37.4442316,-122.2601932,125.71635687255858,19.2429,0.1,264.17233,1609800198652
Fix,GT,37.4442143,-122.2604117,125.81538750267028,19.053486,0.1,264.2592,1609800199667
Fix,GT,37.4441977,-122.2606243,125.8805375020504,18.962915,0.1,264.38818,1609800200661
Fix,GT,37.4441813,-122.260836,125.957810290277,19.018063,0.1,264.3391,1609800201653
Fix,GT,37.4441645,-122.261053,126.06675736761092,19.142986,0.1,264.298,1609800202664
Fix,GT,37.4441473,-122.2612665,126.20440091586111,19.300877,0.1,264.08197,1609800203653
Fix,GT,37.4441296,-122.2614845,126.34620079165695,19.928288,0.1,264.09772,1609800204644
Fix,GT,37.444111,-122.2617148,126.50443183517456,20.403095,0.1,264.06754,1609800205658
Fix,GT,37.4440921,-122.2619446,126.60030574870108,20.857946,0.1,263.96878,1609800206648
Fix,GT,37.4440722,-122.2621836,126.74777683120963,21.217833,0.1,263.8719,1609800207659
Fix,GT,37.4440521,-122.2624219,126.8708282804489,21.457638,0.1,263.83963,1609800208652
Fix,GT,37.4440328,-122.2626628,126.9786991188526,21.595037,0.1,264.48108,1609800209646
Fix,GT,37.4440151,-122.2629068,127.0282000924349,21.323654,0.1,264.90686,1609800210656
Fix,GT,37.4439987,-122.2631432,127.11846866637468,20.93763,0.1,264.8815,1609800211649
Fix,GT,37.4439814,-122.2633804,127.21609927594662,20.850939,0.1,264.47412,1609800212660
Fix,GT,37.4439633,-122.2636118,127.28904274451732,20.620108,0.1,264.207,1609800213652
Fix,GT,37.4439453,-122.2638403,127.36576605847478,20.253807,0.1,264.24847,1609800214646
Fix,GT,37.4439291,-122.264068,127.40914921331408,19.980389,0.1,265.39764,1609800215653
Fix,GT,37.4439177,-122.2642964,127.40449549913409,20.204277,0.1,267.08044,1609800216662
Fix,GT,37.4439116,-122.2645244,127.36884114074708,20.512367,0.1,268.5569,1609800217653
Fix,GT,37.443909,-122.2647621,127.34429073953628,20.889069,0.1,269.46497,1609800218670
Fix,GT,37.4439093,-122.2649994,127.2836943114996,21.285185,0.1,270.29218,1609800219666
Fix,GT,37.443913,-122.2652396,127.2114453728199,21.692204,0.1,271.63547,1609800220655
Fix,GT,37.4439215,-122.2654902,127.09328061187269,22.025682,0.1,272.87076,1609800221670
Fix,GT,37.443935,-122.2657377,126.95235455346108,22.204903,0.1,274.6583,1609800222661
Fix,GT,37.4439543,-122.2659902,126.75189395016432,22.379522,0.1,275.82874,1609800223668
Fix,GT,37.4439773,-122.2662401,126.54324118316174,22.66806,0.1,277.10925,1609800224657
Fix,GT,37.4440053,-122.2664935,126.26396095699072,23.030128,0.1,278.36185,1609800225648
Fix,GT,37.4440382,-122.2667513,125.97844336658716,23.374651,0.1,279.4174,1609800226643
Fix,GT,37.4440758,-122.2670148,125.65075824207068,23.296646,0.1,280.58334,1609800227657
Fix,GT,37.4441164,-122.2672705,125.34031060361862,23.1047,0.1,281.64346,1609800228651
Fix,GT,37.4441609,-122.267523,125.00331115981936,22.915264,0.1,283.0843,1609800229646
Fix,GT,37.4442109,-122.2677758,124.68948230326176,22.731697,0.1,284.31506,1609800230656
Fix,GT,37.444264,-122.2680218,124.39204347920418,22.53778,0.1,285.91846,1609800231652
Fix,GT,37.4443233,-122.2682665,124.0444710216522,22.35603,0.1,287.49,1609800232661
Fix,GT,37.4443859,-122.2685033,123.7307088353634,22.183392,0.1,288.81207,1609800233652
Fix,GT,37.4444538,-122.2687417,123.40462853121758,22.006311,0.1,290.17776,1609800234665
Fix,GT,37.4445243,-122.2689707,123.0869767112732,21.833694,0.1,291.64722,1609800235656
Fix,GT,37.4446064,-122.2692201,122.70960228079556,21.66771,0.1,292.90427,1609800236754
Fix,GT,37.4446564,-122.2693651,122.4564961837828,21.567532,0.1,293.57147,1609800237401
Fix,GT,37.4447657,-122.2696682,122.02370955777168,21.356176,0.1,294.73392,1609800238773
Fix,GT,37.4448395,-122.269863,121.77882153195142,21.281971,0.1,295.71603,1609800239668
Fix,GT,37.4449244,-122.2700758,121.50027800565958,21.12571,0.1,297.02866,1609800240660
Fix,GT,37.445012,-122.2702843,121.24788327479362,20.957285,0.1,298.21454,1609800241651
Fix,GT,37.4451046,-122.270493,120.96520854443312,20.758749,0.1,299.55414,1609800242664
Fix,GT,37.4452071,-122.2707124,120.7229906502962,20.668636,0.1,300.7406,1609800243753
Fix,GT,37.4452764,-122.2708556,120.58842414492368,20.960941,0.1,301.37573,1609800244466
Fix,GT,37.4453975,-122.2710981,120.43494547128677,21.811613,0.1,302.49423,1609800245650
Fix,GT,37.4455074,-122.2713063,120.34519856393337,22.486378,0.1,304.1824,1609800246648
Fix,GT,37.44564,-122.2715428,120.25434167128802,23.270592,0.1,305.79376,1609800247765
Fix,GT,37.4457266,-122.2716897,120.26246341812612,23.7295,0.1,306.7838,1609800248453
Fix,GT,37.4458873,-122.2719497,120.33680774962902,24.059673,0.1,308.43634,1609800249667
Fix,GT,37.4460221,-122.272157,120.50500277733804,24.12955,0.1,309.68945,1609800250650
Fix,GT,37.446163,-122.2723649,120.71544884616137,24.176638,0.1,310.7301,1609800251649
Fix,GT,37.4463087,-122.2725733,120.96604314935207,24.21368,0.1,311.38763,1609800252663
Fix,GT,37.4464518,-122.2727766,121.2869444297552,24.235088,0.1,311.12436,1609800253654
Fix,GT,37.4465974,-122.272986,121.62831162071228,24.34037,0.1,311.008,1609800254666
Fix,GT,37.4467389,-122.2731896,121.96715926733611,24.421661,0.1,310.91757,1609800255646
Fix,GT,37.4468835,-122.2733982,122.396162065804,24.285175,0.1,310.87296,1609800256649
Fix,GT,37.4470279,-122.2736062,122.87673913967608,23.955545,0.1,311.01697,1609800257662
Fix,GT,37.4471678,-122.2738073,123.35176461082696,23.915241,0.1,311.03644,1609800258649
Fix,GT,37.4473085,-122.274009,123.9057651078701,23.851494,0.1,311.164,1609800259641
Fix,GT,37.4474508,-122.2742117,124.51401486968992,23.571228,0.1,311.31836,1609800260649
Fix,GT,37.4475902,-122.2744106,125.1577114007473,23.33002,0.1,311.12717,1609800261649
Fix,GT,37.4477215,-122.2745991,125.78560937428568,23.235344,0.1,311.00787,1609800262600
Fix,GT,37.4478824,-122.2748297,126.54078621053696,23.203667,0.1,311.2883,1609800263768
Fix,GT,37.4480063,-122.2750061,127.14058677190542,23.275848,0.1,311.25168,1609800264664
Fix,GT,37.4481446,-122.2752034,127.81606805968283,23.511148,0.1,311.2058,1609800265657
Fix,GT,37.4482834,-122.2754012,128.51264161610604,23.611143,0.1,311.343,1609800266648
Fix,GT,37.4484264,-122.2756035,129.20518221139906,23.458015,0.1,311.5333,1609800267662
Fix,GT,37.4485643,-122.2757971,129.83550691044329,22.924969,0.1,311.80743,1609800268652
Fix,GT,37.4487164,-122.2760084,130.55778235071898,22.261326,0.1,312.0454,1609800269767
Fix,GT,37.4488085,-122.276136,130.9846785736084,21.86872,0.1,312.10492,1609800270457
Fix,GT,37.4489634,-122.2763526,131.7187028079033,21.383802,0.1,311.11783,1609800271651
Fix,GT,37.4490909,-122.2765389,132.32889016842842,21.635578,0.1,310.21823,1609800272663
Fix,GT,37.449216,-122.2767252,132.9198419572711,21.85632,0.1,309.9943,1609800273652
Fix,GT,37.4493444,-122.2769167,133.51298742514848,21.773111,0.1,309.95065,1609800274666
Fix,GT,37.4494696,-122.2771029,134.05365015673638,21.524185,0.1,310.06433,1609800275661
Fix,GT,37.4495931,-122.277286,134.55209516692162,21.391994,0.1,310.15106,1609800276651
Fix,GT,37.4497186,-122.2774734,134.98366572320464,21.369225,0.1,309.45862,1609800277664
Fix,GT,37.4498393,-122.2776593,135.3562551922798,21.577477,0.1,308.91592,1609800278653
Fix,GT,37.4499644,-122.2778524,135.75978924560548,21.957512,0.1,308.97122,1609800279666
Fix,GT,37.4500894,-122.278046,136.1183233155608,22.582136,0.1,308.897,1609800280658
Fix,GT,37.4502182,-122.2782458,136.47277902913095,23.046638,0.1,308.9382,1609800281652
Fix,GT,37.4503516,-122.2784519,136.8649092518687,23.351795,0.1,309.03888,1609800282664
Fix,GT,37.4504848,-122.278654,137.21080275881292,23.697279,0.1,309.78513,1609800283651
Fix,GT,37.4506162,-122.278852,137.45058689691874,23.99683,0.1,309.53442,1609800284606
Fix,GT,37.4507788,-122.2790986,137.6704215247631,24.19331,0.1,309.30374,1609800285781
Fix,GT,37.4508992,-122.2792842,137.80356104242802,24.525276,0.1,308.69122,1609800286650
Fix,GT,37.4510529,-122.2795299,137.89,25.104197,0.1,307.5049,1609800287765
Fix,GT,37.4511489,-122.2796875,137.91460125660896,25.914928,0.1,307.1394,1609800288453
Fix,GT,37.451342,-122.2800052,137.97676185756922,27.919083,0.1,307.5195,1609800289768
Fix,GT,37.4514401,-122.280163,138.01097680658103,28.285856,0.1,308.3703,1609800290397
Fix,GT,37.4516618,-122.2805055,137.95557619994878,28.361704,0.1,309.40128,1609800291772
Fix,GT,37.4518065,-122.2807253,137.81755550074575,28.26535,0.1,309.45572,1609800292663
Fix,GT,37.4519581,-122.2809551,137.68771760594845,28.511026,0.1,309.5299,1609800293594
Fix,GT,37.452146,-122.2812388,137.4138830961287,29.155302,0.1,309.69467,1609800294727
Fix,GT,37.4523223,-122.2815028,137.09272204589843,29.494911,0.1,310.01596,1609800295766
Fix,GT,37.4524742,-122.2817272,136.74961469125748,29.916107,0.1,310.69128,1609800296643
Fix,GT,37.4526573,-122.2819888,136.29131768262386,30.703335,0.1,311.48047,1609800297659
Fix,GT,37.452862,-122.2822785,135.72699073821306,31.712048,0.1,311.1199,1609800298753
Fix,GT,37.4529957,-122.2824717,135.3083360757828,31.81779,0.1,310.57355,1609800299466
Fix,GT,37.4532056,-122.2827811,134.57841367290357,31.566444,0.1,310.0216,1609800300600
Fix,GT,37.4534179,-122.2830998,133.75358485287427,31.29301,0.1,309.43732,1609800301770
Fix,GT,37.4535672,-122.2833268,133.19280817174538,31.091774,0.1,309.2735,1609800302604
Fix,GT,37.4537628,-122.2836271,132.44873586395383,30.836956,0.1,309.09152,1609800303712
Fix,GT,37.4539515,-122.2839156,131.7416847933531,30.628416,0.1,309.46024,1609800304787
Fix,GT,37.4541219,-122.2841742,131.07966146349906,30.424988,0.1,309.4442,1609800305760
Fix,GT,37.4542418,-122.2843569,130.59576860356333,30.26825,0.1,309.25916,1609800306450
Fix,GT,37.4544405,-122.2846612,129.856357204631,30.001072,0.1,309.1933,1609800307605
Fix,GT,37.4547474,-122.2851299,128.6742644947171,29.603357,0.1,309.4167,1609800309406
Fix,GT,37.4549691,-122.2854671,127.81908047246934,29.282248,0.1,309.27448,1609800310718
Fix,GT,37.455134,-122.2857196,127.18444007828832,29.005001,0.1,309.30594,1609800311710
Fix,GT,37.4553113,-122.2859904,126.481109962821,28.703638,0.1,309.2857,1609800312784
Fix,GT,37.4554532,-122.2862076,125.9069056673646,28.494549,0.1,309.19037,1609800313653
Fix,GT,37.4556178,-122.2864587,125.2076871689558,28.287169,0.1,309.425,1609800314666
Fix,GT,37.455779,-122.2867028,124.45792984950542,28.21899,0.1,309.57733,1609800315660
Fix,GT,37.4559308,-122.2869304,123.80400274288654,28.265396,0.1,309.96335,1609800316589
Fix,GT,37.4561307,-122.2872211,123.08939208364488,28.74036,0.1,311.66138,1609800317783
Fix,GT,37.4562843,-122.2874303,122.73387508809566,29.10677,0.1,313.4508,1609800318652
Fix,GT,37.4564723,-122.2876696,122.36554633694888,29.558933,0.1,315.37488,1609800319665
Fix,GT,37.4566549,-122.2878869,122.17573549428212,30.219553,0.1,317.43176,1609800320601
Fix,GT,37.4568857,-122.2881412,122.0581177998036,30.906397,0.1,319.6595,1609800321714
Fix,GT,37.4571041,-122.2883647,122.0879931573868,31.022038,0.1,321.60123,1609800322724
Fix,GT,37.4573246,-122.2885766,122.28024821169674,31.270632,0.1,323.1771,1609800323714
Fix,GT,37.4575566,-122.2887866,122.63410521519184,31.509047,0.1,324.98285,1609800324726
Fix,GT,37.4577915,-122.2889843,123.14559720516206,31.746153,0.1,327.12256,1609800325718
Fix,GT,37.4580328,-122.289171,123.73206232130526,31.74355,0.1,329.52094,1609800326709
Fix,GT,37.4582861,-122.2893477,124.37155417811871,31.810198,0.1,332.02838,1609800327721
Fix,GT,37.4585395,-122.2895094,125.00477266582848,31.773685,0.1,333.78772,1609800328713
Fix,GT,37.4587966,-122.2896609,125.66858392273636,31.717688,0.1,335.5531,1609800329706
Fix,GT,37.4590615,-122.2898055,126.32001254314184,31.68257,0.1,337.35318,1609800330718
Fix,GT,37.4593248,-122.2899357,126.98083839982004,31.652615,0.1,339.5239,1609800331710
Fix,GT,37.459598,-122.2900555,127.55637127566337,31.508245,0.1,341.6891,1609800332726
Fix,GT,37.4598645,-122.29016,128.1926764022559,31.32231,0.1,343.494,1609800333712
Fix,GT,37.4601394,-122.2902556,128.8543713334799,31.185364,0.1,345.33582,1609800334726
Fix,GT,37.4604095,-122.2903372,129.54781947517392,31.08023,0.1,347.62045,1609800335717
Fix,GT,37.460682,-122.2904035,130.2137542348504,31.050077,0.1,349.96942,1609800336709
Fix,GT,37.4609794,-122.2904602,130.8528995691538,31.289772,0.1,352.88217,1609800337781
Fix,GT,37.4612251,-122.2904911,131.3798363007307,31.639595,0.1,355.49237,1609800338651
Fix,GT,37.4615087,-122.2905124,131.98604339531065,31.79423,0.1,357.29156,1609800339645
Fix,GT,37.4617984,-122.2905262,132.7932697352171,32.000805,0.1,358.0163,1609800340654
Fix,GT,37.462086,-122.2905364,133.6390704255104,32.29841,0.1,358.55692,1609800341648
Fix,GT,37.4623817,-122.2905439,134.3288686825037,32.42769,0.1,358.80972,1609800342661
Fix,GT,37.4626717,-122.2905519,134.96092806375026,32.49079,0.1,358.54538,1609800343653
Fix,GT,37.4629512,-122.2905602,135.5820659596771,32.551857,0.1,358.45712,1609800344608
Fix,GT,37.463277,-122.2905709,136.37575821202992,32.562458,0.1,358.43738,1609800345718
Fix,GT,37.4635668,-122.2905805,137.22342240430413,32.27597,0.1,358.33585,1609800346710
Fix,GT,37.4638598,-122.2905925,138.19405909359455,31.877506,0.1,357.73044,1609800347724
Fix,GT,37.464142,-122.2906096,138.9061148943901,31.475145,0.099,356.59927,1609800348714
Fix,GT,37.4644272,-122.290635,139.33769451290368,31.139915,0.099,355.2427,1609800349728
Fix,GT,37.4647192,-122.2906699,139.76879578638076,30.754517,0.1,353.83035,1609800350779
Fix,GT,37.4649414,-122.2907023,140.0738093962669,30.321266,0.1,352.75372,1609800351593
Fix,GT,37.4652448,-122.2907558,140.43230394887925,29.723629,0.1,351.10214,1609800352726
Fix,GT,37.4655036,-122.2908093,140.71943694896996,29.230907,0.1,350.2952,1609800353713
Fix,GT,37.4657646,-122.2908658,140.9792789154351,28.751293,0.1,350.1522,1609800354727
Fix,GT,37.4660153,-122.2909201,141.283446370244,28.262753,0.1,350.20697,1609800355718
Fix,GT,37.4662627,-122.290973,141.62931181305646,27.781479,0.1,350.2851,1609800356712
Fix,GT,37.4665085,-122.2910272,141.94969133368136,26.858698,0.1,349.58563,1609800357723
Fix,GT,37.4667435,-122.291085,142.27659876441956,25.791046,0.1,348.1104,1609800358734
Fix,GT,37.466965,-122.2911477,142.31081670331957,24.885445,0.1,346.65015,1609800359727
Fix,GT,37.4671801,-122.2912152,142.04402942293882,23.688671,0.1,345.39084,1609800360739
Fix,GT,37.4673768,-122.2912816,141.62443304419517,22.080421,0.1,344.52136,1609800361728
Fix,GT,37.4675615,-122.2913478,140.96797810697555,21.255335,0.1,343.54758,1609800362713
Fix,GT,37.4677438,-122.2914193,140.36452052628994,20.465488,0.1,341.65753,1609800363730
Fix,GT,37.4679135,-122.2914946,139.5542104638517,19.789621,0.1,339.86227,1609800364723
Fix,GT,37.4680745,-122.2915691,138.63468788661064,18.579569,0.1,339.77786,1609800365709
Fix,GT,37.4682255,-122.2916369,137.68331689453126,16.24626,0.1,340.7408,1609800366729
Fix,GT,37.4683535,-122.2916905,136.83219600361588,13.867764,0.1,341.9843,1609800367724
Fix,GT,37.4684638,-122.2917332,136.20851973730328,11.653223,0.1,343.0786,1609800368726
Fix,GT,37.4685514,-122.2917663,135.83773371167482,9.132593,0.1,342.88412,1609800369704
Fix,GT,37.4686197,-122.2917968,135.64138849724458,7.074058,0.1,339.16354,1609800370705
Fix,GT,37.4686687,-122.2918246,135.57523119813948,4.657621,0.1,334.84613,1609800371710
Fix,GT,37.468695,-122.2918425,135.52756187629697,1.7260419,0.1,331.66223,1609800372781
Fix,GT,37.4687015,-122.2918475,135.521,0.31964722,0.1,330.89603,1609800373652
Fix,GT,37.4687024,-122.291848,135.51065478914975,0.2950993,0.1,330.7827,1609800374665
Fix,GT,37.4687092,-122.2918532,135.5009959617555,1.7033899,0.1,330.04062,1609800375649
Fix,GT,37.4687278,-122.2918683,135.4951343777776,3.7272666,0.1,327.6669,1609800376586
Fix,GT,37.4687682,-122.2919128,135.64001389306782,6.318409,0.1,315.60046,1609800377720
Fix,GT,37.4687989,-122.2919827,135.8350775052309,7.3851776,0.1,292.54892,1609800378773
Fix,GT,37.4688016,-122.2920569,135.95389682173726,7.82047,0.1,266.17447,1609800379647
Fix,GT,37.4687713,-122.2921447,135.935016882658,9.465817,0.1,239.99666,1609800380650
Fix,GT,37.4687023,-122.292242,135.97294453418257,11.64333,0.1,224.94551,1609800381747
Fix,GT,37.4686364,-122.2923208,135.9768541947007,12.9030075,0.1,223.44455,1609800382562
Fix,GT,37.4685612,-122.2924106,135.922621039778,13.018338,0.1,223.45284,1609800383448
Fix,GT,37.4684492,-122.2925488,135.65751175785064,13.984596,0.1,225.58212,1609800384744
Fix,GT,37.4683025,-122.2927551,134.9938355576396,14.526823,0.1,228.87816,1609800386444
Fix,GT,37.4682162,-122.2928747,134.45676976567506,13.892113,0.1,226.902,1609800387444
Fix,GT,37.4681318,-122.2929826,133.8310142376125,12.807783,0.1,224.8583,1609800388444
Fix,GT,37.4680545,-122.293081,133.15318494439126,11.607281,0.1,226.3746,1609800389444
Fix,GT,37.4679933,-122.2931793,132.43852922225,10.563732,0.1,236.30173,1609800390444
Fix,GT,37.4679603,-122.2932872,131.60394950932266,10.203747,0.1,256.5705,1609800391444
Fix,GT,37.4679697,-122.2934033,130.77166979080437,10.42469,0.1,286.0736,1609800392444
Fix,GT,37.4680219,-122.2935046,130.59124050164223,11.04598,0.1,309.16373,1609800393444
Fix,GT,37.4680974,-122.2936002,130.63245199373364,12.928734,0.1,315.97665,1609800394444
Fix,GT,37.4681886,-122.2937072,130.79348490616678,14.269466,0.1,317.19318,1609800395444
Fix,GT,37.468286,-122.2938177,130.98216454696654,14.972743,0.1,317.46786,1609800396444
Fix,GT,37.468388,-122.2939341,131.47074544894696,15.635035,0.1,317.4592,1609800397444
Fix,GT,37.4684947,-122.2940543,132.1243671064377,16.031015,0.1,318.37677,1609800398444
Fix,GT,37.4686051,-122.2941664,132.8744748725891,15.425188,0.1,323.43134,1609800399444
Fix,GT,37.4687226,-122.2942505,133.6654289802909,14.613176,0.1,335.9799,1609800400444
Fix,GT,37.4688469,-122.2942905,134.57359860780835,13.976704,0.1,352.38785,1609800401444
Fix,GT,37.4689722,-122.2942815,135.56122540569305,14.00441,0.1,10.306671,1609800402444
Fix,GT,37.4690899,-122.2942241,136.46346593999863,14.08939,0.1,28.306885,1609800403444
Fix,GT,37.4691882,-122.2941223,137.31808872550727,14.228583,0.1,46.7294,1609800404444
Fix,GT,37.4692604,-122.2939841,138.18094700938465,15.013842,0.1,63.40393,1609800405444
Fix,GT,37.4692974,-122.2938209,139.0834618512094,15.090754,0.1,81.59143,1609800406444
Fix,GT,37.4692897,-122.2936517,140.01564066791536,15.049557,0.1,101.54114,1609800407444
Fix,GT,37.4692358,-122.2934925,140.82918838611243,15.649388,0.1,120.81781,1609800408444
Fix,GT,37.4691427,-122.2933521,141.54688621640207,16.750128,0.1,134.30481,1609800409444
Fix,GT,37.4690283,-122.2932175,142.155330093354,18.007566,0.1,137.75275,1609800410444
Fix,GT,37.4689004,-122.2930774,142.66650474056604,19.857815,0.1,139.81006,1609800411444
Fix,GT,37.4687539,-122.2929299,143.06206161284447,21.801796,0.1,142.4627,1609800412444
Fix,GT,37.4685897,-122.2927784,142.9961459622383,23.423983,0.1,144.64413,1609800413444
Fix,GT,37.4684091,-122.2926269,142.8313779630065,24.630291,0.1,147.64825,1609800414444
Fix,GT,37.4682137,-122.2924802,142.61024548196795,25.967655,0.1,150.18243,1609800415444
Fix,GT,37.4680026,-122.2923373,142.38283456152675,27.13345,0.1,152.87817,1609800416444
Fix,GT,37.4677799,-122.2922023,142.14438644525407,27.686024,0.1,155.22687,1609800417444
Fix,GT,37.4675494,-122.2920736,141.9115610651672,28.327835,0.1,156.49377,1609800418444
Fix,GT,37.4673098,-122.2919464,141.5833871381283,29.552574,0.1,157.63647,1609800419444
Fix,GT,37.4670568,-122.291821,141.32058977544307,30.71037,0.1,159.08868,1609800420444
Fix,GT,37.4667937,-122.2917018,141.05400492453575,31.41795,0.1,161.21191,1609800421444
Fix,GT,37.4665223,-122.2915918,140.7332124944329,31.808228,0.1,162.818,1609800422444
Fix,GT,37.4662465,-122.291491,140.38442006510496,31.958324,0.1,164.61877,1609800423444
Fix,GT,37.465907,-122.2913819,139.96485605335235,31.982979,0.1,166.51898,1609800424660
Fix,GT,37.4656281,-122.2913029,139.6785522444248,31.984673,0.1,167.99469,1609800425653
Fix,GT,37.4653419,-122.291233,139.36610527849197,31.82158,0.1,169.85138,1609800426666
Fix,GT,37.4650616,-122.2911765,138.98099828803538,31.681469,0.1,171.73883,1609800427659
Fix,GT,37.4647803,-122.2911308,138.67224189805984,31.776546,0.1,173.34082,1609800428651
Fix,GT,37.4645087,-122.2910967,138.27977913808823,31.906158,0.1,175.13501,1609800429602
Fix,GT,37.4641885,-122.2910692,137.7774538227916,32.06126,0.1,176.95123,1609800430716
Fix,GT,37.4638961,-122.2910534,137.35458304733038,32.169254,0.1,177.80658,1609800431728
Fix,GT,37.4636095,-122.2910409,136.9576121593863,32.221443,0.1,178.06848,1609800432716
Fix,GT,37.4633195,-122.2910293,136.4243062041253,32.306587,0.1,178.211,1609800433714
Fix,GT,37.4630251,-122.2910181,135.83046973085402,32.253403,0.1,178.17657,1609800434725
Fix,GT,37.46274,-122.2910065,135.2163520503044,31.932146,0.1,178.09613,1609800435712
Fix,GT,37.4624492,-122.290995,134.73861136204005,31.557999,0.1,178.22357,1609800436729
Fix,GT,37.4621531,-122.2909837,134.40478388673068,31.158777,0.1,178.37665,1609800437778
Fix,GT,37.4619092,-122.2909747,134.18756077194217,30.852417,0.1,178.10144,1609800438651
Fix,GT,37.4616303,-122.2909588,133.8314170744419,30.533625,0.1,176.5293,1609800439661
Fix,GT,37.4613592,-122.2909315,133.30295957422257,30.285286,0.1,174.2002,1609800440654
Fix,GT,37.4610857,-122.290893,132.696158528924,30.056732,0.1,173.08301,1609800441666
Fix,GT,37.4608203,-122.290848,132.08843149185182,29.922882,0.1,171.39886,1609800442658
Fix,GT,37.4605571,-122.2907926,131.51429458349944,29.797611,0.1,169.53497,1609800443650
Fix,GT,37.4602916,-122.2907245,130.92237743753196,29.673485,0.1,167.37201,1609800444661
Fix,GT,37.460035,-122.2906467,130.36761087346076,29.557556,0.1,165.33203,1609800445652
Fix,GT,37.4597804,-122.2905585,129.71141831222178,29.557926,0.1,163.7984,1609800446645
Fix,GT,37.4594957,-122.2904475,129.064881663084,29.820917,0.1,161.76141,1609800447760
Fix,GT,37.45932,-122.2903726,128.66221820488573,30.000324,0.1,160.6914,1609800448448
Fix,GT,37.4590103,-122.2902287,128.00114400273563,30.373196,0.1,158.60681,1609800449664
Fix,GT,37.4587592,-122.2900985,127.4108482208252,30.827023,0.1,156.42023,1609800450650
Fix,GT,37.4585017,-122.2899507,126.74255062043667,31.349463,0.1,154.36066,1609800451661
Fix,GT,37.4582439,-122.2897881,126.08850915777684,31.843992,0.1,152.19104,1609800452674
Fix,GT,37.4579945,-122.2896161,125.45459559571742,32.315723,0.1,150.28156,1609800453660
Fix,GT,37.4577442,-122.2894314,124.8635270934105,32.267212,0.1,148.83832,1609800454656
Fix,GT,37.4574951,-122.2892353,124.34624121558664,32.062267,0.1,146.71014,1609800455671
Fix,GT,37.4572587,-122.2890325,123.94706783425808,31.85308,0.1,144.62076,1609800456666
Fix,GT,37.4570319,-122.2888228,123.6998698670268,31.595478,0.1,142.5513,1609800457652
Fix,GT,37.456805,-122.2885978,123.53114308851956,31.612339,0.1,140.64151,1609800458669
Fix,GT,37.4565887,-122.2883681,123.47679021185635,31.781288,0.1,138.88788,1609800459661
Fix,GT,37.4563733,-122.2881244,123.59435381293297,31.972761,0.1,136.93442,1609800460671
Fix,GT,37.4561698,-122.2878772,123.86528392124175,32.006874,0.1,134.79816,1609800461654
Fix,GT,37.4559659,-122.2876103,124.24339272820949,31.968582,0.1,132.64929,1609800462677
Fix,GT,37.4557801,-122.2873484,124.70115079176426,31.952225,0.1,130.74402,1609800463648
Fix,GT,37.4555916,-122.287068,125.09383426135778,31.986929,0.1,129.54755,1609800464663
Fix,GT,37.4554104,-122.2867911,125.3657311204076,32.009533,0.1,129.19049,1609800465653
Fix,GT,37.455225,-122.2865084,125.80084589147567,31.922684,0.1,129.51428,1609800466666
Fix,GT,37.4550243,-122.2862053,126.48249158644676,31.85912,0.1,129.54865,1609800467760
Fix,GT,37.454898,-122.2860135,126.98832875299452,31.902369,0.1,129.5037,1609800468450
Fix,GT,37.4546558,-122.2856473,127.91792065888644,32.00361,0.1,129.69092,1609800469767
Fix,GT,37.4545293,-122.2854559,128.37883589220047,32.07625,0.1,129.4071,1609800470454
Fix,GT,37.4542882,-122.2850874,129.29947912001612,32.186268,0.1,129.19269,1609800471767
Fix,GT,37.4541425,-122.2848641,129.87554679888487,32.294136,0.1,129.31802,1609800472559
Fix,GT,37.453959,-122.2845848,130.5589074100256,32.219894,0.1,129.56732,1609800473550
Fix,GT,37.4537905,-122.2843307,131.19146883630754,32.135643,0.1,129.74472,1609800474460
Fix,GT,37.4535519,-122.2839699,132.11471337258817,32.388615,0.1,129.45157,1609800475746
Fix,GT,37.4534231,-122.2837739,132.63239254900813,32.54027,0.1,129.29944,1609800476438
Fix,GT,37.4531963,-122.2834256,133.4840081216097,32.5904,0.1,129.15103,1609800477658
Fix,GT,37.4530116,-122.2831418,134.15397791433335,32.72907,0.1,129.20825,1609800478652
Fix,GT,37.4528217,-122.2828519,134.7425300000906,32.989197,0.1,129.4426,1609800479662
Fix,GT,37.4526334,-122.2825672,135.2816032613516,33.03104,0.1,129.71893,1609800480653
Fix,GT,37.4524404,-122.2822765,135.79751352906226,33.138176,0.1,129.61792,1609800481665
Fix,GT,37.4522531,-122.2819926,136.20400110816956,32.694233,0.1,129.43896,1609800482655
Fix,GT,37.4520674,-122.2817098,136.56124793079496,32.628456,0.1,129.33755,1609800483649
Fix,GT,37.4518775,-122.2814201,136.83255468940737,32.719273,0.1,129.36038,1609800484664
Fix,GT,37.4516938,-122.2811388,137.0630291648805,32.845528,0.1,129.13129,1609800485646
Fix,GT,37.4515061,-122.2808508,137.24749517786503,32.956043,0.1,129.32214,1609800486646
Fix,GT,37.451315,-122.2805605,137.36856935381888,32.785366,0.1,129.63153,1609800487659
Fix,GT,37.4511283,-122.2802792,137.408,32.65603,0.1,129.79803,1609800488649
Fix,GT,37.4509374,-122.2799927,137.3907132920623,32.677868,0.1,129.56628,1609800489661
Fix,GT,37.4507533,-122.2797113,137.27076958185432,32.660255,0.1,129.11963,1609800490646
Fix,GT,37.4505493,-122.2793986,137.0960100132823,32.273445,0.1,129.28043,1609800491747
Fix,GT,37.450419,-122.2791988,136.93398606348038,32.034676,0.1,129.16934,1609800492457
Fix,GT,37.4501845,-122.2788383,136.60183170402053,31.588326,0.1,129.1106,1609800493752
Fix,GT,37.4500577,-122.2786432,136.36750530683994,31.38972,0.1,129.1654,1609800494459
Fix,GT,37.4498463,-122.2783194,135.8598953319192,31.036945,0.1,129.36502,1609800495646
Fix,GT,37.4496686,-122.2780497,135.43392846494913,30.89339,0.1,129.5921,1609800496647
Fix,GT,37.4494873,-122.2777753,134.87635916441678,31.296478,0.1,129.54987,1609800497662
Fix,GT,37.4493078,-122.2775042,134.3583916413784,31.720299,0.1,129.8331,1609800498650
Fix,GT,37.4491213,-122.277227,133.68581730961802,31.73639,0.1,130.23456,1609800499662
Fix,GT,37.4489386,-122.276958,132.9618619644046,31.812864,0.1,130.46036,1609800500646
Fix,GT,37.448752,-122.2766844,132.13828690767286,31.931702,0.1,130.54901,1609800501646
Fix,GT,37.4485604,-122.2764057,131.21460829925536,32.2022,0.1,130.81656,1609800502661
Fix,GT,37.4483711,-122.2761329,130.31166551077365,32.482082,0.1,131.11737,1609800503651
Fix,GT,37.4481752,-122.2758519,129.38441437888144,32.775436,0.1,131.05011,1609800504663
Fix,GT,37.4479815,-122.2755743,128.4484781125188,33.06974,0.1,131.15027,1609800505654
Fix,GT,37.4477822,-122.2752888,127.48566480255128,33.346004,0.1,131.13855,1609800506666
Fix,GT,37.4475847,-122.2750061,126.51422267341611,33.57391,0.1,131.21558,1609800507659
Fix,GT,37.4473862,-122.2747227,125.56258911514284,33.776726,0.1,131.26263,1609800508651
Fix,GT,37.4471815,-122.2744308,124.58385593754052,33.990532,0.1,131.2753,1609800509666
Fix,GT,37.446983,-122.2741477,123.67280736017229,34.021133,0.1,131.30188,1609800510646
Fix,GT,37.4467806,-122.2738603,122.85726068282128,33.91359,0.1,131.41022,1609800511645
Fix,GT,37.4465766,-122.2735704,122.150699770689,33.83733,0.1,131.28632,1609800512655
Fix,GT,37.4463768,-122.2732853,121.621328338027,33.6269,0.1,131.24261,1609800513650
Fix,GT,37.4461565,-122.2729697,121.30047751629354,33.203323,0.1,131.08694,1609800514761
Fix,GT,37.4460208,-122.2727747,121.12784416681528,33.016838,0.1,131.15555,1609800515453
Fix,GT,37.4457897,-122.27244,120.94035968464614,32.679276,0.1,130.24176,1609800516645
Fix,GT,37.4455829,-122.2721242,120.83869948887823,32.399696,0.1,128.38113,1609800517757
Fix,GT,37.4454599,-122.2719248,120.7945972032547,32.236275,0.1,127.05655,1609800518448
Fix,GT,37.445254,-122.2715682,120.80262470042706,31.948666,0.1,124.80481,1609800519662
Fix,GT,37.4450957,-122.2712715,120.9024890947342,31.756758,0.1,122.73358,1609800520654
Fix,GT,37.4449447,-122.2709705,121.09873503434656,31.597134,0.1,121.65582,1609800521647
Fix,GT,37.4447967,-122.2706627,121.43195180660486,31.364033,0.1,120.34552,1609800522657
Fix,GT,37.4446592,-122.2703586,121.75083946362138,31.10987,0.1,118.508514,1609800523648
Fix,GT,37.4445161,-122.2700124,122.17367967081071,30.809925,0.1,116.28757,1609800524763
Fix,GT,37.4444209,-122.2697639,122.4673558847308,30.766499,0.1,115.010284,1609800525556
Fix,GT,37.4443192,-122.2694812,122.69933608275652,30.92165,0.1,113.45499,1609800526445
Fix,GT,37.4441905,-122.269092,123.10792405581476,30.788738,0.1,111.539856,1609800527653
Fix,GT,37.4440834,-122.2687357,123.5368040779233,30.688923,0.1,109.59955,1609800528750
Fix,GT,37.4440191,-122.2685025,123.77698500323297,30.73592,0.1,108.5376,1609800529461
Fix,GT,37.4439188,-122.2681089,124.20065977710485,30.774921,0.1,106.86771,1609800530650
Fix,GT,37.4438418,-122.2677765,124.56262507390976,30.76204,0.1,105.40155,1609800531646
Fix,GT,37.443772,-122.2674371,124.9112241948843,30.88213,0.1,103.50214,1609800532653
Fix,GT,37.4437117,-122.2670966,125.26543348693846,30.957876,0.1,101.46051,1609800533651
Fix,GT,37.4436589,-122.2667483,125.60739410233498,30.951385,0.1,99.9762,1609800534664
Fix,GT,37.4436144,-122.266407,125.94047395730018,31.033943,0.1,98.4798,1609800535653
Fix,GT,37.4435773,-122.2660611,126.23328379780054,31.2229,0.1,96.78943,1609800536645
Fix,GT,37.4435476,-122.2657056,126.50659728562832,31.447866,0.1,95.23285,1609800537655
Fix,GT,37.4435256,-122.265354,126.71330477356908,31.346367,0.1,93.70056,1609800538648
Fix,GT,37.4435107,-122.2649955,126.86586201506852,31.277042,0.1,92.16568,1609800539663
Fix,GT,37.443504,-122.2646095,126.977,31.407438,0.1,90.210175,1609800540754
Fix,GT,37.4435052,-122.2643647,126.992878985703,31.503603,0.1,88.94452,1609800541443
Fix,GT,37.4435171,-122.2639326,126.94169130295516,31.613483,0.1,86.98685,1609800542655
Fix,GT,37.4435367,-122.2635787,126.89855549758671,31.581158,0.1,85.11548,1609800543648
Fix,GT,37.4435654,-122.2632194,126.83182614690064,31.558933,0.1,83.42221,1609800544661
Fix,GT,37.4436015,-122.2628676,126.54565399777889,31.674541,0.1,81.9433,1609800545654
Fix,GT,37.4436416,-122.2625167,126.1921264952123,31.904915,0.1,81.94574,1609800546641
Fix,GT,37.4436813,-122.2621519,125.83688876032828,32.198875,0.1,82.29584,1609800547658
Fix,GT,37.4437191,-122.2617931,125.50042564332485,32.4509,0.1,82.41379,1609800548648
Fix,GT,37.4437581,-122.2614239,125.2660262814164,32.607517,0.1,82.28665,1609800549661
Fix,GT,37.4437972,-122.2610604,125.05894814491272,32.77437,0.1,82.1369,1609800550654
Fix,GT,37.4438379,-122.2606962,124.87402617689966,32.95675,0.1,81.691864,1609800551644
Fix,GT,37.4438808,-122.2603232,124.63927390909194,32.898846,0.1,81.8681,1609800552656
Fix,GT,37.4439202,-122.2599582,124.29784305381776,32.707157,0.1,82.675995,1609800553650
Fix,GT,37.4439543,-122.2595864,123.84181667238474,32.70564,0.1,84.115875,1609800554663
Fix,GT,37.4439797,-122.2592216,123.32856420814991,32.76132,0.1,85.72345,1609800555653
Fix,GT,37.4439963,-122.258876,122.82354598391056,32.83779,0.1,87.3797,1609800556586
Fix,GT,37.4440032,-122.258455,122.10127645671368,32.95984,0.1,90.171326,1609800557719
Fix,GT,37.443997,-122.2580843,121.36080478738248,33.06141,0.1,92.11133,1609800558713
Fix,GT,37.4439788,-122.2577087,120.52469680421056,32.9216,0.1,94.77112,1609800559722
Fix,GT,37.4439465,-122.2573208,119.5644030315876,32.73404,0.1,96.87326,1609800560774
Fix,GT,37.4439112,-122.2569944,118.68787447798252,32.595463,0.1,98.31677,1609800561666
Fix,GT,37.4438642,-122.2566333,117.6432472640276,32.576023,0.1,100.17639,1609800562660
Fix,GT,37.4438072,-122.2562741,116.50258382701873,32.686974,0.1,102.44458,1609800563653
Fix,GT,37.4437367,-122.2559109,115.25992049717902,32.818726,0.1,104.98016,1609800564663
Fix,GT,37.4436546,-122.2555584,113.92949191707372,32.827705,0.1,107.48175,1609800565653
Fix,GT,37.4435594,-122.255201,112.55849725341795,32.945633,0.1,109.343475,1609800566667
Fix,GT,37.4434575,-122.2548533,111.21462413442136,33.078545,0.1,110.94705,1609800567660
Fix,GT,37.4433471,-122.2545093,109.88980476069452,33.22753,0.1,112.790436,1609800568650
Fix,GT,37.4432247,-122.2541608,108.53335224997996,33.367096,0.1,114.732056,1609800569662
Fix,GT,37.4430936,-122.2538237,107.18055589765312,33.492275,0.1,117.23859,1609800570655
Fix,GT,37.4429477,-122.2534863,105.8134818648696,33.684258,0.1,119.6214,1609800571666
Fix,GT,37.442793,-122.2531604,104.46955000817776,33.872643,0.1,121.8985,1609800572659
Fix,GT,37.442628,-122.2528423,103.11262337136267,33.91282,0.1,124.19525,1609800573650
Fix,GT,37.4424485,-122.2525258,101.7213354085684,33.835056,0.1,126.45691,1609800574664
Fix,GT,37.4422656,-122.2522259,100.47228006350994,33.711685,0.1,128.28778,1609800575653
Fix,GT,37.4420825,-122.2519463,99.14201703641564,33.604343,0.1,130.28995,1609800576604
Fix,GT,37.4418466,-122.2516139,97.50914604622126,33.48665,0.1,132.8786,1609800577778
Fix,GT,37.4416663,-122.251374,96.49531788682938,33.374207,0.1,133.54749,1609800578651
Fix,GT,37.4414562,-122.2510996,95.23162462967636,33.254986,0.1,133.94263,1609800579662
Fix,GT,37.4412496,-122.2508318,93.9163103004098,33.16915,0.1,133.91711,1609800580654
Fix,GT,37.4410398,-122.2505589,92.54922688490151,33.083652,0.1,133.91046,1609800581667
Fix,GT,37.4408349,-122.2502914,91.30015260887146,32.98848,0.1,133.55084,1609800582661
Fix,GT,37.4406327,-122.250025,89.98272119140626,32.89775,0.1,133.55664,1609800583649
Fix,GT,37.4404048,-122.2497248,88.50942801094055,32.799644,0.1,133.46393,1609800584766
Fix,GT,37.4402647,-122.2495402,87.62979078400134,32.740833,0.1,133.53549,1609800585454
Fix,GT,37.4400181,-122.2492161,86.0706601188779,32.64293,0.1,133.73865,1609800586667
Fix,GT,37.4397947,-122.2489264,84.72393654704094,32.579536,0.1,134.2026,1609800587761
Fix,GT,37.4396534,-122.2487453,83.84149712377787,32.577827,0.1,134.34134,1609800588449
Fix,GT,37.439415,-122.248442,82.16002033437789,32.623936,0.1,134.74881,1609800589605
Fix,GT,37.439172,-122.248137,80.6374250690937,32.605766,0.1,134.96487,1609800590774
Fix,GT,37.4389701,-122.2478846,79.32445143708587,32.510117,0.1,135.05573,1609800591746
Fix,GT,37.4388021,-122.247675,78.30221418696641,32.214424,0.1,135.10803,1609800592558
Fix,GT,37.4386198,-122.2474492,77.100510502249,31.606209,0.1,135.62387,1609800593449
Fix,GT,37.4383733,-122.2471559,75.70437203073502,30.641338,0.1,137.20511,1609800594660
Fix,GT,37.4381717,-122.246929,74.47667305421828,29.84919,0.1,138.88452,1609800595654
Fix,GT,37.4379671,-122.2467112,73.19056504964828,29.05138,0.1,140.18552,1609800596666
Fix,GT,37.4377484,-122.2464856,71.85077669161558,28.385702,0.1,140.49677,1609800597761
Fix,GT,37.4376136,-122.2463469,71.0486062310934,27.865608,0.1,140.61511,1609800598449
Fix,GT,37.4373828,-122.2461096,69.70718678539991,26.788292,0.1,140.63629,1609800599662
Fix,GT,37.4372006,-122.2459217,68.66827725505829,26.11563,0.1,140.58789,1609800600653
Fix,GT,37.4370039,-122.2457177,67.43738420364261,25.644115,0.1,140.39874,1609800601746
Fix,GT,37.4368796,-122.2455871,66.62970593720675,25.223637,0.1,139.96545,1609800602454
Fix,GT,37.4366749,-122.2453689,65.11507189106942,24.810184,0.1,139.24677,1609800603647
Fix,GT,37.4365059,-122.2451848,63.77241147202253,24.104816,0.1,138.70746,1609800604662
Fix,GT,37.4363496,-122.2450115,62.53536123991013,22.944988,0.1,138.36462,1609800605645
Fix,GT,37.436199,-122.2448438,61.34897206282616,22.262768,0.1,138.45142,1609800606637
Fix,GT,37.4360325,-122.24466,60.06992842388153,21.496841,0.1,138.58337,1609800607758
Fix,GT,37.4359345,-122.2445519,59.35044993579388,20.281921,0.1,138.61249,1609800608449
Fix,GT,37.435781,-122.2443825,58.32479666119814,17.196898,0.1,138.63477,1609800609661
Fix,GT,37.4356732,-122.2442631,57.78430603250861,15.31834,0.1,138.44165,1609800610643
Fix,GT,37.435578,-122.244158,57.44201359373331,12.854979,0.1,138.62756,1609800611638
Fix,GT,37.4354989,-122.2440711,57.25571650439501,10.011311,0.1,138.82343,1609800612660
Fix,GT,37.4354417,-122.2440084,57.14797581148148,6.904334,0.1,138.89215,1609800613650
Fix,GT,37.4354029,-122.243966,57.08647651267052,4.5228677,0.1,138.91895,1609800614663
Fix,GT,37.435379,-122.2439396,57.04315299364925,2.71281,0.1,138.92847,1609800615646
Fix,GT,37.4353637,-122.2439228,56.97533497098088,2.2207565,0.1,138.91058,1609800616638
Fix,GT,37.4353468,-122.2439042,56.92934140187501,2.7755575,0.1,138.92804,1609800617655
Fix,GT,37.4353243,-122.2438795,56.88153890568018,4.069673,0.1,138.91733,1609800618649
Fix,GT,37.4352905,-122.243842,56.80312146139145,5.824874,0.1,138.36456,1609800619660
Fix,GT,37.4352507,-122.2437894,56.70115250217915,7.0907965,0.1,131.53009,1609800620644
Fix,GT,37.4352137,-122.2437188,56.47283572769165,8.019205,0.1,120.303955,1609800621638
Fix,GT,37.4351893,-122.243628,56.30736649197341,8.679201,0.1,103.65747,1609800622659
Fix,GT,37.4351899,-122.2435294,56.14584385359287,9.052637,0.1,82.429504,1609800623652
Fix,GT,37.4352235,-122.2434327,55.842547498703,9.751606,0.1,60.638885,1609800624660
Fix,GT,37.4352791,-122.2433244,55.481874172210695,11.023798,0.1,57.26239,1609800625756
Fix,GT,37.4353164,-122.2432493,55.22975994110108,11.705297,0.1,58.155426,1609800626445
Fix,GT,37.4353855,-122.2431067,54.74117982673645,12.512295,0.1,58.881226,1609800627654
Fix,GT,37.435443,-122.2429858,54.335212017506365,12.5947,0.1,59.109253,1609800628645
Fix,GT,37.4355005,-122.2428649,53.91043551969528,11.681196,0.1,59.277527,1609800629660
Fix,GT,37.4355483,-122.2427621,53.545867027044295,9.517846,0.1,59.990875,1609800630652
Fix,GT,37.4355873,-122.2426769,53.24599226659536,7.8873367,0.1,60.061676,1609800631666
Fix,GT,37.4356186,-122.24261,53.02203429698944,5.8813453,0.1,59.26358,1609800632656
Fix,GT,37.4356396,-122.2425669,52.863554021954535,3.8902597,0.1,58.541748,1609800633585
Fix,GT,37.4356554,-122.2425356,52.757454562842845,1.7906168,0.1,57.868347,1609800634722
Fix,GT,37.4356609,-122.2425251,52.71852068543435,0.54786557,0.1,57.43692,1609800635773
Fix,GT,37.435662,-122.2425231,52.712,0.020358011,0.1,57.284454,1609800636665
Fix,GT,37.435662,-122.2425231,52.71,0.001,0.1,57.280396,1609800637654
Fix,GT,37.435662,-122.2425231,52.714,0.000720277,0.1,57.27835,1609800638650
Fix,GT,37.435662,-122.2425231,52.715,0.0013970379,0.1,57.278656,1609800639660
Fix,GT,37.435662,-122.2425231,52.715,0.002,0.1,57.27942,1609800640653
Fix,GT,37.435662,-122.2425231,52.715,0.002,0.1,57.28006,1609800641644
Fix,GT,37.435662,-122.2425231,52.715,0.0025969595,0.1,57.279297,1609800642651
Fix,GT,37.435662,-122.2425231,52.715,0.0015619285,0.1,57.278625,1609800643645
Fix,GT,37.435662,-122.2425231,52.715,0.0046814913,0.1,57.279083,1609800644663
Fix,GT,37.435662,-122.2425231,52.715,0.0021234206,0.1,57.27829,1609800645652
Fix,GT,37.435662,-122.2425231,52.715,0.002236068,0.1,57.28003,1609800646665
Fix,GT,37.435662,-122.2425231,52.715,0.0025079716,0.1,57.27838,1609800647656
Fix,GT,37.435662,-122.2425231,52.715,0.002,0.1,57.276978,1609800648651
Fix,GT,37.435662,-122.2425231,52.715,0.0016392525,0.1,57.277893,1609800649661
Fix,GT,37.435662,-122.2425231,52.714,0.002236068,0.1,57.277496,1609800650654
Fix,GT,37.4356621,-122.2425229,52.707,0.0011420845,0.1,57.27707,1609800651665
Fix,GT,37.4356621,-122.2425229,52.707,0.0011653362,0.1,57.276825,1609800652660
Fix,GT,37.4356621,-122.2425229,52.707,0.001,0.1,57.276672,1609800653649
Fix,GT,37.4356621,-122.2425229,52.707,0.001,0.1,57.27661,1609800654663
Fix,GT,37.4356621,-122.2425229,52.707,0.001,0.1,57.276794,1609800655594
Fix,GT,37.4356621,-122.2425229,52.707,0.0011043882,0.1,57.27664,1609800656725
Fix,GT,37.4356621,-122.2425229,52.707,0.001,0.1,57.27655,1609800657778
Fix,GT,37.4356621,-122.2425229,52.70700157079101,0.0016069636,0.1,57.276794,1609800658639
Fix,GT,37.4356621,-122.2425229,52.707,0.0012031277,0.1,57.276764,1609800659650
Fix,GT,37.4356621,-122.2425229,52.707,0.001,0.1,57.276733,1609800660667
Fix,GT,37.4356621,-122.2425229,52.707,0.0016788252,0.1,57.2771,1609800661667
Fix,GT,37.4356621,-122.2425229,52.707,0.0014827002,0.1,57.27646,1609800662651
Fix,GT,37.4356621,-122.2425229,52.707,0.001,0.1,57.27655,1609800663661
Fix,GT,37.4356621,-122.2425229,52.707,0.0014129616,0.1,57.27646,1609800664658
Fix,GT,37.4356621,-122.2425229,52.707,0.001,0.1,57.27649,1609800665670
Fix,GT,37.4356621,-122.2425229,52.707,0.0011525514,0.1,57.27652,1609800666663
Fix,GT,37.4356621,-122.2425229,52.707,0.0015495792,0.1,57.276794,1609800667655
Fix,GT,37.4356621,-122.2425229,52.706,0.001,0.1,57.276978,1609800668666
Fix,GT,37.4356621,-122.2425229,52.706,0.001,0.1,57.27707,1609800669660
Fix,GT,37.4356621,-122.2425229,52.706,0.0018150756,0.1,57.27716,1609800670668
Fix,GT,37.4356621,-122.2425229,52.706,0.002097575,0.1,57.27719,1609800671658
Fix,GT,37.4356621,-122.2425229,52.706,0.0027731205,0.1,57.2771,1609800672670
Fix,GT,37.4356621,-122.2425229,52.7060015707612,0.0022360682,0.1,57.27716,1609800673648
Fix,GT,37.4356621,-122.2425229,52.706,0.0025769887,0.1,57.277252,1609800674657
Fix,GT,37.4356621,-122.2425229,52.7060015707612,0.0036055516,0.1,57.27722,1609800675648
Fix,GT,37.4356622,-122.2425228,52.70266819429398,0.08355132,0.1,57.268616,1609800676666
Fix,GT,37.4356661,-122.2425169,52.66254130125046,1.5434996,0.1,55.213562,1609800677655
Fix,GT,37.4356838,-122.2424995,52.56536754886434,3.5091388,0.1,41.89987,1609800678605
Fix,GT,37.4357291,-122.2424824,52.45525067520141,5.494014,0.1,14.3836975,1609800679779
Fix,GT,37.4357752,-122.2424846,52.32892709732056,6.803206,0.1,355.6248,1609800680612
Fix,GT,37.4358492,-122.2425214,52.11894624614716,8.3372965,0.1,331.6866,1609800681784
Fix,GT,37.4358972,-122.2425744,52.02960585784913,9.416432,0.1,314.1933,1609800682595
Fix,GT,37.4359552,-122.2426938,52.36552003955842,11.399409,0.1,296.75256,1609800683786
Fix,GT,37.4359969,-122.2428023,52.702530967712406,13.384935,0.1,295.77164,1609800684661
Fix,GT,37.4360556,-122.2429529,53.37521178913117,15.651839,0.1,295.90042,1609800685674
Fix,GT,37.4361208,-122.2431197,54.17085798710585,17.5101,0.1,296.09113,1609800686663
Fix,GT,37.4361948,-122.2433072,55.23587491196393,19.328722,0.1,296.37274,1609800687668
Fix,GT,37.4362755,-122.2435069,56.37349527931213,21.089071,0.1,297.1875,1609800688648
Fix,GT,37.4363701,-122.243726,57.63453452301026,22.101574,0.1,299.57892,1609800689664
Fix,GT,37.4364755,-122.2439419,58.9503330168128,23.160608,0.1,302.91458,1609800690654
Fix,GT,37.4365978,-122.2441596,60.29208125078678,24.278687,0.1,307.19028,1609800691647
Fix,GT,37.4367559,-122.2444011,61.9832024191618,25.44616,0.1,310.83463,1609800692759
Fix,GT,37.4368625,-122.2445513,63.09139775773883,26.185705,0.1,312.14883,1609800693448
Fix,GT,37.4370611,-122.2448212,64.95956758058071,27.198261,0.1,312.87332,1609800694662
Fix,GT,37.4372298,-122.2450474,66.24618921887875,27.200077,0.1,313.0272,1609800695667
Fix,GT,37.4373971,-122.2452705,67.37969339734316,27.063341,0.1,313.30667,1609800696666
Fix,GT,37.4375626,-122.2454889,68.46311597269774,26.993607,0.1,313.55255,1609800697653
Fix,GT,37.437723,-122.2456977,69.51165796360374,26.943325,0.1,314.00156,1609800698604
Fix,GT,37.4379108,-122.2459396,70.80600534105301,26.939949,0.1,314.15042,1609800699714
Fix,GT,37.4380343,-122.2460987,71.60711224162579,26.660439,0.1,314.03714,1609800700446
Fix,GT,37.4381988,-122.2463136,72.72371336895228,26.116581,0.1,313.4889,1609800701446
Fix,GT,37.438361,-122.2465264,73.79701719003916,26.149336,0.1,313.59714,1609800702446
Fix,GT,37.4385293,-122.2467474,74.92693560656906,28.00713,0.1,313.44455,1609800703446
