MessageType,Provider,LatitudeDegrees,LongitudeDegrees,AltitudeMeters,SpeedMps,AccuracyMeters,BearingDegrees,UnixTimeMillis
Fix,GT,37.4146628,-122.0741274,-25.8099995688285,0.0014142134,0.099,183.61354,1617917306000
Fix,GT,37.4146628,-122.0741274,-25.809999867794104,0.0022353644,0.1,183.61354,1617917307000
Fix,GT,37.4146628,-122.0741274,-25.810000165257367,0.0020001333,0.1,183.61343,1617917308000
Fix,GT,37.4146628,-122.0741274,-25.81000046272064,0.0022368357,0.1,183.6137,1617917309000
Fix,GT,37.4146628,-122.0741274,-25.80999948019045,0.0022360678,0.1,183.61388,1617917310000
Fix,GT,37.4146628,-122.0741274,-25.80999926084885,0.0028281,0.1,183.61528,1617917311000
Fix,GT,37.4146627,-122.0741274,-25.81100010748743,0.07635235,0.1,183.61269,1617917312000
Fix,GT,37.4146596,-122.0741276,-25.81199959884421,0.64460856,0.099,183.39145,1617917313000
Fix,GT,37.414651,-122.074128,-25.813999896322493,1.1930776,0.1,182.742,1617917314000
Fix,GT,37.4146386,-122.0741277,-25.80599886574945,1.5229698,0.1,180.64241,1617917315000
Fix,GT,37.414624,-122.074126,-25.79599891489558,1.6867775,0.1,177.3717,1617917316000
Fix,GT,37.4146082,-122.0741238,-25.78400027315039,1.7650944,0.1,174.96729,1617917317000
Fix,GT,37.4145923,-122.0741217,-25.78000057022553,1.8106763,0.1,174.45087,1617917318000
Fix,GT,37.414576,-122.0741203,-25.77200036634295,1.8092302,0.1,175.47668,1617917319000
Fix,GT,37.4145589,-122.0741211,-25.79800091273524,2.2308207,0.1,180.09286,1617917320000
Fix,GT,37.4145375,-122.0741321,-25.80900068625581,2.9896674,0.1,198.38159,1617917321000
Fix,GT,37.4145198,-122.0741625,-25.865005777785782,3.8276763,0.1,230.47208,1617917322000
Fix,GT,37.4145117,-122.074211,-25.941007031497893,5.0420012,0.1,257.9191,1617917323000
Fix,GT,37.4145095,-122.0742736,-26.02000423752412,6.0790644,0.1,266.78003,1617917324000
Fix,GT,37.4145079,-122.0743475,-26.09699908112828,7.0028863,0.1,268.90097,1617917325000
Fix,GT,37.4145087,-122.0744299,-26.181999838499003,7.491158,0.1,271.1777,1617917326000
Fix,GT,37.4145085,-122.0745138,-26.137997235913527,7.136409,0.1,268.6142,1617917327000
Fix,GT,37.4145024,-122.0745891,-26.05799899617676,6.1640205,0.1,262.18625,1617917328000
Fix,GT,37.4144847,-122.0746511,-25.955990972182043,5.4507165,0.1,245.48233,1617917329000
Fix,GT,37.4144504,-122.0746927,-25.82799584499147,4.9099627,0.1,220.46298,1617917330000
Fix,GT,37.4144081,-122.0747153,-25.7099995697508,5.262923,0.1,201.95499,1617917331000
Fix,GT,37.4143583,-122.0747295,-25.61999663218044,5.9637823,0.1,191.8152,1617917332000
Fix,GT,37.4143017,-122.0747406,-25.507994465335475,6.7076035,0.1,188.67296,1617917333000
Fix,GT,37.4142385,-122.0747502,-25.388003373859743,7.41518,0.1,186.20859,1617917334000
Fix,GT,37.4141695,-122.0747576,-25.335000041872146,7.988114,0.1,184.62746,1617917335000
Fix,GT,37.4140948,-122.0747638,-25.359999971087035,8.569116,0.1,183.51079,1617917336000
Fix,GT,37.4140157,-122.0747693,-25.373000700379404,9.0261545,0.1,183.16148,1617917337000
Fix,GT,37.4139331,-122.074775,-25.379000111532545,9.28081,0.1,183.15652,1617917338000
Fix,GT,37.4138497,-122.0747809,-25.36600256427148,9.202248,0.1,183.1684,1617917339000
Fix,GT,37.4137676,-122.0747864,-25.37499986581411,9.04932,0.1,183.02791,1617917340000
Fix,GT,37.4136871,-122.0747917,-25.38699676627526,8.759492,0.099,182.89981,1617917341000
Fix,GT,37.4136114,-122.0747973,-25.362996923388213,8.052808,0.1,183.82019,1617917342000
Fix,GT,37.413545,-122.0748057,-25.23098894717393,6.6485662,0.1,186.37212,1617917343000
Fix,GT,37.4134943,-122.0748139,-24.99099485025022,4.7051454,0.1,187.0612,1617917344000
Fix,GT,37.4134611,-122.0748187,-24.905996962020755,2.8733816,0.1,186.4102,1617917345000
Fix,GT,37.413441,-122.0748214,-24.842997275535627,1.7131213,0.1,186.18346,1617917346000
Fix,GT,37.4134298,-122.0748228,-24.80099917973863,0.7853657,0.1,186.12561,1617917347000
Fix,GT,37.413427,-122.0748232,-24.7930004599503,0.032008935,0.1,186.10791,1617917348000
Fix,GT,37.413426,-122.0748233,-24.797999034415344,0.36662006,0.1,186.09998,1617917349000
Fix,GT,37.4134186,-122.0748244,-24.762998063496024,1.159039,0.1,186.32162,1617917350000
Fix,GT,37.4134073,-122.074829,-24.765001926224127,1.3747829,0.099,192.14796,1617917351000
Fix,GT,37.4133963,-122.0748392,-24.88000858544549,1.8854885,0.1,205.7014,1617917352000
Fix,GT,37.4133844,-122.0748626,-24.95799327002484,2.939683,0.1,228.8114,1617917353000
Fix,GT,37.4133792,-122.0749023,-24.86099842217518,4.396442,0.1,258.02792,1617917354000
Fix,GT,37.4133799,-122.0749656,-24.839998729637884,6.863155,0.1,269.71252,1617917355000
Fix,GT,37.4133799,-122.0750559,-24.823004290451472,9.091166,0.1,269.8777,1617917356000
Fix,GT,37.41338,-122.0751703,-24.796000706665712,10.860065,0.099,270.2902,1617917357000
Fix,GT,37.4133821,-122.0752973,-24.836000628654904,11.674506,0.1,271.4874,1617917358000
Fix,GT,37.413386,-122.0754333,-24.885002639503337,12.374168,0.1,272.24957,1617917359000
Fix,GT,37.4133914,-122.0755763,-24.905004266553096,12.986595,0.1,272.88687,1617917360000
Fix,GT,37.4133983,-122.0757257,-24.94799997894093,13.506869,0.1,273.38522,1617917361000
Fix,GT,37.4134061,-122.0758804,-24.972000257515585,13.896472,0.1,273.62854,1617917362000
Fix,GT,37.4134151,-122.0760378,-25.048003831418345,13.995484,0.1,274.29556,1617917363000
Fix,GT,37.4134261,-122.0761952,-25.054001467579333,13.975715,0.1,275.49258,1617917364000
Fix,GT,37.41344,-122.0763514,-25.003998138113065,13.831392,0.1,276.91425,1617917365000
Fix,GT,37.4134572,-122.0765033,-24.962995954390006,13.330053,0.1,278.4709,1617917366000
Fix,GT,37.4134773,-122.0766468,-24.892997542655475,12.4247675,0.1,280.75412,1617917367000
Fix,GT,37.4134996,-122.07678,-24.86100026860961,11.758777,0.1,282.28983,1617917368000
Fix,GT,37.4135223,-122.0769052,-24.84200036583666,10.964049,0.1,282.97296,1617917369000
Fix,GT,37.4135437,-122.0770208,-24.81800001969631,10.020245,0.099,282.99362,1617917370000
Fix,GT,37.4135629,-122.0771249,-24.775003050120223,8.88327,0.1,282.86896,1617917371000
Fix,GT,37.4135802,-122.0772154,-24.745998916198264,7.5304794,0.1,283.67432,1617917372000
Fix,GT,37.4135951,-122.0772902,-24.711999497605834,6.1317534,0.1,283.97162,1617917373000
Fix,GT,37.4136069,-122.0773493,-24.690000598532382,4.604995,0.1,283.88333,1617917374000
Fix,GT,37.4136152,-122.0773919,-24.668999765976565,3.1776748,0.1,283.7475,1617917375000
Fix,GT,37.4136207,-122.0774198,-24.65499914067518,1.9842645,0.1,283.71594,1617917376000
Fix,GT,37.4136238,-122.0774357,-24.65499969934448,0.8936917,0.1,283.65076,1617917377000
Fix,GT,37.4136254,-122.077444,-24.669000779206865,0.97744983,0.1,283.61206,1617917378000
Fix,GT,37.4136287,-122.0774606,-24.67500000690512,2.0819597,0.1,283.66815,1617917379000
Fix,GT,37.4136341,-122.0774882,-24.669000552831044,2.7746153,0.1,283.76044,1617917380000
Fix,GT,37.4136405,-122.07752,-24.65999961387715,3.1820996,0.099,283.89886,1617917381000
Fix,GT,37.4136489,-122.0775612,-24.65099890560372,4.348736,0.1,284.14478,1617917382000
Fix,GT,37.4136598,-122.0776153,-24.632000672557567,5.595864,0.1,284.17172,1617917383000
Fix,GT,37.4136729,-122.0776806,-24.5789982937988,6.2096567,0.099,284.06375,1617917384000
Fix,GT,37.4136874,-122.077753,-24.544998128523,6.91522,0.1,284.0108,1617917385000
Fix,GT,37.4137025,-122.0778288,-24.513001921197866,6.823319,0.1,283.88095,1617917386000
Fix,GT,37.4137155,-122.0779027,-24.453998771297368,6.581895,0.1,281.47784,1617917387000
Fix,GT,37.4137213,-122.0779782,-24.34999874471138,6.742639,0.1,272.6499,1617917388000
Fix,GT,37.4137108,-122.0780539,-24.18199402205937,6.7833304,0.1,255.87988,1617917389000
Fix,GT,37.41368,-122.0781252,-24.04199935909227,7.422987,0.1,236.61012,1617917390000
Fix,GT,37.41363,-122.0781877,-23.97999699478336,8.260229,0.1,221.67148,1617917391000
Fix,GT,37.4135656,-122.0782462,-23.85199899691076,9.332163,0.1,213.62334,1617917392000
Fix,GT,37.4134872,-122.0782991,-23.69800133562267,10.314571,0.1,205.57318,1617917393000
Fix,GT,37.4133962,-122.0783409,-23.607999036364465,11.105002,0.1,198.40977,1617917394000
Fix,GT,37.4132987,-122.0783841,-23.56999912526182,11.817844,0.1,200.11157,1617917395000
Fix,GT,37.4131981,-122.0784368,-23.53000152799518,12.419426,0.1,204.26794,1617917396000
Fix,GT,37.4130977,-122.0785058,-23.62600483226136,13.095987,0.1,211.54933,1617917397000
Fix,GT,37.4130037,-122.0785986,-23.91300329416212,13.462672,0.1,222.38818,1617917398000
Fix,GT,37.412926,-122.0787144,-24.123000840325343,13.568475,0.1,234.69339,1617917399000
Fix,GT,37.4128704,-122.0788529,-24.19700536790083,14.106975,0.1,248.68497,1617917400000
Fix,GT,37.4128422,-122.0790103,-24.26500191461341,14.606565,0.1,263.09045,1617917401000
Fix,GT,37.4128429,-122.0791743,-24.199000690550065,14.475838,0.1,274.42566,1617917402000
Fix,GT,37.4128638,-122.0793338,-24.133995493895608,14.299592,0.1,282.10092,1617917403000
Fix,GT,37.4128989,-122.0794915,-24.054998661236343,14.870114,0.1,287.69113,1617917404000
Fix,GT,37.4129474,-122.0796555,-24.057999544649967,16.172432,0.1,291.90118,1617917405000
Fix,GT,37.4130082,-122.0798293,-24.114998812619945,17.46226,0.1,294.68536,1617917406000
Fix,GT,37.4130786,-122.0800112,-24.159000118689622,18.164946,0.1,296.68866,1617917407000
Fix,GT,37.4131559,-122.080195,-24.19100071296049,18.651857,0.1,298.45734,1617917408000
Fix,GT,37.4132394,-122.0803824,-24.32199856423465,19.358526,0.1,299.4524,1617917409000
Fix,GT,37.4133283,-122.0805749,-24.40400016745375,20.038967,0.1,300.48163,1617917410000
Fix,GT,37.4134229,-122.0807724,-24.53299932913596,20.760069,0.1,301.14053,1617917411000
Fix,GT,37.4135228,-122.0809755,-24.63500106331424,21.479593,0.1,302.1247,1617917412000
Fix,GT,37.4136304,-122.0811821,-24.775998627724032,22.1641,0.1,304.14752,1617917413000
Fix,GT,37.4137499,-122.0813865,-24.716999038881383,22.770613,0.099,308.18622,1617917414000
Fix,GT,37.4138838,-122.0815858,-24.782994140465046,23.37532,0.1,311.4949,1617917415000
Fix,GT,37.4140284,-122.0817804,-23.859983912748284,23.686625,0.1,313.71088,1617917416000
Fix,GT,37.4141763,-122.0819748,-22.59099216478946,23.830736,0.1,313.18176,1617917417000
Fix,GT,37.4143202,-122.082175,-21.77299605180674,23.883268,0.1,310.73285,1617917418000
Fix,GT,37.414455,-122.0823856,-21.42500052680533,23.80852,0.1,306.93707,1617917419000
Fix,GT,37.4145757,-122.0826064,-21.660006508382992,23.582739,0.1,302.07462,1617917420000
Fix,GT,37.4146809,-122.0828378,-22.53300993102342,23.636293,0.1,297.90155,1617917421000
Fix,GT,37.4147789,-122.0830782,-23.64400826194506,24.166096,0.1,296.50613,1617917422000
Fix,GT,37.4148786,-122.0833239,-24.68500680649284,24.533527,0.1,297.39743,1617917423000
Fix,GT,37.4149849,-122.083567,-25.62700538299617,24.55011,0.1,299.5752,1617917424000
Fix,GT,37.4150998,-122.0838031,-25.743997773887816,24.491875,0.1,302.99997,1617917425000
Fix,GT,37.4152259,-122.0840307,-25.47000033656947,24.613739,0.1,306.40353,1617917426000
Fix,GT,37.4153621,-122.084251,-25.35699902898508,24.722164,0.099,308.76398,1617917427000
Fix,GT,37.4155036,-122.0844652,-25.388000280026656,24.633362,0.1,309.96927,1617917428000
Fix,GT,37.4156483,-122.0846796,-25.40199965378408,25.152763,0.1,310.269,1617917429000
Fix,GT,37.4157966,-122.0848985,-25.427000820918938,25.602991,0.1,310.2582,1617917430000
Fix,GT,37.4159472,-122.0851193,-25.53599967577773,25.832949,0.1,310.51517,1617917431000
Fix,GT,37.4161,-122.0853409,-25.52699965767585,26.043636,0.1,310.92538,1617917432000
Fix,GT,37.4162551,-122.0855629,-25.53600037629946,26.225672,0.1,311.3187,1617917433000
Fix,GT,37.416412,-122.0857848,-25.53099902286942,26.26198,0.099,311.56674,1617917434000
Fix,GT,37.4165691,-122.0860063,-25.578999698061164,26.231926,0.1,311.6105,1617917435000
Fix,GT,37.4167264,-122.0862273,-25.60299994582748,26.225012,0.1,311.6886,1617917436000
Fix,GT,37.4168837,-122.0864485,-25.64700015129536,26.262823,0.1,311.60297,1617917437000
Fix,GT,37.4170415,-122.0866705,-25.65700075984989,26.404097,0.1,311.72504,1617917438000
Fix,GT,37.4172005,-122.0868934,-25.672999491940235,26.528746,0.1,311.7792,1617917439000
Fix,GT,37.4173608,-122.0871168,-25.73499975302448,26.692528,0.1,311.9543,1617917440000
Fix,GT,37.4175228,-122.0873407,-25.81299994921684,26.808058,0.1,312.32535,1617917440999
Fix,GT,37.4176864,-122.0875642,-25.931999932289123,26.911655,0.1,312.4055,1617917441999
Fix,GT,37.4178503,-122.0877896,-26.104999756515028,27.098774,0.1,312.27377,1617917442999
Fix,GT,37.418015,-122.0880163,-26.27499967610836,27.098232,0.1,312.22662,1617917443999
Fix,GT,37.4181786,-122.0882418,-26.43799963724613,26.867695,0.1,312.1942,1617917444999
Fix,GT,37.4183409,-122.0884661,-26.613999539732934,26.794516,0.1,312.15887,1617917445999
Fix,GT,37.4185031,-122.0886906,-26.793999491333963,26.826223,0.1,312.00812,1617917446999
Fix,GT,37.4186651,-122.0889161,-26.988999282777307,26.888744,0.1,311.84305,1617917447999
Fix,GT,37.4188264,-122.0891412,-27.158999270677565,26.659216,0.1,311.98663,1617917448999
Fix,GT,37.4189868,-122.089363,-27.32699940168857,26.33778,0.1,312.26294,1617917449999
Fix,GT,37.4191456,-122.0895815,-27.46899934244156,25.993776,0.1,312.24097,1617917450999
Fix,GT,37.4193023,-122.0897972,-27.61299943614006,25.65191,0.1,312.22723,1617917451999
Fix,GT,37.4194569,-122.0900101,-27.71699988901615,25.300678,0.1,312.33508,1617917452999
Fix,GT,37.4196099,-122.0902193,-27.840998982667923,24.986778,0.1,312.53253,1617917453999
Fix,GT,37.4197609,-122.0904264,-27.96999980777501,24.709494,0.1,312.20148,1617917454999
Fix,GT,37.4199109,-122.0906326,-28.05699924862385,24.71779,0.1,312.2943,1617917455999
Fix,GT,37.4200614,-122.090839,-28.15599891012907,24.787668,0.1,312.3615,1617917456999
Fix,GT,37.420212,-122.0910463,-28.258999461770056,24.859034,0.1,312.09882,1617917457999
Fix,GT,37.4203625,-122.0912545,-28.38099772691727,24.880304,0.1,312.05466,1617917458999
Fix,GT,37.420513,-122.0914624,-28.49699880421161,24.779207,0.1,312.18533,1617917459999
Fix,GT,37.4206627,-122.0916682,-28.58399901258945,24.497526,0.1,312.33063,1617917460999
Fix,GT,37.4208101,-122.0918717,-28.725999154031275,24.17848,0.1,311.92783,1617917461999
Fix,GT,37.4209541,-122.0920728,-28.907998821258545,23.557245,0.1,311.8915,1617917462999
Fix,GT,37.4210928,-122.0922663,-29.023999076783657,22.441479,0.1,311.8739,1617917463999
Fix,GT,37.421224,-122.0924488,-29.066999786257742,21.09706,0.1,312.08185,1617917464999
Fix,GT,37.421348,-122.0926197,-29.08100011110305,19.690214,0.1,312.60004,1617917465999
Fix,GT,37.4214651,-122.092772,-29.063000115334987,17.817886,0.1,315.6121,1617917466999
Fix,GT,37.4215793,-122.0928977,-29.04999964094162,16.07901,0.1,321.2963,1617917467999
Fix,GT,37.4216933,-122.0929974,-29.173997645556927,14.771242,0.1,328.1934,1617917468999
Fix,GT,37.4218067,-122.0930634,-29.26000307846069,13.060307,0.1,340.82306,1617917469999
Fix,GT,37.4219147,-122.0930872,-29.19500172251463,11.800144,0.1,355.7424,1617917470999
Fix,GT,37.4220168,-122.093074,-29.05100246119499,11.209977,0.1,11.876953,1617917471999
Fix,GT,37.4221072,-122.0930262,-28.88500197434425,10.882334,0.1,28.3992,1617917472999
Fix,GT,37.4221827,-122.0929501,-28.66700464820862,10.786334,0.1,44.205536,1617917473999
Fix,GT,37.4222388,-122.0928519,-28.460004039406776,10.845454,0.1,59.364044,1617917474999
Fix,GT,37.4222733,-122.0927377,-28.18000446134806,10.999002,0.1,74.566345,1617917475999
Fix,GT,37.4222824,-122.0926137,-27.798007748425007,11.225472,0.1,90.48465,1617917476999
Fix,GT,37.4222636,-122.0924895,-27.32800698417425,11.379741,0.1,106.31299,1617917477999
Fix,GT,37.4222188,-122.0923759,-26.871008502423763,11.144291,0.1,122.1452,1617917478999
Fix,GT,37.4221533,-122.0922866,-26.340011282444,10.634349,0.1,138.6034,1617917479999
Fix,GT,37.4220725,-122.092228,-25.785008414268493,10.360668,0.1,155.919,1617917480999
Fix,GT,37.4219826,-122.0922015,-25.281008796930312,10.394836,0.1,172.09894,1617917481999
Fix,GT,37.4218877,-122.0922028,-24.79701066160202,10.951806,0.1,184.43704,1617917482999
Fix,GT,37.4217869,-122.0922226,-24.25800977873802,11.784183,0.1,190.31598,1617917483999
Fix,GT,37.421679,-122.0922516,-23.694010771274566,12.737007,0.1,192.81227,1617917484999
Fix,GT,37.4215641,-122.0922883,-23.16300943851471,13.605955,0.1,195.18492,1617917485999
Fix,GT,37.4214429,-122.0923338,-22.716007833838464,14.47826,0.1,197.47032,1617917486999
Fix,GT,37.4213168,-122.0923876,-22.36500430709124,15.074591,0.1,199.74052,1617917487999
Fix,GT,37.4211882,-122.0924493,-22.171002094507216,15.546683,0.1,201.4164,1617917488999
Fix,GT,37.4210565,-122.0925168,-22.14799893158674,16.041225,0.1,202.50345,1617917489999
Fix,GT,37.4209219,-122.0925883,-22.29299542254209,16.335592,0.1,203.03354,1617917490999
Fix,GT,37.4207865,-122.0926605,-22.617990887105464,16.291208,0.1,202.84013,1617917491999
Fix,GT,37.4206516,-122.0927293,-23.07998731279373,15.90743,0.1,200.9239,1617917492999
Fix,GT,37.4205197,-122.0927867,-23.64898522949219,15.009507,0.1,197.69122,1617917493999
Fix,GT,37.4203957,-122.0928342,-24.327987302422525,13.681146,0.1,196.68674,1617917494999
Fix,GT,37.4202852,-122.0928783,-25.028983722686768,12.033866,0.1,198.00958,1617917495999
Fix,GT,37.4201895,-122.0929195,-25.653983674526216,10.457802,0.1,199.4162,1617917496999
Fix,GT,37.4201069,-122.0929576,-26.18498686152696,9.068732,0.1,200.4048,1617917497999
Fix,GT,37.4200371,-122.0929914,-26.577991930007933,7.574849,0.1,201.35564,1617917498999
Fix,GT,37.4199794,-122.0930208,-26.867992818593976,6.2524657,0.1,202.33392,1617917499999
Fix,GT,37.4199332,-122.093045,-27.086995827674865,4.8380504,0.1,202.69939,1617917500999
Fix,GT,37.4198989,-122.0930629,-27.24799602407217,3.4605103,0.1,202.53432,1617917501999
Fix,GT,37.4198744,-122.0930755,-27.354998114943506,2.5029104,0.1,202.36534,1617917502999
Fix,GT,37.4198582,-122.0930838,-27.42399890565872,1.3216435,0.1,202.2182,1617917503999
Fix,GT,37.4198527,-122.0930866,-27.45299972218275,0.0010343905,0.1,202.17297,1617917504999
Fix,GT,37.4198528,-122.0930866,-27.461999717831613,6.309477e-07,0.1,202.17432,1617917505999
Fix,GT,37.4198528,-122.0930866,-27.463,0.0022360003,0.1,202.1727,1617917506999
Fix,GT,37.4198528,-122.0930866,-27.463,2.9069187e-07,0.1,202.17291,1617917507999
Fix,GT,37.4198528,-122.0930866,-27.46399970501661,0.000999705,0.1,202.17296,1617917508999
Fix,GT,37.4198528,-122.0930866,-27.464,0.0,0.1,-157.82716,1617917509999
Fix,GT,37.4198528,-122.0930866,-27.464,0.001,0.1,202.17314,1617917510999
Fix,GT,37.4198528,-122.0930866,-27.464,0.001,0.1,202.1729,1617917511999
Fix,GT,37.4198528,-122.0930866,-27.464,0.0022356822,0.1,202.17273,1617917512999
Fix,GT,37.4198528,-122.0930866,-27.464,0.0010003911,0.1,202.17241,1617917513999
Fix,GT,37.4198528,-122.0930866,-27.464,0.001414477,0.1,202.17227,1617917514999
Fix,GT,37.4198528,-122.0930866,-27.464999675095083,0.013888957,0.1,202.17572,1617917515999
Fix,GT,37.4198515,-122.0930872,-27.47799967080355,0.32275552,0.1,202.16553,1617917516999
Fix,GT,37.419847,-122.0930896,-27.49899933314323,0.6241644,0.1,202.13264,1617917517999
Fix,GT,37.419843,-122.0930917,-27.51799932444096,0.32341924,0.1,202.09033,1617917518999
Fix,GT,37.4198418,-122.0930923,-27.52799965798855,0.012042373,0.1,202.08424,1617917519999
Fix,GT,37.4198418,-122.0930924,-27.533999653697013,0.0041231057,0.1,202.08363,1617917520999
Fix,GT,37.4198418,-122.0930924,-27.536,0.004122444,0.1,202.08398,1617917521999
Fix,GT,37.4198418,-122.0930924,-27.536,0.003162435,0.1,202.08257,1617917522999
Fix,GT,37.4198418,-122.0930924,-27.535,0.0022359833,0.1,202.08295,1617917523999
Fix,GT,37.4198418,-122.0930924,-27.535,0.002,0.1,202.08307,1617917524999
Fix,GT,37.4198419,-122.0930924,-27.536,0.001,0.1,202.08286,1617917525999
Fix,GT,37.4198419,-122.0930924,-27.536,0.0019996283,0.1,202.0832,1617917526999
Fix,GT,37.4198419,-122.0930924,-27.536,0.001,0.1,202.08267,1617917527999
Fix,GT,37.4198419,-122.0930924,-27.536,0.001,0.1,202.0826,1617917528999
Fix,GT,37.4198419,-122.0930924,-27.536,0.0010003849,0.1,202.08284,1617917529999
Fix,GT,37.4198419,-122.0930924,-27.536,0.001,0.1,202.08226,1617917530999
Fix,GT,37.4198419,-122.0930924,-27.536,0.0014142136,0.1,202.08214,1617917531999
Fix,GT,37.4198419,-122.0930924,-27.536,0.0014140488,0.1,202.08257,1617917532999
Fix,GT,37.4198419,-122.0930924,-27.536,0.001,0.1,202.08238,1617917533999
Fix,GT,37.4198419,-122.0930924,-27.536,0.0014140453,0.1,202.0822,1617917534999
Fix,GT,37.4198419,-122.0930924,-27.536,0.00100017,0.1,202.08202,1617917535999
Fix,GT,37.4198419,-122.0930924,-27.53699958521128,0.0014140417,0.1,202.08229,1617917536999
Fix,GT,37.4198419,-122.0930924,-27.537,0.001,0.1,202.08244,1617917537999
Fix,GT,37.4198419,-122.0930924,-27.53799957662821,0.001,0.1,202.08276,1617917538999
Fix,GT,37.4198419,-122.0930924,-27.539,4.2766334e-07,0.1,202.08269,1617917539999
Fix,GT,37.4198419,-122.0930924,-27.54,0.0,0.1,202.08244,1617917540999
Fix,GT,37.4198419,-122.0930924,-27.541,0.0,0.1,202.08215,1617917541999
Fix,GT,37.4198413,-122.0930927,-27.549998678565025,0.34237733,0.1,202.07832,1617917542999
Fix,GT,37.419833,-122.0930968,-27.58299733102321,1.8017383,0.1,202.00676,1617917543999
Fix,GT,37.4198116,-122.0931075,-27.651996407032016,3.2538836,0.1,201.62123,1617917544999
Fix,GT,37.4197783,-122.0931235,-27.75699365305901,4.675801,0.1,201.05511,1617917545999
Fix,GT,37.4197317,-122.0931453,-27.90299176132679,6.324021,0.1,200.03488,1617917546999
Fix,GT,37.4196724,-122.0931629,-27.98099584257603,6.889801,0.1,189.97371,1617917547999
Fix,GT,37.4196084,-122.0931602,-28.090992074131968,7.3599305,0.1,174.02655,1617917548999
Fix,GT,37.4195422,-122.0931301,-28.30498964989185,8.174042,0.1,154.45844,1617917549999
Fix,GT,37.4194859,-122.0930652,-28.55898528087139,8.56638,0.1,129.69669,1617917550999
Fix,GT,37.4194522,-122.0929746,-28.81499520897865,9.038664,0.1,109.58905,1617917551999
Fix,GT,37.4194376,-122.0928703,-28.75400628334284,9.620914,0.1,95.79321,1617917552999
Fix,GT,37.4194394,-122.0927572,-28.69300146305561,10.297127,0.1,85.01141,1617917553999
Fix,GT,37.419463,-122.0926406,-28.6560029515028,10.881843,0.1,70.35828,1617917554999
Fix,GT,37.4195136,-122.0925314,-28.64600049626827,11.400154,0.1,54.345642,1617917555999
Fix,GT,37.4195824,-122.0924302,-28.560005005002026,12.103895,0.1,48.423004,1617917556999
Fix,GT,37.4196572,-122.0923255,-28.519996466457844,12.811028,0.1,47.862152,1617917557999
Fix,GT,37.4197347,-122.0922134,-28.56499541771412,13.389109,0.1,49.913513,1617917558999
Fix,GT,37.4198089,-122.092092,-28.667993839502333,13.726441,0.1,54.34259,1617917559999
Fix,GT,37.4198711,-122.0919579,-28.82599585866928,13.74294,0.1,63.858704,1617917560999
Fix,GT,37.4199073,-122.0918125,-28.77600730657577,13.411468,0.1,78.04266,1617917561999
Fix,GT,37.4199148,-122.0916631,-28.53601420873404,13.382427,0.1,91.56189,1617917562999
Fix,GT,37.4198947,-122.0915132,-28.334011671900747,13.736669,0.1,104.42874,1617917563999
Fix,GT,37.4198475,-122.0913672,-28.254998930454253,14.390996,0.1,117.04791,1617917564999
Fix,GT,37.4197742,-122.0912286,-28.31199245226384,15.222555,0.1,127.095,1617917565999
Fix,GT,37.4196866,-122.0910904,-28.31800054341555,16.02106,0.1,128.64868,1617917566999
Fix,GT,37.4195931,-122.0909472,-28.3749972614646,16.745026,0.1,129.78546,1617917567999
Fix,GT,37.4194928,-122.0908002,-28.297006071984768,17.522133,0.1,130.7478,1617917568999
Fix,GT,37.4193875,-122.0906471,-28.2050072325468,18.253384,0.1,130.41245,1617917569999
Fix,GT,37.4192791,-122.0904864,-28.12800448513031,18.95278,0.1,130.0362,1617917570999
Fix,GT,37.4191676,-122.0903205,-28.019002259492872,19.449053,0.1,130.01276,1617917571999
Fix,GT,37.4190531,-122.0901506,-27.97800626015664,19.930517,0.1,130.20999,1617917572999
Fix,GT,37.4189345,-122.0899768,-27.872006881475446,20.582798,0.1,130.69388,1617917573999
Fix,GT,37.4188105,-122.089799,-27.754008666217327,21.278631,0.1,131.3595,1617917574999
Fix,GT,37.4186805,-122.0896153,-27.61401105761528,22.214407,0.1,131.45245,1617917575999
Fix,GT,37.4185452,-122.0894238,-27.4650064496398,22.950603,0.1,131.46307,1617917576999
Fix,GT,37.418407,-122.0892293,-27.306007086753848,23.121298,0.1,131.6399,1617917577999
Fix,GT,37.4182681,-122.0890357,-27.164010707378388,22.938707,0.1,132.15851,1617917578999
Fix,GT,37.418129,-122.0888453,-27.018013182520868,22.803068,0.1,132.32489,1617917579999
Fix,GT,37.4179905,-122.0886548,-26.870013879060743,22.817612,0.1,132.13022,1617917580999
Fix,GT,37.4178525,-122.0884644,-26.71000850903988,22.711393,0.1,131.74335,1617917581999
Fix,GT,37.417718,-122.0882723,-26.5490079562664,22.519209,0.1,131.34485,1617917582999
Fix,GT,37.4175828,-122.0880844,-26.418008628368376,22.28308,0.1,132.29016,1617917583999
Fix,GT,37.4174482,-122.0879,-26.275005585968493,21.96072,0.1,132.2893,1617917584999
Fix,GT,37.4173158,-122.0877182,-26.171008123636245,21.633759,0.1,132.28839,1617917585999
Fix,GT,37.417185,-122.0875396,-26.088006291866304,21.32106,0.1,132.47253,1617917586999
Fix,GT,37.4170553,-122.0873631,-26.05300063341856,21.251776,0.1,132.3664,1617917587999
Fix,GT,37.4169252,-122.0871845,-26.0260019133091,21.623522,0.1,132.19818,1617917588999
Fix,GT,37.4167922,-122.0870022,-25.953002568244933,22.081665,0.1,132.61603,1617917589999
Fix,GT,37.4166557,-122.086817,-25.91599612224102,22.555962,0.1,132.54214,1617917590999
Fix,GT,37.4165168,-122.0866272,-25.86600260257721,23.066807,0.1,132.31079,1617917591999
Fix,GT,37.4163748,-122.0864323,-25.854004584133623,23.686497,0.1,132.23206,1617917592999
Fix,GT,37.416229,-122.0862322,-25.823001318454743,24.282616,0.1,132.3544,1617917593999
Fix,GT,37.4160797,-122.0860273,-25.775003981113432,24.848434,0.1,132.07513,1617917594999
Fix,GT,37.4159276,-122.0858172,-25.745003338754177,25.359137,0.1,132.14227,1617917595999
Fix,GT,37.4157724,-122.0856036,-25.71100067210197,25.815914,0.1,132.29816,1617917596999
Fix,GT,37.4156145,-122.0853863,-25.662002705335617,26.210882,0.1,132.2474,1617917597999
Fix,GT,37.4154545,-122.0851661,-25.6350034031272,26.502764,0.1,132.33179,1617917598999
Fix,GT,37.4152917,-122.0849452,-25.556,26.764065,0.1,132.93582,1617917599999
Fix,GT,37.4151266,-122.0847232,-25.48000344604253,26.95456,0.1,132.8508,1617917600999
Fix,GT,37.4149613,-122.0844993,-25.31601456350088,27.038944,0.1,132.47263,1617917601999
Fix,GT,37.4147982,-122.0842743,-25.09000837278366,26.745115,0.1,131.94293,1617917602999
Fix,GT,37.4146392,-122.08405,-24.944008424997328,26.35816,0.1,131.27484,1617917603999
Fix,GT,37.4144848,-122.0838264,-24.819008476495743,26.063404,0.1,130.31464,1617917604999
Fix,GT,37.4143351,-122.0836007,-24.69300994932652,25.852655,0.1,129.19904,1617917605999
Fix,GT,37.4141899,-122.0833741,-24.59300714957714,25.581577,0.1,128.25806,1617917606999
Fix,GT,37.4140507,-122.0831494,-24.482012226223947,24.59661,0.1,127.28546,1617917607999
Fix,GT,37.4139209,-122.0829314,-24.428,23.792053,0.1,126.27716,1617917608999
Fix,GT,37.4137953,-122.0827152,-24.343009461820124,23.671007,0.1,125.607025,1617917609999
Fix,GT,37.4136721,-122.0824954,-24.27899853587151,23.767967,0.1,124.427216,1617917610999
Fix,GT,37.4135524,-122.0822748,-24.19500441849232,23.444254,0.1,124.07034,1617917611999
Fix,GT,37.4134348,-122.0820599,-24.10300740647316,22.552101,0.1,124.858795,1617917612999
Fix,GT,37.413321,-122.0818574,-24.027997765183446,21.552841,0.1,125.3356,1617917613999
Fix,GT,37.4132098,-122.0816604,-23.95300149857998,21.19732,0.1,124.71649,1617917614999
Fix,GT,37.4131052,-122.081462,-23.868007535219192,20.87106,0.1,122.23877,1617917615999
Fix,GT,37.4130076,-122.0812624,-23.762006820321083,20.577503,0.1,121.02817,1617917616999
Fix,GT,37.4129127,-122.0810646,-23.689003048419952,20.277683,0.1,120.88159,1617917617999
Fix,GT,37.4128202,-122.0808691,-23.617,19.9824,0.1,120.647705,1617917618999
Fix,GT,37.4127284,-122.0806774,-23.5909969174862,19.601446,0.1,121.09906,1617917619999
Fix,GT,37.4126371,-122.0804906,-23.55299457514286,19.150692,0.1,121.55377,1617917620999
Fix,GT,37.4125488,-122.0803108,-23.567983636558058,18.266302,0.1,121.48984,1617917621999
Fix,GT,37.4124642,-122.0801368,-23.636000783503054,17.829218,0.1,121.02673,1617917622999
Fix,GT,37.4123828,-122.0799659,-23.629995273590087,17.355375,0.1,120.77191,1617917623999
Fix,GT,37.4123041,-122.079803,-23.57300712877512,16.306696,0.1,121.73605,1617917624999
Fix,GT,37.4122258,-122.0796588,-23.56099920368195,14.638958,0.1,126.81183,1617917625999
Fix,GT,37.4121384,-122.0795416,-23.37601040869951,14.039505,0.1,137.19879,1617917626999
Fix,GT,37.4120375,-122.0794509,-23.253008854568005,13.707448,0.1,148.77127,1617917627999
Fix,GT,37.4119246,-122.0793906,-23.04501861143112,13.771777,0.1,162.26709,1617917628999
Fix,GT,37.4118023,-122.0793618,-22.85701545733213,13.999619,0.1,173.14465,1617917629999
Fix,GT,37.4116757,-122.07935,-22.703008177757265,14.242255,0.1,176.26367,1617917630999
Fix,GT,37.4115466,-122.0793402,-22.59501315307617,14.414209,0.1,176.58575,1617917631999
Fix,GT,37.4114184,-122.0793286,-22.4690107434392,13.985186,0.1,174.81836,1617917632999
Fix,GT,37.4112958,-122.0793061,-22.351005814552305,13.504188,0.1,169.02454,1617917633999
Fix,GT,37.4111801,-122.0792659,-22.21300751447678,13.111911,0.1,161.35333,1617917634999
Fix,GT,37.4110713,-122.0792058,-22.05101762264967,13.293911,0.1,152.94104,1617917635999
Fix,GT,37.4109686,-122.0791244,-21.77502952337265,13.586295,0.1,144.30518,1617917636999
Fix,GT,37.4108739,-122.0790242,-21.34504493111372,13.858683,0.1,136.94116,1617917637999
Fix,GT,37.4107877,-122.078909,-20.88403749275208,13.9922285,0.1,130.67053,1617917638999
Fix,GT,37.410713,-122.0787851,-20.41804110431671,13.298298,0.1,124.179565,1617917639999
Fix,GT,37.4106569,-122.0786605,-20.028030982732773,11.917059,0.1,115.648224,1617917640999
Fix,GT,37.4106209,-122.078542,-19.751026810765268,10.43205,0.1,107.821686,1617917641999
Fix,GT,37.4106013,-122.0784401,-19.55401477664709,7.9418383,0.1,101.39313,1617917642999
Fix,GT,37.4105928,-122.0783669,-19.417011354804043,5.1026683,0.1,97.16208,1617917643999
Fix,GT,37.4105895,-122.078326,-19.341007899642,2.2862072,0.1,95.62753,1617917644999
Fix,GT,37.4105882,-122.0783097,-19.32600088208914,0.71048105,0.1,95.33505,1617917645999
Fix,GT,37.410588,-122.0783072,-19.330998227238656,0.0010067386,0.1,95.29227,1617917646999
Fix,GT,37.410588,-122.0783072,-19.3339991093874,0.0022349672,0.1,95.29205,1617917647999
Fix,GT,37.410588,-122.0783072,-19.334,0.0014138429,0.1,95.286255,1617917648999
Fix,GT,37.410588,-122.0783063,-19.33900179839134,0.33718365,0.1,95.27844,1617917649999
Fix,GT,37.4105869,-122.0782914,-19.33300361418724,2.531196,0.1,95.34329,1617917650999
Fix,GT,37.4105824,-122.0782554,-19.24601089334488,3.6328359,0.1,98.987946,1617917651999
Fix,GT,37.4105696,-122.0782136,-19.190006384491923,4.470684,0.1,111.689026,1617917652999
Fix,GT,37.4105391,-122.0781746,-19.23798900437355,5.457928,0.1,137.44208,1617917653999
Fix,GT,37.4104879,-122.0781503,-19.46697145974636,6.974765,0.1,163.37012,1617917654999
Fix,GT,37.4104186,-122.078141,-19.845967626929284,8.521701,0.1,175.1596,1617917655999
Fix,GT,37.4103358,-122.0781368,-20.28095911622048,9.93041,0.1,177.88129,1617917656999
Fix,GT,37.4102404,-122.0781342,-20.69296359241009,11.24128,0.1,179.22644,1617917657999
Fix,GT,37.4101337,-122.0781342,-21.101956863045693,12.428055,0.1,180.06436,1617917658999
Fix,GT,37.4100169,-122.0781349,-21.454975506663324,13.495193,0.1,180.12279,1617917659999
Fix,GT,37.4098912,-122.0781358,-21.681977286338803,14.413062,0.1,180.20825,1617917660999
Fix,GT,37.4097575,-122.078137,-21.7659952468276,15.214627,0.1,180.46469,1617917661999
Fix,GT,37.4096176,-122.0781388,-21.813008593797683,15.809422,0.1,180.32445,1617917662999
Fix,GT,37.4094728,-122.0781391,-21.73601055139304,16.319994,0.1,179.78625,1617917663999
Fix,GT,37.4093234,-122.0781383,-21.705998072981835,16.847445,0.1,179.6748,1617917664999
Fix,GT,37.4091696,-122.0781384,-21.652001935482023,17.270185,0.1,180.17532,1617917665999
Fix,GT,37.4090126,-122.0781399,-21.5980019441843,17.543623,0.1,180.44366,1617917666999
Fix,GT,37.4088545,-122.0781412,-21.54798828411102,17.450102,0.1,180.13681,1617917667999
Fix,GT,37.4086986,-122.0781417,-21.49099705815315,17.146048,0.1,179.99191,1617917668999
Fix,GT,37.4085456,-122.0781412,-21.478,16.791136,0.1,179.55121,1617917669999
Fix,GT,37.4083959,-122.0781392,-21.36600593519211,16.433235,0.1,179.24298,1617917670999
Fix,GT,37.4082494,-122.0781372,-21.270011921882627,16.071148,0.1,179.2351,1617917671999
Fix,GT,37.4081062,-122.0781367,-21.188009977817533,15.720064,0.1,180.07214,1617917672999
Fix,GT,37.4079664,-122.0781376,-21.077019039392475,15.281143,0.1,180.17384,1617917673999
Fix,GT,37.4078308,-122.0781378,-20.92101006424427,14.840047,0.1,179.81317,1617917674999
Fix,GT,37.4076996,-122.0781378,-20.81901111721993,14.243067,0.1,180.0138,1617917675999
Fix,GT,37.4075743,-122.0781387,-20.71600304484368,13.569309,0.1,180.27806,1617917676999
Fix,GT,37.4074552,-122.0781395,-20.625012230157854,12.814161,0.1,180.16888,1617917677999
Fix,GT,37.4073441,-122.0781402,-20.5290051176548,11.848314,0.1,180.2168,1617917678999
Fix,GT,37.4072428,-122.0781408,-20.438007194340223,10.603193,0.1,180.20253,1617917679999
Fix,GT,37.4071526,-122.0781413,-20.36000722438097,9.4162,0.1,180.11961,1617917680999
Fix,GT,37.4070731,-122.0781415,-20.29000414562225,8.214131,0.1,179.88806,1617917681999
Fix,GT,37.4070039,-122.0781412,-20.23800312191248,7.2921414,0.1,179.65771,1617917682999
Fix,GT,37.4069403,-122.0781409,-20.190002089977263,6.814096,0.1,179.72125,1617917683999
Fix,GT,37.406883,-122.0781408,-20.124001049280164,5.760206,0.1,179.7688,1617917684999
Fix,GT,37.4068372,-122.0781407,-20.08000105351209,4.5540695,0.1,179.80823,1617917685999
Fix,GT,37.4067982,-122.0781407,-20.05700105786324,4.089072,0.1,179.8197,1617917686999
Fix,GT,37.4067653,-122.0781406,-20.03699575161934,3.0655043,0.1,179.8103,1617917687999
Fix,GT,37.4067431,-122.0781404,-20.0140042655468,1.9041332,0.1,179.69922,1617917688999
Fix,GT,37.4067313,-122.0781403,-20.017,0.6981486,0.1,179.7002,1617917689999
Fix,GT,37.406729,-122.0781403,-20.021998925030232,0.028167669,0.1,179.70166,1617917690999
Fix,GT,37.4067282,-122.0781403,-20.0279978414774,0.2239345,0.1,179.70734,1617917691999
Fix,GT,37.4067229,-122.0781402,-20.025,0.8889455,0.1,179.68726,1617917692999
Fix,GT,37.4067124,-122.0781401,-20.01700108784437,1.4069695,0.1,179.66187,1617917693999
Fix,GT,37.4066969,-122.07814,-20.01299890786409,2.1479301,0.1,179.62433,1617917694999
Fix,GT,37.406673,-122.0781398,-20.001,3.229938,0.1,179.64404,1617917695999
Fix,GT,37.406636,-122.0781396,-19.989998899281023,4.955868,0.1,179.72192,1617917696999
Fix,GT,37.4065834,-122.0781394,-19.976,6.6948423,0.1,179.73792,1617917697999
Fix,GT,37.4065156,-122.0781391,-19.91700776511431,8.305988,0.1,179.66449,1617917698999
Fix,GT,37.4064353,-122.0781387,-19.836010022342204,9.52285,0.1,179.89014,1617917699999
Fix,GT,37.4063434,-122.078139,-19.72601229608059,10.855975,0.1,180.27504,1617917700999
Fix,GT,37.4062402,-122.0781407,-19.58800561088324,12.050801,0.1,181.08643,1617917701999
Fix,GT,37.4061261,-122.0781443,-19.470997747063635,13.268617,0.1,181.22949,1617917702999
Fix,GT,37.4060021,-122.078147,-19.533007914900782,14.260524,0.1,180.64554,1617917703999
Fix,GT,37.4058698,-122.0781481,-19.455995459795,15.042006,0.1,180.12549,1617917704999
Fix,GT,37.4057321,-122.0781482,-19.32101367211342,15.503951,0.1,179.86407,1617917705999
Fix,GT,37.405591,-122.0781485,-19.222008005023003,15.788994,0.1,179.9848,1617917706999
Fix,GT,37.4054473,-122.0781489,-19.147005739629265,16.12598,0.1,180.08366,1617917707999
Fix,GT,37.4053003,-122.0781498,-19.078004608869552,16.49915,0.1,180.20982,1617917708999
Fix,GT,37.4051503,-122.0781511,-18.968011565089228,16.774412,0.1,180.25903,1617917709999
Fix,GT,37.4049981,-122.0781523,-18.91001160800457,17.00229,0.1,180.26102,1617917710999
Fix,GT,37.4048449,-122.0781534,-18.78900815564394,16.902195,0.1,180.11644,1617917711999
Fix,GT,37.4046941,-122.0781544,-18.669005846917628,16.56518,0.1,180.06868,1617917712999
Fix,GT,37.4045465,-122.0781543,-18.56703051555157,16.184069,0.1,179.83582,1617917713999
Fix,GT,37.4044024,-122.0781534,-18.44401178026199,15.825245,0.1,179.69714,1617917714999
Fix,GT,37.4042614,-122.0781535,-18.3880200983882,15.461116,0.1,180.04565,1617917715999
Fix,GT,37.4041238,-122.0781542,-18.286010678946973,15.087127,0.1,180.15686,1617917716999
Fix,GT,37.4039896,-122.0781551,-18.172015481710435,14.721509,0.1,180.28143,1617917717999
Fix,GT,37.4038584,-122.0781563,-18.08701314646006,14.4353075,0.1,180.31319,1617917718999
Fix,GT,37.4037278,-122.0781574,-18.000004797697066,14.590153,0.1,180.2271,1617917719999
Fix,GT,37.4035955,-122.0781584,-17.881012037754058,14.729271,0.1,180.28587,1617917720999
Fix,GT,37.4034632,-122.07816,-17.792019328117373,14.616211,0.1,180.63635,1617917721999
Fix,GT,37.4033323,-122.0781634,-17.707020609080793,14.476078,0.1,181.46375,1617917722999
Fix,GT,37.4032027,-122.0781703,-17.645996350049973,14.347429,0.1,183.1358,1617917723999
Fix,GT,37.4030746,-122.0781834,-17.590008546590806,14.169531,0.1,185.56784,1617917724999
Fix,GT,37.4029494,-122.0782029,-17.515015927255156,13.85719,0.1,187.88292,1617917725999
Fix,GT,37.4028275,-122.0782266,-17.433014754295346,13.518947,0.1,189.42691,1617917726999
Fix,GT,37.4027098,-122.0782541,-17.34800987052917,12.984505,0.1,191.099,1617917727999
Fix,GT,37.4025988,-122.0782849,-17.28800866675377,12.300758,0.1,193.22359,1617917728999
Fix,GT,37.4024954,-122.0783194,-17.226997515201568,11.422267,0.1,195.68552,1617917729999
Fix,GT,37.4024024,-122.0783557,-17.163009973525998,10.2199545,0.1,197.91548,1617917730999
Fix,GT,37.4023203,-122.0783912,-17.147976231336596,9.106108,0.1,199.5453,1617917731999
Fix,GT,37.4022481,-122.0784264,-17.077008786916736,8.103508,0.1,201.7288,1617917732999
Fix,GT,37.4021852,-122.0784597,-17.060003778517245,7.0797744,0.1,203.17491,1617917733999
Fix,GT,37.4021309,-122.0784905,-17.033997472286224,6.13552,0.1,204.37851,1617917734999
Fix,GT,37.4020863,-122.0785171,-16.979007608890534,4.7726064,0.1,205.45726,1617917735999
Fix,GT,37.4020538,-122.0785375,-16.953002544760704,3.3278964,0.1,206.57803,1617917736999
Fix,GT,37.4020323,-122.0785515,-16.945001276731492,2.1439142,0.1,207.4011,1617917737999
Fix,GT,37.4020185,-122.0785609,-16.93500256204605,1.2995541,0.1,207.87602,1617917738999
Fix,GT,37.4020121,-122.0785653,-16.931,0.36517736,0.1,208.09265,1617917739999
Fix,GT,37.4020115,-122.0785657,-16.936998710393908,0.0022357637,0.1,208.11906,1617917740999
Fix,GT,37.4020115,-122.0785658,-16.938,1.2938976e-06,0.1,208.11868,1617917741999
Fix,GT,37.4020115,-122.0785658,-16.938,0.001,0.1,208.11812,1617917742999
Fix,GT,37.4020115,-122.0785658,-16.939,0.0019986974,0.1,208.11835,1617917743999
Fix,GT,37.4020115,-122.0785658,-16.939,1.3067723e-06,0.1,208.11891,1617917744999
Fix,GT,37.4020115,-122.0785658,-16.939,0.0010005432,0.1,208.11948,1617917745999
Fix,GT,37.4020104,-122.0785666,-16.944,0.33731169,0.1,208.15326,1617917746999
Fix,GT,37.4020066,-122.0785691,-16.94000131970644,0.50468606,0.1,208.17073,1617917747999
Fix,GT,37.4020041,-122.0785708,-16.938,0.12798883,0.1,208.19731,1617917748999
Fix,GT,37.4020039,-122.078571,-16.941,0.0022378871,0.1,208.2004,1617917749999
Fix,GT,37.402004,-122.0785709,-16.942,0.0019992194,0.1,208.19937,1617917750999
Fix,GT,37.402004,-122.0785709,-16.942,0.0014142136,0.1,208.19911,1617917751999
Fix,GT,37.402004,-122.0785709,-16.942,0.0010005556,0.1,208.19925,1617917752999
Fix,GT,37.402004,-122.0785709,-16.942,0.002234405,0.1,208.19926,1617917753999
Fix,GT,37.402004,-122.0785709,-16.942,0.0014136544,0.1,208.19894,1617917754999
Fix,GT,37.402004,-122.0785709,-16.942,0.001,0.1,208.19908,1617917755999
Fix,GT,37.402004,-122.0785709,-16.942,3.0374522e-06,0.1,208.20004,1617917756999
Fix,GT,37.402004,-122.0785709,-16.943,0.001999202,0.1,208.1996,1617917757999
Fix,GT,37.402004,-122.0785709,-16.943,0.0014142136,0.1,208.19937,1617917758999
Fix,GT,37.4020036,-122.0785712,-16.949,0.2732508,0.1,208.20712,1617917759999
Fix,GT,37.401996,-122.0785763,-16.955001375615595,1.872138,0.1,208.24597,1617917760999
Fix,GT,37.4019729,-122.0785919,-16.941002759695053,3.9000173,0.1,208.30588,1617917761999
Fix,GT,37.4019354,-122.0786177,-16.913005536556245,5.6642084,0.1,208.72403,1617917762999
Fix,GT,37.4018831,-122.0786553,-16.869006942450998,7.6788416,0.1,210.20439,1617917763999
Fix,GT,37.4018178,-122.0787064,-16.76901671338081,9.278841,0.1,212.57071,1617917764999
Fix,GT,37.4017433,-122.0787691,-16.68001536846161,10.741604,0.1,214.3993,1617917765999
Fix,GT,37.4016597,-122.0788447,-16.63399439454079,12.142165,0.1,216.27498,1617917766999
Fix,GT,37.4015678,-122.0789325,-16.56601827353239,13.409141,0.1,217.98253,1617917767999
Fix,GT,37.401472,-122.0790329,-16.535023970127106,14.2829275,0.1,220.92076,1617917768999
Fix,GT,37.4013758,-122.0791447,-16.422005657196046,14.833054,0.1,224.03543,1617917769999
Fix,GT,37.4012817,-122.079267,-16.333015605151655,15.270958,0.1,227.25159,1617917770999
Fix,GT,37.4011902,-122.0793984,-16.274008537292485,15.651666,0.1,229.83913,1617917771999
Fix,GT,37.4011004,-122.0795371,-16.19101284456253,15.96837,0.1,231.2009,1617917772999
Fix,GT,37.4010099,-122.0796778,-16.095030062019823,15.930685,0.1,230.83669,1617917773999
Fix,GT,37.4009188,-122.0798147,-15.998010050714017,15.607723,0.1,229.73645,1617917774999
Fix,GT,37.400828,-122.0799467,-15.916017282009124,15.250623,0.1,228.48738,1617917775999
Fix,GT,37.4007354,-122.0800712,-15.774017333507537,14.8502655,0.1,225.69252,1617917776999
Fix,GT,37.4006401,-122.080186,-15.68601014083624,14.399045,0.1,222.54543,1617917777999
Fix,GT,37.4005457,-122.0802888,-15.588024701714517,13.290698,0.1,219.79478,1617917778999
Fix,GT,37.4004563,-122.0803781,-15.546013116002085,12.03839,0.1,217.98439,1617917779999
Fix,GT,37.4003726,-122.080457,-15.465021925270555,11.259063,0.1,216.16833,1617917780999
Fix,GT,37.4002919,-122.0805275,-15.411014659166336,10.483114,0.1,214.0344,1617917781999
Fix,GT,37.4002174,-122.0805878,-15.364019113481046,9.132959,0.1,212.11195,1617917782999
Fix,GT,37.4001517,-122.0806368,-15.221033914864064,7.7555923,0.1,210.05632,1617917783999
Fix,GT,37.4000974,-122.0806743,-15.116005915403363,5.9983487,0.1,208.28627,1617917784999
Fix,GT,37.4000571,-122.0807005,-15.056,4.059402,0.1,207.20154,1617917785999
Fix,GT,37.4000315,-122.0807166,-15.01200594997406,2.3550167,0.1,206.78351,1617917786999
Fix,GT,37.4000184,-122.0807249,-14.991002983689308,0.90678895,0.1,206.50952,1617917787999
Fix,GT,37.4000154,-122.0807266,-14.991,0.02092031,0.1,206.4591,1617917788999
Fix,GT,37.4000154,-122.0807266,-14.995,0.0010006215,0.1,206.46263,1617917789999
Fix,GT,37.4000154,-122.0807266,-14.995,0.0014154502,0.1,206.46086,1617917790999
Fix,GT,37.4000154,-122.0807267,-14.990003018021582,0.001,0.1,206.45999,1617917791999
Fix,GT,37.4000154,-122.0807267,-14.982,0.0010015133,0.1,206.46025,1617917792999
Fix,GT,37.4000154,-122.0807267,-14.97900151759386,0.0014135849,0.1,206.45995,1617917793999
Fix,GT,37.4000154,-122.0807267,-14.979,0.0010006306,0.1,206.46034,1617917794999
Fix,GT,37.4000154,-122.0807267,-14.98,0.0022348135,0.1,206.45999,1617917795999
Fix,GT,37.4000154,-122.0807267,-14.98,0.0014142136,0.1,206.46019,1617917796999
Fix,GT,37.4000154,-122.0807267,-14.98,0.0014135778,0.1,206.46033,1617917797999
Fix,GT,37.4000154,-122.0807267,-14.98,0.0009984609,0.1,206.46078,1617917798999
Fix,GT,37.4000154,-122.0807267,-14.98,1.543522e-06,0.1,206.46042,1617917799999
Fix,GT,37.4000154,-122.0807267,-14.98,0.001,0.1,206.46077,1617917800999
Fix,GT,37.4000154,-122.0807267,-14.98,1.552105e-06,0.1,206.46025,1617917801999
Fix,GT,37.4000154,-122.0807267,-14.98,0.0,0.1,206.45993,1617917802999
Fix,GT,37.4000154,-122.0807267,-14.981,0.0,0.1,206.46042,1617917803999
Fix,GT,37.4000154,-122.0807267,-14.981,0.0,0.1,206.46019,1617917804999
Fix,GT,37.4000154,-122.0807267,-14.982,0.001,0.1,206.4604,1617917805999
Fix,GT,37.4000149,-122.080727,-14.987,0.28745943,0.1,206.45422,1617917806999
Fix,GT,37.4000106,-122.0807297,-14.98100157791376,0.63771033,0.1,206.37941,1617917807999
Fix,GT,37.4000036,-122.080734,-14.9750015822649,1.118851,0.1,206.28471,1617917808999
Fix,GT,37.3999924,-122.0807408,-14.973001586556435,1.7882999,0.1,206.14418,1617917809999
Fix,GT,37.3999715,-122.0807536,-14.940011136353016,3.4379983,0.1,205.98526,1617917810999
Fix,GT,37.399937,-122.0807745,-14.906006380796434,5.0194645,0.1,205.64932,1617917811999
Fix,GT,37.3998883,-122.0808035,-14.845014394879342,6.9399586,0.1,205.25964,1617917812999
Fix,GT,37.3998243,-122.0808405,-14.744012830257416,8.661719,0.1,204.39258,1617917813999
Fix,GT,37.3997477,-122.0808828,-14.61800160807371,9.926513,0.1,203.52379,1617917814999
Fix,GT,37.3996594,-122.0809302,-14.557043535470964,11.322974,0.1,202.91866,1617917815999
Fix,GT,37.3995602,-122.0809824,-14.452990300059318,12.584634,0.1,202.7291,1617917816999
Fix,GT,37.3994501,-122.0810391,-14.310025935173035,13.815207,0.1,201.91876,1617917817999
Fix,GT,37.3993297,-122.0810971,-14.089042257785795,14.801808,0.1,200.30289,1617917818999
Fix,GT,37.3991997,-122.0811531,-13.708076590776445,15.682565,0.1,198.23962,1617917819999
Fix,GT,37.3990627,-122.0812073,-13.162098036527636,16.083958,0.1,197.03648,1617917820999
Fix,GT,37.3989226,-122.0812589,-12.564093379318717,16.330906,0.1,195.82623,1617917821999
Fix,GT,37.3987788,-122.0813072,-11.766151117801666,16.704924,0.1,194.32004,1617917822999
Fix,GT,37.3986311,-122.0813522,-10.853148213505746,17.027815,0.1,193.17102,1617917823999
Fix,GT,37.3984799,-122.0813955,-9.94413373976946,17.375021,0.1,192.6688,1617917824999
Fix,GT,37.3983262,-122.0814412,-9.005175478696824,17.700216,0.1,194.05241,1617917825999
Fix,GT,37.3981711,-122.0814939,-8.01514771783352,18.007587,0.1,195.9097,1617917826999
Fix,GT,37.3980149,-122.0815531,-7.002146440982818,18.18787,0.1,197.53601,1617917827999
Fix,GT,37.3978619,-122.0816178,-6.005165170967579,17.563166,0.1,199.45535,1617917828999
Fix,GT,37.3977168,-122.0816847,-5.040153881549835,16.763496,0.1,200.80104,1617917829999
Fix,GT,37.3975798,-122.0817527,-4.205112357437611,15.98818,0.1,202.04456,1617917830999
Fix,GT,37.3974502,-122.0818216,-3.549112644970417,15.2881975,0.1,203.5753,1617917831999
Fix,GT,37.3973264,-122.0818923,-3.0110842809677125,15.001461,0.1,205.05928,1617917832999
Fix,GT,37.3972049,-122.0819669,-2.578069286346435,15.108643,0.1,206.72711,1617917833999
Fix,GT,37.3970835,-122.0820476,-2.3380304967165,15.42226,0.1,208.71667,1617917834999
Fix,GT,37.3969614,-122.0821353,-2.2240152869820595,15.850256,0.1,210.35542,1617917835999
Fix,GT,37.3968377,-122.0822302,-2.284977862238884,16.349588,0.1,212.15747,1617917836999
Fix,GT,37.3967141,-122.0823313,-2.555943664491177,16.390295,0.1,213.63837,1617917837999
Fix,GT,37.3965937,-122.0824351,-2.937952080011368,15.989618,0.1,215.04398,1617917838999
Fix,GT,37.3964793,-122.0825388,-3.347910779476166,15.334666,0.1,216.24417,1617917839999
Fix,GT,37.3963708,-122.0826375,-4.013891635537148,14.365452,0.1,215.68883,1617917840999
Fix,GT,37.3962679,-122.0827262,-4.68786204624176,13.31029,0.1,213.57832,1617917841999
Fix,GT,37.3961714,-122.0828044,-5.457856516778469,12.176852,0.1,212.47507,1617917842999
Fix,GT,37.3960836,-122.0828759,-6.213871762037278,11.174157,0.1,213.56203,1617917843999
Fix,GT,37.3960036,-122.0829456,-6.8928853384256366,10.491615,0.1,215.45483,1617917844999
Fix,GT,37.3959296,-122.083012,-7.441918145358563,9.620512,0.1,215.21445,1617917845999
Fix,GT,37.3958624,-122.08307,-7.885907465219498,8.432035,0.1,214.29083,1617917846999
Fix,GT,37.395804,-122.0831188,-8.248940492153167,7.159972,0.1,213.36342,1617917847999
Fix,GT,37.3957548,-122.0831585,-8.505963153779506,5.7974577,0.1,212.44545,1617917848999
Fix,GT,37.3957163,-122.0831881,-8.696966581404208,4.22446,0.1,211.5556,1617917849999
Fix,GT,37.3956881,-122.0832092,-8.823980604529382,3.0787873,0.1,210.85751,1617917850999
Fix,GT,37.395669,-122.083223,-8.910989394903183,1.7846739,0.1,210.19589,1617917851999
Fix,GT,37.3956606,-122.083229,-8.945998228132723,0.33484924,0.1,209.94281,1617917852999
Fix,GT,37.3956603,-122.0832292,-8.95799822384119,0.0010057595,0.1,209.92503,1617917853999
Fix,GT,37.3956603,-122.0832292,-8.961998219549654,0.0022338673,0.1,209.92636,1617917854999
Fix,GT,37.3956603,-122.0832292,-8.963,0.001,0.1,209.92673,1617917855999
Fix,GT,37.3956603,-122.0832292,-8.963,0.001,0.1,209.92657,1617917856999
Fix,GT,37.3956603,-122.0832292,-8.963,0.0014152641,0.1,209.92676,1617917857999
Fix,GT,37.3956603,-122.0832292,-8.963,0.0014134689,0.1,209.9268,1617917858999
Fix,GT,37.3956603,-122.0832292,-8.963,1.8020273e-06,0.1,209.92592,1617917859999
Fix,GT,37.3956603,-122.0832292,-8.963,1.8063189e-06,0.1,209.92601,1617917860999
Fix,GT,37.3956603,-122.0832292,-8.963,0.0,0.1,209.9265,1617917861999
Fix,GT,37.3956603,-122.0832292,-8.963,0.0,0.1,209.9268,1617917862999
Fix,GT,37.3956603,-122.0832292,-8.963,0.0022345728,0.1,209.93114,1617917863999
Fix,GT,37.3956603,-122.0832292,-8.963,0.0010022541,0.1,209.92949,1617917864999
Fix,GT,37.3956603,-122.0832292,-8.963,0.001,0.1,209.92934,1617917865999
Fix,GT,37.3956603,-122.0832292,-8.963,0.0014116224,0.1,209.92934,1617917866999
Fix,GT,37.3956603,-122.0832292,-8.963,0.0014142136,0.1,209.92886,1617917867999
Fix,GT,37.3956603,-122.0832292,-8.963,0.001,0.1,209.92787,1617917868999
Fix,GT,37.3956603,-122.0832292,-8.963,1.8451215e-06,0.1,209.92813,1617917869999
Fix,GT,37.3956603,-122.0832292,-8.963,1.849413e-06,0.1,209.92813,1617917870999
Fix,GT,37.3956603,-122.0832292,-8.963,0.0010007679,0.1,209.92813,1617917871999
Fix,GT,37.3956603,-122.0832292,-8.963,0.000998142,0.1,209.92798,1617917872999
Fix,GT,37.3956603,-122.0832292,-8.963,0.0010007715,0.1,209.92804,1617917873999
Fix,GT,37.3956603,-122.0832292,-8.963,0.0014134403,0.1,209.9282,1617917874999
Fix,GT,37.3956603,-122.0832292,-8.963,0.000998129,0.1,209.92805,1617917875999
Fix,GT,37.3956603,-122.0832292,-8.963,2.6520484e-06,0.1,209.92802,1617917876999
Fix,GT,37.3956603,-122.0832292,-8.963,0.001,0.1,209.9282,1617917877999
Fix,GT,37.3956603,-122.0832292,-8.963,0.001,0.1,209.92783,1617917878999
Fix,GT,37.3956603,-122.0832292,-8.963,0.001,0.1,209.92804,1617917879999
Fix,GT,37.3956603,-122.0832292,-8.963,0.0009981075,0.1,209.92825,1617917880999
Fix,GT,37.3956603,-122.0832292,-8.963,0.001,0.1,209.92819,1617917881999
Fix,GT,37.3956603,-122.0832292,-8.963,0.0010007876,0.1,209.92844,1617917882999
Fix,GT,37.3956603,-122.0832292,-8.963,0.0014142136,0.1,209.92825,1617917883999
Fix,GT,37.3956603,-122.0832292,-8.963,0.0010007911,0.1,209.92787,1617917884999
Fix,GT,37.3956603,-122.0832292,-8.963,0.0,0.1,209.9282,1617917885999
Fix,GT,37.3956603,-122.0832292,-8.963,0.0,0.1,209.92824,1617917886999
Fix,GT,37.3956603,-122.0832292,-8.963,0.001,0.1,209.92825,1617917887999
Fix,GT,37.3956603,-122.0832292,-8.963,0.001,0.1,209.92805,1617917888999
Fix,GT,37.3956603,-122.0832292,-8.963,0.0014134136,0.1,209.92839,1617917889999
Fix,GT,37.3956603,-122.0832292,-8.963,0.0009980644,0.1,209.92857,1617917890999
Fix,GT,37.3956603,-122.0832292,-8.963,0.001,0.1,209.92844,1617917891999
Fix,GT,37.3956603,-122.0832292,-8.963,0.0010008054,0.1,209.92825,1617917892999
Fix,GT,37.3956603,-122.0832292,-8.963,0.0010008072,0.1,209.9282,1617917893999
Fix,GT,37.3956603,-122.0832292,-8.963,0.001,0.1,209.92847,1617917894999
Fix,GT,37.3956603,-122.0832292,-8.963,0.001,0.1,209.92833,1617917895999
Fix,GT,37.3956603,-122.0832292,-8.963,0.0014142136,0.1,209.92815,1617917896999
Fix,GT,37.3956603,-122.0832292,-8.963,0.0010008144,0.1,209.92816,1617917897999
Fix,GT,37.3956603,-122.0832292,-8.963,0.0014133975,0.1,209.92732,1617917898999
Fix,GT,37.3956603,-122.0832292,-8.963,0.0010008179,0.1,209.92766,1617917899999
Fix,GT,37.3956603,-122.0832292,-8.963,0.0010008196,0.1,209.92766,1617917900999
Fix,GT,37.3956603,-122.0832292,-8.963,0.0014153752,0.1,209.9274,1617917901999
Fix,GT,37.3956603,-122.0832292,-8.963,0.0014142136,0.1,209.9271,1617917902999
Fix,GT,37.3956603,-122.0832292,-8.963,0.0014158505,0.1,209.9274,1617917903999
Fix,GT,37.3956603,-122.0832292,-8.963,0.0014142136,0.1,209.92702,1617917904999
Fix,GT,37.3956603,-122.0832292,-8.963,0.001413385,0.1,209.92685,1617917905999
Fix,GT,37.3956603,-122.0832292,-8.963,0.0,0.1,209.92723,1617917906999
Fix,GT,37.3956603,-122.0832292,-8.963,0.0014142136,0.1,209.92722,1617917907999
Fix,GT,37.3956603,-122.0832292,-8.963,0.0010008339,0.1,209.92744,1617917908999
Fix,GT,37.3956603,-122.0832292,-8.963,0.0014142136,0.1,209.92737,1617917909999
Fix,GT,37.3956603,-122.0832292,-8.963,0.0010008374,0.1,209.92749,1617917910999
Fix,GT,37.3956603,-122.0832292,-8.963,0.0014142136,0.1,209.92749,1617917911999
Fix,GT,37.3956603,-122.0832292,-8.963,0.0014142136,0.1,209.92738,1617917912999
Fix,GT,37.3956603,-122.0832292,-8.963,0.0014142136,0.1,209.92747,1617917913999
Fix,GT,37.3956603,-122.0832292,-8.963,0.001413369,0.1,209.92743,1617917914999
Fix,GT,37.3956603,-122.0832292,-8.963,0.0014133671,0.1,209.92743,1617917915999
Fix,GT,37.3956603,-122.0832292,-8.963,0.0010008482,0.1,209.92798,1617917916999
Fix,GT,37.3956603,-122.0832292,-8.963,0.00100085,0.1,209.92809,1617917917999
Fix,GT,37.3956603,-122.0832292,-8.963,0.0014133618,0.1,209.9278,1617917918999
Fix,GT,37.3956603,-122.0832292,-8.963,0.0014154207,0.1,209.92792,1617917919999
Fix,GT,37.3956603,-122.0832292,-8.963,0.0009979351,0.1,209.92784,1617917920999
Fix,GT,37.3956603,-122.0832292,-8.963,0.001,0.1,209.92775,1617917921999
Fix,GT,37.3956603,-122.0832292,-8.963,2.073586e-06,0.1,209.92772,1617917922999
Fix,GT,37.3956603,-122.0832292,-8.963,0.001,0.1,209.92778,1617917923999
Fix,GT,37.3956603,-122.0832292,-8.963,2.0822288e-06,0.1,209.92781,1617917924999
Fix,GT,37.3956603,-122.0832292,-8.963,2.9508694e-06,0.1,209.92807,1617917925999
Fix,GT,37.3956603,-122.0832292,-8.963,0.001,0.1,-150.07228,1617917926999
Fix,GT,37.3956603,-122.0832292,-8.963,0.001,0.1,209.92772,1617917927999
Fix,GT,37.3956603,-122.0832292,-8.963,0.0010020995,0.1,209.9278,1617917928999
Fix,GT,37.3956603,-122.0832292,-8.963,0.0030003414,0.1,209.92838,1617917929999
Fix,GT,37.3956603,-122.0832292,-8.963997891902924,0.010798068,0.1,209.92928,1617917930999
Fix,GT,37.3956571,-122.0832315,-8.985993662834169,1.0469153,0.1,209.95035,1617917931999
Fix,GT,37.3956428,-122.083242,-9.0309872995615,2.5158389,0.1,210.01093,1617917932999
Fix,GT,37.3956178,-122.0832566,-9.080993636906149,3.4028296,0.1,204.11295,1617917933999
Fix,GT,37.395585,-122.0832538,-9.168982996940612,3.5921078,0.1,175.55518,1617917934999
Fix,GT,37.3955592,-122.0832208,-9.24198083293438,3.8858576,0.1,132.96375,1617917935999
Fix,GT,37.3955592,-122.0831686,-9.28797225767374,4.7912817,0.1,86.93451,1617917936999
Fix,GT,37.3955897,-122.0831188,-9.256027798116207,5.7827315,0.1,47.713867,1617917937999
Fix,GT,37.3956395,-122.0830807,-9.094042850971222,6.9512906,0.1,31.26474,1617917938999
Fix,GT,37.3956964,-122.083035,-8.895032203495502,8.013764,0.1,32.742157,1617917939999
Fix,GT,37.3957598,-122.0829821,-8.615081745266915,8.995923,0.1,33.546173,1617917940999
Fix,GT,37.3958312,-122.0829218,-8.190118554830551,10.122643,0.1,34.00949,1617917941999
Fix,GT,37.3959103,-122.0828515,-7.644129590034485,11.408355,0.1,35.941498,1617917942999
Fix,GT,37.3959966,-122.0827702,-6.954168806433677,12.546095,0.1,37.023193,1617917943999
Fix,GT,37.3960902,-122.0826809,-6.093188657462597,13.571719,0.1,37.290527,1617917944999
Fix,GT,37.396191,-122.0825844,-5.233191208839416,14.586199,0.1,37.241333,1617917945999
Fix,GT,37.3963003,-122.0824828,-4.400171987712383,15.598575,0.1,35.954407,1617917946999
Fix,GT,37.3964185,-122.0823785,-3.694148331880569,16.346542,0.1,34.415955,1617917947999
Fix,GT,37.3965422,-122.0822735,-3.0552447986602784,16.787636,0.1,33.741516,1617917948999
Fix,GT,37.3966698,-122.0821685,-2.7150875997543333,17.084393,0.1,32.689697,1617917949999
Fix,GT,37.3968014,-122.0820654,-2.3920438868999483,17.377985,0.1,31.25824,1617917950999
Fix,GT,37.3969379,-122.0819648,-2.348006595909596,17.761974,0.1,29.734222,1617917951999
Fix,GT,37.3970795,-122.0818673,-2.4679625492095947,18.047894,0.1,27.731628,1617917952999
Fix,GT,37.3972256,-122.0817756,-2.7949095015525818,18.204878,0.1,25.60019,1617917953999
Fix,GT,37.3973743,-122.0816887,-3.3648739404678345,18.214499,0.1,24.353577,1617917954999
Fix,GT,37.3975238,-122.0816064,-4.063820510327816,18.022326,0.1,22.908295,1617917955999
Fix,GT,37.3976742,-122.0815299,-4.99578020477295,17.955877,0.1,20.953491,1617917956999
Fix,GT,37.3978262,-122.0814618,-5.915810917079449,17.83209,0.1,18.579224,1617917957999
Fix,GT,37.3979784,-122.0814008,-6.873781577944755,17.656528,0.1,17.107391,1617917958999
Fix,GT,37.3981316,-122.0813427,-7.823781151533127,17.842064,0.1,16.448486,1617917959999
Fix,GT,37.3982866,-122.0812863,-8.761803105354309,17.973745,0.1,15.629852,1617917960999
Fix,GT,37.3984436,-122.081233,-9.73778927731514,18.116959,0.1,14.8420105,1617917961999
Fix,GT,37.3986009,-122.0811774,-10.694788868308068,18.214012,0.1,16.257202,1617917962999
Fix,GT,37.398759,-122.0811192,-11.681786214530469,18.340067,0.1,15.986603,1617917963999
Fix,GT,37.3989183,-122.0810625,-12.564826386213303,18.412687,0.1,15.634369,1617917964999
Fix,GT,37.3990783,-122.0810068,-13.326853167831898,18.421165,0.1,15.414673,1617917965999
Fix,GT,37.399228,-122.0809537,-13.83890041446686,15.886712,0.1,16.182617,1617917966999
Fix,GT,37.3993504,-122.0809068,-14.175965986013413,12.54689,0.1,17.439087,1617917967999
Fix,GT,37.3994417,-122.0808691,-14.332975009202958,8.754412,0.1,18.401947,1617917968999
Fix,GT,37.3994998,-122.0808442,-14.419990895032884,4.9707513,0.1,18.885345,1617917969999
Fix,GT,37.3995273,-122.0808322,-14.462990877866744,1.664514,0.1,19.160156,1617917970999
Fix,GT,37.399532,-122.0808301,-14.481988575577734,0.0145746805,0.1,19.218842,1617917971999
Fix,GT,37.399532,-122.0808301,-14.48,0.0010009483,0.1,19.21585,1617917972999
Fix,GT,37.399532,-122.0808301,-14.48,0.001,0.1,19.214935,1617917973999
Fix,GT,37.399532,-122.0808301,-14.48,0.0010028402,0.1,19.214783,1617917974999
Fix,GT,37.399532,-122.0808301,-14.48,0.0010023022,0.1,19.215393,1617917975999
Fix,GT,37.399532,-122.0808301,-14.479,0.0014132583,0.1,19.215118,1617917976999
Fix,GT,37.399532,-122.0808301,-14.479,0.0020005456,0.1,19.214905,1617917977999
Fix,GT,37.399532,-122.0808301,-14.479,0.0014109397,0.1,19.214722,1617917978999
Fix,GT,37.399532,-122.0808301,-14.479,0.0010023194,0.1,19.215393,1617917979999
Fix,GT,37.399532,-122.0808301,-14.479,0.001,0.1,19.215393,1617917980999
Fix,GT,37.399532,-122.0808301,-14.479,3.2921746e-06,0.1,19.215515,1617917981999
Fix,GT,37.399532,-122.0808301,-14.479,0.0014132475,0.1,19.215271,1617917982999
Fix,GT,37.399532,-122.0808301,-14.479,0.0022341479,0.1,19.215973,1617917983999
Fix,GT,37.399532,-122.0808301,-14.479,0.0014142136,0.1,19.21579,1617917984999
Fix,GT,37.399532,-122.0808301,-14.479,0.0014132422,0.1,19.215302,1617917985999
Fix,GT,37.399532,-122.0808301,-14.479,2.3493767e-06,0.1,19.215881,1617917986999
Fix,GT,37.399532,-122.0808301,-14.479,0.0014132387,0.1,19.215515,1617917987999
Fix,GT,37.399532,-122.0808301,-14.479,0.001,0.1,19.215485,1617917988999
Fix,GT,37.399532,-122.0808301,-14.479,0.0014132351,0.1,19.215729,1617917989999
Fix,GT,37.399532,-122.0808301,-14.479,0.0014132332,0.1,19.215973,1617917990999
Fix,GT,37.399532,-122.0808301,-14.479,0.0,0.1,19.215942,1617917991999
Fix,GT,37.399532,-122.0808301,-14.479,0.001,0.1,19.215637,1617917992999
Fix,GT,37.399532,-122.0808301,-14.479,0.0009976206,0.1,19.215637,1617917993999
Fix,GT,37.399532,-122.0808301,-14.48,0.0014132261,0.1,19.215668,1617917994999
Fix,GT,37.399532,-122.0808301,-14.48,2.3880602e-06,0.1,19.215515,1617917995999
Fix,GT,37.399532,-122.0808301,-14.48,0.001,0.1,19.215515,1617917996999
Fix,GT,37.399532,-122.0808301,-14.479,0.0009976033,0.1,19.21524,1617917997999
Fix,GT,37.399532,-122.0808301,-14.479,0.0010009946,0.1,19.214935,1617917998999
Fix,GT,37.399532,-122.0808301,-14.479,0.001,0.1,19.215424,1617917999999
Fix,GT,37.3995321,-122.0808301,-14.479,0.0014132154,0.1,19.215454,1617918000999
Fix,GT,37.3995321,-122.0808301,-14.476,0.0019975863,0.1,19.215485,1617918001999
Fix,GT,37.3995321,-122.08083,-14.474,0.0014132118,0.1,19.217102,1617918002999
Fix,GT,37.3995353,-122.0808285,-14.498990310192108,1.1537542,0.1,19.38559,1617918003999
Fix,GT,37.3995566,-122.0808179,-14.539985439181327,3.7928169,0.1,21.1156,1617918004999
Fix,GT,37.3995972,-122.0807978,-14.612987844526767,5.8336015,0.1,21.335632,1617918005999
Fix,GT,37.3996559,-122.0807682,-14.71397077536583,8.193858,0.1,22.130798,1617918006999
Fix,GT,37.3997308,-122.0807275,-14.77896340483427,9.745809,0.1,23.753723,1617918007999
