MessageType,Provider,LatitudeDegrees,LongitudeDegrees,AltitudeMeters,SpeedMps,AccuracyMeters,BearingDegrees,UnixTimeMillis
Fix,GT,37.3174309,-121.9480246,12.00799123082752,0.053009428,0.1,1.8334045,1628109632000
Fix,GT,37.3174309,-121.9480252,11.947991683321074,0.053007998,0.1,1.8337708,1628109633000
Fix,GT,37.3174309,-121.9480258,11.88799142153468,0.04800285,0.1,1.833313,1628109634000
Fix,GT,37.3174309,-121.9480263,11.827992576748132,0.050009996,0.1,1.8331604,1628109635000
Fix,GT,37.3174309,-121.9480269,11.770991607957054,0.049162995,0.1,1.8319092,1628109636000
Fix,GT,37.3174309,-121.9480274,11.714991351001895,0.048093583,0.1,1.831604,1628109637000
Fix,GT,37.3174308,-121.948028,11.660851923768991,0.045041572,0.1,1.8317871,1628109638000
Fix,GT,37.3174241,-121.9480277,15.297097898802605,0.02594126,0.1,1.8276672,1628109639000
Fix,GT,37.317425,-121.9480278,15.32697581759165,0.35515955,0.1,1.5271606,1628109640000
Fix,GT,37.3174336,-121.9480303,15.141973492381627,1.4375618,0.1,356.41174,1628109641000
Fix,GT,37.3174485,-121.9480383,14.943971169973493,1.7014707,0.1,345.12726,1628109642000
Fix,GT,37.3174609,-121.9480495,14.717965643820586,1.312187,0.1,333.2782,1628109643000
Fix,GT,37.3174682,-121.9480627,14.492969385758045,1.2339572,0.1,318.85254,1628109644000
Fix,GT,37.3174759,-121.948077,14.2759790576027,1.6449058,0.1,310.87973,1628109645000
Fix,GT,37.3174901,-121.9480896,14.121975356177428,2.1121774,0.1,320.19022,1628109646000
Fix,GT,37.3175096,-121.9480953,13.946969604992656,2.1409047,0.1,338.3385,1628109647000
Fix,GT,37.3175276,-121.9480969,13.743975380060494,1.861801,0.1,349.86594,1628109648000
Fix,GT,37.3175442,-121.9480971,13.548968978292772,1.962586,0.1,356.09418,1628109649000
Fix,GT,37.317564,-121.9480974,13.334974179453218,2.4795146,0.1,358.8594,1628109650000
Fix,GT,37.3175877,-121.9480974,13.070001460015307,2.740256,0.1,0.29138184,1628109651000
Fix,GT,37.3176187,-121.9480969,12.94297312422446,4.112446,0.1,1.0255127,1628109652000
Fix,GT,37.3176601,-121.9480957,12.736982591249982,4.8871617,0.1,1.8762207,1628109653000
Fix,GT,37.3177033,-121.9480938,12.5809811176504,4.621924,0.1,2.2409973,1628109654000
Fix,GT,37.3177397,-121.9480931,12.473988925417885,3.189777,0.1,0.86099243,1628109655000
Fix,GT,37.3177622,-121.9480927,12.342980030056088,2.28,0.1,0.48208618,1628109656000
Fix,GT,37.3177828,-121.948094,12.199981372072362,2.3611329,0.1,357.79385,1628109657000
Fix,GT,37.3178039,-121.9481019,12.015030521014008,2.3676777,0.099,346.61502,1628109658000
Fix,GT,37.3178241,-121.9481215,11.944982472348492,3.093635,0.099,326.96204,1628109659000
Fix,GT,37.317843,-121.948158,11.84697453131387,4.287901,0.099,303.80933,1628109660000
Fix,GT,37.3178537,-121.9482141,11.692988112698774,5.6457343,0.1,281.44308,1628109661000
Fix,GT,37.3178518,-121.9482851,11.562986900443796,6.6086926,0.1,267.23367,1628109662000
Fix,GT,37.3178496,-121.9483615,11.467984265916048,6.9174213,0.1,268.39056,1628109663000
Fix,GT,37.3178489,-121.9484395,11.386984266258194,6.8630285,0.1,269.60712,1628109664000
Fix,GT,37.3178489,-121.9485162,11.31298807304632,6.7210493,0.099,269.96,1628109665000
Fix,GT,37.3178491,-121.9485912,11.232994690843045,6.568982,0.1,270.1489,1628109666000
Fix,GT,37.3178495,-121.9486639,11.159995851715443,6.329983,0.1,270.37585,1628109667000
Fix,GT,37.31785,-121.9487338,11.135988488866598,6.0602717,0.1,270.5058,1628109668000
Fix,GT,37.3178507,-121.9487998,11.093994718426838,5.5064874,0.1,270.60486,1628109669000
Fix,GT,37.317851,-121.9488551,11.044997706117574,4.145887,0.1,270.122,1628109670000
Fix,GT,37.3178503,-121.9488951,11.031999799650164,3.229301,0.1,268.52368,1628109671000
Fix,GT,37.3178473,-121.9489303,11.0150040396743,2.945665,0.1,263.66003,1628109672000
Fix,GT,37.3178373,-121.9489599,11.097013876065146,2.6003635,0.1,249.13503,1628109673000
Fix,GT,37.3178175,-121.9489812,11.2110065929275,2.958483,0.1,225.51558,1628109674000
Fix,GT,37.3177857,-121.9489964,11.283006196705625,4.3298507,0.1,202.8266,1628109675000
Fix,GT,37.3177397,-121.9490066,11.31499000315275,5.8602905,0.1,190.24615,1628109676000
Fix,GT,37.3176825,-121.9490176,11.370000209135467,6.810675,0.1,188.3921,1628109677000
Fix,GT,37.3176212,-121.9490273,11.287986084391596,6.7927303,0.1,186.68555,1628109678000
Fix,GT,37.3175612,-121.9490339,11.266999672087142,6.553667,0.1,184.34468,1628109679000
Fix,GT,37.3175034,-121.9490373,11.310012713298203,6.2668214,0.1,182.28146,1628109680000
Fix,GT,37.3174488,-121.9490389,11.36400151074282,5.7583594,0.1,181.00168,1628109681000
Fix,GT,37.3174007,-121.949039,11.463013804066923,4.8356037,0.1,180.00507,1628109682000
Fix,GT,37.3173627,-121.9490386,11.542003559559234,3.5182555,0.1,179.36353,1628109683000
Fix,GT,37.3173371,-121.9490381,11.573007219352643,2.2979803,0.1,179.06519,1628109684000
Fix,GT,37.3173248,-121.9490379,11.600000322749835,0.4848772,0.1,179.04333,1628109685000
Fix,GT,37.3173233,-121.9490379,11.597998473439482,0.019028844,0.099,179.10931,1628109686000
Fix,GT,37.3173232,-121.9490379,11.600999661015928,0.0020026057,0.099,179.11102,1628109687000
Fix,GT,37.3173232,-121.9490379,11.604000077000352,0.0019992834,0.1,179.11127,1628109688000
Fix,GT,37.3173232,-121.9490379,11.60599991758191,0.00299878,0.1,179.11188,1628109689000
Fix,GT,37.3173231,-121.9490379,11.607000974639318,0.038034096,0.1,179.10999,1628109690000
Fix,GT,37.3173191,-121.9490378,11.609002601510612,1.07743,0.1,179.15637,1628109691000
Fix,GT,37.3173041,-121.9490398,11.647001225590705,2.140035,0.1,183.50081,1628109692000
Fix,GT,37.3172874,-121.9490516,11.49497453782102,2.285062,0.1,201.86905,1628109693000
Fix,GT,37.3172764,-121.9490766,11.46501893526688,2.8183925,0.1,231.15625,1628109694000
Fix,GT,37.3172716,-121.949114,11.543006221192888,3.9447768,0.1,256.72586,1628109695000
Fix,GT,37.3172766,-121.9491662,11.554995405754774,5.5551467,0.1,276.2677,1628109696000
Fix,GT,37.3172844,-121.9492335,11.491993954852456,6.2218103,0.1,277.13834,1628109697000
Fix,GT,37.3172897,-121.9493032,11.408990367518507,6.174993,0.1,275.24603,1628109698000
Fix,GT,37.3172943,-121.9493711,11.317991427318075,5.7209187,0.1,274.6085,1628109699000
Fix,GT,37.3172977,-121.9494321,11.232993038015325,5.1571784,0.1,273.9053,1628109700000
Fix,GT,37.3173003,-121.9494868,11.171990439634303,4.559072,0.1,273.39502,1628109701000
Fix,GT,37.3173028,-121.949535,11.09999321416556,3.9040425,0.1,273.5702,1628109702000
Fix,GT,37.3173048,-121.9495748,11.031990742979572,3.2383442,0.1,273.62833,1628109703000
Fix,GT,37.3173066,-121.9496089,10.982994120313322,2.8552234,0.1,273.65768,1628109704000
Fix,GT,37.3173081,-121.9496389,10.942995150746311,2.436888,0.1,273.69754,1628109705000
Fix,GT,37.3173094,-121.9496637,10.900993347792188,1.9606822,0.1,273.67264,1628109706000
Fix,GT,37.3173105,-121.9496829,10.872997732156657,1.410083,0.1,273.79163,1628109707000
Fix,GT,37.3173112,-121.9496957,10.852999785212567,0.86556035,0.099,273.84195,1628109708000
Fix,GT,37.3173116,-121.9497023,10.837998705371747,0.30979612,0.1,273.83545,1628109709000
Fix,GT,37.3173116,-121.9497033,10.831000030261464,0.022196539,0.1,273.84262,1628109710000
Fix,GT,37.3173116,-121.9497034,10.829999881486874,0.002236068,0.1,273.83984,1628109711000
Fix,GT,37.3173116,-121.9497034,10.829000269781565,0.0014142137,0.1,273.8371,1628109712000
Fix,GT,37.3173116,-121.9497034,10.829000013867278,0.002236068,0.1,273.8368,1628109713000
Fix,GT,37.3173116,-121.9497034,10.828999756692328,0.0022360678,0.099,273.83685,1628109714000
Fix,GT,37.3173116,-121.9497034,10.829000144976074,0.002236068,0.1,273.83698,1628109715000
Fix,GT,37.3173116,-121.9497034,10.829000104634906,0.002236068,0.1,273.83716,1628109716000
Fix,GT,37.3173116,-121.9497034,10.82900006429374,0.0014151337,0.1,273.83707,1628109717000
Fix,GT,37.3173116,-121.9497034,10.829000023952569,0.0014142136,0.1,273.83716,1628109718000
Fix,GT,37.3173116,-121.9497034,10.8289999836114,0.0014142136,0.1,273.83728,1628109719000
Fix,GT,37.3173116,-121.9497034,10.828999834853342,0.002236068,0.099,273.8373,1628109720000
Fix,GT,37.3173116,-121.9497034,10.829999794493196,0.002,0.099,273.83716,1628109721000
Fix,GT,37.3173116,-121.9497034,10.829999862575209,0.0022370885,0.1,273.83716,1628109722000
Fix,GT,37.3173117,-121.9497038,10.825998724216014,0.21567823,0.1,273.84186,1628109723000
Fix,GT,37.3173121,-121.9497117,10.814999225303996,1.2676407,0.1,273.8855,1628109724000
Fix,GT,37.3173132,-121.9497294,10.791997989064082,1.7947325,0.1,273.87305,1628109725000
Fix,GT,37.3173143,-121.9497495,10.771995565526188,1.6825436,0.099,273.92044,1628109726000
Fix,GT,37.3173152,-121.9497655,10.748997049223632,1.1687236,0.1,274.014,1628109727000
Fix,GT,37.3173158,-121.949775,10.730999072298872,0.5148987,0.1,274.0829,1628109728000
Fix,GT,37.317316,-121.9497772,10.7209989284724,0.0050028157,0.1,274.0958,1628109729000
Fix,GT,37.317316,-121.9497772,10.716999751723025,0.0030021458,0.1,274.09406,1628109730000
Fix,GT,37.317316,-121.9497772,10.715000135965528,0.002001243,0.1,274.09366,1628109731000
Fix,GT,37.317316,-121.9497772,10.714999988773489,0.0036038402,0.1,274.09357,1628109732000
Fix,GT,37.317316,-121.9497772,10.714999841581449,0.0014150864,0.1,274.094,1628109733000
Fix,GT,37.317316,-121.9497772,10.714999694389409,0.0010013084,0.1,274.09427,1628109734000
Fix,GT,37.317316,-121.9497772,10.715000293136692,0.001,0.1,274.0944,1628109735000
Fix,GT,37.317316,-121.9497772,10.71500014594465,0.0028269403,0.1,274.09424,1628109736000
Fix,GT,37.317316,-121.9497772,10.715000106028164,0.0010000002,0.1,274.09406,1628109737000
Fix,GT,37.317316,-121.9497772,10.715000066111678,0.003995823,0.1,274.0951,1628109738000
Fix,GT,37.317316,-121.9497772,10.71499992016703,0.0022347816,0.1,274.0949,1628109739000
Fix,GT,37.317316,-121.9497772,10.714999880250543,0.0014142136,0.1,274.0949,1628109740000
Fix,GT,37.317316,-121.9497772,10.714999733058503,0.0019993945,0.1,274.09494,1628109741000
Fix,GT,37.317316,-121.9497772,10.71500022453023,0.0020002434,0.1,274.09488,1628109742000
Fix,GT,37.317316,-121.9497772,10.71500007733819,0.002236068,0.1,274.09467,1628109743000
Fix,GT,37.317316,-121.9497772,10.714000037418211,0.0036055513,0.1,274.09464,1628109744000
Fix,GT,37.317316,-121.9497773,10.710997047351674,0.107552946,0.1,274.09988,1628109745000
Fix,GT,37.3173166,-121.9497861,10.688997018056922,1.783149,0.1,274.10565,1628109746000
Fix,GT,37.3173185,-121.9498183,10.6309950712868,3.9072008,0.1,274.09473,1628109747000
Fix,GT,37.3173214,-121.9498741,10.568995154812932,6.206483,0.1,273.54526,1628109748000
Fix,GT,37.3173226,-121.949959,10.477994231997055,8.608563,0.1,270.27844,1628109749000
Fix,GT,37.3173199,-121.9500651,10.575032741524277,10.115333,0.1,267.58954,1628109750000
Fix,GT,37.3173141,-121.950189,10.678007277197672,11.922206,0.1,266.07947,1628109751000
Fix,GT,37.3173055,-121.95033,10.452944578084628,13.098708,0.1,265.23395,1628109752000
Fix,GT,37.3172945,-121.9504848,10.347027942022772,14.460282,0.1,264.35367,1628109753000
Fix,GT,37.3172808,-121.9506532,10.458005105196031,15.465405,0.1,264.13678,1628109754000
Fix,GT,37.3172652,-121.9508335,10.484000700234436,16.629469,0.099,263.2627,1628109755000
Fix,GT,37.3172461,-121.9510243,10.50300705667911,17.483599,0.1,262.4051,1628109756000
Fix,GT,37.3172236,-121.9512243,10.543002982634118,18.311317,0.1,261.62042,1628109757000
Fix,GT,37.3171994,-121.9514333,10.559996018548496,19.126495,0.1,261.89972,1628109758000
Fix,GT,37.3171762,-121.9516509,10.560992981347836,19.705153,0.099,262.48346,1628109759000
Fix,GT,37.3171526,-121.9518733,10.542000691159569,20.101562,0.099,262.14868,1628109760000
Fix,GT,37.3171274,-121.9521007,10.477003093536013,20.572678,0.1,262.02124,1628109761000
Fix,GT,37.3171019,-121.9523313,10.451002085066923,20.587767,0.1,262.09338,1628109762000
Fix,GT,37.3170766,-121.9525618,10.396992491304466,20.728159,0.1,262.0473,1628109763000
Fix,GT,37.3170507,-121.9527948,10.363986670585234,20.989494,0.1,261.95636,1628109764000
Fix,GT,37.3170241,-121.9530309,10.31999900020886,21.26345,0.099,261.8216,1628109765000
Fix,GT,37.3169972,-121.9532701,10.2799970783937,21.55545,0.1,261.99905,1628109766000
Fix,GT,37.3169708,-121.9535125,10.204972500272095,21.842346,0.099,262.25476,1628109767000
Fix,GT,37.3169445,-121.9537582,10.21901191046927,22.080606,0.1,262.21143,1628109768000
Fix,GT,37.3169182,-121.9540063,10.329013267874602,22.304705,0.1,262.38788,1628109769000
Fix,GT,37.316891,-121.9542572,10.456001096371676,22.610395,0.1,261.86707,1628109770000
Fix,GT,37.3168615,-121.9545115,10.554999097326538,22.96792,0.1,261.50525,1628109771000
Fix,GT,37.31683,-121.9547696,10.61600920895196,23.32206,0.1,261.05173,1628109772000
Fix,GT,37.3167977,-121.9550313,10.67200545787404,23.634476,0.1,261.31836,1628109773000
Fix,GT,37.3167679,-121.9552972,10.735004480796633,23.993284,0.1,262.46515,1628109774000
Fix,GT,37.3167422,-121.9555683,10.77799986386241,24.405972,0.1,263.74628,1628109775000
Fix,GT,37.3167193,-121.9558443,10.82000345550431,24.806412,0.1,264.26285,1628109776000
Fix,GT,37.3166983,-121.9561253,10.864008827233103,25.237234,0.1,264.7227,1628109777000
Fix,GT,37.3166781,-121.9564111,10.895013364251351,25.63678,0.1,264.98138,1628109778000
Fix,GT,37.3166596,-121.9567014,10.961008672019291,25.903547,0.1,265.6459,1628109779000
Fix,GT,37.3166433,-121.9569919,11.019004781357014,25.742659,0.1,266.08994,1628109780000
Fix,GT,37.3166291,-121.9572813,11.062991370191508,25.692942,0.1,266.68195,1628109781000
Fix,GT,37.3166174,-121.9575713,11.08600710328482,25.806559,0.1,267.42786,1628109782000
Fix,GT,37.3166094,-121.9578638,11.14500526710134,26.106726,0.1,268.3158,1628109783000
Fix,GT,37.3166042,-121.9581607,11.160012127814348,26.569723,0.1,268.9349,1628109784000
Fix,GT,37.3166017,-121.9584624,11.18700821092911,26.901276,0.1,269.6701,1628109785000
Fix,GT,37.3166023,-121.9587672,11.232003776786849,27.110914,0.1,270.3982,1628109786000
Fix,GT,37.3166052,-121.9590738,11.306998510065954,27.271976,0.1,270.76703,1628109787000
Fix,GT,37.3166098,-121.9593836,11.301999340133277,27.678318,0.1,271.07806,1628109788000
Fix,GT,37.3166148,-121.9596978,11.345016533030195,28.042597,0.1,270.92245,1628109789000
Fix,GT,37.3166195,-121.9600158,11.40300784443249,28.279018,0.1,271.03134,1628109790000
Fix,GT,37.3166251,-121.9603349,11.472013125839643,28.302588,0.1,271.16583,1628109791000
Fix,GT,37.3166308,-121.960654,11.685032486536947,28.285059,0.1,271.12653,1628109792000
Fix,GT,37.3166353,-121.9609732,12.09304913383344,28.32819,0.1,270.7525,1628109793000
Fix,GT,37.3166392,-121.9612922,12.70105647139065,28.141993,0.1,270.83875,1628109794000
Fix,GT,37.3166435,-121.9616079,13.468073819448472,27.8286,0.1,270.86096,1628109795000
Fix,GT,37.3166477,-121.9619205,14.195053513051883,27.618439,0.1,270.89526,1628109796000
Fix,GT,37.3166522,-121.9622309,14.931052394242608,27.436106,0.1,270.9924,1628109797000
Fix,GT,37.3166571,-121.9625395,15.611052936274966,27.287834,0.1,271.10004,1628109798000
Fix,GT,37.3166622,-121.9628463,16.307049999005162,27.133959,0.1,271.15292,1628109799000
Fix,GT,37.3166666,-121.9631518,16.761023407519854,27.03941,0.1,270.82098,1628109800000
Fix,GT,37.3166694,-121.9634562,17.162042080724028,26.920391,0.1,270.3655,1628109801000
Fix,GT,37.3166704,-121.96376,17.452997137435826,26.955015,0.099,269.95517,1628109802000
Fix,GT,37.3166693,-121.9640645,17.62200924993551,27.048002,0.1,269.40552,1628109803000
Fix,GT,37.3166655,-121.9643701,17.650963269235916,27.114183,0.1,268.75793,1628109804000
Fix,GT,37.3166588,-121.9646767,17.47799410647544,27.25814,0.1,267.95795,1628109805000
Fix,GT,37.3166487,-121.964985,17.363980282895035,27.454035,0.1,267.32626,1628109806000
Fix,GT,37.316637,-121.9652957,16.998960557704674,27.699018,0.1,267.14105,1628109807000
Fix,GT,37.3166257,-121.9656096,16.480956715647075,28.00056,0.099,267.55652,1628109808000
Fix,GT,37.316616,-121.9659269,15.95795702247508,28.301544,0.099,267.7851,1628109809000
Fix,GT,37.316606,-121.9662476,15.399951642718284,28.589592,0.1,267.57614,1628109810000
Fix,GT,37.3165954,-121.96657,14.737940884446669,28.587864,0.1,267.56717,1628109811000
Fix,GT,37.3165849,-121.9668919,13.989936361283297,28.510557,0.1,267.52734,1628109812000
Fix,GT,37.3165739,-121.9672125,13.26795507620764,28.377575,0.1,267.39368,1628109813000
Fix,GT,37.3165624,-121.9675314,12.740966941897524,28.196108,0.1,267.24707,1628109814000
Fix,GT,37.3165505,-121.9678478,12.402984721165266,27.948313,0.1,267.17468,1628109815000
Fix,GT,37.3165395,-121.9681611,12.273996096911487,27.63459,0.1,267.9016,1628109816000
Fix,GT,37.3165343,-121.9684706,12.31700977241178,27.272713,0.1,269.71814,1628109817000
Fix,GT,37.3165372,-121.9687761,12.404003616862116,26.896097,0.1,271.38312,1628109818000
Fix,GT,37.3165465,-121.9690771,12.476007322287886,26.517887,0.1,272.83347,1628109819000
Fix,GT,37.31656,-121.9693737,12.471992353262612,26.1758,0.1,273.38724,1628109820000
Fix,GT,37.3165732,-121.9696667,12.486010395776947,25.835796,0.1,273.2751,1628109821000
Fix,GT,37.3165861,-121.969956,12.455987996204756,25.511414,0.099,272.53442,1628109822000
Fix,GT,37.3165959,-121.9702418,12.422988007493666,25.17839,0.099,272.09637,1628109823000
Fix,GT,37.3166041,-121.970523,12.378996854566386,24.713575,0.1,272.0456,1628109824000
Fix,GT,37.3166138,-121.9707988,12.337992427387274,24.23492,0.1,272.93634,1628109825000
Fix,GT,37.3166294,-121.9710691,12.221983670526184,23.856,0.1,275.0415,1628109826000
Fix,GT,37.3166524,-121.9713345,12.080988786393076,23.483545,0.1,276.87628,1628109827000
Fix,GT,37.3166812,-121.9715951,11.895985662988156,23.162018,0.1,278.53772,1628109828000
Fix,GT,37.316716,-121.9718501,11.632970603441352,22.610435,0.1,280.52017,1628109829000
Fix,GT,37.3167573,-121.9720951,11.26996867453528,21.85479,0.1,283.3855,1628109830000
Fix,GT,37.3168093,-121.9723311,10.760963096628604,21.645823,0.1,286.77106,1628109831000
Fix,GT,37.316872,-121.9725614,10.184956871918637,21.539978,0.1,290.59534,1628109832000
Fix,GT,37.3169463,-121.9727847,9.85798239817604,21.332409,0.1,294.08154,1628109833000
Fix,GT,37.3170291,-121.9730009,9.730011073132395,21.218052,0.1,296.5434,1628109834000
Fix,GT,37.317115,-121.973213,10.045029193954136,20.89782,0.1,296.83276,1628109835000
Fix,GT,37.3171996,-121.9734199,10.633041479147678,20.247156,0.099,297.1905,1628109836000
Fix,GT,37.3172811,-121.973617,11.221044087842516,19.000275,0.1,297.11264,1628109837000
Fix,GT,37.3173548,-121.9738,11.790037187543463,17.251574,0.1,296.3558,1628109838000
Fix,GT,37.3174187,-121.9739618,12.294034223745111,14.448838,0.1,296.66666,1628109839000
Fix,GT,37.3174767,-121.9740892,12.62700955552439,11.908253,0.1,302.5856,1628109840000
Fix,GT,37.3175417,-121.9741847,12.715999326780496,10.794431,0.1,316.037,1628109841000
Fix,GT,37.3176207,-121.9742478,12.726998066619736,10.324949,0.1,333.54883,1628109842000
Fix,GT,37.3177088,-121.9742708,12.654990930941304,10.029055,0.1,357.2366,1628109843000
Fix,GT,37.3177957,-121.974246,12.56100755038345,10.159203,0.1,18.102112,1628109844000
Fix,GT,37.3178782,-121.9742036,12.56000510959234,9.273938,0.1,21.222656,1628109845000
Fix,GT,37.3179542,-121.9741816,12.58999911522132,8.120199,0.099,8.857513,1628109846000
Fix,GT,37.3180234,-121.9741755,12.60300035065657,7.219823,0.1,3.795288,1628109847000
Fix,GT,37.3180843,-121.9741658,12.605993174210656,6.364889,0.099,9.078522,1628109848000
Fix,GT,37.3181339,-121.9741465,12.555997818207716,5.290679,0.1,18.922272,1628109849000
Fix,GT,37.3181717,-121.9741225,12.506998033669776,4.049413,0.1,27.48825,1628109850000
Fix,GT,37.3181952,-121.9741031,12.46899735833972,2.2627857,0.1,32.34839,1628109851000
Fix,GT,37.3182066,-121.9740939,12.451999234835268,0.75507474,0.1,32.641907,1628109852000
Fix,GT,37.3182091,-121.9740919,12.44199994930462,0.02139828,0.1,32.632782,1628109853000
Fix,GT,37.3182091,-121.9740919,12.43800015131326,0.0014142136,0.1,32.632782,1628109854000
Fix,GT,37.3182091,-121.9740919,12.43700022948539,0.0014142136,0.1,32.630615,1628109855000
Fix,GT,37.3182091,-121.9740919,12.437000183153955,0.0010002576,0.1,32.631134,1628109856000
Fix,GT,37.3182091,-121.9740919,12.43700013682252,0.0014139574,0.1,32.631348,1628109857000
Fix,GT,37.3182091,-121.9740919,12.437000090491084,0.0014133443,0.1,32.631195,1628109858000
Fix,GT,37.3182091,-121.9740919,12.43700004415965,0.001,0.1,32.63138,1628109859000
Fix,GT,37.3182091,-121.9740919,12.43699987403641,0.0014142134,0.1,32.631073,1628109860000
Fix,GT,37.3182091,-121.9740919,12.436999703189242,0.001,0.1,32.631348,1628109861000
Fix,GT,37.3182091,-121.9740919,12.436999656857806,0.0014139648,0.099,32.631195,1628109862000
Fix,GT,37.3182091,-121.9740919,12.436999735042104,0.0014139663,0.099,32.631653,1628109863000
Fix,GT,37.3182091,-121.9740919,12.436999937742131,0.0009994068,0.1,32.631744,1628109864000
Fix,GT,37.3182091,-121.9740919,12.436999891410698,0.0014139693,0.1,32.631134,1628109865000
Fix,GT,37.3182091,-121.9740919,12.4370000933868,0.0010000002,0.1,32.63147,1628109866000
Fix,GT,37.3182091,-121.9740919,12.437000047055363,0.001,0.1,32.631287,1628109867000
Fix,GT,37.3182091,-121.9740919,12.437000000723929,0.001,0.1,32.631683,1628109868000
Fix,GT,37.3182091,-121.9740919,12.436999830600689,0.0014133998,0.1,32.63272,1628109869000
Fix,GT,37.3182091,-121.9740919,12.436999784269252,0.0014139767,0.099,32.63199,1628109870000
Fix,GT,37.3182091,-121.9740919,12.436999737937818,0.0014139782,0.099,32.63156,1628109871000
Fix,GT,37.3182091,-121.9740919,12.43699969160638,0.0009994354,0.099,32.631165,1628109872000
Fix,GT,37.3182091,-121.9740919,12.436999645274948,5.6103005e-07,0.1,32.631195,1628109873000
Fix,GT,37.3182091,-121.9740919,12.436999723459245,0.001,0.1,32.631134,1628109874000
Fix,GT,37.3182091,-121.9740919,12.43699980164354,5.5389006e-07,0.1,32.631317,1628109875000
Fix,GT,37.3182091,-121.9740919,12.436999755312105,0.001,0.1,32.631348,1628109876000
Fix,GT,37.3182091,-121.9740919,12.437000325767904,0.0010002266,0.1,32.6315,1628109877000
Fix,GT,37.3182091,-121.9740919,12.436999662649235,0.0014139885,0.099,32.631042,1628109878000
Fix,GT,37.3182091,-121.9740919,12.436999740833532,0.0014142136,0.099,32.631073,1628109879000
Fix,GT,37.3182091,-121.9740919,12.43699981901783,0.0014142134,0.1,32.63092,1628109880000
Fix,GT,37.3182091,-121.9740919,12.437000020993931,0.0014146512,0.1,32.631226,1628109881000
Fix,GT,37.3182091,-121.9740919,12.437000223693962,0.002236068,0.1,32.631836,1628109882000
Fix,GT,37.3182091,-121.9740919,12.43699980888283,0.002236068,0.1,32.63147,1628109883000
Fix,GT,37.3182091,-121.9740919,12.43700001158286,0.002236068,0.1,32.63147,1628109884000
Fix,GT,37.3182091,-121.9740919,12.436999965251424,0.002236068,0.1,32.63159,1628109885000
Fix,GT,37.3182091,-121.9740919,12.436999918919987,0.0031618008,0.1,32.631836,1628109886000
Fix,GT,37.3182091,-121.9740919,12.436999872588553,0.002235648,0.1,32.631104,1628109887000
Fix,GT,37.3182091,-121.9740919,12.436999826257116,1.134715e-06,0.099,32.63199,1628109888000
Fix,GT,37.3182091,-121.9740919,12.436999904441414,0.0009994962,0.1,32.631622,1628109889000
Fix,GT,37.3182091,-121.9740919,12.43699998262571,0.001,0.1,32.6315,1628109890000
Fix,GT,37.3182091,-121.9740919,12.437000060810009,0.001,0.1,32.6315,1628109891000
Fix,GT,37.3182091,-121.9740919,12.437000014478572,0.0010002044,0.1,32.631744,1628109892000
Fix,GT,37.3182091,-121.9740919,12.436999968147138,0.0014142136,0.1,32.631744,1628109893000
Fix,GT,37.3182091,-121.9740919,12.4369999218157,0.001,0.1,32.63202,1628109894000
Fix,GT,37.3182091,-121.9740919,12.437,4.8244004e-07,0.1,32.631805,1628109895000
Fix,GT,37.3182091,-121.9740919,12.437000078184296,0.001,0.1,32.631256,1628109896000
Fix,GT,37.3182091,-121.9740919,12.43700003185286,0.001,0.1,32.631287,1628109897000
Fix,GT,37.3182091,-121.9740919,12.437000110037156,0.0014142136,0.1,32.63141,1628109898000
Fix,GT,37.3182091,-121.9740919,12.43699993918999,0.001,0.1,32.631287,1628109899000
Fix,GT,37.3182091,-121.9740919,12.436999892858555,0.0009999999,0.1,32.631226,1628109900000
Fix,GT,37.3182091,-121.9740919,12.436999722373352,0.000999539,0.1,32.631317,1628109901000
Fix,GT,37.3182091,-121.9740919,12.436999800557649,0.0010001895,0.1,32.630676,1628109902000
Fix,GT,37.3182091,-121.9740919,12.436999754226214,0.0014135718,0.1,32.631134,1628109903000
Fix,GT,37.3182091,-121.9740919,12.43700032468201,0.001,0.1,32.63144,1628109904000
Fix,GT,37.3182091,-121.9740919,12.436999661563345,0.001,0.099,32.63147,1628109905000
Fix,GT,37.3182091,-121.9740919,12.43699973974764,0.00141403,0.1,32.631287,1628109906000
Fix,GT,37.3182091,-121.9740919,12.436999942085706,0.001413592,0.1,32.63141,1628109907000
Fix,GT,37.3182091,-121.9740919,12.437000020270002,0.001414033,0.1,32.631622,1628109908000
Fix,GT,37.3182091,-121.9740919,12.437000222608068,0.001,0.1,32.63159,1628109909000
Fix,GT,37.3182091,-121.9740919,12.4369998081589,0.0019995712,0.1,32.63159,1628109910000
Fix,GT,37.3182091,-121.9740919,12.436999886343196,0.001,0.1,32.63156,1628109911000
Fix,GT,37.3182091,-121.9740919,12.436999964527494,0.0019995784,0.1,32.63141,1628109912000
Fix,GT,37.3182091,-121.9740919,12.437000042349826,0.001,0.1,32.631805,1628109913000
Fix,GT,37.3182091,-121.9740919,12.437000120534124,0.001,0.1,32.631836,1628109914000
Fix,GT,37.3182091,-121.9740919,12.437000322872189,0.001,0.1,32.631714,1628109915000
Fix,GT,37.3182091,-121.9740919,12.43700027690272,0.001,0.1,32.63159,1628109916000
Fix,GT,37.3182091,-121.9740919,12.43700035472505,0.001,0.1,32.631836,1628109917000
Fix,GT,37.3182091,-121.9740919,12.437000308393616,0.0010001658,0.1,32.631805,1628109918000
Fix,GT,37.3182091,-121.9740919,12.437000262424144,0.0010000002,0.1,32.631958,1628109919000
Fix,GT,37.3182091,-121.9740919,12.43700034024648,0.001,0.1,32.63202,1628109920000
Fix,GT,37.3182091,-121.9740919,12.437000293915045,0.0014140522,0.1,32.631927,1628109921000
Fix,GT,37.3182091,-121.9740919,12.436999755312106,0.0014140537,0.1,32.631744,1628109922000
Fix,GT,37.3182091,-121.9740919,12.436999833496404,0.0022357537,0.1,32.632202,1628109923000
Fix,GT,37.3182091,-121.9740919,12.436999911318736,0.0028282027,0.1,32.63211,1628109924000
Fix,GT,37.3182091,-121.9740919,12.4369998649873,0.002236068,0.1,32.632202,1628109925000
Fix,GT,37.3182091,-121.9740919,12.43699981901783,0.002236068,0.1,32.632202,1628109926000
Fix,GT,37.3182091,-121.9740919,12.436999896840163,0.0022357656,0.1,32.632294,1628109927000
Fix,GT,37.3182091,-121.9740919,12.43699997502446,0.002236068,0.1,32.632446,1628109928000
Fix,GT,37.3182091,-121.9740919,12.437000053208758,0.002236068,0.1,32.632324,1628109929000
Fix,GT,37.3182091,-121.9740919,12.437000255546822,0.0020000846,0.1,32.632294,1628109930000
Fix,GT,37.3182091,-121.9740919,12.436999841097654,0.0022359844,0.1,32.632263,1628109931000
Fix,GT,37.3182091,-121.9740919,12.43700004343572,0.0020000827,0.1,32.63217,1628109932000
Fix,GT,37.3182091,-121.9740919,12.437000121620017,0.0010004287,0.1,32.63257,1628109933000
Fix,GT,37.3182091,-121.9740919,12.437000075288584,0.0031616776,0.1,32.632355,1628109934000
Fix,GT,37.3182091,-121.9740919,12.437000028957147,0.002236068,0.1,32.632233,1628109935000
Fix,GT,37.3182091,-121.9740919,12.437000231657178,0.002236267,0.1,32.632507,1628109936000
Fix,GT,37.3182091,-121.9740919,12.43700030947951,0.0022365234,0.1,32.63336,1628109937000
Fix,GT,37.3182091,-121.9740919,12.43699964636084,0.0014144839,0.1,32.63315,1628109938000
Fix,GT,37.3182091,-121.9740919,12.436999724545135,0.0014140788,0.1,32.63318,1628109939000
Fix,GT,37.3182091,-121.9740919,12.436999678213702,0.001,0.1,32.6333,1628109940000
Fix,GT,37.3182091,-121.9740919,12.436999631882266,0.001,0.1,32.633575,1628109941000
Fix,GT,37.3182091,-121.9740919,12.436999834220332,0.0014142136,0.1,32.63379,1628109942000
Fix,GT,37.3182091,-121.9740919,12.43699978825086,6.9541716e-07,0.099,32.633667,1628109943000
Fix,GT,37.3182091,-121.9740919,12.436999990588928,0.0009996926,0.1,32.633606,1628109944000
Fix,GT,37.3182091,-121.9740919,12.43699994425749,0.0014143916,0.1,32.633698,1628109945000
Fix,GT,37.3182091,-121.9740919,12.437000022441788,0.0022358212,0.1,32.634033,1628109946000
Fix,GT,37.3182091,-121.9740919,12.436999976110352,0.0014142136,0.1,32.633636,1628109947000
Fix,GT,37.3182091,-121.9740919,12.436999805625147,0.0014142136,0.1,32.633972,1628109948000
Fix,GT,37.3182091,-121.9740919,12.436999759293712,0.001,0.1,32.63379,1628109949000
Fix,GT,37.3182091,-121.9740919,12.436999712962278,0.0009999999,0.1,32.63391,1628109950000
Fix,GT,37.3182091,-121.9740919,12.43699966663084,0.0014142134,0.099,32.634308,1628109951000
Fix,GT,37.3182091,-121.9740919,12.436999868968908,0.0014142136,0.1,32.634094,1628109952000
Fix,GT,37.3182091,-121.9740919,12.436999822637471,0.0014142136,0.1,32.634308,1628109953000
Fix,GT,37.3182091,-121.9740919,12.436999900821773,0.0014142136,0.1,32.634277,1628109954000
Fix,GT,37.3182091,-121.9740919,12.43699997900607,0.0014141025,0.1,32.63434,1628109955000
Fix,GT,37.3182091,-121.9740919,12.437000181344134,0.0010001097,0.1,32.633972,1628109956000
Fix,GT,37.3182091,-121.9740919,12.4370001350127,0.001,0.1,32.634033,1628109957000
Fix,GT,37.3182091,-121.9740919,12.437000213196995,0.0019998492,0.1,32.63391,1628109958000
Fix,GT,37.3182091,-121.9740919,12.436999674232094,0.0014142136,0.1,32.634186,1628109959000
Fix,GT,37.3182091,-121.9740919,12.43699975241639,0.0014142136,0.1,32.634186,1628109960000
Fix,GT,37.3182091,-121.9740919,12.436999830600689,0.0014144162,0.099,32.634277,1628109961000
Fix,GT,37.3182091,-121.9740919,12.436999908604005,0.001,0.1,32.63446,1628109962000
Fix,GT,37.3182091,-121.9740919,12.4369999867883,0.001,0.1,32.6344,1628109963000
Fix,GT,37.3182091,-121.9740919,12.437000064791617,0.001,0.1,32.6344,1628109964000
Fix,GT,37.3182091,-121.9740919,12.437000142975911,0.001,0.1,32.634277,1628109965000
Fix,GT,37.3182091,-121.9740919,12.437000220979227,0.001,0.1,32.63446,1628109966000
Fix,GT,37.3182091,-121.9740919,12.437000174647793,0.0014142136,0.1,32.634644,1628109967000
Fix,GT,37.3182091,-121.9740919,12.436999635863875,0.0014141216,0.1,32.634735,1628109968000
Fix,GT,37.3182091,-121.9740919,12.436999838382922,0.005001058,0.1,32.634033,1628109969000
Fix,GT,37.3182117,-121.9740896,12.418999521227551,1.0103669,0.1,32.860596,1628109970000
Fix,GT,37.3182262,-121.9740769,12.40199990756066,2.7920804,0.1,34.187042,1628109971000
Fix,GT,37.3182498,-121.9740613,12.382001771972671,2.9172065,0.1,27.771637,1628109972000
Fix,GT,37.3182764,-121.9740632,12.365999050302433,2.6158986,0.1,0.2522583,1628109973000
Fix,GT,37.318297,-121.9740844,12.318998901755911,2.727287,0.1,326.94702,1628109974000
Fix,GT,37.318305,-121.9741199,12.255999196225078,3.1091835,0.1,290.14288,1628109975000
Fix,GT,37.3182924,-121.9741585,12.199999843586804,3.6274433,0.1,249.36325,1628109976000
Fix,GT,37.3182578,-121.9741889,12.214000729428866,5.3274016,0.1,214.44182,1628109977000
Fix,GT,37.3182031,-121.9742152,12.290002280289889,7.4339256,0.1,201.09512,1628109978000
Fix,GT,37.3181351,-121.9742509,12.41700322830386,8.808983,0.1,203.68855,1628109979000
Fix,GT,37.3180596,-121.9742986,12.52100247804777,10.036913,0.1,207.2848,1628109980000
Fix,GT,37.3179767,-121.9743557,12.670001588277898,10.866414,0.1,209.79282,1628109981000
Fix,GT,37.3178919,-121.9744207,12.772002225705773,11.09998,0.1,212.09167,1628109982000
Fix,GT,37.3178072,-121.9744901,12.849000914158212,11.52312,0.1,213.53316,1628109983000
Fix,GT,37.3177189,-121.9745642,12.966001602107015,11.865649,0.1,213.75128,1628109984000
Fix,GT,37.317631,-121.9746379,13.057000526713644,11.600807,0.099,213.70935,1628109985000
Fix,GT,37.3175431,-121.9747076,13.151999171643284,11.554102,0.1,210.81975,1628109986000
Fix,GT,37.3174492,-121.9747688,13.132001269937012,11.9783945,0.1,206.25993,1628109987000
Fix,GT,37.3173521,-121.9748329,13.268001735882804,12.386356,0.1,209.22238,1628109988000
Fix,GT,37.3172567,-121.9749062,13.351001123354074,12.383695,0.1,212.4371,1628109989000
Fix,GT,37.3171651,-121.9749827,13.45700046164333,12.036079,0.1,214.03922,1628109990000
Fix,GT,37.3170774,-121.9750588,13.516000802826136,11.625406,0.1,214.76173,1628109991000
Fix,GT,37.3169948,-121.9751303,13.634001265670756,10.383581,0.1,214.43927,1628109992000
Fix,GT,37.3169223,-121.9751852,13.700001054983105,8.484455,0.1,207.71704,1628109993000
Fix,GT,37.3168529,-121.9752087,13.834003062712553,7.6426535,0.1,189.49312,1628109994000
Fix,GT,37.3167851,-121.9751967,13.872999892196765,7.4278617,0.099,165.18445,1628109995000
Fix,GT,37.3167274,-121.9751483,13.777996947689914,8.021151,0.1,139.46066,1628109996000
Fix,GT,37.3166858,-121.9750647,13.743001859706732,9.267696,0.1,115.49536,1628109997000
Fix,GT,37.3166562,-121.9749565,13.916001898187565,10.97171,0.099,106.87085,1628109998000
Fix,GT,37.3166281,-121.9748266,14.09700105037837,12.879693,0.1,104.69043,1628109999000
Fix,GT,37.3165971,-121.9746742,14.213001491093818,14.99819,0.1,103.859985,1628110000000
Fix,GT,37.3165633,-121.9744998,14.208998854765538,16.683926,0.099,103.38336,1628110001000
Fix,GT,37.3165271,-121.974311,14.116998650017951,17.647875,0.1,103.408875,1628110002000
Fix,GT,37.3164892,-121.9741136,14.005998924600863,18.368744,0.1,103.70056,1628110003000
Fix,GT,37.3164485,-121.9739081,13.886998589533608,19.233381,0.1,103.91644,1628110004000
Fix,GT,37.3164053,-121.9736907,13.801999222116718,20.48345,0.1,103.85721,1628110005000
Fix,GT,37.316362,-121.9734638,13.710999257128629,20.69531,0.1,103.21155,1628110006000
Fix,GT,37.3163216,-121.9732362,13.601999480759842,20.595175,0.1,101.7507,1628110007000
Fix,GT,37.3162876,-121.973009,13.498998908588954,20.372097,0.1,99.467224,1628110008000
Fix,GT,37.3162604,-121.9727833,13.351999115052807,20.043549,0.1,97.63034,1628110009000
Fix,GT,37.3162388,-121.9725609,13.27099931315551,19.699263,0.1,96.40097,1628110010000
Fix,GT,37.3162209,-121.9723413,13.143000261507956,19.41854,0.1,95.405914,1628110011000
Fix,GT,37.3162061,-121.9721242,13.184000270799734,19.238554,0.1,94.488495,1628110012000
Fix,GT,37.3161935,-121.9719087,13.377001179350344,19.053558,0.1,94.37045,1628110013000
Fix,GT,37.3161801,-121.9716951,13.548001802046697,18.9304,0.1,94.555725,1628110014000
Fix,GT,37.3161661,-121.9714811,13.687000651338282,19.171217,0.099,94.779236,1628110015000
Fix,GT,37.3161517,-121.9712629,13.793000356735456,19.68056,0.1,94.651,1628110016000
Fix,GT,37.316138,-121.9710385,13.883000695430193,20.218496,0.1,94.04697,1628110017000
Fix,GT,37.3161264,-121.9708076,13.956000105021031,20.816532,0.1,93.18347,1628110018000
Fix,GT,37.3161175,-121.9705689,13.946999539222205,21.528406,0.1,92.22131,1628110019000
Fix,GT,37.3161125,-121.9703214,13.897000049661992,22.421642,0.1,90.615875,1628110020000
Fix,GT,37.3161129,-121.9700625,13.818999507055056,23.475159,0.1,89.35541,1628110021000
Fix,GT,37.3161175,-121.969792,13.563998932045571,24.438318,0.1,88.22244,1628110022000
Fix,GT,37.3161262,-121.969511,13.125998959141622,25.41931,0.1,87.30768,1628110023000
Fix,GT,37.3161369,-121.9692194,12.668998806475065,26.333473,0.1,87.38553,1628110024000
Fix,GT,37.3161468,-121.9689178,12.428999770678912,27.170303,0.1,87.79755,1628110025000
Fix,GT,37.3161558,-121.9686073,12.284999520105035,27.917881,0.1,87.87027,1628110026000
Fix,GT,37.3161649,-121.9682886,12.171999819691456,28.605158,0.1,87.83777,1628110027000
Fix,GT,37.3161749,-121.9679625,12.20700025190678,29.25312,0.1,87.55081,1628110028000
Fix,GT,37.3161859,-121.9676314,12.449000517635277,29.345734,0.1,87.62283,1628110029000
Fix,GT,37.3161965,-121.9673006,12.87299974360051,29.35733,0.1,87.557495,1628110030000
Fix,GT,37.3162072,-121.9669698,13.490999792814254,29.352575,0.1,87.59689,1628110030999
Fix,GT,37.3162175,-121.9666395,14.267999527275563,29.208597,0.1,87.730225,1628110031999
Fix,GT,37.3162272,-121.9663116,15.03199932551384,28.922705,0.1,87.86606,1628110032999
Fix,GT,37.3162362,-121.9659878,15.601999202489854,28.543692,0.1,87.87796,1628110033999
Fix,GT,37.3162455,-121.9656672,16.077999327659608,28.346357,0.1,87.80884,1628110034999
Fix,GT,37.3162553,-121.9653485,16.459999245762827,28.208126,0.1,87.61902,1628110035999
Fix,GT,37.3162656,-121.965031,16.768999306857584,28.132584,0.1,87.608215,1628110036999
Fix,GT,37.3162756,-121.9647145,16.9589993391037,27.954063,0.1,87.75647,1628110037999
Fix,GT,37.3162838,-121.9644013,17.25499944102764,27.641754,0.1,88.36633,1628110038999
Fix,GT,37.3162903,-121.9640895,17.192999135732652,27.746729,0.1,88.57245,1628110039999
Fix,GT,37.3162935,-121.963775,17.092000686645505,28.018679,0.1,89.666626,1628110040999
Fix,GT,37.3162925,-121.9634574,16.81800254148245,28.299686,0.1,90.64865,1628110041999
Fix,GT,37.3162886,-121.9631366,16.451001445770267,28.562134,0.1,90.95798,1628110042999
Fix,GT,37.3162838,-121.9628129,15.973002782523633,28.83579,0.1,91.06433,1628110043999
Fix,GT,37.3162785,-121.962486,15.389002878308297,29.119774,0.1,91.02637,1628110044999
Fix,GT,37.3162741,-121.9621562,14.789003853619098,29.354296,0.1,90.74344,1628110045999
Fix,GT,37.3162702,-121.9618237,14.004005467176436,29.605137,0.1,90.71222,1628110046999
Fix,GT,37.3162663,-121.9614879,13.178005990862848,29.932487,0.1,90.80301,1628110047999
Fix,GT,37.3162619,-121.9611485,12.412004593908788,30.244936,0.1,90.83539,1628110048999
Fix,GT,37.3162583,-121.9608058,11.8740031542778,30.494816,0.1,90.49051,1628110049999
Fix,GT,37.3162554,-121.9604608,11.528001031398771,30.68149,0.1,90.693115,1628110050999
Fix,GT,37.3162508,-121.9601135,11.398999536871909,30.897865,0.1,90.98886,1628110051999
Fix,GT,37.3162454,-121.959764,11.447999110937118,31.05149,0.1,91.011566,1628110052999
Fix,GT,37.3162408,-121.9594139,11.661999409615994,30.97263,0.1,90.8165,1628110053999
Fix,GT,37.3162367,-121.9590664,11.804998945713043,30.620884,0.1,90.70999,1628110054999
Fix,GT,37.3162343,-121.958723,11.83800027412176,30.250208,0.1,90.083435,1628110055999
Fix,GT,37.3162358,-121.9583838,11.810000379800796,29.898848,0.1,89.23334,1628110056999
Fix,GT,37.3162402,-121.9580483,11.745001181602476,29.565655,0.1,88.77478,1628110057999
Fix,GT,37.3162472,-121.9577166,11.715000816822052,29.238022,0.1,88.01611,1628110058999
Fix,GT,37.3162581,-121.9573891,11.68899989438057,28.875664,0.1,87.1752,1628110059999
Fix,GT,37.3162721,-121.9570657,11.630001309633256,28.534748,0.1,86.52307,1628110060999
Fix,GT,37.3162886,-121.9567463,11.582000788986685,28.200624,0.1,86.04697,1628110061999
Fix,GT,37.3163071,-121.9564309,11.537001975893975,27.863518,0.1,85.31143,1628110062999
Fix,GT,37.316329,-121.9561194,11.34500251466036,27.577555,0.1,84.723694,1628110063999
Fix,GT,37.316352,-121.9558112,11.113002837777138,27.30536,0.1,84.46445,1628110064999
Fix,GT,37.316375,-121.955506,10.882003172457216,27.029993,0.1,84.76114,1628110065999
Fix,GT,37.3163956,-121.955204,10.764999869585038,26.711035,0.1,85.335846,1628110066999
Fix,GT,37.3164119,-121.9549053,10.714000133931636,26.368013,0.1,86.71893,1628110067999
Fix,GT,37.3164229,-121.9546101,10.635000137507916,26.036179,0.1,87.71265,1628110068999
Fix,GT,37.3164297,-121.9543185,10.612001269221306,25.687532,0.1,88.674194,1628110069999
Fix,GT,37.3164341,-121.9540305,10.41900390261412,25.399559,0.1,88.64642,1628110070999
Fix,GT,37.3164385,-121.9537457,10.370000148177146,25.06634,0.1,88.887024,1628110071999
Fix,GT,37.3164431,-121.9534657,10.448995904266834,24.56801,0.1,88.64215,1628110072999
Fix,GT,37.3164481,-121.9531923,10.5929968957901,23.853588,0.1,88.47949,1628110073999
Fix,GT,37.3164536,-121.9529284,10.735998570919037,22.819365,0.1,88.38858,1628110074999
Fix,GT,37.3164583,-121.9526791,10.87899853926897,21.395798,0.1,88.741455,1628110075999
Fix,GT,37.316462,-121.9524473,11.015996517777443,19.581203,0.1,88.79428,1628110076999
Fix,GT,37.3164657,-121.9522372,11.133997966527938,17.768385,0.1,88.45508,1628110077999
Fix,GT,37.316469,-121.9520493,11.258998270273208,15.480758,0.1,89.01251,1628110078999
Fix,GT,37.3164685,-121.9518878,11.328998764574528,13.025624,0.1,91.47519,1628110079999
Fix,GT,37.3164583,-121.9517564,11.340000720024108,10.413375,0.1,98.471375,1628110080999
Fix,GT,37.3164389,-121.9516566,11.302000367164611,8.099757,0.1,106.0925,1628110081999
Fix,GT,37.3164146,-121.9515854,11.25900018709898,5.64482,0.1,116.09296,1628110082999
Fix,GT,37.3163909,-121.9515432,11.21500171661377,3.7923293,0.1,125.50522,1628110083999
Fix,GT,37.3163715,-121.9515144,11.15200135976076,3.0831943,0.1,129.84409,1628110084999
Fix,GT,37.316351,-121.9514906,11.08600158262253,3.1862273,0.1,136.09375,1628110085999
Fix,GT,37.3163287,-121.9514705,11.02200120806694,2.8901978,0.1,143.12607,1628110086999
Fix,GT,37.3163078,-121.9514562,10.971000819444656,2.386102,0.1,149.64792,1628110087999
Fix,GT,37.316291,-121.9514474,10.944000416755676,1.6566344,0.1,154.55878,1628110088999
Fix,GT,37.3162794,-121.9514426,10.927000212013722,1.0842143,0.1,158.35736,1628110089999
Fix,GT,37.3162735,-121.9514405,10.916,0.28526124,0.1,159.91187,1628110090999
Fix,GT,37.3162729,-121.9514403,10.91,0.012084012,0.1,160.0531,1628110091999
Fix,GT,37.3162729,-121.9514403,10.91,0.0014141214,0.1,160.05579,1628110092999
Fix,GT,37.3162729,-121.9514403,10.91,0.0,0.1,160.05609,1628110093999
Fix,GT,37.3162729,-121.9514403,10.91,0.001,0.1,160.05634,1628110094999
Fix,GT,37.3162729,-121.9514403,10.91,0.0014138836,0.1,160.0564,1628110095999
Fix,GT,37.3162729,-121.9514403,10.91,0.001,0.1,160.05603,1628110096999
Fix,GT,37.3162729,-121.9514403,10.91,0.002,0.1,160.05591,1628110097999
Fix,GT,37.3162729,-121.9514403,10.91,0.001,0.1,160.05585,1628110098999
Fix,GT,37.3162729,-121.9514403,10.91,0.0,0.1,160.05568,1628110099999
Fix,GT,37.3162729,-121.9514403,10.91,2.5093556e-07,0.1,160.0553,1628110100999
Fix,GT,37.3162729,-121.9514403,10.91,3.598498e-07,0.1,160.0553,1628110101999
Fix,GT,37.3162729,-121.9514403,10.91,0.0010001069,0.1,160.05505,1628110102999
Fix,GT,37.3162729,-121.9514403,10.91,2.616048e-07,0.1,160.05524,1628110103999
Fix,GT,37.3162729,-121.9514403,10.91,0.000999735,0.1,160.05548,1628110104999
Fix,GT,37.3162729,-121.9514403,10.91,0.0009997314,0.1,160.05566,1628110105999
Fix,GT,37.3162729,-121.9514403,10.909,0.0010001127,0.1,160.05573,1628110106999
Fix,GT,37.3162721,-121.95144,10.900000275671482,0.41640133,0.1,160.2038,1628110107999
Fix,GT,37.3162613,-121.9514352,10.87100111722946,2.2499795,0.1,160.20465,1628110108999
Fix,GT,37.3162354,-121.951421,10.820000848472118,3.951342,0.1,156.78625,1628110109999
Fix,GT,37.3162003,-121.9513925,10.83099284148216,5.194491,0.1,146.14609,1628110110999
Fix,GT,37.316165,-121.951345,11.098994201660156,5.8837724,0.1,129.91412,1628110111999
Fix,GT,37.3161399,-121.9512865,11.181998826265335,5.6786957,0.1,115.13934,1628110112999
Fix,GT,37.3161296,-121.9512242,11.23399881219864,5.4565487,0.1,99.28885,1628110113999
Fix,GT,37.3161282,-121.9511587,11.228999399065971,6.3441586,0.1,91.24133,1628110114999
Fix,GT,37.3161287,-121.9510775,11.247999088048934,8.063237,0.1,89.568756,1628110115999
Fix,GT,37.3161279,-121.950978,11.28299876999855,9.524985,0.1,90.94867,1628110116999
Fix,GT,37.3161255,-121.950864,11.30499906694889,10.542488,0.1,91.4946,1628110117999
Fix,GT,37.3161222,-121.9507434,11.332998741865158,10.749518,0.1,92.1673,1628110118999
Fix,GT,37.3161186,-121.9506231,11.368,10.548076,0.1,92.094604,1628110119999
Fix,GT,37.3161149,-121.9505063,11.372999356627464,10.175035,0.1,92.32672,1628110120999
Fix,GT,37.3161118,-121.9503941,11.375999674797058,9.665222,0.1,91.31677,1628110121999
Fix,GT,37.3161169,-121.9502907,11.386002958476544,8.602173,0.1,82.63495,1628110122999
Fix,GT,37.3161439,-121.9502047,11.407,7.8463016,0.1,61.9924,1628110123999
Fix,GT,37.3161922,-121.9501398,11.393001343250276,7.752948,0.1,41.217163,1628110124999
Fix,GT,37.31626,-121.9501069,11.314002036333084,8.344141,0.1,12.848389,1628110125999
Fix,GT,37.3163412,-121.9501061,11.266002400755882,9.664559,0.1,359.08154,1628110126999
Fix,GT,37.3164335,-121.9501086,11.2329996535182,10.534945,0.1,358.72928,1628110127999
Fix,GT,37.3165288,-121.9501108,11.222003849983215,10.671425,0.1,358.8311,1628110128999
Fix,GT,37.3166253,-121.9501132,11.164002474606038,10.689085,0.1,358.8648,1628110129999
Fix,GT,37.3167208,-121.9501147,11.074001071274282,10.494411,0.1,359.44806,1628110130999
Fix,GT,37.3168117,-121.9501152,11.070000721335411,9.57317,0.1,359.6439,1628110131999
Fix,GT,37.3168924,-121.9501157,10.996002913475037,8.32817,0.1,359.61353,1628110132999
Fix,GT,37.3169604,-121.9501162,10.943000735402109,6.5882115,0.1,359.5887,1628110133999
Fix,GT,37.3170086,-121.9501167,10.934,4.065173,0.1,359.52475,1628110134999
Fix,GT,37.3170347,-121.9501169,10.922000749588012,1.9901276,0.1,359.5084,1628110135999
Fix,GT,37.317046,-121.9501169,10.91800037831068,0.57207114,0.1,359.5723,1628110136999
Fix,GT,37.3170476,-121.9501169,10.911000381827357,0.023995815,0.1,359.58582,1628110137999
Fix,GT,37.3170476,-121.9501169,10.913,0.0022352063,0.1,359.5851,1628110138999
Fix,GT,37.3170476,-121.9501169,10.913,0.0014140524,0.1,359.5847,1628110139999
Fix,GT,37.3170476,-121.9501169,10.913,3.9249662e-07,0.1,359.585,1628110140999
Fix,GT,37.3170476,-121.9501169,10.913,0.0014142136,0.1,359.58505,1628110141999
Fix,GT,37.3170476,-121.9501169,10.913,0.001,0.1,359.58496,1628110142999
Fix,GT,37.3170476,-121.9501169,10.913,0.001,0.1,359.5851,1628110143999
Fix,GT,37.3170476,-121.9501169,10.913,0.0,0.1,359.5849,1628110144999
Fix,GT,37.3170476,-121.9501169,10.913,0.0,0.1,359.58505,1628110145999
Fix,GT,37.3170476,-121.9501169,10.913,0.0009995864,0.1,359.58517,1628110146999
Fix,GT,37.3170476,-121.9501169,10.913,4.1717294e-07,0.1,359.58505,1628110147999
Fix,GT,37.3170476,-121.9501169,10.913,0.0009995793,0.1,359.58484,1628110148999
Fix,GT,37.3170476,-121.9501169,10.913,0.0009995757,0.1,359.58478,1628110149999
Fix,GT,37.3170476,-121.9501169,10.913,0.001,0.1,359.58337,1628110150999
Fix,GT,37.3170476,-121.9501169,10.913,0.0010001787,0.1,359.5844,1628110151999
Fix,GT,37.3170476,-121.9501169,10.913,0.0009995651,0.1,359.58502,1628110152999
Fix,GT,37.3170476,-121.9501169,10.913,4.384518e-07,0.1,359.58517,1628110153999
Fix,GT,37.3170476,-121.9501169,10.914,4.4202807e-07,0.1,359.5859,1628110154999
Fix,GT,37.3170476,-121.9501169,10.915,8.910895e-07,0.1,359.58514,1628110155999
Fix,GT,37.3170481,-121.9501169,10.910999550938604,0.2459854,0.1,359.5919,1628110156999
Fix,GT,37.3170491,-121.9501169,10.912000452578068,0.0070729274,0.1,359.5934,1628110157999
Fix,GT,37.3170491,-121.9501169,10.912,0.002236338,0.1,359.59448,1628110158999
Fix,GT,37.3170491,-121.9501169,10.912,0.002,0.1,359.59464,1628110159999
Fix,GT,37.3170491,-121.9501169,10.912,0.0022364971,0.1,359.59436,1628110160999
Fix,GT,37.3170491,-121.9501169,10.912,0.002236068,0.1,359.59262,1628110161999
Fix,GT,37.3170491,-121.9501169,10.912,0.0014140188,0.1,359.59277,1628110162999
Fix,GT,37.3170491,-121.9501169,10.912,0.0014142136,0.1,359.59302,1628110163999
Fix,GT,37.3170491,-121.9501169,10.912,0.001,0.1,359.59274,1628110164999
Fix,GT,37.3170491,-121.9501169,10.912,0.0014140144,0.1,359.5927,1628110165999
Fix,GT,37.3170491,-121.9501169,10.912,0.0014140129,0.1,359.59274,1628110166999
Fix,GT,37.3170491,-121.9501169,10.912,0.001,0.1,359.59274,1628110167999
Fix,GT,37.3170491,-121.9501169,10.912,0.001,0.1,359.5927,1628110168999
Fix,GT,37.3170491,-121.9501169,10.912,0.001,0.1,359.59293,1628110169999
Fix,GT,37.3170491,-121.9501169,10.912,4.9853327e-07,0.1,359.59305,1628110170999
Fix,GT,37.3170491,-121.9501169,10.912,0.0010005021,0.1,359.59293,1628110171999
Fix,GT,37.3170491,-121.9501169,10.912,0.0009994943,0.1,359.593,1628110172999
Fix,GT,37.3170491,-121.9501169,10.912,0.0022354387,0.1,359.59314,1628110173999
Fix,GT,37.3170491,-121.9501169,10.912,5.1271917e-07,0.1,359.59283,1628110174999
Fix,GT,37.3170491,-121.9501169,10.912,0.0010002139,0.1,359.593,1628110175999
Fix,GT,37.3170491,-121.9501169,10.912,0.0014142136,0.1,359.59308,1628110176999
Fix,GT,37.3170491,-121.9501169,10.912,0.0014142136,0.1,359.5932,1628110177999
Fix,GT,37.3170491,-121.9501169,10.912,0.001,0.1,359.59308,1628110178999
Fix,GT,37.3170491,-121.9501169,10.912,0.001,0.1,359.59323,1628110179999
Fix,GT,37.3170491,-121.9501169,10.912,0.001,0.1,359.5933,1628110180999
Fix,GT,37.3170491,-121.9501169,10.912,0.001,0.1,359.59344,1628110181999
Fix,GT,37.3170491,-121.9501169,10.912,0.001,0.1,359.59363,1628110182999
Fix,GT,37.3170491,-121.9501169,10.912,0.001,0.1,359.5936,1628110183999
Fix,GT,37.3170491,-121.9501169,10.912,0.001,0.1,359.5935,1628110184999
Fix,GT,37.3170491,-121.9501169,10.912,0.001413985,0.1,359.59332,1628110185999
Fix,GT,37.3170491,-121.9501169,10.912,0.00100023,0.1,359.59332,1628110186999
Fix,GT,37.3170491,-121.9501169,10.912,0.0009994415,0.1,359.59348,1628110187999
Fix,GT,37.3170491,-121.9501169,10.912,0.001,0.1,359.5938,1628110188999
Fix,GT,37.3170491,-121.9501169,10.912,0.0014134136,0.1,359.5938,1628110189999
Fix,GT,37.3170491,-121.9501169,10.912,0.0014139777,0.1,359.5938,1628110190999
Fix,GT,37.3170491,-121.9501169,10.912,0.0010002373,0.1,359.59378,1628110191999
Fix,GT,37.3170491,-121.9501169,10.912,0.001,0.1,359.59348,1628110192999
Fix,GT,37.3170491,-121.9501169,10.912,0.0014142136,0.1,359.5933,1628110193999
Fix,GT,37.3170491,-121.9501169,10.912,0.0014142136,0.1,359.5933,1628110194999
Fix,GT,37.3170491,-121.9501169,10.912,0.0014142136,0.1,359.59332,1628110195999
Fix,GT,37.3170491,-121.9501169,10.912,0.0022355828,0.1,359.59363,1628110196999
Fix,GT,37.3170491,-121.9501169,10.912,0.0014142136,0.1,359.59363,1628110197999
Fix,GT,37.3170491,-121.9501169,10.912,0.0014142136,0.1,359.5934,1628110198999
Fix,GT,37.3170491,-121.9501169,10.912,0.001,0.1,359.59393,1628110199999
Fix,GT,37.3170491,-121.9501169,10.912,0.0022353206,0.1,359.59372,1628110200999
Fix,GT,37.3170491,-121.9501169,10.912,0.0014142136,0.1,359.59393,1628110201999
Fix,GT,37.3170491,-121.9501169,10.912,0.001,0.1,359.5937,1628110202999
Fix,GT,37.3170491,-121.9501169,10.912,0.001,0.1,359.59427,1628110203999
Fix,GT,37.3170491,-121.9501169,10.912,0.001,0.1,359.59357,1628110204999
Fix,GT,37.3170491,-121.9501169,10.911,0.0010002578,0.1,359.59357,1628110205999
Fix,GT,37.3170491,-121.9501169,10.91,6.257892e-07,0.1,359.5935,1628110206999
Fix,GT,37.3170502,-121.9501169,10.90100062930584,0.4889406,0.1,359.59525,1628110207999
Fix,GT,37.3170616,-121.950117,10.888000632822514,1.9959519,0.1,359.5891,1628110208999
Fix,GT,37.3170867,-121.9501172,10.863001272678376,3.7480104,0.1,359.5652,1628110209999
Fix,GT,37.317129,-121.9501187,10.850000639855862,5.6665998,0.1,357.61667,1628110210999
Fix,GT,37.3171852,-121.9501382,10.855001286745072,6.8093467,0.1,339.76352,1628110211999
Fix,GT,37.3172365,-121.9501913,10.760003881692889,7.7510996,0.1,314.07343,1628110212999
Fix,GT,37.3172691,-121.9502773,10.663013009309768,9.110777,0.1,288.4649,1628110213999
Fix,GT,37.3172764,-121.9503909,10.429008501768111,10.943231,0.1,269.3505,1628110214999
Fix,GT,37.3172658,-121.9505247,10.467994082510472,12.839751,0.1,263.47958,1628110215999
Fix,GT,37.3172522,-121.9506803,10.531994050860405,14.929518,0.1,263.71265,1628110216999
Fix,GT,37.3172372,-121.9508593,10.537003322660922,16.906082,0.1,264.0808,1628110217999
Fix,GT,37.3172216,-121.9510587,10.56099599134922,18.61661,0.1,264.30374,1628110218999
Fix,GT,37.3172041,-121.9512748,10.589994626998902,19.918823,0.1,263.92102,1628110219999
Fix,GT,37.3171848,-121.9515055,10.600997974395751,21.180225,0.1,263.88342,1628110220999
Fix,GT,37.3171639,-121.9517493,10.57699185538292,22.284267,0.1,263.57288,1628110221999
Fix,GT,37.3171393,-121.9520042,10.52900136446953,23.192755,0.1,262.56323,1628110222999
Fix,GT,37.3171115,-121.9522649,10.493006171762945,23.30167,0.1,262.24268,1628110223999
Fix,GT,37.317083,-121.9525264,10.433004824876784,23.515402,0.1,262.05957,1628110224999
Fix,GT,37.3170538,-121.952791,10.393003463923932,23.889791,0.1,261.94894,1628110225999
Fix,GT,37.3170225,-121.9530603,10.342002785205842,24.324968,0.1,261.51328,1628110226999
Fix,GT,37.3169905,-121.9533342,10.295006298363209,24.758957,0.1,261.60577,1628110227999
Fix,GT,37.3169582,-121.9536133,10.194999296665191,25.244808,0.1,261.64227,1628110228999
Fix,GT,37.3169253,-121.9538978,10.3469830327034,25.69573,0.1,261.76892,1628110229999
Fix,GT,37.3168925,-121.9541858,10.463982237815856,25.862562,0.1,261.87146,1628110230999
Fix,GT,37.3168597,-121.9544749,10.592995001971724,25.900042,0.1,261.82953,1628110231999
Fix,GT,37.3168262,-121.9547644,10.663989237189291,25.949001,0.1,261.46036,1628110232999
Fix,GT,37.3167933,-121.9550534,10.719998557925225,25.750305,0.1,262.13367,1628110233999
Fix,GT,37.3167639,-121.9553398,10.78399565267563,25.449734,0.1,262.88104,1628110234999
Fix,GT,37.3167361,-121.9556235,10.81300072813034,25.32316,0.1,262.45496,1628110235999
Fix,GT,37.3167058,-121.9559062,10.883994878053665,25.177105,0.1,262.1051,1628110236999
Fix,GT,37.3166734,-121.9561868,10.93899779433012,25.17045,0.1,261.3086,1628110237999
Fix,GT,37.3166391,-121.9564697,11.026990396380423,25.502531,0.1,261.344,1628110238999
Fix,GT,37.3166068,-121.956756,11.103991092920303,25.762396,0.1,263.0679,1628110239999
Fix,GT,37.3165884,-121.9570445,11.145003728866577,25.643553,0.1,266.89523,1628110240999
Fix,GT,37.3165802,-121.9573359,11.158006743609905,26.116613,0.1,268.45087,1628110241999
Fix,GT,37.3165758,-121.9576331,11.194996988773347,26.64427,0.1,269.0627,1628110242999
Fix,GT,37.3165719,-121.9579382,11.21000680691004,27.453262,0.1,268.9786,1628110243999
Fix,GT,37.3165687,-121.9582506,11.265993921279907,27.891312,0.1,269.36414,1628110244999
Fix,GT,37.3165672,-121.9585673,11.284003816783429,28.274118,0.1,269.77954,1628110245999
Fix,GT,37.3165679,-121.9588881,11.343993098139762,28.587498,0.1,270.35822,1628110246999
Fix,GT,37.3165713,-121.9592118,11.374001541018483,28.866983,0.1,270.9038,1628110247999
Fix,GT,37.3165767,-121.9595395,11.405994582653046,29.219753,0.1,271.21396,1628110248999
Fix,GT,37.316583,-121.9598707,11.42,29.565153,0.1,271.28442,1628110249999
Fix,GT,37.316589,-121.9602064,11.50699687576294,29.950354,0.1,271.066,1628110250999
Fix,GT,37.316595,-121.9605459,11.66497960102558,30.250208,0.1,270.96213,1628110251999
Fix,GT,37.3166002,-121.9608888,12.072959019184111,30.56006,0.1,270.95813,1628110252999
Fix,GT,37.3166053,-121.9612344,12.65594775378704,30.555237,0.1,271.00662,1628110253999
Fix,GT,37.3166105,-121.9615761,13.446917306900025,30.003565,0.1,270.927,1628110254999
Fix,GT,37.3166156,-121.9619111,14.28893929862976,29.398531,0.1,270.90585,1628110255999
Fix,GT,37.3166204,-121.9622394,15.031935822486878,28.797668,0.1,270.95862,1628110256999
Fix,GT,37.3166252,-121.9625609,15.7309460157156,28.221682,0.1,271.0473,1628110257999
Fix,GT,37.3166298,-121.9628761,16.385952254116535,27.66192,0.1,270.89844,1628110258999
Fix,GT,37.316634,-121.9631853,16.797988620400428,27.185581,0.1,271.01297,1628110259999
Fix,GT,37.3166375,-121.9634892,17.214943672180176,26.688505,0.1,270.5188,1628110260999
Fix,GT,37.3166383,-121.963788,17.438005739033223,26.278072,0.1,269.80994,1628110261999
Fix,GT,37.3166367,-121.9640833,17.61298847270012,26.182264,0.1,269.29816,1628110262999
Fix,GT,37.3166317,-121.9643791,17.61103059512377,26.1434,0.1,268.32642,1628110263999
Fix,GT,37.316624,-121.9646733,17.456013286590576,26.04804,0.1,267.8841,1628110264999
Fix,GT,37.3166151,-121.9649673,17.390013343811034,26.127499,0.1,267.64185,1628110265999
Fix,GT,37.3166053,-121.9652629,17.087032662689687,26.348963,0.1,267.45068,1628110266999
Fix,GT,37.316595,-121.9655615,16.65904121005535,26.622675,0.1,267.4884,1628110267999
Fix,GT,37.3165852,-121.9658627,16.1780430714488,26.799168,0.1,267.64316,1628110268999
Fix,GT,37.3165761,-121.9661646,15.673044098854064,26.743187,0.1,267.8164,1628110269999
Fix,GT,37.3165669,-121.9664664,15.093050242722034,26.845406,0.1,267.63477,1628110270999
Fix,GT,37.3165573,-121.96677,14.402065846383572,27.014185,0.1,267.62823,1628110271999
Fix,GT,37.3165475,-121.9670751,13.67006268250942,27.11364,0.1,267.46582,1628110272999
Fix,GT,37.3165368,-121.9673806,13.100042246878148,27.057035,0.1,267.31958,1628110273999
Fix,GT,37.3165255,-121.9676848,12.69102250814438,26.913342,0.1,267.19928,1628110274999
Fix,GT,37.3165141,-121.9679868,12.474012169837952,26.672937,0.1,267.33368,1628110275999
Fix,GT,37.3165041,-121.9682858,12.41199738162756,26.36702,0.1,268.09174,1628110276999
Fix,GT,37.3165007,-121.9685799,12.515993865847587,25.727077,0.1,270.1316,1628110277999
Fix,GT,37.3165054,-121.9688659,12.58899472141266,25.03992,0.1,271.7815,1628110278999
Fix,GT,37.3165156,-121.9691455,12.65199204993248,24.653849,0.1,273.28705,1628110279999
Fix,GT,37.3165321,-121.9694228,12.64300443428755,24.748667,0.1,274.97803,1628110280999
Fix,GT,37.3165545,-121.9697027,12.6830053422451,25.136246,0.1,276.0443,1628110281999
Fix,GT,37.3165764,-121.9699853,12.61401162058115,25.093784,0.1,274.30176,1628110282999
Fix,GT,37.3165911,-121.9702665,12.5540098721385,24.811218,0.1,273.08765,1628110283999
Fix,GT,37.316603,-121.9705442,12.505004504919052,24.48527,0.1,272.9282,1628110284999
Fix,GT,37.3166156,-121.9708176,12.445012663006782,24.056389,0.1,273.5191,1628110285999
Fix,GT,37.3166319,-121.971085,12.314022700428962,23.457418,0.1,274.93518,1628110286999
Fix,GT,37.3166537,-121.9713441,12.18401093840599,22.765882,0.1,276.58246,1628110287999
Fix,GT,37.3166804,-121.9715949,12.006031111717226,22.065039,0.1,278.40527,1628110288999
Fix,GT,37.3167125,-121.9718365,11.752023882746697,21.523401,0.1,280.08624,1628110289999
Fix,GT,37.3167509,-121.9720724,11.404034117102624,21.20194,0.1,282.71722,1628110290999
Fix,GT,37.3168001,-121.9723024,10.925056461632254,21.059832,0.1,286.6674,1628110291999
Fix,GT,37.3168613,-121.9725266,10.35204645884037,20.994705,0.1,290.26276,1628110292999
Fix,GT,37.3169315,-121.9727454,9.94900559616089,20.828402,0.1,293.2709,1628110293999
Fix,GT,37.3170101,-121.9729568,9.77900187253952,20.543581,0.1,295.8581,1628110294999
Fix,GT,37.317093,-121.9731613,10.00597274619341,20.102283,0.1,297.34772,1628110295999
Fix,GT,37.317175,-121.9733592,10.4739424585104,19.27554,0.1,297.189,1628110296999
Fix,GT,37.3172516,-121.9735466,11.036946031272413,18.053602,0.1,297.11707,1628110297999
Fix,GT,37.3173236,-121.9737217,11.565950582504271,16.766647,0.1,296.99817,1628110298999
Fix,GT,37.317389,-121.9738829,12.053952307343485,15.231967,0.1,296.74942,1628110299999
Fix,GT,37.317447,-121.974023,12.4879779804945,12.703369,0.1,298.3703,1628110300999
Fix,GT,37.3175027,-121.9741311,12.691992312431337,10.31216,0.1,306.43277,1628110301999
Fix,GT,37.3175651,-121.9742054,12.72999710661173,9.297504,0.1,322.00476,1628110302999
Fix,GT,37.3176367,-121.9742496,12.717007743358613,8.534548,0.1,338.53452,1628110303999
Fix,GT,37.317708,-121.9742717,12.650004857480528,8.029001,0.1,348.15497,1628110304999
Fix,GT,37.3177798,-121.9742843,12.594977574706078,8.287561,0.1,353.37173,1628110305999
Fix,GT,37.3178556,-121.9742871,12.727989235520363,8.446109,0.1,0.6589966,1628110306999
Fix,GT,37.3179298,-121.9742753,12.751003928422929,8.237422,0.1,9.836273,1628110307999
Fix,GT,37.3179983,-121.9742493,12.737003942489624,7.748327,0.1,19.35611,1628110308999
Fix,GT,37.3180593,-121.9742136,12.6710049456954,7.1859345,0.1,27.040314,1628110309999
Fix,GT,37.3181108,-121.9741751,12.620005955934523,6.095195,0.1,31.252747,1628110310999
Fix,GT,37.3181511,-121.9741417,12.566007969379426,4.64276,0.1,33.58496,1628110311999
Fix,GT,37.3181806,-121.9741168,12.5190009996891,3.259915,0.1,33.92627,1628110312999
Fix,GT,37.3181997,-121.9741007,12.491,1.7729996,0.1,33.85141,1628110313999
Fix,GT,37.3182073,-121.9740943,12.478001006722453,0.41527966,0.1,33.829224,1628110314999
Fix,GT,37.3182082,-121.9740935,12.472998989760876,0.0022445482,0.1,33.82895,1628110315999
Fix,GT,37.3182082,-121.9740935,12.473,1.0137559e-06,0.1,33.828705,1628110316999
Fix,GT,37.3182082,-121.9740935,12.474,0.0014127749,0.1,33.82727,1628110317999
Fix,GT,37.3182082,-121.9740935,12.474,0.0,0.1,33.82776,1628110318999
Fix,GT,37.3182082,-121.9740935,12.474,1.0243059e-06,0.1,33.827972,1628110319999
Fix,GT,37.3182082,-121.9740935,12.474,0.00141276,0.1,33.82794,1628110320999
Fix,GT,37.3182082,-121.9740935,12.474,0.0010004273,0.1,33.82794,1628110321999
Fix,GT,37.3182082,-121.9740935,12.474,1.0349751e-06,0.1,33.82785,1628110322999
Fix,GT,37.3182082,-121.9740935,12.474,1.0384917e-06,0.1,33.827515,1628110323999
Fix,GT,37.3182082,-121.9740935,12.474,0.0,0.1,33.82773,1628110324999
Fix,GT,37.3182082,-121.9740935,12.474,0.0,0.1,33.827698,1628110325999
Fix,GT,37.3182082,-121.9740935,12.474,0.000998951,0.1,33.827698,1628110326999
Fix,GT,37.3182082,-121.9740935,12.474,0.0009989475,0.1,33.827454,1628110327999
Fix,GT,37.3182082,-121.9740935,12.474,0.0,0.1,33.827545,1628110328999
