MessageType,Provider,LatitudeDegrees,LongitudeDegrees,AltitudeMeters,SpeedMps,AccuracyMeters,BearingDegrees,UnixTimeMillis
Fix,GT,37.3958111,-122.102971,-5.915000176280737,0.0,0.1,208.82121,1625176218441
Fix,GT,37.3958111,-122.102971,-5.914999823719263,0.0,0.1,208.82118,1625176219441
Fix,GT,37.3958111,-122.102971,-5.915,0.0011731917,0.1,208.82127,1625176220441
Fix,GT,37.3958111,-122.102971,-5.915000176280737,0.0010000002,0.1,208.82135,1625176221441
Fix,GT,37.3958111,-122.102971,-5.915,0.0014142136,0.1,208.82104,1625176222441
Fix,GT,37.3958111,-122.102971,-5.915,0.0018924327,0.1,208.82117,1625176223441
Fix,GT,37.3958111,-122.102971,-5.915,0.00058187806,0.1,208.8211,1625176224441
Fix,GT,37.3958111,-122.102971,-5.915000176280737,0.0014181221,0.1,208.82094,1625176225441
Fix,GT,37.3958111,-122.102971,-5.915000176280737,0.0012410218,0.1,208.82143,1625176226441
Fix,GT,37.3958111,-122.102971,-5.915,0.00058187783,0.1,208.82133,1625176227441
Fix,GT,37.3958111,-122.102971,-5.915,0.001,0.1,208.82129,1625176228441
Fix,GT,37.3958111,-122.102971,-5.911581877708435,0.001,0.1,208.82127,1625176229441
Fix,GT,37.3958111,-122.1029709,-5.911,0.0054835128,0.1,208.82155,1625176230441
Fix,GT,37.3958111,-122.102971,-5.909,0.005671438,0.1,208.8222,1625176231441
Fix,GT,37.3958111,-122.102971,-5.909000176101923,0.0023463839,0.1,208.82182,1625176232441
Fix,GT,37.3958111,-122.102971,-5.909000176101923,0.0015818777,0.1,208.82176,1625176233441
Fix,GT,37.3958111,-122.102971,-5.908000176072121,0.002,0.1,208.8222,1625176234441
Fix,GT,37.3958111,-122.102971,-5.908,0.0014181226,0.1,208.82208,1625176235441
Fix,GT,37.3958111,-122.102971,-5.908,0.001173192,0.1,208.82195,1625176236441
Fix,GT,37.3958111,-122.102971,-5.908,0.0012410216,0.1,208.8218,1625176237441
Fix,GT,37.3958111,-122.102971,-5.908,0.001,0.1,208.82181,1625176238441
Fix,GT,37.3958111,-122.102971,-5.908000176072121,0.001,0.1,208.8219,1625176239441
Fix,GT,37.3958111,-122.102971,-5.908,0.001,0.1,208.822,1625176240441
Fix,GT,37.3958111,-122.102971,-5.908,0.0012410213,0.1,208.82196,1625176241441
Fix,GT,37.3958111,-122.102971,-5.908000176072121,0.0012410214,0.1,208.82211,1625176242441
Fix,GT,37.3958111,-122.102971,-5.908,0.0,0.1,208.82204,1625176243441
Fix,GT,37.3958111,-122.102971,-5.908,0.0,0.1,208.82211,1625176244441
Fix,GT,37.3958111,-122.102971,-5.908000176072122,0.0,0.1,208.82211,1625176245441
Fix,GT,37.3958111,-122.102971,-5.908,0.0012410212,0.1,208.82199,1625176246441
Fix,GT,37.3958111,-122.102971,-5.908000176072122,0.001,0.1,208.82187,1625176247441
Fix,GT,37.3958111,-122.102971,-5.908,0.001,0.1,208.8217,1625176248441
Fix,GT,37.3958111,-122.102971,-5.908000176072122,0.0015818767,0.1,208.82161,1625176249441
Fix,GT,37.3958111,-122.102971,-5.908,0.0067734695,0.1,208.82225,1625176250441
Fix,GT,37.3958111,-122.102971,-5.910418123722076,0.0033340906,0.1,208.8234,1625176251441
Fix,GT,37.3958111,-122.1029709,-5.914000176250934,0.0033476208,0.1,208.82335,1625176252441
Fix,GT,37.3958111,-122.102971,-5.916418300062418,0.004141187,0.1,208.82085,1625176253441
Fix,GT,37.395811,-122.102971,-5.916999823659658,0.0022371106,0.1,208.82088,1625176254441
Fix,GT,37.395811,-122.102971,-5.916999823659658,0.002236068,0.1,208.82124,1625176255441
Fix,GT,37.395811,-122.102971,-5.916999823659658,0.0017578506,0.1,208.8212,1625176256441
Fix,GT,37.395811,-122.102971,-5.917,0.0014142136,0.1,208.82104,1625176257441
Fix,GT,37.395811,-122.102971,-5.916999823659658,0.0014142136,0.1,208.82127,1625176258441
Fix,GT,37.395811,-122.102971,-5.918000176370144,0.0014142136,0.1,208.82118,1625176259441
Fix,GT,37.395811,-122.102971,-5.916999823659658,0.0012410209,0.1,208.8212,1625176260441
Fix,GT,37.395811,-122.102971,-5.919000176399946,0.0020000003,0.1,208.81998,1625176261441
Fix,GT,37.395811,-122.102971,-5.92100017645955,0.0020987059,0.1,208.82043,1625176262441
Fix,GT,37.395811,-122.102971,-5.922999823480845,0.0012410209,0.1,208.82027,1625176263441
Fix,GT,37.395811,-122.102971,-5.922000176489353,0.0012410209,0.1,208.82011,1625176264441
Fix,GT,37.395811,-122.102971,-5.922000176489353,0.0017550685,0.1,208.81998,1625176265441
Fix,GT,37.395811,-122.102971,-5.921999823510646,0.0,0.1,208.82025,1625176266441
Fix,GT,37.395811,-122.102971,-5.9220001764893535,0.0004181245,0.1,208.8206,1625176267441
Fix,GT,37.395811,-122.102971,-5.921999823510647,0.0,0.1,208.82036,1625176268441
Fix,GT,37.395811,-122.102971,-5.922,0.0,0.1,208.82033,1625176269441
Fix,GT,37.395811,-122.102971,-5.9220001764893535,0.0011731929,0.1,208.82053,1625176270441
Fix,GT,37.395811,-122.102971,-5.922,0.001,0.1,208.82056,1625176271441
Fix,GT,37.395811,-122.102971,-5.922000176489353,0.001,0.1,208.82039,1625176272441
Fix,GT,37.395811,-122.102971,-5.921999823510647,0.0005818752,0.1,208.82045,1625176273441
Fix,GT,37.395811,-122.102971,-5.922,0.0004181248,0.1,208.82037,1625176274441
Fix,GT,37.395811,-122.102971,-5.922,0.001,0.1,208.82034,1625176275441
Fix,GT,37.395811,-122.102971,-5.921999823510646,0.0009999999,0.1,208.82036,1625176276441
Fix,GT,37.395811,-122.102971,-5.921999823510646,0.0014181249,0.1,208.82059,1625176277441
Fix,GT,37.395811,-122.102971,-5.922,0.001418125,0.1,208.82072,1625176278441
Fix,GT,37.395811,-122.102971,-5.922,0.0014142136,0.1,208.82065,1625176279441
Fix,GT,37.395811,-122.102971,-5.922,0.0014142136,0.1,208.82047,1625176280441
Fix,GT,37.395811,-122.102971,-5.922,0.0014142136,0.1,208.82048,1625176281441
Fix,GT,37.395811,-122.102971,-5.922,0.0014142136,0.1,208.82059,1625176282441
Fix,GT,37.395811,-122.102971,-5.922,0.0014142136,0.1,208.82057,1625176283441
Fix,GT,37.395811,-122.102971,-5.921999823510646,0.001,0.1,208.82056,1625176284441
Fix,GT,37.395811,-122.102971,-5.922,0.001,0.1,208.82076,1625176285441
Fix,GT,37.395811,-122.102971,-5.922,0.001,0.1,208.82082,1625176286441
Fix,GT,37.395811,-122.102971,-5.922,0.001,0.1,208.82082,1625176287441
Fix,GT,37.395811,-122.102971,-5.922,0.001,0.1,208.82077,1625176288441
Fix,GT,37.395811,-122.102971,-5.921999823510647,0.001,0.1,208.82037,1625176289441
Fix,GT,37.395811,-122.102971,-5.921999823510647,0.0004181254,0.1,208.82048,1625176290441
Fix,GT,37.395811,-122.102971,-5.921999823510647,0.0,0.1,208.82039,1625176291441
Fix,GT,37.395811,-122.102971,-5.921999823510647,0.0,0.1,208.8202,1625176292441
Fix,GT,37.395811,-122.102971,-5.922,0.001,0.1,208.82031,1625176293441
Fix,GT,37.395811,-122.102971,-5.921999823510646,0.0005818745,0.1,208.81996,1625176294441
Fix,GT,37.395811,-122.102971,-5.922,0.00041812554,0.1,208.82024,1625176295441
Fix,GT,37.395811,-122.102971,-5.922,0.001,0.1,208.8202,1625176296441
Fix,GT,37.395811,-122.102971,-5.922,0.0012410203,0.1,208.82022,1625176297441
Fix,GT,37.395811,-122.102971,-5.922,0.0012410203,0.1,208.82011,1625176298441
Fix,GT,37.395811,-122.102971,-5.921999823510647,0.0014142136,0.1,208.8203,1625176299441
Fix,GT,37.395811,-122.102971,-5.921999823510647,0.001,0.1,208.82022,1625176300441
Fix,GT,37.395811,-122.102971,-5.921999823510647,0.0012410203,0.1,208.82004,1625176301441
Fix,GT,37.395811,-122.102971,-5.921999823510647,0.0017550676,0.1,208.81984,1625176302441
Fix,GT,37.395811,-122.102971,-5.921999823510647,0.001,0.1,208.82076,1625176303441
Fix,GT,37.395811,-122.102971,-5.921999823510647,0.001,0.1,208.82114,1625176304441
Fix,GT,37.395811,-122.102971,-5.922,0.0014142136,0.1,-151.17854,1625176305441
Fix,GT,37.395811,-122.102971,-5.922,0.0014142136,0.1,208.8216,1625176306441
Fix,GT,37.395811,-122.102971,-5.922,0.0014181258,0.1,208.82162,1625176307441
Fix,GT,37.395811,-122.102971,-5.922,0.001,0.1,208.82158,1625176308441
Fix,GT,37.395811,-122.102971,-5.922,0.002098706,0.1,208.82185,1625176309441
Fix,GT,37.395811,-122.102971,-5.922,0.002,0.1,208.82185,1625176310441
Fix,GT,37.395811,-122.102971,-5.921999823510647,0.001719236,0.1,208.82162,1625176311441
Fix,GT,37.395811,-122.102971,-5.921999823510647,0.001719236,0.1,208.82193,1625176312441
Fix,GT,37.395811,-122.102971,-5.922,0.0023369414,0.1,208.8218,1625176313441
Fix,GT,37.395811,-122.102971,-5.922,0.002236068,0.1,208.82097,1625176314441
Fix,GT,37.395811,-122.102971,-5.922,0.0014142136,0.1,208.82072,1625176315441
Fix,GT,37.395811,-122.102971,-5.922,0.00124102,0.1,208.82076,1625176316441
Fix,GT,37.395811,-122.102971,-5.921999823510646,0.0018924291,0.1,208.82071,1625176317441
Fix,GT,37.395811,-122.102971,-5.922,0.001,0.1,208.82068,1625176318441
Fix,GT,37.395811,-122.102971,-5.921999823510647,0.001,0.1,208.82025,1625176319441
Fix,GT,37.395811,-122.102971,-5.922,0.001,0.1,208.82027,1625176320441
Fix,GT,37.395811,-122.102971,-5.921999823510646,0.001,0.1,208.82022,1625176321441
Fix,GT,37.395811,-122.102971,-5.921999823510646,0.0,0.1,208.82028,1625176322441
Fix,GT,37.395811,-122.102971,-5.921999823510646,0.001,0.1,208.82033,1625176323441
Fix,GT,37.395811,-122.102971,-5.922,0.0005818734,0.1,208.82043,1625176324441
Fix,GT,37.395811,-122.102971,-5.922,0.001,0.1,208.82048,1625176325441
Fix,GT,37.395811,-122.102971,-5.9220001764893535,0.0010000002,0.1,208.8206,1625176326441
Fix,GT,37.395811,-122.102971,-5.9220001764893535,0.0010000002,0.1,208.82065,1625176327441
Fix,GT,37.395811,-122.102971,-5.922,0.001,0.1,208.82051,1625176328441
Fix,GT,37.395811,-122.102971,-5.921999823510646,0.0021373616,0.1,208.82054,1625176329441
Fix,GT,37.395811,-122.102971,-5.921999823510646,0.002,0.1,208.82056,1625176330441
Fix,GT,37.395811,-122.102971,-5.921999823510646,0.002,0.1,208.8206,1625176331441
Fix,GT,37.395811,-122.102971,-5.921999823510646,0.002,0.1,208.82077,1625176332441
Fix,GT,37.395811,-122.102971,-5.922000176489353,0.001418127,0.1,208.82092,1625176333441
Fix,GT,37.395811,-122.102971,-5.922,0.0011731938,0.1,208.82077,1625176334441
Fix,GT,37.395811,-122.102971,-5.921999823510646,0.001,0.1,208.821,1625176335441
Fix,GT,37.395811,-122.102971,-5.9220001764893535,0.0005818731,0.1,208.8211,1625176336441
Fix,GT,37.395811,-122.102971,-5.9220001764893535,0.000418127,0.1,208.82106,1625176337441
Fix,GT,37.395811,-122.102971,-5.9220001764893535,0.0017192347,0.1,208.82074,1625176338441
Fix,GT,37.395811,-122.102971,-5.922,0.0017578532,0.1,208.82056,1625176339441
Fix,GT,37.395811,-122.102971,-5.921999823510647,0.002236068,0.1,208.8208,1625176340441
Fix,GT,37.395811,-122.102971,-5.921999823510647,0.0032806145,0.1,208.82086,1625176341441
Fix,GT,37.395811,-122.102971,-5.921999823510647,0.0031533637,0.1,208.82088,1625176342441
Fix,GT,37.395811,-122.102971,-5.922,0.0031533637,0.1,208.82085,1625176343441
Fix,GT,37.395811,-122.102971,-5.922,0.0028284271,0.1,208.82076,1625176344441
Fix,GT,37.395811,-122.102971,-5.9220001764893535,0.0028284271,0.1,208.82066,1625176345441
Fix,GT,37.395811,-122.102971,-5.921999823510646,0.0030226856,0.1,208.82071,1625176346441
Fix,GT,37.395811,-122.102971,-5.921999823510646,0.0022360678,0.1,208.82094,1625176347441
Fix,GT,37.395811,-122.102971,-5.922,0.0028284271,0.1,208.82088,1625176348441
Fix,GT,37.395811,-122.102971,-5.922,0.002236068,0.1,208.82085,1625176349441
Fix,GT,37.395811,-122.102971,-5.922000176489353,0.0022360682,0.1,208.82103,1625176350441
Fix,GT,37.395811,-122.102971,-5.921999823510646,0.002,0.1,208.82114,1625176351441
Fix,GT,37.395811,-122.102971,-5.922,0.002,0.1,208.82117,1625176352441
Fix,GT,37.395811,-122.102971,-5.922,0.002,0.1,208.82114,1625176353441
Fix,GT,37.395811,-122.102971,-5.922,0.0021373618,0.1,208.82097,1625176354441
Fix,GT,37.395811,-122.102971,-5.9220001764893535,0.002236068,0.1,208.82104,1625176355441
Fix,GT,37.395811,-122.102971,-5.921999823510647,0.002236068,0.1,208.82097,1625176356441
Fix,GT,37.395811,-122.102971,-5.921999823510647,0.0027750046,0.1,208.82104,1625176357441
Fix,GT,37.395811,-122.102971,-5.921999823510647,0.0027750046,0.1,208.82108,1625176358441
Fix,GT,37.395811,-122.102971,-5.922,0.002236068,0.1,208.82117,1625176359441
Fix,GT,37.395811,-122.102971,-5.922000176489353,0.002236068,0.1,208.82124,1625176360441
Fix,GT,37.395811,-122.102971,-5.921999823510646,0.0022360678,0.1,208.82124,1625176361441
Fix,GT,37.395811,-122.102971,-5.921999823510646,0.0016591465,0.1,208.82123,1625176362441
Fix,GT,37.395811,-122.102971,-5.922,0.0020987063,0.1,208.8211,1625176363441
Fix,GT,37.395811,-122.102971,-5.9220001764893535,0.0010000002,0.1,208.82126,1625176364441
Fix,GT,37.395811,-122.102971,-5.921999823510647,0.001,0.1,208.82129,1625176365441
Fix,GT,37.395811,-122.102971,-5.922,0.001,0.1,208.82118,1625176366441
Fix,GT,37.395811,-122.102971,-5.922,0.0011731937,0.1,208.82115,1625176367441
Fix,GT,37.395811,-122.102971,-5.922,0.0011731937,0.1,208.82109,1625176368441
Fix,GT,37.395811,-122.102971,-5.922,0.0012410199,0.1,208.82082,1625176369441
Fix,GT,37.395811,-122.102971,-5.921999823510646,0.0005818737,0.1,208.8206,1625176370441
Fix,GT,37.395811,-122.102971,-5.921999823510646,0.001,0.1,208.82088,1625176371441
Fix,GT,37.395811,-122.102971,-5.922,0.0014142136,0.1,208.82086,1625176372441
Fix,GT,37.395811,-122.102971,-5.921999823510647,0.0011731936,0.1,208.82062,1625176373441
Fix,GT,37.395811,-122.102971,-5.921999823510647,0.001,0.1,208.82045,1625176374441
Fix,GT,37.395811,-122.102971,-5.922,0.0014142136,0.1,208.82045,1625176375441
Fix,GT,37.395811,-122.102971,-5.922,0.001,0.1,208.821,1625176376441
Fix,GT,37.395811,-122.102971,-5.921999823510646,0.0014142136,0.1,208.82138,1625176377441
Fix,GT,37.395811,-122.102971,-5.921999823510646,0.0011731936,0.1,208.82138,1625176378441
Fix,GT,37.395811,-122.102971,-5.922,0.0014142136,0.1,208.82137,1625176379441
Fix,GT,37.395811,-122.102971,-5.922,0.0012410202,0.1,208.82144,1625176380441
Fix,GT,37.395811,-122.102971,-5.921999823510646,0.0011731936,0.1,208.82153,1625176381441
Fix,GT,37.395811,-122.102971,-5.922,0.0014142136,0.1,208.82156,1625176382441
Fix,GT,37.395811,-122.102971,-5.922,0.0014142136,0.1,208.82162,1625176383441
Fix,GT,37.395811,-122.102971,-5.921999823510646,0.00124102,0.1,208.82161,1625176384441
Fix,GT,37.395811,-122.102971,-5.922,0.001418126,0.1,208.82138,1625176385441
Fix,GT,37.395811,-122.102971,-5.922,0.001,0.1,208.82127,1625176386441
Fix,GT,37.395811,-122.102971,-5.922,0.001,0.1,208.82108,1625176387441
Fix,GT,37.395811,-122.102971,-5.922,0.001,0.1,208.82094,1625176388441
Fix,GT,37.395811,-122.102971,-5.922,0.0012410202,0.1,208.8209,1625176389441
Fix,GT,37.395811,-122.102971,-5.921999823510647,0.0011731933,0.1,208.821,1625176390441
Fix,GT,37.395811,-122.102971,-5.922,0.001,0.1,208.821,1625176391441
Fix,GT,37.395811,-122.102971,-5.921999823510647,0.0014142136,0.1,208.82112,1625176392441
Fix,GT,37.395811,-122.102971,-5.922,0.002236068,0.1,208.82132,1625176393441
Fix,GT,37.395811,-122.102971,-5.922,0.0014142136,0.1,208.82121,1625176394441
Fix,GT,37.395811,-122.102971,-5.921999823510647,0.0014142136,0.1,208.82115,1625176395441
Fix,GT,37.395811,-122.102971,-5.921999823510647,0.0014142136,0.1,208.8211,1625176396441
Fix,GT,37.395811,-122.102971,-5.922,0.0011731935,0.1,208.82161,1625176397441
Fix,GT,37.395811,-122.102971,-5.921999823510647,0.0014142136,0.1,208.82178,1625176398441
Fix,GT,37.395811,-122.102971,-5.922,0.0014142136,0.1,208.82173,1625176399441
Fix,GT,37.395811,-122.102971,-5.922,0.0014142136,0.1,-151.17822,1625176400441
Fix,GT,37.395811,-122.102971,-5.922,0.0012410202,0.1,208.82173,1625176401441
Fix,GT,37.395811,-122.102971,-5.922,0.001,0.1,208.82172,1625176402441
Fix,GT,37.395811,-122.102971,-5.922,0.0014142136,0.1,208.8217,1625176403441
Fix,GT,37.395811,-122.102971,-5.922,0.001,0.1,208.8218,1625176404441
Fix,GT,37.395811,-122.102971,-5.922,0.00058187434,0.1,208.82187,1625176405441
Fix,GT,37.395811,-122.102971,-5.921999823510646,0.00082289445,0.1,208.82187,1625176406441
Fix,GT,37.395811,-122.102971,-5.921999823510646,0.0011731933,0.1,208.82173,1625176407441
Fix,GT,37.395811,-122.102971,-5.922,0.0004181257,0.1,208.82175,1625176408441
Fix,GT,37.395811,-122.102971,-5.921999823510646,0.0,0.1,208.8218,1625176409441
Fix,GT,37.395811,-122.102971,-5.922,0.0012410202,0.1,208.8219,1625176410441
Fix,GT,37.395811,-122.102971,-5.921999823510646,0.0014142136,0.1,208.82213,1625176411441
Fix,GT,37.395811,-122.102971,-5.922,0.0017550676,0.1,208.8222,1625176412441
Fix,GT,37.395811,-122.102971,-5.921999823510646,0.0014142136,0.1,208.82181,1625176413441
Fix,GT,37.395811,-122.102971,-5.922,0.0011731933,0.1,208.82155,1625176414441
Fix,GT,37.395811,-122.102971,-5.922,0.0011731933,0.1,208.82158,1625176415441
Fix,GT,37.395811,-122.102971,-5.922,0.0014142136,0.1,208.82173,1625176416441
Fix,GT,37.395811,-122.102971,-5.922,0.0014142136,0.1,208.82166,1625176417441
Fix,GT,37.395811,-122.102971,-5.922,0.0014142136,0.1,-151.1783,1625176418441
Fix,GT,37.395811,-122.102971,-5.921999823510647,0.0014142136,0.1,208.8215,1625176419441
Fix,GT,37.395811,-122.102971,-5.922,0.0014142136,0.1,208.82153,1625176420441
Fix,GT,37.395811,-122.102971,-5.921999823510647,0.0014142136,0.1,208.82147,1625176421441
Fix,GT,37.395811,-122.102971,-5.921999823510647,0.0014142136,0.1,208.82162,1625176422441
Fix,GT,37.395811,-122.102971,-5.922,0.0018924298,0.1,208.82167,1625176423441
Fix,GT,37.395811,-122.102971,-5.922,0.001,0.1,208.82169,1625176424441
Fix,GT,37.395811,-122.102971,-5.922,0.0012410203,0.1,208.82153,1625176425441
Fix,GT,37.395811,-122.102971,-5.921999823510647,0.001,0.1,208.82127,1625176426441
Fix,GT,37.395811,-122.102971,-5.922,0.0014142136,0.1,208.82121,1625176427441
Fix,GT,37.395811,-122.102971,-5.921999823510647,0.0014142136,0.1,208.8215,1625176428441
Fix,GT,37.395811,-122.102971,-5.922,0.002236068,0.1,208.82173,1625176429441
Fix,GT,37.395811,-122.102971,-5.921999823510647,0.0018924295,0.1,208.82184,1625176430441
Fix,GT,37.395811,-122.102971,-5.922,0.002236068,0.1,208.8218,1625176431441
Fix,GT,37.395811,-122.102971,-5.922,0.0014142136,0.1,208.8216,1625176432441
Fix,GT,37.395811,-122.102971,-5.921999823510647,0.0011731933,0.1,208.8215,1625176433441
Fix,GT,37.395811,-122.102971,-5.921999823510647,0.001,0.1,208.82109,1625176434441
Fix,GT,37.395811,-122.102971,-5.922,0.0011731933,0.1,208.82109,1625176435441
Fix,GT,37.395811,-122.102971,-5.922,0.0012410203,0.1,208.82127,1625176436441
Fix,GT,37.395811,-122.102971,-5.922,0.001,0.1,208.81943,1625176437441
Fix,GT,37.395811,-122.102971,-5.922,0.0012410203,0.1,208.82027,1625176438441
Fix,GT,37.395811,-122.102971,-5.922,0.001,0.1,208.82,1625176439441
Fix,GT,37.395811,-122.102971,-5.922,0.001,0.1,208.8197,1625176440441
Fix,GT,37.395811,-122.102971,-5.922,0.00082289457,0.1,208.82042,1625176441441
Fix,GT,37.395811,-122.102971,-5.922,0.002236068,0.1,208.82109,1625176442441
Fix,GT,37.395811,-122.102971,-5.922,0.002236068,0.1,208.82138,1625176443441
Fix,GT,37.395811,-122.102971,-5.922,0.001757852,0.1,208.82153,1625176444441
Fix,GT,37.395811,-122.102971,-5.922,0.0018924295,0.1,208.82133,1625176445441
Fix,GT,37.395811,-122.102971,-5.922,0.002236068,0.1,-151.17876,1625176446441
Fix,GT,37.395811,-122.102971,-5.922,0.002236068,0.1,208.82115,1625176447441
Fix,GT,37.395811,-122.102971,-5.922,0.0018924295,0.1,208.82117,1625176448441
Fix,GT,37.395811,-122.102971,-5.922,0.0014142136,0.1,208.82127,1625176449441
Fix,GT,37.395811,-122.102971,-5.922,0.001757852,0.1,208.82126,1625176450441
Fix,GT,37.395811,-122.102971,-5.922,0.002236068,0.1,208.82127,1625176451441
Fix,GT,37.395811,-122.102971,-5.922,0.002236068,0.1,208.82133,1625176452441
Fix,GT,37.395811,-122.102971,-5.921999823510646,0.0014142136,0.1,208.82123,1625176453441
Fix,GT,37.395811,-122.102971,-5.922,0.0012410203,0.1,208.82117,1625176454441
Fix,GT,37.395811,-122.102971,-5.922,0.0011731933,0.1,208.82095,1625176455441
Fix,GT,37.395811,-122.102971,-5.921999823510646,0.0012410202,0.1,208.82095,1625176456441
Fix,GT,37.395811,-122.102971,-5.922,0.002236068,0.1,208.8209,1625176457441
Fix,GT,37.395811,-122.102971,-5.922,0.0014142136,0.1,208.8209,1625176458441
Fix,GT,37.395811,-122.102971,-5.921999823510647,0.0014142136,0.1,208.82092,1625176459441
Fix,GT,37.395811,-122.102971,-5.922,0.0014142136,0.1,208.82072,1625176460441
Fix,GT,37.395811,-122.102971,-5.922,0.0012410203,0.1,208.82072,1625176461441
Fix,GT,37.395811,-122.102971,-5.922,0.0017578518,0.1,208.82086,1625176462441
Fix,GT,37.395811,-122.102971,-5.922,0.0014142136,0.1,208.82101,1625176463441
Fix,GT,37.395811,-122.102971,-5.922,0.0014142136,0.1,208.82098,1625176464441
Fix,GT,37.395811,-122.102971,-5.921999823510646,0.0014142136,0.1,208.82089,1625176465441
Fix,GT,37.395811,-122.102971,-5.922,0.002098706,0.1,208.82097,1625176466441
Fix,GT,37.395811,-122.102971,-5.921999823510646,0.0026233396,0.1,208.82088,1625176467441
Fix,GT,37.395811,-122.102971,-5.922,0.002236068,0.1,208.82083,1625176468441
Fix,GT,37.395811,-122.102971,-5.922,0.0017578518,0.1,208.82079,1625176469441
Fix,GT,37.395811,-122.102971,-5.922,0.0018924298,0.1,208.82048,1625176470441
Fix,GT,37.395811,-122.102971,-5.921999823510646,0.0012410203,0.1,208.82051,1625176471441
Fix,GT,37.395811,-122.102971,-5.921999823510646,0.0014142136,0.1,208.82056,1625176472441
Fix,GT,37.395811,-122.102971,-5.922,0.0011731933,0.1,208.82039,1625176473441
Fix,GT,37.395811,-122.102971,-5.922,0.001,0.1,208.82036,1625176474441
Fix,GT,37.395811,-122.102971,-5.921999823510647,0.001,0.1,208.82025,1625176475441
Fix,GT,37.395811,-122.102971,-5.922,0.0014142136,0.1,208.8203,1625176476441
Fix,GT,37.395811,-122.102971,-5.921999823510646,0.0014142136,0.1,208.82059,1625176477441
Fix,GT,37.395811,-122.102971,-5.922,0.001,0.1,208.82045,1625176478441
Fix,GT,37.395811,-122.102971,-5.921999823510646,0.0014142136,0.1,208.8203,1625176479441
Fix,GT,37.395811,-122.102971,-5.922,0.0011731933,0.1,208.82019,1625176480441
Fix,GT,37.395811,-122.102971,-5.922,0.0011731933,0.1,208.82019,1625176481441
Fix,GT,37.395811,-122.102971,-5.922,0.001,0.1,208.82043,1625176482441
Fix,GT,37.395811,-122.102971,-5.922,0.0014142136,0.1,208.82045,1625176483441
Fix,GT,37.395811,-122.102971,-5.922,0.0018924298,0.1,208.82063,1625176484441
Fix,GT,37.395811,-122.102971,-5.921999823510646,0.002236068,0.1,208.82072,1625176485441
Fix,GT,37.395811,-122.102971,-5.922,0.002236068,0.1,208.8207,1625176486441
Fix,GT,37.395811,-122.102971,-5.922,0.002236068,0.1,-151.17943,1625176487441
Fix,GT,37.395811,-122.102971,-5.922,0.002236068,0.1,208.82057,1625176488441
Fix,GT,37.395811,-122.102971,-5.922,0.002236068,0.1,208.82059,1625176489441
Fix,GT,37.395811,-122.102971,-5.921999823510647,0.0031622776,0.1,208.82071,1625176490441
Fix,GT,37.395811,-122.102971,-5.922,0.0031622776,0.1,-151.17934,1625176491441
Fix,GT,37.395811,-122.102971,-5.921999823510647,0.0031622776,0.1,208.82047,1625176492441
Fix,GT,37.395811,-122.102971,-5.922,0.00262334,0.1,208.82043,1625176493441
Fix,GT,37.395811,-122.102971,-5.922,0.002236068,0.1,208.82053,1625176494441
Fix,GT,37.395811,-122.102971,-5.922,0.002236068,0.1,208.8205,1625176495441
Fix,GT,37.395811,-122.102971,-5.922,0.002236068,0.1,-151.17957,1625176496441
Fix,GT,37.395811,-122.102971,-5.922,0.002236068,0.1,208.82059,1625176497441
Fix,GT,37.395811,-122.102971,-5.922,0.002236068,0.1,208.8206,1625176498441
Fix,GT,37.395811,-122.102971,-5.922,0.002236068,0.1,208.82053,1625176499441
Fix,GT,37.395811,-122.102971,-5.921999823510647,0.0014142136,0.1,208.82048,1625176500441
Fix,GT,37.395811,-122.102971,-5.922,0.001516832,0.1,208.82059,1625176501441
Fix,GT,37.395811,-122.102971,-5.921999823510647,0.0018924293,0.1,208.82043,1625176502441
Fix,GT,37.395811,-122.102971,-5.921999823510647,0.001757852,0.1,208.82047,1625176503441
Fix,GT,37.395811,-122.102971,-5.922,0.0014142136,0.1,208.82077,1625176504441
Fix,GT,37.395811,-122.102971,-5.922,0.0014142136,0.1,208.82079,1625176505441
Fix,GT,37.395811,-122.102971,-5.921999823510646,0.0014142136,0.1,208.82053,1625176506441
Fix,GT,37.395811,-122.102971,-5.921999823510646,0.0014142136,0.1,208.82045,1625176507441
Fix,GT,37.395811,-122.102971,-5.922,0.0011731936,0.1,208.8206,1625176508441
Fix,GT,37.395811,-122.102971,-5.922,0.0011731936,0.1,208.8206,1625176509441
Fix,GT,37.395811,-122.102971,-5.922,0.0011731936,0.1,208.82071,1625176510441
Fix,GT,37.395811,-122.102971,-5.922,0.0018924293,0.1,208.8206,1625176511441
Fix,GT,37.395811,-122.102971,-5.921999823510646,0.0017550674,0.1,208.82066,1625176512441
Fix,GT,37.395811,-122.102971,-5.921999823510646,0.001659146,0.1,208.82072,1625176513441
Fix,GT,37.395811,-122.102971,-5.921999823510646,0.001581874,0.1,208.82072,1625176514441
Fix,GT,37.395811,-122.102971,-5.922,0.0021373618,0.1,208.82065,1625176515441
Fix,GT,37.395811,-122.102971,-5.922,0.0020987063,0.1,208.82057,1625176516441
Fix,GT,37.395811,-122.102971,-5.922,0.0020987063,0.1,208.82054,1625176517441
Fix,GT,37.395811,-122.102971,-5.922,0.0021373618,0.1,208.82053,1625176518441
Fix,GT,37.395811,-122.102971,-5.922,0.0014142136,0.1,208.8205,1625176519441
Fix,GT,37.395811,-122.102971,-5.921999823510646,0.0014142136,0.1,208.8206,1625176520441
Fix,GT,37.395811,-122.102971,-5.922,0.0014142136,0.1,208.82066,1625176521441
Fix,GT,37.395811,-122.102971,-5.922,0.0011731936,0.1,208.8207,1625176522441
Fix,GT,37.395811,-122.102971,-5.921999823510646,0.0014142136,0.1,208.82063,1625176523441
Fix,GT,37.395811,-122.102971,-5.922,0.001,0.1,208.82043,1625176524441
Fix,GT,37.395811,-122.102971,-5.922,0.001,0.1,208.82062,1625176525441
Fix,GT,37.395811,-122.102971,-5.921999823510646,0.001,0.1,208.82063,1625176526441
Fix,GT,37.395811,-122.102971,-5.921999823510646,0.001,0.1,208.82054,1625176527441
Fix,GT,37.395811,-122.102971,-5.922,0.001,0.1,208.82065,1625176528441
Fix,GT,37.395811,-122.102971,-5.921999823510647,0.00124102,0.1,208.82074,1625176529441
Fix,GT,37.395811,-122.102971,-5.922,0.0014142136,0.1,-151.17938,1625176530441
Fix,GT,37.395811,-122.102971,-5.921999823510647,0.0015168325,0.1,208.8206,1625176531441
Fix,GT,37.395811,-122.102971,-5.921999823510647,0.0014142136,0.1,208.82068,1625176532441
Fix,GT,37.395811,-122.102971,-5.922,0.0014142136,0.1,208.82085,1625176533441
Fix,GT,37.395811,-122.102971,-5.922,0.0018924291,0.1,208.82088,1625176534441
Fix,GT,37.395811,-122.102971,-5.921999823510647,0.0014142136,0.1,208.82077,1625176535441
Fix,GT,37.395811,-122.102971,-5.921999823510647,0.002,0.1,208.8206,1625176536441
Fix,GT,37.395811,-122.102971,-5.922,0.0020987063,0.1,208.82053,1625176537441
Fix,GT,37.395811,-122.102971,-5.922,0.0021373618,0.1,208.82053,1625176538441
Fix,GT,37.395811,-122.102971,-5.922,0.002236068,0.1,-151.17943,1625176539441
Fix,GT,37.395811,-122.102971,-5.922,0.002236068,0.1,208.82063,1625176540441
Fix,GT,37.395811,-122.102971,-5.921999823510647,0.002236068,0.1,208.82071,1625176541441
Fix,GT,37.395811,-122.102971,-5.921999823510647,0.00268058,0.1,208.82108,1625176542441
Fix,GT,37.395811,-122.102971,-5.922,0.002,0.1,208.82149,1625176543441
Fix,GT,37.395811,-122.102971,-5.922,0.0015168325,0.1,208.82158,1625176544441
Fix,GT,37.395811,-122.102971,-5.922,0.0017192356,0.1,208.82146,1625176545441
Fix,GT,37.395811,-122.102971,-5.922,0.001,0.1,208.82124,1625176546441
Fix,GT,37.395811,-122.102971,-5.921999823510647,0.00124102,0.1,208.82123,1625176547441
Fix,GT,37.395811,-122.102971,-5.922,0.001,0.1,208.82123,1625176548441
Fix,GT,37.395811,-122.102971,-5.922,0.001,0.1,208.82126,1625176549441
Fix,GT,37.395811,-122.102971,-5.922,0.001,0.1,208.82138,1625176550441
Fix,GT,37.395811,-122.102971,-5.922,0.00041812612,0.1,208.82158,1625176551441
Fix,GT,37.395811,-122.102971,-5.922,0.00041812612,0.1,208.82162,1625176552441
Fix,GT,37.395811,-122.102971,-5.922,0.001,0.1,208.82161,1625176553441
Fix,GT,37.395811,-122.102971,-5.922,0.001,0.1,208.82146,1625176554441
Fix,GT,37.395811,-122.102971,-5.921999823510646,0.001,0.1,208.82167,1625176555441
Fix,GT,37.395811,-122.102971,-5.921999823510646,0.001,0.1,208.82185,1625176556441
Fix,GT,37.395811,-122.102971,-5.921999823510646,0.001581874,0.1,208.82172,1625176557441
Fix,GT,37.395811,-122.102971,-5.921999823510646,0.001,0.1,208.82161,1625176558441
Fix,GT,37.395811,-122.102971,-5.921999823510646,0.00124102,0.1,208.82161,1625176559441
Fix,GT,37.395811,-122.102971,-5.921999823510646,0.00124102,0.1,208.82147,1625176560441
Fix,GT,37.395811,-122.102971,-5.921999823510646,0.001,0.1,208.82141,1625176561441
Fix,GT,37.395811,-122.102971,-5.921999823510646,0.0011731936,0.1,208.8216,1625176562441
Fix,GT,37.395811,-122.102971,-5.922,0.0011731936,0.1,208.82161,1625176563441
Fix,GT,37.395811,-122.102971,-5.921999823510646,0.001,0.1,208.82124,1625176564441
Fix,GT,37.395811,-122.102971,-5.921999823510646,0.0014142136,0.1,208.82138,1625176565441
Fix,GT,37.395811,-122.102971,-5.921999823510646,0.0014142136,0.1,208.82143,1625176566441
Fix,GT,37.395811,-122.102971,-5.921999823510646,0.001418126,0.1,208.82121,1625176567441
Fix,GT,37.395811,-122.102971,-5.922,0.001418126,0.1,208.82115,1625176568441
Fix,GT,37.395811,-122.102971,-5.922,0.001,0.1,208.82117,1625176569441
Fix,GT,37.395811,-122.102971,-5.921999823510646,0.001,0.1,208.82121,1625176570441
Fix,GT,37.395811,-122.102971,-5.921999823510646,0.00124102,0.1,208.82126,1625176571441
Fix,GT,37.395811,-122.102971,-5.922,0.001,0.1,208.82138,1625176572441
Fix,GT,37.395811,-122.102971,-5.922,0.001,0.1,208.82143,1625176573441
Fix,GT,37.395811,-122.102971,-5.922,0.001,0.1,208.82152,1625176574441
Fix,GT,37.395811,-122.102971,-5.921999823510646,0.0014142136,0.1,208.82167,1625176575441
Fix,GT,37.395811,-122.102971,-5.922,0.0011731936,0.1,208.82158,1625176576441
Fix,GT,37.395811,-122.102971,-5.922,0.00058187393,0.1,208.8215,1625176577441
Fix,GT,37.395811,-122.102971,-5.922,0.0,0.1,208.82149,1625176578441
Fix,GT,37.395811,-122.102971,-5.922,0.0,0.1,208.82169,1625176579441
Fix,GT,37.395811,-122.102971,-5.922,0.0,0.1,208.82172,1625176580441
Fix,GT,37.395811,-122.102971,-5.922,0.0,0.1,208.82169,1625176581441
Fix,GT,37.395811,-122.102971,-5.922,0.0,0.1,208.82164,1625176582441
Fix,GT,37.395811,-122.102971,-5.922,0.0,0.1,-151.17831,1625176583441
Fix,GT,37.395811,-122.102971,-5.921999823510647,0.0,0.1,208.82155,1625176584441
Fix,GT,37.395811,-122.102971,-5.922,0.0008228938,0.1,208.82144,1625176585441
Fix,GT,37.395811,-122.102971,-5.922,0.00041812618,0.1,208.8216,1625176586441
Fix,GT,37.395811,-122.102971,-5.921999823510647,0.0011731936,0.1,208.82161,1625176587441
Fix,GT,37.395811,-122.102971,-5.921999823510647,0.0004181262,0.1,208.8216,1625176588441
Fix,GT,37.395811,-122.102971,-5.922,0.00058187376,0.1,208.82155,1625176589441
Fix,GT,37.395811,-122.102971,-5.921999823510646,0.0,0.1,208.8215,1625176590441
Fix,GT,37.395811,-122.102971,-5.921999823510646,0.00041812632,0.1,208.82146,1625176591441
Fix,GT,37.395811,-122.102971,-5.921999823510646,0.0005818737,0.1,208.82155,1625176592441
Fix,GT,37.395811,-122.102971,-5.922000176489353,0.0,0.1,208.82162,1625176593441
Fix,GT,37.395811,-122.102971,-5.922,0.001,0.1,208.82161,1625176594441
Fix,GT,37.395811,-122.102971,-5.922,0.001,0.1,208.82149,1625176595441
Fix,GT,37.395811,-122.102971,-5.922,0.001,0.1,208.82135,1625176596441
Fix,GT,37.395811,-122.102971,-5.922,0.0,0.1,208.82141,1625176597441
Fix,GT,37.395811,-122.102971,-5.922,0.0,0.1,-151.17845,1625176598441
Fix,GT,37.395811,-122.102971,-5.922,0.00041812655,0.1,208.82169,1625176599441
Fix,GT,37.395811,-122.102971,-5.9220001764893535,0.0,0.1,208.82173,1625176600441
Fix,GT,37.395811,-122.102971,-5.922,0.001,0.1,208.82175,1625176601441
Fix,GT,37.395811,-122.102971,-5.922,0.0005818735,0.1,208.82175,1625176602441
Fix,GT,37.395811,-122.102971,-5.921999823510646,0.00041812658,0.1,208.82153,1625176603441
Fix,GT,37.395811,-122.102971,-5.922,0.00041812667,0.1,208.82172,1625176604441
Fix,GT,37.395811,-122.102971,-5.921999823510647,0.00058187335,0.1,208.82205,1625176605441
Fix,GT,37.395811,-122.102971,-5.9220001764893535,0.0,0.1,208.82207,1625176606441
Fix,GT,37.395811,-122.102971,-5.9220001764893535,0.0010000002,0.1,208.82204,1625176607441
Fix,GT,37.395811,-122.102971,-5.921999823510646,0.0012410197,0.1,208.82167,1625176608441
Fix,GT,37.395811,-122.102971,-5.921999823510646,0.0,0.1,208.82167,1625176609441
Fix,GT,37.395811,-122.102971,-5.921999823510646,0.0,0.1,208.82169,1625176610441
Fix,GT,37.395811,-122.102971,-5.922,0.0,0.1,208.82175,1625176611441
Fix,GT,37.395811,-122.102971,-5.921999823510646,0.0,0.1,208.82193,1625176612441
Fix,GT,37.395811,-122.102971,-5.9220001764893535,0.0,0.1,208.82193,1625176613441
Fix,GT,37.395811,-122.102971,-5.921999823510647,0.0009999999,0.1,208.82178,1625176614441
Fix,GT,37.395811,-122.102971,-5.922,0.0014142136,0.1,208.82196,1625176615441
Fix,GT,37.395811,-122.102971,-5.921999823510646,0.0014142136,0.1,208.82198,1625176616441
Fix,GT,37.395811,-122.102971,-5.922,0.00082289235,0.1,208.82185,1625176617441
Fix,GT,37.395811,-122.102971,-5.921999823510647,0.0014142136,0.1,208.822,1625176618441
Fix,GT,37.395811,-122.102971,-5.922,0.001,0.1,-151.178,1625176619441
Fix,GT,37.395811,-122.102971,-5.922000176489353,0.001,0.1,208.82196,1625176620441
Fix,GT,37.395811,-122.102971,-5.922,0.0,0.1,208.82184,1625176621441
Fix,GT,37.395811,-122.102971,-5.9220001764893535,0.0005818725,0.1,208.82191,1625176622441
Fix,GT,37.395811,-122.102971,-5.922,0.00059132173,0.1,208.82198,1625176623441
Fix,GT,37.395811,-122.102971,-5.922000176489353,0.0,0.1,208.82188,1625176624441
Fix,GT,37.395811,-122.102971,-5.921999823510646,0.00058187224,0.1,208.82167,1625176625441
Fix,GT,37.395811,-122.102971,-5.922,0.001,0.1,208.82158,1625176626441
Fix,GT,37.395811,-122.102971,-5.922,0.0012410193,0.1,208.82182,1625176627441
Fix,GT,37.395811,-122.102971,-5.922,0.001,0.1,208.82196,1625176628441
Fix,GT,37.395811,-122.102971,-5.922,0.0,0.1,208.82188,1625176629441
Fix,GT,37.395811,-122.102971,-5.922,0.0011731943,0.1,208.8219,1625176630441
Fix,GT,37.395811,-122.102971,-5.922,0.0,0.1,208.82208,1625176631441
Fix,GT,37.395811,-122.102971,-5.922,0.001,0.1,208.82199,1625176632441
Fix,GT,37.395811,-122.102971,-5.922,0.00041812827,0.1,208.82184,1625176633441
Fix,GT,37.395811,-122.102971,-5.922,0.0012410192,0.1,208.82181,1625176634441
Fix,GT,37.395811,-122.102971,-5.9220001764893535,0.0012410191,0.1,208.8221,1625176635441
Fix,GT,37.395811,-122.102971,-5.922,0.001,0.1,208.82199,1625176636441
Fix,GT,37.395811,-122.102971,-5.922,0.00058187154,0.1,208.82199,1625176637441
Fix,GT,37.395811,-122.102971,-5.922000176489353,0.0,0.1,208.82182,1625176638441
Fix,GT,37.395811,-122.102971,-5.922,0.001,0.1,208.8218,1625176639441
Fix,GT,37.395811,-122.102971,-5.9220001764893535,0.0005818714,0.1,208.82181,1625176640441
Fix,GT,37.395811,-122.102971,-5.9220001764893535,0.0011731946,0.1,208.82187,1625176641441
Fix,GT,37.395811,-122.102971,-5.922,0.001,0.1,208.82205,1625176642441
Fix,GT,37.395811,-122.102971,-5.922,0.001241019,0.1,208.82199,1625176643441
Fix,GT,37.395811,-122.102971,-5.922,0.001241019,0.1,208.82185,1625176644441
Fix,GT,37.395811,-122.102971,-5.922000176489353,0.0014142136,0.1,208.82185,1625176645441
Fix,GT,37.395811,-122.102971,-5.922,0.0014142136,0.1,208.82184,1625176646441
Fix,GT,37.395811,-122.102971,-5.922,0.002236068,0.1,208.82187,1625176647441
Fix,GT,37.395811,-122.102971,-5.922,0.0011731947,0.1,208.82191,1625176648441
Fix,GT,37.395811,-122.102971,-5.922,0.0014142136,0.1,208.82198,1625176649441
Fix,GT,37.395811,-122.102971,-5.9220001764893535,0.0014181291,0.1,208.82175,1625176650441
Fix,GT,37.395811,-122.102971,-5.9220001764893535,0.0014142136,0.1,208.8217,1625176651441
Fix,GT,37.395811,-122.102971,-5.922,0.0018924267,0.1,208.82167,1625176652441
Fix,GT,37.395811,-122.102971,-5.922,0.001,0.1,208.82156,1625176653441
Fix,GT,37.395811,-122.102971,-5.922,0.0014142136,0.1,208.82169,1625176654441
Fix,GT,37.395811,-122.102971,-5.922,0.0014142136,0.1,208.82175,1625176655441
Fix,GT,37.395811,-122.102971,-5.922,0.001,0.1,208.82176,1625176656441
Fix,GT,37.395811,-122.102971,-5.922,0.0012410188,0.1,208.8217,1625176657441
Fix,GT,37.395811,-122.102971,-5.9220001764893535,0.0014142136,0.1,208.82188,1625176658441
Fix,GT,37.395811,-122.102971,-5.9220001764893535,0.0010000002,0.1,208.82211,1625176659441
Fix,GT,37.395811,-122.102971,-5.922,0.001,0.1,208.82196,1625176660441
Fix,GT,37.395811,-122.102971,-5.922,0.001,0.1,208.82181,1625176661441
Fix,GT,37.395811,-122.102971,-5.921999823510646,0.0014142136,0.1,208.82196,1625176662441
Fix,GT,37.395811,-122.102971,-5.922,0.0014142136,0.1,208.82239,1625176663441
Fix,GT,37.395811,-122.102971,-5.921999823510646,0.001173195,0.1,208.82234,1625176664441
Fix,GT,37.395811,-122.102971,-5.922,0.0014142136,0.1,208.82224,1625176665441
Fix,GT,37.395811,-122.102971,-5.922,0.001,0.1,208.82231,1625176666441
Fix,GT,37.395811,-122.102971,-5.922000176489353,0.0014142136,0.1,208.82233,1625176667441
Fix,GT,37.395811,-122.102971,-5.922,0.0012410186,0.1,208.82231,1625176668441
Fix,GT,37.395811,-122.102971,-5.9220001764893535,0.0022360682,0.1,208.82233,1625176669441
Fix,GT,37.395811,-122.102971,-5.922,0.001,0.1,-151.17763,1625176670441
Fix,GT,37.395811,-122.102971,-5.922,0.002,0.1,208.82246,1625176671441
Fix,GT,37.395811,-122.102971,-5.9220001764893535,0.0015168369,0.1,208.82268,1625176672441
Fix,GT,37.395811,-122.102971,-5.921999823510646,0.0011731951,0.1,208.82271,1625176673441
Fix,GT,37.395811,-122.102971,-5.921999823510646,0.0011731951,0.1,208.82272,1625176674441
Fix,GT,37.395811,-122.102971,-5.922000176489353,0.001,0.1,208.82257,1625176675441
Fix,GT,37.395811,-122.102971,-5.922,0.001892426,0.1,208.82256,1625176676441
Fix,GT,37.395811,-122.102971,-5.922,0.0014142136,0.1,208.82262,1625176677441
Fix,GT,37.395811,-122.102971,-5.922,0.001,0.1,208.82274,1625176678441
Fix,GT,37.395811,-122.102971,-5.9220001764893535,0.0014181301,0.1,208.82281,1625176679441
Fix,GT,37.395811,-122.102971,-5.922,0.001,0.1,208.82292,1625176680441
Fix,GT,37.395811,-122.102971,-5.922,0.001,0.1,208.82278,1625176681441
Fix,GT,37.395811,-122.102971,-5.922000176489353,0.001,0.1,208.82266,1625176682441
Fix,GT,37.395811,-122.102971,-5.921999823510647,0.001,0.1,208.82262,1625176683441
Fix,GT,37.395811,-122.102971,-5.9220001764893535,0.002,0.1,208.82262,1625176684441
Fix,GT,37.395811,-122.102971,-5.9220001764893535,0.002,0.1,208.82271,1625176685441
Fix,GT,37.395811,-122.102971,-5.921999823510646,0.002,0.1,208.82268,1625176686441
Fix,GT,37.395811,-122.102971,-5.922,0.002,0.1,208.82272,1625176687441
Fix,GT,37.395811,-122.102971,-5.922000176489353,0.0014181305,0.1,208.82262,1625176688441
Fix,GT,37.395811,-122.102971,-5.922,0.0015818696,0.1,208.82272,1625176689441
Fix,GT,37.395811,-122.102971,-5.9220001764893535,0.001757856,0.1,208.8228,1625176690441
Fix,GT,37.395811,-122.102971,-5.9220001764893535,0.0011731954,0.1,208.82266,1625176691441
Fix,GT,37.395811,-122.102971,-5.922,0.001,0.1,208.82259,1625176692441
Fix,GT,37.395811,-122.102971,-5.922,0.001,0.1,208.82275,1625176693441
Fix,GT,37.395811,-122.102971,-5.921999823510646,0.00041813074,0.1,208.82239,1625176694441
Fix,GT,37.395811,-122.102971,-5.922000176489353,0.0012410182,0.1,208.82237,1625176695441
Fix,GT,37.395811,-122.102971,-5.922000176489353,0.0004181308,0.1,208.82245,1625176696441
Fix,GT,37.395811,-122.102971,-5.921999823510647,0.0,0.1,208.82242,1625176697441
Fix,GT,37.395811,-122.102971,-5.922,0.00058186916,0.1,208.82257,1625176698441
Fix,GT,37.395811,-122.102971,-5.922,0.0014142136,0.1,-151.17738,1625176699441
Fix,GT,37.395811,-122.102971,-5.922,0.0014142136,0.1,208.82268,1625176700441
Fix,GT,37.395811,-122.102971,-5.922,0.0014142136,0.1,208.82265,1625176701441
Fix,GT,37.395811,-122.102971,-5.922,0.0014142136,0.1,208.8226,1625176702441
Fix,GT,37.395811,-122.102971,-5.922,0.0014142136,0.1,208.82253,1625176703441
Fix,GT,37.395811,-122.102971,-5.922,0.0014142136,0.1,208.82243,1625176704441
Fix,GT,37.395811,-122.102971,-5.922,0.002236068,0.1,208.82227,1625176705441
Fix,GT,37.395811,-122.102971,-5.922,0.0014142136,0.1,208.82217,1625176706441
Fix,GT,37.395811,-122.102971,-5.922,0.0018924252,0.1,208.82216,1625176707441
Fix,GT,37.395811,-122.102971,-5.922,0.002236068,0.1,208.82237,1625176708441
Fix,GT,37.395811,-122.102971,-5.921999823510646,0.002236068,0.1,208.82236,1625176709441
Fix,GT,37.395811,-122.102971,-5.921999823510646,0.00200554,0.1,208.82254,1625176710441
Fix,GT,37.395811,-122.102971,-5.921999823510646,0.0018924252,0.1,208.82254,1625176711441
Fix,GT,37.395811,-122.102971,-5.922,0.0014142136,0.1,208.82246,1625176712441
Fix,GT,37.395811,-122.102971,-5.922,0.0014142136,0.1,208.8224,1625176713441
Fix,GT,37.395811,-122.102971,-5.921999823510646,0.0017578563,0.1,208.82251,1625176714441
Fix,GT,37.395811,-122.102971,-5.922,0.0014142136,0.1,208.82248,1625176715441
Fix,GT,37.395811,-122.102971,-5.921999823510646,0.0012410181,0.1,208.82254,1625176716441
Fix,GT,37.395811,-122.102971,-5.921999823510646,0.0011731955,0.1,208.82262,1625176717441
Fix,GT,37.395811,-122.102971,-5.921999823510646,0.001,0.1,208.82253,1625176718441
Fix,GT,37.395811,-122.102971,-5.921999823510646,0.0011731955,0.1,208.82285,1625176719441
Fix,GT,37.395811,-122.102971,-5.922,0.001,0.1,208.82285,1625176720441
Fix,GT,37.395811,-122.102971,-5.921999823510647,0.0011731955,0.1,208.82283,1625176721441
Fix,GT,37.395811,-122.102971,-5.922,0.0017192294,0.1,208.82278,1625176722441
Fix,GT,37.395811,-122.102971,-5.922,0.0014142136,0.1,208.8229,1625176723441
Fix,GT,37.395811,-122.102971,-5.922,0.0017550645,0.1,208.82367,1625176724441
Fix,GT,37.395811,-122.102971,-5.922,0.001,0.1,208.82361,1625176725441
Fix,GT,37.395811,-122.102971,-5.922,0.0011731957,0.1,208.8235,1625176726441
Fix,GT,37.395811,-122.102971,-5.921999823510647,0.0017550644,0.1,208.82358,1625176727441
Fix,GT,37.395811,-122.102971,-5.922,0.001,0.1,208.82353,1625176728441
Fix,GT,37.395811,-122.102971,-5.921999823510647,0.0018924247,0.1,208.82361,1625176729441
Fix,GT,37.395811,-122.102971,-5.922,0.0012410178,0.1,208.82372,1625176730441
Fix,GT,37.395811,-122.102971,-5.921999823510646,0.0011731958,0.1,208.82388,1625176731441
Fix,GT,37.395811,-122.102971,-5.921999823510647,0.0012410177,0.1,208.82387,1625176732441
Fix,GT,37.395811,-122.102971,-5.921999823510647,0.001,0.1,208.82402,1625176733441
Fix,GT,37.395811,-122.102971,-5.922,0.001,0.1,208.82387,1625176734441
Fix,GT,37.395811,-122.102971,-5.921999823510646,0.0011731959,0.1,208.82393,1625176735441
Fix,GT,37.395811,-122.102971,-5.922,0.0012410177,0.1,208.82384,1625176736441
Fix,GT,37.395811,-122.102971,-5.921999823510647,0.0009999999,0.1,208.82394,1625176737441
Fix,GT,37.395811,-122.102971,-5.922,0.001,0.1,208.82393,1625176738441
Fix,GT,37.395811,-122.102971,-5.922,0.001,0.1,-151.1762,1625176739441
Fix,GT,37.395811,-122.102971,-5.922,0.0,0.1,208.82356,1625176740441
Fix,GT,37.395811,-122.102971,-5.922,0.00059132813,0.1,208.82353,1625176741441
Fix,GT,37.395811,-122.102971,-5.921999823510646,0.0009999999,0.1,208.82361,1625176742441
Fix,GT,37.395811,-122.102971,-5.922,0.0014142136,0.1,208.82365,1625176743441
Fix,GT,37.395811,-122.102971,-5.921999823510647,0.0014142136,0.1,208.82336,1625176744441
Fix,GT,37.395811,-122.102971,-5.922,0.0014142136,0.1,208.82356,1625176745441
Fix,GT,37.395811,-122.102971,-5.921999823510646,0.0011731961,0.1,208.8236,1625176746441
Fix,GT,37.395811,-122.102971,-5.922,0.001892424,0.1,208.8236,1625176747441
Fix,GT,37.395811,-122.102971,-5.9220001764893535,0.0014142136,0.1,208.82358,1625176748441
Fix,GT,37.395811,-122.102971,-5.921999823510646,0.0018924237,0.1,208.82353,1625176749441
Fix,GT,37.395811,-122.102971,-5.921999823510646,0.0014142136,0.1,208.82358,1625176750441
Fix,GT,37.395811,-122.102971,-5.922,0.0014142136,0.1,-151.17647,1625176751441
Fix,GT,37.395811,-122.102971,-5.922,0.0014142136,0.1,208.82353,1625176752441
Fix,GT,37.395811,-122.102971,-5.922,0.0014142136,0.1,208.82362,1625176753441
Fix,GT,37.395811,-122.102971,-5.9220001764893535,0.0012410172,0.1,208.82361,1625176754441
Fix,GT,37.395811,-122.102971,-5.921999823510647,0.001,0.1,208.82358,1625176755441
Fix,GT,37.395811,-122.102971,-5.922,0.0018924234,0.1,208.82346,1625176756441
Fix,GT,37.395811,-122.102971,-5.922,0.001,0.1,208.82373,1625176757441
Fix,GT,37.395811,-122.102971,-5.922,0.0,0.1,-151.17627,1625176758441
Fix,GT,37.395811,-122.102971,-5.921999823510646,0.0,0.1,208.82384,1625176759441
Fix,GT,37.395811,-122.102971,-5.921999823510647,0.0,0.1,208.82379,1625176760441
Fix,GT,37.395811,-122.102971,-5.921999823510646,0.0,0.1,208.82378,1625176761441
Fix,GT,37.395811,-122.102971,-5.922,0.0,0.1,-151.17624,1625176762441
Fix,GT,37.395811,-122.102971,-5.922,0.0005818661,0.1,208.82397,1625176763441
Fix,GT,37.395811,-122.102971,-5.922,0.0,0.1,208.82408,1625176764441
Fix,GT,37.395811,-122.102971,-5.9220001764893535,0.0,0.1,208.82393,1625176765441
Fix,GT,37.395811,-122.102971,-5.9220001764893535,0.0,0.1,208.82387,1625176766441
Fix,GT,37.395811,-122.102971,-5.922,0.00041813435,0.1,208.82393,1625176767441
Fix,GT,37.395811,-122.102971,-5.922,0.0,0.1,208.82417,1625176768441
Fix,GT,37.395811,-122.102971,-5.922,0.00058186543,0.1,208.82417,1625176769441
Fix,GT,37.395811,-122.102971,-5.9220001764893535,0.0005818653,0.1,208.82407,1625176770441
Fix,GT,37.395811,-122.102971,-5.922,0.0005818652,0.1,208.8241,1625176771441
Fix,GT,37.395811,-122.102971,-5.922,0.0,0.1,208.82402,1625176772441
Fix,GT,37.395811,-122.102971,-5.922,0.0,0.1,208.82402,1625176773441
Fix,GT,37.395811,-122.102971,-5.922,0.0,0.1,208.82404,1625176774441
Fix,GT,37.395811,-122.102971,-5.922,0.0,0.1,-151.17593,1625176775441
Fix,GT,37.395811,-122.102971,-5.9220001764893535,0.00058186473,0.1,208.82393,1625176776441
Fix,GT,37.395811,-122.102971,-5.922000176489353,0.0,0.1,208.8238,1625176777441
Fix,GT,37.395811,-122.102971,-5.922,0.0005818645,0.1,208.82391,1625176778441
Fix,GT,37.395811,-122.102971,-5.921999823510646,0.0005818644,0.1,208.82378,1625176779441
Fix,GT,37.395811,-122.102971,-5.922,0.0,0.1,208.8237,1625176780441
Fix,GT,37.395811,-122.102971,-5.921999823510647,0.0,0.1,208.82352,1625176781441
Fix,GT,37.395811,-122.102971,-5.921999823510646,0.00041813598,0.1,208.82367,1625176782441
Fix,GT,37.395811,-122.102971,-5.922000176489353,0.00058186403,0.1,208.8237,1625176783441
Fix,GT,37.395811,-122.102971,-5.921999823510647,0.0004181361,0.1,208.82388,1625176784441
Fix,GT,37.395811,-122.102971,-5.9220001764893535,0.0,0.1,208.82388,1625176785441
Fix,GT,37.395811,-122.102971,-5.922000176489353,0.0,0.1,208.824,1625176786441
Fix,GT,37.395811,-122.102971,-5.922,0.0,0.1,208.824,1625176787441
Fix,GT,37.395811,-122.102971,-5.9220001764893535,0.0,0.1,208.82408,1625176788441
Fix,GT,37.395811,-122.102971,-5.922,0.0,0.1,208.82422,1625176789441
Fix,GT,37.395811,-122.102971,-5.922,0.001,0.1,-151.17586,1625176790441
Fix,GT,37.395811,-122.102971,-5.922000176489353,0.0010000002,0.1,208.82397,1625176791441
Fix,GT,37.395811,-122.102971,-5.922,0.001,0.1,208.82385,1625176792441
Fix,GT,37.395811,-122.102971,-5.921999823510647,0.001,0.1,208.82408,1625176793441
Fix,GT,37.395811,-122.102971,-5.9220001764893535,0.0012410157,0.1,208.824,1625176794441
Fix,GT,37.395811,-122.102971,-5.922,0.001,0.1,208.82402,1625176795441
Fix,GT,37.395811,-122.102971,-5.922,0.0012410156,0.1,208.82423,1625176796441
Fix,GT,37.395811,-122.102971,-5.922,0.00041813697,0.1,208.82439,1625176797441
Fix,GT,37.395811,-122.102971,-5.922,0.000581863,0.1,208.82439,1625176798441
Fix,GT,37.395811,-122.102971,-5.921999823510646,0.0009999999,0.1,208.82431,1625176799441
Fix,GT,37.395811,-122.102971,-5.921999823510647,0.0,0.1,208.82417,1625176800441
Fix,GT,37.395811,-122.102971,-5.922,0.0,0.1,208.824,1625176801441
Fix,GT,37.395811,-122.102971,-5.922,0.00041813726,0.1,208.82419,1625176802441
Fix,GT,37.395811,-122.102971,-5.921999823510646,0.0005818627,0.1,208.82414,1625176803441
Fix,GT,37.395811,-122.102971,-5.922,0.0,0.1,208.82411,1625176804441
Fix,GT,37.395811,-122.102971,-5.922,0.001,0.1,208.82404,1625176805441
Fix,GT,37.395811,-122.102971,-5.922,0.0005818625,0.1,208.82393,1625176806441
Fix,GT,37.395811,-122.102971,-5.921999823510647,0.00041813753,0.1,208.8239,1625176807441
Fix,GT,37.395811,-122.102971,-5.922,0.0005818624,0.1,208.82405,1625176808441
Fix,GT,37.395811,-122.102971,-5.922,0.001,0.1,208.82404,1625176809441
Fix,GT,37.395811,-122.102971,-5.922,0.00058186235,0.1,208.82417,1625176810441
Fix,GT,37.395811,-122.102971,-5.922,0.001,0.1,208.82407,1625176811441
Fix,GT,37.395811,-122.102971,-5.922,0.0,0.1,208.82397,1625176812441
Fix,GT,37.395811,-122.102971,-5.921999823510646,0.001,0.1,208.82397,1625176813441
Fix,GT,37.395811,-122.102971,-5.922,0.0,0.1,208.82402,1625176814441
Fix,GT,37.395811,-122.102971,-5.922,0.0,0.1,208.82391,1625176815441
Fix,GT,37.395811,-122.102971,-5.922,0.0,0.1,208.8239,1625176816441
Fix,GT,37.395811,-122.102971,-5.921999823510646,0.00041813814,0.1,208.82402,1625176817441
Fix,GT,37.395811,-122.102971,-5.922,0.0,0.1,208.82411,1625176818441
Fix,GT,37.395811,-122.102971,-5.922,0.0005818619,0.1,208.82411,1625176819441
Fix,GT,37.395811,-122.102971,-5.922,0.00041813822,0.1,208.8239,1625176820441
Fix,GT,37.395811,-122.102971,-5.921999823510646,0.00058186176,0.1,208.82411,1625176821441
Fix,GT,37.395811,-122.102971,-5.922,0.001,0.1,208.82423,1625176822441
Fix,GT,37.395811,-122.102971,-5.922,0.0,0.1,208.8241,1625176823441
Fix,GT,37.395811,-122.102971,-5.922,0.0,0.1,-151.1759,1625176824441
Fix,GT,37.395811,-122.102971,-5.9220001764893535,0.0,0.1,208.82408,1625176825441
Fix,GT,37.395811,-122.102971,-5.922,0.0,0.1,208.8243,1625176826441
Fix,GT,37.395811,-122.102971,-5.921999823510646,0.0,0.1,208.82437,1625176827441
Fix,GT,37.395811,-122.102971,-5.9220001764893535,0.001,0.1,208.82434,1625176828441
Fix,GT,37.395811,-122.102971,-5.921999823510647,0.0011731987,0.1,208.82437,1625176829441
Fix,GT,37.395811,-122.102971,-5.9220001764893535,0.001,0.1,208.82426,1625176830441
Fix,GT,37.395811,-122.102971,-5.9220001764893535,0.0011731987,0.1,208.82407,1625176831441
Fix,GT,37.395811,-122.102971,-5.921999823510646,0.0011731987,0.1,208.82397,1625176832441
Fix,GT,37.395811,-122.102971,-5.921999823510646,0.0012410148,0.1,208.82413,1625176833441
Fix,GT,37.395811,-122.102971,-5.922,0.001,0.1,208.8242,1625176834441
Fix,GT,37.395811,-122.102971,-5.922,0.0016591537,0.1,208.82434,1625176835441
Fix,GT,37.395811,-122.102971,-5.922,0.0014142136,0.1,-151.17558,1625176836441
Fix,GT,37.395811,-122.102971,-5.922,0.0014142136,0.1,208.82443,1625176837441
Fix,GT,37.395811,-122.102971,-5.921999823510647,0.0014142136,0.1,208.82423,1625176838441
Fix,GT,37.395811,-122.102971,-5.921999823510647,0.0012410148,0.1,208.82419,1625176839441
Fix,GT,37.395811,-122.102971,-5.9220001764893535,0.0014142136,0.1,208.8243,1625176840441
Fix,GT,37.395811,-122.102971,-5.9220001764893535,0.0010000002,0.1,208.82439,1625176841441
Fix,GT,37.395811,-122.102971,-5.921999823510646,0.001,0.1,208.8246,1625176842441
Fix,GT,37.395811,-122.102971,-5.922,0.0012410147,0.1,208.82465,1625176843441
Fix,GT,37.395811,-122.102971,-5.9220001764893535,0.0014142136,0.1,208.82463,1625176844441
Fix,GT,37.395811,-122.102971,-5.921999823510646,0.001,0.1,208.82445,1625176845441
Fix,GT,37.395811,-122.102971,-5.922,0.001173199,0.1,208.82437,1625176846441
Fix,GT,37.395811,-122.102971,-5.9220001764893535,0.0014142136,0.1,208.82431,1625176847441
Fix,GT,37.395811,-122.102971,-5.921999823510647,0.0014142136,0.1,208.82436,1625176848441
Fix,GT,37.395811,-122.102971,-5.922,0.0014142136,0.1,208.82448,1625176849441
Fix,GT,37.395811,-122.102971,-5.921999823510647,0.0014142136,0.1,208.8246,1625176850441
Fix,GT,37.395811,-122.102971,-5.922000176489353,0.0014142136,0.1,208.8247,1625176851441
Fix,GT,37.395811,-122.102971,-5.922,0.0014142136,0.1,208.82494,1625176852441
Fix,GT,37.395811,-122.102971,-5.922,0.0014142136,0.1,208.82497,1625176853441
Fix,GT,37.395811,-122.102971,-5.922,0.0018924177,0.1,208.82486,1625176854441
Fix,GT,37.395811,-122.102971,-5.922,0.0017578639,0.1,208.82484,1625176855441
Fix,GT,37.395811,-122.102971,-5.922,0.0014142136,0.1,208.82483,1625176856441
Fix,GT,37.395811,-122.102971,-5.922,0.00059133995,0.1,208.82477,1625176857441
Fix,GT,37.395811,-122.102971,-5.9220001764893535,0.0012410141,0.1,208.82475,1625176858441
Fix,GT,37.395811,-122.102971,-5.922,0.0017550589,0.1,208.82466,1625176859441
Fix,GT,37.395811,-122.102971,-5.922,0.0017192175,0.1,208.8244,1625176860441
Fix,GT,37.395811,-122.102971,-5.922,0.001418141,0.1,208.82428,1625176861441
Fix,GT,37.395811,-122.102971,-5.922,0.00058185897,0.1,208.82462,1625176862441
Fix,GT,37.395811,-122.102971,-5.922,0.0014181413,0.1,208.82452,1625176863441
Fix,GT,37.395811,-122.102971,-5.922,0.001,0.1,208.82439,1625176864441
Fix,GT,37.395811,-122.102971,-5.921999823510646,0.0008228722,0.1,208.8246,1625176865441
Fix,GT,37.395811,-122.102971,-5.922,0.001,0.1,208.8249,1625176866441
Fix,GT,37.395811,-122.102971,-5.921999823510646,0.0011732,0.1,208.82497,1625176867441
Fix,GT,37.395811,-122.102971,-5.922,0.001,0.1,208.82489,1625176868441
Fix,GT,37.395811,-122.102971,-5.921999823510647,0.0008228715,0.1,208.82475,1625176869441
Fix,GT,37.395811,-122.102971,-5.9220001764893535,0.000418142,0.1,208.82469,1625176870441
Fix,GT,37.395811,-122.102971,-5.922000176489353,0.001,0.1,208.8246,1625176871441
Fix,GT,37.395811,-122.102971,-5.921999823510647,0.0009999999,0.1,208.82481,1625176872441
Fix,GT,37.395811,-122.102971,-5.921999823510646,0.0004181423,0.1,208.82483,1625176873441
Fix,GT,37.395811,-122.102971,-5.922000176489353,0.00041814236,0.1,208.82483,1625176874441
Fix,GT,37.395811,-122.102971,-5.9220001764893535,0.0,0.1,208.8249,1625176875441
Fix,GT,37.395811,-122.102971,-5.922,0.0004181426,0.1,208.82475,1625176876441
Fix,GT,37.395811,-122.102971,-5.921999823510646,0.0,0.1,208.8246,1625176877441
Fix,GT,37.395811,-122.102971,-5.921999823510647,0.0004181428,0.1,208.8246,1625176878441
Fix,GT,37.395811,-122.102971,-5.921999823510646,0.0005818571,0.1,208.82462,1625176879441
Fix,GT,37.395811,-122.102971,-5.921999823510647,0.00041814303,0.1,208.8246,1625176880441
Fix,GT,37.395811,-122.102971,-5.922,0.00058185693,0.1,208.82468,1625176881441
Fix,GT,37.395811,-122.102971,-5.922,0.001241013,0.1,208.82478,1625176882441
Fix,GT,37.395811,-122.102971,-5.922,0.0005913439,0.1,208.82486,1625176883441
Fix,GT,37.395811,-122.102971,-5.922,0.0014142136,0.1,208.8248,1625176884441
Fix,GT,37.395811,-122.102971,-5.922,0.00041814352,0.1,208.82457,1625176885441
Fix,GT,37.395811,-122.102971,-5.921999823510646,0.0005818564,0.1,208.82489,1625176886441
Fix,GT,37.395811,-122.102971,-5.922,0.0014142136,0.1,208.82497,1625176887441
Fix,GT,37.395811,-122.102971,-5.921999823510647,0.001,0.1,208.8249,1625176888441
Fix,GT,37.395811,-122.102971,-5.921999823510646,0.000418144,0.1,208.8247,1625176889441
Fix,GT,37.395811,-122.102971,-5.922,0.00041814407,0.1,208.82487,1625176890441
Fix,GT,37.395811,-122.102971,-5.922,0.0004181442,0.1,208.82486,1625176891441
Fix,GT,37.395811,-122.102971,-5.922,0.0,0.1,208.82495,1625176892441
Fix,GT,37.395811,-122.102971,-5.921999823510646,0.0,0.1,208.82503,1625176893441
Fix,GT,37.395811,-122.102971,-5.922,0.0,0.1,208.82492,1625176894441
Fix,GT,37.395811,-122.102971,-5.922000176489353,0.0,0.1,208.82486,1625176895441
Fix,GT,37.395811,-122.102971,-5.9220001764893535,0.001,0.1,208.8249,1625176896441
Fix,GT,37.395811,-122.102971,-5.922,0.00041814466,0.1,208.8248,1625176897441
Fix,GT,37.395811,-122.102971,-5.9220001764893535,0.001,0.1,208.82512,1625176898441
Fix,GT,37.395811,-122.102971,-5.922000176489353,0.0012410124,0.1,208.82483,1625176899441
Fix,GT,37.395811,-122.102971,-5.921999823510647,0.0005913462,0.1,208.82486,1625176900441
Fix,GT,37.395811,-122.102971,-5.922,0.0,0.1,208.82484,1625176901441
Fix,GT,37.395811,-122.102971,-5.921999823510646,0.00058185495,0.1,208.82475,1625176902441
Fix,GT,37.395811,-122.102971,-5.922,0.0005818549,0.1,208.82466,1625176903441
Fix,GT,37.395811,-122.102971,-5.922000176489353,0.00058185495,0.1,208.82477,1625176904441
Fix,GT,37.395811,-122.102971,-5.9220001764893535,0.00041814524,0.1,208.82487,1625176905441
Fix,GT,37.395811,-122.102971,-5.921999823510646,0.0004181453,0.1,208.82486,1625176906441
Fix,GT,37.395811,-122.102971,-5.922000176489353,0.00041814536,0.1,208.82489,1625176907441
Fix,GT,37.395811,-122.102971,-5.9220001764893535,0.0005818546,0.1,208.82492,1625176908441
Fix,GT,37.395811,-122.102971,-5.9220001764893535,0.0005818546,0.1,208.82503,1625176909441
Fix,GT,37.395811,-122.102971,-5.921999823510647,0.0,0.1,208.82495,1625176910441
Fix,GT,37.395811,-122.102971,-5.9220001764893535,0.0004181456,0.1,208.82489,1625176911441
Fix,GT,37.395811,-122.102971,-5.922,0.0,0.1,208.82498,1625176912441
Fix,GT,37.395811,-122.102971,-5.922000176489353,0.0,0.1,208.82509,1625176913441
Fix,GT,37.395811,-122.102971,-5.921999823510647,0.001,0.1,208.82526,1625176914441
Fix,GT,37.395811,-122.102971,-5.9220001764893535,0.00058185426,0.1,208.82524,1625176915441
Fix,GT,37.395811,-122.102971,-5.921999823510646,0.001,0.1,208.82526,1625176916441
Fix,GT,37.395811,-122.102971,-5.922000176489353,0.00058185414,0.1,208.82516,1625176917441
Fix,GT,37.395811,-122.102971,-5.922,0.00041814602,0.1,208.82507,1625176918441
Fix,GT,37.395811,-122.102971,-5.9220001764893535,0.0,0.1,208.8251,1625176919441
Fix,GT,37.395811,-122.102971,-5.922,0.0,0.1,208.82527,1625176920441
Fix,GT,37.395811,-122.102971,-5.922,0.0,0.1,208.8253,1625176921441
Fix,GT,37.395811,-122.102971,-5.922,0.0,0.1,-151.17484,1625176922441
Fix,GT,37.395811,-122.102971,-5.922,0.0,0.1,208.82515,1625176923441
Fix,GT,37.395811,-122.102971,-5.9220001764893535,0.0,0.1,208.8252,1625176924441
Fix,GT,37.395811,-122.102971,-5.922,0.0014142136,0.1,208.82515,1625176925441
Fix,GT,37.395811,-122.102971,-5.922,0.00059134845,0.1,208.82529,1625176926441
Fix,GT,37.395811,-122.102971,-5.922,0.0014142136,0.1,208.82536,1625176927441
Fix,GT,37.395811,-122.102971,-5.9220001764893535,0.0011732021,0.1,208.8253,1625176928441
Fix,GT,37.395811,-122.102971,-5.922,0.0017192103,0.1,208.82529,1625176929441
Fix,GT,37.395811,-122.102971,-5.922000176489353,0.0010000002,0.1,208.82536,1625176930441
Fix,GT,37.395811,-122.102971,-5.9220001764893535,0.0014142136,0.1,208.82547,1625176931441
Fix,GT,37.395811,-122.102971,-5.922,0.001,0.1,208.82542,1625176932441
Fix,GT,37.395811,-122.102971,-5.922,0.0,0.1,-151.17468,1625176933441
Fix,GT,37.395811,-122.102971,-5.9220001764893535,0.00041814713,0.1,208.82523,1625176934441
Fix,GT,37.395811,-122.102971,-5.9220001764893535,0.0,0.1,208.8252,1625176935441
Fix,GT,37.395811,-122.102971,-5.922,0.0005818526,0.1,208.82507,1625176936441
Fix,GT,37.395811,-122.102971,-5.921999823510646,0.001,0.1,208.82523,1625176937441
Fix,GT,37.395811,-122.102971,-5.922,0.001,0.1,208.82515,1625176938441
Fix,GT,37.395811,-122.102971,-5.922,0.0,0.1,208.82521,1625176939441
Fix,GT,37.395811,-122.102971,-5.921999823510646,0.0005818522,0.1,208.82521,1625176940441
Fix,GT,37.395811,-122.102971,-5.922,0.0,0.1,208.82513,1625176941441
Fix,GT,37.395811,-122.102971,-5.921999823510646,0.0,0.1,208.8251,1625176942441
Fix,GT,37.395811,-122.102971,-5.922,0.00058185175,0.1,208.8252,1625176943441
Fix,GT,37.395811,-122.102971,-5.922,0.0011732028,0.1,208.82521,1625176944441
Fix,GT,37.395811,-122.102971,-5.922,0.001,0.1,208.82524,1625176945441
Fix,GT,37.395811,-122.102971,-5.922,0.0005818513,0.1,208.82533,1625176946441
Fix,GT,37.395811,-122.102971,-5.921999823510646,0.000418149,0.1,208.82562,1625176947441
Fix,GT,37.395811,-122.102971,-5.922,0.00058185094,0.1,208.82542,1625176948441
Fix,GT,37.395811,-122.102971,-5.922,0.001,0.1,208.82556,1625176949441
Fix,GT,37.395811,-122.102971,-5.922,0.0,0.1,208.82562,1625176950441
Fix,GT,37.395811,-122.102971,-5.922,0.0,0.1,208.82555,1625176951441
Fix,GT,37.395811,-122.102971,-5.922,0.001,0.1,-151.17442,1625176952441
Fix,GT,37.395811,-122.102971,-5.921999823510646,0.001,0.1,208.82571,1625176953441
Fix,GT,37.395811,-122.102971,-5.922,0.001,0.1,208.8256,1625176954441
Fix,GT,37.395811,-122.102971,-5.921999823510647,0.001,0.1,208.82538,1625176955441
Fix,GT,37.395811,-122.102971,-5.922000176489353,0.001,0.1,208.82535,1625176956441
Fix,GT,37.395811,-122.102971,-5.9220001764893535,0.001,0.1,208.82558,1625176957441
Fix,GT,37.395811,-122.102971,-5.921999823510646,0.001,0.1,208.82568,1625176958441
Fix,GT,37.395811,-122.102971,-5.9220001764893535,0.0011732039,0.1,208.82564,1625176959441
Fix,GT,37.395811,-122.102971,-5.922,0.001,0.1,208.82559,1625176960441
Fix,GT,37.395811,-122.102971,-5.922000176489353,0.0010000002,0.1,208.82547,1625176961441
Fix,GT,37.395811,-122.102971,-5.922,0.0012410096,0.1,208.82542,1625176962441
Fix,GT,37.395811,-122.102971,-5.922000176489353,0.0014142136,0.1,208.82545,1625176963441
Fix,GT,37.395811,-122.102971,-5.922,0.001,0.1,208.82552,1625176964441
Fix,GT,37.395811,-122.102971,-5.922,0.001,0.1,208.82573,1625176965441
Fix,GT,37.395811,-122.102971,-5.922000176489353,0.0012410092,0.1,208.82576,1625176966441
Fix,GT,37.395811,-122.102971,-5.922,0.001,0.1,208.82559,1625176967441
Fix,GT,37.395811,-122.102971,-5.922,0.0014142136,0.1,208.82571,1625176968441
