MessageType,Provider,LatitudeDegrees,LongitudeDegrees,AltitudeMeters,SpeedMps,AccuracyMeters,BearingDegrees,UnixTimeMillis
Fix,GT,34.2296202,-118.4014025,227.294,0.0014154594,0.1,136.17133,1639069608999
Fix,GT,34.2296202,-118.4014025,227.294,0.0020008879,0.1,136.17102,1639069609999
Fix,GT,34.2296202,-118.4014025,227.294,0.001999476,0.1,136.17072,1639069610999
Fix,GT,34.2296202,-118.4014025,227.294,0.001999472,0.1,136.1709,1639069611999
Fix,GT,34.2296202,-118.4014025,227.294,0.0014142136,0.1,136.17087,1639069612999
Fix,GT,34.2296202,-118.4014025,227.294,0.002827133,0.1,136.17084,1639069613999
Fix,GT,34.2296202,-118.4014025,227.2949990780949,0.0042396514,0.1,136.17108,1639069614999
Fix,GT,34.2296202,-118.4014025,227.295,0.007805782,0.1,136.17096,1639069615999
Fix,GT,34.2296202,-118.4014025,227.297,0.0042442847,0.1,136.17041,1639069616999
Fix,GT,34.2296202,-118.4014025,227.298,0.005095157,0.1,136.17017,1639069617999
Fix,GT,34.2296202,-118.4014025,227.298,0.0022366303,0.1,136.17029,1639069618999
Fix,GT,34.2296202,-118.4014025,227.298,0.0041213017,0.1,136.17062,1639069619999
Fix,GT,34.2296202,-118.4014025,227.298,0.0036051245,0.1,136.1706,1639069620999
Fix,GT,34.2296202,-118.4014025,227.298,0.0028296823,0.1,136.17062,1639069621999
Fix,GT,34.2296202,-118.4014025,227.298,0.0022374054,0.1,136.17053,1639069622999
Fix,GT,34.2296202,-118.4014025,227.299,0.0036061779,0.1,136.17047,1639069623999
Fix,GT,34.2296202,-118.4014025,227.299,0.004123451,0.1,136.1705,1639069624999
Fix,GT,34.2296201,-118.4014025,227.299,0.0044717877,0.1,136.17035,1639069625999
Fix,GT,34.2296201,-118.4014025,227.299,0.0050990195,0.1,136.17041,1639069626999
Fix,GT,34.2296201,-118.4014025,227.3,0.0041240915,0.1,136.1706,1639069627999
Fix,GT,34.22962,-118.4014025,227.3,0.0053851646,0.1,136.17029,1639069628999
Fix,GT,34.22962,-118.4014025,227.301,0.00583185,0.1,136.17004,1639069629999
Fix,GT,34.22962,-118.4014024,227.302,0.008602205,0.1,136.17157,1639069630999
Fix,GT,34.2296199,-118.4014024,227.303,0.007998963,0.1,136.1735,1639069631999
Fix,GT,34.2296199,-118.4014024,227.304998955369,0.012648818,0.1,136.17252,1639069632999
Fix,GT,34.2296195,-118.4014016,227.304,0.34007785,0.1,136.07544,1639069633999
Fix,GT,34.2296152,-118.401395,227.303,1.3080645,0.1,134.06784,1639069634999
Fix,GT,34.2296056,-118.4013787,227.30100106513493,2.3247802,0.1,129.51193,1639069635999
Fix,GT,34.2295903,-118.4013525,227.296,3.6484165,0.1,126.69043,1639069636999
Fix,GT,34.229567,-118.4013137,227.2830021574497,5.105056,0.1,126.63583,1639069637999
Fix,GT,34.2295366,-118.401264,227.26800108551976,6.0106554,0.1,127.210266,1639069638999
Fix,GT,34.2295031,-118.4012135,227.24400764620304,5.8591886,0.1,129.9425,1639069639999
Fix,GT,34.2294691,-118.4011691,227.2449956035614,4.9794703,0.1,134.22986,1639069640999
Fix,GT,34.2294462,-118.4011353,227.1750066361428,3.1406484,0.1,129.38971,1639069641999
Fix,GT,34.2294433,-118.4011021,227.17399777436256,2.8517985,0.1,102.784454,1639069642999
Fix,GT,34.2294614,-118.40107,227.19899328231813,3.523098,0.1,63.54474,1639069643999
Fix,GT,34.2294977,-118.4010576,227.2410022528172,4.205365,0.1,18.98938,1639069644999
Fix,GT,34.2295418,-118.4010748,227.2379988667965,5.7395644,0.1,341.58752,1639069645999
Fix,GT,34.2295914,-118.401114,227.28699430000785,7.2737436,0.1,325.9318,1639069646999
Fix,GT,34.2296477,-118.4011598,227.3699896783233,7.569176,0.1,325.95578,1639069647999
Fix,GT,34.229705,-118.4011994,227.42999307775497,6.9883947,0.1,331.56927,1639069648999
Fix,GT,34.2297607,-118.4012199,227.4580046420097,5.914313,0.1,345.64557,1639069649999
Fix,GT,34.2298124,-118.4012161,227.41698482513428,5.5626845,0.1,5.090332,1639069650999
Fix,GT,34.2298624,-118.4011926,227.4929823886156,6.6449995,0.1,22.258728,1639069651999
Fix,GT,34.2299174,-118.4011449,227.58498701024047,8.393476,0.1,36.927338,1639069652999
Fix,GT,34.2299758,-118.4010759,227.65899287390707,9.77036,0.1,44.756958,1639069653999
Fix,GT,34.2300403,-118.4009921,227.6520047779083,11.191598,0.1,46.487793,1639069654999
Fix,GT,34.2301111,-118.4008966,227.5410120127201,12.414199,0.1,47.880768,1639069655999
Fix,GT,34.2301881,-118.4007893,227.3300326178074,13.68093,0.1,48.74347,1639069656999
Fix,GT,34.2302698,-118.4006698,226.9650546687841,14.824063,0.1,50.787262,1639069657999
Fix,GT,34.2303529,-118.4005357,226.46906475412845,15.996159,0.1,54.065125,1639069658999
Fix,GT,34.2304332,-118.4003853,225.88007862854005,16.769646,0.1,58.85205,1639069659999
Fix,GT,34.230502,-118.4002222,225.2860679451227,17.127089,0.1,65.105835,1639069660999
Fix,GT,34.2305573,-118.4000423,224.70807577180864,18.320004,0.1,72.029816,1639069661999
Fix,GT,34.2305967,-118.3998425,224.0690811859965,19.463894,0.1,79.22046,1639069662999
Fix,GT,34.2306172,-118.3996273,223.45207158118484,20.479774,0.1,85.786865,1639069663999
Fix,GT,34.230617,-118.3994,223.0920277786255,21.484156,0.1,92.63849,1639069664999
Fix,GT,34.2305959,-118.3991628,223.07898984432225,22.481594,0.1,97.17917,1639069665999
Fix,GT,34.2305675,-118.3989159,223.19997957992555,23.475672,0.1,97.66257,1639069666999
Fix,GT,34.2305362,-118.3986587,223.280984603405,24.345427,0.1,98.194214,1639069667999
Fix,GT,34.2305017,-118.3983946,223.3409896812439,24.944595,0.1,98.8324,1639069668999
Fix,GT,34.2304644,-118.3981238,223.4029909235239,25.64269,0.1,99.29703,1639069669999
Fix,GT,34.230423,-118.3978441,223.451,26.676401,0.1,100.28815,1639069670999
Fix,GT,34.2303761,-118.3975558,223.519,27.4058,0.1,101.0636,1639069671999
Fix,GT,34.2303241,-118.3972629,223.58000131702423,27.745516,0.1,102.47229,1639069672999
Fix,GT,34.2302642,-118.3969702,223.66498543798923,27.76515,0.1,104.3609,1639069673999
Fix,GT,34.2302011,-118.3966805,223.6710119765997,27.429861,0.1,104.28241,1639069674999
Fix,GT,34.230136,-118.3963954,223.6900133752823,27.04325,0.1,106.10074,1639069675999
Fix,GT,34.2300618,-118.3961178,223.64301075458525,26.817575,0.1,109.07269,1639069676999
Fix,GT,34.2299752,-118.3958446,223.5050189156532,27.202785,0.1,111.9187,1639069677999
Fix,GT,34.2298767,-118.3955692,223.3400258003473,28.041613,0.1,113.82507,1639069678999
Fix,GT,34.229768,-118.3952907,223.1760218353272,28.623392,0.1,115.72705,1639069679999
Fix,GT,34.2296499,-118.3950102,223.0560123435259,29.31674,0.1,117.176636,1639069680999
Fix,GT,34.229525,-118.3947242,222.96701378297809,30.290112,0.1,117.46777,1639069681999
Fix,GT,34.229395,-118.3944287,222.8880152360201,31.253727,0.1,117.60715,1639069682999
Fix,GT,34.2292609,-118.3941256,222.7990097436309,32.016396,0.1,117.95688,1639069683999
Fix,GT,34.2291219,-118.3938191,222.65802657610172,32.20651,0.1,118.863525,1639069684999
Fix,GT,34.2289784,-118.3935161,222.4620295175314,32.128662,0.1,119.786835,1639069685999
Fix,GT,34.2288335,-118.3932135,222.31302118587493,32.151455,0.1,119.565674,1639069686999
Fix,GT,34.2286892,-118.3929118,222.1670212877989,31.99208,0.1,119.70807,1639069687999
Fix,GT,34.228545,-118.3926116,222.0440185377598,31.85911,0.1,119.74426,1639069688999
Fix,GT,34.2284017,-118.3923138,221.92301719331743,31.57846,0.1,119.77966,1639069689999
Fix,GT,34.2282602,-118.3920182,221.8000158352852,31.283964,0.1,119.55621,1639069690999
Fix,GT,34.2281201,-118.3917232,221.6740216963887,31.46792,0.1,119.42215,1639069691999
Fix,GT,34.2279785,-118.3914244,221.55700435966253,31.932442,0.1,119.3992,1639069692999
Fix,GT,34.2278375,-118.3911198,221.430013140142,32.305023,0.1,118.15643,1639069693999
Fix,GT,34.2276996,-118.3908092,221.3130161349177,32.558086,0.1,117.8858,1639069694999
Fix,GT,34.2275596,-118.3904976,221.1220338929296,32.73116,0.1,118.48187,1639069695999
Fix,GT,34.2274165,-118.3901874,220.86903701001404,32.581055,0.1,119.131805,1639069696999
Fix,GT,34.2272729,-118.3898795,220.5860386670828,32.56694,0.1,118.97504,1639069697999
Fix,GT,34.2271326,-118.3895677,220.3260298798084,32.77334,0.1,117.50342,1639069698999
Fix,GT,34.2270012,-118.3892488,220.1480195102096,32.833454,0.1,115.12573,1639069699999
Fix,GT,34.2268811,-118.3889228,220.01901356822253,32.8833,0.1,112.35956,1639069700999
Fix,GT,34.2267732,-118.3885908,219.8930166581273,32.84875,0.1,110.0556,1639069701999
Fix,GT,34.2266771,-118.3882537,219.76901521229743,32.837387,0.1,107.47073,1639069702999
Fix,GT,34.2265939,-118.3879118,219.8009740235805,32.79085,0.1,104.8479,1639069703999
Fix,GT,34.2265243,-118.3875668,220.0879370699525,32.63809,0.1,102.11517,1639069704999
Fix,GT,34.2264679,-118.3872204,220.62690133667,32.405754,0.1,99.71185,1639069705999
Fix,GT,34.2264239,-118.3868743,221.4018652831912,32.125244,0.1,97.41016,1639069706999
Fix,GT,34.2263921,-118.3865295,222.3448538107872,31.821262,0.1,95.02246,1639069707999
Fix,GT,34.2263732,-118.386186,223.29085316646092,31.668818,0.1,92.15842,1639069708999
Fix,GT,34.2263684,-118.3858421,224.21885253334045,31.73998,0.1,89.582275,1639069709999
Fix,GT,34.2263753,-118.3854971,225.12886448907847,31.87673,0.1,87.38312,1639069710999
Fix,GT,34.2263891,-118.3851507,225.9778623325825,32.026447,0.1,87.06848,1639069711999
Fix,GT,34.2264028,-118.3848024,226.8438617310524,32.24991,0.1,87.04004,1639069712999
Fix,GT,34.226417,-118.3844522,227.72385315942765,32.32776,0.1,86.90088,1639069713999
Fix,GT,34.2264315,-118.3841021,228.65784291696548,32.22497,0.1,86.91046,1639069714999
Fix,GT,34.2264464,-118.3837533,229.6268454704285,32.189747,0.1,86.67496,1639069715999
Fix,GT,34.2264622,-118.3834044,230.58384481811524,32.174572,0.1,86.67746,1639069716999
Fix,GT,34.2264777,-118.383056,231.5478376727104,32.11198,0.1,86.74341,1639069717999
Fix,GT,34.2264934,-118.3827087,232.5168435134888,31.92858,0.1,86.435394,1639069718999
Fix,GT,34.22651,-118.3823642,233.46683303999905,31.627256,0.1,86.441956,1639069719999
Fix,GT,34.2265265,-118.3820245,234.41284549617768,31.090824,0.1,86.42963,1639069720999
Fix,GT,34.2265423,-118.3816911,235.3198531097173,30.438541,0.1,86.51898,1639069721999
Fix,GT,34.2265575,-118.3813641,236.205865758121,29.895224,0.1,86.55368,1639069722999
Fix,GT,34.2265721,-118.3810432,236.97288352119924,29.345028,0.1,86.62872,1639069723999
Fix,GT,34.2265864,-118.3807281,237.64091479033232,28.8267,0.1,86.63287,1639069724999
Fix,GT,34.2265999,-118.3804182,238.03695302796365,28.459105,0.1,86.847565,1639069725999
Fix,GT,34.2266134,-118.3801087,238.31696799588204,28.711658,0.1,86.41507,1639069726999
Fix,GT,34.2266289,-118.3797958,238.38402198588847,28.921352,0.1,86.335205,1639069727999
Fix,GT,34.2266437,-118.3794839,238.30105433654785,28.64126,0.1,86.67883,1639069728999
Fix,GT,34.2266566,-118.3791743,237.94008524060249,28.57526,0.1,86.94501,1639069729999
Fix,GT,34.2266674,-118.3788639,237.37811296606063,28.589619,0.1,87.81827,1639069730999
Fix,GT,34.2266708,-118.3785523,236.71111169612408,28.854055,0.1,89.96933,1639069731999
Fix,GT,34.2266622,-118.3782387,236.15110178661345,28.945122,0.1,93.104675,1639069732999
Fix,GT,34.2266403,-118.3779234,235.5931004555225,29.445925,0.1,95.5668,1639069733999
Fix,GT,34.2266057,-118.3776053,235.04109041690825,29.56223,0.1,98.697754,1639069734999
Fix,GT,34.2265571,-118.37729,234.4820977592468,29.566824,0.1,101.58063,1639069735999
Fix,GT,34.2264955,-118.3769784,233.90610339725012,29.488977,0.1,104.3215,1639069736999
Fix,GT,34.2264222,-118.3766707,233.35609676098824,29.467508,0.1,106.990234,1639069737999
Fix,GT,34.2263371,-118.3763687,232.79909713470937,29.328835,0.1,109.67102,1639069738999
Fix,GT,34.2262399,-118.3760725,232.2380975117088,29.388609,0.1,112.745636,1639069739999
Fix,GT,34.2261293,-118.375782,231.68508542728424,29.527355,0.1,115.685455,1639069740999
Fix,GT,34.2260064,-118.3754969,231.1160929026604,29.620478,0.1,118.41812,1639069741999
Fix,GT,34.2258722,-118.3752195,230.5470914626121,29.584356,0.1,121.27869,1639069742999
Fix,GT,34.225727,-118.3749502,229.98610261023043,29.563307,0.1,124.03427,1639069743999
Fix,GT,34.2255713,-118.3746907,229.3541138393879,29.430098,0.1,126.90076,1639069744999
Fix,GT,34.2254059,-118.374442,228.66112696385383,29.289637,0.1,129.77414,1639069745999
Fix,GT,34.2252317,-118.374204,228.0231074132919,29.169262,0.1,132.10944,1639069746999
Fix,GT,34.2250517,-118.3739744,227.4471078141928,29.0286,0.1,133.7539,1639069747999
Fix,GT,34.22487,-118.3737488,226.8501155554652,28.872007,0.1,133.79025,1639069748999
Fix,GT,34.2246893,-118.3735244,226.2111251926422,28.751497,0.1,133.9148,1639069749999
Fix,GT,34.2245084,-118.3732995,225.5361238068342,29.029522,0.1,133.73413,1639069750999
Fix,GT,34.2243256,-118.373071,224.8491186981201,29.406584,0.1,133.67233,1639069751999
Fix,GT,34.224142,-118.3728405,224.18311541008947,29.410051,0.1,133.57098,1639069752999
Fix,GT,34.2239583,-118.37261,223.5851083583832,29.457895,0.1,133.68402,1639069753999
Fix,GT,34.2237741,-118.3723803,223.04209562718867,29.346605,0.1,133.91516,1639069754999
Fix,GT,34.2235919,-118.3721506,222.538097855568,29.17557,0.1,133.15356,1639069755999
Fix,GT,34.2234153,-118.3719173,222.03110198616983,28.997574,0.1,131.20999,1639069756999
Fix,GT,34.2232475,-118.3716772,221.46711183023456,28.84207,0.1,128.91644,1639069757999
Fix,GT,34.223088,-118.3714304,220.8211255466938,28.794212,0.1,126.57648,1639069758999
Fix,GT,34.2229382,-118.3711748,220.1541240861416,28.865911,0.1,123.64398,1639069759999
Fix,GT,34.2227997,-118.3709097,219.475132191062,28.935019,0.1,120.74765,1639069760999
Fix,GT,34.2226705,-118.370635,218.7971307413578,29.228966,0.1,118.11545,1639069761999
Fix,GT,34.2225514,-118.3703521,218.12212927395103,29.193602,0.1,115.57657,1639069762999
Fix,GT,34.2224422,-118.3700644,217.4501297292113,29.098204,0.1,113.32526,1639069763999
Fix,GT,34.2223447,-118.369772,216.792126298368,28.983751,0.1,110.26041,1639069764999
Fix,GT,34.2222595,-118.3694733,216.1161267439128,29.22712,0.1,107.4762,1639069765999
Fix,GT,34.2221869,-118.3691687,215.43813892155885,29.180271,0.1,104.42572,1639069766999
Fix,GT,34.2221267,-118.3688606,214.74713547712565,29.135971,0.1,101.90216,1639069767999
Fix,GT,34.2220779,-118.3685505,214.0751320055127,29.009346,0.1,99.35632,1639069768999
Fix,GT,34.2220403,-118.3682399,213.37714036887888,28.840515,0.1,97.07706,1639069769999
Fix,GT,34.2220121,-118.3679285,212.65314680278303,28.971764,0.1,95.01538,1639069770999
Fix,GT,34.2219928,-118.3676137,211.89615924930573,29.180035,0.1,93.371826,1639069771999
Fix,GT,34.2219766,-118.3672967,211.1431478084326,29.338718,0.1,93.41815,1639069772999
Fix,GT,34.2219586,-118.3669786,210.55009820902347,29.382504,0.1,93.77606,1639069773999
Fix,GT,34.2219404,-118.366661,210.2020482654572,29.290146,0.1,93.48895,1639069774999
Fix,GT,34.2219234,-118.3663446,210.07801412498952,29.1264,0.1,93.50342,1639069775999
Fix,GT,34.2219059,-118.3660302,209.98302024650573,28.952612,0.1,93.69635,1639069776999
Fix,GT,34.221888,-118.3657175,209.89901625156403,28.844048,0.1,93.704285,1639069777999
Fix,GT,34.2218703,-118.3654055,209.80701426768303,28.793644,0.1,93.4469,1639069778999
Fix,GT,34.2218539,-118.3650935,209.71401840531823,28.8657,0.1,93.362915,1639069779999
Fix,GT,34.221837,-118.36478,209.6160205183029,29.035917,0.1,93.53204,1639069780999
Fix,GT,34.2218194,-118.3644647,209.52901646900176,29.19658,0.1,93.64249,1639069781999
Fix,GT,34.2218012,-118.3641479,209.427026850462,29.281712,0.1,93.76352,1639069782999
Fix,GT,34.2217826,-118.3638314,209.2870352276564,29.193787,0.1,93.83191,1639069783999
Fix,GT,34.2217641,-118.3635159,209.11203950232263,29.09938,0.1,93.666504,1639069784999
Fix,GT,34.2217465,-118.3632006,208.88505006074905,29.138119,0.1,93.55505,1639069785999
Fix,GT,34.221729,-118.3628848,208.63905022382733,29.19956,0.1,93.53848,1639069786999
Fix,GT,34.2217114,-118.3625681,208.36905668205023,29.312387,0.1,93.64618,1639069787999
Fix,GT,34.221693,-118.3622497,208.09704844373465,29.524622,0.1,93.70438,1639069788999
Fix,GT,34.2216749,-118.3619292,207.80508029341692,29.58365,0.1,93.581665,1639069789999
Fix,GT,34.2216565,-118.3616092,207.4790741922856,29.573225,0.1,93.68384,1639069790999
Fix,GT,34.2216372,-118.3612886,207.13806805038453,29.625044,0.1,94.343994,1639069791999
Fix,GT,34.2216105,-118.3609697,206.8080661344528,29.444174,0.1,96.52667,1639069792999
Fix,GT,34.2215721,-118.360655,206.5070620647669,29.193771,0.1,99.62671,1639069793999
Fix,GT,34.2215193,-118.360346,206.2360558209419,28.960365,0.1,102.739075,1639069794999
Fix,GT,34.2214552,-118.3600427,205.9620559976101,28.765263,0.1,105.039734,1639069795999
Fix,GT,34.22138,-118.3597437,205.74503672933577,28.820667,0.1,107.866425,1639069796999
Fix,GT,34.2212922,-118.3594485,205.7209978326559,28.989824,0.1,110.77179,1639069797999
Fix,GT,34.2211922,-118.3591572,205.90393912410727,29.06431,0.1,113.34509,1639069798999
Fix,GT,34.2210812,-118.3588735,206.279908400774,28.74517,0.1,116.44113,1639069799999
Fix,GT,34.2209587,-118.3586004,206.64692342740287,28.448645,0.1,119.363495,1639069800999
Fix,GT,34.220827,-118.3583372,207.0259275787473,28.223019,0.1,121.94745,1639069801999
Fix,GT,34.220686,-118.3580816,207.39790974348784,28.335941,0.1,124.36371,1639069802999
Fix,GT,34.2205354,-118.3578327,207.7849028403759,28.469923,0.1,126.94003,1639069803999
Fix,GT,34.2203745,-118.3575906,208.174902541399,28.523878,0.1,129.72705,1639069804999
Fix,GT,34.220205,-118.3573605,208.55691112947463,28.148937,0.1,132.55899,1639069805999
Fix,GT,34.220029,-118.3571432,208.92392422902583,27.85064,0.1,135.16974,1639069806999
Fix,GT,34.219846,-118.3569372,209.3009083505273,27.64305,0.1,137.94043,1639069807999
Fix,GT,34.2196568,-118.3567445,209.6909080719352,27.454391,0.1,140.90057,1639069808999
Fix,GT,34.21946,-118.3565622,210.1808718136549,27.63889,0.1,143.13843,1639069809999
Fix,GT,34.2192591,-118.3563877,210.72888496041296,27.286152,0.1,144.39722,1639069810999
Fix,GT,34.2190602,-118.3562175,211.20290271365644,26.882109,0.1,144.15735,1639069811999
Fix,GT,34.2188637,-118.3560475,211.59791830635072,26.849707,0.1,143.98657,1639069812999
Fix,GT,34.2186669,-118.3558767,211.90493171811104,26.979914,0.1,143.9693,1639069813999
Fix,GT,34.2184691,-118.3557047,212.0969680399895,27.172413,0.1,143.97949,1639069814999
Fix,GT,34.2182692,-118.3555319,212.12401602756972,27.416935,0.1,144.11542,1639069815999
Fix,GT,34.2180675,-118.3553578,212.0240344476104,27.605696,0.1,144.2905,1639069816999
Fix,GT,34.2178651,-118.3551848,211.9120414594412,27.446693,0.1,144.18457,1639069817999
Fix,GT,34.2176653,-118.3550112,211.59307623320817,27.246904,0.1,143.87683,1639069818999
Fix,GT,34.2174664,-118.3548372,211.19410657703875,27.36746,0.1,143.61627,1639069819999
Fix,GT,34.2172678,-118.3546598,210.68513012313844,27.416803,0.1,142.94073,1639069820999
Fix,GT,34.2170714,-118.354478,210.0201701208353,27.687853,0.1,141.65567,1639069821999
Fix,GT,34.2168745,-118.3542872,209.3101916518212,28.332298,0.1,140.23596,1639069822999
Fix,GT,34.216679,-118.3540883,208.51019689702983,28.398376,0.1,139.11371,1639069823999
Fix,GT,34.2164869,-118.3538849,207.716197467804,28.362803,0.1,137.86658,1639069824999
Fix,GT,34.2162994,-118.353676,206.8892121841908,28.32815,0.1,136.30856,1639069825999
Fix,GT,34.2161151,-118.3534623,205.89425299048423,28.535217,0.1,135.51715,1639069826999
Fix,GT,34.2159298,-118.3532444,204.86222763443,28.868904,0.1,135.2782,1639069827999
Fix,GT,34.2157445,-118.3530245,203.94619023418423,28.858183,0.1,134.96045,1639069828999
Fix,GT,34.21556,-118.3528038,203.2371454680562,28.86707,0.1,134.84253,1639069829999
Fix,GT,34.2153757,-118.352581,202.6611219673753,29.155504,0.1,134.47467,1639069830999
Fix,GT,34.2151893,-118.3523552,202.2370887375474,29.359129,0.1,134.77075,1639069831999
Fix,GT,34.2150019,-118.3521317,201.95305291235448,29.186796,0.1,135.25562,1639069832999
Fix,GT,34.2148147,-118.3519098,201.8190168828964,29.077564,0.1,135.05719,1639069833999
Fix,GT,34.214629,-118.3516886,201.73302660501005,28.92037,0.1,134.99774,1639069834999
Fix,GT,34.2144436,-118.3514676,201.64502667975427,28.965645,0.1,135.0156,1639069835999
Fix,GT,34.2142585,-118.3512475,201.56901702559,28.737251,0.1,134.96228,1639069836999
Fix,GT,34.2140755,-118.351028,201.4950170731545,28.574251,0.1,134.70953,1639069837999
Fix,GT,34.2138937,-118.3508101,201.41202445816995,28.365812,0.1,134.92938,1639069838999
Fix,GT,34.2137124,-118.3505946,201.3160220735073,28.192503,0.1,135.1948,1639069839999
Fix,GT,34.2135308,-118.35038,201.225039349556,28.307066,0.1,135.3457,1639069840999
Fix,GT,34.2133474,-118.3501634,201.1310147968531,28.689678,0.1,135.22174,1639069841999
Fix,GT,34.2131628,-118.3499449,201.05401978349684,28.678524,0.1,135.2649,1639069842999
Fix,GT,34.2129783,-118.349727,200.96802231758832,28.713095,0.1,135.14044,1639069843999
Fix,GT,34.2127943,-118.3495073,200.871017406106,28.828121,0.1,134.88068,1639069844999
Fix,GT,34.2126098,-118.3492864,200.7960074801445,28.840847,0.1,134.84607,1639069845999
Fix,GT,34.212425,-118.3490651,200.7010250005722,28.949211,0.1,134.99118,1639069846999
Fix,GT,34.2122392,-118.348844,200.54505013704292,29.016695,0.1,135.16916,1639069847999
Fix,GT,34.2120535,-118.3486235,200.3280980345607,28.87915,0.1,135.25916,1639069848999
Fix,GT,34.2118674,-118.3484028,199.9071285455823,29.061142,0.1,134.94614,1639069849999
Fix,GT,34.2116816,-118.3481804,199.41612635886668,29.084146,0.1,135.08957,1639069850999
Fix,GT,34.2114949,-118.347959,198.8121723101139,29.045532,0.1,134.9921,1639069851999
Fix,GT,34.2113082,-118.3477371,198.11619310283663,29.197897,0.1,135.19324,1639069852999
Fix,GT,34.2111194,-118.3475146,197.35719616687297,29.406015,0.1,135.50934,1639069853999
Fix,GT,34.2109286,-118.347292,196.5852069077492,29.542213,0.1,135.64856,1639069854999
Fix,GT,34.2107364,-118.3470693,195.81418696844577,29.609348,0.1,136.01776,1639069855999
Fix,GT,34.2105431,-118.3468481,194.9692028725148,29.58277,0.1,136.2959,1639069856999
Fix,GT,34.2103488,-118.3466282,194.1811647872925,29.62042,0.1,136.60797,1639069857999
Fix,GT,34.2101531,-118.3464093,193.4022039461136,29.646801,0.1,137.07568,1639069858999
Fix,GT,34.209956,-118.3461914,192.6951682454348,29.737432,0.1,137.5744,1639069859999
Fix,GT,34.2097551,-118.3459772,192.1241323544979,29.744766,0.1,138.67505,1639069860999
Fix,GT,34.2095525,-118.3457674,191.68811188519,29.550854,0.1,139.38922,1639069861999
Fix,GT,34.2093482,-118.3455628,191.3790652194023,29.409609,0.1,140.7143,1639069862999
Fix,GT,34.2091416,-118.3453646,191.2050392335653,29.209,0.1,141.52087,1639069863999
Fix,GT,34.2089339,-118.3451718,191.1050157345533,28.946804,0.1,142.68463,1639069864999
Fix,GT,34.2087253,-118.3449859,191.03401051688192,28.654879,0.1,143.68451,1639069865999
Fix,GT,34.2085164,-118.3448056,190.9390210881233,28.37654,0.1,144.46918,1639069866999
Fix,GT,34.2083072,-118.3446302,190.84402642810343,28.230219,0.1,145.24591,1639069867999
Fix,GT,34.2080959,-118.3444593,190.76602384644744,28.248003,0.1,146.29187,1639069868999
Fix,GT,34.2078827,-118.3442927,190.6880159384012,28.09307,0.1,147.12329,1639069869999
Fix,GT,34.2076696,-118.3441305,190.59402929514647,27.90532,0.1,147.71008,1639069870999
Fix,GT,34.2074559,-118.3439729,190.50501868993044,27.699509,0.1,148.72916,1639069871999
Fix,GT,34.2072413,-118.3438207,190.42001338392487,27.618052,0.1,149.62476,1639069872999
Fix,GT,34.2070251,-118.3436707,190.3230295187235,27.747845,0.1,149.87665,1639069873999
Fix,GT,34.2068071,-118.3435207,190.1770403547287,27.938719,0.1,150.14911,1639069874999
Fix,GT,34.2065881,-118.3433716,189.9340890046358,27.823719,0.1,150.08228,1639069875999
Fix,GT,34.2063705,-118.3432226,189.65214330697057,27.739021,0.1,150.01001,1639069876999
Fix,GT,34.2061537,-118.343074,189.3230867424012,27.605577,0.1,150.1275,1639069877999
Fix,GT,34.2059376,-118.3429263,188.9071141347885,27.572258,0.1,150.164,1639069878999
Fix,GT,34.2057216,-118.3427789,188.48611442267887,27.4908,0.1,150.18805,1639069879999
Fix,GT,34.2055062,-118.3426327,188.065111972034,27.354866,0.1,150.44357,1639069880999
Fix,GT,34.2052908,-118.3424881,187.63810677498577,27.47797,0.1,150.67426,1639069881999
Fix,GT,34.2050736,-118.3423431,187.2141042953729,27.530376,0.1,150.68549,1639069882999
Fix,GT,34.2048575,-118.3421979,186.76510180437563,27.380398,0.1,150.54056,1639069883999
Fix,GT,34.2046427,-118.3420533,186.36910481405252,27.21104,0.1,150.62646,1639069884999
Fix,GT,34.204429,-118.3419101,185.9541161324978,27.06044,0.1,150.48468,1639069885999
Fix,GT,34.2042172,-118.3417663,185.5411136460304,26.903656,0.1,150.14844,1639069886999
Fix,GT,34.2040063,-118.341622,185.136111143589,26.876179,0.1,150.12299,1639069887999
Fix,GT,34.2037961,-118.341478,184.7271002738476,26.766918,0.1,150.10919,1639069888999
Fix,GT,34.2035869,-118.341335,184.31113681679963,26.619184,0.1,150.20477,1639069889999
Fix,GT,34.2033786,-118.3411933,183.8771231548786,26.469963,0.1,150.36746,1639069890999
Fix,GT,34.2031717,-118.3410531,183.4721094250083,26.086061,0.1,150.32538,1639069891999
Fix,GT,34.2029696,-118.340916,183.07410406488185,25.36868,0.1,150.25305,1639069892999
Fix,GT,34.2027713,-118.3407808,182.68310431629416,25.283636,0.1,150.17322,1639069893999
Fix,GT,34.2025714,-118.3406452,182.2901186959744,25.66346,0.1,150.49255,1639069894999
Fix,GT,34.2023664,-118.3405094,181.8731104850173,26.242598,0.1,151.19131,1639069895999
Fix,GT,34.2021562,-118.3403736,181.4431306254864,26.700476,0.1,151.63055,1639069896999
Fix,GT,34.2019423,-118.3402332,181.01811670565607,27.443937,0.1,150.43933,1639069897999
Fix,GT,34.2017228,-118.3400815,180.6181369571686,28.727337,0.1,149.58249,1639069898999
Fix,GT,34.2014941,-118.3399238,180.14113442325592,29.552656,0.1,150.45178,1639069899999
Fix,GT,34.20126,-118.3397696,179.73410607397557,29.586151,0.1,151.68219,1639069900999
Fix,GT,34.2010245,-118.3396209,179.42011494636537,29.398905,0.1,152.29865,1639069901999
Fix,GT,34.2007903,-118.3394743,179.19205184817315,29.185051,0.1,151.99323,1639069902999
Fix,GT,34.2005587,-118.3393274,179.03906929254532,28.904688,0.1,152.0415,1639069903999
Fix,GT,34.2003277,-118.339182,178.96003762179612,28.99289,0.1,152.21265,1639069904999
Fix,GT,34.2000972,-118.339036,179.0209332820773,28.76132,0.1,151.78894,1639069905999
Fix,GT,34.1998689,-118.3388872,179.2678575288653,28.931112,0.1,150.8023,1639069906999
Fix,GT,34.199642,-118.3387296,179.49994171142578,29.05949,0.1,149.0896,1639069907999
Fix,GT,34.1994195,-118.3385657,179.6620204485655,28.856907,0.1,147.651,1639069908999
Fix,GT,34.1992015,-118.3383942,179.54203513622284,28.932512,0.1,145.84091,1639069909999
Fix,GT,34.1989869,-118.3382156,179.4390146740675,28.867126,0.1,144.61938,1639069910999
Fix,GT,34.1987771,-118.3380329,179.32203529930115,28.570496,0.1,143.06918,1639069911999
Fix,GT,34.1985746,-118.3378441,179.0580648648739,28.279608,0.1,141.0922,1639069912999
Fix,GT,34.1983806,-118.3376471,178.68010342985394,28.122366,0.1,138.15814,1639069913999
Fix,GT,34.1981945,-118.3374372,178.15218067795038,28.484282,0.1,135.3396,1639069914999
Fix,GT,34.1980141,-118.3372136,177.5112315608263,28.98141,0.1,132.80133,1639069915999
Fix,GT,34.1978367,-118.3369785,176.69524994397165,29.562119,0.1,131.40839,1639069916999
Fix,GT,34.1976605,-118.3367333,175.73430717879535,30.152393,0.1,130.00272,1639069917999
Fix,GT,34.1974852,-118.3364803,174.56737363171578,30.51688,0.1,129.45996,1639069918999
Fix,GT,34.1973094,-118.3362249,173.30336549353598,30.592346,0.1,129.39673,1639069919999
Fix,GT,34.1971331,-118.3359691,172.08331828022003,30.673088,0.1,129.36694,1639069920999
Fix,GT,34.1969572,-118.3357127,171.10729191553594,30.597052,0.1,129.25555,1639069921999
Fix,GT,34.1967816,-118.3354575,170.36322018504143,30.47594,0.1,129.58502,1639069922999
Fix,GT,34.1966059,-118.3352041,169.6182297501564,30.356846,0.1,129.69678,1639069923999
Fix,GT,34.196431,-118.3349517,168.9132332918048,30.233292,0.1,129.45316,1639069924999
Fix,GT,34.1962605,-118.3346966,168.24917612040042,30.17066,0.1,127.42685,1639069925999
Fix,GT,34.1960963,-118.3344327,167.7011339075565,30.662945,0.1,125.939606,1639069926999
Fix,GT,34.1959335,-118.3341601,167.31110675519705,31.11703,0.1,125.14966,1639069927999
Fix,GT,34.1957733,-118.3338836,166.98607642358542,30.99469,0.1,124.101776,1639069928999
Fix,GT,34.1956169,-118.3336047,166.6781102924347,31.201555,0.1,123.68225,1639069929999
Fix,GT,34.1954572,-118.3333218,166.1741596646309,31.938232,0.1,124.04364,1639069930999
Fix,GT,34.1952935,-118.3330307,165.60418771338465,32.82394,0.1,123.418945,1639069931999
Fix,GT,34.1951301,-118.3327326,165.14808018565176,32.931786,0.1,122.96301,1639069932999
Fix,GT,34.1949678,-118.3324333,164.79311745262146,33.02048,0.1,122.703186,1639069933999
Fix,GT,34.1948057,-118.3321322,164.4421177085638,33.025852,0.1,122.71457,1639069934999
Fix,GT,34.1946434,-118.3318335,164.08909623605012,32.751446,0.1,123.20767,1639069935999
Fix,GT,34.1944787,-118.3315406,163.71510578024387,32.452637,0.1,124.43579,1639069936999
Fix,GT,34.1943094,-118.3312555,163.35213095510005,32.21181,0.1,126.5842,1639069937999
Fix,GT,34.19413,-118.3309791,163.0420906184316,32.488594,0.1,128.51688,1639069938999
Fix,GT,34.1939445,-118.3307057,162.83404071116448,32.468987,0.1,129.3797,1639069939999
Fix,GT,34.1937586,-118.3304357,162.7120282458067,32.282288,0.1,129.19226,1639069940999
Fix,GT,34.1935737,-118.3301668,162.62104403138162,31.99105,0.1,129.57455,1639069941999
Fix,GT,34.1933885,-118.3299038,162.7059842405319,31.553434,0.1,130.57849,1639069942999
Fix,GT,34.1932017,-118.329649,162.7499873650074,31.12061,0.1,131.70697,1639069943999
Fix,GT,34.1930138,-118.3294004,162.7799683445692,30.944492,0.1,132.44568,1639069944999
Fix,GT,34.1928222,-118.3291551,162.82998731064797,31.027605,0.1,133.39581,1639069945999
Fix,GT,34.1926286,-118.3289146,162.85002225393058,30.700394,0.1,134.22324,1639069946999
Fix,GT,34.1924351,-118.3286791,162.8389904422164,30.336914,0.1,134.52454,1639069947999
Fix,GT,34.1922436,-118.3284471,162.82001915597914,29.860119,0.1,134.612,1639069948999
Fix,GT,34.1920589,-118.3282234,162.7620319945812,28.187307,0.1,134.60904,1639069949999
Fix,GT,34.1918817,-118.3280096,162.64298717498778,27.603455,0.1,134.73907,1639069950999
Fix,GT,34.1917086,-118.3278015,162.56810281753542,26.613678,0.1,134.84177,1639069951999
Fix,GT,34.1915403,-118.3275999,162.11817387151717,26.131313,0.1,134.94287,1639069952999
Fix,GT,34.191375,-118.3274003,161.88208389258384,25.831747,0.1,134.60535,1639069953999
Fix,GT,34.1912116,-118.3272024,161.53712287044524,25.603825,0.1,134.56738,1639069954999
Fix,GT,34.1910501,-118.3270052,161.13914257001878,25.51626,0.1,134.30316,1639069955999
Fix,GT,34.1908895,-118.326807,160.69116235113145,25.603455,0.1,134.08948,1639069956999
Fix,GT,34.1907298,-118.326605,160.10919848287108,25.719065,0.1,132.85382,1639069957999
Fix,GT,34.1905726,-118.3264001,159.4712086791992,25.67724,0.1,132.29944,1639069958999
Fix,GT,34.190417,-118.3261943,158.79423851639035,25.616407,0.1,131.88373,1639069959999
Fix,GT,34.1902626,-118.3259879,157.9602684797049,25.593996,0.1,131.81348,1639069960999
Fix,GT,34.1901075,-118.3257826,157.20325919407605,25.640745,0.1,132.18848,1639069961999
Fix,GT,34.1899499,-118.3255739,156.46425973087548,26.337315,0.1,131.81885,1639069962999
Fix,GT,34.1897916,-118.3253599,155.69826686155798,26.450481,0.1,131.15521,1639069963999
Fix,GT,34.189634,-118.3251438,154.770356549263,26.66872,0.1,130.96252,1639069964999
Fix,GT,34.1894738,-118.3249227,153.75329442775248,27.35803,0.1,130.77173,1639069965999
Fix,GT,34.1893095,-118.3246956,152.82032817041872,28.193466,0.1,130.73682,1639069966999
Fix,GT,34.1891401,-118.324462,152.13217937219142,28.93347,0.1,130.96225,1639069967999
Fix,GT,34.1889641,-118.3242268,151.532186396122,29.390259,0.1,132.65146,1639069968999
Fix,GT,34.1887814,-118.3239917,151.07412674129012,29.98343,0.1,132.80289,1639069969999
Fix,GT,34.188596,-118.3237524,150.68012031531333,30.170946,0.1,132.52554,1639069970999
Fix,GT,34.1884131,-118.3235119,150.41709041833877,29.923956,0.1,131.92108,1639069971999
Fix,GT,34.1882337,-118.3232715,150.2390738236904,29.746742,0.1,131.4029,1639069972999
Fix,GT,34.1880559,-118.3230307,150.0979831879139,29.56609,0.1,131.45941,1639069973999
Fix,GT,34.1878797,-118.3227929,150.23294946181775,29.158352,0.1,131.44138,1639069974999
Fix,GT,34.1877056,-118.3225592,150.3969493598938,28.73033,0.1,131.97131,1639069975999
Fix,GT,34.1875328,-118.3223302,150.57996617197992,28.296326,0.1,132.23373,1639069976999
Fix,GT,34.1873597,-118.322108,150.66698305201533,27.866335,0.1,133.72348,1639069977999
Fix,GT,34.1871856,-118.3218933,150.66399660354853,27.365568,0.1,134.34808,1639069978999
Fix,GT,34.1870177,-118.3216847,150.72894895040992,26.01385,0.1,133.26562,1639069979999
Fix,GT,34.1868638,-118.3214835,150.7879897696972,24.44854,0.1,131.7886,1639069980999
Fix,GT,34.1867224,-118.3212878,150.8349589972496,23.531933,0.1,129.68549,1639069981999
Fix,GT,34.1865926,-118.3210887,150.95793152618407,23.123138,0.1,126.59769,1639069982999
Fix,GT,34.1864711,-118.3208879,151.17090051591396,22.660906,0.1,126.00653,1639069983999
Fix,GT,34.1863522,-118.3206914,151.5748246986866,22.14111,0.1,125.7475,1639069984999
Fix,GT,34.1862382,-118.3204987,152.139776135087,21.368008,0.1,124.68634,1639069985999
Fix,GT,34.1861332,-118.3203133,152.77778604602813,19.869509,0.1,124.02539,1639069986999
Fix,GT,34.1860374,-118.3201429,153.41076142519714,18.076258,0.1,123.65024,1639069987999
Fix,GT,34.1859516,-118.3199881,154.0857713495493,16.257282,0.1,123.29254,1639069988999
Fix,GT,34.1858752,-118.3198495,154.72077090108397,14.528968,0.1,123.25037,1639069989999
Fix,GT,34.1858062,-118.3197242,155.28681218850613,13.179396,0.1,123.064026,1639069990999
Fix,GT,34.1857454,-118.3196134,155.63890591078996,11.216287,0.1,123.11975,1639069991999
Fix,GT,34.1856941,-118.3195201,155.8839231852293,9.651612,0.1,123.21011,1639069992999
Fix,GT,34.1856486,-118.319437,156.0609790097475,8.701096,0.1,123.07764,1639069993999
Fix,GT,34.1856082,-118.3193629,156.1549684534669,7.5686684,0.1,123.01141,1639069994999
Fix,GT,34.1855743,-118.3193011,156.20699297595024,5.994502,0.1,123.18515,1639069995999
Fix,GT,34.1855484,-118.3192541,156.24798592519758,4.438069,0.1,123.348816,1639069996999
Fix,GT,34.1855287,-118.3192186,156.2809964745045,3.46416,0.1,123.46326,1639069997999
Fix,GT,34.1855136,-118.3191913,156.30099293541906,2.6032276,0.1,123.30658,1639069998999
Fix,GT,34.1855025,-118.319171,156.310996460855,1.8283987,0.1,123.20105,1639069999999
Fix,GT,34.1854961,-118.3191593,156.324,0.73842096,0.1,123.18811,1639070000999
Fix,GT,34.1854944,-118.3191563,156.328,0.005208972,0.1,123.17554,1639070001999
Fix,GT,34.1854944,-118.3191563,156.325,0.0014204358,0.1,123.17966,1639070002999
Fix,GT,34.1854944,-118.3191564,156.326,0.0036006675,0.1,123.17743,1639070003999
Fix,GT,34.1854944,-118.3191564,156.327,0.0014142136,0.1,123.17749,1639070004999
Fix,GT,34.1854944,-118.3191564,156.327,0.0014171557,0.1,123.177246,1639070005999
Fix,GT,34.1854944,-118.3191564,156.327,0.0028284271,0.1,123.1774,1639070006999
Fix,GT,34.1854944,-118.3191564,156.32799640655517,0.0042426405,0.1,123.1774,1639070007999
Fix,GT,34.1854942,-118.3191562,156.32600360023974,0.16985084,0.1,123.17917,1639070008999
Fix,GT,34.1854914,-118.3191511,156.33099639296532,1.0710205,0.1,123.13553,1639070009999
Fix,GT,34.185483,-118.3191357,156.34499277246,2.2570686,0.1,122.996765,1639070010999
Fix,GT,34.1854695,-118.3191106,156.3530072411299,3.3004975,0.1,122.85144,1639070011999
Fix,GT,34.1854497,-118.3190741,156.3440108820796,4.7721567,0.1,122.90616,1639070012999
Fix,GT,34.1854219,-118.3190235,156.3259963658452,6.3678517,0.1,123.523865,1639070013999
Fix,GT,34.1853874,-118.3189611,156.28803276854754,7.456865,0.1,123.806274,1639070014999
Fix,GT,34.1853489,-118.3188912,156.2789197496176,8.03872,0.1,123.91254,1639070015999
Fix,GT,34.185308,-118.3188144,156.3749524909854,8.712693,0.1,122.10837,1639070016999
Fix,GT,34.1852709,-118.3187281,156.4389560639858,9.264341,0.1,114.99216,1639070017999
Fix,GT,34.1852468,-118.3186283,156.5080293455124,9.837785,0.1,102.26666,1639070018999
Fix,GT,34.1852422,-118.3185177,156.26406982469558,10.5898905,0.1,89.61749,1639070019999
Fix,GT,34.185252,-118.3184012,156.05607731735708,11.148376,0.1,82.170715,1639070020999
Fix,GT,34.1852733,-118.3182795,155.84307746005058,11.608323,0.1,76.39258,1639070021999
Fix,GT,34.1853032,-118.3181589,155.61908499348164,11.586988,0.1,71.849365,1639070022999
Fix,GT,34.1853389,-118.3180414,155.3860851483941,11.406793,0.1,69.24216,1639070023999
Fix,GT,34.1853752,-118.3179325,155.1450853060484,9.9549265,0.1,67.74231,1639070024999
Fix,GT,34.1854062,-118.3178426,154.92807431507111,7.981762,0.1,67.487274,1639070025999
Fix,GT,34.1854302,-118.3177719,154.74606700587273,6.1888337,0.1,67.667816,1639070026999
Fix,GT,34.1854486,-118.3177174,154.60004475140573,4.716424,0.1,67.68298,1639070027999
Fix,GT,34.1854625,-118.3176763,154.4920373613834,3.4768665,0.1,67.726654,1639070028999
Fix,GT,34.1854717,-118.3176484,154.42101871436833,2.0127227,0.1,67.84534,1639070029999
Fix,GT,34.1854765,-118.3176341,154.3850074995756,0.9545628,0.1,67.8699,1639070030999
Fix,GT,34.1854786,-118.3176277,154.36900375646354,0.3155544,0.1,67.77106,1639070031999
Fix,GT,34.1854788,-118.3176271,154.36500376325847,0.0036319867,0.1,67.770355,1639070032999
Fix,GT,34.1854788,-118.3176271,154.36500377005342,0.0049924594,0.1,67.769714,1639070033999
Fix,GT,34.1854787,-118.3176271,154.366,0.0028284271,0.1,67.76752,1639070034999
Fix,GT,34.1854787,-118.3176272,154.366,0.0014142136,0.1,67.7673,1639070035999
Fix,GT,34.1854787,-118.3176272,154.366,0.0014142136,0.1,67.76727,1639070036999
Fix,GT,34.1854787,-118.3176272,154.366,0.0028252813,0.1,67.767334,1639070037999
Fix,GT,34.1854787,-118.3176272,154.366,0.0031622776,0.1,67.767334,1639070038999
Fix,GT,34.1854787,-118.3176272,154.366,0.0031622776,0.1,67.7673,1639070039999
Fix,GT,34.1854787,-118.3176272,154.366,0.004122636,0.1,67.76706,1639070040999
Fix,GT,34.1854787,-118.3176272,154.366,0.0041231057,0.1,67.76697,1639070041999
Fix,GT,34.1854787,-118.3176272,154.366,0.005094809,0.1,67.76718,1639070042999
Fix,GT,34.1854787,-118.3176272,154.366,0.0041231057,0.1,67.76718,1639070043999
Fix,GT,34.1854787,-118.3176272,154.366,0.0031639817,0.1,67.76709,1639070044999
Fix,GT,34.1854787,-118.3176272,154.366,0.003603844,0.1,67.76703,1639070045999
Fix,GT,34.1854787,-118.3176272,154.36599614161256,0.004240182,0.1,67.76697,1639070046999
Fix,GT,34.1854787,-118.3176272,154.3630038651824,0.006397701,0.1,67.76691,1639070047999
Fix,GT,34.1854787,-118.3176272,154.36100387197732,0.0067070224,0.1,67.766846,1639070048999
Fix,GT,34.1854788,-118.3176272,154.36,0.0072111026,0.1,67.76697,1639070049999
Fix,GT,34.1854788,-118.3176272,154.359,0.006708204,0.1,67.76703,1639070050999
Fix,GT,34.1854789,-118.3176271,154.35601167690754,0.14687434,0.1,67.766754,1639070051999
Fix,GT,34.1854823,-118.3176173,154.3160194954872,2.232659,0.1,67.67731,1639070052999
Fix,GT,34.1854951,-118.3175815,154.23105077660085,4.8319793,0.1,66.78525,1639070053999
Fix,GT,34.1855168,-118.3175223,154.07108216893673,7.089337,0.1,65.8418,1639070054999
Fix,GT,34.1855468,-118.317445,153.8360979885459,8.489385,0.1,64.4498,1639070055999
Fix,GT,34.185583,-118.3173567,153.51018454062938,9.530397,0.1,63.129333,1639070056999
Fix,GT,34.1856224,-118.3172627,153.14816912722588,9.805559,0.1,63.193848,1639070057999
Fix,GT,34.1856614,-118.3171664,152.82413001954558,9.930256,0.1,63.97937,1639070058999
Fix,GT,34.1856982,-118.3170674,152.46514603090287,10.082195,0.1,66.717834,1639070059999
Fix,GT,34.185732,-118.3169594,151.95630442535875,11.621121,0.1,70.03314,1639070060999
Fix,GT,34.1857677,-118.3168272,151.33415841484072,13.726089,0.1,72.36569,1639070061999
Fix,GT,34.1858049,-118.3166845,151.32794445884227,13.696095,0.1,71.48532,1639070062999
Fix,GT,34.1858458,-118.3165491,151.70779335093496,12.688247,0.1,68.13638,1639070063999
Fix,GT,34.1858907,-118.3164279,152.21779299759865,11.777604,0.1,64.06537,1639070064999
Fix,GT,34.1859401,-118.3163207,152.77376473098994,10.803559,0.1,58.59662,1639070065999
Fix,GT,34.1859906,-118.3162287,153.24986019581556,9.418846,0.1,55.870544,1639070066999
Fix,GT,34.1860299,-118.3161463,153.65080794239046,8.122113,0.1,63.181732,1639070067999
Fix,GT,34.1860456,-118.316065,154.15784368818996,7.4589524,0.1,81.194214,1639070068999
Fix,GT,34.186035,-118.3159824,154.5778394083977,8.220658,0.1,104.26233,1639070069999
Fix,GT,34.1859937,-118.3159006,154.80592358988525,9.4946375,0.1,125.455536,1639070070999
Fix,GT,34.1859293,-118.3158218,154.75602014189957,10.873586,0.1,135.80264,1639070071999
Fix,GT,34.1858539,-118.3157399,154.6950242110491,11.40933,0.1,137.05035,1639070072999
Fix,GT,34.1857793,-118.3156563,154.6439757478237,11.122393,0.1,135.9906,1639070073999
Fix,GT,34.1857105,-118.3155752,154.58902024412154,10.235706,0.1,134.27277,1639070074999
Fix,GT,34.18565,-118.3154999,154.51502433371542,8.936882,0.1,133.06421,1639070075999
Fix,GT,34.1855982,-118.3154354,154.4660162496567,7.524921,0.1,133.77667,1639070076999
Fix,GT,34.1855482,-118.315389,154.38408952260016,6.855269,0.1,144.86774,1639070077999
Fix,GT,34.1854888,-118.3153668,154.17312228012085,7.1086416,0.1,166.67548,1639070078999
Fix,GT,34.1854208,-118.3153803,153.82218780875206,8.341026,0.1,194.26653,1639070079999
Fix,GT,34.1853491,-118.3154295,153.59510632944108,9.973757,0.1,212.77615,1639070080999
Fix,GT,34.1852741,-118.3155003,153.35008602416517,11.012143,0.1,217.37701,1639070081999
Fix,GT,34.185191,-118.3155683,153.08213950824737,11.234435,0.1,211.81659,1639070082999
Fix,GT,34.1851015,-118.3156239,152.76513562929628,10.988144,0.1,204.21294,1639070083999
Fix,GT,34.1850096,-118.3156602,152.49311115288734,10.471824,0.1,194.8303,1639070084999
Fix,GT,34.1849215,-118.3156733,152.2660989642143,9.181103,0.1,182.83278,1639070085999
Fix,GT,34.1848467,-118.3156641,152.09605369395018,7.42338,0.1,171.64429,1639070086999
Fix,GT,34.1847883,-118.3156525,151.94305791938308,5.6942587,0.1,171.04254,1639070087999
Fix,GT,34.184747,-118.3156451,151.8220414389372,3.7093031,0.1,172.29773,1639070088999
Fix,GT,34.1847189,-118.3156408,151.72304980897903,2.634609,0.1,172.99469,1639070089999
Fix,GT,34.1846988,-118.3156374,151.6490249452591,1.8680434,0.1,172.90552,1639070090999
Fix,GT,34.1846836,-118.3156348,151.59502082169055,1.8194152,0.1,173.81763,1639070091999
Fix,GT,34.1846637,-118.3156389,151.5210417113304,2.7180285,0.1,186.07669,1639070092999
Fix,GT,34.1846362,-118.3156466,151.42306684684752,3.344609,0.1,191.21669,1639070093999
Fix,GT,34.1846075,-118.3156363,151.3300209236145,3.0024633,0.1,166.55072,1639070094999
Fix,GT,34.1845925,-118.3156032,151.22701676607133,3.2584395,0.1,127.3288,1639070095999
Fix,GT,34.1845985,-118.3155631,151.1960923628807,3.3400397,0.1,86.91492,1639070096999
Fix,GT,34.1846232,-118.3155365,151.11301682043074,3.4368374,0.1,47.500336,1639070097999
Fix,GT,34.1846583,-118.315534,151.15597051668166,3.804025,0.1,6.52713,1639070098999
Fix,GT,34.184694,-118.3155506,151.27893249893188,4.5370684,0.1,341.0244,1639070099999
Fix,GT,34.1847398,-118.3155681,151.44992816460132,6.277188,0.1,343.39786,1639070100999
Fix,GT,34.1848044,-118.3155805,151.67588149261474,8.147013,0.1,352.4572,1639070101999
Fix,GT,34.1848847,-118.3155848,151.96683043193818,9.456823,0.1,358.45926,1639070102999
Fix,GT,34.1849747,-118.3155814,152.29387686610224,10.455986,0.1,2.7728577,1639070103999
Fix,GT,34.1850675,-118.3155665,152.63687241625786,10.24175,0.1,9.665924,1639070104999
Fix,GT,34.1851519,-118.3155371,152.9278892507553,9.269561,0.1,18.219604,1639070105999
Fix,GT,34.185223,-118.3154961,153.22187627494336,8.287452,0.1,27.579895,1639070106999
Fix,GT,34.1852797,-118.315448,153.43690171694757,7.398731,0.1,36.439484,1639070107999
Fix,GT,34.1853309,-118.3153947,153.6189186782837,7.9632797,0.1,41.40387,1639070108999
Fix,GT,34.1853885,-118.3153354,153.84987996721267,8.539558,0.1,39.558014,1639070109999
Fix,GT,34.185453,-118.3152866,154.08992271375658,8.190241,0.1,28.827179,1639070110999
Fix,GT,34.1855226,-118.3152649,154.31889248812195,7.817677,0.1,9.998199,1639070111999
Fix,GT,34.1855952,-118.3152763,154.5189310836792,8.377645,0.1,347.7361,1639070112999
Fix,GT,34.1856653,-118.3153222,154.64602157032488,9.21024,0.1,326.19537,1639070113999
Fix,GT,34.1857319,-118.3153915,154.65095247054103,10.446141,0.1,318.1396,1639070114999
Fix,GT,34.1858037,-118.3154719,154.7039783617258,11.034233,0.1,317.03235,1639070115999
Fix,GT,34.1858756,-118.3155535,154.73497832745315,10.855752,0.1,316.68277,1639070116999
Fix,GT,34.1859453,-118.3156334,154.7840086826086,10.474362,0.1,316.20483,1639070117999
Fix,GT,34.1860105,-118.315709,154.81097391140463,9.422131,0.1,315.95584,1639070118999
Fix,GT,34.1860658,-118.3157742,154.87496080595255,7.6633387,0.1,315.4418,1639070119999
Fix,GT,34.1861082,-118.3158266,154.92398691511156,5.8436227,0.1,313.92587,1639070120999
Fix,GT,34.1861381,-118.3158653,154.94899126303198,3.925531,0.1,312.74634,1639070121999
Fix,GT,34.186157,-118.3158904,154.96697812360526,2.3893778,0.1,312.3263,1639070122999
Fix,GT,34.1861675,-118.3159045,154.9789868537784,1.0236572,0.1,312.1091,1639070123999
Fix,GT,34.1861705,-118.3159087,154.98,0.10979941,0.1,312.04956,1639070124999
Fix,GT,34.1861705,-118.3159087,154.979,0.004996671,0.1,312.04977,1639070125999
Fix,GT,34.1861704,-118.3159087,154.978,0.004474896,0.1,312.04993,1639070126999
Fix,GT,34.1861704,-118.3159087,154.979,0.0028284271,0.1,312.0494,1639070127999
Fix,GT,34.1861704,-118.3159087,154.979,0.0014142136,0.1,312.0495,1639070128999
Fix,GT,34.1861704,-118.3159087,154.979,0.0014123815,0.1,312.0498,1639070129999
Fix,GT,34.1861704,-118.3159087,154.979,0.001,0.1,312.04974,1639070130999
Fix,GT,34.1861704,-118.3159087,154.979,0.001412376,0.1,312.04984,1639070131999
Fix,GT,34.1861704,-118.3159087,154.979,0.0014123732,0.1,312.0499,1639070132999
Fix,GT,34.1861704,-118.3159087,154.979,0.0014123702,0.1,312.05,1639070133999
Fix,GT,34.1861704,-118.3159087,154.979,0.0014178765,0.1,312.05,1639070134999
Fix,GT,34.1861704,-118.3159087,154.979,0.002236068,0.1,312.0503,1639070135999
Fix,GT,34.1861704,-118.3159087,154.979,0.002236068,0.1,312.05038,1639070136999
Fix,GT,34.1861704,-118.3159087,154.979,0.0014178932,0.1,312.05066,1639070137999
Fix,GT,34.1861704,-118.3159087,154.979,0.0014142136,0.1,312.05057,1639070138999
Fix,GT,34.1861704,-118.3159087,154.979,0.0014142136,0.1,312.05072,1639070139999
Fix,GT,34.1861704,-118.3159087,154.979,0.0014142136,0.1,312.0507,1639070140999
Fix,GT,34.1861704,-118.3159087,154.979,0.0014123478,0.1,312.05103,1639070141999
Fix,GT,34.1861704,-118.3159087,154.979,0.002001065,0.1,312.05112,1639070142999
Fix,GT,34.1861704,-118.3159087,154.979,0.0019973535,0.1,312.05136,1639070143999
Fix,GT,34.1861704,-118.3159087,154.979,0.0014142136,0.1,312.0516,1639070144999
Fix,GT,34.1861704,-118.3159087,154.979,0.00200107,0.1,312.05164,1639070145999
Fix,GT,34.1861704,-118.3159087,154.979,0.0014179434,0.1,312.0517,1639070146999
Fix,GT,34.1861704,-118.3159087,154.979,0.002236068,0.1,312.05157,1639070147999
Fix,GT,34.1861704,-118.3159087,154.979,0.0022349933,0.1,312.0518,1639070148999
Fix,GT,34.1861704,-118.3159087,154.979,0.0019973295,0.1,312.05194,1639070149999
Fix,GT,34.1861704,-118.3159087,154.979,0.0019973256,0.1,312.0521,1639070150999
Fix,GT,34.1861704,-118.3159087,154.979,0.0014142136,0.1,312.0522,1639070151999
Fix,GT,34.1861704,-118.3159087,154.979,0.001416896,0.1,312.05237,1639070152999
Fix,GT,34.1861704,-118.3159087,154.979,0.0010018997,0.1,312.05252,1639070153999
Fix,GT,34.1861704,-118.3159087,154.979,0.0020010842,0.1,312.05255,1639070154999
Fix,GT,34.1861704,-118.3159087,154.979,0.0014123083,0.1,312.05276,1639070155999
Fix,GT,34.1861704,-118.3159087,154.979,0.0014142136,0.1,312.0529,1639070156999
Fix,GT,34.1861704,-118.3159087,154.979,0.0014142136,0.1,312.05298,1639070157999
Fix,GT,34.1861704,-118.3159087,154.979,0.0014142136,0.1,312.0532,1639070158999
Fix,GT,34.1861704,-118.3159087,154.979,0.0014142136,0.1,312.0532,1639070159999
Fix,GT,34.1861704,-118.3159087,154.979,0.0014142136,0.1,312.05347,1639070160999
Fix,GT,34.1861704,-118.3159087,154.979,0.0014142136,0.1,312.05353,1639070161999
Fix,GT,34.1861704,-118.3159087,154.979,0.0014142136,0.1,312.05374,1639070162999
Fix,GT,34.1861704,-118.3159087,154.979,0.0014122857,0.1,312.05386,1639070163999
Fix,GT,34.1861704,-118.3159087,154.979,0.001412283,0.1,312.05402,1639070164999
Fix,GT,34.1861704,-118.3159087,154.979,0.001,0.1,312.05417,1639070165999
Fix,GT,34.1861704,-118.3159087,154.979,0.0010019362,0.1,312.05438,1639070166999
Fix,GT,34.1861704,-118.3159087,154.979,0.0014122744,0.1,312.05447,1639070167999
Fix,GT,34.1861704,-118.3159087,154.979,0.001,0.1,312.0545,1639070168999
Fix,GT,34.1861704,-118.3159087,154.979,0.001,0.1,312.05472,1639070169999
Fix,GT,34.1861704,-118.3159087,154.979,0.001,0.1,312.05496,1639070170999
Fix,GT,34.1861704,-118.3159087,154.979,0.001,0.1,312.05515,1639070171999
Fix,GT,34.1861704,-118.3159087,154.979,0.001,0.1,312.05518,1639070172999
Fix,GT,34.1861704,-118.3159087,154.979,0.0014142136,0.1,312.05533,1639070173999
Fix,GT,34.1861704,-118.3159087,154.979,0.0014142136,0.1,312.0555,1639070174999
Fix,GT,34.1861704,-118.3159087,154.979,0.0014181057,0.1,312.05566,1639070175999
Fix,GT,34.1861704,-118.3159087,154.979,0.0028256178,0.1,312.05582,1639070176999
Fix,GT,34.1861704,-118.3159087,154.979,0.0042292075,0.1,312.0561,1639070177999
Fix,GT,34.1861704,-118.3159087,154.979,0.0028362446,0.1,312.05597,1639070178999
Fix,GT,34.1861704,-118.3159087,154.979,0.00447465,0.1,312.05566,1639070179999
Fix,GT,34.1861704,-118.3159087,154.979,0.005,0.1,312.05588,1639070180999
Fix,GT,34.1861704,-118.3159087,154.979,0.005830952,0.1,312.05603,1639070181999
Fix,GT,34.1861704,-118.3159087,154.979,0.0064031244,0.1,312.05637,1639070182999
Fix,GT,34.1861704,-118.3159087,154.979,0.0056604287,0.1,312.05664,1639070183999
Fix,GT,34.1861704,-118.3159087,154.979,0.005830952,0.1,312.0569,1639070184999
Fix,GT,34.1861704,-118.3159088,154.979,0.0050943317,0.1,312.05692,1639070185999
Fix,GT,34.1861704,-118.3159087,154.979,0.0036055513,0.1,312.05707,1639070186999
Fix,GT,34.1861704,-118.3159087,154.979,0.007,0.1,312.05716,1639070187999
Fix,GT,34.1861704,-118.3159087,154.979,0.01522526,0.1,312.05737,1639070188999
Fix,GT,34.1861703,-118.3159087,154.978,0.02607015,0.1,312.05746,1639070189999
Fix,GT,34.1861703,-118.3159088,154.978,0.042005107,0.1,312.05753,1639070190999
Fix,GT,34.1861701,-118.3159089,154.977,0.061018005,0.1,312.05704,1639070191999
Fix,GT,34.1861722,-118.3159129,154.95901455402375,1.2356782,0.1,311.99905,1639070192999
Fix,GT,34.1861861,-118.3159333,154.96599514186383,3.5349896,0.1,311.29294,1639070193999
Fix,GT,34.1862085,-118.3159741,154.9599659446478,5.445852,0.1,303.999,1639070194999
Fix,GT,34.1862283,-118.3160413,154.89902435922622,7.4489803,0.1,286.9437,1639070195999
Fix,GT,34.1862285,-118.3161282,154.75912684464453,8.516327,0.1,265.85522,1639070196999
Fix,GT,34.1862025,-118.3162222,154.48320518827438,9.757876,0.1,247.41177,1639070197999
Fix,GT,34.1861591,-118.3163223,153.93636691725254,11.1145315,0.1,241.54738,1639070198999
Fix,GT,34.186107,-118.3164343,153.11732823467253,12.50472,0.1,240.68146,1639070199999
Fix,GT,34.1860524,-118.3165594,152.4523434073925,13.453322,0.1,243.33502,1639070200999
Fix,GT,34.1860019,-118.3166936,151.79528002583982,13.66463,0.1,246.66507,1639070201999
Fix,GT,34.1859574,-118.3168323,151.3791525053978,13.704539,0.1,250.02191,1639070202999
Fix,GT,34.1859232,-118.316972,151.1970492632389,13.041414,0.1,255.53088,1639070203999
Fix,GT,34.1859024,-118.3171061,151.85963988232615,12.160374,0.1,260.67267,1639070204999
Fix,GT,34.1858877,-118.3172337,152.39575794422623,11.718775,0.1,261.98886,1639070205999
Fix,GT,34.1858732,-118.3173603,152.8008070783615,11.825224,0.1,261.01266,1639070206999
Fix,GT,34.1858568,-118.3174868,153.2098315808773,11.801772,0.1,261.33224,1639070207999
Fix,GT,34.185852,-118.3176149,153.51988095283508,11.945334,0.1,270.9755,1639070208999
Fix,GT,34.1858698,-118.317745,153.8039155573845,12.490581,0.1,283.21683,1639070209999
Fix,GT,34.1859116,-118.3178769,154.03992041683196,13.561345,0.1,294.13766,1639070210999
Fix,GT,34.1859718,-118.3180166,154.02002988481522,15.555695,0.1,297.66632,1639070211999
Fix,GT,34.1860424,-118.3181745,153.8401596031189,17.357006,0.1,297.90588,1639070212999
Fix,GT,34.186118,-118.3183478,153.42724472522735,18.790108,0.1,297.00388,1639070213999
Fix,GT,34.1861975,-118.3185365,152.74843510329725,20.170473,0.1,296.30988,1639070214999
Fix,GT,34.1862803,-118.3187381,151.75252083015442,21.221998,0.1,295.95953,1639070215999
Fix,GT,34.1863667,-118.3189508,150.5824446159415,22.50021,0.1,295.72192,1639070217000
Fix,GT,34.1864571,-118.3191771,149.5625799768483,23.692516,0.1,295.30884,1639070218000
Fix,GT,34.1865501,-118.3194126,148.76965634301075,24.392775,0.1,295.14255,1639070219000
Fix,GT,34.1866453,-118.3196546,148.20785664103366,24.943047,0.1,295.3968,1639070220000
Fix,GT,34.186746,-118.3199004,147.98393134797644,25.563179,0.1,296.576,1639070221000
Fix,GT,34.1868548,-118.3201474,147.96608615592868,25.814968,0.099,298.78003,1639070222000
Fix,GT,34.1869706,-118.3203885,148.04795770810546,25.561724,0.1,300.7229,1639070223000
Fix,GT,34.1870911,-118.320623,148.02098018143278,25.309877,0.1,302.15326,1639070224000
Fix,GT,34.1872163,-118.3208531,148.02302086187711,25.485126,0.099,303.81763,1639070225000
Fix,GT,34.1873502,-118.3210811,148.2340766868,25.959257,0.1,305.96716,1639070226000
Fix,GT,34.1874926,-118.3213062,148.72427742852642,26.218128,0.1,307.94455,1639070227000
Fix,GT,34.1876407,-118.3215284,149.12217662724296,26.246035,0.1,308.99146,1639070228000
Fix,GT,34.1877915,-118.3217477,149.4921805197275,26.27925,0.099,309.4549,1639070229000
Fix,GT,34.187942,-118.3219686,149.88220251478813,26.445116,0.1,308.83936,1639070230000
Fix,GT,34.1880921,-118.3221918,150.27016722301025,26.362328,0.1,308.97336,1639070231000
Fix,GT,34.1882428,-118.3224109,150.58417363796988,26.11556,0.1,310.09805,1639070232000
Fix,GT,34.1883954,-118.3226244,150.87709949020854,25.775827,0.1,310.83093,1639070233000
Fix,GT,34.1885471,-118.3228334,151.13812632132323,25.442583,0.1,310.97842,1639070234000
Fix,GT,34.1886986,-118.3230409,151.36312388836407,25.543926,0.1,311.08633,1639070235000
Fix,GT,34.1888501,-118.3232495,151.55806243254526,25.427732,0.1,311.02914,1639070236000
Fix,GT,34.1890007,-118.3234556,151.7501052191928,25.189892,0.1,311.19724,1639070237000
Fix,GT,34.1891505,-118.3236606,151.97911890017338,25.21899,0.1,311.08908,1639070238000
Fix,GT,34.1893009,-118.3238666,152.2962067832127,25.329979,0.1,311.05478,1639070239000
Fix,GT,34.1894515,-118.3240735,152.684146199333,25.37273,0.1,311.02026,1639070240000
Fix,GT,34.1896023,-118.3242805,153.14522514902475,25.341549,0.1,311.04797,1639070241000
Fix,GT,34.1897517,-118.324486,153.6812722095568,24.96088,0.1,310.9139,1639070242000
Fix,GT,34.1898977,-118.3246886,154.27335608454607,24.508152,0.1,310.5952,1639070243000
Fix,GT,34.1900424,-118.3248887,154.93631479086636,24.445108,0.1,310.99103,1639070244000
Fix,GT,34.1901889,-118.3250872,155.63138392969967,24.555174,0.1,311.7507,1639070245000
Fix,GT,34.1903371,-118.3252831,156.41538230318574,24.190302,0.1,312.46655,1639070246000
Fix,GT,34.1904846,-118.3254729,157.19035707677156,23.773184,0.1,313.21545,1639070247000
Fix,GT,34.190632,-118.3256585,157.89431442424285,23.493177,0.1,313.84332,1639070248000
Fix,GT,34.190779,-118.3258396,158.52729254102474,23.207117,0.1,314.35583,1639070249000
Fix,GT,34.1909253,-118.3260171,159.11727541858423,22.92456,0.1,314.48654,1639070250000
Fix,GT,34.1910694,-118.3261932,159.69522505519726,22.589771,0.1,314.1888,1639070251000
Fix,GT,34.1912106,-118.3263664,160.19823659352215,22.131334,0.1,314.1669,1639070252000
Fix,GT,34.1913489,-118.3265356,160.72823385552877,21.57994,0.1,314.62354,1639070253000
Fix,GT,34.1914843,-118.3266974,161.22611908361876,20.761036,0.1,315.26273,1639070254000
Fix,GT,34.1916152,-118.3268536,161.8102772940956,20.222437,0.1,314.8775,1639070255000
Fix,GT,34.1917442,-118.3270082,162.2321344898548,20.252428,0.1,314.96497,1639070256000
Fix,GT,34.1918734,-118.3271625,162.47419952516444,20.069855,0.1,315.08295,1639070257000
Fix,GT,34.1920007,-118.3273156,162.84117176596962,19.893759,0.1,314.52707,1639070258000
Fix,GT,34.1921267,-118.3274696,163.18214719432777,19.944357,0.1,314.58383,1639070259000
Fix,GT,34.1922528,-118.3276225,163.45512436169713,19.746712,0.1,314.60892,1639070260000
Fix,GT,34.1923785,-118.3277753,163.72213740689122,19.93509,0.1,314.3785,1639070261000
Fix,GT,34.1925039,-118.327929,163.92909894160834,19.708384,0.1,314.3051,1639070262000
Fix,GT,34.1926275,-118.3280803,164.13009328694082,19.391628,0.1,314.20422,1639070263000
Fix,GT,34.1927478,-118.3282305,164.28211563525025,19.097061,0.1,313.46777,1639070264000
Fix,GT,34.1928655,-118.3283806,164.400021454636,18.960514,0.099,313.0888,1639070265000
Fix,GT,34.1929823,-118.3285318,164.43100390502673,19.025568,0.1,312.6103,1639070266000
Fix,GT,34.1930984,-118.328684,164.42394099630695,19.170757,0.1,312.19785,1639070267000
Fix,GT,34.1932145,-118.3288385,164.37495254889598,19.159132,0.1,311.8579,1639070268000
Fix,GT,34.1933299,-118.3289948,164.31293619901498,19.471983,0.099,311.18512,1639070269000
Fix,GT,34.1934464,-118.3291562,164.20797600082028,19.958591,0.1,310.63028,1639070270000
Fix,GT,34.1935647,-118.3293231,164.0819197879135,20.469894,0.1,310.1532,1639070271000
Fix,GT,34.1936846,-118.3294951,163.91289902212566,20.844269,0.1,309.70413,1639070272000
Fix,GT,34.1938041,-118.329669,163.75192595601456,20.745005,0.1,309.27155,1639070273000
Fix,GT,34.1939213,-118.3298431,163.59291903050615,20.545057,0.1,308.62567,1639070274000
Fix,GT,34.1940359,-118.3300184,163.5480163050145,20.699064,0.1,307.7736,1639070275000
Fix,GT,34.1941506,-118.3301988,163.5810046727932,21.203627,0.1,307.03333,1639070276000
Fix,GT,34.1942663,-118.3303854,163.62504103292247,21.700666,0.1,306.31927,1639070277000
Fix,GT,34.1943826,-118.3305768,163.71105194227306,21.885105,0.1,305.9478,1639070278000
Fix,GT,34.194498,-118.3307683,163.8380920873717,21.69686,0.1,305.74274,1639070279000
Fix,GT,34.194611,-118.3309587,164.01210189361032,21.48796,0.1,305.00842,1639070280000
Fix,GT,34.1947213,-118.3311512,164.22609179313153,21.524622,0.1,304.10443,1639070281000
Fix,GT,34.1948298,-118.3313459,164.4270606123735,21.843315,0.1,303.5071,1639070282000
Fix,GT,34.1949405,-118.3315467,164.53904775021596,22.523983,0.1,303.3357,1639070283000
Fix,GT,34.195053,-118.3317528,164.6400241849674,22.787876,0.1,303.02988,1639070284000
Fix,GT,34.1951647,-118.3319595,164.72099616479036,22.679907,0.099,302.7173,1639070285000
Fix,GT,34.1952752,-118.3321664,164.7680133819487,22.679968,0.099,302.4249,1639070286000
Fix,GT,34.1953845,-118.3323742,164.9351178965997,22.634672,0.099,301.97568,1639070287000
Fix,GT,34.1954928,-118.3325808,165.1811123591983,22.408812,0.099,302.10568,1639070288000
Fix,GT,34.195601,-118.3327877,165.4080860523991,22.71641,0.099,301.88803,1639070289000
Fix,GT,34.1957101,-118.3329984,165.65310301569428,23.035143,0.1,301.68753,1639070290000
Fix,GT,34.1958211,-118.3332121,165.8781029203683,23.412783,0.1,301.93805,1639070291000
Fix,GT,34.1959352,-118.3334252,166.06407060153177,23.262417,0.1,303.12888,1639070292000
Fix,GT,34.1960512,-118.3336337,166.29410539638718,23.05098,0.1,304.03174,1639070293000
Fix,GT,34.1961701,-118.3338405,166.5101043904959,23.300575,0.1,305.0224,1639070294000
Fix,GT,34.1962933,-118.3340437,166.76811674576624,23.060595,0.1,306.57874,1639070295000
Fix,GT,34.1964182,-118.3342419,167.09816908584537,22.857,0.1,307.24213,1639070296000
Fix,GT,34.1965451,-118.3344379,167.4981946143377,22.949041,0.1,308.09412,1639070297000
Fix,GT,34.1966745,-118.3346327,167.98924945079722,23.082827,0.1,308.86993,1639070298000
Fix,GT,34.1968075,-118.3348283,168.61634288599623,23.519093,0.1,309.18124,1639070299000
Fix,GT,34.1969417,-118.335029,169.37433974111082,23.914707,0.1,307.7136,1639070300000
Fix,GT,34.1970728,-118.3352393,170.13136212830338,24.514114,0.1,306.44882,1639070301000
Fix,GT,34.1972063,-118.3354493,170.88029016163944,24.190321,0.1,307.83484,1639070302000
Fix,GT,34.1973401,-118.3356539,171.61829903419732,23.906599,0.1,307.9646,1639070303000
Fix,GT,34.1974725,-118.3358609,172.2873152853232,24.573456,0.1,306.97455,1639070304000
Fix,GT,34.1976101,-118.33608,173.00532270314264,26.014393,0.1,307.12686,1639070305000
Fix,GT,34.1977583,-118.3363085,173.70635376450605,27.45242,0.1,308.2044,1639070306000
Fix,GT,34.1979183,-118.3365446,174.5353724990599,28.551584,0.1,309.58905,1639070307000
Fix,GT,34.1980872,-118.3367814,175.44939722249472,28.941376,0.1,311.42282,1639070308000
