MessageType,Provider,LatitudeDegrees,LongitudeDegrees,AltitudeMeters,SpeedMps,AccuracyMeters,BearingDegrees,UnixTimeMillis
Fix,GT,37.3795046,-122.0719489,,0.00055923127,0.1,44.50891,1609883563440
Fix,GT,37.3795046,-122.0719489,,0.000985589,0.1,44.50946,1609883564440
Fix,GT,37.3795046,-122.0719489,,0.0016912478,0.1,44.509766,1609883565440
Fix,GT,37.3795046,-122.0719489,,0.001,0.1,44.501648,1609883566440
Fix,GT,37.3795046,-122.0719489,,0.001,0.1,44.49298,1609883567440
Fix,GT,37.3795046,-122.0719489,,0.054822143,0.1,44.454285,1609883568440
Fix,GT,37.3795065,-122.0719473,,0.45469952,0.1,43.385223,1609883569440
Fix,GT,37.3795123,-122.0719423,,1.0237707,0.1,40.647583,1609883570440
Fix,GT,37.3795207,-122.0719339,,1.2989687,0.1,40.11728,1609883571440
Fix,GT,37.379529,-122.0719222,,1.421756,0.1,44.161438,1609883572440
Fix,GT,37.3795358,-122.0719087,,1.3750749,0.1,51.448273,1609883573440
Fix,GT,37.3795395,-122.0718939,,1.2594326,0.1,62.09549,1609883574440
Fix,GT,37.3795401,-122.0718793,,1.1205484,0.1,73.91736,1609883575440
Fix,GT,37.3795386,-122.0718678,,0.7449236,0.1,84.494385,1609883576440
Fix,GT,37.3795364,-122.0718612,,0.39419177,0.1,91.6149,1609883577440
Fix,GT,37.3795349,-122.0718568,,0.49748167,0.1,95.878784,1609883578440
Fix,GT,37.3795327,-122.071849,,1.1108395,0.1,99.62134,1609883579440
Fix,GT,37.37953,-122.0718314,,2.1482866,0.1,99.855194,1609883580440
Fix,GT,37.3795304,-122.071801,,3.170075,0.1,91.26782,1609883581440
Fix,GT,37.3795399,-122.0717638,,3.8018503,0.1,73.98944,1609883582440
Fix,GT,37.3795597,-122.0717294,,3.8039534,0.1,55.606934,1609883583440
Fix,GT,37.3795816,-122.0717027,,2.9500008,0.1,45.189697,1609883584440
Fix,GT,37.3795965,-122.0716865,,1.4902827,0.1,42.23227,1609883585440
Fix,GT,37.3796041,-122.0716786,,0.86391294,0.1,41.1398,1609883586440
Fix,GT,37.379611,-122.0716717,,1.2290871,0.1,40.336792,1609883587440
Fix,GT,37.379621,-122.07166,,1.7583929,0.1,41.79727,1609883588440
Fix,GT,37.3796317,-122.0716409,,2.3628368,0.1,50.64673,1609883589440
Fix,GT,37.3796376,-122.0716076,,3.5933406,0.1,71.06549,1609883590440
Fix,GT,37.3796314,-122.071557,,5.2526846,0.1,96.96146,1609883591440
Fix,GT,37.3796102,-122.0714953,,6.648366,0.1,113.78082,1609883592440
Fix,GT,37.3795784,-122.0714224,,8.00975,0.1,118.745026,1609883593440
Fix,GT,37.3795398,-122.071337,,9.374968,0.1,119.349945,1609883594440
Fix,GT,37.3794954,-122.0712378,,10.753357,0.1,118.94519,1609883595440
Fix,GT,37.3794459,-122.0711247,,11.896188,0.1,118.51288,1609883596440
Fix,GT,37.3793942,-122.0710048,,11.975069,0.1,118.27258,1609883597440
Fix,GT,37.3793452,-122.0708912,,10.751381,0.1,118.31778,1609883598440
Fix,GT,37.3793021,-122.0707915,,9.361496,0.1,118.29077,1609883599440
Fix,GT,37.3792646,-122.0707046,,8.277533,0.1,118.31741,1609883600440
Fix,GT,37.3792305,-122.070626,,7.8227196,0.1,118.46207,1609883601440
Fix,GT,37.3791958,-122.0705463,,8.333717,0.1,118.54419,1609883602440
Fix,GT,37.3791583,-122.0704593,,9.146357,0.1,118.267914,1609883603440
Fix,GT,37.3791187,-122.070366,,9.639202,0.1,117.813354,1609883604440
Fix,GT,37.3790771,-122.0702663,,10.324482,0.1,117.32437,1609883605440
Fix,GT,37.3790335,-122.0701588,,11.051746,0.1,116.94455,1609883606440
Fix,GT,37.3789865,-122.0700431,,11.948778,0.1,116.990295,1609883607440
Fix,GT,37.378935,-122.0699178,,13.046425,0.1,117.26535,1609883608440
Fix,GT,37.378879,-122.0697823,,14.015741,0.1,117.415344,1609883609440
Fix,GT,37.3788189,-122.0696374,,14.756958,0.1,117.42401,1609883610440
Fix,GT,37.3787568,-122.0694882,,14.919788,0.1,117.70221,1609883611440
Fix,GT,37.3786941,-122.0693416,,14.500807,0.1,118.546265,1609883612440
Fix,GT,37.3786317,-122.0692019,,13.783167,0.1,119.43985,1609883613440
Fix,GT,37.378573,-122.0690723,,12.5514965,0.1,119.49805,1609883614440
Fix,GT,37.3785208,-122.0689574,,10.767321,0.1,119.84897,1609883615440
Fix,GT,37.3784735,-122.0688648,,8.705218,0.1,125.53058,1609883616440
Fix,GT,37.3784235,-122.0688036,,7.156683,0.1,142.12677,1609883617440
Fix,GT,37.3783669,-122.06878,,6.523022,0.1,168.58966,1609883618440
Fix,GT,37.3783109,-122.0687933,,6.4968824,0.1,195.21532,1609883619440
Fix,GT,37.3782575,-122.0688303,,7.2878127,0.1,210.21875,1609883620440
Fix,GT,37.3781964,-122.0688787,,8.806089,0.1,211.69902,1609883621440
Fix,GT,37.3781214,-122.0689311,,10.177826,0.1,207.59038,1609883622440
Fix,GT,37.3780326,-122.0689767,,11.21443,0.1,199.45256,1609883623440
Fix,GT,37.3779311,-122.0690044,,11.990789,0.1,188.68115,1609883624440
Fix,GT,37.3778213,-122.069008,,12.5454855,0.1,177.92616,1609883625440
Fix,GT,37.3777077,-122.0689862,,13.1399555,0.1,167.69635,1609883626440
Fix,GT,37.3775933,-122.0689372,,13.924783,0.1,157.57391,1609883627440
Fix,GT,37.3774802,-122.0688603,,14.77393,0.1,148.42538,1609883628440
Fix,GT,37.3773698,-122.0687603,,15.536394,0.1,141.91705,1609883629440
Fix,GT,37.3772604,-122.0686447,,16.22361,0.1,138.73087,1609883630440
Fix,GT,37.3771491,-122.0685221,,16.633354,0.1,138.69623,1609883631440
Fix,GT,37.3770341,-122.0684001,,16.825253,0.1,140.44678,1609883632440
Fix,GT,37.3769122,-122.0682851,,17.05789,0.1,144.86609,1609883633440
Fix,GT,37.3767792,-122.068187,,17.257076,0.1,152.77234,1609883634440
Fix,GT,37.3766351,-122.0681141,,17.31292,0.1,161.56848,1609883635440
Fix,GT,37.3764834,-122.0680679,,17.411467,0.1,169.60779,1609883636440
Fix,GT,37.3763274,-122.0680459,,17.48728,0.1,176.20508,1609883637440
Fix,GT,37.3761695,-122.0680426,,17.583422,0.1,180.69836,1609883638440
Fix,GT,37.3760107,-122.0680498,,17.688334,0.1,182.82896,1609883639440
Fix,GT,37.3758512,-122.0680609,,17.780815,0.1,183.20882,1609883640440
Fix,GT,37.3756907,-122.0680707,,17.910528,0.1,182.35046,1609883641440
Fix,GT,37.3755289,-122.0680775,,17.987206,0.1,181.6723,1609883642440
Fix,GT,37.3753667,-122.0680827,,18.026264,0.1,181.56859,1609883643440
Fix,GT,37.3752036,-122.0680877,,18.271236,0.1,181.19794,1609883644440
Fix,GT,37.3750365,-122.0680898,,18.814377,0.1,180.05481,1609883645440
Fix,GT,37.3748641,-122.0680868,,19.47144,0.1,178.53778,1609883646440
Fix,GT,37.3746863,-122.0680777,,20.07325,0.1,177.03662,1609883647440
Fix,GT,37.3745034,-122.0680623,,20.647114,0.1,175.58704,1609883648440
Fix,GT,37.3743152,-122.0680401,,21.38526,0.1,173.92487,1609883649440
Fix,GT,37.3741203,-122.0680095,,22.226742,0.1,171.9654,1609883650440
Fix,GT,37.3739192,-122.0679687,,22.954819,0.1,169.84088,1609883651440
Fix,GT,37.3737137,-122.067917,,23.578285,0.1,167.6034,1609883652440
Fix,GT,37.3735048,-122.0678538,,24.118534,0.1,165.48425,1609883653440
Fix,GT,37.3732934,-122.0677798,,24.567041,0.1,163.43732,1609883654440
Fix,GT,37.3730808,-122.0676946,,25.010616,0.1,161.24915,1609883655440
Fix,GT,37.3728678,-122.067597,,25.357494,0.1,158.73547,1609883656440
Fix,GT,37.3726555,-122.0674867,,25.6456,0.1,156.3418,1609883657440
Fix,GT,37.3724444,-122.0673658,,25.884182,0.1,154.73682,1609883658440
Fix,GT,37.3722335,-122.067239,,26.041117,0.1,154.05176,1609883659440
Fix,GT,37.372022,-122.06711,,26.132675,0.1,153.9856,1609883660440
Fix,GT,37.3718099,-122.0669809,,26.2128,0.1,154.02966,1609883661440
Fix,GT,37.3715972,-122.0668519,,26.251698,0.1,154.172,1609883662440
Fix,GT,37.371384,-122.0667233,,26.274227,0.1,154.21875,1609883663440
Fix,GT,37.3711705,-122.0665945,,26.323624,0.1,154.13904,1609883664440
Fix,GT,37.3709569,-122.0664646,,26.39726,0.1,153.9519,1609883665440
Fix,GT,37.3707428,-122.0663336,,26.484646,0.1,153.8725,1609883666440
Fix,GT,37.3705277,-122.0662021,,26.612923,0.1,153.98657,1609883667440
Fix,GT,37.3703111,-122.0660704,,26.846712,0.1,154.03394,1609883668440
Fix,GT,37.3700925,-122.0659374,,27.103485,0.1,153.99298,1609883669440
Fix,GT,37.3698724,-122.0658038,,27.184532,0.1,154.16711,1609883670440
Fix,GT,37.3696515,-122.0656708,,27.220726,0.1,154.27557,1609883671440
Fix,GT,37.3694304,-122.0655374,,27.23336,0.1,154.12842,1609883672440
Fix,GT,37.3692098,-122.0654032,,27.21113,0.1,153.95996,1609883673440
Fix,GT,37.3689892,-122.0652688,,27.277458,0.1,154.01233,1609883674440
Fix,GT,37.3687677,-122.0651338,,27.45382,0.1,153.98035,1609883675440
Fix,GT,37.3685445,-122.0649977,,27.650673,0.1,153.97339,1609883676440
Fix,GT,37.3683198,-122.0648607,,27.81556,0.1,153.96594,1609883677440
Fix,GT,37.3680942,-122.0647229,,27.893726,0.1,153.91052,1609883678440
Fix,GT,37.367868,-122.0645848,,27.941307,0.1,153.9848,1609883679440
Fix,GT,37.3676415,-122.0644473,,27.923683,0.1,154.16663,1609883680440
Fix,GT,37.3674151,-122.0643106,,27.834852,0.1,154.24115,1609883681440
Fix,GT,37.3671898,-122.064175,,27.630741,0.1,154.33972,1609883682440
Fix,GT,37.3669661,-122.064041,,27.417603,0.1,154.4801,1609883683440
Fix,GT,37.3667433,-122.063909,,27.304386,0.1,154.90363,1609883684440
Fix,GT,37.3665195,-122.0637821,,27.228073,0.1,156.25513,1609883685440
Fix,GT,37.3662932,-122.0636638,,27.243767,0.1,158.21375,1609883686440
Fix,GT,37.366063,-122.0635547,,27.376375,0.1,160.03625,1609883687440
Fix,GT,37.3658291,-122.0634547,,27.484116,0.1,162.0091,1609883688440
Fix,GT,37.3655918,-122.0633651,,27.551168,0.1,164.15833,1609883689440
Fix,GT,37.3653509,-122.0632858,,27.76965,0.1,166.13812,1609883690440
Fix,GT,37.3651053,-122.0632162,,28.133156,0.1,168.15118,1609883691440
Fix,GT,37.3648548,-122.0631568,,28.431774,0.1,170.18823,1609883692440
Fix,GT,37.3646006,-122.0631091,,28.630875,0.1,172.5387,1609883693440
Fix,GT,37.3643434,-122.0630744,,28.753044,0.1,174.93988,1609883694440
Fix,GT,37.3640848,-122.0630525,,28.78303,0.1,177.10107,1609883695440
Fix,GT,37.3638259,-122.0630424,,28.695168,0.1,179.03363,1609883696440
Fix,GT,37.3635684,-122.0630414,,28.45457,0.1,180.31604,1609883697440
Fix,GT,37.3633132,-122.0630452,,28.223188,0.1,180.81447,1609883698440
Fix,GT,37.3630597,-122.0630505,,28.109953,0.1,180.8937,1609883699440
Fix,GT,37.3628068,-122.0630559,,28.005487,0.1,180.94855,1609883700440
Fix,GT,37.3625548,-122.0630616,,27.9626,0.1,180.9995,1609883701440
Fix,GT,37.3623026,-122.0630678,,28.061802,0.1,181.12454,1609883702440
Fix,GT,37.3620492,-122.0630746,,28.16374,0.1,181.18001,1609883703440
Fix,GT,37.3617951,-122.0630812,,28.26831,0.1,181.04272,1609883704440
Fix,GT,37.3615398,-122.0630871,,28.391838,0.1,180.9012,1609883705440
Fix,GT,37.3612839,-122.0630924,,28.400326,0.1,180.9068,1609883706440
Fix,GT,37.3610284,-122.0630983,,28.295927,0.1,181.04544,1609883707440
Fix,GT,37.3607741,-122.063105,,28.18134,0.1,181.07204,1609883708440
Fix,GT,37.3605206,-122.0631111,,28.133867,0.1,180.94594,1609883709440
Fix,GT,37.3602674,-122.0631161,,28.052437,0.1,180.7524,1609883710440
Fix,GT,37.3600151,-122.06312,,27.938454,0.1,180.49518,1609883711440
Fix,GT,37.3597637,-122.0631219,,27.864864,0.1,180.14557,1609883712440
Fix,GT,37.359513,-122.0631211,,27.800255,0.1,179.46918,1609883713440
Fix,GT,37.3592631,-122.0631158,,27.698616,0.1,178.44275,1609883714440
Fix,GT,37.3590142,-122.0631043,,27.568012,0.1,177.25952,1609883715440
Fix,GT,37.3587669,-122.0630864,,27.433792,0.1,176.09857,1609883716440
Fix,GT,37.3585209,-122.0630626,,27.337349,0.1,175.03925,1609883717440
Fix,GT,37.358276,-122.0630332,,27.2888,0.1,173.98743,1609883718440
Fix,GT,37.358032,-122.0629985,,27.186234,0.1,173.08154,1609883719440
Fix,GT,37.3577897,-122.0629596,,27.06018,0.1,172.28815,1609883720440
Fix,GT,37.3575487,-122.0629164,,27.008537,0.1,171.40027,1609883721440
Fix,GT,37.3573084,-122.0628682,,26.974379,0.1,170.40369,1609883722440
Fix,GT,37.3570697,-122.0628149,,26.837517,0.1,169.33716,1609883723440
Fix,GT,37.3568333,-122.0627563,,26.675972,0.1,168.25842,1609883724440
Fix,GT,37.3565991,-122.0626927,,26.50858,0.1,167.23401,1609883725440
Fix,GT,37.3563674,-122.0626242,,26.367596,0.1,166.1972,1609883726440
Fix,GT,37.3561375,-122.0625507,,26.316666,0.1,165.11163,1609883727440
Fix,GT,37.3559089,-122.062472,,26.287222,0.1,164.20282,1609883728440
Fix,GT,37.3556819,-122.0623905,,26.116968,0.1,163.81244,1609883729440
Fix,GT,37.355457,-122.0623082,,25.878437,0.1,163.5235,1609883730440
Fix,GT,37.3552345,-122.0622248,,25.69912,0.1,163.12335,1609883731440
Fix,GT,37.3550144,-122.0621405,,25.353718,0.1,162.89252,1609883732440
Fix,GT,37.3547983,-122.0620573,,24.76362,0.1,162.8883,1609883733440
Fix,GT,37.3545889,-122.0619777,,23.790304,0.1,163.12518,1609883734440
Fix,GT,37.3543884,-122.0619023,,22.668602,0.1,163.2052,1609883735440
Fix,GT,37.3541965,-122.0618301,,21.813332,0.1,163.11957,1609883736440
Fix,GT,37.3540128,-122.0617604,,20.76288,0.1,163.0055,1609883737440
Fix,GT,37.3538392,-122.0616938,,19.509037,0.1,162.73132,1609883738440
Fix,GT,37.353677,-122.0616302,,18.226463,0.1,162.5138,1609883739440
Fix,GT,37.3535257,-122.0615706,,16.948479,0.1,162.60248,1609883740440
Fix,GT,37.3533867,-122.0615169,,15.285974,0.1,162.95874,1609883741440
Fix,GT,37.3532626,-122.06147,,13.593561,0.1,163.24371,1609883742440
Fix,GT,37.3531502,-122.0614285,,12.431894,0.1,163.69171,1609883743440
Fix,GT,37.3530476,-122.0613924,,11.190119,0.1,164.60376,1609883744440
Fix,GT,37.3529559,-122.0613626,,9.786668,0.1,165.75415,1609883745440
Fix,GT,37.3528765,-122.0613387,,8.309733,0.1,166.5755,1609883746440
Fix,GT,37.3528104,-122.0613197,,6.7763042,0.1,167.18872,1609883747440
Fix,GT,37.3527562,-122.0613049,,5.6111183,0.1,167.71881,1609883748440
Fix,GT,37.3527105,-122.061293,,4.8137546,0.1,168.13159,1609883749440
Fix,GT,37.3526708,-122.0612829,,4.1676655,0.1,168.4281,1609883750440
Fix,GT,37.3526361,-122.0612743,,3.7523122,0.1,168.5951,1609883751440
Fix,GT,37.3526038,-122.0612664,,3.538701,0.1,168.75592,1609883752440
Fix,GT,37.3525745,-122.0612593,,3.0543094,0.1,169.01343,1609883753440
Fix,GT,37.3525507,-122.0612537,,2.2957559,0.1,169.24316,1609883754440
Fix,GT,37.3525341,-122.0612499,,1.4190475,0.1,169.40924,1609883755440
Fix,GT,37.3525256,-122.061248,,0.5145812,0.1,169.49097,1609883756440
Fix,GT,37.3525234,-122.0612474,,0.02368107,0.1,169.5144,1609883757440
Fix,GT,37.3525234,-122.0612474,,0.0016724095,0.1,169.51978,1609883758440
Fix,GT,37.3525234,-122.0612474,,0.0017418042,0.1,169.51874,1609883759440
Fix,GT,37.3525234,-122.0612474,,0.0014142136,0.1,169.51868,1609883760440
Fix,GT,37.3525234,-122.0612474,,0.0014142136,0.1,169.51868,1609883761440
Fix,GT,37.3525234,-122.0612474,,0.00079087383,0.1,169.51862,1609883762440
Fix,GT,37.3525234,-122.0612474,,0.0,0.1,169.51855,1609883763440
Fix,GT,37.3525234,-122.0612474,,0.00044076782,0.1,169.51843,1609883764440
Fix,GT,37.3525234,-122.0612474,,0.001,0.1,169.51825,1609883765440
Fix,GT,37.3525234,-122.0612474,,0.001,0.1,169.51831,1609883766440
Fix,GT,37.3525234,-122.0612474,,0.001,0.1,169.51855,1609883767440
Fix,GT,37.3525225,-122.0612472,,0.28854793,0.1,169.52899,1609883768440
Fix,GT,37.3525173,-122.061246,,0.9665636,0.1,169.55243,1609883769440
Fix,GT,37.3525059,-122.0612434,,1.5531517,0.1,169.56738,1609883770440
Fix,GT,37.3524905,-122.0612399,,1.9696233,0.1,169.60669,1609883771440
Fix,GT,37.3524703,-122.0612354,,2.6925108,0.1,169.66553,1609883772440
Fix,GT,37.352441,-122.0612287,,3.938313,0.1,169.73572,1609883773440
Fix,GT,37.3523996,-122.0612195,,5.350407,0.1,169.90735,1609883774440
Fix,GT,37.3523472,-122.0612076,,6.3499403,0.1,169.63135,1609883775440
Fix,GT,37.35229,-122.0611904,,6.671608,0.1,165.31232,1609883776440
Fix,GT,37.352234,-122.0611609,,6.95762,0.1,154.41895,1609883777440
Fix,GT,37.352183,-122.0611125,,7.504779,0.1,139.32593,1609883778440
Fix,GT,37.3521411,-122.0610421,,8.345872,0.1,122.97748,1609883779440
Fix,GT,37.3521128,-122.0609504,,9.305038,0.1,106.99744,1609883780440
Fix,GT,37.3521016,-122.0608435,,9.927728,0.1,94.290344,1609883781440
Fix,GT,37.3521013,-122.0607304,,10.062433,0.1,89.27066,1609883782440
Fix,GT,37.3521028,-122.0606184,,9.697874,0.1,89.15875,1609883783440
Fix,GT,37.3521034,-122.0605147,,8.537755,0.1,89.82187,1609883784440
Fix,GT,37.3521034,-122.0604284,,6.6638517,0.1,89.93173,1609883785440
Fix,GT,37.3521035,-122.0603655,,4.455429,0.1,89.672424,1609883786440
Fix,GT,37.3521038,-122.0603282,,2.232057,0.1,89.433655,1609883787440
Fix,GT,37.352104,-122.0603126,,0.6354044,0.1,89.33313,1609883788440
Fix,GT,37.352104,-122.0603091,,0.026778178,0.1,89.30911,1609883789440
Fix,GT,37.352104,-122.0603092,,0.001,0.1,89.31091,1609883790440
Fix,GT,37.352104,-122.0603092,,0.001,0.1,89.31015,1609883791440
Fix,GT,37.3521039,-122.0603092,,0.0005592324,0.1,89.30997,1609883792440
Fix,GT,37.3521039,-122.0603092,,0.00044076765,0.1,89.30994,1609883793440
Fix,GT,37.3521039,-122.0603092,,0.00055923243,0.1,89.309875,1609883794440
Fix,GT,37.3521039,-122.0603092,,0.00044076762,0.1,89.309875,1609883795440
Fix,GT,37.3521039,-122.0603092,,0.001,0.1,89.30975,1609883796440
Fix,GT,37.3521039,-122.0603092,,0.00055923243,0.1,89.30975,1609883797440
Fix,GT,37.3521039,-122.0603092,,0.00044076762,0.1,89.31036,1609883798440
Fix,GT,37.352104,-122.0603092,,0.001,0.1,89.31076,1609883799440
Fix,GT,37.3521041,-122.0603092,,0.0005592325,0.1,89.310394,1609883800440
Fix,GT,37.3521041,-122.0603092,,0.0,0.1,89.31036,1609883801440
Fix,GT,37.3521041,-122.0603092,,0.0004407676,0.1,89.31033,1609883802440
Fix,GT,37.3521041,-122.0603092,,0.0005592325,0.1,89.31033,1609883803440
Fix,GT,37.3521041,-122.0603092,,0.0,0.1,89.31036,1609883804440
Fix,GT,37.3521041,-122.0603092,,0.0,0.1,89.31036,1609883805440
Fix,GT,37.3521041,-122.0603092,,0.0,0.1,89.31036,1609883806440
Fix,GT,37.3521041,-122.0603092,,0.0,0.1,89.31027,1609883807440
Fix,GT,37.3521041,-122.0603092,,0.00044076756,0.1,89.31033,1609883808440
Fix,GT,37.3521041,-122.0603092,,0.001,0.1,89.310425,1609883809440
Fix,GT,37.3521041,-122.0603092,,0.001,0.1,89.310455,1609883810440
Fix,GT,37.3521041,-122.0603092,,0.001,0.1,89.310486,1609883811440
Fix,GT,37.3521041,-122.0603092,,0.0005592325,0.1,89.310425,1609883812440
Fix,GT,37.3521041,-122.0603092,,0.0,0.1,89.31033,1609883813440
Fix,GT,37.3521041,-122.0603092,,0.0,0.1,89.3103,1609883814440
Fix,GT,37.3521041,-122.0603092,,0.0,0.1,89.3103,1609883815440
Fix,GT,37.3521041,-122.0603089,,0.11372571,0.1,89.30719,1609883816440
Fix,GT,37.3521042,-122.0603056,,0.56170225,0.1,89.02258,1609883817440
Fix,GT,37.3521052,-122.0602942,,1.5064975,0.1,87.01965,1609883818440
Fix,GT,37.3521097,-122.0602703,,2.8736455,0.1,80.34949,1609883819440
Fix,GT,37.352124,-122.0602342,,4.28345,0.1,65.513245,1609883820440
Fix,GT,37.352156,-122.0601967,,5.62276,0.1,42.65448,1609883821440
Fix,GT,37.3522078,-122.0601723,,7.028203,0.1,17.792175,1609883822440
Fix,GT,37.3522754,-122.0601726,,8.398926,0.1,355.8912,1609883823440
Fix,GT,37.3523535,-122.0602009,,9.925257,0.1,340.93842,1609883824440
Fix,GT,37.3524424,-122.0602496,,11.64313,0.1,335.52222,1609883825440
Fix,GT,37.3525441,-122.0603088,,13.218824,0.1,334.93692,1609883826440
Fix,GT,37.3526582,-122.0603754,,14.660105,0.1,334.9376,1609883827440
Fix,GT,37.3527828,-122.0604477,,15.78183,0.1,335.1468,1609883828440
Fix,GT,37.3529162,-122.0605236,,16.688719,0.1,335.74426,1609883829440
Fix,GT,37.3530573,-122.0606022,,17.572935,0.1,336.09357,1609883830440
Fix,GT,37.3532053,-122.0606846,,18.371635,0.1,335.9304,1609883831440
Fix,GT,37.3533586,-122.0607716,,18.896017,0.1,335.14783,1609883832440
Fix,GT,37.3535136,-122.060864,,19.198664,0.1,333.98306,1609883833440
Fix,GT,37.3536696,-122.0609615,,19.527676,0.1,333.18857,1609883834440
Fix,GT,37.3538276,-122.0610626,,19.8193,0.1,332.81586,1609883835440
Fix,GT,37.3539876,-122.0611654,,20.104519,0.1,332.75595,1609883836440
Fix,GT,37.3541511,-122.0612698,,20.6381,0.1,333.01895,1609883837440
Fix,GT,37.3543201,-122.0613763,,21.366016,0.1,333.4073,1609883838440
Fix,GT,37.354496,-122.0614847,,22.1558,0.1,333.9762,1609883839440
Fix,GT,37.3546794,-122.0615936,,22.877287,0.1,335.07175,1609883840440
Fix,GT,37.3548701,-122.0617011,,23.53001,0.1,336.22232,1609883841440
Fix,GT,37.3550672,-122.0618063,,24.051579,0.1,337.52106,1609883842440
Fix,GT,37.3552709,-122.0619071,,24.566307,0.1,339.108,1609883843440
Fix,GT,37.355481,-122.0620023,,25.023315,0.1,340.6981,1609883844440
Fix,GT,37.3556973,-122.0620921,,25.593966,0.1,342.36786,1609883845440
Fix,GT,37.355921,-122.062177,,26.275776,0.1,343.67822,1609883846440
Fix,GT,37.3561515,-122.0622577,,26.850277,0.1,344.85672,1609883847440
Fix,GT,37.3563884,-122.0623343,,27.458996,0.1,345.95248,1609883848440
Fix,GT,37.3566314,-122.0624073,,28.037863,0.1,346.88968,1609883849440
Fix,GT,37.3568806,-122.0624765,,28.610384,0.1,347.89337,1609883850440
Fix,GT,37.3571358,-122.0625414,,29.172531,0.1,348.94272,1609883851440
Fix,GT,37.3573961,-122.0626009,,29.52349,0.1,350.1661,1609883852440
Fix,GT,37.3576599,-122.0626538,,29.772518,0.1,351.4681,1609883853440
Fix,GT,37.3579263,-122.0626998,,29.929771,0.1,352.69928,1609883854440
Fix,GT,37.3581951,-122.0627395,,30.132607,0.1,353.6689,1609883855440
Fix,GT,37.3584663,-122.0627738,,30.373936,0.1,354.62283,1609883856440
Fix,GT,37.3587396,-122.0628023,,30.515568,0.1,355.8145,1609883857440
Fix,GT,37.3590146,-122.0628226,,30.627851,0.1,357.2385,1609883858440
Fix,GT,37.3592913,-122.0628349,,30.82766,0.1,358.55298,1609883859440
Fix,GT,37.3595703,-122.0628401,,31.07186,0.1,359.5428,1609883860440
Fix,GT,37.3598509,-122.0628398,,31.226418,0.1,0.29864502,1609883861440
Fix,GT,37.3601328,-122.0628359,,31.354498,0.1,0.78411865,1609883862440
Fix,GT,37.3604157,-122.0628298,,31.454472,0.1,0.95529175,1609883863440
Fix,GT,37.3606992,-122.0628235,,31.486568,0.1,0.89764404,1609883864440
Fix,GT,37.3609829,-122.0628174,,31.495079,0.1,0.9300537,1609883865440
Fix,GT,37.3612667,-122.0628111,,31.512432,0.1,0.92684937,1609883866440
Fix,GT,37.3615507,-122.0628049,,31.5259,0.1,0.91537476,1609883867440
Fix,GT,37.3618347,-122.0627987,,31.501583,0.1,0.9612732,1609883868440
Fix,GT,37.3621181,-122.062792,,31.39789,0.1,1.0600586,1609883869440
Fix,GT,37.3624003,-122.0627847,,31.243643,0.1,1.1869812,1609883870440
Fix,GT,37.3626811,-122.0627769,,31.1399,0.1,1.2026062,1609883871440
Fix,GT,37.3629617,-122.0627693,,31.167528,0.1,1.1372986,1609883872440
Fix,GT,37.3632428,-122.0627623,,31.227036,0.1,0.8920593,1609883873440
Fix,GT,37.363524,-122.0627591,,31.171333,0.1,0.039245605,1609883874440
Fix,GT,37.363804,-122.0627625,,30.993454,0.1,358.79987,1609883875440
Fix,GT,37.3640821,-122.0627741,,30.80925,0.1,357.29898,1609883876440
Fix,GT,37.3643585,-122.0627963,,30.67511,0.1,355.23563,1609883877440
Fix,GT,37.3646329,-122.062832,,30.577908,0.1,352.84793,1609883878440
Fix,GT,37.3649053,-122.0628814,,30.55368,0.1,350.6653,1609883879440
Fix,GT,37.3651758,-122.0629435,,30.524776,0.1,348.49475,1609883880440
Fix,GT,37.3654438,-122.0630189,,30.483803,0.1,346.1714,1609883881440
Fix,GT,37.3657087,-122.063108,,30.407604,0.1,343.71527,1609883882440
Fix,GT,37.3659696,-122.0632106,,30.301617,0.1,341.34314,1609883883440
Fix,GT,37.3662259,-122.0633259,,30.194233,0.1,339.10638,1609883884440
Fix,GT,37.3664776,-122.0634532,,30.083588,0.1,336.95468,1609883885440
Fix,GT,37.3667247,-122.063591,,29.976166,0.1,335.17282,1609883886440
Fix,GT,37.3669684,-122.0637356,,29.896343,0.1,334.25897,1609883887440
Fix,GT,37.367211,-122.0638822,,29.890583,0.1,334.11597,1609883888440
Fix,GT,37.3674535,-122.0640291,,29.879108,0.1,334.12933,1609883889440
Fix,GT,37.3676955,-122.0641757,,29.78821,0.1,334.13147,1609883890440
Fix,GT,37.367937,-122.0643219,,29.744335,0.1,334.1161,1609883891440
Fix,GT,37.3681782,-122.064468,,29.729218,0.1,334.05142,1609883892440
Fix,GT,37.3684192,-122.0646144,,29.696262,0.1,334.06818,1609883893440
Fix,GT,37.3686598,-122.0647603,,29.61613,0.1,334.0794,1609883894440
Fix,GT,37.3688996,-122.0649057,,29.510296,0.1,334.07193,1609883895440
Fix,GT,37.3691383,-122.0650509,,29.391315,0.1,333.9805,1609883896440
Fix,GT,37.3693757,-122.0651956,,29.207314,0.1,333.9077,1609883897440
Fix,GT,37.3696116,-122.0653394,,29.004456,0.1,334.00586,1609883898440
Fix,GT,37.3698458,-122.0654818,,28.775063,0.1,334.01633,1609883899440
Fix,GT,37.370078,-122.065623,,28.507315,0.1,333.96893,1609883900440
Fix,GT,37.3703079,-122.0657631,,28.227444,0.1,334.00238,1609883901440
Fix,GT,37.3705357,-122.0659017,,27.986109,0.1,334.01587,1609883902440
Fix,GT,37.3707617,-122.0660392,,27.776943,0.1,334.02856,1609883903440
Fix,GT,37.370986,-122.0661752,,27.553782,0.1,334.14398,1609883904440
Fix,GT,37.3712087,-122.0663096,,27.322632,0.1,334.26282,1609883905440
Fix,GT,37.3714297,-122.0664427,,27.08759,0.1,334.23306,1609883906440
Fix,GT,37.3716488,-122.0665748,,26.88834,0.1,334.19833,1609883907440
Fix,GT,37.3718664,-122.0667061,,26.705217,0.1,334.2535,1609883908440
Fix,GT,37.3720823,-122.0668361,,26.465488,0.1,334.24377,1609883909440
Fix,GT,37.3722961,-122.0669647,,26.191809,0.1,334.2947,1609883910440
Fix,GT,37.372509,-122.0670914,,26.20765,0.1,334.77057,1609883911440
Fix,GT,37.3727258,-122.067215,,26.695467,0.1,336.14703,1609883912440
Fix,GT,37.3729498,-122.0673319,,27.082767,0.1,338.38046,1609883913440
Fix,GT,37.3731787,-122.0674374,,27.00618,0.1,340.9894,1609883914440
Fix,GT,37.3734096,-122.0675288,,26.723919,0.1,343.61493,1609883915440
Fix,GT,37.3736409,-122.067606,,26.42326,0.1,346.2481,1609883916440
Fix,GT,37.3738726,-122.0676695,,26.26588,0.1,348.75552,1609883917440
Fix,GT,37.3741057,-122.0677201,,26.265598,0.1,351.32993,1609883918440
Fix,GT,37.3743405,-122.067757,,26.241299,0.1,354.00955,1609883919440
Fix,GT,37.3745756,-122.0677804,,26.12333,0.1,356.58307,1609883920440
Fix,GT,37.3748106,-122.0677915,,26.129143,0.1,358.8069,1609883921440
Fix,GT,37.3750478,-122.067791,,26.61351,0.1,1.1547852,1609883922440
Fix,GT,37.3752901,-122.0677773,,27.183475,0.1,3.6447754,1609883923440
Fix,GT,37.3755355,-122.0677523,,27.401213,0.1,5.271698,1609883924440
Fix,GT,37.3757818,-122.0677213,,27.565765,0.1,6.003113,1609883925440
Fix,GT,37.3760295,-122.0676876,,27.699045,0.1,6.0943604,1609883926440
Fix,GT,37.3762781,-122.0676547,,27.808102,0.1,5.773651,1609883927440
Fix,GT,37.3765281,-122.0676229,,27.967978,0.1,5.708191,1609883928440
Fix,GT,37.3767788,-122.067592,,27.955227,0.1,5.4493713,1609883929440
Fix,GT,37.3770288,-122.0675643,,27.725204,0.1,4.6140137,1609883930440
Fix,GT,37.3772768,-122.0675419,,27.470234,0.1,3.6210022,1609883931440
Fix,GT,37.3775224,-122.067526,,27.122486,0.1,2.3441772,1609883932440
Fix,GT,37.3777625,-122.0675172,,26.028418,0.1,1.0674133,1609883933440
Fix,GT,37.3779874,-122.0675141,,23.664993,0.1,0.2658081,1609883934440
Fix,GT,37.3781869,-122.0675134,,20.554752,0.1,0.12927246,1609883935440
Fix,GT,37.3783597,-122.0675099,,17.930859,0.1,2.1440735,1609883936440
Fix,GT,37.3785119,-122.0674923,,16.171978,0.1,8.8767395,1609883937440
Fix,GT,37.3786456,-122.0674466,,14.882058,0.1,20.688019,1609883938440
Fix,GT,37.3787583,-122.0673661,,14.238535,0.1,36.206177,1609883939440
Fix,GT,37.378842,-122.0672521,,13.637946,0.1,55.120697,1609883940440
Fix,GT,37.3788888,-122.0671145,,13.3109,0.1,74.08374,1609883941440
Fix,GT,37.3788985,-122.0669654,,13.561411,0.1,91.86362,1609883942440
Fix,GT,37.3788712,-122.0668154,,13.99008,0.1,109.58917,1609883943440
Fix,GT,37.378807,-122.0666811,,14.059301,0.1,128.1211,1609883944440
Fix,GT,37.3787127,-122.0665806,,13.860156,0.1,147.04681,1609883945440
Fix,GT,37.3785988,-122.0665229,,13.809671,0.1,164.88043,1609883946440
Fix,GT,37.3784757,-122.066512,,13.94068,0.1,182.97504,1609883947440
Fix,GT,37.3783549,-122.0665502,,14.078264,0.1,201.58755,1609883948440
Fix,GT,37.37825,-122.0666349,,14.005014,0.1,220.22296,1609883949440
Fix,GT,37.3781732,-122.0667553,,13.711253,0.1,238.7797,1609883950440
Fix,GT,37.3781302,-122.0668975,,13.565224,0.1,256.30087,1609883951440
Fix,GT,37.3781227,-122.0670476,,13.395185,0.1,273.37683,1609883952440
Fix,GT,37.378149,-122.0671934,,13.404726,0.1,287.61087,1609883953440
Fix,GT,37.3781964,-122.0673356,,14.026361,0.1,294.33154,1609883954440
Fix,GT,37.3782527,-122.067483,,14.984917,0.1,295.90118,1609883955440
Fix,GT,37.3783133,-122.0676406,,15.991938,0.1,295.3876,1609883956440
Fix,GT,37.3783762,-122.0678091,,16.912132,0.1,294.7864,1609883957440
Fix,GT,37.378441,-122.0679848,,17.31201,0.1,294.81146,1609883958440
Fix,GT,37.3785071,-122.0681615,,17.198309,0.1,295.03528,1609883959440
Fix,GT,37.3785711,-122.0683333,,16.284075,0.1,294.64148,1609883960440
Fix,GT,37.3786292,-122.0684921,,14.650893,0.1,294.54813,1609883961440
Fix,GT,37.3786827,-122.0686333,,13.0716305,0.1,296.30405,1609883962440
Fix,GT,37.3787365,-122.0687538,,11.435091,0.1,301.994,1609883963440
Fix,GT,37.3787977,-122.0688484,,10.397999,0.1,313.73935,1609883964440
Fix,GT,37.378872,-122.0689159,,10.296272,0.1,328.89478,1609883965440
Fix,GT,37.3789591,-122.068958,,10.565336,0.1,343.11133,1609883966440
Fix,GT,37.3790543,-122.0689741,,10.851846,0.1,356.40527,1609883967440
Fix,GT,37.3791531,-122.0689611,,11.371971,0.1,10.540161,1609883968440
Fix,GT,37.3792514,-122.0689142,,12.20389,0.1,25.874817,1609883969440
Fix,GT,37.3793407,-122.0688304,,12.760982,0.1,42.663513,1609883970440
Fix,GT,37.3794089,-122.0687147,,12.942976,0.1,59.89386,1609883971440
Fix,GT,37.3794475,-122.0685778,,13.05394,0.1,76.78189,1609883972440
Fix,GT,37.3794523,-122.0684314,,13.176128,0.1,94.3468,1609883973440
Fix,GT,37.3794217,-122.0682893,,13.20755,0.1,111.9191,1609883974440
Fix,GT,37.3793585,-122.068165,,13.226184,0.1,129.2828,1609883975440
Fix,GT,37.379268,-122.0680691,,13.407429,0.1,146.31305,1609883976440
Fix,GT,37.3791577,-122.0680065,,13.717808,0.1,160.7284,1609883977440
Fix,GT,37.3790356,-122.0679706,,14.248741,0.1,169.32062,1609883978440
Fix,GT,37.378906,-122.0679461,,14.935713,0.1,171.90393,1609883979440
Fix,GT,37.3787693,-122.0679221,,15.748804,0.1,171.70685,1609883980440
Fix,GT,37.3786241,-122.0678962,,16.85213,0.1,171.94275,1609883981440
Fix,GT,37.3784687,-122.0678696,,18.000164,0.1,172.14587,1609883982440
Fix,GT,37.378303,-122.0678428,,19.012571,0.1,172.9754,1609883983440
Fix,GT,37.3781292,-122.0678199,,19.739609,0.1,174.57306,1609883984440
Fix,GT,37.3779491,-122.0677997,,20.505442,0.1,174.77454,1609883985440
Fix,GT,37.3777604,-122.0677819,,21.52666,0.1,176.35767,1609883986440
Fix,GT,37.3775611,-122.0677736,,22.73851,0.1,179.22894,1609883987440
Fix,GT,37.3773507,-122.0677762,,23.982697,0.1,181.51024,1609883988440
Fix,GT,37.3771299,-122.0677895,,25.069775,0.1,183.6702,1609883989440
Fix,GT,37.3769007,-122.0678125,,25.929802,0.1,185.07336,1609883990440
Fix,GT,37.3766649,-122.0678407,,26.596622,0.1,185.57515,1609883991440
Fix,GT,37.3764249,-122.0678713,,26.933254,0.1,185.85793,1609883992440
Fix,GT,37.3761822,-122.0679033,,27.208435,0.1,186.01195,1609883993440
Fix,GT,37.3759371,-122.067936,,27.558039,0.1,185.9719,1609883994440
Fix,GT,37.375689,-122.0679677,,27.772074,0.1,185.50815,1609883995440
Fix,GT,37.3754391,-122.0679953,,27.886164,0.1,184.59653,1609883996440
Fix,GT,37.3751881,-122.0680164,,27.996733,0.1,183.02917,1609883997440
Fix,GT,37.3749359,-122.0680264,,28.053123,0.1,180.62288,1609883998440
Fix,GT,37.3746831,-122.0680222,,28.090477,0.1,177.97284,1609883999440
Fix,GT,37.3744307,-122.0680034,,28.055058,0.1,175.24048,1609884000440
Fix,GT,37.37418,-122.0679695,,27.963379,0.1,172.43054,1609884001440
Fix,GT,37.3739315,-122.0679207,,27.885399,0.1,169.79163,1609884002440
Fix,GT,37.3736857,-122.0678583,,27.823505,0.1,167.33563,1609884003440
Fix,GT,37.3734428,-122.0677826,,27.791859,0.1,164.8443,1609884004440
Fix,GT,37.3732025,-122.0676937,,27.854351,0.1,162.3396,1609884005440
Fix,GT,37.3729647,-122.0675912,,27.987122,0.1,159.70624,1609884006440
Fix,GT,37.3727293,-122.0674745,,28.217747,0.1,157.21472,1609884007440
Fix,GT,37.3724959,-122.0673451,,28.465183,0.1,155.22308,1609884008440
Fix,GT,37.372263,-122.0672067,,28.718178,0.1,154.18176,1609884009440
Fix,GT,37.3720292,-122.0670646,,28.93163,0.1,154.05542,1609884010440
Fix,GT,37.371794,-122.0669222,,29.037106,0.1,154.21283,1609884011440
Fix,GT,37.3715576,-122.0667799,,29.156822,0.1,154.28003,1609884012440
Fix,GT,37.3713205,-122.0666367,,29.264303,0.1,154.09308,1609884013440
Fix,GT,37.3710831,-122.0664919,,29.353252,0.1,153.87549,1609884014440
Fix,GT,37.3708452,-122.0663463,,29.386196,0.1,153.90662,1609884015440
Fix,GT,37.3706076,-122.066201,,29.286694,0.1,153.93658,1609884016440
Fix,GT,37.3703708,-122.0660565,,29.214607,0.1,153.98175,1609884017440
Fix,GT,37.3701339,-122.0659126,,29.230358,0.1,154.05615,1609884018440
Fix,GT,37.3698968,-122.0657686,,29.252089,0.1,154.04382,1609884019440
Fix,GT,37.3696594,-122.0656241,,29.364885,0.1,154.01819,1609884020440
Fix,GT,37.3694202,-122.0654785,,29.709057,0.1,154.03522,1609884021440
Fix,GT,37.3691776,-122.0653311,,30.139015,0.1,154.0752,1609884022440
Fix,GT,37.3689315,-122.0651821,,30.520954,0.1,154.16278,1609884023440
Fix,GT,37.3686825,-122.0650316,,30.841286,0.1,154.19,1609884024440
Fix,GT,37.3684314,-122.0648796,,31.039524,0.1,154.11237,1609884025440
Fix,GT,37.3681798,-122.0647269,,30.970558,0.1,154.05585,1609884026440
Fix,GT,37.3679298,-122.0645751,,30.688179,0.1,154.09412,1609884027440
Fix,GT,37.3676823,-122.0644246,,30.384506,0.1,154.03821,1609884028440
Fix,GT,37.3674373,-122.0642753,,30.14455,0.1,153.93298,1609884029440
Fix,GT,37.3671937,-122.064127,,29.973263,0.1,154.16205,1609884030440
Fix,GT,37.3669508,-122.0639817,,29.73972,0.1,154.63965,1609884031440
Fix,GT,37.3667093,-122.06384,,29.450539,0.1,155.10645,1609884032440
Fix,GT,37.3664687,-122.0637041,,29.165283,0.1,156.32599,1609884033440
Fix,GT,37.366227,-122.0635785,,28.925566,0.1,158.4403,1609884034440
Fix,GT,37.3659831,-122.0634657,,28.834969,0.1,160.84564,1609884035440
Fix,GT,37.3657357,-122.0633656,,28.89228,0.1,163.17249,1609884036440
Fix,GT,37.3654845,-122.0632774,,29.01384,0.1,165.22754,1609884037440
Fix,GT,37.36523,-122.0632002,,29.11613,0.1,167.32935,1609884038440
Fix,GT,37.3649721,-122.0631344,,29.316624,0.1,169.48279,1609884039440
Fix,GT,37.36471,-122.06308,,29.651863,0.1,171.56958,1609884040440
Fix,GT,37.3644434,-122.0630379,,29.985985,0.1,174.00397,1609884041440
Fix,GT,37.3641724,-122.0630105,,30.396538,0.1,176.6615,1609884042440
Fix,GT,37.3638967,-122.0629972,,30.84544,0.1,178.69104,1609884043440
Fix,GT,37.3636169,-122.0629942,,31.263689,0.1,180.13464,1609884044440
Fix,GT,37.3633338,-122.0629979,,31.574223,0.1,180.83063,1609884045440
Fix,GT,37.3630488,-122.063004,,31.628448,0.1,180.96593,1609884046440
Fix,GT,37.3627645,-122.0630102,,31.461964,0.1,180.87856,1609884047440
Fix,GT,37.3624822,-122.0630158,,31.22762,0.1,180.80243,1609884048440
Fix,GT,37.3622019,-122.0630212,,30.980728,0.1,180.82182,1609884049440
Fix,GT,37.3619238,-122.0630268,,30.739962,0.1,180.8565,1609884050440
Fix,GT,37.361648,-122.0630328,,30.519478,0.1,181.00952,1609884051440
Fix,GT,37.361374,-122.0630398,,30.297878,0.1,181.11253,1609884052440
Fix,GT,37.361102,-122.0630469,,30.06633,0.1,181.08621,1609884053440
Fix,GT,37.3608324,-122.0630531,,29.783684,0.1,180.98041,1609884054440
Fix,GT,37.3605656,-122.0630592,,29.468063,0.1,180.96732,1609884055440
Fix,GT,37.3603016,-122.0630648,,29.165958,0.1,180.82625,1609884056440
Fix,GT,37.3600401,-122.063069,,28.88523,0.1,180.48688,1609884057440
Fix,GT,37.359781,-122.0630708,,28.644156,0.1,180.11053,1609884058440
Fix,GT,37.3595236,-122.0630701,,28.50927,0.1,179.47345,1609884059440
Fix,GT,37.359267,-122.0630647,,28.48515,0.1,178.46082,1609884060440
Fix,GT,37.3590107,-122.0630536,,28.450111,0.1,177.63672,1609884061440
Fix,GT,37.3587545,-122.0630396,,28.515478,0.1,177.38464,1609884062440
Fix,GT,37.3584967,-122.0630242,,28.736547,0.1,177.00049,1609884063440
Fix,GT,37.3582373,-122.0630045,,28.968836,0.1,175.83478,1609884064440
Fix,GT,37.3579764,-122.0629763,,29.175758,0.1,174.25269,1609884065440
Fix,GT,37.3577146,-122.0629383,,29.32755,0.1,172.51361,1609884066440
Fix,GT,37.3574525,-122.0628905,,29.481604,0.1,170.906,1609884067440
Fix,GT,37.3571897,-122.0628342,,29.6745,0.1,169.61926,1609884068440
Fix,GT,37.3569266,-122.0627712,,29.761255,0.1,168.57703,1609884069440
Fix,GT,37.3566645,-122.062702,,29.640652,0.1,167.49268,1609884070440
Fix,GT,37.356406,-122.0626265,,29.254047,0.1,166.2649,1609884071440
Fix,GT,37.3561526,-122.0625462,,28.754387,0.1,165.35468,1609884072440
Fix,GT,37.3559047,-122.0624632,,28.214802,0.1,164.7049,1609884073440
Fix,GT,37.3556622,-122.0623786,,27.644962,0.1,164.14636,1609884074440
Fix,GT,37.3554256,-122.0622931,,27.031227,0.1,163.66254,1609884075440
Fix,GT,37.3551949,-122.0622075,,26.3858,0.1,163.3852,1609884076440
Fix,GT,37.35497,-122.0621228,,25.726156,0.1,163.2279,1609884077440
Fix,GT,37.354751,-122.0620398,,25.059605,0.1,163.06525,1609884078440
Fix,GT,37.3545378,-122.0619589,,24.418947,0.1,163.08252,1609884079440
Fix,GT,37.3543298,-122.06188,,23.827572,0.1,163.07593,1609884080440
Fix,GT,37.3541275,-122.0618031,,22.96952,0.1,163.0354,1609884081440
Fix,GT,37.3539354,-122.0617302,,21.412094,0.1,163.05829,1609884082440
Fix,GT,37.3537589,-122.0616627,,19.610483,0.1,162.72437,1609884083440
Fix,GT,37.3535969,-122.0615991,,18.21062,0.1,162.4159,1609884084440
Fix,GT,37.3534459,-122.0615397,,16.89006,0.1,162.59143,1609884085440
Fix,GT,37.3533066,-122.0614863,,15.439062,0.1,163.11932,1609884086440
Fix,GT,37.3531793,-122.0614392,,14.039237,0.1,163.71277,1609884087440
Fix,GT,37.353064,-122.0613985,,12.443329,0.1,164.52502,1609884088440
Fix,GT,37.3529634,-122.0613653,,10.579863,0.1,165.64813,1609884089440
Fix,GT,37.3528794,-122.0613397,,8.647775,0.1,166.33496,1609884090440
Fix,GT,37.3528123,-122.0613198,,6.648098,0.1,166.64014,1609884091440
Fix,GT,37.3527621,-122.0613055,,4.8865533,0.1,167.22485,1609884092440
Fix,GT,37.3527252,-122.0612956,,3.561036,0.1,168.0061,1609884093440
Fix,GT,37.3526981,-122.0612888,,2.5604303,0.1,168.41309,1609884094440
Fix,GT,37.3526803,-122.0612843,,1.4281077,0.1,168.44269,1609884095440
Fix,GT,37.3526726,-122.0612824,,0.3937886,0.1,168.45856,1609884096440
Fix,GT,37.3526714,-122.0612821,,0.014286972,0.1,168.4685,1609884097440
Fix,GT,37.3526714,-122.0612821,,0.003894792,0.1,168.47156,1609884098440
Fix,GT,37.3526714,-122.0612821,,0.003090751,0.1,168.4701,1609884099440
Fix,GT,37.3526714,-122.0612821,,0.0025592316,0.1,168.46997,1609884100440
Fix,GT,37.3526714,-122.0612821,,0.0021040514,0.1,168.46991,1609884101440
Fix,GT,37.3526714,-122.0612821,,0.0021320167,0.1,168.46997,1609884102440
Fix,GT,37.3526714,-122.0612821,,0.0015592317,0.1,168.47015,1609884103440
Fix,GT,37.3526714,-122.0612821,,0.001,0.1,168.47023,1609884104440
Fix,GT,37.3526714,-122.0612821,,0.001,0.1,168.47021,1609884105440
Fix,GT,37.3526714,-122.0612821,,0.001,0.1,168.4701,1609884106440
Fix,GT,37.3526714,-122.0612821,,0.001,0.1,168.47003,1609884107440
Fix,GT,37.3526714,-122.0612821,,0.0011825723,0.1,168.46997,1609884108440
Fix,GT,37.3526714,-122.0612821,,0.0012316413,0.1,168.46997,1609884109440
Fix,GT,37.3526714,-122.0612821,,0.00055923156,0.1,168.46985,1609884110440
Fix,GT,37.3526714,-122.061282,,0.0,0.1,168.46979,1609884111440
Fix,GT,37.3526714,-122.061282,,0.0004407685,0.1,168.46985,1609884112440
Fix,GT,37.3526714,-122.061282,,0.001,0.1,168.46985,1609884113440
Fix,GT,37.3526713,-122.061282,,0.055882264,0.1,168.47266,1609884114440
Fix,GT,37.352669,-122.0612815,,0.5015374,0.1,168.50055,1609884115440
Fix,GT,37.3526616,-122.0612797,,1.0714626,0.1,168.5633,1609884116440
Fix,GT,37.3526516,-122.0612772,,1.1217475,0.1,168.60895,1609884117440
Fix,GT,37.3526412,-122.0612747,,1.2514306,0.1,168.64423,1609884118440
Fix,GT,37.3526284,-122.0612716,,1.7024426,0.1,168.71753,1609884119440
Fix,GT,37.3526111,-122.0612674,,2.2317278,0.1,168.82031,1609884120440
Fix,GT,37.3525879,-122.0612619,,3.0477748,0.1,168.97858,1609884121440
Fix,GT,37.3525562,-122.0612545,,4.0959263,0.1,169.27509,1609884122440
Fix,GT,37.3525148,-122.0612452,,5.1517825,0.1,169.7807,1609884123440
Fix,GT,37.3524656,-122.0612347,,5.859246,0.1,170.3695,1609884124440
Fix,GT,37.3524119,-122.0612236,,6.1774263,0.1,170.61212,1609884125440
Fix,GT,37.3523559,-122.0612114,,6.420558,0.1,169.86133,1609884126440
Fix,GT,37.3522986,-122.0611939,,6.7035556,0.1,165.01855,1609884127440
Fix,GT,37.352242,-122.0611629,,7.15429,0.1,153.55115,1609884128440
Fix,GT,37.3521896,-122.0611113,,7.898696,0.1,138.56567,1609884129440
Fix,GT,37.3521448,-122.0610371,,8.823502,0.1,123.29495,1609884130440
Fix,GT,37.3521138,-122.060941,,9.786872,0.1,107.482635,1609884131440
Fix,GT,37.3521019,-122.0608291,,10.424383,0.1,93.90512,1609884132440
Fix,GT,37.3521025,-122.0607108,,10.472069,0.1,88.58624,1609884133440
Fix,GT,37.3521045,-122.0605958,,9.747244,0.1,88.829346,1609884134440
Fix,GT,37.3521052,-122.0604949,,8.049411,0.1,89.76718,1609884135440
Fix,GT,37.3521051,-122.0604159,,5.957151,0.1,90.19791,1609884136440
Fix,GT,37.3521049,-122.0603599,,3.9185052,0.1,90.14142,1609884137440
Fix,GT,37.3521049,-122.0603267,,2.0211391,0.1,89.99466,1609884138440
Fix,GT,37.3521049,-122.0603124,,0.63995135,0.1,89.89209,1609884139440
Fix,GT,37.352105,-122.0603093,,0.015763959,0.1,89.85416,1609884140440
Fix,GT,37.3521049,-122.0603094,,0.001776461,0.1,89.85501,1609884141440
Fix,GT,37.352105,-122.0603093,,0.0021320167,0.1,89.85382,1609884142440
Fix,GT,37.352105,-122.0603093,,0.0017418038,0.1,89.85321,1609884143440
Fix,GT,37.352105,-122.0603093,,0.001776461,0.1,89.85364,1609884144440
Fix,GT,37.352105,-122.0603093,,0.0018738204,0.1,89.85358,1609884145440
Fix,GT,37.352105,-122.0603093,,0.001776461,0.1,89.853424,1609884146440
Fix,GT,37.352105,-122.0603093,,0.0018738204,0.1,89.85333,1609884147440
Fix,GT,37.352105,-122.0603093,,0.0012316413,0.1,89.85327,1609884148440
Fix,GT,37.352105,-122.0603093,,0.0011825722,0.1,89.85318,1609884149440
Fix,GT,37.352105,-122.0603093,,0.0012316413,0.1,89.85315,1609884150440
Fix,GT,37.352105,-122.0603093,,0.001,0.1,89.85309,1609884151440
Fix,GT,37.352105,-122.0603093,,0.001,0.1,89.85306,1609884152440
Fix,GT,37.352105,-122.0603093,,0.001,0.1,89.85318,1609884153440
Fix,GT,37.352105,-122.0603093,,0.0011825722,0.1,89.85321,1609884154440
Fix,GT,37.352105,-122.0603093,,0.0012316413,0.1,89.85321,1609884155440
Fix,GT,37.352105,-122.0603093,,0.001,0.1,89.85321,1609884156440
Fix,GT,37.352105,-122.0603093,,0.001,0.1,89.85333,1609884157440
Fix,GT,37.352105,-122.0603093,,0.001,0.1,89.85333,1609884158440
Fix,GT,37.352105,-122.0603093,,0.0011825722,0.1,89.85333,1609884159440
Fix,GT,37.352105,-122.0603093,,0.001776461,0.1,89.85327,1609884160440
Fix,GT,37.352105,-122.0603093,,0.0016912483,0.1,89.85333,1609884161440
Fix,GT,37.352105,-122.0603093,,0.0015448198,0.1,89.853424,1609884162440
Fix,GT,37.352105,-122.0603093,,0.0012504798,0.1,89.85309,1609884163440
Fix,GT,37.352105,-122.0603093,,0.00062334066,0.1,89.852936,1609884164440
Fix,GT,37.352105,-122.0603093,,0.0014142136,0.1,89.852844,1609884165440
Fix,GT,37.352105,-122.0603093,,0.0012316413,0.1,89.85275,1609884166440
Fix,GT,37.352105,-122.0603093,,0.001,0.1,89.852844,1609884167440
Fix,GT,37.352105,-122.0603093,,0.0011825722,0.1,89.852844,1609884168440
Fix,GT,37.352105,-122.0603093,,0.0014142136,0.1,89.85263,1609884169440
Fix,GT,37.352105,-122.0603093,,0.0014142136,0.1,89.85272,1609884170440
Fix,GT,37.352105,-122.0603093,,0.0012316413,0.1,89.852905,1609884171440
Fix,GT,37.352105,-122.0603092,,0.08121985,0.1,89.85095,1609884172440
Fix,GT,37.352105,-122.0603059,,0.6378759,0.1,89.73801,1609884173440
Fix,GT,37.3521058,-122.060293,,1.7426916,0.1,88.17139,1609884174440
Fix,GT,37.3521097,-122.0602675,,2.8875718,0.1,81.735016,1609884175440
Fix,GT,37.3521231,-122.0602328,,3.9819925,0.1,66.17847,1609884176440
Fix,GT,37.3521533,-122.0601988,,5.2467566,0.1,42.477142,1609884177440
Fix,GT,37.3522026,-122.0601765,,6.684253,0.1,18.288147,1609884178440
Fix,GT,37.3522675,-122.0601747,,8.069968,0.1,358.0852,1609884179440
Fix,GT,37.3523433,-122.0601978,,9.4815445,0.1,343.24738,1609884180440
Fix,GT,37.3524278,-122.0602412,,10.854597,0.1,336.18344,1609884181440
Fix,GT,37.3525217,-122.0602955,,12.104681,0.1,334.91733,1609884182440
Fix,GT,37.3526256,-122.0603564,,13.334703,0.1,334.90332,1609884183440
Fix,GT,37.352739,-122.0604218,,14.353994,0.1,335.51312,1609884184440
Fix,GT,37.3528613,-122.0604898,,15.274823,0.1,336.18112,1609884185440
Fix,GT,37.3529914,-122.0605615,,16.257303,0.1,336.04596,1609884186440
Fix,GT,37.3531284,-122.0606387,,17.121204,0.1,335.67816,1609884187440
Fix,GT,37.3532718,-122.0607208,,17.852736,0.1,335.22134,1609884188440
Fix,GT,37.3534199,-122.0608083,,18.483553,0.1,334.34656,1609884189440
Fix,GT,37.3535717,-122.0609016,,19.032413,0.1,333.49686,1609884190440
Fix,GT,37.3537268,-122.0609997,,19.543522,0.1,332.93817,1609884191440
Fix,GT,37.3538854,-122.0611015,,19.96989,0.1,332.67188,1609884192440
Fix,GT,37.3540469,-122.0612052,,20.353245,0.1,332.83276,1609884193440
Fix,GT,37.3542124,-122.0613102,,20.865381,0.1,333.18085,1609884194440
Fix,GT,37.354383,-122.0614167,,21.467838,0.1,333.62692,1609884195440
Fix,GT,37.3545591,-122.0615241,,22.032171,0.1,334.37814,1609884196440
Fix,GT,37.3547411,-122.0616303,,22.513767,0.1,335.40738,1609884197440
Fix,GT,37.3549286,-122.0617344,,22.97713,0.1,336.45615,1609884198440
Fix,GT,37.3551211,-122.0618359,,23.343952,0.1,337.74768,1609884199440
Fix,GT,37.3553182,-122.0619341,,23.786903,0.1,338.5703,1609884200440
Fix,GT,37.3555207,-122.0620332,,24.516788,0.1,338.5992,1609884201440
Fix,GT,37.3557308,-122.0621337,,25.408464,0.1,339.7817,1609884202440
Fix,GT,37.3559513,-122.0622273,,26.28197,0.1,342.47995,1609884203440
Fix,GT,37.3561824,-122.0623119,,27.153763,0.1,344.65326,1609884204440
Fix,GT,37.356423,-122.0623901,,28.010319,0.1,345.95108,1609884205440
Fix,GT,37.3566721,-122.0624644,,28.823025,0.1,347.10477,1609884206440
Fix,GT,37.3569287,-122.0625341,,29.442944,0.1,348.27106,1609884207440
Fix,GT,37.3571911,-122.0625985,,29.876202,0.1,349.33432,1609884208440
Fix,GT,37.3574582,-122.062658,,30.359196,0.1,350.37616,1609884209440
Fix,GT,37.3577308,-122.0627118,,30.881763,0.1,351.5779,1609884210440
Fix,GT,37.3580087,-122.0627591,,31.39172,0.1,352.84192,1609884211440
Fix,GT,37.3582916,-122.0627995,,31.756119,0.1,354.08786,1609884212440
Fix,GT,37.3585777,-122.0628323,,31.973057,0.1,355.37753,1609884213440
Fix,GT,37.3588658,-122.0628572,,32.123146,0.1,356.66177,1609884214440
Fix,GT,37.3591554,-122.062874,,32.21587,0.1,357.93988,1609884215440
Fix,GT,37.3594459,-122.0628827,,32.269173,0.1,359.15652,1609884216440
Fix,GT,37.3597368,-122.0628848,,32.30517,0.1,0.030761719,1609884217440
Fix,GT,37.3600281,-122.0628824,,32.389355,0.1,0.5778198,1609884218440
Fix,GT,37.3603207,-122.0628769,,32.58013,0.1,0.98825073,1609884219440
Fix,GT,37.3606151,-122.0628697,,32.74382,0.1,1.104065,1609884220440
Fix,GT,37.3609103,-122.0628623,,32.754726,0.1,1.0332031,1609884221440
Fix,GT,37.3612049,-122.0628553,,32.656944,0.1,0.95147705,1609884222440
Fix,GT,37.3614989,-122.0628492,,32.61512,0.1,0.8103943,1609884223440
Fix,GT,37.3617931,-122.0628438,,32.677773,0.1,0.719635,1609884224440
Fix,GT,37.3620875,-122.0628387,,32.6706,0.1,0.78533936,1609884225440
Fix,GT,37.3623815,-122.0628326,,32.598022,0.1,0.96209717,1609884226440
Fix,GT,37.3626749,-122.0628254,,32.520447,0.1,1.1180725,1609884227440
Fix,GT,37.3629671,-122.0628176,,32.370155,0.1,1.1696777,1609884228440
Fix,GT,37.3632581,-122.0628103,,32.234463,0.1,0.9793701,1609884229440
Fix,GT,37.363548,-122.0628058,,32.119804,0.1,0.31304932,1609884230440
Fix,GT,37.3638368,-122.062808,,31.988205,0.1,358.9496,1609884231440
Fix,GT,37.3641239,-122.0628197,,31.794102,0.1,357.04187,1609884232440
Fix,GT,37.3644083,-122.0628453,,31.50842,0.1,354.59485,1609884233440
Fix,GT,37.3646888,-122.0628863,,31.215584,0.1,352.12302,1609884234440
Fix,GT,37.3649652,-122.0629405,,30.918215,0.1,350.0427,1609884235440
Fix,GT,37.365237,-122.0630073,,30.581089,0.1,347.6584,1609884236440
Fix,GT,37.3655031,-122.0630877,,30.20198,0.1,345.27753,1609884237440
Fix,GT,37.3657631,-122.0631794,,29.75217,0.1,343.25327,1609884238440
Fix,GT,37.3660159,-122.0632812,,29.222,0.1,341.15283,1609884239440
Fix,GT,37.3662607,-122.0633927,,28.59262,0.1,338.95023,1609884240440
Fix,GT,37.366496,-122.0635124,,27.793415,0.1,336.86157,1609884241440
Fix,GT,37.3667219,-122.0636384,,27.10719,0.1,335.25793,1609884242440
Fix,GT,37.3669409,-122.0637674,,26.640488,0.1,334.4383,1609884243440
Fix,GT,37.3671554,-122.0638964,,26.188969,0.1,334.21393,1609884244440
Fix,GT,37.3673663,-122.0640239,,25.844246,0.1,334.0911,1609884245440
Fix,GT,37.3675749,-122.0641505,,25.59248,0.1,334.04977,1609884246440
Fix,GT,37.3677814,-122.0642762,,25.400753,0.1,333.9679,1609884247440
Fix,GT,37.3679865,-122.0644017,,25.28777,0.1,333.80063,1609884248440
Fix,GT,37.3681911,-122.0645274,,25.303772,0.1,333.87683,1609884249440
Fix,GT,37.3683966,-122.064653,,25.453344,0.1,333.97894,1609884250440
Fix,GT,37.3686033,-122.0647788,,25.511469,0.1,334.0163,1609884251440
Fix,GT,37.3688101,-122.0649044,,25.499624,0.1,334.05222,1609884252440
Fix,GT,37.3690171,-122.0650301,,25.580559,0.1,334.10223,1609884253440
Fix,GT,37.3692248,-122.0651559,,25.593348,0.1,334.20538,1609884254440
Fix,GT,37.3694319,-122.0652805,,25.405718,0.1,334.3089,1609884255440
Fix,GT,37.3696376,-122.0654041,,25.243237,0.1,334.26712,1609884256440
Fix,GT,37.3698424,-122.0655277,,25.256502,0.1,334.16025,1609884257440
Fix,GT,37.3700479,-122.0656524,,25.395447,0.1,334.00912,1609884258440
Fix,GT,37.3702538,-122.0657781,,25.450935,0.1,333.90463,1609884259440
Fix,GT,37.3704604,-122.0659046,,25.635807,0.1,333.8928,1609884260440
Fix,GT,37.3706695,-122.0660318,,25.98209,0.1,334.0644,1609884261440
Fix,GT,37.3708818,-122.06616,,26.365751,0.1,334.20706,1609884262440
Fix,GT,37.3710978,-122.0662907,,26.861683,0.1,334.07816,1609884263440
Fix,GT,37.3713173,-122.0664243,,27.334288,0.1,333.94537,1609884264440
Fix,GT,37.3715401,-122.0665604,,27.667206,0.1,333.98032,1609884265440
Fix,GT,37.3717649,-122.0666973,,27.738121,0.1,334.1694,1609884266440
Fix,GT,37.3719899,-122.066833,,27.679283,0.1,334.2526,1609884267440
Fix,GT,37.3722142,-122.0669681,,27.542912,0.1,334.2652,1609884268440
Fix,GT,37.372438,-122.0671014,,27.498837,0.1,334.7933,1609884269440
Fix,GT,37.3726636,-122.0672304,,27.585037,0.1,335.9927,1609884270440
Fix,GT,37.3728927,-122.0673529,,27.623621,0.1,337.65707,1609884271440
Fix,GT,37.3731248,-122.0674646,,27.551739,0.1,340.24457,1609884272440
Fix,GT,37.3733605,-122.0675616,,27.60685,0.1,343.2943,1609884273440
Fix,GT,37.3736023,-122.0676435,,28.062695,0.1,346.06766,1609884274440
Fix,GT,37.3738514,-122.0677123,,28.56773,0.1,348.78656,1609884275440
Fix,GT,37.374106,-122.0677675,,28.730904,0.1,351.4486,1609884276440
Fix,GT,37.3743627,-122.0678076,,28.703608,0.1,354.162,1609884277440
Fix,GT,37.3746211,-122.0678325,,28.858372,0.1,356.82745,1609884278440
Fix,GT,37.3748825,-122.0678418,,29.198166,0.1,359.67276,1609884279440
Fix,GT,37.3751468,-122.0678346,,29.454788,0.1,2.6186523,1609884280440
Fix,GT,37.3754121,-122.0678117,,29.579426,0.1,5.030304,1609884281440
Fix,GT,37.3756778,-122.0677781,,29.677694,0.1,6.069916,1609884282440
Fix,GT,37.375944,-122.0677414,,29.74879,0.1,6.3303223,1609884283440
Fix,GT,37.3762106,-122.0677016,,29.867413,0.1,7.1549683,1609884284440
Fix,GT,37.3764779,-122.0676564,,29.966228,0.1,7.8023987,1609884285440
Fix,GT,37.3767448,-122.0676112,,29.727474,0.1,7.309906,1609884286440
Fix,GT,37.3770081,-122.0675729,,29.08025,0.1,5.6736145,1609884287440
Fix,GT,37.3772654,-122.0675469,,28.256073,0.1,3.5768433,1609884288440
Fix,GT,37.3775153,-122.0675317,,27.25951,0.1,2.202423,1609884289440
Fix,GT,37.3777549,-122.0675226,,25.818125,0.1,1.4125977,1609884290440
Fix,GT,37.3779783,-122.0675177,,23.639587,0.1,0.65042114,1609884291440
Fix,GT,37.3781789,-122.0675153,,20.819883,0.1,0.53289795,1609884292440
Fix,GT,37.3783525,-122.0675101,,17.773476,0.1,2.6810608,1609884293440
Fix,GT,37.3784996,-122.0674923,,15.230813,0.1,8.7595825,1609884294440
Fix,GT,37.3786253,-122.0674521,,13.838732,0.1,18.97107,1609884295440
Fix,GT,37.3787327,-122.0673837,,13.127953,0.1,32.40393,1609884296440
Fix,GT,37.3788171,-122.0672873,,12.501101,0.1,48.74893,1609884297440
Fix,GT,37.378872,-122.0671692,,12.072281,0.1,66.28195,1609884298440
Fix,GT,37.3788957,-122.0670378,,12.134488,0.1,83.16235,1609884299440
Fix,GT,37.3788886,-122.0669005,,12.441107,0.1,99.36536,1609884300440
Fix,GT,37.3788509,-122.0667687,,12.5997925,0.1,115.66107,1609884301440
Fix,GT,37.3787847,-122.0666545,,12.638893,0.1,132.01208,1609884302440
Fix,GT,37.3786952,-122.0665692,,12.585098,0.1,149.10977,1609884303440
Fix,GT,37.3785899,-122.0665209,,12.6350155,0.1,166.05743,1609884304440
Fix,GT,37.3784766,-122.0665127,,12.825098,0.1,182.89209,1609884305440
Fix,GT,37.3783647,-122.0665466,,12.9558525,0.1,200.04416,1609884306440
Fix,GT,37.3782657,-122.0666205,,12.872454,0.1,217.51448,1609884307440
Fix,GT,37.3781897,-122.0667269,,12.70406,0.1,234.89583,1609884308440
Fix,GT,37.3781419,-122.0668554,,12.69928,0.1,251.08937,1609884309440
Fix,GT,37.378124,-122.0669953,,12.629132,0.1,267.02252,1609884310440
Fix,GT,37.3781374,-122.0671354,,12.670825,0.1,282.53824,1609884311440
Fix,GT,37.3781759,-122.067272,,13.149857,0.1,292.49054,1609884312440
Fix,GT,37.3782266,-122.0674108,,13.896983,0.1,295.19446,1609884313440
Fix,GT,37.3782822,-122.0675575,,14.84071,0.1,295.19812,1609884314440
Fix,GT,37.3783406,-122.0677149,,15.92507,0.1,294.62985,1609884315440
Fix,GT,37.3784021,-122.0678841,,16.972073,0.1,294.37344,1609884316440
Fix,GT,37.3784666,-122.0680609,,17.22396,0.1,294.6007,1609884317440
Fix,GT,37.3785301,-122.0682319,,15.905106,0.1,294.9375,1609884318440
Fix,GT,37.3785879,-122.0683856,,14.191529,0.1,295.08984,1609884319440
Fix,GT,37.3786401,-122.0685239,,12.954226,0.1,295.457,1609884320440
Fix,GT,37.3786893,-122.0686484,,11.640861,0.1,296.95596,1609884321440
Fix,GT,37.3787379,-122.0687553,,10.11929,0.1,301.7598,1609884322440
Fix,GT,37.3787902,-122.0688389,,8.8824625,0.1,312.0631,1609884323440
Fix,GT,37.3788513,-122.068899,,8.63646,0.1,325.28946,1609884324440
Fix,GT,37.378923,-122.0689424,,9.161301,0.1,336.74628,1609884325440
Fix,GT,37.3790056,-122.0689697,,9.892975,0.1,348.33783,1609884326440
Fix,GT,37.3790971,-122.0689737,,10.511868,0.1,2.3630066,1609884327440
Fix,GT,37.3791912,-122.0689475,,11.055363,0.1,16.94281,1609884328440
Fix,GT,37.3792818,-122.0688903,,11.55994,0.1,31.374512,1609884329440
Fix,GT,37.3793607,-122.0688034,,11.903883,0.1,46.533264,1609884330440
Fix,GT,37.3794191,-122.0686906,,12.126551,0.1,62.643982,1609884331440
Fix,GT,37.3794502,-122.06856,,12.246683,0.1,79.34393,1609884332440
Fix,GT,37.3794504,-122.0684229,,12.266079,0.1,95.94205,1609884333440
Fix,GT,37.3794204,-122.068291,,12.279726,0.1,111.84781,1609884334440
Fix,GT,37.3793622,-122.0681739,,12.403679,0.1,127.77777,1609884335440
Fix,GT,37.3792793,-122.0680805,,12.600727,0.1,144.0745,1609884336440
Fix,GT,37.3791774,-122.0680174,,12.896126,0.1,158.78638,1609884337440
Fix,GT,37.3790632,-122.0679788,,13.449917,0.1,167.4563,1609884338440
Fix,GT,37.37894,-122.0679493,,14.486427,0.1,169.49518,1609884339440
Fix,GT,37.3788057,-122.0679192,,15.7765045,0.1,170.12378,1609884340440
Fix,GT,37.3786603,-122.0678913,,16.754318,0.1,172.15118,1609884341440
Fix,GT,37.3785074,-122.0678693,,17.360958,0.1,174.0299,1609884342440
Fix,GT,37.3783504,-122.0678512,,17.54141,0.1,174.93079,1609884343440
Fix,GT,37.3781933,-122.0678355,,17.452347,0.1,175.61633,1609884344440
Fix,GT,37.3780369,-122.0678224,,17.321142,0.1,176.33044,1609884345440
Fix,GT,37.3778817,-122.0678121,,17.182024,0.1,177.25714,1609884346440
Fix,GT,37.3777275,-122.0678048,,17.085625,0.1,178.15344,1609884347440
Fix,GT,37.3775737,-122.0678016,,17.0358,0.1,179.7511,1609884348440
Fix,GT,37.3774204,-122.0678048,,17.035934,0.1,181.86455,1609884349440
Fix,GT,37.3772666,-122.0678141,,17.19285,0.1,183.08722,1609884350440
Fix,GT,37.3771102,-122.0678254,,17.612461,0.1,183.05667,1609884351440
Fix,GT,37.376949,-122.0678352,,18.29089,0.1,182.34213,1609884352440
Fix,GT,37.3767812,-122.0678439,,18.99065,0.1,182.58253,1609884353440
Fix,GT,37.376608,-122.0678563,,19.406122,0.1,183.82057,1609884354440
Fix,GT,37.3764331,-122.0678742,,19.511236,0.1,185.11212,1609884355440
Fix,GT,37.376258,-122.0678958,,19.55339,0.1,185.9297,1609884356440
Fix,GT,37.3760826,-122.0679194,,19.632557,0.1,186.13994,1609884357440
Fix,GT,37.3759062,-122.0679431,,19.774101,0.1,186.0053,1609884358440
Fix,GT,37.3757281,-122.067966,,19.979843,0.1,185.79997,1609884359440
Fix,GT,37.3755479,-122.0679879,,20.225422,0.1,185.271,1609884360440
Fix,GT,37.375365,-122.0680055,,20.570805,0.1,183.47755,1609884361440
Fix,GT,37.3751773,-122.0680132,,21.237017,0.1,180.35779,1609884362440
Fix,GT,37.3749819,-122.0680088,,22.155647,0.1,178.08398,1609884363440
Fix,GT,37.3747786,-122.0679962,,23.00536,0.1,176.58838,1609884364440
Fix,GT,37.3745687,-122.0679771,,23.707636,0.1,175.31036,1609884365440
Fix,GT,37.3743532,-122.0679517,,24.351492,0.1,174.02576,1609884366440
Fix,GT,37.374133,-122.0679182,,24.888702,0.1,172.18994,1609884367440
Fix,GT,37.3739098,-122.0678734,,25.292305,0.1,169.75916,1609884368440
Fix,GT,37.3736852,-122.0678153,,25.648495,0.1,167.13007,1609884369440
Fix,GT,37.3734595,-122.0677439,,26.047035,0.1,164.72614,1609884370440
Fix,GT,37.373233,-122.0676595,,26.416363,0.1,162.33984,1609884371440
Fix,GT,37.3730065,-122.0675619,,26.766605,0.1,159.98114,1609884372440
Fix,GT,37.3727805,-122.0674516,,27.102024,0.1,157.64764,1609884373440
Fix,GT,37.3725551,-122.0673292,,27.430775,0.1,155.69495,1609884374440
Fix,GT,37.3723295,-122.0671975,,27.821106,0.1,154.48706,1609884375440
Fix,GT,37.3721023,-122.06706,,28.203524,0.1,154.08997,1609884376440
Fix,GT,37.371872,-122.0669204,,28.575567,0.1,154.24109,1609884377440
Fix,GT,37.3716386,-122.0667796,,28.918621,0.1,154.15436,1609884378440
Fix,GT,37.3714033,-122.0666366,,29.137447,0.1,153.96387,1609884379440
Fix,GT,37.3711665,-122.0664921,,29.325699,0.1,153.96191,1609884380440
Fix,GT,37.370928,-122.066347,,29.522696,0.1,154.08527,1609884381440
Fix,GT,37.3706879,-122.0662013,,29.691288,0.1,154.14447,1609884382440
Fix,GT,37.3704463,-122.0660548,,29.90564,0.1,154.07166,1609884383440
Fix,GT,37.3702032,-122.0659068,,30.10719,0.1,154.00574,1609884384440
Fix,GT,37.3699583,-122.0657578,,30.318573,0.1,154.06146,1609884385440
Fix,GT,37.3697116,-122.0656082,,30.505016,0.1,154.16486,1609884386440
Fix,GT,37.3694635,-122.0654583,,30.657051,0.1,154.22644,1609884387440
Fix,GT,37.3692137,-122.0653076,,30.922825,0.1,154.1748,1609884388440
Fix,GT,37.3689617,-122.0651551,,31.16736,0.1,154.13892,1609884389440
Fix,GT,37.3687082,-122.0650017,,31.300545,0.1,154.16785,1609884390440
Fix,GT,37.3684539,-122.064848,,31.34462,0.1,154.18011,1609884391440
Fix,GT,37.3681997,-122.0646943,,31.285732,0.1,154.16174,1609884392440
Fix,GT,37.3679465,-122.0645408,,31.11892,0.1,154.06396,1609884393440
Fix,GT,37.3676956,-122.0643877,,30.841541,0.1,153.92865,1609884394440
Fix,GT,37.367447,-122.064236,,30.508873,0.1,154.0238,1609884395440
Fix,GT,37.3672009,-122.0640869,,30.169369,0.1,154.16998,1609884396440
Fix,GT,37.3669574,-122.0639403,,29.819088,0.1,154.4386,1609884397440
Fix,GT,37.3667156,-122.0637984,,29.454628,0.1,155.36548,1609884398440
Fix,GT,37.3664742,-122.0636644,,29.163303,0.1,156.79883,1609884399440
Fix,GT,37.3662315,-122.06354,,29.100777,0.1,158.568,1609884400440
Fix,GT,37.3659856,-122.0634254,,29.150436,0.1,160.56268,1609884401440
Fix,GT,37.3657362,-122.0633224,,29.11295,0.1,162.88324,1609884402440
Fix,GT,37.3654843,-122.0632325,,29.010696,0.1,165.28644,1609884403440
Fix,GT,37.3652309,-122.0631563,,28.833044,0.1,167.58142,1609884404440
Fix,GT,37.364977,-122.0630928,,28.65012,0.1,169.79004,1609884405440
Fix,GT,37.3647225,-122.0630419,,28.609999,0.1,171.88464,1609884406440
Fix,GT,37.3644664,-122.063003,,28.669819,0.1,174.10437,1609884407440
Fix,GT,37.3642087,-122.0629766,,28.691463,0.1,176.34686,1609884408440
Fix,GT,37.3639505,-122.0629627,,28.680225,0.1,178.51642,1609884409440
Fix,GT,37.3636921,-122.0629595,,28.685738,0.1,180.03674,1609884410440
Fix,GT,37.3634335,-122.062962,,28.70139,0.1,180.55547,1609884411440
Fix,GT,37.3631749,-122.0629656,,28.720371,0.1,180.56026,1609884412440
Fix,GT,37.3629158,-122.062969,,28.805042,0.1,180.60345,1609884413440
Fix,GT,37.3626559,-122.0629734,,28.871521,0.1,180.86699,1609884414440
Fix,GT,37.3623959,-122.0629795,,28.821117,0.1,181.16306,1609884415440
Fix,GT,37.3621369,-122.0629867,,28.65778,0.1,181.21306,1609884416440
Fix,GT,37.3618799,-122.0629936,,28.413084,0.1,181.10478,1609884417440
Fix,GT,37.3616252,-122.0629997,,28.134937,0.1,180.96034,1609884418440
Fix,GT,37.3613731,-122.0630051,,27.817623,0.1,180.91629,1609884419440
Fix,GT,37.3611239,-122.0630103,,27.522991,0.1,180.89278,1609884420440
Fix,GT,37.3608772,-122.0630151,,27.230064,0.1,180.77309,1609884421440
Fix,GT,37.3606332,-122.0630193,,26.901829,0.1,180.67029,1609884422440
Fix,GT,37.3603926,-122.0630229,,26.513859,0.1,180.63977,1609884423440
Fix,GT,37.3601558,-122.0630266,,26.064032,0.1,180.80765,1609884424440
Fix,GT,37.3599232,-122.0630313,,25.560457,0.1,180.94124,1609884425440
