MessageType,Provider,LatitudeDegrees,LongitudeDegrees,AltitudeMeters,SpeedMps,AccuracyMeters,BearingDegrees,UnixTimeMillis
Fix,GT,37.4840137,-122.1740642,-30.006,0.001000103,0.1,17.796844,1615927201999
Fix,GT,37.4840137,-122.1740642,-30.006,0.0014141105,0.1,17.79663,1615927202999
Fix,GT,37.4840137,-122.1740642,-30.006,0.0014142136,0.1,17.796387,1615927203999
Fix,GT,37.4840137,-122.1740642,-30.006,0.0010001034,0.1,17.79663,1615927204999
Fix,GT,37.4840137,-122.1740642,-30.006,0.001,0.1,17.7966,1615927205999
Fix,GT,37.4840137,-122.1740642,-30.006,0.001,0.1,17.796814,1615927206999
Fix,GT,37.4840137,-122.1740642,-30.006,0.0014141096,0.1,17.797272,1615927207999
Fix,GT,37.4840137,-122.1740642,-30.006,0.001000104,0.1,17.797638,1615927208999
Fix,GT,37.4840137,-122.1740642,-30.006,0.0014141094,0.1,17.797485,1615927209999
Fix,GT,37.4840137,-122.1740642,-30.006,0.002235861,0.1,17.797363,1615927210999
Fix,GT,37.4840137,-122.1740642,-30.006,0.0010003122,0.1,17.797394,1615927211999
Fix,GT,37.4840137,-122.1740642,-30.00899924129248,0.0014141088,0.1,17.797638,1615927212999
Fix,GT,37.4840137,-122.1740642,-30.01099949336052,0.0053841583,0.1,17.764343,1615927213999
Fix,GT,37.4840123,-122.174065,-30.003002029895782,0.44233006,0.1,17.264313,1615927214999
Fix,GT,37.4840051,-122.1740669,-29.994002287387847,1.1673589,0.1,19.53122,1615927215999
Fix,GT,37.4839907,-122.1740693,-29.97800407314301,1.6671368,0.1,32.395447,1615927216999
Fix,GT,37.4839744,-122.1740763,-29.96300382572413,1.5903959,0.1,52.80966,1615927217999
Fix,GT,37.4839622,-122.1740884,-29.93700664055348,1.3228267,0.1,71.73447,1615927218999
Fix,GT,37.4839584,-122.1740947,-29.9270025588274,0.08002379,0.1,78.73871,1615927219999
Fix,GT,37.4839588,-122.1740931,-29.939996668875217,0.59837943,0.1,78.48779,1615927220999
Fix,GT,37.4839579,-122.174078,-29.961994352221488,2.0317168,0.1,86.96042,1615927221999
Fix,GT,37.483948,-122.1740508,-29.971997428655627,3.1807246,0.1,107.62561,1615927222999
Fix,GT,37.4839392,-122.1740134,-29.95500437837839,3.6537561,0.1,104.17386,1615927223999
Fix,GT,37.4839449,-122.1739668,-29.92500773906708,4.296373,0.1,80.06491,1615927224999
Fix,GT,37.4839685,-122.1739244,-29.974987080693246,4.4750643,0.1,53.445526,1615927225999
Fix,GT,37.4840021,-122.173896,-30.123961438298224,4.1587553,0.1,33.09424,1615927226999
Fix,GT,37.4840368,-122.1738798,-30.184984187543392,3.8267584,0.1,20.738098,1615927227999
Fix,GT,37.4840708,-122.173877,-30.02604128241539,3.7948315,0.1,3.198578,1615927228999
Fix,GT,37.4841086,-122.1738944,-30.218949797868728,4.886676,0.1,339.20325,1615927229999
Fix,GT,37.484146,-122.1739384,-30.043045843124386,6.260344,0.1,312.6794,1615927230999
Fix,GT,37.4841754,-122.1740114,-30.05099791240692,8.025262,0.1,292.71658,1615927231999
Fix,GT,37.4841973,-122.1741049,-30.06199712562561,8.98613,0.1,285.50806,1615927232999
Fix,GT,37.4842197,-122.1742022,-30.071997382164003,8.885393,0.1,286.47934,1615927233999
Fix,GT,37.4842445,-122.1742959,-30.0749992133975,8.489741,0.1,288.92825,1615927234999
Fix,GT,37.4842745,-122.1743798,-30.118988444805144,7.8788166,0.1,297.7614,1615927235999
Fix,GT,37.484321,-122.1744421,-30.20197816807032,7.5802546,0.1,319.57196,1615927236999
Fix,GT,37.4843829,-122.1744702,-30.24298919844627,7.4575553,0.1,346.9519,1615927237999
Fix,GT,37.4844534,-122.174459,-30.199011610269547,8.846162,0.1,13.985657,1615927238999
Fix,GT,37.4845357,-122.1744229,-30.13601665383577,10.558869,0.1,19.188293,1615927239999
Fix,GT,37.4846311,-122.174381,-30.10400847053528,11.668106,0.1,19.137482,1615927240999
Fix,GT,37.4847309,-122.1743386,-30.038017501950264,11.616326,0.1,18.316559,1615927241999
Fix,GT,37.4848257,-122.1743,-29.988013276934623,10.329194,0.1,17.801422,1615927242999
Fix,GT,37.4849067,-122.174267,-29.92201755309105,8.536008,0.1,18.276184,1615927243999
Fix,GT,37.4849684,-122.1742392,-29.896006925702096,6.194735,0.1,20.289734,1615927244999
Fix,GT,37.4850118,-122.174218,-29.84101467347145,4.1230755,0.1,21.562622,1615927245999
Fix,GT,37.4850373,-122.174205,-29.80001095795632,2.0415976,0.1,22.15094,1615927246999
Fix,GT,37.4850472,-122.1741999,-29.792002140998843,0.4886092,0.1,22.00763,1615927247999
Fix,GT,37.4850481,-122.1741995,-29.797998391389847,0.0021303494,0.1,21.967712,1615927248999
Fix,GT,37.4850481,-122.1741995,-29.79999946308136,0.0010002685,0.1,21.966125,1615927249999
Fix,GT,37.4850481,-122.1741995,-29.8,2.6893616e-07,0.1,21.966736,1615927250999
Fix,GT,37.4850481,-122.1741995,-29.8,0.0009997307,0.1,21.965271,1615927251999
Fix,GT,37.4850481,-122.1741995,-29.8,2.6977062e-07,0.1,21.96576,1615927252999
Fix,GT,37.4850481,-122.1741995,-29.80099972981214,0.0009997298,0.1,21.965393,1615927253999
Fix,GT,37.4850482,-122.1741995,-29.804998917579653,0.11237092,0.1,21.960938,1615927254999
Fix,GT,37.4850548,-122.1741962,-29.81399756079912,1.8614993,0.1,21.877777,1615927255999
Fix,GT,37.4850823,-122.1741828,-29.77601031696796,4.640637,0.1,20.939453,1615927256999
Fix,GT,37.4851312,-122.1741632,-29.64503561323881,6.413029,0.1,16.726318,1615927257999
Fix,GT,37.485194,-122.17415,-29.44705392205715,7.4960566,0.1,6.491272,1615927258999
Fix,GT,37.4852641,-122.1741579,-29.234058083236217,8.035533,0.1,350.43347,1615927259999
Fix,GT,37.485334,-122.1741935,-29.077042887389663,8.591847,0.1,332.9486,1615927260999
Fix,GT,37.4853962,-122.1742587,-29.00202051442861,9.304374,0.1,314.0254,1615927261999
Fix,GT,37.485443,-122.1743536,-29.06198355984688,10.402941,0.1,296.57297,1615927262999
Fix,GT,37.4854786,-122.1744721,-29.087992865085603,11.923979,0.1,288.94446,1615927263999
Fix,GT,37.485513,-122.1746093,-29.12498983103037,13.519093,0.1,286.68866,1615927264999
Fix,GT,37.4855496,-122.1747643,-29.131998073220256,15.067933,0.1,286.30014,1615927265999
Fix,GT,37.4855892,-122.1749356,-29.14599614059925,16.469803,0.1,286.12793,1615927266999
Fix,GT,37.4856324,-122.175122,-29.14699972391129,17.84367,0.1,286.02057,1615927267999
Fix,GT,37.485678,-122.1753221,-29.15399806445837,18.938042,0.1,285.75336,1615927268999
Fix,GT,37.4857254,-122.1755324,-29.13300581538677,19.738516,0.1,285.6806,1615927269999
Fix,GT,37.4857747,-122.1757517,-29.15499389719963,20.510359,0.1,285.6458,1615927270999
Fix,GT,37.4858254,-122.1759778,-29.155,20.9815,0.1,285.71497,1615927271999
Fix,GT,37.4858774,-122.176207,-29.15000139117241,21.112421,0.1,285.9345,1615927272999
Fix,GT,37.4859303,-122.1764349,-29.17999164223671,20.855211,0.1,286.20596,1615927273999
Fix,GT,37.4859816,-122.1766596,-29.184998604655263,20.48242,0.1,285.6952,1615927274999
Fix,GT,37.4860305,-122.1768805,-29.180001397430896,20.073967,0.1,285.21143,1615927275999
Fix,GT,37.486077,-122.1770978,-29.212990765154363,19.724308,0.1,284.7953,1615927276999
Fix,GT,37.4861219,-122.1773114,-29.2040025228858,19.326996,0.1,284.6364,1615927277999
Fix,GT,37.4861666,-122.1775189,-29.19800168406963,18.624426,0.1,285.7311,1615927278999
Fix,GT,37.4862144,-122.1777167,-29.19200168693066,18.063831,0.1,287.59756,1615927279999
Fix,GT,37.4862649,-122.1779089,-29.219992115974428,17.742054,0.1,288.37354,1615927280999
Fix,GT,37.4863152,-122.1780963,-29.27398477256298,17.111328,0.1,288.34662,1615927281999
Fix,GT,37.4863607,-122.1782748,-29.287996046304706,15.887665,0.1,287.042,1615927282999
Fix,GT,37.4863988,-122.1784387,-29.297997171759604,14.456746,0.1,285.45984,1615927283999
Fix,GT,37.4864313,-122.178591,-29.33498952007293,13.464446,0.1,284.74063,1615927284999
Fix,GT,37.4864605,-122.1787313,-29.32600255292654,12.085055,0.1,283.90942,1615927285999
Fix,GT,37.4864765,-122.1788607,-29.30600568151474,11.170277,0.1,273.8963,1615927286999
Fix,GT,37.4864647,-122.1789841,-29.26501166665554,10.759598,0.1,256.53992,1615927287999
Fix,GT,37.4864234,-122.1790931,-29.277996296167373,10.563273,0.1,237.49992,1615927288999
Fix,GT,37.4863546,-122.1791796,-29.47094492030144,11.041397,0.1,218.46179,1615927289999
Fix,GT,37.486263,-122.1792449,-29.51098857021332,12.336931,0.1,205.3443,1615927290999
Fix,GT,37.4861539,-122.1793008,-29.519997424006466,13.724178,0.1,201.18294,1615927291999
Fix,GT,37.4860336,-122.1793585,-29.48900888580084,14.852014,0.1,200.9738,1615927292999
Fix,GT,37.485905,-122.1794218,-29.41202210330963,15.716023,0.1,201.55966,1615927293999
Fix,GT,37.4857711,-122.1794896,-29.341020410597324,16.377491,0.1,202.10445,1615927294999
Fix,GT,37.4856319,-122.1795614,-29.28001756131649,16.969797,0.1,202.3674,1615927295999
Fix,GT,37.4854888,-122.1796366,-29.18302796584368,17.48061,0.1,202.87735,1615927296999
Fix,GT,37.4853429,-122.1797172,-28.84909645402432,17.893915,0.1,204.95236,1615927297999
Fix,GT,37.4851998,-122.1798131,-28.49910119974613,18.233213,0.1,210.43323,1615927298999
Fix,GT,37.4850615,-122.1799296,-28.206084858357904,18.783627,0.1,216.50446,1615927299999
Fix,GT,37.4849328,-122.1800695,-27.80711570066213,19.112268,0.1,224.4421,1615927300999
Fix,GT,37.4848202,-122.1802356,-27.691033692598342,19.673359,0.1,233.33804,1615927301999
Fix,GT,37.4847229,-122.1804261,-27.687001163244247,20.478514,0.1,239.68756,1615927302999
Fix,GT,37.4846331,-122.1806334,-27.638014273107053,21.216415,0.1,242.6655,1615927303999
Fix,GT,37.4845478,-122.180852,-27.898923864960672,21.810026,0.1,244.69669,1615927304999
Fix,GT,37.4844665,-122.1810766,-28.31187935346365,21.799606,0.1,246.10092,1615927305999
Fix,GT,37.48439,-122.1813026,-28.76786660194397,21.61403,0.1,247.49887,1615927306999
Fix,GT,37.4843203,-122.1815287,-28.87896748179197,21.313332,0.1,250.07394,1615927307999
Fix,GT,37.484265,-122.1817594,-28.80502170968056,21.444391,0.1,256.16278,1615927308999
Fix,GT,37.4842319,-122.1820002,-28.47609663772583,21.940247,0.1,263.7596,1615927309999
Fix,GT,37.4842244,-122.1822501,-28.151095617771148,22.382484,0.1,271.2843,1615927310999
Fix,GT,37.4842425,-122.1825051,-27.804102255821228,23.016857,0.1,278.07703,1615927311999
Fix,GT,37.4842818,-122.1827653,-27.57106874501705,23.916006,0.1,282.9873,1615927312999
Fix,GT,37.4843374,-122.183032,-27.50202038675547,24.881508,0.1,285.94916,1615927313999
Fix,GT,37.4844031,-122.183307,-27.55698372673988,25.932383,0.1,286.81857,1615927314999
Fix,GT,37.4844724,-122.1835934,-27.621980740845203,26.998188,0.1,286.81165,1615927315999
Fix,GT,37.4845435,-122.1838908,-27.71997091639042,27.87105,0.1,286.41888,1615927316999
Fix,GT,37.4846144,-122.1841967,-27.82896761292219,28.459204,0.1,286.09015,1615927317999
Fix,GT,37.484686,-122.1845098,-27.90897619152069,29.131006,0.1,285.6657,1615927318999
Fix,GT,37.4847556,-122.1848318,-27.95898510181904,29.858488,0.1,284.5648,1615927319999
Fix,GT,37.4848229,-122.1851628,-28.010984481096266,30.546091,0.1,284.2467,1615927320999
Fix,GT,37.484893,-122.1854993,-28.04598954206705,30.859358,0.1,284.81143,1615927321999
Fix,GT,37.4849653,-122.1858348,-28.093985634803776,30.614159,0.1,285.29315,1615927322999
Fix,GT,37.4850373,-122.1861672,-28.118992507696152,30.309937,0.1,284.8899,1615927323999
Fix,GT,37.4851062,-122.1864969,-28.15498919606209,29.952406,0.1,284.43433,1615927324999
Fix,GT,37.4851726,-122.1868233,-28.190989181041715,29.63901,0.1,283.9759,1615927325999
Fix,GT,37.4852353,-122.1871474,-28.22498976790905,29.357262,0.1,283.12024,1615927326999
Fix,GT,37.485294,-122.1874714,-28.254990959167483,29.461016,0.1,282.2906,1615927327999
Fix,GT,37.4853493,-122.1877976,-28.26899577510357,29.547277,0.1,281.73953,1615927328999
Fix,GT,37.4854031,-122.1881263,-28.28899395608902,29.86585,0.1,281.26917,1615927329999
Fix,GT,37.4854552,-122.1884606,-28.3319869850874,30.331026,0.1,280.77466,1615927330999
Fix,GT,37.4855052,-122.1887969,-28.358991818189622,30.118065,0.1,280.3385,1615927331999
Fix,GT,37.4855527,-122.18913,-28.36499817895889,29.759119,0.1,279.82883,1615927332999
Fix,GT,37.4855972,-122.1894602,-28.415984502911567,29.475882,0.1,279.30182,1615927333999
Fix,GT,37.4856392,-122.1897878,-28.45198904371262,29.213377,0.1,278.8819,1615927334999
Fix,GT,37.4856794,-122.1901128,-28.52097897166013,28.961958,0.1,278.651,1615927335999
Fix,GT,37.4857187,-122.1904351,-28.62296887207032,28.703875,0.1,278.58008,1615927336999
Fix,GT,37.4857575,-122.1907545,-28.67098533153533,28.444386,0.1,278.61023,1615927337999
Fix,GT,37.4857964,-122.1910709,-28.716985923528668,28.20402,0.1,278.78867,1615927338999
Fix,GT,37.4858354,-122.1913864,-28.763985597908498,28.309603,0.1,278.68842,1615927339999
Fix,GT,37.4858743,-122.1917033,-28.800988646745683,28.392551,0.1,278.7023,1615927340999
Fix,GT,37.4859132,-122.19202,-28.83998801678419,28.241331,0.1,278.71466,1615927341999
Fix,GT,37.4859517,-122.1923342,-28.877988305926323,27.988308,0.1,278.57617,1615927342999
Fix,GT,37.4859894,-122.1926457,-28.922986135661603,27.74502,0.1,278.5362,1615927343999
Fix,GT,37.4860268,-122.1929544,-28.95698950850964,27.484995,0.1,278.5989,1615927344999
Fix,GT,37.4860644,-122.1932602,-29.006984553456306,27.242872,0.1,278.8249,1615927345999
Fix,GT,37.4861026,-122.1935631,-29.033991647601127,26.997782,0.1,278.96646,1615927346999
Fix,GT,37.4861405,-122.1938632,-29.09598079454899,26.750042,0.1,278.7884,1615927347999
Fix,GT,37.4861774,-122.1941614,-29.146984180688857,26.71967,0.1,278.7407,1615927348999
Fix,GT,37.4862143,-122.1944621,-29.18298881626129,27.157763,0.1,278.57736,1615927349999
Fix,GT,37.4862517,-122.1947675,-29.1720034211874,27.429918,0.1,278.77206,1615927350999
Fix,GT,37.48629,-122.1950754,-29.185995639085768,27.659792,0.1,278.75525,1615927351999
Fix,GT,37.4863282,-122.195384,-29.186,27.523499,0.1,278.7701,1615927352999
Fix,GT,37.4863662,-122.1956902,-29.186999687671666,27.31459,0.1,278.75146,1615927353999
Fix,GT,37.486404,-122.1959952,-29.19899624705315,27.34094,0.1,278.81592,1615927354999
Fix,GT,37.4864425,-122.1963023,-29.199999686837195,27.69526,0.1,278.9444,1615927355999
Fix,GT,37.4864819,-122.1966143,-29.18700407654047,28.121948,0.1,278.87543,1615927356999
Fix,GT,37.4865214,-122.196929,-29.18200156998634,28.215128,0.1,278.82187,1615927357999
Fix,GT,37.4865609,-122.1972441,-29.184999056756496,28.197208,0.1,278.90884,1615927358999
Fix,GT,37.4866007,-122.1975588,-29.183000629663468,28.162058,0.1,278.96045,1615927359999
Fix,GT,37.4866403,-122.1978725,-29.1770018914938,27.978987,0.1,278.7669,1615927360999
Fix,GT,37.4866784,-122.1981836,-29.17100189435482,27.696928,0.1,278.61758,1615927361999
Fix,GT,37.4867162,-122.1984923,-29.150006637752057,27.657087,0.1,278.65308,1615927362999
Fix,GT,37.4867542,-122.1988023,-29.151999366879465,27.814556,0.1,278.67767,1615927363999
Fix,GT,37.4867926,-122.1991137,-29.15100031691789,27.888412,0.1,278.74484,1615927364999
Fix,GT,37.4868311,-122.1994245,-29.12200920444727,27.70479,0.1,278.82333,1615927365999
Fix,GT,37.4868698,-122.1997324,-29.1399942804575,27.44643,0.1,278.93402,1615927366999
Fix,GT,37.4869086,-122.2000396,-29.144998408854008,27.651943,0.1,278.86087,1615927367999
Fix,GT,37.4869472,-122.2003515,-29.14699936270713,28.163496,0.1,278.6699,1615927368999
Fix,GT,37.4869858,-122.2006684,-29.141001914381977,28.552908,0.1,278.63004,1615927369999
Fix,GT,37.4870253,-122.2009891,-29.13900063896179,28.900671,0.1,278.7727,1615927370999
Fix,GT,37.4870659,-122.2013144,-29.140999360203743,29.289284,0.1,278.92615,1615927371999
Fix,GT,37.4871078,-122.2016422,-29.12500512504577,29.339424,0.1,279.0821,1615927372999
Fix,GT,37.4871494,-122.2019683,-29.13299743366241,29.037853,0.1,278.94244,1615927373999
Fix,GT,37.4871899,-122.2022908,-29.124002890348432,28.717104,0.1,278.75156,1615927374999
Fix,GT,37.4872293,-122.20261,-29.139994853973388,28.419144,0.1,278.75375,1615927375999
Fix,GT,37.4872689,-122.2029274,-29.14399871206283,28.495222,0.1,278.79926,1615927376999
Fix,GT,37.4873084,-122.2032479,-29.130004514455795,28.827272,0.1,278.59,1615927377999
Fix,GT,37.4873474,-122.2035703,-29.13499838590622,28.844458,0.1,278.4787,1615927378999
Fix,GT,37.4873856,-122.2038936,-29.136999353528022,28.937216,0.1,278.4049,1615927379999
Fix,GT,37.4874245,-122.2042161,-29.122004855692385,28.711983,0.1,278.5095,1615927380999
Fix,GT,37.4874637,-122.2045356,-29.12999740743637,28.50613,0.1,278.77985,1615927381999
Fix,GT,37.4875031,-122.2048549,-29.128000649094584,28.708487,0.1,278.69562,1615927382999
Fix,GT,37.4875431,-122.2051775,-29.116003898859024,28.97813,0.1,278.8306,1615927383999
Fix,GT,37.487584,-122.2054999,-29.03202733206749,28.702824,0.1,279.0457,1615927384999
Fix,GT,37.4876243,-122.2058183,-28.93203257393837,28.319403,0.1,278.83612,1615927385999
Fix,GT,37.4876639,-122.2061327,-28.93999739027024,28.076494,0.1,279.06116,1615927386999
Fix,GT,37.4877047,-122.2064458,-28.943998693466185,27.968143,0.1,279.2643,1615927387999
Fix,GT,37.4877454,-122.2067564,-28.89101733368635,27.69153,0.1,279.24365,1615927388999
Fix,GT,37.4877863,-122.2070637,-28.901996397852898,27.484995,0.1,279.64258,1615927389999
Fix,GT,37.4878295,-122.2073712,-28.82202623081207,27.811146,0.1,280.21332,1615927390999
Fix,GT,37.4878764,-122.2076807,-28.79300952076912,27.819553,0.1,281.1326,1615927391999
Fix,GT,37.4879261,-122.2079875,-28.803996384084225,27.532822,0.1,281.7043,1615927392999
Fix,GT,37.4879776,-122.20829,-28.79000460791588,27.262798,0.1,282.21527,1615927393999
Fix,GT,37.4880306,-122.2085923,-28.77300560343265,27.62425,0.1,282.3938,1615927394999
Fix,GT,37.4880853,-122.2089015,-28.74700857925415,28.275045,0.1,282.5067,1615927395999
Fix,GT,37.4881421,-122.2092131,-28.71501057434082,28.214634,0.1,283.25275,1615927396999
Fix,GT,37.4882019,-122.2095219,-28.70000496208668,27.978785,0.1,283.9712,1615927397999
Fix,GT,37.4882644,-122.2098264,-28.678007288217547,27.652231,0.1,284.7199,1615927398999
Fix,GT,37.4883291,-122.2101263,-28.654007959365845,27.304806,0.1,285.4505,1615927399999
Fix,GT,37.4883957,-122.2104214,-28.60601594161988,26.944117,0.1,286.03302,1615927400999
Fix,GT,37.4884636,-122.2107112,-28.34708612638712,26.473043,0.1,286.60443,1615927401999
Fix,GT,37.4885323,-122.210995,-27.851165143966675,26.06159,0.1,287.00787,1615927402999
Fix,GT,37.488602,-122.2112768,-27.159230691194534,26.37421,0.1,287.26514,1615927403999
Fix,GT,37.4886758,-122.2115644,-26.382259351730347,27.143024,0.1,288.20312,1615927404999
Fix,GT,37.4887557,-122.2118612,-25.57926836520433,28.244524,0.1,288.84534,1615927405999
Fix,GT,37.4888407,-122.2121688,-24.805258996248245,29.348625,0.1,289.16074,1615927406999
Fix,GT,37.4889292,-122.2124849,-24.03025965422392,29.852524,0.1,289.54395,1615927407999
Fix,GT,37.4890211,-122.2128044,-23.19028183221817,30.263899,0.1,290.11615,1615927408999
Fix,GT,37.4891182,-122.2131272,-22.68516961544752,30.74817,0.1,291.17084,1615927409999
Fix,GT,37.4892218,-122.2134512,-22.29613083976507,30.973051,0.1,292.3891,1615927410999
Fix,GT,37.4893296,-122.2137756,-22.10606397426128,31.236095,0.1,292.72955,1615927411999
Fix,GT,37.4894389,-122.2141017,-22.0340242729187,31.2704,0.1,292.78036,1615927412999
Fix,GT,37.4895495,-122.2144251,-22.037998649597167,31.01597,0.1,293.72165,1615927413999
Fix,GT,37.4896634,-122.2147443,-22.13796620416641,30.895565,0.1,294.39105,1615927414999
Fix,GT,37.4897805,-122.2150615,-22.66981995248795,30.96806,0.1,295.1385,1615927415999
Fix,GT,37.4899002,-122.2153772,-23.263798757076263,30.838028,0.1,295.6501,1615927416999
Fix,GT,37.490022,-122.2156895,-24.03673774456978,30.679615,0.1,296.28625,1615927417999
Fix,GT,37.4901459,-122.2159985,-24.88571160584688,30.520756,0.1,297.02063,1615927418999
Fix,GT,37.4902724,-122.216304,-25.71671737349033,30.405457,0.1,297.7273,1615927419999
Fix,GT,37.4904013,-122.2166067,-26.57770681113005,30.288864,0.1,298.3792,1615927420999
Fix,GT,37.4905317,-122.2169066,-27.408716680049896,30.130358,0.1,298.62662,1615927421999
Fix,GT,37.490662,-122.2172042,-28.104762416362764,29.945099,0.1,298.79337,1615927422999
Fix,GT,37.4907924,-122.2174991,-28.48886875915528,29.694517,0.1,299.09583,1615927423999
Fix,GT,37.4909225,-122.2177906,-28.62095483088493,29.38276,0.1,299.1951,1615927424999
Fix,GT,37.4910512,-122.2180784,-28.639993489325047,28.927652,0.1,299.16617,1615927425999
Fix,GT,37.4911772,-122.2183613,-28.63700102907419,28.381104,0.1,299.07077,1615927426999
Fix,GT,37.4913005,-122.2186373,-28.643997595489022,27.506805,0.1,299.43268,1615927427999
Fix,GT,37.491421,-122.2189028,-28.68098727720976,26.630943,0.1,299.7497,1615927428999
Fix,GT,37.4915414,-122.2191605,-28.70599139159918,26.19536,0.1,300.98123,1615927429999
Fix,GT,37.4916635,-122.2194119,-28.697003102242945,25.890251,0.1,301.3963,1615927430999
Fix,GT,37.4917843,-122.2196609,-28.737985848009583,25.74423,0.1,301.0024,1615927431999
Fix,GT,37.4919034,-122.2199122,-28.748996198534964,26.073454,0.1,300.2675,1615927432999
Fix,GT,37.4920228,-122.2201721,-28.862960555434228,27.135857,0.1,299.30368,1615927433999
Fix,GT,37.4921433,-122.2204444,-28.9289771361351,27.85054,0.1,298.72073,1615927434999
Fix,GT,37.4922658,-122.2207227,-28.963987860620023,28.36137,0.1,298.95877,1615927435999
Fix,GT,37.4923923,-122.2210035,-28.904020835399628,28.722485,0.1,299.7022,1615927436999
Fix,GT,37.4925229,-122.2212852,-28.7760445022583,28.836548,0.1,300.56946,1615927437999
Fix,GT,37.4926568,-122.2215642,-28.777999303817747,28.77645,0.1,301.17474,1615927438999
Fix,GT,37.4927914,-122.2218443,-28.670037645339967,29.147427,0.1,300.67764,1615927439999
Fix,GT,37.4929262,-122.2221318,-28.565036637187006,29.757978,0.1,300.06995,1615927440999
Fix,GT,37.4930584,-122.2224235,-28.431046819925307,29.518467,0.1,299.17163,1615927441999
Fix,GT,37.493187,-122.2227132,-28.356026232004165,29.136768,0.1,299.05035,1615927442999
Fix,GT,37.4933134,-122.2230003,-28.416978635549548,28.98337,0.1,298.6583,1615927443999
Fix,GT,37.4934385,-122.2232902,-28.469981415331365,29.296242,0.1,297.90155,1615927444999
Fix,GT,37.4935609,-122.2235846,-28.499989469647407,29.438776,0.1,297.11313,1615927445999
Fix,GT,37.4936809,-122.2238812,-28.356050614356995,29.271683,0.1,296.69083,1615927446999
Fix,GT,37.4937977,-122.2241756,-28.273029203236103,28.873922,0.1,296.1175,1615927447999
Fix,GT,37.4939107,-122.2244672,-27.953112743377684,28.578545,0.1,295.53796,1615927448999
Fix,GT,37.4940209,-122.2247601,-27.51715376877785,28.74408,0.1,294.88202,1615927449999
Fix,GT,37.4941291,-122.2250556,-27.238098530948164,28.736078,0.1,294.37265,1615927450999
Fix,GT,37.4942353,-122.2253511,-26.99208697938919,28.568844,0.1,294.06918,1615927451999
Fix,GT,37.4943383,-122.2256452,-27.012992566168307,28.227013,0.1,293.2786,1615927452999
Fix,GT,37.494437,-122.2259376,-26.97201453077793,27.906595,0.1,292.6074,1615927453999
Fix,GT,37.494531,-122.2262268,-26.95900461274385,27.242708,0.1,291.71588,1615927454999
Fix,GT,37.494618,-122.2265065,-26.962998579025268,25.790606,0.1,291.07925,1615927455999
Fix,GT,37.4946991,-122.2267726,-26.99598826318979,24.750174,0.1,290.84915,1615927456999
Fix,GT,37.4947766,-122.2270304,-26.95301531136036,23.990437,0.1,290.4301,1615927457999
Fix,GT,37.4948496,-122.2272794,-27.052964344501497,22.657791,0.1,290.02533,1615927458999
Fix,GT,37.494917,-122.2275119,-27.231936112642288,21.399899,0.1,289.89294,1615927459999
Fix,GT,37.4949821,-122.2277384,-27.57387777280808,21.220634,0.1,289.7777,1615927460999
Fix,GT,37.4950475,-122.2279642,-27.98685225045681,21.374748,0.1,290.00116,1615927461999
Fix,GT,37.495114,-122.2281934,-28.407849187731745,21.778576,0.1,289.56018,1615927462999
Fix,GT,37.4951796,-122.2284279,-28.724886310756208,22.105665,0.1,288.99542,1615927463999
Fix,GT,37.4952447,-122.2286634,-28.87794506406784,21.963425,0.1,289.07697,1615927464999
Fix,GT,37.4953101,-122.2288962,-28.86400503265858,21.698181,0.1,289.7013,1615927465999
Fix,GT,37.4953776,-122.2291245,-28.870997480750084,21.305206,0.1,290.7453,1615927466999
Fix,GT,37.4954471,-122.229346,-28.90898630821705,20.87411,0.1,292.2554,1615927467999
Fix,GT,37.4955218,-122.2295583,-29.03195563054085,20.005404,0.1,294.37225,1615927468999
Fix,GT,37.4955936,-122.2297581,-29.104973636448385,18.696192,0.1,293.90033,1615927469999
Fix,GT,37.4956601,-122.2299462,-29.134989151358607,17.811441,0.1,293.72562,1615927470999
Fix,GT,37.4957252,-122.2301276,-29.159990950524808,17.377262,0.1,294.29874,1615927471999
Fix,GT,37.4957886,-122.2303039,-29.1310105112195,16.795525,0.1,294.1903,1615927472999
Fix,GT,37.49585,-122.2304742,-29.105009433150293,16.329906,0.1,294.19208,1615927473999
Fix,GT,37.4959089,-122.230641,-29.177973479807378,15.963118,0.1,293.49698,1615927474999
Fix,GT,37.4959661,-122.230806,-29.310951634824274,15.874811,0.1,293.26562,1615927475999
Fix,GT,37.4960238,-122.2309692,-29.34498761975765,15.653738,0.1,294.13553,1615927476999
Fix,GT,37.4960829,-122.2311253,-29.35299708366394,14.803109,0.1,296.61972,1615927477999
Fix,GT,37.4961498,-122.2312645,-29.33100802779197,14.173314,0.1,304.6056,1615927478999
Fix,GT,37.4962308,-122.2313839,-29.13007344067097,13.678167,0.1,314.4579,1615927479999
Fix,GT,37.4963239,-122.2314802,-28.98205412864685,13.244905,0.1,324.01437,1615927480999
Fix,GT,37.4964262,-122.2315575,-28.876038818359376,13.439595,0.1,331.69998,1615927481999
Fix,GT,37.4965372,-122.2316174,-28.606098989605908,13.3406515,0.1,339.92773,1615927482999
Fix,GT,37.496651,-122.2316562,-28.376084420442584,12.916395,0.1,347.47952,1615927483999
Fix,GT,37.4967615,-122.2316835,-28.17207496237755,11.9667015,0.1,349.0753,1615927484999
Fix,GT,37.4968651,-122.2317101,-28.06204046678544,11.581131,0.1,347.79285,1615927485999
Fix,GT,37.4969644,-122.2317464,-28.04900478786229,11.260044,0.1,340.75076,1615927486999
Fix,GT,37.4970527,-122.2318,-28.017011798858643,10.259617,0.1,330.4945,1615927487999
Fix,GT,37.4971233,-122.2318646,-27.993008859157563,9.172029,0.1,321.22693,1615927488999
Fix,GT,37.4971818,-122.2319357,-28.03798336762189,8.914091,0.1,313.95233,1615927489999
Fix,GT,37.4972318,-122.2320127,-28.03200221979618,8.459005,0.1,306.99985,1615927490999
Fix,GT,37.4972698,-122.2320859,-27.949030746757984,6.755606,0.1,301.91724,1615927491999
Fix,GT,37.4972941,-122.2321424,-27.917011865615844,4.588468,0.1,297.27405,1615927492999
Fix,GT,37.4973076,-122.2321826,-27.89900668299198,3.001806,0.1,292.83136,1615927493999
Fix,GT,37.4973151,-122.2322078,-27.88700445961952,2.0603926,0.1,290.97534,1615927494999
Fix,GT,37.4973209,-122.2322277,-27.86900669801236,1.4798661,0.1,290.5764,1615927495999
Fix,GT,37.4973235,-122.2322364,-27.862002607703207,0.2207417,0.1,290.5298,1615927496999
Fix,GT,37.4973236,-122.2322367,-27.866998135268688,0.0010817769,0.1,290.5275,1615927497999
Fix,GT,37.4973236,-122.2322367,-27.867,0.0028277445,0.1,290.52692,1615927498999
Fix,GT,37.4973236,-122.2322367,-27.86600037378073,0.0014147421,0.1,290.52557,1615927499999
Fix,GT,37.4973236,-122.2322367,-27.8709981290102,0.094886035,0.1,290.52423,1615927500999
Fix,GT,37.4973257,-122.2322439,-27.877997377276422,1.5969331,0.1,290.48276,1615927501999
Fix,GT,37.4973349,-122.2322732,-27.84501237607002,3.8656287,0.1,291.09424,1615927502999
Fix,GT,37.4973486,-122.2323179,-27.77402666115761,4.3125396,0.1,290.93158,1615927503999
Fix,GT,37.4973623,-122.2323609,-27.72901691401005,3.9363432,0.1,291.57178,1615927504999
Fix,GT,37.4973763,-122.2324026,-27.710007150530817,4.3458567,0.1,292.65732,1615927505999
Fix,GT,37.4973926,-122.2324518,-27.63202938270569,4.965159,0.1,292.1325,1615927506999
Fix,GT,37.4974058,-122.232507,-27.46506298875809,4.951854,0.1,285.1404,1615927507999
Fix,GT,37.4974109,-122.2325609,-27.30606003767252,4.540228,0.1,275.5169,1615927508999
Fix,GT,37.4974074,-122.2326123,-27.20004006934166,4.670919,0.1,263.81158,1615927509999
Fix,GT,37.4973904,-122.2326646,-27.117031409680845,5.0760503,0.1,245.11935,1615927510999
Fix,GT,37.4973561,-122.2327092,-27.05002537876368,5.76368,0.1,222.72437,1615927511999
Fix,GT,37.4973058,-122.2327429,-26.904055372595785,6.6705074,0.1,206.12573,1615927512999
Fix,GT,37.4972466,-122.2327733,-26.61311046999693,7.357208,0.1,201.61195,1615927513999
Fix,GT,37.4971854,-122.2328024,-26.23414405745268,7.0963206,0.1,200.48735,1615927514999
Fix,GT,37.4971279,-122.2328288,-25.892130136489868,6.4862595,0.1,199.86702,1615927515999
Fix,GT,37.4970732,-122.2328535,-25.56512456518412,6.712883,0.1,199.66872,1615927516999
Fix,GT,37.4970119,-122.2328808,-25.170150633454323,7.6861095,0.1,199.3354,1615927517999
Fix,GT,37.4969425,-122.2329122,-24.79514316290617,8.59595,0.1,200.00018,1615927518999
Fix,GT,37.496868,-122.2329468,-24.44813261818886,8.890444,0.1,200.19096,1615927519999
Fix,GT,37.4967944,-122.232981,-24.156111719846724,8.506883,0.1,200.22638,1615927520999
Fix,GT,37.4967243,-122.2330138,-23.92508847749233,8.094987,0.1,200.30136,1615927521999
Fix,GT,37.4966577,-122.2330449,-23.705084369182583,7.7370567,0.1,200.39468,1615927522999
Fix,GT,37.4965909,-122.2330762,-23.465092124938963,8.263027,0.1,200.36343,1615927523999
Fix,GT,37.4965161,-122.2331109,-23.26407725048065,9.567106,0.1,200.22787,1615927524999
Fix,GT,37.4964296,-122.2331506,-23.1310511635542,10.758906,0.1,199.82893,1615927525999
Fix,GT,37.4963356,-122.2331927,-23.06202657639981,11.2114935,0.1,199.39445,1615927526999
Fix,GT,37.4962412,-122.2332348,-23.104983419954777,10.879818,0.1,199.43726,1615927527999
Fix,GT,37.4961502,-122.2332765,-23.22695290803909,10.693558,0.1,200.5399,1615927528999
Fix,GT,37.4960601,-122.2333203,-23.50489257609844,10.743324,0.1,201.2759,1615927529999
Fix,GT,37.49597,-122.2333652,-23.791888978600504,10.817662,0.1,201.71031,1615927530999
Fix,GT,37.4958791,-122.2334114,-24.24082612413168,10.973966,0.1,202.19241,1615927531999
Fix,GT,37.4957892,-122.2334628,-24.77479298496246,10.981837,0.1,205.80354,1615927532999
Fix,GT,37.4957036,-122.2335238,-25.479726399481297,11.047414,0.1,211.821,1615927533999
Fix,GT,37.4956249,-122.2336029,-26.374652236402035,11.4800415,0.1,222.35117,1615927534999
Fix,GT,37.4955583,-122.2337045,-27.35561846917868,11.94563,0.1,234.89041,1615927535999
Fix,GT,37.4955074,-122.2338252,-28.19467329579592,12.261453,0.1,245.97717,1615927536999
Fix,GT,37.4954788,-122.2339581,-28.70580083531141,12.235272,0.1,260.31818,1615927537999
Fix,GT,37.4954793,-122.2340943,-29.05286458963156,12.0928955,0.1,275.90332,1615927538999
Fix,GT,37.4955086,-122.2342247,-29.329891790270803,12.1719675,0.1,291.1778,1615927539999
Fix,GT,37.4955648,-122.2343424,-29.47394368648529,12.225116,0.1,306.3666,1615927540999
Fix,GT,37.4956422,-122.2344374,-29.47699882555008,11.965066,0.1,320.78748,1615927541999
Fix,GT,37.4957337,-122.2345029,-29.49599255388975,11.614646,0.1,335.3731,1615927542999
Fix,GT,37.4958322,-122.2345378,-29.47900666940212,11.27561,0.1,348.80185,1615927543999
Fix,GT,37.4959327,-122.2345421,-29.4530102095604,11.379592,0.1,2.7599182,1615927544999
Fix,GT,37.4960337,-122.2345149,-29.445003145217893,11.652486,0.1,17.164764,1615927545999
Fix,GT,37.4961299,-122.2344559,-29.472988978385924,12.277208,0.1,30.784271,1615927546999
Fix,GT,37.496216,-122.2343661,-29.48299606013298,12.724986,0.1,44.928253,1615927547999
Fix,GT,37.4962833,-122.2342477,-29.46200828248262,13.226631,0.1,60.614777,1615927548999
Fix,GT,37.4963215,-122.2341048,-29.500984601974487,13.756622,0.1,78.53967,1615927549999
Fix,GT,37.4963232,-122.2339469,-29.432027271449563,14.549243,0.1,95.73297,1615927550999
Fix,GT,37.4962947,-122.233779,-29.314046694397923,15.96921,0.1,104.157166,1615927551999
Fix,GT,37.4962531,-122.2335973,-29.23203247797489,17.509237,0.1,106.21826,1615927552999
Fix,GT,37.4962055,-122.2333988,-29.21100832754373,19.16962,0.1,106.93552,1615927553999
Fix,GT,37.4961517,-122.2331832,-29.162019448459148,20.704542,0.1,107.37903,1615927554999
Fix,GT,37.4960938,-122.2329549,-29.138009537220004,21.705133,0.1,107.38013,1615927555999
Fix,GT,37.4960341,-122.2327159,-29.09601670765877,22.55391,0.1,107.23163,1615927556999
Fix,GT,37.4959722,-122.2324687,-29.022029468178747,23.238537,0.1,107.51782,1615927557999
Fix,GT,37.4959075,-122.2322152,-28.950028701782223,23.74431,0.1,107.686066,1615927558999
Fix,GT,37.4958415,-122.2319604,-28.85903631383181,23.579266,0.1,108.11499,1615927559999
Fix,GT,37.4957757,-122.2317085,-28.81701677775383,23.289587,0.1,108.01306,1615927560999
Fix,GT,37.4957117,-122.2314581,-28.80200599831343,23.365768,0.1,107.42871,1615927561999
Fix,GT,37.4956473,-122.2312032,-28.76501481127739,23.944635,0.1,107.644135,1615927562999
Fix,GT,37.4955791,-122.2309415,-28.80598356795311,24.680687,0.1,108.31885,1615927563999
Fix,GT,37.4955069,-122.2306762,-28.7470236672163,24.76243,0.1,109.28461,1615927564999
Fix,GT,37.4954322,-122.2304148,-28.754996787071228,24.371248,0.1,109.83896,1615927565999
Fix,GT,37.4953582,-122.2301565,-28.731009647369387,24.221535,0.1,109.38791,1615927566999
Fix,GT,37.4952864,-122.2298958,-28.73399879264832,24.555113,0.1,108.723236,1615927567999
Fix,GT,37.4952174,-122.2296308,-28.75799033260345,24.832703,0.1,107.46469,1615927568999
Fix,GT,37.4951492,-122.2293586,-28.73101088869572,25.65437,0.1,107.34375,1615927569999
Fix,GT,37.4950774,-122.2290807,-28.70001251477003,25.99948,0.1,108.50757,1615927570999
Fix,GT,37.4950005,-122.2288011,-28.650020205974577,26.350336,0.1,109.13284,1615927571999
Fix,GT,37.4949221,-122.2285193,-28.528049353480338,26.322523,0.1,109.215454,1615927572999
Fix,GT,37.4948437,-122.2282404,-28.29909273445606,25.966227,0.1,109.400085,1615927573999
Fix,GT,37.494766,-122.2279657,-27.90915809476376,25.666992,0.1,109.4874,1615927574999
Fix,GT,37.4946881,-122.2276906,-27.55014569944144,26.064512,0.1,109.457306,1615927575999
Fix,GT,37.4946082,-122.2274093,-27.32609099006653,26.72529,0.1,109.62399,1615927576999
Fix,GT,37.4945242,-122.2271203,-27.23303782147169,27.649218,0.1,110.264435,1615927577999
Fix,GT,37.4944346,-122.2268206,-27.19401587456465,29.01617,0.1,110.63956,1615927578999
Fix,GT,37.4943384,-122.2265068,-27.187002852618697,30.463966,0.1,111.351135,1615927579999
Fix,GT,37.4942338,-122.2261802,-27.20499265825748,31.661346,0.1,112.22702,1615927580999
Fix,GT,37.4941218,-122.2258457,-27.23098938441277,32.499973,0.1,113.161255,1615927581999
Fix,GT,37.494004,-122.2255042,-27.219004905223848,33.297657,0.1,113.38794,1615927582999
Fix,GT,37.4938814,-122.2251557,-27.76077825355529,34.129757,0.1,114.36554,1615927583999
Fix,GT,37.4937507,-122.2248011,-28.088865650177,34.914715,0.1,115.141815,1615927584999
Fix,GT,37.4936138,-122.2244423,-28.47484175515175,35.443333,0.1,115.95093,1615927585999
Fix,GT,37.493471,-122.2240818,-28.7548850774765,35.65884,0.1,116.89688,1615927586999
Fix,GT,37.4933238,-122.2237231,-28.831968364179133,35.647247,0.1,117.50534,1615927587999
Fix,GT,37.4931744,-122.2233684,-28.825002878904343,35.301327,0.1,118.12576,1615927588999
Fix,GT,37.4930232,-122.2230183,-28.77002264291048,35.201134,0.1,118.69528,1615927589999
Fix,GT,37.4928694,-122.2226697,-28.736014011621474,35.296528,0.1,119.10785,1615927590999
Fix,GT,37.4927147,-122.222321,-28.654033826947213,35.24449,0.1,118.91696,1615927591999
Fix,GT,37.4925607,-122.2219737,-28.719972745895383,35.005955,0.1,119.20538,1615927592999
Fix,GT,37.4924069,-122.2216308,-28.74698883932829,34.60077,0.1,119.31949,1615927593999
Fix,GT,37.4922546,-122.2212919,-28.83496358251572,34.21242,0.1,119.353424,1615927594999
Fix,GT,37.4921042,-122.2209565,-28.839997929036617,33.867233,0.1,119.19223,1615927595999
Fix,GT,37.4919562,-122.220624,-28.902973875820635,33.493782,0.1,118.93356,1615927596999
Fix,GT,37.4918107,-122.2202948,-28.81803527730704,33.08974,0.1,118.95413,1615927597999
Fix,GT,37.4916668,-122.2199699,-28.757025345742704,32.65414,0.1,119.00867,1615927598999
Fix,GT,37.491525,-122.2196505,-28.70102329158783,32.029457,0.1,119.059326,1615927599999
Fix,GT,37.4913858,-122.2193378,-28.663015820860863,31.254038,0.1,119.08783,1615927600999
Fix,GT,37.4912496,-122.2190318,-28.656002917289733,30.802565,0.1,119.08902,1615927601999
Fix,GT,37.4911149,-122.2187295,-28.665995828270912,30.463202,0.1,119.162415,1615927602999
Fix,GT,37.4909814,-122.2184306,-28.65000668144226,30.151052,0.1,119.18759,1615927603999
Fix,GT,37.4908489,-122.2181339,-28.59102466595173,30.105875,0.1,119.122925,1615927604999
Fix,GT,37.490716,-122.2178345,-28.53702259492874,30.509768,0.1,118.95224,1615927605999
Fix,GT,37.4905813,-122.2175292,-28.340082523584368,31.225971,0.1,118.882416,1615927606999
Fix,GT,37.4904435,-122.2172172,-27.859201663613323,31.791212,0.1,119.009094,1615927607999
Fix,GT,37.4903048,-122.2169033,-27.019352578163147,31.53794,0.1,118.92865,1615927608999
Fix,GT,37.4901694,-122.2165922,-26.184350827872755,31.287271,0.1,118.26422,1615927609999
Fix,GT,37.4900382,-122.2162818,-25.343353699684144,30.778389,0.1,117.53717,1615927610999
Fix,GT,37.4899127,-122.2159751,-24.4843616283536,30.21207,0.1,116.7182,1615927611999
Fix,GT,37.4897927,-122.2156717,-23.701329959988595,29.72986,0.1,116.00812,1615927612999
Fix,GT,37.4896769,-122.2153686,-22.97430666464567,29.825321,0.1,115.229095,1615927613999
Fix,GT,37.4895618,-122.2150604,-22.372254152178765,30.301235,0.1,115.006256,1615927614999
Fix,GT,37.4894471,-122.2147498,-21.99116103214025,30.163803,0.1,114.68201,1615927615999
Fix,GT,37.4893346,-122.2144401,-21.817073625206948,30.147827,0.1,114.10034,1615927616999
Fix,GT,37.4892255,-122.2141253,-21.84598771876097,30.52018,0.1,112.88373,1615927617999
Fix,GT,37.4891192,-122.213805,-21.890980924129483,30.831903,0.1,112.20709,1615927618999
Fix,GT,37.4890156,-122.2134807,-22.058928713321684,30.936064,0.1,111.4205,1615927619999
Fix,GT,37.4889146,-122.2131533,-22.481820333838463,31.142525,0.1,110.76837,1615927620999
Fix,GT,37.4888158,-122.2128229,-23.03676400315761,31.1682,0.1,110.251465,1615927621999
Fix,GT,37.4887197,-122.2124927,-23.85465187788009,30.990019,0.1,109.61221,1615927622999
Fix,GT,37.4886267,-122.2121628,-24.695641688585283,30.948494,0.1,109.24213,1615927623999
Fix,GT,37.4885358,-122.2118323,-25.5556332859993,30.880234,0.1,108.66589,1615927624999
Fix,GT,37.4884482,-122.2115007,-26.478605981946,30.939346,0.1,107.91852,1615927625999
Fix,GT,37.4883639,-122.2111663,-27.356624877929686,31.071896,0.1,107.0163,1615927626999
Fix,GT,37.4882839,-122.2108292,-28.055701021671297,31.126535,0.1,106.10828,1615927627999
Fix,GT,37.4882063,-122.21049,-28.43283859115839,31.342165,0.1,105.82153,1615927628999
Fix,GT,37.4881297,-122.2101469,-28.55494771599769,31.608639,0.1,105.26541,1615927629999
Fix,GT,37.4880562,-122.2098007,-28.62596954280138,31.783045,0.1,104.53845,1615927630999
Fix,GT,37.4879861,-122.2094526,-28.65498754763604,31.672098,0.1,103.81467,1615927631999
Fix,GT,37.4879199,-122.209106,-28.724969913363456,31.382385,0.1,103.02811,1615927632999
Fix,GT,37.4878574,-122.2087591,-28.759984939992428,31.63263,0.1,102.342865,1615927633999
Fix,GT,37.4877974,-122.2084084,-28.8539595195055,31.810312,0.1,101.81555,1615927634999
Fix,GT,37.4877391,-122.2080549,-28.90197930622101,31.989908,0.1,101.50482,1615927635999
Fix,GT,37.4876832,-122.2076994,-28.933986192703248,32.099648,0.1,100.701385,1615927636999
Fix,GT,37.4876309,-122.2073423,-28.973982721805573,32.12984,0.1,100.02478,1615927637999
Fix,GT,37.4875817,-122.2069823,-29.018980543255807,32.430695,0.1,99.35971,1615927638999
Fix,GT,37.4875352,-122.20662,-29.071977062165736,32.440525,0.1,98.9252,1615927639999
Fix,GT,37.48749,-122.206259,-29.09499003624916,32.144547,0.1,98.76575,1615927640999
Fix,GT,37.4874459,-122.2059022,-29.09000216811896,31.760895,0.1,98.70209,1615927641999
Fix,GT,37.4874024,-122.205548,-29.14297699582577,31.67872,0.1,98.59122,1615927642999
Fix,GT,37.4873595,-122.2051938,-29.211970018267632,31.718815,0.1,98.459076,1615927643999
Fix,GT,37.487317,-122.2048389,-29.23399043273925,31.762144,0.1,98.46146,1615927644999
Fix,GT,37.487274,-122.2044837,-29.2300017414093,31.73876,0.1,98.620514,1615927645999
Fix,GT,37.48723,-122.2041298,-29.23199912858009,31.617413,0.1,98.85907,1615927646999
Fix,GT,37.4871856,-122.2037775,-29.1690274797678,31.51551,0.1,98.88989,1615927647999
Fix,GT,37.4871412,-122.2034264,-29.149008730888365,31.355053,0.1,98.874084,1615927648999
Fix,GT,37.4870974,-122.2030765,-29.148000437021256,31.31321,0.1,98.71393,1615927649999
Fix,GT,37.4870544,-122.202727,-29.131007436454297,31.205683,0.1,98.66327,1615927650999
Fix,GT,37.4870113,-122.2023794,-29.080022327601903,31.005388,0.1,98.76193,1615927651999
Fix,GT,37.4869681,-122.2020338,-29.06700569754839,30.92601,0.1,98.85144,1615927652999
Fix,GT,37.486925,-122.2016878,-29.05700438630581,31.040642,0.1,98.71658,1615927653999
Fix,GT,37.4868822,-122.2013396,-29.069994291603567,31.278421,0.1,98.53021,1615927654999
Fix,GT,37.48684,-122.2009889,-29.075997362852096,31.455936,0.1,98.52814,1615927655999
Fix,GT,37.4867968,-122.2006363,-29.07500043994188,31.527897,0.1,98.787964,1615927656999
Fix,GT,37.4867531,-122.200286,-29.08399603676796,31.17839,0.1,98.78165,1615927657999
Fix,GT,37.4867103,-122.1999398,-29.09399559223652,30.819206,0.1,98.72827,1615927658999
Fix,GT,37.4866679,-122.1995966,-29.115990293741223,30.57022,0.1,98.61691,1615927659999
Fix,GT,37.4866266,-122.1992568,-29.1329924916029,30.216143,0.1,98.503265,1615927660999
Fix,GT,37.486586,-122.1989199,-29.14899292755127,30.071428,0.1,98.54147,1615927661999
Fix,GT,37.4865453,-122.1985845,-29.13000840759277,29.944378,0.1,98.70987,1615927662999
Fix,GT,37.4865042,-122.1982514,-29.116006200075148,29.6585,0.1,98.695496,1615927663999
Fix,GT,37.4864635,-122.197922,-29.130993349909783,29.306618,0.1,98.744415,1615927664999
Fix,GT,37.4864232,-122.1975964,-29.14799245613813,29.015203,0.1,98.80554,1615927665999
Fix,GT,37.4863828,-122.1972719,-29.18098534226418,29.124796,0.1,98.76459,1615927666999
Fix,GT,37.4863424,-122.1969453,-29.1919951094985,29.310484,0.1,98.74817,1615927667999
Fix,GT,37.4863017,-122.1966187,-29.23697997462749,29.11108,0.1,98.87714,1615927668999
Fix,GT,37.486261,-122.1962954,-29.24899465489388,28.76589,0.1,98.90848,1615927669999
Fix,GT,37.4862207,-122.1959761,-29.24400222921372,28.40547,0.1,98.89261,1615927670999
Fix,GT,37.4861811,-122.1956609,-29.21701204901933,28.081104,0.1,98.89331,1615927671999
Fix,GT,37.4861417,-122.1953483,-29.224996426105506,27.86849,0.1,98.927734,1615927672999
Fix,GT,37.4861026,-122.1950387,-29.23299642324448,27.544596,0.1,98.927795,1615927673999
Fix,GT,37.4860641,-122.1947331,-29.21200939899683,27.187143,0.1,98.861084,1615927674999
Fix,GT,37.4860263,-122.1944314,-29.199005823075773,26.84065,0.1,98.806946,1615927675999
Fix,GT,37.4859891,-122.1941334,-29.211994170725347,26.505335,0.1,98.78644,1615927676999
Fix,GT,37.485952,-122.1938394,-29.180014362335207,26.155735,0.1,99.19464,1615927677999
Fix,GT,37.4859123,-122.1935497,-29.182998652279377,25.872309,0.1,100.07883,1615927678999
Fix,GT,37.4858701,-122.1932612,-29.167007194519044,26.152735,0.1,100.41751,1615927679999
Fix,GT,37.485827,-122.1929686,-29.16400135022402,26.310123,0.1,100.38092,1615927680999
Fix,GT,37.4857849,-122.1926764,-29.139011262297632,26.203169,0.1,99.842834,1615927681999
Fix,GT,37.4857453,-122.1923859,-29.106014881968505,25.902712,0.1,99.43616,1615927682999
Fix,GT,37.4857073,-122.1920985,-29.08700857520104,25.747343,0.1,99.21509,1615927683999
Fix,GT,37.4856701,-122.1918084,-29.0460185239315,26.301645,0.1,98.830505,1615927684999
Fix,GT,37.4856337,-122.1915113,-29.01001627779007,26.796347,0.1,98.463196,1615927685999
Fix,GT,37.485597,-122.1912103,-28.991008600115777,27.045977,0.1,98.814026,1615927686999
Fix,GT,37.4855594,-122.1909075,-28.994998187780386,27.13772,0.1,98.65552,1615927687999
Fix,GT,37.4855223,-122.190604,-28.995999546587463,27.215616,0.1,98.76227,1615927688999
Fix,GT,37.4854845,-122.190299,-28.99400090777874,27.37921,0.1,98.90912,1615927689999
Fix,GT,37.4854449,-122.1899936,-28.92103316003084,27.279266,0.1,99.36389,1615927690999
Fix,GT,37.4854042,-122.1896911,-28.93499363386631,26.992146,0.1,99.54846,1615927691999
Fix,GT,37.4853634,-122.1893915,-28.939997724294667,26.788635,0.1,99.55795,1615927692999
Fix,GT,37.4853228,-122.1890932,-28.925006833374503,26.749586,0.1,99.69318,1615927693999
Fix,GT,37.4852806,-122.1887956,-28.900011399388312,26.712034,0.1,100.4151,1615927694999
Fix,GT,37.4852354,-122.1884991,-28.891004107534883,26.720278,0.1,100.83667,1615927695999
Fix,GT,37.4851892,-122.1882027,-28.84102284049988,26.643023,0.1,101.21326,1615927696999
Fix,GT,37.4851413,-122.1879091,-28.83900091445446,26.365833,0.1,101.749054,1615927697999
Fix,GT,37.4850915,-122.1876197,-28.800017848134043,26.01405,0.1,102.454285,1615927698999
Fix,GT,37.4850394,-122.1873348,-28.77201282739639,25.701738,0.1,103.24161,1615927699999
Fix,GT,37.4849852,-122.1870528,-28.747011461973187,25.655294,0.1,103.704285,1615927700999
Fix,GT,37.4849292,-122.1867704,-28.73400596642494,25.892513,0.1,103.968445,1615927701999
Fix,GT,37.4848717,-122.1864847,-28.711010564208028,26.199167,0.1,104.33612,1615927702999
Fix,GT,37.4848113,-122.1861973,-28.66901931118965,26.374207,0.1,104.877686,1615927703999
Fix,GT,37.4847489,-122.1859081,-28.650008743941783,26.685883,0.1,105.32907,1615927704999
Fix,GT,37.484683,-122.1856161,-28.631008751869203,26.941729,0.1,106.05548,1615927705999
Fix,GT,37.4846142,-122.1853231,-28.605011987090112,27.076347,0.1,106.63913,1615927706999
Fix,GT,37.4845428,-122.1850316,-28.58800784480572,26.84472,0.1,107.214294,1615927707999
Fix,GT,37.4844706,-122.184744,-28.56301154690981,26.494549,0.1,107.67963,1615927708999
Fix,GT,37.4843967,-122.1844614,-28.48303698825836,26.125153,0.1,108.72534,1615927709999
Fix,GT,37.4843174,-122.1841858,-28.40403655415773,25.697672,0.1,111.00339,1615927710999
Fix,GT,37.4842309,-122.1839198,-28.327035665452485,25.10051,0.1,113.20148,1615927711999
Fix,GT,37.4841398,-122.1836643,-28.275024104356763,24.413544,0.1,114.48862,1615927712999
Fix,GT,37.4840501,-122.1834194,-28.20903062546253,23.112709,0.1,114.70511,1615927713999
Fix,GT,37.4839651,-122.1831926,-28.17501579093933,21.188118,0.1,115.974976,1615927714999
Fix,GT,37.4838783,-122.1829868,-28.13601812940836,20.17521,0.1,119.86871,1615927715999
Fix,GT,37.483782,-122.1828012,-27.98007258272171,19.066668,0.1,126.07077,1615927716999
Fix,GT,37.4836746,-122.182645,-27.7191215453744,17.590557,0.1,135.06897,1615927717999
Fix,GT,37.4835571,-122.1825241,-27.572068517923352,16.254297,0.1,144.95923,1615927718999
Fix,GT,37.4834368,-122.1824377,-27.433064855337143,14.539371,0.1,153.93164,1615927719999
Fix,GT,37.4833242,-122.1823805,-27.365031752109523,12.363191,0.1,159.8468,1615927720999
Fix,GT,37.4832284,-122.1823407,-27.27004440486431,10.289629,0.1,162.66968,1615927721999
Fix,GT,37.4831489,-122.1823117,-27.108075779914856,8.006309,0.1,163.96967,1615927722999
Fix,GT,37.4830907,-122.1822909,-26.97206367444992,5.6410146,0.1,164.13391,1615927723999
Fix,GT,37.4830463,-122.1822737,-26.821070769369605,4.812591,0.1,162.40466,1615927724999
Fix,GT,37.4830108,-122.1822576,-26.66907129240036,3.2822855,0.1,160.12036,1615927725999
Fix,GT,37.48299,-122.1822471,-26.587038499474524,2.1085484,0.1,158.44415,1615927726999
Fix,GT,37.4829726,-122.1822376,-26.504038998663425,2.2395616,0.1,157.36157,1615927727999
Fix,GT,37.482949,-122.1822256,-26.37905879253149,3.7123911,0.1,157.6394,1615927728999
Fix,GT,37.4829085,-122.1822043,-26.13211626237631,5.8457084,0.1,156.86499,1615927729999
Fix,GT,37.4828555,-122.1821715,-25.78316443997621,7.0989947,0.1,152.41577,1615927730999
Fix,GT,37.4827981,-122.1821274,-25.399181091308595,7.700507,0.1,147.42719,1615927731999
Fix,GT,37.4827406,-122.1820799,-25.07615245896578,7.475587,0.1,146.38501,1615927732999
Fix,GT,37.4826865,-122.1820341,-24.88009259557724,7.033174,0.1,144.97491,1615927733999
Fix,GT,37.4826394,-122.1819834,-24.76605390417576,6.6472645,0.1,136.35956,1615927734999
Fix,GT,37.4826078,-122.1819225,-24.62806531000137,6.076864,0.1,118.714874,1615927735999
Fix,GT,37.4825941,-122.1818507,-24.4300938000679,6.850388,0.1,98.9469,1615927736999
Fix,GT,37.4826027,-122.1817685,-24.106153606891635,7.6686316,0.1,77.11868,1615927737999
Fix,GT,37.4826335,-122.1816824,-23.64122067606449,8.9192295,0.1,63.049835,1615927738999
Fix,GT,37.4826765,-122.1815891,-23.062274984359743,9.997703,0.1,59.294037,1615927739999
Fix,GT,37.4827268,-122.1814871,-22.4972686047554,11.170239,0.1,57.65042,1615927740999
Fix,GT,37.4827833,-122.1813823,-21.949260751485827,11.0209255,0.1,55.158783,1615927741999
Fix,GT,37.4828403,-122.1812839,-21.47622526204586,10.482724,0.1,53.5903,1615927742999
Fix,GT,37.4828976,-122.1811889,-21.049203533113005,10.715929,0.1,52.406036,1615927743999
Fix,GT,37.4829591,-122.1810937,-20.66818176579476,10.895018,0.1,50.179596,1615927744999
Fix,GT,37.4830222,-122.1810025,-20.3561489777565,10.361033,0.1,48.744354,1615927745999
Fix,GT,37.4830821,-122.1809176,-20.124110888957976,9.802125,0.1,48.27002,1615927746999
Fix,GT,37.4831439,-122.1808324,-19.92309614378214,10.925624,0.1,47.414246,1615927747999
Fix,GT,37.4832171,-122.1807394,-19.73509001517296,12.085926,0.1,44.078094,1615927748999
Fix,GT,37.4833016,-122.1806447,-19.60906037437916,12.927221,0.1,40.71414,1615927749999
Fix,GT,37.4833941,-122.1805521,-19.55502590048313,13.161375,0.1,37.165894,1615927750999
Fix,GT,37.4834908,-122.1804673,-19.61996879637241,12.993802,0.1,33.742554,1615927751999
Fix,GT,37.4835896,-122.1803896,-19.747938499450683,12.874996,0.1,31.478668,1615927752999
Fix,GT,37.4836885,-122.1803161,-20.000878334760667,12.565198,0.1,30.385986,1615927753999
Fix,GT,37.4837824,-122.1802425,-20.2898609021306,12.039481,0.1,34.299713,1615927754999
Fix,GT,37.483862,-122.1801552,-20.696803938031195,11.724501,0.1,46.16501,1615927755999
Fix,GT,37.4839192,-122.1800458,-21.34968512237072,11.782589,0.1,63.224854,1615927756999
Fix,GT,37.4839459,-122.1799167,-22.275553150177004,12.22484,0.1,82.186035,1615927757999
Fix,GT,37.4839381,-122.1797769,-23.36147542285919,12.797759,0.1,101.24011,1615927758999
Fix,GT,37.4838916,-122.1796437,-24.53143442940712,13.2035885,0.1,121.49222,1615927759999
Fix,GT,37.4838086,-122.1795368,-25.809381689667703,13.566874,0.1,141.95575,1615927760999
Fix,GT,37.4836985,-122.179471,-26.8225094165206,13.800937,0.1,162.71289,1615927761999
Fix,GT,37.483576,-122.1794589,-27.595625369131568,13.809428,0.1,183.67267,1615927762999
Fix,GT,37.4834593,-122.1795031,-27.976815168440343,13.553413,0.1,205.6903,1615927763999
Fix,GT,37.4833682,-122.1795981,-28.11093494570256,13.129741,0.1,228.8983,1615927764999
Fix,GT,37.4833145,-122.179727,-28.08901069104672,13.227686,0.1,250.98647,1615927765999
Fix,GT,37.4832999,-122.1798796,-27.99004815101624,14.365853,0.1,270.58893,1615927766999
Fix,GT,37.4833226,-122.1800455,-27.739122184574605,15.865998,0.1,284.909,1615927767999
Fix,GT,37.4833766,-122.1802241,-27.56208623588085,18.063646,0.1,293.51093,1615927768999
Fix,GT,37.4834463,-122.1804231,-27.549006339132784,20.414814,0.1,293.72937,1615927769999
Fix,GT,37.4835244,-122.1806465,-27.554997071743013,22.673193,0.1,293.4962,1615927770999
Fix,GT,37.4836071,-122.1808942,-27.48103615045548,24.843655,0.1,291.60028,1615927771999
Fix,GT,37.4836912,-122.1811685,-27.477001955509188,27.126162,0.1,290.7409,1615927772999
Fix,GT,37.4837821,-122.1814639,-27.40703425478935,28.861435,0.1,291.46307,1615927773999
Fix,GT,37.4838804,-122.1817762,-27.431987757205963,30.52796,0.1,291.19592,1615927774999
Fix,GT,37.483979,-122.1821079,-27.470980882644653,32.082634,0.1,289.67792,1615927775999
Fix,GT,37.484077,-122.1824578,-27.499985772430897,33.481277,0.1,289.16354,1615927776999
Fix,GT,37.4841792,-122.182822,-27.563968574523926,34.83512,0.1,289.31418,1615927777999
Fix,GT,37.484283,-122.1832016,-27.59798329102993,36.087948,0.1,288.29062,1615927778999
Fix,GT,37.4843848,-122.1835949,-27.709944911956786,37.074112,0.1,287.7081,1615927779999
Fix,GT,37.4844874,-122.1839982,-27.837936988830567,37.743633,0.1,287.7379,1615927780999
Fix,GT,37.4845918,-122.184408,-27.950944319069382,38.329075,0.1,287.45877,1615927781999
Fix,GT,37.4846944,-122.1848236,-27.9929792894125,38.55414,0.1,286.82513,1615927782999
Fix,GT,37.4847941,-122.1852423,-28.02798272448778,38.728203,0.1,286.31876,1615927783999
Fix,GT,37.484891,-122.1856639,-28.06398221802712,38.868996,0.1,285.8284,1615927784999
Fix,GT,37.4849853,-122.1860869,-28.13196637940407,38.77393,0.1,285.33505,1615927785999
Fix,GT,37.4850762,-122.186508,-28.15598812389374,38.339596,0.1,284.76212,1615927786999
Fix,GT,37.485162,-122.1869249,-28.20097771352529,37.81218,0.1,284.0799,1615927787999
Fix,GT,37.4852405,-122.1873379,-28.242979181766508,37.28829,0.1,282.53433,1615927788999
Fix,GT,37.4853116,-122.1877472,-28.26099107038975,36.80755,0.1,281.93512,1615927789999
Fix,GT,37.4853781,-122.1881519,-28.29798162925244,36.239613,0.1,281.2458,1615927790999
Fix,GT,37.4854404,-122.1885516,-28.359969187021253,35.795677,0.1,280.85663,1615927791999
Fix,GT,37.4855,-122.1889469,-28.387986074447632,35.37756,0.1,280.19177,1615927792999
Fix,GT,37.4855528,-122.1893381,-28.435976104736326,34.73198,0.1,279.08942,1615927793999
Fix,GT,37.485601,-122.1897229,-28.47697957479954,34.21342,0.1,278.80157,1615927794999
Fix,GT,37.4856474,-122.1901029,-28.51498105120659,33.771854,0.1,278.45502,1615927795999
Fix,GT,37.4856913,-122.1904772,-28.590962070703508,33.094532,0.1,278.1662,1615927796999
Fix,GT,37.4857348,-122.1908429,-28.62498301947117,32.25442,0.1,278.63715,1615927797999
Fix,GT,37.4857786,-122.1911971,-28.66697900402546,31.141296,0.1,278.91718,1615927798999
Fix,GT,37.4858222,-122.1915392,-28.714975987434386,30.247494,0.1,279.073,1615927799999
Fix,GT,37.4858649,-122.1918737,-28.769972459375857,29.675684,0.1,279.04596,1615927800999
Fix,GT,37.485907,-122.1922029,-28.81802577815467,29.266083,0.1,279.00876,1615927802000
Fix,GT,37.4859479,-122.1925279,-28.86901814480452,28.950655,0.1,278.8284,1615927803000
Fix,GT,37.485988,-122.1928496,-28.90502144756261,28.630096,0.1,278.79187,1615927804000
Fix,GT,37.4860277,-122.1931684,-28.948021262609345,28.522263,0.1,278.78378,1615927805000
Fix,GT,37.486067,-122.1934878,-28.99102505437634,28.630129,0.1,278.71423,1615927806000
Fix,GT,37.4861064,-122.1938083,-29.042017413984173,28.714375,0.1,278.61636,1615927807000
Fix,GT,37.4861453,-122.1941293,-29.078010807430665,28.792027,0.1,278.55603,1615927808000
Fix,GT,37.4861852,-122.1944526,-29.101002724184426,29.056787,0.1,278.8546,1615927809000
Fix,GT,37.4862264,-122.1947782,-29.10800676558912,29.209602,0.1,278.9741,1615927810000
Fix,GT,37.4862675,-122.1951044,-29.120004146672667,29.209457,0.1,278.79553,1615927811000
Fix,GT,37.486308,-122.1954304,-29.126997546008727,29.132011,0.1,278.75482,1615927812000
Fix,GT,37.4863483,-122.1957561,-29.12099938621948,29.221344,0.1,278.75732,1615927813000
Fix,GT,37.4863891,-122.1960836,-29.11899974351981,29.292473,0.1,278.89447,1615927814000
Fix,GT,37.4864307,-122.1964088,-29.11800059165468,28.965965,0.1,279.0901,1615927815000
Fix,GT,37.4864719,-122.1967299,-29.11900587446941,28.563242,0.1,279.00943,1615927816000
Fix,GT,37.4865122,-122.1970485,-29.130991447642213,28.6026,0.1,278.84875,1615927817000
Fix,GT,37.486552,-122.1973698,-29.113999652595144,28.916586,0.1,278.69968,1615927818000
Fix,GT,37.4865918,-122.1976949,-29.113998530309185,29.244947,0.099,278.52338,1615927819000
Fix,GT,37.4866313,-122.1980231,-29.11198758495413,29.395197,0.1,278.49185,1615927820000
Fix,GT,37.4866712,-122.1983502,-29.088007089479827,29.0968,0.099,278.75348,1615927821000
Fix,GT,37.4867114,-122.1986731,-29.103992956671863,28.713167,0.1,278.9147,1615927822000
Fix,GT,37.4867517,-122.1989919,-29.088004093523605,28.469673,0.1,278.94232,1615927823000
Fix,GT,37.4867912,-122.1993108,-29.095000985760706,28.649986,0.1,278.6417,1615927824000
Fix,GT,37.4868304,-122.1996324,-29.096004270375705,28.916605,0.1,278.5628,1615927825000
Fix,GT,37.48687,-122.1999571,-29.10398943822645,29.218641,0.1,278.69983,1615927826000
Fix,GT,37.4869103,-122.2002844,-29.08199373186956,29.248905,0.1,278.7097,1615927827000
Fix,GT,37.4869502,-122.2006096,-29.06900238093472,28.928051,0.1,278.67062,1615927828000
Fix,GT,37.4869894,-122.2009309,-29.07400903541528,28.629112,0.1,278.56335,1615927829000
Fix,GT,37.4870282,-122.2012522,-29.09299765736557,28.927845,0.099,278.61566,1615927830000
Fix,GT,37.4870685,-122.201578,-29.08899606132967,29.40433,0.1,278.92212,1615927831000
Fix,GT,37.4871105,-122.2019083,-29.08199495325864,29.662441,0.099,279.02954,1615927832000
Fix,GT,37.4871526,-122.2022394,-29.0730045334982,29.560926,0.1,278.96545,1615927833000
Fix,GT,37.487194,-122.202568,-29.08400709392849,29.28557,0.1,278.87073,1615927834000
Fix,GT,37.4872343,-122.2028934,-29.09699673810208,28.948011,0.1,278.6596,1615927835000
Fix,GT,37.4872734,-122.2032149,-29.08899902488076,28.574999,0.1,278.58646,1615927836000
Fix,GT,37.4873123,-122.2035324,-29.086003215030647,28.286726,0.1,278.78516,1615927837000
Fix,GT,37.4873512,-122.2038494,-29.09199869217936,28.518959,0.1,278.5693,1615927838000
Fix,GT,37.4873897,-122.2041702,-29.088999521018003,28.849026,0.1,278.6029,1615927839000
Fix,GT,37.4874297,-122.2044941,-29.0879945258995,29.064377,0.1,278.8988,1615927840000
Fix,GT,37.4874707,-122.2048188,-29.076995356558008,29.097288,0.1,278.86346,1615927841000
Fix,GT,37.4875113,-122.2051433,-29.06796675807913,28.936068,0.1,278.96945,1615927842000
Fix,GT,37.4875523,-122.2054646,-28.99994016558109,28.629251,0.099,278.98294,1615927843000
Fix,GT,37.487593,-122.2057844,-28.877004550032083,28.758635,0.1,278.91855,1615927844000
Fix,GT,37.4876338,-122.2061051,-28.88800033232666,28.62201,0.1,278.99237,1615927845000
Fix,GT,37.4876747,-122.2064245,-28.886979063490347,28.652388,0.1,279.0196,1615927846000
Fix,GT,37.4877159,-122.206745,-28.84200530619465,28.847921,0.1,279.08856,1615927847000
Fix,GT,37.487758,-122.2070689,-28.85196055056315,29.239147,0.1,279.3975,1615927848000
Fix,GT,37.4878031,-122.2073965,-28.76898245239991,29.498194,0.1,280.14682,1615927849000
Fix,GT,37.4878528,-122.2077241,-28.73200673756754,29.407852,0.1,281.34552,1615927850000
Fix,GT,37.4879071,-122.2080476,-28.74599320641241,29.049273,0.1,282.11984,1615927851000
Fix,GT,37.4879625,-122.2083681,-28.73198307227925,29.089407,0.1,282.14905,1615927852000
Fix,GT,37.4880184,-122.2086925,-28.696988677954536,29.560806,0.1,282.1123,1615927853000
Fix,GT,37.4880759,-122.2090176,-28.67398664355464,29.300573,0.1,282.8723,1615927854000
Fix,GT,37.4881363,-122.2093379,-28.64698651866848,28.931791,0.1,283.57172,1615927855000
Fix,GT,37.4881986,-122.209653,-28.6199925542014,28.519035,0.099,284.2219,1615927856000
Fix,GT,37.4882634,-122.2099631,-28.6059936533919,28.256723,0.1,284.979,1615927857000
Fix,GT,37.4883308,-122.210273,-28.590920315306867,28.691656,0.1,285.27747,1615927858000
Fix,GT,37.4884006,-122.2105882,-28.421786362713902,29.123152,0.1,285.90704,1615927859000
Fix,GT,37.4884758,-122.210906,-27.97065499107045,29.44265,0.1,287.08893,1615927860000
Fix,GT,37.4885556,-122.2112247,-27.242585967323684,29.611856,0.1,287.52045,1615927861000
Fix,GT,37.4886365,-122.2115411,-26.36861130020185,29.175903,0.1,287.9713,1615927862000
Fix,GT,37.4887183,-122.2118517,-25.54762668708895,28.738226,0.1,288.44366,1615927863000
Fix,GT,37.488802,-122.2121595,-24.75864531341041,28.871298,0.1,289.10205,1615927864000
Fix,GT,37.4888896,-122.2124693,-24.00862094200668,29.275625,0.1,289.8285,1615927865000
Fix,GT,37.4889808,-122.2127829,-23.206751355153628,29.763735,0.1,289.9674,1615927866000
Fix,GT,37.4890754,-122.2131006,-22.680817002518104,30.378004,0.1,291.18695,1615927867000
Fix,GT,37.4891771,-122.2134239,-22.29388760815829,30.928501,0.1,291.93338,1615927868000
Fix,GT,37.4892832,-122.2137481,-22.05396709730045,30.940771,0.1,292.64642,1615927869000
Fix,GT,37.4893912,-122.2140676,-21.982996660653185,30.448372,0.1,293.21225,1615927870000
Fix,GT,37.4894987,-122.2143807,-21.975018612417628,29.838549,0.1,293.34872,1615927871000
Fix,GT,37.4896069,-122.2146859,-22.014181777283724,29.294376,0.1,294.30338,1615927872000
Fix,GT,37.4897162,-122.214985,-22.401279500272416,28.95473,0.1,294.80783,1615927873000
Fix,GT,37.4898267,-122.21528,-22.997279585775686,28.696953,0.1,295.34393,1615927874000
Fix,GT,37.4899382,-122.2155711,-23.594373264954893,28.469517,0.1,295.98422,1615927875000
Fix,GT,37.4900523,-122.2158592,-24.392362025491423,28.52583,0.1,296.7606,1615927876000
Fix,GT,37.4901712,-122.2161485,-25.167385833828828,28.959312,0.1,297.71664,1615927877000
Fix,GT,37.4902939,-122.2164377,-25.99439797257632,29.054117,0.1,298.14578,1615927878000
Fix,GT,37.4904194,-122.2167287,-26.848347129322764,29.435156,0.1,298.7406,1615927879000
Fix,GT,37.490552,-122.2170202,-27.594311473011185,29.992794,0.1,300.42047,1615927880000
Fix,GT,37.4906927,-122.2173151,-28.261142049629008,30.87136,0.1,301.0372,1615927881000
Fix,GT,37.4908379,-122.2176181,-28.56503482937476,31.550592,0.1,300.68503,1615927882000
Fix,GT,37.4909831,-122.2179266,-28.63901372590125,31.796453,0.1,300.36554,1615927883000
Fix,GT,37.4911274,-122.2182363,-28.66799544473225,31.578043,0.1,300.0927,1615927884000
Fix,GT,37.4912695,-122.2185435,-28.6580272846779,31.204397,0.1,300.20367,1615927885000
