MessageType,Provider,LatitudeDegrees,LongitudeDegrees,AltitudeMeters,SpeedMps,AccuracyMeters,BearingDegrees,UnixTimeMillis
Fix,GT,37.4160297,-122.0809369,-26.595,0.0014142136,0.1,-179.08609,1640722627437
Fix,GT,37.4160297,-122.0809369,-26.59499920740724,0.0014142136,0.1,180.91394,1640722628437
Fix,GT,37.4160297,-122.0809369,-26.595000792592764,0.0011568379,0.1,180.91403,1640722629437
Fix,GT,37.4160297,-122.0809369,-26.595,0.00087873574,0.1,180.91393,1640722630437
Fix,GT,37.4160297,-122.0809369,-26.595000792592764,0.0,0.1,180.91393,1640722631437
Fix,GT,37.4160297,-122.0809369,-26.595,0.00037864002,0.1,180.91412,1640722632437
Fix,GT,37.4160297,-122.0809369,-26.59499920740724,0.001,0.1,180.91432,1640722633437
Fix,GT,37.4160297,-122.0809369,-26.595000792592764,0.001,0.1,180.91444,1640722634437
Fix,GT,37.4160297,-122.0809369,-26.59400079256296,0.0017680433,0.1,180.91452,1640722635437
Fix,GT,37.4160297,-122.0809369,-26.59400079256296,0.0017680433,0.1,180.91466,1640722636437
Fix,GT,37.4160297,-122.0809369,-26.59399920743704,0.0036328884,0.1,180.9145,1640722637437
Fix,GT,37.4160297,-122.0809369,-26.59499920740724,0.0052487114,0.1,180.91512,1640722638437
Fix,GT,37.4160297,-122.0809369,-26.595000792592764,0.0024400852,0.1,180.91417,1640722639437
Fix,GT,37.4160296,-122.0809369,-26.595,0.004339979,0.1,180.91455,1640722640437
Fix,GT,37.4160296,-122.0809369,-26.59499920740724,0.0051458385,0.1,180.91441,1640722641437
Fix,GT,37.4160296,-122.0809369,-26.595000792592764,0.007020685,0.1,180.91475,1640722642437
Fix,GT,37.4160296,-122.0809369,-26.595,0.008397833,0.1,180.9148,1640722643437
Fix,GT,37.4160296,-122.0809369,-26.595,0.009433981,0.1,180.91475,1640722644437
Fix,GT,37.4160296,-122.0809369,-26.595,0.012183103,0.1,180.91489,1640722645437
Fix,GT,37.4160296,-122.0809369,-26.594,0.013797242,0.1,180.91518,1640722646437
Fix,GT,37.4160296,-122.0809369,-26.594,0.015411302,0.1,180.91518,1640722647437
Fix,GT,37.4160296,-122.0809368,-26.596,0.02230435,0.1,180.91675,1640722648437
Fix,GT,37.4160269,-122.0809366,-26.59562135982513,0.6114943,0.1,180.60742,1640722649437
Fix,GT,37.4160184,-122.0809345,-26.597,1.2414854,0.1,176.36133,1640722650437
Fix,GT,37.4160047,-122.0809275,-26.56537943178415,1.9837248,0.1,166.30457,1640722651437
Fix,GT,37.4159852,-122.0809166,-26.576757280230524,2.5887663,0.1,159.4419,1640722652437
Fix,GT,37.415963,-122.0809071,-26.626650480806827,2.6008024,0.1,161.25183,1640722653437
Fix,GT,37.4159404,-122.0808979,-26.57785518911481,2.5494075,0.1,161.86804,1640722654437
Fix,GT,37.4159185,-122.0808884,-26.45675806862116,2.5405762,0.1,161.57391,1640722655437
Fix,GT,37.4158951,-122.0808749,-26.510271839976312,3.2911663,0.1,156.02008,1640722656437
Fix,GT,37.415871,-122.080845,-26.46351377147436,4.0430818,0.1,135.75952,1640722657437
Fix,GT,37.415855,-122.0807992,-26.42500078752637,4.4906516,0.1,113.363495,1640722658437
Fix,GT,37.4158478,-122.0807493,-26.40937942713499,4.4010344,0.1,100.20187,1640722659437
Fix,GT,37.4158449,-122.0807004,-26.41064969316125,4.152276,0.1,93.99838,1640722660437
Fix,GT,37.4158431,-122.0806589,-26.364000785708427,3.0736794,0.1,92.68933,1640722661437
Fix,GT,37.4158417,-122.0806311,-26.326243504673243,1.8788185,0.1,92.690796,1640722662437
Fix,GT,37.415841,-122.0806158,-26.28437942329049,0.9060944,0.1,92.52667,1640722663437
Fix,GT,37.4158406,-122.0806036,-26.24900078228116,1.3903813,0.1,91.74768,1640722664437
Fix,GT,37.4158436,-122.080583,-26.210241939038035,2.2432022,0.1,83.04419,1640722665437
Fix,GT,37.4158549,-122.080555,-26.13048466157913,3.1911364,0.1,66.32086,1640722666437
Fix,GT,37.4158781,-122.080524,-26.04610680061579,4.321286,0.1,46.615234,1640722667437
Fix,GT,37.4159161,-122.0804991,-26.053408534973865,4.9079466,0.1,24.837158,1640722668437
Fix,GT,37.4159575,-122.0804874,-26.04107768160105,4.2939434,0.1,11.169495,1640722669437
Fix,GT,37.4159898,-122.0804828,-25.976379413992166,3.1402478,0.1,5.319031,1640722670437
Fix,GT,37.4160168,-122.0804801,-25.93815527051688,2.9569974,0.1,3.5436096,1640722671437
Fix,GT,37.416045,-122.0804774,-25.91951455950737,3.5311346,0.1,2.8711243,1640722672437
Fix,GT,37.4160824,-122.0804741,-25.90162136012316,4.786458,0.1,2.8667297,1640722673437
Fix,GT,37.4161311,-122.0804706,-25.88965047913789,5.9720135,0.1,2.6058044,1640722674437
Fix,GT,37.4161872,-122.0804672,-25.91764970701933,6.1911774,0.1,2.1545105,1640722675437
Fix,GT,37.4162422,-122.0804647,-25.90010602852702,6.0178576,0.1,1.192627,1640722676437
Fix,GT,37.416296,-122.0804637,-25.87489242845773,5.82504,0.1,0.24456787,1640722677437
Fix,GT,37.4163458,-122.0804633,-25.90789242747426,5.0047674,0.1,359.87518,1640722678437
Fix,GT,37.4163862,-122.0804631,-25.95764970582724,3.8326862,0.1,359.7036,1640722679437
Fix,GT,37.4164147,-122.080463,-26.02767882308364,2.485117,0.1,359.61578,1640722680437
Fix,GT,37.4164326,-122.0804629,-26.22865126135945,1.5547168,0.1,359.55594,1640722681437
Fix,GT,37.4164426,-122.0804628,-26.372651265650987,0.6695135,0.1,359.54697,1640722682437
Fix,GT,37.4164467,-122.0804627,-26.48665126904845,0.31335473,0.1,359.55984,1640722683437
Fix,GT,37.416449,-122.0804627,-26.58464968714118,0.26917857,0.1,359.5555,1640722684437
Fix,GT,37.4164528,-122.0804628,-26.6836504791379,0.55641305,0.1,359.55658,1640722685437
Fix,GT,37.4164587,-122.0804628,-26.78802991703153,0.8335242,0.1,359.94208,1640722686437
Fix,GT,37.4164671,-122.0804622,-26.881271038383247,1.0603802,0.1,1.559906,1640722687437
Fix,GT,37.4164786,-122.0804601,-26.982029119014737,1.5868284,0.1,5.20343,1640722688437
Fix,GT,37.416495,-122.0804506,-27.09516503864527,2.3175972,0.1,18.729675,1640722689437
Fix,GT,37.4165133,-122.0804282,-27.11637863987684,3.2193549,0.1,39.836395,1640722690437
Fix,GT,37.4165284,-122.0803879,-27.17027183926105,4.6203346,0.1,63.98578,1640722691437
Fix,GT,37.4165347,-122.0803261,-27.20257360741496,6.372604,0.1,84.33093,1640722692437
Fix,GT,37.4165327,-122.080244,-27.21086489143968,8.075491,0.1,92.040405,1640722693437
Fix,GT,37.416528,-122.0801464,-27.188350331425667,9.189089,0.1,93.26956,1640722694437
Fix,GT,37.4165221,-122.0800376,-27.151999190807345,10.088805,0.1,93.633606,1640722695437
Fix,GT,37.4165149,-122.0799196,-27.0847281614542,10.872216,0.1,94.25513,1640722696437
Fix,GT,37.4165061,-122.0797933,-27.024864886254072,11.532911,0.1,94.74753,1640722697437
Fix,GT,37.4164963,-122.0796612,-27.01186327594519,11.899135,0.1,94.89688,1640722698437
Fix,GT,37.4164871,-122.0795268,-26.96310680180788,11.876871,0.1,94.66412,1640722699437
Fix,GT,37.416478,-122.0793946,-26.95837783625722,11.589865,0.1,94.54425,1640722700437
Fix,GT,37.4164692,-122.0792642,-26.986515362650152,11.634422,0.1,94.55029,1640722701437
Fix,GT,37.4164603,-122.079134,-27.006135918557646,11.480259,0.1,94.65863,1640722702437
Fix,GT,37.4164516,-122.0790063,-27.032000805616377,11.180603,0.1,94.75937,1640722703437
Fix,GT,37.4164433,-122.0788823,-27.0356205548346,10.866926,0.1,94.664,1640722704437
Fix,GT,37.4164345,-122.0787618,-27.082649668127296,10.477453,0.1,95.21771,1640722705437
Fix,GT,37.4164254,-122.0786487,-27.10734952503443,9.589338,0.1,95.89493,1640722706437
Fix,GT,37.4164167,-122.0785464,-27.094271835684776,8.605849,0.1,96.09604,1640722707437
Fix,GT,37.4164084,-122.0784558,-27.10748463532329,7.5118313,0.1,96.70984,1640722708437
Fix,GT,37.4164004,-122.0783789,-27.08124352884293,6.1501894,0.1,97.31644,1640722709437
Fix,GT,37.4163939,-122.0783187,-27.078271834254267,4.5711904,0.1,97.85693,1640722710437
Fix,GT,37.4163888,-122.0782771,-27.11651536414027,2.850872,0.1,99.1828,1640722711437
Fix,GT,37.4163848,-122.0782546,-27.14537863892317,1.2727561,0.1,101.81711,1640722712437
Fix,GT,37.4163835,-122.0782475,-27.13162055245042,0.16760445,0.1,102.69452,1640722713437
Fix,GT,37.4163839,-122.0782478,-27.12462136107684,0.085550405,0.1,102.740295,1640722714437
Fix,GT,37.4163844,-122.0782486,-27.11399919193984,0.087958485,0.1,102.73831,1640722715437
Fix,GT,37.4163841,-122.0782456,-27.113241914272308,0.8150481,0.1,103.625305,1640722716437
Fix,GT,37.4163785,-122.0782313,-27.09437783136964,1.9146235,0.1,110.8392,1640722717437
Fix,GT,37.4163618,-122.0782114,-27.06048463815451,3.174295,0.1,131.23163,1640722718437
Fix,GT,37.4163278,-122.078197,-27.044000805974008,4.717525,0.1,159.9624,1640722719437
Fix,GT,37.4162759,-122.0781937,-26.944242722153664,6.7629375,0.1,176.81201,1640722720437
Fix,GT,37.4162069,-122.0781939,-26.9034571352005,8.409777,0.1,180.21017,1640722721437
Fix,GT,37.4161281,-122.078198,-26.85783577272296,8.892232,0.1,182.30667,1640722722437
Fix,GT,37.4160492,-122.0782036,-26.80210600700974,8.628836,0.1,183.01404,1640722723437
Fix,GT,37.4159729,-122.0782099,-26.74748624160885,8.383651,0.1,183.28789,1640722724437
Fix,GT,37.4158985,-122.0782159,-26.730864879995583,8.15325,0.1,183.09006,1640722725437
Fix,GT,37.4158272,-122.0782202,-26.67810760125517,7.5370946,0.1,181.8954,1640722726437
Fix,GT,37.4157656,-122.0782213,-26.630864877372986,6.0547504,0.1,180.61214,1640722727437
Fix,GT,37.4157204,-122.078222,-26.610241929501296,3.8914888,0.1,180.21849,1640722728437
Fix,GT,37.4156952,-122.0782223,-26.599999207258225,1.7808828,0.1,180.17255,1640722729437
Fix,GT,37.415687,-122.0782225,-26.612377845615143,0.18557909,0.1,180.16316,1640722730437
Fix,GT,37.415687,-122.0782227,-26.627378638625142,0.027809035,0.1,180.1673,1640722731437
Fix,GT,37.4156872,-122.0782228,-26.63537863862515,0.025432788,0.1,180.16658,1640722732437
Fix,GT,37.4156873,-122.0782228,-26.639378638625143,0.021301616,0.1,180.16728,1640722733437
Fix,GT,37.4156881,-122.0782234,-26.903465965628623,0.017464248,0.1,180.16757,1640722734437
Fix,GT,37.4156883,-122.0782236,-26.950000000000003,0.014866069,0.1,180.16785,1640722735437
Fix,GT,37.4156883,-122.0782236,-26.95,0.0126491105,0.1,180.1681,1640722736437
Fix,GT,37.4156883,-122.0782236,-26.95,0.010653812,0.1,180.16841,1640722737437
Fix,GT,37.4156883,-122.0782236,-26.95,0.009765387,0.1,180.16862,1640722738437
Fix,GT,37.4156883,-122.0782236,-26.95,0.008062257,0.1,180.16899,1640722739437
Fix,GT,37.4156883,-122.0782236,-26.95,0.007,0.1,180.16946,1640722740437
Fix,GT,37.4156883,-122.0782236,-26.949999196827413,0.006031337,0.1,180.16972,1640722741437
Fix,GT,37.4156883,-122.0782236,-26.95,0.0050990195,0.1,180.17001,1640722742437
Fix,GT,37.4156883,-122.0782236,-26.95,0.004472136,0.1,180.17047,1640722743437
Fix,GT,37.4156883,-122.0782236,-26.95,0.004672006,0.1,180.17075,1640722744437
Fix,GT,37.4156883,-122.0782236,-26.95,0.0047132345,0.1,180.17099,1640722745437
Fix,GT,37.4156883,-122.0782236,-26.95,0.0042426405,0.1,-179.82864,1640722746437
Fix,GT,37.4156883,-122.0782236,-26.949999196827413,0.0040014135,0.1,180.17177,1640722747437
Fix,GT,37.4156883,-122.0782236,-26.95,0.003311302,0.1,180.17216,1640722748437
Fix,GT,37.4156883,-122.0782236,-26.95,0.003605551,0.1,180.17247,1640722749437
Fix,GT,37.4156883,-122.0782236,-26.949999196827413,0.003605551,0.1,180.17291,1640722750437
Fix,GT,37.4156883,-122.0782236,-26.949999196827413,0.0034377107,0.1,180.17311,1640722751437
Fix,GT,37.4156883,-122.0782236,-26.949999196827413,0.0031622776,0.1,180.17346,1640722752437
Fix,GT,37.4156883,-122.0782236,-26.95,0.0033301183,0.1,180.17381,1640722753437
Fix,GT,37.4156883,-122.0782236,-26.949999196827413,0.0024603577,0.1,180.17432,1640722754437
Fix,GT,37.4156883,-122.0782236,-26.949999196827413,0.003087012,0.1,180.17459,1640722755437
Fix,GT,37.4156883,-122.0782236,-26.949999196827413,0.002811579,0.1,180.17491,1640722756437
Fix,GT,37.4156883,-122.0782236,-26.949999196827413,0.002811579,0.1,180.17523,1640722757437
Fix,GT,37.4156883,-122.0782236,-26.95,0.002236068,0.1,180.17558,1640722758437
Fix,GT,37.4156883,-122.0782236,-26.95,0.0028284271,0.1,-179.82405,1640722759437
Fix,GT,37.4156883,-122.0782236,-26.95,0.0019248822,0.1,180.17648,1640722760437
Fix,GT,37.4156883,-122.0782236,-26.949999196827413,0.0021466836,0.1,180.17683,1640722761437
Fix,GT,37.4156883,-122.0782236,-26.949999196827413,0.0022360678,0.1,180.17708,1640722762437
Fix,GT,37.4156883,-122.0782236,-26.96602830424905,0.0020893845,0.1,180.17738,1640722763437
Fix,GT,37.4156884,-122.0782236,-26.98999919563532,0.0019248822,0.1,180.17767,1640722764437
Fix,GT,37.4156884,-122.0782236,-26.991,0.0014142136,0.1,180.17819,1640722765437
Fix,GT,37.4156884,-122.0782236,-26.99099919560552,0.0014142136,0.1,180.1786,1640722766437
Fix,GT,37.4156884,-122.0782236,-26.99099919560552,0.0014142136,0.1,180.17902,1640722767437
Fix,GT,37.4156884,-122.0782236,-26.99099919560552,0.0014142136,0.1,180.17943,1640722768437
Fix,GT,37.4156884,-122.0782236,-26.99099919560552,0.0012573763,0.1,180.17967,1640722769437
Fix,GT,37.4156884,-122.0782236,-26.991,0.0014142136,0.1,180.18015,1640722770437
Fix,GT,37.4156884,-122.0782236,-26.991,0.0014142136,0.1,180.18044,1640722771437
Fix,GT,37.4156884,-122.0782236,-26.99099919560552,0.001,0.1,180.18092,1640722772437
Fix,GT,37.4156884,-122.0782236,-26.99099919560552,0.0012573763,0.1,180.1815,1640722773437
Fix,GT,37.4156884,-122.0782236,-26.99099919560552,0.0014142136,0.1,180.18187,1640722774437
Fix,GT,37.4156884,-122.0782236,-26.99099919560552,0.0014142136,0.1,180.18217,1640722775437
Fix,GT,37.4156884,-122.0782236,-26.991,0.0014142136,0.1,180.18248,1640722776437
Fix,GT,37.4156884,-122.0782236,-26.991,0.0014142136,0.1,180.1829,1640722777437
Fix,GT,37.4156884,-122.0782236,-26.991,0.0014142136,0.1,180.18335,1640722778437
Fix,GT,37.4156884,-122.0782236,-26.991,0.0014142136,0.1,180.18394,1640722779437
Fix,GT,37.4156884,-122.0782236,-26.991,0.0014142136,0.1,180.1844,1640722780437
Fix,GT,37.4156884,-122.0782236,-26.991,0.0014142136,0.1,180.18484,1640722781437
Fix,GT,37.4156884,-122.0782236,-26.991,0.0014142136,0.1,180.18532,1640722782437
Fix,GT,37.4156884,-122.0782236,-26.991,0.0019248822,0.1,180.18587,1640722783437
Fix,GT,37.4156884,-122.0782236,-26.991,0.002,0.1,-179.81367,1640722784437
Fix,GT,37.4156884,-122.0782236,-26.991,0.003,0.1,180.18668,1640722785437
Fix,GT,37.4156884,-122.0782236,-26.991,0.003,0.1,180.18715,1640722786437
Fix,GT,37.4156884,-122.0782236,-26.991,0.0041231057,0.1,180.18756,1640722787437
Fix,GT,37.4156884,-122.0782236,-26.99099919560552,0.0044721356,0.1,180.1881,1640722788437
Fix,GT,37.4156884,-122.0782236,-26.99099919560552,0.0063760425,0.1,180.18864,1640722789437
Fix,GT,37.4156884,-122.0782236,-26.989999999999995,0.0130794365,0.1,180.1886,1640722790437
Fix,GT,37.4156858,-122.0782235,-27.002135915875435,0.9140154,0.1,180.21568,1640722791437
Fix,GT,37.4156654,-122.0782236,-26.99248544549942,3.5068922,0.1,180.30534,1640722792437
Fix,GT,37.4156224,-122.078224,-26.95383497446776,6.062378,0.1,180.41881,1640722793437
Fix,GT,37.4155564,-122.0782249,-26.927698255330327,8.720823,0.1,180.68776,1640722794437
Fix,GT,37.4154665,-122.0782268,-26.853485445261,11.18717,0.1,180.59875,1640722795437
Fix,GT,37.4153564,-122.0782278,-26.82842642593384,13.05785,0.1,180.23898,1640722796437
Fix,GT,37.4152319,-122.0782287,-26.7164264292717,14.581142,0.1,180.27574,1640722797437
Fix,GT,37.4150975,-122.0782302,-26.55815539419651,14.973705,0.1,180.51741,1640722798437
Fix,GT,37.414964,-122.078231,-26.374912672996523,14.6446,0.1,180.00407,1640722799437
Fix,GT,37.4148334,-122.0782301,-26.174427226305006,14.345234,0.1,179.79053,1640722800437
Fix,GT,37.4147057,-122.0782297,-26.029349529623985,13.999465,0.1,179.6391,1640722801437
Fix,GT,37.4145818,-122.078229,-25.86412628674507,13.498859,0.1,179.73901,1640722802437
Fix,GT,37.4144625,-122.0782287,-25.629640841245653,12.985636,0.1,179.78638,1640722803437
Fix,GT,37.4143485,-122.0782284,-25.458592252910137,12.208494,0.1,179.64258,1640722804437
Fix,GT,37.4142448,-122.0782273,-25.3046990609169,10.719427,0.1,179.53381,1640722805437
Fix,GT,37.4141557,-122.078227,-25.183076949149367,9.059224,0.1,179.91223,1640722806437
Fix,GT,37.414082,-122.0782271,-25.05383422997594,7.2900047,0.1,179.99304,1640722807437
Fix,GT,37.4140263,-122.078227,-24.932592253983017,4.992442,0.1,180.05397,1640722808437
Fix,GT,37.4139928,-122.0782271,-24.846349530875685,2.511616,0.1,180.13515,1640722809437
Fix,GT,37.4139781,-122.0782272,-24.81413591533899,0.89720476,0.1,180.12242,1640722810437
Fix,GT,37.4139748,-122.078227,-24.8009992608726,0.019118281,0.1,180.0968,1640722811437
Fix,GT,37.4139749,-122.078227,-24.800620622396465,0.0072740605,0.1,180.10188,1640722812437
Fix,GT,37.413975,-122.078227,-24.799,0.0073786387,0.1,180.1003,1640722813437
Fix,GT,37.413975,-122.078227,-24.79699926099181,0.0056213615,0.1,180.10059,1640722814437
Fix,GT,37.413975,-122.0782269,-24.799,0.004,0.1,180.10085,1640722815437
Fix,GT,37.413975,-122.078227,-24.801,0.0030614445,0.1,180.10114,1640722816437
Fix,GT,37.413975,-122.078227,-24.801,0.0030614445,0.1,180.10146,1640722817437
Fix,GT,37.413975,-122.078227,-24.801,0.002236068,0.1,180.1014,1640722818437
Fix,GT,37.413975,-122.0782269,-24.801,0.002236068,0.1,-179.89836,1640722819437
Fix,GT,37.413975,-122.0782269,-24.801,0.0014142136,0.1,180.10197,1640722820437
Fix,GT,37.413975,-122.0782269,-24.8009992608726,0.002236068,0.1,180.1022,1640722821437
Fix,GT,37.413975,-122.0782269,-24.801,0.0019496889,0.1,180.10243,1640722822437
Fix,GT,37.413975,-122.0782269,-24.801,0.002236068,0.1,180.1025,1640722823437
Fix,GT,37.413975,-122.0782269,-24.801,0.002236068,0.1,180.1026,1640722824437
Fix,GT,37.413975,-122.0782269,-24.8,0.002236068,0.1,-179.89726,1640722825437
Fix,GT,37.413975,-122.0782269,-24.799999260902403,0.0031622774,0.1,180.10295,1640722826437
Fix,GT,37.413975,-122.0782269,-24.802,0.003,0.1,180.10323,1640722827437
Fix,GT,37.4139751,-122.0782271,-24.805,0.004,0.1,180.10332,1640722828437
Fix,GT,37.4139751,-122.0782271,-24.805,0.0041231057,0.1,180.10355,1640722829437
Fix,GT,37.4139751,-122.0782271,-24.804,0.0048178434,0.1,180.10359,1640722830437
Fix,GT,37.4139751,-122.0782271,-24.804,0.005830952,0.1,180.10379,1640722831437
Fix,GT,37.4139751,-122.0782271,-24.80437789902091,0.017406298,0.1,180.10336,1640722832437
Fix,GT,37.4139712,-122.078227,-24.80886334589124,1.114923,0.1,180.08168,1640722833437
Fix,GT,37.4139529,-122.0782269,-24.773106070458887,2.946845,0.1,179.92615,1640722834437
Fix,GT,37.4139178,-122.0782268,-24.70434953254461,4.7593355,0.1,179.98438,1640722835437
Fix,GT,37.4138646,-122.0782267,-24.651911947339777,7.147752,0.1,179.80212,1640722836437
Fix,GT,37.4137898,-122.0782265,-24.52937863826752,9.437824,0.1,179.8825,1640722837437
Fix,GT,37.4136968,-122.0782266,-24.32823310524225,11.048364,0.1,179.9414,1640722838437
Fix,GT,37.4135901,-122.0782267,-24.01123310524225,12.644587,0.1,179.98743,1640722839437
Fix,GT,37.4134694,-122.0782273,-23.614718549370764,14.117991,0.1,180.15715,1640722840437
Fix,GT,37.4133366,-122.0782277,-22.89195165228844,15.327486,0.1,180.07803,1640722841437
Fix,GT,37.4131952,-122.0782281,-21.953242969393727,15.913254,0.1,180.05055,1640722842437
Fix,GT,37.413051,-122.0782281,-20.950728415846825,16.010231,0.1,179.8877,1640722843437
Fix,GT,37.4129074,-122.0782276,-19.83756339359284,15.87355,0.1,179.88458,1640722844437
Fix,GT,37.4127645,-122.0782274,-18.723941461980345,15.841999,0.1,179.96893,1640722845437
Fix,GT,37.4126218,-122.0782273,-17.59972840285301,15.854565,0.1,180.11206,1640722846437
Fix,GT,37.4124783,-122.0782279,-16.601407476216554,15.998899,0.1,180.22603,1640722847437
Fix,GT,37.4123335,-122.0782294,-15.80811665338278,16.14776,0.1,180.65437,1640722848437
Fix,GT,37.4121889,-122.0782322,-15.161174418240783,15.824824,0.1,181.08928,1640722849437
Fix,GT,37.4120487,-122.0782355,-14.6782330866456,15.376724,0.1,181.05511,1640722850437
Fix,GT,37.4119092,-122.0782383,-14.379184072256088,15.540144,0.1,180.9262,1640722851437
Fix,GT,37.4117705,-122.0782403,-14.239728591084482,15.224346,0.1,180.65636,1640722852437
Fix,GT,37.4116349,-122.0782416,-14.277028686225414,14.884666,0.1,180.58078,1640722853437
Fix,GT,37.4115025,-122.0782429,-14.487845045804978,14.435947,0.1,180.6665,1640722854437
Fix,GT,37.411377,-122.0782456,-14.827834528177975,13.238078,0.1,181.85028,1640722855437
Fix,GT,37.4112649,-122.0782572,-15.18541695076227,11.842131,0.1,187.67749,1640722856437
Fix,GT,37.4111654,-122.0782877,-15.70323244097829,11.046502,0.1,198.13109,1640722857437
Fix,GT,37.4110779,-122.0783421,-16.390533863902093,10.807335,0.1,212.01982,1640722858437
Fix,GT,37.411005,-122.0784224,-17.289262549102304,10.841303,0.1,226.81693,1640722859437
Fix,GT,37.4109541,-122.0785262,-18.19654353100061,10.94389,0.1,244.78755,1640722860437
Fix,GT,37.4109342,-122.078648,-19.292921600192784,11.223319,0.1,266.0363,1640722861437
Fix,GT,37.4109496,-122.0787745,-20.40869831264019,11.547517,0.1,284.76453,1640722862437
Fix,GT,37.4109943,-122.0788933,-21.187989587396384,11.738056,0.1,300.4778,1640722863437
Fix,GT,37.4110627,-122.0789944,-21.771688614487648,11.888176,0.1,314.7089,1640722864437
Fix,GT,37.4111507,-122.0790747,-22.19711647224426,12.337133,0.1,328.93515,1640722865437
Fix,GT,37.4112538,-122.0791262,-22.45870871442556,12.32229,0.1,342.95245,1640722866437
Fix,GT,37.4113628,-122.079145,-22.7446012365222,12.174814,0.1,357.68076,1640722867437
Fix,GT,37.4114696,-122.0791229,-23.058009675443174,11.987644,0.1,15.827332,1640722868437
Fix,GT,37.4115629,-122.0790595,-23.22878709182143,11.673506,0.1,34.448547,1640722869437
Fix,GT,37.4116363,-122.0789655,-23.34757279992104,11.818098,0.1,50.681366,1640722870437
Fix,GT,37.4116887,-122.078849,-23.46521290031076,11.843086,0.1,65.18164,1640722871437
Fix,GT,37.411715,-122.0787197,-23.399107496976853,11.904623,0.1,80.79126,1640722872437
Fix,GT,37.411713,-122.0785843,-23.30297087907791,12.204479,0.1,95.79291,1640722873437
Fix,GT,37.4116835,-122.0784487,-23.17945631790161,12.852602,0.1,109.49292,1640722874437
Fix,GT,37.4116331,-122.0783107,-23.12751525002718,14.06922,0.1,115.08826,1640722875437
Fix,GT,37.411574,-122.0781624,-23.056,15.298147,0.1,116.96701,1640722876437
Fix,GT,37.4115059,-122.0780038,-23.00134951835871,16.59973,0.1,118.36328,1640722877437
Fix,GT,37.4114286,-122.0778352,-22.91113592106104,17.822369,0.1,120.3797,1640722878437
Fix,GT,37.4113404,-122.0776597,-22.78521427473426,18.821917,0.1,122.69571,1640722879437
Fix,GT,37.4112459,-122.077477,-22.622563112974166,19.688606,0.1,122.11743,1640722880437
Fix,GT,37.4111514,-122.0772843,-22.422320392906663,20.334583,0.1,120.6243,1640722881437
Fix,GT,37.4110573,-122.0770834,-22.269563111960885,20.902466,0.1,119.651245,1640722882437
Fix,GT,37.4109634,-122.0768752,-22.066214252114296,21.439644,0.1,118.8569,1640722883437
Fix,GT,37.4108692,-122.07666,-21.88886473068596,21.974476,0.1,117.99866,1640722884437
Fix,GT,37.410776,-122.0764378,-21.67044660806656,22.443954,0.1,116.95712,1640722885437
Fix,GT,37.4106825,-122.0762107,-21.129311314851048,22.785252,0.1,116.90555,1640722886437
Fix,GT,37.4105883,-122.0759808,-20.34627185100317,22.978401,0.1,116.829315,1640722887437
Fix,GT,37.4104943,-122.0757485,-19.36924329435825,23.124878,0.1,116.52832,1640722888437
Fix,GT,37.4104004,-122.0755149,-18.272999994456768,23.18911,0.1,116.53351,1640722889437
Fix,GT,37.4103056,-122.0752817,-17.108864573568106,23.179123,0.1,117.08246,1640722890437
Fix,GT,37.4102092,-122.0750491,-15.989893655806782,23.185822,0.1,117.30316,1640722891437
Fix,GT,37.4101122,-122.07482,-15.004436862945555,22.691784,0.1,118.18045,1640722892437
Fix,GT,37.4100141,-122.0745985,-14.134573196142911,22.177658,0.1,119.37314,1640722893437
Fix,GT,37.4099157,-122.0743838,-13.34184461015463,21.703102,0.1,119.895874,1640722894437
Fix,GT,37.4098208,-122.0741723,-12.654766941070555,21.252535,0.1,118.40015,1640722895437
Fix,GT,37.4097346,-122.0739597,-12.101097052574158,21.078022,0.1,115.63959,1640722896437
Fix,GT,37.4096574,-122.0737413,-11.669776326149702,21.233784,0.1,112.174164,1640722897437
Fix,GT,37.40959,-122.0735152,-11.43453395688534,21.510181,0.1,108.97943,1640722898437
Fix,GT,37.4095306,-122.0732822,-11.289077656030656,21.82005,0.1,106.591675,1640722899437
Fix,GT,37.4094747,-122.0730448,-11.298999663263558,21.896229,0.1,106.18402,1640722900437
Fix,GT,37.409416,-122.0728101,-11.40267996954918,21.639286,0.1,108.280365,1640722901437
Fix,GT,37.409348,-122.0725825,-11.62946605205536,21.499079,0.1,112.034,1640722902437
Fix,GT,37.4092669,-122.0723606,-11.87787418946624,21.765509,0.1,116.16342,1640722903437
Fix,GT,37.4091749,-122.072141,-12.209815561771393,22.157707,0.1,118.47174,1640722904437
Fix,GT,37.409077,-122.0719196,-12.726611378103495,22.690918,0.1,119.147705,1640722905437
Fix,GT,37.4089762,-122.071693,-13.428126328349112,23.215515,0.1,118.92398,1640722906437
Fix,GT,37.4088739,-122.0714628,-14.198126760989428,23.397215,0.1,118.938416,1640722907437
Fix,GT,37.4087721,-122.0712316,-15.0040195581913,23.36093,0.1,118.66824,1640722908437
Fix,GT,37.4086711,-122.0710007,-15.83521378016472,23.27819,0.1,118.69296,1640722909437
Fix,GT,37.4085716,-122.0707698,-16.699078361839053,23.182047,0.1,118.28403,1640722910437
Fix,GT,37.4084741,-122.0705382,-17.403990440368652,23.223848,0.1,117.120544,1640722911437
Fix,GT,37.4083855,-122.0702988,-17.981553514599803,23.54015,0.1,112.77481,1640722912437
Fix,GT,37.4083093,-122.0700486,-18.52041703781485,23.892086,0.1,109.27438,1640722913437
Fix,GT,37.4082412,-122.0697903,-18.907980094373222,24.287483,0.1,107.47757,1640722914437
Fix,GT,37.4081753,-122.0695263,-19.13665050458908,24.679165,0.1,107.3436,1640722915437
Fix,GT,37.4081083,-122.0692584,-19.15669841849804,25.00755,0.1,107.280945,1640722916437
Fix,GT,37.4080409,-122.0689875,-19.017417306184768,25.24221,0.1,107.33899,1640722917437
Fix,GT,37.4079729,-122.0687154,-18.887786438703536,25.23964,0.1,107.35358,1640722918437
Fix,GT,37.4079053,-122.0684431,-18.9,25.267998,0.1,106.838684,1640722919437
Fix,GT,37.4078425,-122.0681682,-18.873757288217547,25.375715,0.1,104.92389,1640722920437
Fix,GT,37.4077859,-122.0678913,-18.94262079125643,25.16853,0.1,103.81259,1640722921437
Fix,GT,37.407733,-122.0676157,-19.04851400962472,25.114937,0.1,103.41104,1640722922437
Fix,GT,37.4076786,-122.0673392,-19.110679666996003,25.319742,0.1,104.01282,1640722923437
Fix,GT,37.4076211,-122.0670611,-19.32216509109736,25.556267,0.1,104.7128,1640722924437
Fix,GT,37.4075613,-122.0667812,-19.435757868677378,25.722406,0.1,105.05493,1640722925437
Fix,GT,37.4075002,-122.0665004,-19.39262135511637,25.808554,0.1,105.28583,1640722926437
Fix,GT,37.4074384,-122.066219,-19.38389380308985,25.875427,0.1,105.22391,1640722927437
Fix,GT,37.407377,-122.0659367,-19.30794167804718,25.941471,0.1,105.20752,1640722928437
Fix,GT,37.4073153,-122.0656539,-19.185533868968488,25.973751,0.1,105.122406,1640722929437
Fix,GT,37.4072538,-122.0653702,-19.13259276232123,26.068539,0.1,104.92026,1640722930437
Fix,GT,37.4071927,-122.0650855,-19.079243277728555,26.11715,0.1,105.07007,1640722931437
Fix,GT,37.4071307,-122.0648005,-19.05475785899162,26.208237,0.1,105.28818,1640722932437
Fix,GT,37.4070677,-122.0645144,-19.067651087999344,26.361832,0.1,105.326935,1640722933437
Fix,GT,37.4070043,-122.0642266,-19.00078645837307,26.534027,0.1,105.33359,1640722934437
Fix,GT,37.4069409,-122.0639366,-18.984164540201427,26.647337,0.1,105.1611,1640722935437
Fix,GT,37.406878,-122.0636464,-18.968271876454352,26.615833,0.1,105.09247,1640722936437
Fix,GT,37.4068155,-122.0633562,-19.00878646194935,26.625065,0.1,105.03888,1640722937437
Fix,GT,37.406753,-122.0630656,-19.042543755769728,26.689194,0.1,105.00116,1640722938437
Fix,GT,37.4066903,-122.062774,-19.106165111422538,26.770382,0.1,105.06885,1640722939437
Fix,GT,37.4066268,-122.062482,-19.109106767237183,26.827057,0.1,105.28671,1640722940437
Fix,GT,37.4065628,-122.0621895,-19.10627188003064,26.880756,0.1,105.195526,1640722941437
Fix,GT,37.4064991,-122.0618963,-19.113728119254112,26.934317,0.1,105.18152,1640722942437
Fix,GT,37.4064346,-122.0616027,-19.167135940909382,26.997784,0.1,105.39484,1640722943437
Fix,GT,37.4063698,-122.0613085,-19.182378647089003,27.043438,0.1,105.36783,1640722944437
Fix,GT,37.4063045,-122.0610138,-19.18002917766571,27.11259,0.1,105.50452,1640722945437
Fix,GT,37.4062393,-122.0607183,-19.151106763362883,27.158463,0.1,105.16226,1640722946437
Fix,GT,37.4061754,-122.0604219,-19.10124270510673,27.224913,0.1,104.944824,1640722947437
Fix,GT,37.4061119,-122.0601245,-19.08200056868792,27.293224,0.1,104.95383,1640722948437
Fix,GT,37.4060475,-122.0598264,-19.07221295374632,27.357594,0.1,105.12698,1640722949437
Fix,GT,37.4059827,-122.059528,-19.043242704153062,27.39606,0.1,105.16391,1640722950437
Fix,GT,37.4059173,-122.0592293,-19.0171061925292,27.441868,0.1,105.27765,1640722951437
Fix,GT,37.4058519,-122.0589301,-19.023650537967683,27.496407,0.1,105.21033,1640722952437
Fix,GT,37.4057863,-122.0586303,-19.01445678564906,27.549421,0.1,105.35562,1640722953437
Fix,GT,37.4057204,-122.05833,-19.04116570138931,27.591438,0.1,105.291504,1640722954437
Fix,GT,37.4056539,-122.0580295,-19.09499943092465,27.635866,0.1,105.451385,1640722955437
Fix,GT,37.4055872,-122.0577286,-19.079728106737136,27.663836,0.1,105.379486,1640722956437
Fix,GT,37.4055211,-122.057427,-19.09624327108264,27.72284,0.1,105.24451,1640722957437
Fix,GT,37.4054553,-122.0571245,-19.12848483306169,27.791634,0.1,105.10693,1640722958437
Fix,GT,37.4053894,-122.0568212,-19.15197023454309,27.859474,0.1,105.21338,1640722959437
Fix,GT,37.4053227,-122.0565177,-19.160407274067403,27.91259,0.1,105.44922,1640722960437
Fix,GT,37.4052545,-122.0562137,-19.1886213504076,27.968918,0.1,105.94147,1640722961437
Fix,GT,37.4051836,-122.0559105,-19.16951459908485,27.991526,0.1,106.638336,1640722962437
Fix,GT,37.4051093,-122.0556083,-19.194514027684928,28.014656,0.1,107.39038,1640722963437
Fix,GT,37.4050323,-122.0553066,-19.153727528870103,28.045773,0.1,107.906555,1640722964437
Fix,GT,37.4049533,-122.0550062,-19.04334888127446,27.915405,0.1,108.47876,1640722965437
Fix,GT,37.4048722,-122.0547093,-18.993242699384687,27.684849,0.1,109.0965,1640722966437
Fix,GT,37.4047896,-122.0544152,-18.926261273294685,27.55667,0.1,109.35205,1640722967437
Fix,GT,37.4047072,-122.0541218,-18.480173670232297,27.545166,0.1,109.30734,1640722968437
Fix,GT,37.4046248,-122.053828,-17.812737156391144,27.593716,0.1,109.23938,1640722969437
Fix,GT,37.4045424,-122.0535333,-16.922134933471682,27.714008,0.1,109.20337,1640722970437
Fix,GT,37.4044595,-122.0532374,-15.869483895093204,27.824358,0.1,109.24249,1640722971437
Fix,GT,37.4043765,-122.0529403,-14.8062416613698,27.934715,0.1,109.18521,1640722972437
Fix,GT,37.4042942,-122.0526407,-13.89019331908226,28.200802,0.1,108.73065,1640722973437
Fix,GT,37.4042123,-122.0523372,-13.162901896446945,28.520126,0.1,108.48428,1640722974437
Fix,GT,37.4041313,-122.0520297,-12.647659965485335,28.835936,0.1,107.85492,1640722975437
Fix,GT,37.4040517,-122.0517188,-12.22809665453434,28.947222,0.1,107.64337,1640722976437
Fix,GT,37.4039733,-122.0514067,-11.93618392404914,28.977562,0.1,107.099,1640722977437
Fix,GT,37.4038973,-122.0510936,-11.975029208660125,28.996923,0.1,106.55652,1640722978437
Fix,GT,37.4038229,-122.0507792,-12.268329959094524,29.081276,0.1,106.23035,1640722979437
Fix,GT,37.4037501,-122.0504629,-12.618039304077628,29.23785,0.1,105.694,1640722980437
Fix,GT,37.4036792,-122.0501441,-13.241913444936277,29.350914,0.1,105.303406,1640722981437
Fix,GT,37.4036093,-122.0498237,-14.140943082779646,29.45388,0.1,105.04617,1640722982437
Fix,GT,37.4035392,-122.0495023,-15.057321316242216,29.534801,0.1,105.239044,1640722983437
Fix,GT,37.4034689,-122.0491803,-16.076030784398316,29.594296,0.1,105.14972,1640722984437
Fix,GT,37.4033982,-122.0488576,-17.20516677224636,29.662785,0.1,105.21686,1640722985437
Fix,GT,37.4033276,-122.0485342,-18.22607916909456,29.695322,0.1,105.19177,1640722986437
Fix,GT,37.4032566,-122.0482108,-18.99768988108635,29.712166,0.1,105.29669,1640722987437
Fix,GT,37.4031854,-122.0478878,-19.532329753100875,29.608728,0.1,105.36441,1640722988437
Fix,GT,37.4031145,-122.0475664,-19.788407275736333,29.419418,0.1,105.196594,1640722989437
Fix,GT,37.4030447,-122.0472471,-19.83627250170708,29.211567,0.1,105.128845,1640722990437
Fix,GT,37.4029757,-122.0469296,-19.77886404424905,29.076256,0.1,105.1535,1640722991437
Fix,GT,37.4029065,-122.0466132,-19.72821289128065,29.016651,0.1,105.260895,1640722992437
Fix,GT,37.4028371,-122.0462976,-19.6784853913784,28.982395,0.1,105.36636,1640722993437
Fix,GT,37.4027675,-122.0459823,-19.63286404299736,28.932198,0.1,105.192444,1640722994437
Fix,GT,37.4026988,-122.0456675,-19.58672808492184,28.81605,0.1,105.130066,1640722995437
Fix,GT,37.4026315,-122.045355,-19.549971360951663,28.490932,0.1,104.96991,1640722996437
Fix,GT,37.4025649,-122.0450464,-19.51386404138804,28.119564,0.1,104.96704,1640722997437
Fix,GT,37.4024991,-122.044742,-19.49624269390106,27.743511,0.1,105.095825,1640722998437
Fix,GT,37.4024339,-122.0444416,-19.503621928066018,27.377619,0.1,105.11084,1640722999437
Fix,GT,37.402369,-122.0441454,-19.502,27.016048,0.1,105.210815,1640723000437
Fix,GT,37.4023052,-122.043853,-19.52362134641409,26.65469,0.1,105.13577,1640723001437
Fix,GT,37.4022423,-122.0435646,-19.52965115767717,26.305798,0.1,105.23422,1640723002437
Fix,GT,37.4021799,-122.0432799,-19.5509994173348,25.976997,0.1,105.25052,1640723003437
Fix,GT,37.4021181,-122.0429987,-19.570649994641546,25.65905,0.1,105.19977,1640723004437
Fix,GT,37.4020573,-122.0427209,-19.62413537746668,25.339542,0.1,105.17822,1640723005437
Fix,GT,37.4019977,-122.0424465,-19.68278712800145,25.04654,0.1,105.112,1640723006437
Fix,GT,37.4019383,-122.0421753,-19.765514616966247,24.761675,0.1,105.22821,1640723007437
Fix,GT,37.4018793,-122.041907,-19.81727192616463,24.563366,0.1,105.286285,1640723008437
Fix,GT,37.4018206,-122.0416397,-19.88778713649512,24.515858,0.1,105.270355,1640723009437
Fix,GT,37.401762,-122.0413729,-19.96513536837697,24.490374,0.1,105.16864,1640723010437
Fix,GT,37.4017041,-122.0411061,-20.05297076416016,24.468212,0.1,105.07361,1640723011437
Fix,GT,37.4016458,-122.0408397,-20.075863437950613,24.450684,0.1,105.2283,1640723012437
Fix,GT,37.4015874,-122.0405737,-20.06748538160324,24.354149,0.1,105.23337,1640723013437
Fix,GT,37.4015302,-122.0403099,-20.03486463323236,24.053413,0.1,105.104706,1640723014437
Fix,GT,37.4014737,-122.0400495,-19.9863786547184,23.690775,0.1,105.159485,1640723015437
Fix,GT,37.4014177,-122.0397937,-19.968864035844803,23.29862,0.1,105.273346,1640723016437
Fix,GT,37.4013624,-122.0395411,-19.930621939241888,23.120064,0.1,105.20047,1640723017437
Fix,GT,37.4013076,-122.0392895,-19.908076894044875,23.082096,0.1,105.106995,1640723018437
Fix,GT,37.4012533,-122.0390379,-19.87375671735406,23.063932,0.1,105.083496,1640723019437
Fix,GT,37.4011986,-122.0387867,-19.841970170110464,23.042053,0.1,105.154236,1640723020437
Fix,GT,37.401144,-122.0385365,-19.817135964512826,22.891415,0.1,105.22739,1640723021437
Fix,GT,37.4010899,-122.0382879,-19.81586462599039,22.695923,0.1,105.20969,1640723022437
Fix,GT,37.401036,-122.0380426,-19.806242690086364,22.389816,0.1,105.37152,1640723023437
Fix,GT,37.4009824,-122.0378005,-19.857,22.09525,0.1,105.3927,1640723024437
Fix,GT,37.4009292,-122.0375607,-19.90605847930908,22.016977,0.1,105.472595,1640723025437
Fix,GT,37.4008757,-122.0373213,-19.98465058469772,21.967064,0.1,105.68866,1640723026437
Fix,GT,37.4008201,-122.0370844,-20.02654385948181,21.731045,0.1,106.94211,1640723027437
Fix,GT,37.4007611,-122.0368522,-20.125165204525,21.450516,0.1,107.97034,1640723028437
Fix,GT,37.4007019,-122.0366233,-20.247165204525,21.183964,0.1,107.72626,1640723029437
Fix,GT,37.4006452,-122.0363968,-20.36905847930908,20.88345,0.1,106.79993,1640723030437
Fix,GT,37.4005933,-122.0361741,-20.46692251443863,20.057423,0.1,105.662994,1640723031437
Fix,GT,37.400547,-122.0359633,-20.55102985131741,18.547932,0.1,105.132355,1640723032437
Fix,GT,37.4005045,-122.0357714,-20.6151645886302,16.647806,0.1,106.22754,1640723033437
Fix,GT,37.4004585,-122.0356045,-20.70654385662079,14.739229,0.1,111.76517,1640723034437
Fix,GT,37.4004009,-122.0354606,-20.89354447951913,13.991817,0.1,120.11017,1640723035437
Fix,GT,37.4003263,-122.0353357,-20.9840292377472,13.656517,0.1,131.64587,1640723036437
Fix,GT,37.400231,-122.0352428,-20.91194214743376,13.276844,0.1,148.92053,1640723037437
Fix,GT,37.4001201,-122.0351919,-20.76121345281601,13.110405,0.1,166.96643,1640723038437
Fix,GT,37.4000028,-122.0351883,-20.6473488009274,13.082058,0.1,185.94481,1640723039437
Fix,GT,37.3998902,-122.0352295,-20.533077487111093,13.057492,0.1,202.69485,1640723040437
Fix,GT,37.3997907,-122.0353072,-20.40929033091664,13.036421,0.1,216.84131,1640723041437
Fix,GT,37.3997048,-122.0354061,-20.27334881207347,12.851736,0.1,225.56587,1640723042437
Fix,GT,37.3996307,-122.035517,-20.19394092106819,12.922872,0.1,232.70702,1640723043437
Fix,GT,37.3995663,-122.0356405,-20.01829034256935,13.284156,0.1,239.58778,1640723044437
Fix,GT,37.399513,-122.0357758,-19.751746492683885,13.492384,0.1,246.69322,1640723045437
Fix,GT,37.3994742,-122.0359201,-19.364581877470016,13.544331,0.1,254.70346,1640723046437
Fix,GT,37.3994525,-122.0360697,-18.949659928232432,13.437994,0.1,263.2603,1640723047437
Fix,GT,37.3994522,-122.0362193,-18.45803856152296,13.018044,0.1,275.56543,1640723048437
Fix,GT,37.3994828,-122.0363563,-17.9397363012135,12.26273,0.1,292.21954,1640723049437
Fix,GT,37.3995389,-122.0364701,-17.36396103823185,11.563911,0.1,307.5685,1640723050437
Fix,GT,37.3996136,-122.0365573,-16.86903850725293,11.308044,0.1,322.57568,1640723051437
Fix,GT,37.3997045,-122.0366166,-16.401931274652483,11.519402,0.1,338.00778,1640723052437
Fix,GT,37.3998053,-122.0366427,-15.962338691264389,11.39863,0.1,353.82224,1640723053437
Fix,GT,37.399907,-122.0366333,-15.617747061908243,11.334648,0.1,9.591156,1640723054437
Fix,GT,37.4000028,-122.0365892,-15.342018994152546,11.410601,0.1,25.752533,1640723055437
Fix,GT,37.400087,-122.0365119,-15.065669580459597,11.912989,0.1,41.06122,1640723056437
Fix,GT,37.4001604,-122.0364071,-14.753640335202215,12.828829,0.1,51.54538,1640723057437
Fix,GT,37.4002299,-122.0362846,-14.481367969185111,13.79712,0.1,54.64258,1640723058437
Fix,GT,37.4003025,-122.0361507,-14.19191184422374,14.959704,0.1,55.9104,1640723059437
Fix,GT,37.4003767,-122.0360004,-13.955184200048446,16.336609,0.1,58.7688,1640723060437
Fix,GT,37.4004527,-122.0358331,-13.796533611178395,17.760572,0.1,60.64853,1640723061437
Fix,GT,37.4005317,-122.0356489,-13.736621344447135,19.262428,0.1,61.514435,1640723062437
Fix,GT,37.4006177,-122.0354504,-13.743485377550124,20.735144,0.1,60.62384,1640723063437
Fix,GT,37.4007124,-122.0352398,-13.885058489799498,21.957779,0.1,60.05356,1640723064437
Fix,GT,37.4008121,-122.0350188,-14.107223701536656,22.948624,0.1,60.796875,1640723065437
Fix,GT,37.4009101,-122.0347853,-14.40035966658592,23.728296,0.1,63.055664,1640723066437
Fix,GT,37.4010036,-122.0345398,-14.841116977691652,24.38858,0.1,64.969055,1640723067437
Fix,GT,37.4010941,-122.0342866,-15.407748577594756,24.700518,0.1,66.08255,1640723068437
Fix,GT,37.4011822,-122.034029,-16.12556437754631,24.939392,0.1,66.9931,1640723069437
Fix,GT,37.401268,-122.0337669,-16.97656387001276,25.227375,0.1,67.60803,1640723070437
Fix,GT,37.4013532,-122.0335008,-17.919107708334924,25.562946,0.1,68.14264,1640723071437
Fix,GT,37.4014368,-122.0332296,-18.88924364602565,25.918982,0.1,69.080505,1640723072437
Fix,GT,37.4015181,-122.0329531,-19.66774857354164,26.239363,0.1,69.96393,1640723073437
Fix,GT,37.4015967,-122.0326724,-20.2429035282135,26.428276,0.1,70.75049,1640723074437
Fix,GT,37.4016729,-122.032389,-20.567329806178808,26.553097,0.1,71.496704,1640723075437
Fix,GT,37.4017468,-122.0321024,-20.744573107481003,26.794174,0.1,72.21216,1640723076437
Fix,GT,37.4018188,-122.031812,-20.936164584308862,27.04486,0.1,72.59622,1640723077437
Fix,GT,37.4018915,-122.0315191,-21.07854386305809,27.276169,0.1,72.42828,1640723078437
Fix,GT,37.4019655,-122.0312241,-21.30481579458713,27.505035,0.1,72.25769,1640723079437
Fix,GT,37.4020403,-122.0309264,-21.55270906949044,27.774445,0.1,72.30701,1640723080437
Fix,GT,37.4021154,-122.0306258,-21.75033106029033,27.998878,0.1,72.439026,1640723081437
Fix,GT,37.4021909,-122.0303227,-21.88889327538013,28.22984,0.1,72.42151,1640723082437
Fix,GT,37.4022668,-122.0300171,-22.093437134265898,28.448431,0.1,72.55737,1640723083437
Fix,GT,37.4023433,-122.0297092,-22.228271267175675,28.656609,0.1,72.41623,1640723084437
Fix,GT,37.4024211,-122.0293996,-22.31475730967521,28.827873,0.1,72.24573,1640723085437
Fix,GT,37.4024993,-122.0290887,-22.131019009709355,28.909077,0.1,72.29559,1640723086437
Fix,GT,37.4025776,-122.0287771,-21.60390270489454,28.90717,0.1,72.40036,1640723087437
Fix,GT,37.402655,-122.0284657,-20.86843569421768,28.836416,0.1,72.481384,1640723088437
Fix,GT,37.4027317,-122.0281556,-19.901648555696006,28.680983,0.1,72.54047,1640723089437
Fix,GT,37.4028075,-122.0278468,-19.02487225872278,28.47995,0.1,72.903015,1640723090437
Fix,GT,37.4028805,-122.0275403,-18.371280716896056,28.177258,0.1,73.47162,1640723091437
Fix,GT,37.4029499,-122.0272355,-17.792853811264038,27.98035,0.1,74.34424,1640723092437
Fix,GT,37.4030154,-122.0269311,-17.47016520059109,27.881927,0.1,75.00604,1640723093437
Fix,GT,37.4030782,-122.0266263,-17.283348902851344,27.88252,0.1,75.659485,1640723094437
Fix,GT,37.403138,-122.02632,-17.279330913931133,27.939705,0.1,76.390564,1640723095437
Fix,GT,37.4031949,-122.0260119,-17.41433039855957,28.059528,0.1,77.15347,1640723096437
Fix,GT,37.403249,-122.0257013,-17.73428214263916,28.244614,0.1,77.80054,1640723097437
Fix,GT,37.4033009,-122.0253878,-18.23169057106972,28.46614,0.1,78.36792,1640723098437
Fix,GT,37.4033512,-122.0250714,-18.82237040436268,28.620827,0.1,78.76004,1640723099437
Fix,GT,37.403401,-122.0247533,-19.61632158374786,28.780834,0.1,78.54999,1640723100437
Fix,GT,37.4034518,-122.0244335,-20.57418623539805,28.964977,0.1,78.66928,1640723101437
Fix,GT,37.4035027,-122.0241114,-21.59803127977252,29.189392,0.1,78.61609,1640723102437
Fix,GT,37.4035551,-122.023787,-22.613263789236544,29.427296,0.1,78.21338,1640723103437
Fix,GT,37.40361,-122.0234609,-23.431399776756763,29.560179,0.1,77.81003,1640723104437
Fix,GT,37.4036692,-122.0231348,-24.0498252786398,29.633444,0.1,76.391846,1640723105437
Fix,GT,37.4037326,-122.0228095,-24.432222942322493,29.639236,0.1,75.97116,1640723106437
Fix,GT,37.4037974,-122.0224849,-24.56305847167969,29.602875,0.1,75.67908,1640723107437
Fix,GT,37.4038628,-122.0221611,-24.692437126159668,29.551376,0.1,75.55524,1640723108437
Fix,GT,37.4039287,-122.021838,-24.945864036560057,29.491589,0.1,75.4769,1640723109437
Fix,GT,37.4039949,-122.0215159,-25.130408639431,29.4124,0.1,75.10101,1640723110437
Fix,GT,37.4040629,-122.0211953,-25.280698082447053,29.31049,0.1,74.98059,1640723111437
Fix,GT,37.4041322,-122.0208763,-25.27848462831974,29.216557,0.1,74.245544,1640723112437
Fix,GT,37.4042026,-122.0205589,-25.278407137870783,29.114212,0.1,74.104126,1640723113437
Fix,GT,37.4042744,-122.0202432,-25.43854385519028,29.00718,0.1,73.676056,1640723114437
Fix,GT,37.4043464,-122.0199289,-25.51740713182092,28.892397,0.1,73.76587,1640723115437
Fix,GT,37.4044184,-122.0196156,-25.611543856620788,28.876846,0.1,73.65991,1640723116437
Fix,GT,37.4044907,-122.0193017,-25.61035018008948,28.955624,0.1,73.70102,1640723117437
Fix,GT,37.4045623,-122.0189888,-25.6054071302712,28.662762,0.1,73.887634,1640723118437
Fix,GT,37.4046332,-122.0186797,-25.632135200560093,28.288208,0.1,73.70236,1640723119437
Fix,GT,37.4047031,-122.0183748,-25.63865058386326,27.887003,0.1,73.70068,1640723120437
Fix,GT,37.4047717,-122.0180742,-25.714136730909345,27.475212,0.1,73.96954,1640723121437
Fix,GT,37.4048388,-122.0177778,-25.79368059155345,27.107655,0.1,73.79361,1640723122437
Fix,GT,37.404906,-122.0174854,-25.90657232668996,26.778553,0.1,73.66272,1640723123437
Fix,GT,37.4049727,-122.0171967,-26.01527115431428,26.446692,0.1,73.38254,1640723124437
Fix,GT,37.4050416,-122.016912,-26.070107502669096,26.297323,0.1,72.5567,1640723125437
Fix,GT,37.4051124,-122.0166283,-26.124029238700867,26.354082,0.1,72.24057,1640723126437
Fix,GT,37.4051842,-122.0163442,-26.152242690324783,26.414433,0.1,72.210846,1640723127437
Fix,GT,37.4052549,-122.0160589,-26.15551461935044,26.491552,0.1,72.81906,1640723128437
Fix,GT,37.4053232,-122.0157722,-26.206377873808144,26.493805,0.1,73.16376,1640723129437
Fix,GT,37.4053904,-122.0154852,-26.26851461935044,26.50066,0.1,73.40808,1640723130437
Fix,GT,37.4054571,-122.0151978,-26.32189405813813,26.557667,0.1,73.595245,1640723131437
Fix,GT,37.4055241,-122.0149086,-26.3552419051528,26.774355,0.1,73.39993,1640723132437
Fix,GT,37.4055916,-122.0146171,-26.38562213173509,27.000587,0.1,73.58649,1640723133437
Fix,GT,37.4056595,-122.0143226,-26.446272715866563,27.258251,0.1,73.67096,1640723134437
Fix,GT,37.4057276,-122.0140257,-26.485651371657845,27.447186,0.1,73.74213,1640723135437
Fix,GT,37.405796,-122.0137269,-26.558135963797568,27.580091,0.1,73.68356,1640723136437
Fix,GT,37.405865,-122.013427,-26.6118932723999,27.703283,0.1,73.67703,1640723137437
Fix,GT,37.4059341,-122.0131257,-26.633893272399902,27.829472,0.1,73.73486,1640723138437
Fix,GT,37.4060031,-122.0128227,-26.6979992043376,27.9648,0.1,73.836975,1640723139437
Fix,GT,37.4060726,-122.012518,-26.758436328381297,28.158325,0.1,73.78824,1640723140437
Fix,GT,37.4061431,-122.0122108,-26.873183418810367,28.44625,0.1,73.64209,1640723141437
Fix,GT,37.406215,-122.0119009,-26.925223670959475,28.7193,0.1,73.46161,1640723142437
Fix,GT,37.4062876,-122.0115879,-26.98202923583985,28.998611,0.1,73.62015,1640723143437
Fix,GT,37.4063602,-122.0112717,-27.07513596343994,29.239122,0.1,73.80374,1640723144437
Fix,GT,37.4064329,-122.0109535,-27.14127192687988,29.356451,0.1,73.80563,1640723145437
Fix,GT,37.4065057,-122.0106341,-27.244407890319824,29.470335,0.1,73.86975,1640723146437
Fix,GT,37.4065783,-122.0103133,-27.407408706218007,29.591644,0.1,73.9487,1640723147437
Fix,GT,37.4066512,-122.009991,-27.584224490314725,29.719349,0.1,73.94635,1640723148437
Fix,GT,37.4067248,-122.0096675,-27.70124351680279,29.815536,0.1,73.79895,1640723149437
Fix,GT,37.4067989,-122.0093433,-27.718544678628447,29.894558,0.1,73.7854,1640723150437
Fix,GT,37.406873,-122.0090184,-27.67375730872154,29.941761,0.1,73.8689,1640723151437
Fix,GT,37.4069467,-122.008693,-27.49050440609455,29.930202,0.1,74.01349,1640723152437
Fix,GT,37.40702,-122.0083678,-27.236456147670744,29.918507,0.1,73.93109,1640723153437
Fix,GT,37.4070939,-122.0080428,-27.044835607826712,29.919838,0.1,73.79886,1640723154437
Fix,GT,37.4071679,-122.0077179,-26.85929014965892,29.90234,0.1,73.79541,1640723155437
Fix,GT,37.4072421,-122.0073931,-26.675426915168764,29.901178,0.1,73.81732,1640723156437
Fix,GT,37.407316,-122.0070684,-26.46569884061813,29.897858,0.1,73.87286,1640723157437
Fix,GT,37.4073895,-122.0067433,-26.35045536401868,29.950031,0.1,74.07825,1640723158437
Fix,GT,37.4074626,-122.0064167,-26.321863252878188,30.11223,0.1,74.07471,1640723159437
Fix,GT,37.4075355,-122.0060878,-26.37407749485969,30.319141,0.1,74.319824,1640723160437
Fix,GT,37.4076082,-122.0057563,-26.50833118110895,30.53479,0.1,74.45969,1640723161437
Fix,GT,37.4076809,-122.0054222,-26.78611773079634,30.778612,0.1,74.54373,1640723162437
Fix,GT,37.4077539,-122.0050853,-27.11584581577778,31.041336,0.1,74.56918,1640723163437
Fix,GT,37.4078281,-122.0047456,-27.46995092001557,31.308384,0.1,74.38953,1640723164437
Fix,GT,37.4079029,-122.0044034,-27.74049641337991,31.514732,0.1,74.43408,1640723165437
Fix,GT,37.4079785,-122.0040591,-27.96805929976702,31.719906,0.1,74.36621,1640723166437
Fix,GT,37.4080546,-122.0037125,-28.132030071526763,31.90786,0.1,74.368195,1640723167437
Fix,GT,37.4081308,-122.0033642,-28.21437949499488,31.992882,0.1,74.45807,1640723168437
Fix,GT,37.4082066,-122.0030158,-28.235999158501627,31.938587,0.1,74.53168,1640723169437
Fix,GT,37.4082817,-122.0026677,-28.27362134587765,31.92022,0.1,74.700714,1640723170437
Fix,GT,37.4083565,-122.0023194,-28.317271924734115,31.930378,0.1,74.68787,1640723171437
Fix,GT,37.4084315,-122.0019712,-28.331894115060567,31.941612,0.1,74.58859,1640723172437
Fix,GT,37.4085071,-122.0016229,-28.374135962367056,31.96199,0.1,74.47458,1640723173437
Fix,GT,37.4085831,-122.0012745,-28.39200084614754,31.975315,0.1,74.43634,1640723174437
Fix,GT,37.4086589,-122.000926,-28.45451376888156,31.988222,0.1,74.58139,1640723175437
Fix,GT,37.4087349,-122.0005774,-28.471621345758443,31.99337,0.1,74.39252,1640723176437
Fix,GT,37.4088115,-122.0002291,-28.513379504024982,31.996395,0.1,74.323975,1640723177437
Fix,GT,37.408888,-121.9998805,-28.53610587784648,32.01385,0.1,74.45587,1640723178437
Fix,GT,37.4089639,-121.9995315,-28.586106728196143,32.019794,0.1,74.51602,1640723179437
Fix,GT,37.4090398,-121.9991827,-28.617135963439942,31.979923,0.1,74.52954,1640723180437
Fix,GT,37.4091148,-121.9988344,-28.674758163809773,31.88538,0.1,74.74451,1640723181437
Fix,GT,37.409189,-121.9984874,-28.715758165508504,31.724915,0.1,74.76828,1640723182437
Fix,GT,37.4092628,-121.9981419,-28.771786549568176,31.595451,0.1,74.76752,1640723183437
Fix,GT,37.4093372,-121.997798,-28.7106497297585,31.520285,0.1,74.33557,1640723184437
Fix,GT,37.4094124,-121.9974551,-28.731241833627223,31.450426,0.1,74.36209,1640723185437
Fix,GT,37.4094876,-121.997113,-28.742379511684177,31.38245,0.1,74.34396,1640723186437
Fix,GT,37.4095624,-121.9967715,-28.77613596558571,31.316032,0.1,74.405396,1640723187437
Fix,GT,37.4096369,-121.9964304,-28.798241831153632,31.340414,0.1,74.4653,1640723188437
Fix,GT,37.409712,-121.9960876,-28.817999141156672,31.581116,0.1,74.39755,1640723189437
Fix,GT,37.4097874,-121.9957427,-28.83975731098652,31.709656,0.1,74.52478,1640723190437
Fix,GT,37.409862,-121.9953968,-28.86243628391624,31.738953,0.1,74.706085,1640723191437
Fix,GT,37.4099365,-121.9950506,-28.868349410295487,31.750172,0.1,74.593475,1640723192437
Fix,GT,37.4100112,-121.9947046,-28.883378655791283,31.709906,0.1,74.64996,1640723193437
Fix,GT,37.4100859,-121.9943593,-28.889757311820983,31.622555,0.1,74.50461,1640723194437
Fix,GT,37.4101607,-121.9940149,-28.90451376262307,31.59351,0.1,74.583435,1640723195437
Fix,GT,37.4102353,-121.9936706,-28.903485375642774,31.575771,0.1,74.64026,1640723196437
Fix,GT,37.4103099,-121.9933266,-28.88013596844673,31.55199,0.1,74.51608,1640723197437
Fix,GT,37.4103848,-121.9929831,-28.815105859994887,31.499561,0.1,74.454285,1640723198437
Fix,GT,37.4104595,-121.9926401,-28.79175731265545,31.461737,0.1,74.621765,1640723199437
Fix,GT,37.4105336,-121.9922973,-28.78210671806336,31.411716,0.1,74.57852,1640723200437
Fix,GT,37.4106078,-121.9919554,-28.723864030480385,31.333206,0.1,74.49448,1640723201437
Fix,GT,37.4106821,-121.9916144,-28.68056283736229,31.25076,0.1,74.500824,1640723202437
Fix,GT,37.4107558,-121.9912743,-28.533833925634625,31.143066,0.1,74.6611,1640723203437
Fix,GT,37.4108285,-121.9909352,-28.37945611834526,31.040682,0.1,74.55475,1640723204437
Fix,GT,37.4109031,-121.9905978,-28.29794064521789,30.962013,0.1,74.18585,1640723205437
Fix,GT,37.410978,-121.9902616,-28.10604736360908,30.85048,0.1,74.264496,1640723206437
Fix,GT,37.4110525,-121.9899267,-27.947806345343587,30.695484,0.1,74.04721,1640723207437
Fix,GT,37.4111288,-121.9895945,-27.746397592782976,30.514156,0.1,73.40906,1640723208437
Fix,GT,37.4112085,-121.9892656,-27.40950511613488,30.337147,0.1,72.472534,1640723209437
Fix,GT,37.4112899,-121.9889395,-27.00995959407091,30.169697,0.1,72.325195,1640723210437
Fix,GT,37.4113728,-121.988616,-26.51582520836592,29.995504,0.1,71.69278,1640723211437
Fix,GT,37.4114577,-121.9882951,-26.075474238455293,29.851746,0.1,71.20627,1640723212437
Fix,GT,37.4115444,-121.9879769,-25.57633902978897,29.70533,0.1,70.56183,1640723213437
Fix,GT,37.4116337,-121.9876614,-25.137718431442977,29.549606,0.1,70.00012,1640723214437
Fix,GT,37.4117242,-121.9873498,-24.712369020044804,29.145628,0.1,69.50464,1640723215437
Fix,GT,37.411816,-121.9870438,-24.395533526241778,28.745237,0.1,68.96686,1640723216437
Fix,GT,37.4119088,-121.9867432,-24.133795085430148,28.323643,0.1,68.3707,1640723217437
Fix,GT,37.4120027,-121.9864482,-23.905474963486192,27.928421,0.1,67.79828,1640723218437
Fix,GT,37.4120974,-121.9861587,-23.72518412709236,27.497902,0.1,67.252014,1640723219437
Fix,GT,37.4121923,-121.9858743,-23.6391359795332,27.094917,0.1,66.88083,1640723220437
Fix,GT,37.4122873,-121.9855947,-23.64834937942028,26.725132,0.1,66.66229,1640723221437
Fix,GT,37.4123766,-121.9853163,-23.697271961927413,26.464817,0.1,68.92087,1640723222437
Fix,GT,37.4124632,-121.9850373,-23.730408652424813,26.578663,0.1,67.704254,1640723223437
Fix,GT,37.4125566,-121.9847597,-23.847952587872744,26.813053,0.1,66.24048,1640723224437
Fix,GT,37.4126571,-121.9844817,-23.88751393264532,27.247297,0.1,64.70572,1640723225437
Fix,GT,37.4127651,-121.9842022,-24.02992259889841,27.758575,0.1,63.30652,1640723226437
Fix,GT,37.4128786,-121.9839196,-24.16667992448807,28.275547,0.1,63.12564,1640723227437
Fix,GT,37.4129943,-121.9836326,-24.2968159147501,28.6025,0.1,62.878967,1640723228437
Fix,GT,37.413112,-121.9833442,-24.36527124711872,28.744606,0.1,62.532684,1640723229437
Fix,GT,37.4132322,-121.9830555,-24.48233057296276,28.966614,0.1,62.146484,1640723230437
Fix,GT,37.4133543,-121.9827641,-24.71316528975964,29.274178,0.1,61.960083,1640723231437
Fix,GT,37.4134788,-121.9824707,-24.918845979660748,29.58069,0.1,61.67389,1640723232437
Fix,GT,37.4136049,-121.9821751,-25.23198048323393,29.761467,0.1,61.738556,1640723233437
Fix,GT,37.4137311,-121.9818775,-25.550875322461128,29.89444,0.1,61.759155,1640723234437
Fix,GT,37.413858,-121.981579,-25.797893319189548,29.984613,0.1,61.75171,1640723235437
Fix,GT,37.4139848,-121.9812798,-25.77983469516039,29.990807,0.1,61.757355,1640723236437
Fix,GT,37.4141118,-121.980981,-25.61704804939032,29.95354,0.1,61.74228,1640723237437
Fix,GT,37.4142381,-121.9806823,-25.39850406777859,29.894453,0.1,61.855316,1640723238437
Fix,GT,37.4143644,-121.9803846,-25.057728010892863,29.798223,0.1,61.755096,1640723239437
Fix,GT,37.4144904,-121.9800879,-24.679912772923707,29.725266,0.1,61.819397,1640723240437
Fix,GT,37.4146154,-121.9797914,-24.35350404024124,29.637598,0.1,61.987244,1640723241437
Fix,GT,37.4147395,-121.9794954,-24.025397360801698,29.569954,0.1,61.92221,1640723242437
Fix,GT,37.4148639,-121.9792001,-23.71109532031417,29.562206,0.1,61.888092,1640723243437
Fix,GT,37.4149885,-121.9789052,-23.36388337469101,29.542612,0.1,61.806366,1640723244437
Fix,GT,37.4151131,-121.9786101,-23.05677531409264,29.55079,0.1,61.910553,1640723245437
Fix,GT,37.4152376,-121.978315,-22.70764066985249,29.584846,0.1,61.831696,1640723246437
Fix,GT,37.4153625,-121.9780194,-22.378640649318697,29.634392,0.1,61.875763,1640723247437
Fix,GT,37.4154878,-121.9777236,-22.130804654270413,29.669285,0.1,61.763855,1640723248437
Fix,GT,37.4156136,-121.9774276,-21.758426639795303,29.743658,0.1,61.61734,1640723249437
Fix,GT,37.4157402,-121.9771308,-21.45855190813541,29.836666,0.1,61.698578,1640723250437
Fix,GT,37.4158667,-121.9768327,-21.0463972773552,29.95222,0.1,61.733337,1640723251437
Fix,GT,37.4159936,-121.9765332,-20.7729419144094,30.09529,0.1,61.792175,1640723252437
Fix,GT,37.416121,-121.9762322,-20.56342722484469,30.261158,0.1,61.775116,1640723253437
Fix,GT,37.4162492,-121.9759294,-20.36491192483902,30.420551,0.1,61.851013,1640723254437
Fix,GT,37.4163778,-121.9756247,-20.2627753008008,30.597904,0.1,61.82788,1640723255437
Fix,GT,37.4165072,-121.9753194,-20.15134930598736,30.579594,0.1,61.773743,1640723256437
Fix,GT,37.4166363,-121.9750145,-20.15600060069561,30.514202,0.1,61.87433,1640723257437
Fix,GT,37.4167644,-121.97471,-20.235544055461883,30.463003,0.1,61.98456,1640723258437
Fix,GT,37.4168919,-121.9744054,-20.366922731399534,30.437052,0.1,62.174713,1640723259437
Fix,GT,37.4170187,-121.9741007,-20.47852494597435,30.421255,0.1,62.122894,1640723260437
Fix,GT,37.4171461,-121.9737963,-20.784662204146382,30.421766,0.1,61.878082,1640723261437
Fix,GT,37.4172747,-121.9734928,-21.15536018514633,30.43471,0.1,61.74353,1640723262437
Fix,GT,37.4174034,-121.9731891,-21.561904274225235,30.45371,0.1,61.74524,1640723263437
Fix,GT,37.4175326,-121.9728854,-21.961738228768112,30.500038,0.1,61.57019,1640723264437
Fix,GT,37.4176623,-121.9725815,-22.29093303626776,30.530106,0.1,61.708008,1640723265437
Fix,GT,37.4177913,-121.9722762,-22.68969107127189,30.631813,0.1,61.937897,1640723266437
Fix,GT,37.417919,-121.9719688,-23.190691086769103,30.758844,0.1,62.65619,1640723267437
Fix,GT,37.4180426,-121.9716569,-23.777098486095667,30.880344,0.1,64.01367,1640723268437
Fix,GT,37.4181596,-121.9713398,-24.307418356895447,30.967445,0.1,66.026276,1640723269437
Fix,GT,37.4182662,-121.9710166,-24.61054484635592,30.98257,0.1,68.49057,1640723270437
Fix,GT,37.4183621,-121.970688,-24.79159191280604,30.948486,0.1,70.64603,1640723271437
Fix,GT,37.4184478,-121.9703559,-24.68369852685928,30.83374,0.1,73.28052,1640723272437
Fix,GT,37.4185194,-121.9700197,-24.519563221246003,30.796257,0.1,76.112976,1640723273437
Fix,GT,37.4185796,-121.9696802,-24.370427180945875,30.802982,0.1,78.27704,1640723274437
Fix,GT,37.4186294,-121.969338,-24.172319835901263,30.807169,0.1,80.576904,1640723275437
Fix,GT,37.4186684,-121.9689933,-24.030591899394988,30.821077,0.1,82.8876,1640723276437
Fix,GT,37.4186961,-121.9686467,-23.97072793149948,30.86951,0.1,85.09985,1640723277437
Fix,GT,37.4187143,-121.9682985,-23.796018325209616,30.894794,0.1,86.80017,1640723278437
Fix,GT,37.4187273,-121.9679496,-23.749603711336853,30.94546,0.1,87.24399,1640723279437
Fix,GT,37.4187392,-121.9676,-23.871408821851013,31.020199,0.1,87.36481,1640723280437
Fix,GT,37.4187511,-121.9672495,-24.184816226959228,31.104977,0.1,87.25995,1640723281437
Fix,GT,37.4187635,-121.9668977,-24.22040739363432,31.251743,0.1,87.18033,1640723282437
Fix,GT,37.4187757,-121.9665437,-24.474253791332245,31.491627,0.1,87.38434,1640723283437
Fix,GT,37.4187873,-121.9661868,-24.87766118261218,31.740551,0.1,87.44046,1640723284437
Fix,GT,37.4187989,-121.9658274,-25.382555339992045,31.930267,0.1,87.430664,1640723285437
Fix,GT,37.4188105,-121.9654665,-25.843253053873774,31.99129,0.1,87.44919,1640723286437
Fix,GT,37.4188223,-121.9651053,-26.31669219437241,32.024765,0.1,87.37573,1640723287437
Fix,GT,37.4188343,-121.9647436,-26.79952672794461,32.05995,0.1,87.3233,1640723288437
Fix,GT,37.4188468,-121.9643818,-27.166554584950205,32.050285,0.1,87.265564,1640723289437
Fix,GT,37.4188595,-121.9640202,-27.397118634015325,32.010445,0.1,87.18698,1640723290437
Fix,GT,37.4188722,-121.9636594,-27.571544184923173,31.93286,0.1,87.257385,1640723291437
Fix,GT,37.4188849,-121.9632995,-27.663195789903405,31.836254,0.1,87.156006,1640723292437
Fix,GT,37.4188982,-121.9629405,-27.840845751047134,31.77658,0.1,87.10217,1640723293437
Fix,GT,37.4189111,-121.9625822,-28.074011269927027,31.733727,0.1,87.22693,1640723294437
Fix,GT,37.4189233,-121.9622243,-28.327089241683485,31.67707,0.1,87.35797,1640723295437
Fix,GT,37.4189356,-121.9618672,-28.53768025261164,31.617668,0.1,87.154205,1640723296437
Fix,GT,37.4189493,-121.9615106,-28.812817167520524,31.58044,0.1,86.715,1640723297437
Fix,GT,37.4189663,-121.9611548,-28.93778684163094,31.517345,0.1,85.953094,1640723298437
Fix,GT,37.4189863,-121.9608,-29.09933192446828,31.457514,0.1,85.45831,1640723299437
Fix,GT,37.419008,-121.9604461,-29.21692290186882,31.3886,0.1,85.20352,1640723300437
Fix,GT,37.4190313,-121.9600929,-29.296408164978025,31.353966,0.1,84.74274,1640723301437
Fix,GT,37.4190576,-121.9597403,-29.358894301235672,31.334717,0.1,84.144775,1640723302437
Fix,GT,37.4190859,-121.959388,-29.506135177373885,31.351505,0.1,83.853546,1640723303437
Fix,GT,37.4191153,-121.9590359,-29.50934831902385,31.325512,0.1,83.70364,1640723304437
Fix,GT,37.4191444,-121.9586843,-29.393679416567085,31.26797,0.1,84.07095,1640723305437
Fix,GT,37.4191716,-121.9583327,-29.488863940894603,31.267082,0.1,84.16742,1640723306437
Fix,GT,37.4191988,-121.9579812,-29.52113605982065,31.261616,0.1,84.24133,1640723307437
Fix,GT,37.4192243,-121.9576296,-29.5614073009789,31.233215,0.1,84.87875,1640723308437
Fix,GT,37.4192458,-121.957278,-29.56562131291628,31.197826,0.1,86.18906,1640723309437
Fix,GT,37.4192592,-121.9569261,-29.573622194081544,31.173159,0.1,87.84946,1640723310437
Fix,GT,37.4192656,-121.9565743,-29.54759093207121,31.141026,0.1,89.170044,1640723311437
Fix,GT,37.4192662,-121.9562227,-29.457833558470007,31.080833,0.1,89.967804,1640723312437
Fix,GT,37.4192648,-121.9558722,-29.36859268543124,30.945118,0.1,90.0788,1640723313437
Fix,GT,37.4192638,-121.9555235,-29.291515624940395,30.805803,0.1,89.86987,1640723314437
Fix,GT,37.4192636,-121.9551762,-29.244485247373586,30.67609,0.1,89.736725,1640723315437
