MessageType,Provider,LatitudeDegrees,LongitudeDegrees,AltitudeMeters,SpeedMps,AccuracyMeters,BearingDegrees,UnixTimeMillis
Fix,GT,34.1719477,-118.5413432,206.797,0.0010015013,0.1,358.31128,1638989541999
Fix,GT,34.1719477,-118.5413432,206.797,0.0009963687,0.1,358.3109,1638989542999
Fix,GT,34.1719477,-118.5413432,206.797,0.001,0.1,358.31042,1638989543999
Fix,GT,34.1719477,-118.5413432,206.797,0.0014127038,0.1,358.31003,1638989544999
Fix,GT,34.1719477,-118.5413432,206.797,0.0036039324,0.1,358.31003,1638989545999
Fix,GT,34.1719477,-118.5413432,206.797,0.0,0.1,358.3096,1638989546999
Fix,GT,34.1719477,-118.5413432,206.797,0.001,0.1,358.30804,1638989547999
Fix,GT,34.1719477,-118.5413432,206.797,0.0009963278,0.1,358.30762,1638989548999
Fix,GT,34.1719477,-118.5413432,206.797,0.001,0.1,358.3072,1638989549999
Fix,GT,34.1719477,-118.5413432,206.797,0.0063911793,0.1,358.30673,1638989550999
Fix,GT,34.1719477,-118.5413432,206.797,0.0036004945,0.1,358.3071,1638989551999
Fix,GT,34.1719477,-118.5413432,206.797,0.001427845,0.1,358.30518,1638989552999
Fix,GT,34.1719477,-118.5413432,206.797,0.0035974297,0.1,358.3047,1638989553999
Fix,GT,34.1719477,-118.5413432,206.797,0.001,0.1,358.30396,1638989554999
Fix,GT,34.1719477,-118.5413432,206.797,0.0010015408,0.1,358.3036,1638989555999
Fix,GT,34.1719477,-118.5413432,206.797,0.0010015436,0.1,358.30328,1638989556999
Fix,GT,34.1719477,-118.5413432,206.797,0.0019978131,0.1,358.30267,1638989557999
Fix,GT,34.1719477,-118.5413432,206.797,0.0010015493,0.1,358.3025,1638989558999
Fix,GT,34.1719477,-118.5413432,206.797,0.0010037471,0.1,358.30185,1638989559999
Fix,GT,34.1719477,-118.5413432,206.797,0.0014164124,0.1,358.3014,1638989560999
Fix,GT,34.1719477,-118.5413432,206.797,0.0014142136,0.1,358.3007,1638989561999
Fix,GT,34.1719477,-118.5413432,206.797,0.0014142136,0.1,358.30038,1638989562999
Fix,GT,34.1719477,-118.5413432,206.797,0.0014142136,0.1,358.30002,1638989563999
Fix,GT,34.1719477,-118.5413432,206.797,0.0010015662,0.1,358.2995,1638989564999
Fix,GT,34.1719477,-118.5413432,206.797,0.001001569,0.1,358.29932,1638989565999
Fix,GT,34.1719477,-118.5413432,206.797,0.0010015718,0.1,358.29825,1638989566999
Fix,GT,34.1719477,-118.5413432,206.797,0.001996199,0.1,358.2979,1638989567999
Fix,GT,34.1719477,-118.5413432,206.797,0.002,0.1,358.2975,1638989568999
Fix,GT,34.1719477,-118.5413432,206.797,0.0031616585,0.1,358.29715,1638989569999
Fix,GT,34.1719477,-118.5413432,206.797,0.00509529,0.1,358.29648,1638989570999
Fix,GT,34.1719477,-118.5413432,206.797,0.0053851646,0.1,358.29605,1638989571999
Fix,GT,34.1719477,-118.5413432,206.797,0.006320952,0.1,358.29517,1638989572999
Fix,GT,34.1719477,-118.5413432,206.797,0.005830952,0.1,358.29446,1638989573999
Fix,GT,34.1719477,-118.5413432,206.797,0.0036088869,0.1,358.29382,1638989574999
Fix,GT,34.1719477,-118.5413432,206.797,0.0010038558,0.1,358.2933,1638989575999
Fix,GT,34.1719477,-118.5413432,206.797,0.004996137,0.1,358.2925,1638989576999
Fix,GT,34.1719477,-118.5413432,206.797,0.011703528,0.1,358.29175,1638989577999
Fix,GT,34.1719477,-118.5413432,206.796,0.023403319,0.1,358.29102,1638989578999
Fix,GT,34.1719474,-118.5413433,206.795,0.036393326,0.1,358.28986,1638989579999
Fix,GT,34.1719471,-118.5413435,206.79499611026048,0.053710308,0.1,358.28857,1638989580999
Fix,GT,34.1719465,-118.5413437,206.795,0.07289553,0.1,358.27783,1638989581999
Fix,GT,34.1719434,-118.5413438,206.786007806778,0.7240152,0.1,359.06653,1638989582999
Fix,GT,34.1719349,-118.5413418,206.75800782048705,1.059956,0.1,5.996155,1638989583999
Fix,GT,34.1719231,-118.5413397,206.74,1.396334,0.1,19.799194,1638989584999
Fix,GT,34.1719086,-118.5413414,206.7150117715001,1.4999695,0.1,36.7955,1638989585999
Fix,GT,34.1718953,-118.5413476,206.65901965314148,1.3499117,0.1,53.310364,1638989586999
Fix,GT,34.1718855,-118.5413562,206.6699881877303,1.1477448,0.1,67.41989,1638989587999
Fix,GT,34.1718803,-118.5413631,206.671,0.23941943,0.1,75.46005,1638989588999
Fix,GT,34.1718797,-118.5413639,206.67100790202616,0.089872636,0.1,75.59216,1638989589999
Fix,GT,34.1718792,-118.5413645,206.669,0.07000239,0.1,75.73874,1638989590999
Fix,GT,34.171879,-118.5413647,206.669,0.05548173,0.1,75.737854,1638989591999
Fix,GT,34.1718788,-118.5413652,206.668,0.034724955,0.1,75.77768,1638989592999
Fix,GT,34.1718792,-118.5413624,206.664,0.6063513,0.1,76.37137,1638989593999
Fix,GT,34.1718793,-118.5413525,206.665,1.0956616,0.1,80.88745,1638989594999
Fix,GT,34.1718791,-118.5413422,206.67000399184224,0.8407474,0.1,84.48401,1638989595999
Fix,GT,34.1718789,-118.5413336,206.6680039986372,0.738668,0.1,86.56073,1638989596999
Fix,GT,34.171879,-118.5413267,206.661,0.5019708,0.1,87.39844,1638989597999
Fix,GT,34.1718791,-118.5413233,206.659,0.100285836,0.1,87.707214,1638989598999
Fix,GT,34.171879,-118.5413233,206.6569959808588,0.0041389377,0.1,87.724304,1638989599999
Fix,GT,34.171879,-118.5413233,206.657,0.004130995,0.1,87.72363,1638989600999
Fix,GT,34.171879,-118.5413233,206.657,0.005091209,0.1,87.72272,1638989601999
Fix,GT,34.171879,-118.5413233,206.657,0.0010049932,0.1,87.72171,1638989602999
Fix,GT,34.171879,-118.5413233,206.657,0.001,0.1,87.7211,1638989603999
Fix,GT,34.171879,-118.5413233,206.657,0.0014142136,0.1,87.72052,1638989604999
Fix,GT,34.171879,-118.5413233,206.657,0.0014142136,0.1,87.72015,1638989605999
Fix,GT,34.171879,-118.5413233,206.657,0.001412529,0.1,87.719635,1638989606999
Fix,GT,34.171879,-118.5413233,206.657,0.0014142136,0.1,87.71927,1638989607999
Fix,GT,34.171879,-118.5413233,206.657,0.0014125233,0.1,87.71875,1638989608999
Fix,GT,34.171879,-118.5413233,206.657,0.0014125207,0.1,87.71796,1638989609999
Fix,GT,34.171879,-118.5413233,206.657,0.0,0.1,87.717285,1638989610999
Fix,GT,34.1718791,-118.5413233,206.657,0.0,0.1,87.71698,1638989611999
Fix,GT,34.1718791,-118.5413233,206.657,0.002236068,0.1,87.71649,1638989612999
Fix,GT,34.1718791,-118.5413233,206.657,0.0036055513,0.1,87.716156,1638989613999
Fix,GT,34.1718791,-118.5413233,206.656,0.005830952,0.1,87.715454,1638989614999
Fix,GT,34.171879,-118.5413234,206.65400412809848,0.007813519,0.1,87.71521,1638989615999
Fix,GT,34.171879,-118.541321,206.649,0.57998884,0.1,87.946045,1638989616999
Fix,GT,34.1718788,-118.5413106,206.63801242506503,1.3789343,0.1,88.88245,1638989617999
Fix,GT,34.1718784,-118.54129,206.62200829696656,2.3776803,0.1,90.026886,1638989618999
Fix,GT,34.171878,-118.54126,206.62998753416537,3.1449506,0.1,90.21988,1638989619999
Fix,GT,34.1718774,-118.5412223,206.61402913451195,3.802326,0.1,90.79184,1638989620999
Fix,GT,34.171876,-118.5411775,206.5920208443404,4.4715257,0.1,91.61249,1638989621999
Fix,GT,34.1718747,-118.5411263,206.588004175663,4.80497,0.1,91.473694,1638989622999
Fix,GT,34.171874,-118.5410751,206.5670041825772,4.5980144,0.1,90.825775,1638989623999
Fix,GT,34.1718736,-118.5410263,206.5680251362324,4.4262137,0.1,90.56448,1638989624999
Fix,GT,34.1718732,-118.5409799,206.53799580383304,4.0942597,0.1,90.3009,1638989625999
Fix,GT,34.1718729,-118.5409379,206.53,3.626385,0.1,90.19537,1638989626999
Fix,GT,34.1718731,-118.5409027,206.5060126292705,2.844423,0.1,89.79544,1638989627999
Fix,GT,34.1718732,-118.5408742,206.4650126496553,2.590311,0.1,90.2778,1638989628999
Fix,GT,34.1718735,-118.5408494,206.439,1.8261594,0.1,90.206635,1638989629999
Fix,GT,34.1718747,-118.5408335,206.42301692056657,1.4042732,0.1,88.088806,1638989630999
Fix,GT,34.171881,-118.5408122,206.3960508432388,2.650929,0.1,76.81543,1638989631999
Fix,GT,34.1718994,-118.540781,206.154118824482,3.6943529,0.1,55.860046,1638989632999
Fix,GT,34.1719349,-118.5407535,206.25097874706984,4.796722,0.1,32.587982,1638989633999
Fix,GT,34.1719857,-118.5407356,206.19006811904907,6.3094015,0.1,14.729736,1638989634999
Fix,GT,34.1720458,-118.5407235,206.12303837811947,7.027373,0.1,9.491852,1638989635999
Fix,GT,34.1721022,-118.5407138,206.06603416824345,6.427554,0.1,9.380859,1638989636999
Fix,GT,34.1721535,-118.5407034,205.99803422260285,5.010479,0.1,9.891541,1638989637999
Fix,GT,34.1721914,-118.540695,205.92202570772173,3.6807957,0.1,11.389099,1638989638999
Fix,GT,34.1722172,-118.5406879,205.8680429141521,2.3783047,0.1,13.970154,1638989639999
Fix,GT,34.1722385,-118.5406767,205.821017193079,3.0732467,0.1,22.67511,1638989640999
Fix,GT,34.1722652,-118.5406491,205.7500043051243,4.9331555,0.1,40.623962,1638989641999
Fix,GT,34.1722879,-118.5405954,205.749,6.25854,0.1,66.02405,1638989642999
Fix,GT,34.1722957,-118.540519,205.7349913625717,8.033102,0.1,84.81964,1638989643999
Fix,GT,34.1722982,-118.5404241,205.74101297652723,9.4144945,0.1,88.40997,1638989644999
Fix,GT,34.172297,-118.5403122,205.659051987648,11.310817,0.1,90.54758,1638989645999
Fix,GT,34.172296,-118.5401792,205.52006508648395,13.211552,0.1,89.99359,1638989646999
Fix,GT,34.1722957,-118.5400262,205.34509126377105,14.879423,0.1,89.70242,1638989647999
Fix,GT,34.1722956,-118.5398592,205.1850957604647,15.8656645,0.1,89.729065,1638989648999
Fix,GT,34.1722951,-118.5396848,205.02104795497647,16.145344,0.1,90.15207,1638989649999
Fix,GT,34.1722939,-118.53951,204.8300829615593,16.187046,0.1,89.98129,1638989650999
Fix,GT,34.1722948,-118.5393311,204.65808309066293,16.687122,0.1,89.1702,1638989651999
Fix,GT,34.1722967,-118.5391506,204.49309635972972,16.581102,0.1,89.15546,1638989652999
Fix,GT,34.1722977,-118.538972,204.3200482546091,16.358318,0.1,89.59375,1638989653999
Fix,GT,34.1722977,-118.5387959,204.1440571165085,16.126144,0.1,89.86243,1638989654999
Fix,GT,34.1722982,-118.5386223,203.97709240782265,15.894433,0.1,89.411896,1638989655999
Fix,GT,34.1722991,-118.5384511,203.82103966504337,15.650416,0.1,89.67386,1638989656999
Fix,GT,34.1722992,-118.538285,203.6990750393868,14.898412,0.1,89.79419,1638989657999
Fix,GT,34.1722993,-118.5381282,203.5161061010361,14.115266,0.1,89.70325,1638989658999
Fix,GT,34.1722999,-118.5379776,203.3660619874001,13.719314,0.1,89.42148,1638989659999
Fix,GT,34.1723014,-118.53783,203.2450443446636,13.506795,0.1,89.21289,1638989660999
Fix,GT,34.1723024,-118.5376828,203.09906217765808,13.739149,0.1,89.61389,1638989661999
Fix,GT,34.1723017,-118.5375335,202.9640444805622,13.7446375,0.1,90.34387,1638989662999
Fix,GT,34.1723006,-118.5373852,202.8100757324696,13.5835285,0.1,90.272644,1638989663999
Fix,GT,34.1722998,-118.537239,202.7150223088265,13.366279,0.1,90.09888,1638989664999
Fix,GT,34.1722996,-118.5370969,202.59004468560212,12.749368,0.1,89.76868,1638989665999
Fix,GT,34.1722995,-118.5369648,202.4990447535515,11.550712,0.1,90.1203,1638989666999
Fix,GT,34.1722987,-118.536848,202.3910358572006,10.1167345,0.1,90.22107,1638989667999
Fix,GT,34.1722981,-118.536744,202.29704040050507,9.077875,0.1,90.320526,1638989668999
Fix,GT,34.1722973,-118.536653,202.20804046165944,7.684007,0.1,90.230286,1638989669999
Fix,GT,34.1722974,-118.5365749,202.1150450265408,6.651617,0.1,89.48511,1638989670999
Fix,GT,34.1722974,-118.5365098,202.03004960393903,5.3816037,0.1,89.84601,1638989671999
Fix,GT,34.1722971,-118.5364579,201.9520361304283,4.259648,0.1,89.96637,1638989672999
Fix,GT,34.1722969,-118.5364175,201.8870226154924,3.1675324,0.1,90.11194,1638989673999
Fix,GT,34.1722967,-118.5363902,201.85101358968012,1.8846387,0.1,90.17639,1638989674999
Fix,GT,34.1722966,-118.5363765,201.8320136102438,0.7234415,0.1,90.21716,1638989675999
Fix,GT,34.1722966,-118.5363729,201.823,0.007497299,0.1,90.23001,1638989676999
Fix,GT,34.1722966,-118.5363728,201.8180045503974,0.0020364032,0.1,90.23804,1638989677999
Fix,GT,34.1722966,-118.5363728,201.818,0.0014168831,0.1,90.23718,1638989678999
Fix,GT,34.1722966,-118.5363728,201.818,0.0014142136,0.1,90.23569,1638989679999
Fix,GT,34.1722966,-118.5363728,201.818,0.0010056499,0.1,90.23645,1638989680999
Fix,GT,34.1722966,-118.5363728,201.818,0.002236068,0.1,90.23685,1638989681999
Fix,GT,34.1722966,-118.5363728,201.818,0.002236068,0.1,90.23761,1638989682999
Fix,GT,34.1722966,-118.5363728,201.818,0.002236068,0.1,90.238434,1638989683999
Fix,GT,34.1722966,-118.5363728,201.818,0.002232289,0.1,90.23901,1638989684999
Fix,GT,34.1722966,-118.5363728,201.818,0.002236068,0.1,90.239685,1638989685999
Fix,GT,34.1722966,-118.5363728,201.818,0.002236068,0.1,90.24045,1638989686999
Fix,GT,34.1722966,-118.5363728,201.818,0.0022349777,0.1,90.24112,1638989687999
Fix,GT,34.1722966,-118.5363728,201.818,0.0022349763,0.1,90.24185,1638989688999
Fix,GT,34.1722966,-118.5363728,201.818,0.0014142136,0.1,90.242615,1638989689999
Fix,GT,34.1722966,-118.5363728,201.818,0.0014142136,0.1,90.243164,1638989690999
Fix,GT,34.1722966,-118.5363728,201.818,4.6458244e-06,0.1,90.24365,1638989691999
Fix,GT,34.1722966,-118.5363728,201.818,0.0,0.1,90.244354,1638989692999
Fix,GT,34.1722966,-118.5363728,201.818,0.001,0.1,90.24484,1638989693999
Fix,GT,34.1722965,-118.5363728,201.821,0.0019953337,0.1,90.24536,1638989694999
Fix,GT,34.1722965,-118.5363728,201.825,0.006696123,0.1,90.24628,1638989695999
Fix,GT,34.1722965,-118.5363696,201.81901403975485,0.8072595,0.1,90.27133,1638989696999
Fix,GT,34.1722964,-118.5363521,201.79701406013965,2.3853385,0.1,90.31421,1638989697999
Fix,GT,34.1722962,-118.5363166,201.7430375480652,4.1483903,0.1,90.36597,1638989698999
Fix,GT,34.1722957,-118.5362626,201.69502350151532,5.917188,0.1,90.45477,1638989699999
Fix,GT,34.1722946,-118.53619,201.689990585804,7.377413,0.1,91.16916,1638989700999
Fix,GT,34.1722927,-118.5361046,201.7338774356842,8.318447,0.1,91.5155,1638989701999
Fix,GT,34.1722906,-118.5360089,201.83797167515755,9.362444,0.1,91.118774,1638989702999
Fix,GT,34.1722898,-118.535901,201.7431371004581,10.640631,0.1,90.2699,1638989703999
Fix,GT,34.1722895,-118.5357778,201.65602367228269,11.892683,0.1,89.6073,1638989704999
Fix,GT,34.1722904,-118.5356447,201.68003793001176,12.475587,0.1,88.96817,1638989705999
Fix,GT,34.172292,-118.535509,201.792957267046,12.493521,0.1,89.216644,1638989706999
Fix,GT,34.1722919,-118.5353715,201.78199524509907,12.996805,0.1,90.74768,1638989707999
Fix,GT,34.1722858,-118.5352306,201.85793809717893,12.995179,0.1,94.30032,1638989708999
Fix,GT,34.172272,-118.5350927,201.8800190742016,12.714778,0.1,98.31818,1638989709999
Fix,GT,34.1722499,-118.5349582,201.90801910138129,12.861718,0.1,102.81799,1638989710999
Fix,GT,34.1722174,-118.5348223,201.95402869284155,13.103211,0.1,107.57095,1638989711999
Fix,GT,34.172176,-118.5346909,202.05991858810188,12.835035,0.1,112.26233,1638989712999
Fix,GT,34.1721273,-118.5345671,202.14892806226013,12.4716625,0.1,116.783325,1638989713999
Fix,GT,34.1720726,-118.5344503,202.259961578846,12.484415,0.1,120.2908,1638989714999
Fix,GT,34.1720138,-118.5343345,202.33092304897303,12.352389,0.1,121.36609,1638989715999
Fix,GT,34.1719587,-118.5342257,202.399966285944,11.087404,0.1,120.9155,1638989716999
Fix,GT,34.1719117,-118.5341267,202.44296623796225,10.156539,0.1,118.733826,1638989717999
Fix,GT,34.1718702,-118.5340285,202.47397102034088,10.205549,0.1,115.7478,1638989718999
Fix,GT,34.1718337,-118.5339277,202.553966142416,10.023695,0.1,112.25705,1638989719999
Fix,GT,34.1718029,-118.5338247,202.60094187688827,10.313714,0.1,108.39349,1638989720999
Fix,GT,34.1717767,-118.5337149,202.7049805984497,10.692779,0.1,104.46863,1638989721999
Fix,GT,34.1717566,-118.533601,202.75498057079315,10.774622,0.1,100.44641,1638989722999
Fix,GT,34.1717437,-118.5334818,202.82993676674369,11.476568,0.1,95.53079,1638989723999
Fix,GT,34.1717385,-118.5333535,202.9019415493012,12.077298,0.1,91.33966,1638989724999
Fix,GT,34.1717403,-118.5332219,202.9819414670468,11.82041,0.1,87.39316,1638989725999
Fix,GT,34.1717489,-118.5331011,203.0379316164256,10.501861,0.1,83.805115,1638989726999
Fix,GT,34.1717609,-118.5329939,203.11598043465617,9.501088,0.1,81.85846,1638989727999
Fix,GT,34.1717698,-118.5328936,203.1729706104994,9.179997,0.1,85.584045,1638989728999
Fix,GT,34.1717696,-118.5327933,203.23297547477483,9.679005,0.1,92.123474,1638989729999
Fix,GT,34.1717578,-118.5326874,203.2140392947197,10.13383,0.1,100.11484,1638989730999
Fix,GT,34.1717318,-118.5325783,203.1750344308615,10.876433,0.1,108.69229,1638989731999
Fix,GT,34.1716889,-118.5324674,203.3248719357252,11.778206,0.1,117.52014,1638989732999
Fix,GT,34.1716339,-118.5323513,203.6607681798339,12.842837,0.1,119.52988,1638989733999
Fix,GT,34.1715769,-118.5322268,204.31960486888883,13.256662,0.1,118.57037,1638989734999
Fix,GT,34.1715206,-118.5320967,205.1995598065853,13.863946,0.1,116.609314,1638989735999
Fix,GT,34.1714667,-118.5319559,206.16748986279967,14.602621,0.1,113.513,1638989736999
Fix,GT,34.1714178,-118.5318071,207.0745734655857,14.793415,0.1,110.05557,1638989737999
Fix,GT,34.1713748,-118.5316539,207.91558778071405,15.174009,0.1,108.03018,1638989738999
Fix,GT,34.1713353,-118.5314917,208.8295573769808,15.740345,0.1,104.963745,1638989739999
Fix,GT,34.1713043,-118.5313278,209.6406065731049,15.154394,0.1,101.24936,1638989740999
Fix,GT,34.171283,-118.5311693,210.3257057739496,14.440828,0.1,97.63187,1638989741999
Fix,GT,34.1712686,-118.531017,210.8267752818465,13.81612,0.1,95.7789,1638989742999
Fix,GT,34.1712565,-118.5308712,211.25981998085976,13.214651,0.1,96.01648,1638989743999
Fix,GT,34.1712426,-118.5307322,211.6688147267104,12.6132,0.1,97.41284,1638989744999
Fix,GT,34.1712266,-118.5306013,211.8810728137046,11.626518,0.1,98.90106,1638989746000
Fix,GT,34.1712103,-118.5304832,212.013046729486,10.370356,0.1,99.67862,1638989747000
Fix,GT,34.1711949,-118.5303788,212.11210369080865,9.253974,0.1,99.98682,1638989748000
Fix,GT,34.1711807,-118.5302846,212.2820259142169,8.423367,0.1,100.29013,1638989749000
Fix,GT,34.1711678,-118.5301993,212.35803966856005,7.61565,0.1,100.31781,1638989750000
Fix,GT,34.1711564,-118.5301224,212.41103149715067,6.6242714,0.1,100.00845,1638989751000
Fix,GT,34.1711476,-118.5300596,212.44099634240987,5.0837483,0.1,99.47449,1638989752000
Fix,GT,34.1711408,-118.5300083,212.44201008230263,4.5496206,0.1,99.04736,1638989753000
Fix,GT,34.1711347,-118.5299609,212.43800197848304,4.352894,0.1,98.681366,1638989754000
Fix,GT,34.171129,-118.5299148,212.4329945592997,4.233182,0.1,98.42456,1638989755000
Fix,GT,34.1711236,-118.5298704,212.4400061333552,3.9367623,0.1,98.3111,1638989756000
Fix,GT,34.171119,-118.5298324,212.44799304713587,2.99918,0.1,98.327545,1638989757000
Fix,GT,34.1711155,-118.5298044,212.44299272168428,2.4107308,0.1,98.28888,1638989758000
Fix,GT,34.1711121,-118.5297771,212.4359916404072,2.6614466,0.1,98.41287,1638989759000
Fix,GT,34.1711086,-118.5297492,212.42100104450432,2.6100276,0.1,98.44159,1638989760000
Fix,GT,34.1711047,-118.5297186,212.40799996292915,3.2721677,0.1,98.395874,1638989761000
Fix,GT,34.1710996,-118.5296779,212.3919919276265,4.42461,0.1,98.39273,1638989762000
Fix,GT,34.171093,-118.5296226,212.3980103335529,5.762648,0.1,98.106995,1638989763000
Fix,GT,34.1710859,-118.5295584,212.4230140951937,5.961853,0.1,97.3172,1638989764000
Fix,GT,34.1710798,-118.5294956,212.46100873216244,5.715214,0.099,96.62787,1638989765000
Fix,GT,34.1710742,-118.5294334,212.4780091055632,5.932999,0.1,96.00058,1638989766000
Fix,GT,34.1710688,-118.5293663,212.49400316065595,6.504813,0.1,95.24341,1638989767000
Fix,GT,34.1710648,-118.5292976,212.5059923932273,6.0463896,0.1,93.72449,1638989768000
Fix,GT,34.1710623,-118.5292353,212.49597692301492,5.332339,0.099,92.604614,1638989769000
Fix,GT,34.1710604,-118.5291822,212.48600563995075,4.4407005,0.1,92.42926,1638989770000
Fix,GT,34.1710586,-118.5291358,212.4770169203281,4.2056913,0.1,92.79126,1638989771000
Fix,GT,34.1710562,-118.5290902,212.47899920845404,4.3957605,0.1,93.34656,1638989772000
Fix,GT,34.1710537,-118.5290392,212.46600564645232,5.119872,0.099,93.24164,1638989773000
Fix,GT,34.1710517,-118.5289779,212.4809959505536,6.161529,0.1,91.9057,1638989774000
Fix,GT,34.1710507,-118.5289091,212.49099062121752,6.3708,0.1,90.94815,1638989775000
Fix,GT,34.1710498,-118.5288386,212.4689996367134,6.7578764,0.099,90.84024,1638989776000
Fix,GT,34.1710487,-118.5287652,212.46399262719788,6.7924514,0.1,91.04172,1638989777000
Fix,GT,34.1710479,-118.5286883,212.4449894749457,7.2562904,0.1,90.581055,1638989778000
Fix,GT,34.1710472,-118.5286105,212.42197462505104,7.0802546,0.099,90.685,1638989779000
Fix,GT,34.1710461,-118.5285364,212.39198890210687,6.6357107,0.1,90.90851,1638989780000
Fix,GT,34.1710455,-118.5284655,212.35093818426785,6.544946,0.1,90.49347,1638989781000
Fix,GT,34.1710448,-118.5283904,212.30597303433112,7.088423,0.1,90.51935,1638989782000
Fix,GT,34.1710442,-118.5283148,212.26798618314044,6.7480216,0.099,90.41171,1638989783000
Fix,GT,34.1710439,-118.5282428,212.2389815040864,6.584188,0.1,90.24872,1638989784000
Fix,GT,34.1710437,-118.5281693,212.1779804497757,7.002127,0.1,90.03293,1638989785000
Fix,GT,34.1710437,-118.5280925,212.1229699693136,7.1370583,0.1,89.82953,1638989786000
Fix,GT,34.171044,-118.5280126,212.049968929716,7.7094707,0.1,89.62372,1638989787000
Fix,GT,34.1710444,-118.5279236,211.9699636466126,8.733686,0.099,89.45004,1638989788000
Fix,GT,34.171045,-118.5278232,211.88796630413452,9.760611,0.1,89.55847,1638989789000
Fix,GT,34.1710449,-118.5277122,211.8289704033728,10.704447,0.1,90.08057,1638989790000
Fix,GT,34.1710441,-118.5275937,211.7649569538096,11.010699,0.1,90.42731,1638989791000
Fix,GT,34.1710431,-118.527474,211.649987008363,11.022397,0.1,90.37982,1638989792000
Fix,GT,34.1710425,-118.5273535,211.57696891660987,11.370548,0.1,90.227356,1638989793000
Fix,GT,34.1710421,-118.5272255,211.5279707957264,12.297554,0.099,89.984314,1638989794000
Fix,GT,34.1710425,-118.5270857,211.53500137905127,13.528892,0.1,89.58478,1638989795000
Fix,GT,34.1710429,-118.5269306,211.4469428965766,15.103781,0.1,89.87732,1638989796000
Fix,GT,34.1710449,-118.5267576,211.338959533942,16.786139,0.1,88.165955,1638989797000
Fix,GT,34.1710525,-118.526569,211.20690796797533,17.816383,0.1,86.56799,1638989798000
Fix,GT,34.171062,-118.526373,211.0329108463721,18.378977,0.1,86.88699,1638989799000
Fix,GT,34.1710683,-118.5261716,210.80184810406527,18.595636,0.1,88.4046,1638989800000
Fix,GT,34.171071,-118.5259733,210.51386480420828,17.893528,0.1,89.368805,1638989801000
Fix,GT,34.1710715,-118.5257853,210.21587362902565,16.721413,0.1,89.885895,1638989802000
Fix,GT,34.1710712,-118.5256117,209.90886050950456,15.261536,0.1,89.97131,1638989803000
Fix,GT,34.1710714,-118.5254507,209.5888621835005,14.640973,0.1,89.67169,1638989804000
Fix,GT,34.1710718,-118.5252932,209.3098683391493,14.388896,0.1,89.756165,1638989805000
Fix,GT,34.1710717,-118.5251391,209.0408778789444,14.034897,0.1,90.08423,1638989806000
Fix,GT,34.1710715,-118.5249887,208.76588195277748,13.692801,0.1,89.895996,1638989807000
Fix,GT,34.1710713,-118.5248426,208.5178781489441,13.168659,0.1,90.065125,1638989808000
Fix,GT,34.1710708,-118.5247059,208.27390460493788,11.86931,0.1,90.071655,1638989809000
Fix,GT,34.1710707,-118.5245848,208.06290406791493,10.522363,0.1,89.88974,1638989810000
Fix,GT,34.1710707,-118.5244775,207.8679216991104,9.394481,0.1,89.706024,1638989811000
Fix,GT,34.1710714,-118.5243803,207.6959220252279,8.614007,0.1,89.38104,1638989812000
Fix,GT,34.1710722,-118.5242912,207.53592811104656,7.9577146,0.1,89.24182,1638989813000
Fix,GT,34.1710724,-118.5242054,207.375929555344,7.931028,0.1,89.92743,1638989814000
Fix,GT,34.1710722,-118.524119,207.2059212268032,8.007056,0.1,90.00519,1638989815000
Fix,GT,34.1710718,-118.524031,207.0389293043916,8.121914,0.1,90.23752,1638989816000
Fix,GT,34.1710714,-118.5239458,206.8969353334517,7.684175,0.1,90.307434,1638989817000
Fix,GT,34.1710706,-118.523863,206.7579335642336,7.598541,0.1,90.57318,1638989818000
Fix,GT,34.1710704,-118.5237808,206.60193745088017,7.5840273,0.1,89.847534,1638989819000
Fix,GT,34.1710706,-118.523696,206.4679409699179,8.186426,0.1,89.750824,1638989820000
Fix,GT,34.1710707,-118.5236035,206.32994447676373,8.692933,0.1,89.833466,1638989821000
Fix,GT,34.1710706,-118.5235094,206.2139325506799,8.712229,0.1,90.02826,1638989822000
Fix,GT,34.1710703,-118.5234092,206.06193975044783,10.033989,0.1,90.10919,1638989823000
Fix,GT,34.1710702,-118.5232898,205.93393466620145,11.928731,0.1,89.70917,1638989824000
Fix,GT,34.1710709,-118.5231528,205.7979596453849,13.222478,0.1,89.61359,1638989825000
Fix,GT,34.1710712,-118.5230063,205.7059610871128,13.684008,0.1,89.755554,1638989826000
Fix,GT,34.1710712,-118.5228575,205.626955977452,13.974449,0.1,90.08032,1638989827000
Fix,GT,34.1710707,-118.5227015,205.56098083192668,14.779324,0.1,89.91,1638989828000
Fix,GT,34.1710712,-118.5225374,205.5339954840108,15.469382,0.099,89.7142,1638989829000
Fix,GT,34.1710716,-118.5223657,205.5159903229936,16.180368,0.1,89.712006,1638989830000
Fix,GT,34.171072,-118.522188,205.47997097151864,16.424904,0.1,89.819305,1638989831000
Fix,GT,34.1710718,-118.5220144,205.44299024284632,15.50669,0.099,90.141174,1638989832000
Fix,GT,34.1710712,-118.5218509,205.4009777481575,14.703666,0.1,90.085754,1638989833000
Fix,GT,34.1710712,-118.521695,205.36797836906555,14.16886,0.1,89.8873,1638989834000
Fix,GT,34.171071,-118.5215427,205.311986479586,13.971039,0.1,89.95801,1638989835000
Fix,GT,34.1710711,-118.5213896,205.2879900829988,14.310079,0.099,89.81653,1638989836000
Fix,GT,34.1710708,-118.5212347,205.2649863294568,14.212074,0.1,90.13452,1638989837000
Fix,GT,34.1710703,-118.5210817,205.2329812848447,13.987015,0.099,90.12677,1638989838000
Fix,GT,34.1710698,-118.5209303,205.196984025124,14.063337,0.1,90.12128,1638989839000
Fix,GT,34.1710693,-118.5207742,205.1689832383087,14.799526,0.1,89.99713,1638989840000
Fix,GT,34.1710695,-118.5206104,205.15099032838089,15.181093,0.1,89.73364,1638989841000
Fix,GT,34.1710702,-118.5204461,205.1289701897539,15.082418,0.1,89.44211,1638989842000
Fix,GT,34.1710716,-118.5202815,205.09699227853588,15.235694,0.1,89.36365,1638989843000
Fix,GT,34.1710722,-118.5201171,205.0609872371573,15.060893,0.1,89.871826,1638989844000
Fix,GT,34.1710717,-118.5199551,205.03197928901577,14.866002,0.1,90.2301,1638989845000
Fix,GT,34.1710712,-118.5197976,204.9980215214491,14.095673,0.1,90.08505,1638989846000
Fix,GT,34.1710709,-118.5196488,204.9879883504808,13.484928,0.1,90.06027,1638989847000
Fix,GT,34.1710701,-118.5195032,204.95598684584348,13.45947,0.1,90.39334,1638989848000
Fix,GT,34.171069,-118.5193573,204.91798381882347,13.175064,0.1,90.2525,1638989849000
Fix,GT,34.171069,-118.5192203,204.89299152489752,12.119668,0.1,89.76117,1638989850000
Fix,GT,34.1710693,-118.5190922,204.86299214997143,11.517638,0.1,89.71362,1638989851000
Fix,GT,34.1710696,-118.5189734,204.82097849224508,10.377571,0.1,89.73358,1638989852000
Fix,GT,34.1710699,-118.5188652,204.77098189044,9.615754,0.1,89.72839,1638989853000
Fix,GT,34.1710702,-118.5187648,204.6960038127601,8.961929,0.1,89.74005,1638989854000
Fix,GT,34.1710703,-118.5186693,204.649968965183,8.683998,0.1,89.68036,1638989855000
Fix,GT,34.171071,-118.5185753,204.6049972443376,8.722582,0.1,89.339966,1638989856000
Fix,GT,34.1710718,-118.5184758,204.57797096641457,9.762939,0.1,89.41016,1638989857000
Fix,GT,34.1710722,-118.5183636,204.53896587076784,10.853262,0.1,89.69977,1638989858000
Fix,GT,34.1710722,-118.5182437,204.43596662838013,11.342346,0.1,89.96826,1638989859000
Fix,GT,34.1710719,-118.5181172,204.3399362961808,11.837259,0.1,90.1611,1638989860000
Fix,GT,34.1710716,-118.5179875,204.21193546582384,11.9950285,0.1,90.04639,1638989861000
Fix,GT,34.1710713,-118.5178559,204.0339132305337,12.344163,0.1,90.0788,1638989862000
Fix,GT,34.1710708,-118.5177213,203.82889996509908,12.491219,0.1,90.18829,1638989863000
Fix,GT,34.1710702,-118.5175833,203.589900874774,13.033417,0.1,90.19269,1638989864000
Fix,GT,34.1710698,-118.5174381,203.31488130787528,13.777412,0.099,89.993805,1638989865000
Fix,GT,34.1710698,-118.5172842,203.02487817648333,14.564283,0.1,89.82248,1638989866000
Fix,GT,34.1710699,-118.5171235,202.6928627774287,14.927992,0.1,89.92615,1638989867000
Fix,GT,34.1710696,-118.5169625,202.3468496055715,14.611773,0.099,90.058716,1638989868000
Fix,GT,34.1710693,-118.5168082,201.9818609608468,13.881787,0.1,89.96655,1638989869000
Fix,GT,34.1710692,-118.5166601,201.6158396506012,13.463894,0.099,89.942474,1638989870000
Fix,GT,34.1710691,-118.5165156,201.2498471513195,13.131843,0.099,89.915436,1638989871000
Fix,GT,34.1710693,-118.5163752,200.8898605229072,12.795937,0.1,89.741455,1638989872000
Fix,GT,34.1710698,-118.5162378,200.54485776464225,12.544019,0.1,89.630585,1638989873000
Fix,GT,34.1710702,-118.5161026,200.19084257099965,12.452224,0.1,89.68735,1638989874000
Fix,GT,34.1710705,-118.515965,199.81285999081285,12.986203,0.1,89.79999,1638989875000
Fix,GT,34.1710705,-118.5158228,199.4768654500395,13.176029,0.1,89.90094,1638989876000
Fix,GT,34.1710705,-118.5156792,199.11485830936348,13.319037,0.1,89.956726,1638989877000
Fix,GT,34.1710703,-118.5155341,198.73783720220905,13.432112,0.1,89.99899,1638989878000
Fix,GT,34.1710703,-118.5153858,198.3568423696216,14.017351,0.1,89.854034,1638989879000
Fix,GT,34.1710708,-118.515229,197.94983765346,14.9106245,0.1,89.63379,1638989880000
Fix,GT,34.1710708,-118.5150607,197.4958142480301,16.24559,0.1,89.95706,1638989881000
Fix,GT,34.1710711,-118.5148784,197.0088015755266,17.277374,0.1,89.65161,1638989882000
Fix,GT,34.1710715,-118.5146881,196.5328718245737,17.796293,0.1,89.896454,1638989883000
Fix,GT,34.1710709,-118.514491,196.2568747571921,18.621674,0.1,90.194214,1638989884000
Fix,GT,34.1710701,-118.514287,196.00390234847364,18.844196,0.1,90.18417,1638989885000
Fix,GT,34.1710695,-118.5140819,195.79287137409293,19.092278,0.1,90.03052,1638989886000
Fix,GT,34.1710694,-118.5138714,195.5589569115844,19.58904,0.1,89.90152,1638989887000
Fix,GT,34.1710692,-118.5136594,195.3229620194547,19.485973,0.1,90.03003,1638989888000
Fix,GT,34.1710696,-118.5134487,195.2009368103221,19.349302,0.1,89.52179,1638989889000
Fix,GT,34.1710706,-118.5132398,194.9779039875912,19.192236,0.1,89.7095,1638989890000
Fix,GT,34.1710705,-118.5130304,194.76191286493048,19.336113,0.1,90.099915,1638989891000
Fix,GT,34.1710696,-118.5128197,194.516908215046,19.528168,0.1,90.1423,1638989892000
Fix,GT,34.171069,-118.5126082,194.29790538593988,19.448048,0.1,90.0448,1638989893000
Fix,GT,34.1710689,-118.5123981,194.0638943363484,19.306099,0.1,89.79904,1638989894000
Fix,GT,34.1710694,-118.5121867,193.81591545298605,19.775366,0.1,89.708374,1638989895000
Fix,GT,34.1710697,-118.5119706,193.58489884166048,19.933956,0.1,89.92572,1638989896000
Fix,GT,34.1710697,-118.5117551,193.3469118696973,19.792944,0.1,89.85901,1638989897000
Fix,GT,34.17107,-118.5115413,193.12592065187167,19.61503,0.1,89.706635,1638989898000
Fix,GT,34.171071,-118.5113296,192.91590805425216,19.430504,0.1,89.4574,1638989899000
Fix,GT,34.1710719,-118.5111195,192.6829148522839,19.350965,0.1,90.013275,1638989900000
Fix,GT,34.1710704,-118.5109102,192.45491409267763,19.218987,0.1,90.46661,1638989901000
Fix,GT,34.1710694,-118.5107051,192.2209016530313,18.579876,0.1,90.142395,1638989902000
Fix,GT,34.1710689,-118.5105051,191.9388596431464,18.418167,0.1,90.11554,1638989903000
Fix,GT,34.1710684,-118.5103043,191.6849349061553,18.555973,0.1,89.94028,1638989904000
Fix,GT,34.1710687,-118.5101053,191.48893602744863,18.041773,0.1,89.787415,1638989905000
Fix,GT,34.1710688,-118.5099137,191.25393126520424,17.307835,0.1,89.99875,1638989906000
Fix,GT,34.1710684,-118.5097282,191.08993249013693,16.99205,0.1,90.09381,1638989907000
Fix,GT,34.1710684,-118.5095446,190.9799760300014,16.937124,0.1,89.76666,1638989908000
Fix,GT,34.1710691,-118.5093592,190.92896156277905,17.30333,0.1,89.74347,1638989909000
Fix,GT,34.171069,-118.5091686,190.89999355402264,17.864212,0.1,89.92792,1638989910000
Fix,GT,34.1710694,-118.5089725,191.00106200139527,18.251411,0.1,89.67825,1638989911000
Fix,GT,34.1710697,-118.5087722,191.14705500221623,18.723204,0.1,89.94693,1638989912000
Fix,GT,34.1710695,-118.5085666,191.26605593164825,19.160233,0.1,90.022095,1638989913000
Fix,GT,34.1710691,-118.5083565,191.38603554654168,19.523153,0.1,90.02707,1638989914000
Fix,GT,34.1710683,-118.5081428,191.4980345042516,19.932814,0.099,90.30759,1638989915000
Fix,GT,34.1710676,-118.5079234,191.6210716976619,20.525095,0.1,89.96472,1638989916000
Fix,GT,34.1710682,-118.5076985,191.7550400134404,20.985928,0.1,89.36197,1638989917000
Fix,GT,34.1710729,-118.5074627,191.88908086999572,22.750631,0.1,87.852936,1638989918000
Fix,GT,34.1710826,-118.507208,192.0660626100756,23.985178,0.1,87.34512,1638989919000
Fix,GT,34.1710903,-118.506943,192.23206719168508,25.025253,0.1,88.51181,1638989920000
Fix,GT,34.1710952,-118.5066667,192.4040527276269,25.592035,0.1,88.81171,1638989921000
Fix,GT,34.1710991,-118.506391,192.52401951318168,25.230322,0.1,89.155396,1638989922000
Fix,GT,34.1711007,-118.5061199,192.5610600651333,24.793808,0.1,89.95807,1638989923000
Fix,GT,34.1711005,-118.5058534,192.64001185075932,24.3439,0.1,90.044495,1638989924000
Fix,GT,34.1711002,-118.5055917,192.70703899905365,23.905851,0.1,89.87628,1638989925000
Fix,GT,34.1711006,-118.5053347,192.8240004613516,23.479916,0.1,89.79321,1638989926000
Fix,GT,34.1710994,-118.505082,192.90010260647608,23.207165,0.1,90.484375,1638989927000
Fix,GT,34.1710963,-118.504831,193.1330433684264,23.01173,0.1,91.07999,1638989928000
Fix,GT,34.1710908,-118.504582,193.18503125126105,23.060974,0.1,91.663086,1638989929000
Fix,GT,34.1710833,-118.5043294,193.30904887459124,23.603024,0.1,91.948975,1638989930000
Fix,GT,34.1710748,-118.5040714,193.46508311587712,23.927177,0.1,92.86368,1638989931000
Fix,GT,34.1710586,-118.503814,193.6360595531452,23.700531,0.1,95.25824,1638989932000
Fix,GT,34.1710343,-118.5035578,193.8220732857872,23.977514,0.1,97.56854,1638989933000
Fix,GT,34.1710003,-118.5033018,193.9970499190437,23.800396,0.1,100.10599,1638989934000
Fix,GT,34.1709587,-118.5030531,194.1460473537659,22.928677,0.1,102.28265,1638989935000
Fix,GT,34.1709121,-118.5028169,194.27304981539984,21.790113,0.1,103.96808,1638989936000
Fix,GT,34.1708635,-118.5025954,194.40002835729857,20.571968,0.1,105.31351,1638989937000
Fix,GT,34.170813,-118.5023864,194.4680259111789,19.62086,0.1,106.67227,1638989938000
Fix,GT,34.1707606,-118.5021884,194.48900289811195,18.78792,0.1,108.18225,1638989939000
Fix,GT,34.1707063,-118.5019994,194.4899962912368,18.114628,0.1,109.611084,1638989940000
Fix,GT,34.1706498,-118.5018192,194.4429604453291,17.493216,0.1,111.254425,1638989941000
Fix,GT,34.1705906,-118.5016464,194.3129253583343,16.85815,0.1,112.83356,1638989942000
Fix,GT,34.1705317,-118.501484,194.101899051318,16.017164,0.1,113.73837,1638989943000
Fix,GT,34.1704728,-118.5013274,193.9850020094365,15.792452,0.1,114.581024,1638989944000
Fix,GT,34.1704109,-118.5011719,193.8959442213373,16.037973,0.099,116.12128,1638989945000
Fix,GT,34.1703468,-118.501021,193.73493482297383,15.06971,0.1,117.34216,1638989946000
Fix,GT,34.170285,-118.5008833,193.53081269624457,13.874811,0.1,118.87897,1638989947000
Fix,GT,34.1702236,-118.5007545,193.30794202999863,13.655326,0.1,120.01178,1638989948000
Fix,GT,34.1701607,-118.5006272,193.2259572260245,13.494199,0.099,120.85803,1638989949000
Fix,GT,34.1701004,-118.5005083,193.0379239560459,12.071195,0.099,121.391754,1638989950000
Fix,GT,34.1700457,-118.5004029,192.8429362609181,11.066142,0.1,122.161804,1638989951000
Fix,GT,34.1699931,-118.5003052,192.6559299333664,10.4879465,0.1,122.99643,1638989952000
Fix,GT,34.1699407,-118.5002106,192.44893265693403,10.514646,0.1,123.754456,1638989953000
Fix,GT,34.1698878,-118.5001172,192.2469318007817,10.280923,0.1,124.30841,1638989954000
Fix,GT,34.1698351,-118.5000263,192.06393094656173,10.186725,0.1,125.02176,1638989955000
Fix,GT,34.1697816,-118.4999365,191.85592110933248,10.254017,0.1,125.735016,1638989956000
Fix,GT,34.1697256,-118.4998442,191.6409262316897,10.946006,0.1,126.10892,1638989957000
Fix,GT,34.1696653,-118.4997473,191.41591477274665,11.26385,0.1,126.95026,1638989958000
Fix,GT,34.1696032,-118.4996492,191.151904977157,11.570483,0.1,127.217896,1638989959000
Fix,GT,34.1695388,-118.4995476,190.86488467936056,11.903933,0.1,127.22629,1638989960000
Fix,GT,34.1694737,-118.4994445,190.5548855379745,11.977328,0.1,127.3107,1638989961000
Fix,GT,34.1694064,-118.4993396,190.23688909466372,12.612942,0.1,127.67224,1638989962000
Fix,GT,34.1693342,-118.499227,189.9008743095025,13.55488,0.1,127.54028,1638989963000
Fix,GT,34.1692582,-118.4991081,189.506859331752,14.064935,0.1,127.40881,1638989964000
Fix,GT,34.1691805,-118.4989866,189.09684786432865,14.186779,0.1,127.70642,1638989965000
Fix,GT,34.1691011,-118.4988638,188.6508353434075,14.646545,0.1,127.84958,1638989966000
Fix,GT,34.1690175,-118.4987348,188.21885881419388,15.525204,0.1,127.92407,1638989967000
Fix,GT,34.1689289,-118.4985987,187.84688321613245,16.288805,0.1,128.00507,1638989968000
Fix,GT,34.1688383,-118.498459,187.5038925954888,16.345219,0.1,127.947845,1638989969000
Fix,GT,34.1687479,-118.4983197,187.2179147238973,16.2174,0.1,127.90155,1638989970000
Fix,GT,34.1686576,-118.4981808,186.99393781290203,16.259655,0.1,128.00397,1638989971000
Fix,GT,34.1685678,-118.4980423,186.8389539110998,16.10166,0.1,127.81641,1638989972000
Fix,GT,34.1684794,-118.4979052,186.741982976038,15.875094,0.1,127.73041,1638989973000
Fix,GT,34.1683911,-118.4977683,186.6829867484644,16.167753,0.099,127.68268,1638989974000
Fix,GT,34.1683015,-118.4976289,186.6420000513382,16.438759,0.1,127.69064,1638989975000
Fix,GT,34.168209,-118.4974853,186.6209969584239,17.008574,0.099,127.7374,1638989976000
Fix,GT,34.168115,-118.49734,186.5919847877645,16.902353,0.1,127.97119,1638989977000
Fix,GT,34.1680226,-118.4971981,186.55798848289763,16.238853,0.1,127.99423,1638989978000
Fix,GT,34.1679344,-118.4970625,186.523993107046,15.633435,0.1,128.08246,1638989979000
Fix,GT,34.1678478,-118.4969301,186.48998843748123,15.5673895,0.1,128.18512,1638989980000
Fix,GT,34.1677601,-118.4967957,186.4509881147351,15.8177,0.1,128.04959,1638989981000
Fix,GT,34.1676716,-118.4966596,186.41799025849417,16.183989,0.1,127.86322,1638989982000
Fix,GT,34.1675804,-118.496518,186.3779948353241,16.791727,0.1,127.60217,1638989983000
Fix,GT,34.1674876,-118.4963729,186.3459920347461,16.906513,0.1,127.5867,1638989984000
Fix,GT,34.1673943,-118.4962285,186.31599077011552,16.92897,0.1,127.8696,1638989985000
Fix,GT,34.1672998,-118.4960827,186.29298863825176,16.94093,0.1,127.861176,1638989986000
Fix,GT,34.1672078,-118.4959408,186.2569839815737,16.211658,0.1,127.98645,1638989987000
Fix,GT,34.1671196,-118.4958057,186.2329919419135,15.585087,0.1,128.1695,1638989988000
Fix,GT,34.167033,-118.4956737,186.19497729111012,15.537605,0.1,128.26321,1638989989000
Fix,GT,34.1669453,-118.4955391,186.14698188357104,16.02042,0.1,127.7424,1638989990000
Fix,GT,34.1668556,-118.4953989,186.1139905514121,16.61272,0.1,127.400604,1638989991000
Fix,GT,34.1667624,-118.4952535,186.1010002872413,17.242218,0.1,127.684814,1638989992000
Fix,GT,34.1666668,-118.4951051,186.1360187305254,17.266161,0.1,127.87656,1638989993000
Fix,GT,34.1665725,-118.4949601,186.2280397626271,16.551346,0.1,128.05212,1638989994000
Fix,GT,34.1664828,-118.4948217,186.3840528696761,15.792331,0.1,127.71509,1638989995000
Fix,GT,34.1663998,-118.4946915,186.57406246162952,14.49393,0.1,127.42383,1638989996000
Fix,GT,34.1663234,-118.4945701,186.7880623691231,13.583198,0.099,126.99988,1638989997000
Fix,GT,34.1662515,-118.494454,187.00408314157767,13.128876,0.1,126.49606,1638989998000
Fix,GT,34.1661828,-118.494341,187.24007174186667,12.692249,0.099,125.94467,1638989999000
Fix,GT,34.1661176,-118.4942307,187.4871008668025,12.204399,0.1,125.07477,1638990000000
Fix,GT,34.166057,-118.4941237,187.78909919304584,11.6551895,0.1,123.81488,1638990001000
Fix,GT,34.1660016,-118.4940206,188.08710038005745,10.961176,0.1,122.50653,1638990002000
Fix,GT,34.1659505,-118.4939211,188.3880870888233,10.658127,0.1,121.35486,1638990003000
Fix,GT,34.165901,-118.4938212,188.67909473214485,10.842845,0.1,120.533325,1638990004000
Fix,GT,34.1658518,-118.4937177,188.98608471526765,10.964961,0.1,119.44867,1638990005000
Fix,GT,34.165804,-118.4936132,189.2610846109185,11.128195,0.1,118.45349,1638990006000
Fix,GT,34.1657569,-118.4935054,189.5050668426426,11.15992,0.1,117.3295,1638990007000
Fix,GT,34.1657122,-118.4933979,189.7150655697603,11.071865,0.1,116.28287,1638990008000
Fix,GT,34.1656686,-118.4932883,189.910055575015,11.177094,0.1,115.16553,1638990009000
Fix,GT,34.1656275,-118.4931793,190.08304620134737,10.881349,0.1,114.10483,1638990010000
Fix,GT,34.1655884,-118.4930706,190.23505078325653,11.071823,0.1,113.15317,1638990011000
Fix,GT,34.1655484,-118.4929555,190.36903827515013,12.044734,0.1,112.32266,1638990012000
Fix,GT,34.1655061,-118.4928274,190.4570182145238,13.33419,0.1,111.27225,1638990013000
Fix,GT,34.1654621,-118.492687,190.50601087192425,14.323225,0.1,110.19119,1638990014000
Fix,GT,34.1654179,-118.4925354,190.5789449454784,15.120661,0.1,108.89996,1638990015000
Fix,GT,34.1653757,-118.4923771,190.53898240522503,15.422723,0.1,107.15106,1638990016000
Fix,GT,34.1653365,-118.492214,190.56001533805392,15.834446,0.1,105.46829,1638990017000
Fix,GT,34.1653004,-118.4920466,190.4799698455576,16.08869,0.1,103.914795,1638990018000
Fix,GT,34.1652675,-118.4918761,190.34896586860992,16.164593,0.1,102.337585,1638990019000
Fix,GT,34.1652385,-118.4917013,190.18892876942127,16.738518,0.1,100.73743,1638990020000
Fix,GT,34.1652119,-118.4915188,189.9659210817665,17.395067,0.1,99.39386,1638990021000
Fix,GT,34.1651884,-118.4913294,189.69091416438715,17.808273,0.1,97.72095,1638990022000
Fix,GT,34.1651694,-118.4911357,189.37291028680443,18.029879,0.1,96.0607,1638990023000
Fix,GT,34.1651549,-118.4909404,189.0488995503087,18.165672,0.1,94.38025,1638990024000
Fix,GT,34.1651449,-118.490744,188.7478938740117,18.038223,0.1,92.91568,1638990025000
Fix,GT,34.1651395,-118.4905498,188.4659282954321,17.769701,0.1,91.24649,1638990026000
Fix,GT,34.1651381,-118.4903573,188.23692560748384,17.85817,0.1,90.0134,1638990027000
Fix,GT,34.1651391,-118.4901628,187.99693960298973,17.921692,0.1,89.48694,1638990028000
Fix,GT,34.1651406,-118.4899695,187.7799307859328,17.67189,0.1,89.391846,1638990029000
Fix,GT,34.1651421,-118.4897787,187.59294452460668,17.633663,0.1,89.53653,1638990030000
Fix,GT,34.1651432,-118.4895858,187.45996144252663,17.8103,0.1,89.552734,1638990031000
Fix,GT,34.1651449,-118.4893936,187.3599794172477,17.625076,0.1,89.30588,1638990032000
Fix,GT,34.1651467,-118.4892036,187.28297288597608,17.509087,0.099,89.33026,1638990033000
Fix,GT,34.1651493,-118.489011,187.2379726651853,18.051323,0.1,88.73126,1638990034000
Fix,GT,34.1651537,-118.4888089,187.17298008341345,19.220478,0.099,88.31323,1638990035000
Fix,GT,34.165158,-118.4885975,187.151990711492,19.73044,0.1,88.81091,1638990036000
Fix,GT,34.165161,-118.4883807,187.0929803385781,20.297497,0.1,89.05084,1638990037000
Fix,GT,34.165164,-118.4881582,187.01498467480764,20.709501,0.1,89.14365,1638990038000
Fix,GT,34.1651662,-118.4879311,186.96497407406332,21.206476,0.1,89.3367,1638990039000
Fix,GT,34.1651682,-118.4876998,186.897983545634,21.365772,0.1,89.50162,1638990040000
Fix,GT,34.1651696,-118.4874694,186.8539867081493,21.115355,0.1,89.57434,1638990041000
Fix,GT,34.1651718,-118.487242,186.78698426811025,20.743332,0.1,89.02661,1638990042000
Fix,GT,34.1651758,-118.4870228,186.73399446873648,19.596954,0.1,88.55182,1638990043000
Fix,GT,34.1651802,-118.4868174,186.70598761695857,18.389046,0.1,88.50397,1638990044000
Fix,GT,34.1651838,-118.4866227,186.6549858984808,17.556826,0.1,88.92474,1638990045000
Fix,GT,34.1651864,-118.4864355,186.625990525726,17.08342,0.1,89.00763,1638990046000
Fix,GT,34.165189,-118.4862512,186.59397892029585,16.921091,0.1,89.12097,1638990047000
Fix,GT,34.1651906,-118.4860684,186.55099523148985,16.805702,0.1,89.450775,1638990048000
Fix,GT,34.1651922,-118.4858861,186.53899830615217,16.82599,0.1,89.2944,1638990049000
Fix,GT,34.1651943,-118.4857026,186.5259896562472,17.08609,0.1,89.069824,1638990050000
Fix,GT,34.1651972,-118.4855151,186.52499743474928,17.468493,0.1,88.80209,1638990051000
Fix,GT,34.1652001,-118.4853261,186.53499992305925,17.353361,0.1,89.0419,1638990052000
Fix,GT,34.1652022,-118.4851392,186.5169932313021,17.116497,0.1,89.17151,1638990053000
Fix,GT,34.1652046,-118.4849561,186.4979962017785,16.457722,0.1,89.07434,1638990054000
Fix,GT,34.165207,-118.484784,186.47798474791,15.433982,0.1,89.042175,1638990055000
Fix,GT,34.165209,-118.4846209,186.4479912005905,14.749384,0.1,89.19702,1638990056000
Fix,GT,34.1652109,-118.4844614,186.42399518086503,14.632336,0.1,89.15378,1638990057000
Fix,GT,34.1652131,-118.4843065,186.41398950750195,13.849163,0.1,88.90805,1638990058000
Fix,GT,34.1652155,-118.4841615,186.3869902399913,12.921724,0.1,88.81479,1638990059000
Fix,GT,34.1652179,-118.4840226,186.3599922012252,12.805851,0.1,88.836975,1638990060000
Fix,GT,34.1652199,-118.4838829,186.3279846975589,12.889963,0.1,88.99777,1638990061000
Fix,GT,34.1652219,-118.4837426,186.30299226654367,12.9587555,0.1,89.03525,1638990062000
Fix,GT,34.1652238,-118.4836024,186.2739940463677,12.95178,0.1,89.01044,1638990063000
Fix,GT,34.1652261,-118.483461,186.2519884230774,13.072606,0.1,88.87332,1638990064000
Fix,GT,34.1652282,-118.4833199,186.2300004839739,12.950333,0.1,88.92987,1638990065000
Fix,GT,34.1652302,-118.483179,186.2109939274341,13.149854,0.1,89.04529,1638990066000
Fix,GT,34.1652319,-118.4830338,186.17199676875444,13.580446,0.1,89.20209,1638990067000
Fix,GT,34.1652332,-118.4828855,186.152993031092,13.666419,0.1,89.461914,1638990068000
Fix,GT,34.1652348,-118.4827383,186.12098465985687,13.474368,0.1,89.10153,1638990069000
Fix,GT,34.1652371,-118.4825932,186.06299574011004,13.322713,0.1,88.800934,1638990070000
Fix,GT,34.1652398,-118.4824471,186.00898744650743,13.725567,0.1,88.66159,1638990071000
Fix,GT,34.1652426,-118.4822951,185.9639837638848,14.3128195,0.1,88.67438,1638990072000
Fix,GT,34.165245,-118.4821377,185.9410002892525,14.560592,0.1,89.15442,1638990073000
Fix,GT,34.1652468,-118.4819792,185.93898646795003,14.759626,0.1,89.13583,1638990074000
Fix,GT,34.1652489,-118.4818169,185.88098931291512,15.183146,0.1,89.05173,1638990075000
Fix,GT,34.1652509,-118.4816497,185.838983797285,15.679654,0.1,89.215546,1638990076000
Fix,GT,34.1652527,-118.4814746,185.7849846258268,16.721672,0.1,89.23651,1638990077000
Fix,GT,34.1652548,-118.4812863,185.72597285478372,17.983126,0.099,89.14917,1638990078000
Fix,GT,34.1652573,-118.4810851,185.66098745711147,19.025333,0.1,89.10028,1638990079000
Fix,GT,34.1652599,-118.4808744,185.6199846817612,19.861364,0.1,89.16107,1638990080000
Fix,GT,34.1652626,-118.480655,185.58398460997827,20.520624,0.1,89.047,1638990081000
Fix,GT,34.1652661,-118.4804295,185.56498382627964,21.085032,0.1,88.70245,1638990082000
Fix,GT,34.1652702,-118.4801988,185.51797753916583,21.343616,0.1,88.995056,1638990083000
Fix,GT,34.1652727,-118.4799678,185.46599471295343,21.19608,0.1,89.35834,1638990084000
Fix,GT,34.1652747,-118.4797394,185.41898662547536,20.916172,0.1,89.30734,1638990085000
Fix,GT,34.1652774,-118.4795141,185.3629854854813,20.631664,0.1,89.03876,1638990086000
Fix,GT,34.1652805,-118.4792919,185.29999375443907,20.338123,0.1,88.908905,1638990087000
Fix,GT,34.1652843,-118.4790731,185.2429918201584,20.018475,0.1,88.7872,1638990088000
Fix,GT,34.1652872,-118.4788577,185.2009784461269,19.723894,0.1,89.21152,1638990089000
Fix,GT,34.1652894,-118.4786453,185.1579920108153,19.4475,0.1,89.23343,1638990090000
Fix,GT,34.1652919,-118.4784358,185.09899187621664,19.177366,0.1,89.055176,1638990091000
Fix,GT,34.1652951,-118.4782272,185.03099440037275,19.406126,0.1,88.778656,1638990092000
Fix,GT,34.1652984,-118.4780157,185.000981131525,19.482643,0.1,88.97797,1638990093000
Fix,GT,34.1653018,-118.4778038,184.9599797050872,19.706327,0.1,88.74396,1638990094000
Fix,GT,34.1653052,-118.4775879,184.85796914580743,20.017067,0.1,88.93335,1638990095000
Fix,GT,34.1653075,-118.4773706,184.7499906270401,20.208027,0.1,89.36487,1638990096000
Fix,GT,34.1653089,-118.477147,184.69496820395813,21.088766,0.1,89.52609,1638990097000
Fix,GT,34.1653088,-118.4769131,184.52795579486505,22.072035,0.1,90.44348,1638990098000
Fix,GT,34.1653032,-118.4766663,184.30694285266568,23.416039,0.1,92.33731,1638990099000
Fix,GT,34.1652886,-118.4764096,184.0399222097965,24.017672,0.1,94.99667,1638990100000
Fix,GT,34.1652649,-118.4761484,183.74792476660943,24.486895,0.1,97.00275,1638990101000
Fix,GT,34.1652326,-118.4758827,183.4369177642353,25.073843,0.1,98.97562,1638990102000
Fix,GT,34.1651922,-118.4756122,183.07290688045163,25.652044,0.1,101.098694,1638990103000
Fix,GT,34.1651411,-118.4753381,182.72691526633363,26.145342,0.1,103.89789,1638990104000
Fix,GT,34.1650781,-118.4750653,182.3548898821394,26.083603,0.1,106.709656,1638990105000
Fix,GT,34.1650042,-118.4747981,181.9839065752001,25.931623,0.1,109.8432,1638990106000
Fix,GT,34.1649173,-118.4745385,181.6289236174537,25.739653,0.1,113.49994,1638990107000
Fix,GT,34.1648184,-118.4742875,181.27291282183532,25.53235,0.1,116.86249,1638990108000
Fix,GT,34.1647093,-118.4740471,180.93589454904892,25.00715,0.1,119.948395,1638990109000
Fix,GT,34.1645931,-118.4738206,180.53388458798827,24.183792,0.1,123.032776,1638990110000
Fix,GT,34.1644693,-118.4736076,180.21886972305177,23.860306,0.099,126.37866,1638990111000
Fix,GT,34.1643364,-118.4734051,179.88292222596056,23.788393,0.1,129.63837,1638990112000
Fix,GT,34.1641945,-118.4732132,179.65493780384307,23.644308,0.1,133.1813,1638990113000
Fix,GT,34.1640436,-118.4730337,179.24589318257384,23.523563,0.1,136.83081,1638990114000
Fix,GT,34.163885,-118.4728659,178.827913782018,23.40546,0.1,139.74475,1638990115000
Fix,GT,34.1637214,-118.4727054,178.4359113221327,23.590187,0.1,141.23587,1638990116000
Fix,GT,34.1635496,-118.472549,178.08591311390978,24.219955,0.1,144.2851,1638990117000
Fix,GT,34.1633669,-118.4724011,177.74392295974633,24.757679,0.1,147.46393,1638990118000
Fix,GT,34.1631751,-118.4722637,177.4139167086808,24.757355,0.1,150.30807,1638990119000
Fix,GT,34.1629788,-118.4721339,177.04392090718542,24.960083,0.1,151.72614,1638990120000
Fix,GT,34.1627795,-118.4720089,176.71192574301642,24.916435,0.099,152.95776,1638990121000
Fix,GT,34.1625785,-118.4718895,176.39090717691835,24.775814,0.1,154.17249,1638990122000
Fix,GT,34.1623778,-118.4717741,176.10295310627507,24.447939,0.1,154.12903,1638990123000
Fix,GT,34.1621828,-118.4716581,175.91996744602312,23.893682,0.1,153.20203,1638990124000
Fix,GT,34.1619921,-118.4715393,175.86200572140373,23.831861,0.099,152.08734,1638990125000
Fix,GT,34.1618018,-118.4714165,175.9480261721695,24.075117,0.1,151.56348,1638990126000
Fix,GT,34.1616097,-118.4712925,176.13505512580042,24.278023,0.099,152.00647,1638990127000
Fix,GT,34.1614168,-118.4711664,176.51811583420402,24.414957,0.1,150.84253,1638990128000
Fix,GT,34.1612278,-118.4710321,177.02813664288212,24.147455,0.1,147.95615,1638990129000
Fix,GT,34.1610486,-118.4708878,177.63415193087232,23.628609,0.1,144.54785,1638990130000
Fix,GT,34.1608811,-118.4707326,178.2861582458238,23.210598,0.099,140.26971,1638990131000
Fix,GT,34.1607248,-118.4705669,178.90313745429927,23.009295,0.099,137.62555,1638990132000
Fix,GT,34.1605753,-118.4703963,179.5201578138785,22.766634,0.1,135.66736,1638990133000
Fix,GT,34.1604302,-118.4702203,180.21214070039613,22.93152,0.1,133.83295,1638990134000
Fix,GT,34.160291,-118.4700363,180.7210856689536,22.973392,0.1,131.00195,1638990135000
Fix,GT,34.1601598,-118.4698436,181.1831390560546,22.797451,0.1,127.843445,1638990136000
Fix,GT,34.1600392,-118.4696448,181.6180585390995,22.58971,0.1,124.64581,1638990137000
Fix,GT,34.1599279,-118.4694385,181.88803529184685,22.78726,0.099,121.76434,1638990138000
Fix,GT,34.1598232,-118.4692243,182.11707857354125,22.949167,0.099,119.36545,1638990139000
Fix,GT,34.1597261,-118.4690054,182.19201975259045,22.758268,0.1,117.02103,1638990140000
Fix,GT,34.1596369,-118.4687829,182.2560064169793,22.815077,0.099,114.66589,1638990141000
Fix,GT,34.1595556,-118.4685558,182.30001449607315,22.814432,0.1,112.22455,1638990142000
Fix,GT,34.1594824,-118.4683221,182.31501125524568,23.223642,0.1,109.086914,1638990143000
Fix,GT,34.1594217,-118.4680798,182.33900352369088,23.349697,0.1,104.683716,1638990144000
Fix,GT,34.1593769,-118.4678317,182.20301165416907,23.414972,0.1,100.185974,1638990145000
Fix,GT,34.1593456,-118.4675781,182.05995689443404,23.902512,0.1,97.22485,1638990146000
Fix,GT,34.1593238,-118.4673188,181.90297004191223,24.19355,0.1,94.746704,1638990147000
Fix,GT,34.1593093,-118.4670559,181.7559521504785,24.27916,0.1,93.19214,1638990148000
Fix,GT,34.1592996,-118.466791,181.61698174347583,24.69167,0.099,91.92456,1638990149000
Fix,GT,34.1592939,-118.4665204,181.50696571685515,25.227655,0.1,91.07657,1638990150000
Fix,GT,34.159291,-118.4662454,181.4098945353581,25.340088,0.099,90.48779,1638990151000
Fix,GT,34.1592897,-118.4659702,181.1768930316635,25.457241,0.1,90.10437,1638990152000
Fix,GT,34.15929,-118.4656926,180.79494025291785,25.835606,0.1,89.60886,1638990153000
Fix,GT,34.159292,-118.4654091,180.46392306965288,26.439499,0.1,89.30386,1638990154000
Fix,GT,34.1592948,-118.465119,180.1509193081709,27.063326,0.1,89.191864,1638990155000
Fix,GT,34.1592979,-118.4648223,179.78090771947242,27.612083,0.1,89.23859,1638990156000
Fix,GT,34.1593011,-118.464523,179.31788874781412,27.543743,0.1,89.082275,1638990157000
Fix,GT,34.1593053,-118.4642254,178.8268954877984,27.340883,0.1,88.8226,1638990158000
Fix,GT,34.1593101,-118.4639305,178.3519020003588,27.051674,0.1,88.75162,1638990159000
Fix,GT,34.1593147,-118.4636383,177.8538761942997,26.860744,0.1,88.95267,1638990160000
Fix,GT,34.1593185,-118.463348,177.364899954485,26.685715,0.1,89.13904,1638990161000
Fix,GT,34.1593208,-118.4630596,176.86689586571555,26.524595,0.1,89.55194,1638990162000
Fix,GT,34.1593225,-118.4627729,176.34889369745133,26.344917,0.1,89.40668,1638990163000
Fix,GT,34.1593249,-118.4624902,175.84588069076673,25.727646,0.1,89.2937,1638990164000
Fix,GT,34.159327,-118.462213,175.2848703142558,25.428795,0.1,89.54254,1638990165000
Fix,GT,34.1593273,-118.4619383,174.70288931843942,25.257986,0.1,89.94098,1638990166000
Fix,GT,34.1593256,-118.4616652,174.16990414097066,25.138226,0.1,90.86572,1638990167000
Fix,GT,34.1593162,-118.4613916,173.68289131344855,25.490326,0.1,93.62842,1638990168000
Fix,GT,34.1592962,-118.4611131,173.17389973474388,25.910507,0.1,95.85663,1638990169000
Fix,GT,34.1592692,-118.4608343,172.6869020078704,25.875248,0.1,97.35089,1638990170000
Fix,GT,34.1592354,-118.4605574,172.31294531816454,25.746927,0.1,98.93945,1638990171000
Fix,GT,34.1591951,-118.4602837,172.10199915729487,25.53959,0.1,100.91492,1638990172000
Fix,GT,34.1591485,-118.460014,172.109007509172,25.299772,0.1,102.37424,1638990173000
Fix,GT,34.1590958,-118.459749,172.26203660296136,24.982063,0.1,104.581116,1638990174000
Fix,GT,34.1590309,-118.4594889,172.51705241973067,25.288084,0.1,108.30121,1638990175000
Fix,GT,34.1589555,-118.4592307,172.81507603854897,25.11432,0.1,109.801025,1638990176000
Fix,GT,34.1588777,-118.4589771,173.13205883838285,24.750767,0.1,110.41843,1638990177000
Fix,GT,34.1587984,-118.4587286,173.42205397381866,24.370176,0.1,111.28702,1638990178000
Fix,GT,34.1587188,-118.4584851,173.78007734427229,23.822563,0.1,111.29889,1638990179000
Fix,GT,34.1586412,-118.4582467,174.11105438774266,23.49114,0.1,111.26544,1638990180000
Fix,GT,34.1585645,-118.4580076,174.31002356361924,23.863054,0.1,110.87497,1638990181000
Fix,GT,34.1584869,-118.4577644,174.45502863082802,24.01301,0.1,110.98041,1638990182000
Fix,GT,34.1584095,-118.4575221,174.58599041881646,23.850449,0.1,110.84854,1638990183000
Fix,GT,34.1583336,-118.4572815,174.64604784593195,23.581621,0.1,110.87097,1638990184000
Fix,GT,34.1582573,-118.4570445,174.64200292912614,23.319817,0.1,111.316895,1638990185000
Fix,GT,34.1581816,-118.4568106,174.5899685270025,22.882332,0.1,111.151855,1638990186000
Fix,GT,34.158109,-118.4565807,174.4389578354701,22.5609,0.1,110.33246,1638990187000
Fix,GT,34.1580408,-118.4563496,174.22794152364136,22.713123,0.1,108.73517,1638990188000
Fix,GT,34.1579761,-118.4561129,173.97094945177622,23.257967,0.1,107.67056,1638990189000
Fix,GT,34.1579144,-118.4558697,173.65392744474462,23.58216,0.1,106.19043,1638990190000
Fix,GT,34.1578575,-118.45562,173.2919252926614,24.139412,0.1,104.559814,1638990191000
Fix,GT,34.1578048,-118.4553633,172.9369200644605,24.550207,0.1,103.17282,1638990192000
Fix,GT,34.1577568,-118.4551016,172.5489257024826,24.944977,0.1,101.6958,1638990193000
Fix,GT,34.1577138,-118.4548317,172.18793535790778,25.616854,0.1,100.02023,1638990194000
Fix,GT,34.1576769,-118.4545573,171.7829233628092,25.591307,0.1,98.17871,1638990195000
Fix,GT,34.1576471,-118.4542816,171.37192277819233,25.63415,0.1,96.7923,1638990196000
Fix,GT,34.1576218,-118.4540056,170.87988645194434,25.560257,0.1,95.723694,1638990197000
Fix,GT,34.1575999,-118.4537273,170.36389063921874,26.071623,0.1,95.23529,1638990198000
Fix,GT,34.1575775,-118.4534407,169.8279207560022,26.758894,0.1,95.246704,1638990199000
Fix,GT,34.1575546,-118.453152,169.473926238421,26.6959,0.1,95.37842,1638990200000
Fix,GT,34.157532,-118.4528648,169.18297004459194,26.489832,0.1,95.23776,1638990201000
Fix,GT,34.1575094,-118.4525805,169.1140237577022,26.170546,0.1,95.602234,1638990202000
Fix,GT,34.1574845,-118.4523004,169.22803797693143,25.865088,0.1,96.6275,1638990203000
Fix,GT,34.1574546,-118.4520228,169.47503340269031,25.699478,0.1,98.007935,1638990204000
Fix,GT,34.1574197,-118.4517507,169.68304454270867,24.842728,0.1,99.24527,1638990205000
Fix,GT,34.157383,-118.4514945,169.8940453782927,23.1036,0.1,100.193665,1638990206000
Fix,GT,34.1573454,-118.4512581,170.1200297622597,21.32792,0.1,101.43451,1638990207000
Fix,GT,34.1573063,-118.4510393,170.33704361090784,20.066273,0.1,102.53305,1638990208000
Fix,GT,34.1572666,-118.450836,170.53203697036278,18.335423,0.1,103.52756,1638990209000
Fix,GT,34.1572279,-118.450652,170.7090395989185,16.680586,0.1,104.51074,1638990210000
Fix,GT,34.1571901,-118.4504849,170.83800780550447,15.3498,0.1,105.492645,1638990211000
Fix,GT,34.1571528,-118.4503304,170.88701545495903,14.4564705,0.1,106.29248,1638990212000
Fix,GT,34.1571156,-118.450184,170.71697496834398,13.715297,0.1,107.302185,1638990213000
Fix,GT,34.1570785,-118.4500466,170.48994375623985,12.950333,0.1,108.204285,1638990214000
Fix,GT,34.1570419,-118.4499192,170.1669390018982,11.924532,0.1,109.4924,1638990215000
Fix,GT,34.1570062,-118.4498037,169.75393123769598,10.82011,0.1,110.684204,1638990216000
Fix,GT,34.1569717,-118.4496985,169.3149200809002,10.110082,0.1,111.86493,1638990217000
Fix,GT,34.1569377,-118.4496006,168.8359245354744,9.472701,0.1,112.87305,1638990218000
Fix,GT,34.1569049,-118.44951,168.37492580709747,8.760349,0.1,113.619385,1638990219000
Fix,GT,34.1568741,-118.4494269,167.95793235132098,7.963402,0.1,113.97446,1638990220000
Fix,GT,34.1568466,-118.4493538,167.5819353221797,6.8414598,0.1,114.30658,1638990221000
Fix,GT,34.156823,-118.449292,167.26894343893846,5.7032943,0.1,114.66943,1638990222000
Fix,GT,34.1568028,-118.4492395,166.98897883831327,5.0088224,0.1,114.73822,1638990223000
Fix,GT,34.1567854,-118.4491937,166.81496772533865,4.283922,0.1,114.583405,1638990224000
Fix,GT,34.1567706,-118.449155,166.67098262449284,3.5679245,0.1,114.48981,1638990225000
Fix,GT,34.1567585,-118.4491232,166.53298697829396,2.9355593,0.1,114.37045,1638990226000
Fix,GT,34.1567493,-118.4490991,166.45298935995763,1.8852072,0.1,114.62366,1638990227000
Fix,GT,34.1567444,-118.4490862,166.40399543558155,0.8133474,0.1,114.8313,1638990228000
Fix,GT,34.1567424,-118.4490814,166.39300459085464,0.21247025,0.1,114.89389,1638990229000
Fix,GT,34.1567422,-118.4490809,166.39200042615272,0.0028297384,0.1,114.904236,1638990230000
Fix,GT,34.1567423,-118.4490809,166.39299957384472,0.0014171514,0.1,114.90451,1638990231000
Fix,GT,34.1567423,-118.4490809,166.39299872153416,0.003160332,0.1,114.9039,1638990232000
Fix,GT,34.1567423,-118.4490809,166.39299955447404,0.0022356745,0.1,114.90372,1638990233000
Fix,GT,34.1567423,-118.4490809,166.39299870216345,0.002,0.1,114.903595,1638990234000
Fix,GT,34.1567423,-118.4490809,166.39300445525976,0.0010000002,0.1,114.90335,1638990235000
Fix,GT,34.1567423,-118.4490809,166.39299862468067,0.0014135315,0.1,114.9032,1638990236000
Fix,GT,34.1567423,-118.4490809,166.3930043584063,0.001002027,0.1,114.9028,1638990237000
Fix,GT,34.1567423,-118.4490809,166.39300019370697,0.002236068,0.1,114.90253,1638990238000
Fix,GT,34.1567423,-118.4490809,166.39299602900758,0.0028284271,0.1,114.90234,1638990239000
Fix,GT,34.1567423,-118.4490809,166.39200342859232,0.0042426405,0.1,114.90207,1638990240000
