MessageType,Provider,LatitudeDegrees,LongitudeDegrees,AltitudeMeters,SpeedMps,AccuracyMeters,BearingDegrees,UnixTimeMillis
Fix,GT,37.3949758,-122.1016891,-5.384000160455704,0.0012425659,0.1,30.59729,1615936311441
Fix,GT,37.3949758,-122.1016891,-5.384000160455704,0.0014142136,0.1,30.596832,1615936312441
Fix,GT,37.3949758,-122.1016891,-5.384000160455704,0.00058604183,0.1,30.596924,1615936313441
Fix,GT,37.3949758,-122.1016891,-5.384000160455704,0.0004143942,0.1,30.596802,1615936314441
Fix,GT,37.3949758,-122.1016891,-5.384000160455704,0.0005856059,0.1,30.596924,1615936315441
Fix,GT,37.3949758,-122.1016891,-5.384000160455704,0.0,0.1,30.596832,1615936316441
Fix,GT,37.3949758,-122.1016891,-5.384000160455704,0.0005856059,0.1,30.596802,1615936317441
Fix,GT,37.3949758,-122.1016891,-5.384000160455704,0.0,0.1,30.596802,1615936318441
Fix,GT,37.3949758,-122.1016891,-5.384000160455704,0.0,0.1,30.59668,1615936319441
Fix,GT,37.3949758,-122.1016891,-5.3839998395442965,0.00041439413,0.1,30.596619,1615936320441
Fix,GT,37.3949758,-122.1016891,-5.384000160455704,0.0005856059,0.1,30.596497,1615936321441
Fix,GT,37.3949758,-122.1016891,-5.384,0.0014142136,0.1,30.596527,1615936322441
Fix,GT,37.3949758,-122.1016891,-5.384,0.001,0.1,30.596619,1615936323441
Fix,GT,37.3949758,-122.1016891,-5.384000160455704,0.0012425659,0.1,30.59668,1615936324441
Fix,GT,37.3949758,-122.1016891,-5.384,0.001,0.1,30.596558,1615936325441
Fix,GT,37.3949758,-122.1016891,-5.3839998395442965,0.0017238487,0.1,30.596375,1615936326441
Fix,GT,37.3949758,-122.1016891,-5.3839998395442965,0.0005860418,0.1,30.59616,1615936327441
Fix,GT,37.3949758,-122.1016891,-5.384,0.001,0.1,30.5961,1615936328441
Fix,GT,37.3949758,-122.1016891,-5.3839998395442965,0.001,0.1,30.59607,1615936329441
Fix,GT,37.3949758,-122.1016891,-5.3839998395442965,0.00041439402,0.1,30.596039,1615936330441
Fix,GT,37.3949758,-122.1016891,-5.384,0.001,0.1,30.59607,1615936331441
Fix,GT,37.3949758,-122.1016891,-5.384,0.0005856061,0.1,30.59613,1615936332441
Fix,GT,37.3949758,-122.1016891,-5.3839998395442965,0.0,0.1,30.596527,1615936333441
Fix,GT,37.3949758,-122.1016891,-5.385,0.00041439387,0.1,30.596466,1615936334441
Fix,GT,37.3949758,-122.1016891,-5.384999839514494,0.001,0.1,30.598053,1615936335441
Fix,GT,37.3949758,-122.1016891,-5.385999839484692,0.001242566,0.1,30.597412,1615936336441
Fix,GT,37.3949758,-122.1016891,-5.385999839484692,0.0011716476,0.1,30.59729,1615936337441
Fix,GT,37.3949758,-122.1016892,-5.385999839484692,0.014023362,0.1,30.534302,1615936338441
Fix,GT,37.394978,-122.1016882,-5.390000160634518,0.52183497,0.1,29.105835,1615936339441
Fix,GT,37.3949847,-122.1016865,-5.393414393723011,0.9647076,0.1,23.528198,1615936340441
Fix,GT,37.3949956,-122.1016849,-5.405828787207604,1.4676926,0.1,15.889374,1615936341441
Fix,GT,37.3950106,-122.1016828,-5.424414393603802,1.8881168,0.1,10.587769,1615936342441
Fix,GT,37.3950305,-122.1016796,-5.435243343025446,2.6118069,0.1,8.343536,1615936343441
Fix,GT,37.395057,-122.1016735,-5.475900592327118,3.3512688,0.1,10.444489,1615936344441
Fix,GT,37.3950889,-122.1016606,-5.531486197024583,4.072818,0.1,17.777618,1615936345441
Fix,GT,37.3951246,-122.1016389,-5.56524334654212,4.694919,0.1,25.70404,1615936346441
Fix,GT,37.3951635,-122.1016123,-5.601657741189003,4.966448,0.1,28.553558,1615936347441
Fix,GT,37.3952018,-122.1015846,-5.627828787207603,4.8417397,0.1,30.017609,1615936348441
Fix,GT,37.3952386,-122.1015568,-5.65,4.6797137,0.1,31.224304,1615936349441
Fix,GT,37.3952732,-122.1015291,-5.636171381086111,4.338706,0.1,32.622223,1615936350441
Fix,GT,37.3953042,-122.1015041,-5.628729708731175,3.7892566,0.1,32.584442,1615936351441
Fix,GT,37.3953299,-122.1014841,-5.685072136640549,2.8667812,0.1,31.80249,1615936352441
Fix,GT,37.3953477,-122.1014705,-5.732657573461532,1.8194997,0.1,31.429535,1615936353441
Fix,GT,37.3953586,-122.1014622,-5.753999828517436,1.1483545,0.1,31.27121,1615936354441
Fix,GT,37.3953674,-122.1014557,-5.759999828338623,1.2140194,0.1,31.200592,1615936355441
Fix,GT,37.3953791,-122.1014451,-5.800215726464987,2.012648,0.1,33.767883,1615936356441
Fix,GT,37.3953935,-122.101425,-6.007674977123738,2.7429996,0.1,44.617035,1615936357441
Fix,GT,37.395407,-122.101394,-5.891784102201461,3.4415145,0.1,58.781494,1615936358441
Fix,GT,37.3954158,-122.1013494,-5.81002728176117,4.5881615,0.1,76.374146,1615936359441
Fix,GT,37.3954131,-122.1012886,-5.726099247694016,6.1167474,0.1,95.01276,1615936360441
Fix,GT,37.3953943,-122.1012131,-5.681342427492142,7.8423357,0.1,109.8522,1615936361441
Fix,GT,37.3953605,-122.1011253,-5.6785854377150535,9.265621,0.1,117.0524,1615936362441
Fix,GT,37.3953181,-122.1010257,-5.687756651341916,10.74254,0.1,118.12323,1615936363441
Fix,GT,37.3952696,-122.1009134,-5.699171213865281,11.7373085,0.1,118.23279,1615936364441
Fix,GT,37.3952183,-122.1007952,-5.6941712139844896,12.100488,0.1,118.446106,1615936365441
Fix,GT,37.3951654,-122.1006728,-5.778828613638877,12.525736,0.1,118.32352,1615936366441
Fix,GT,37.3951112,-122.100548,-5.829171214342118,12.629946,0.1,118.46008,1615936367441
Fix,GT,37.3950561,-122.1004213,-5.797513470351696,12.962418,0.1,118.465576,1615936368441
Fix,GT,37.3949995,-122.1002909,-5.7911710420250895,13.312351,0.1,118.43469,1615936369441
Fix,GT,37.3949417,-122.1001573,-5.774513644099235,13.612239,0.1,118.38315,1615936370441
Fix,GT,37.3948823,-122.1000206,-5.758585607409477,13.936653,0.1,118.6687,1615936371441
Fix,GT,37.3948212,-122.0998812,-5.723585607409477,14.23602,0.1,118.769775,1615936372441
Fix,GT,37.3947588,-122.0997389,-5.73675682258606,14.482204,0.1,118.62393,1615936373441
Fix,GT,37.3946957,-122.0995945,-5.746342430353165,14.693499,0.1,118.66626,1615936374441
Fix,GT,37.3946316,-122.0994481,-5.745828613430262,14.903215,0.1,118.54761,1615936375441
Fix,GT,37.394567,-122.0992994,-5.748756651669741,15.069286,0.1,118.44476,1615936376441
Fix,GT,37.394502,-122.0991493,-5.737828613668681,15.174941,0.1,118.43167,1615936377441
Fix,GT,37.3944367,-122.0989994,-5.703756823301315,15.003472,0.1,118.64142,1615936378441
Fix,GT,37.3943721,-122.0988524,-5.698657568693161,14.705906,0.1,118.7301,1615936379441
Fix,GT,37.3943089,-122.0987085,-5.689828614860773,14.392391,0.1,118.6387,1615936380441
Fix,GT,37.3942472,-122.0985664,-5.649099254786968,14.293913,0.1,118.46066,1615936381441
Fix,GT,37.3941864,-122.0984253,-5.616855911642313,14.093451,0.1,118.14035,1615936382441
Fix,GT,37.3941272,-122.0982865,-5.554099256038666,13.749672,0.1,117.99463,1615936383441
Fix,GT,37.394069,-122.0981507,-5.503342431783675,13.616461,0.1,118.45044,1615936384441
Fix,GT,37.394009,-122.0980167,-5.431369564592838,13.5475855,0.1,119.67172,1615936385441
Fix,GT,37.3939475,-122.0978862,-5.390171216011048,13.308775,0.1,121.00415,1615936386441
Fix,GT,37.3938849,-122.09776,-5.37,12.981652,0.1,122.09747,1615936387441
Fix,GT,37.3938229,-122.0976378,-5.356342432022094,12.66547,0.1,122.64563,1615936388441
Fix,GT,37.3937605,-122.0975202,-5.332414391994476,12.336796,0.1,124.053375,1615936389441
Fix,GT,37.3936975,-122.0974076,-5.29841423407197,12.005239,0.1,125.51611,1615936390441
Fix,GT,37.3936341,-122.0973,-5.2533422755301,11.694941,0.1,126.94763,1615936391441
Fix,GT,37.3935703,-122.0971964,-5.241414391994477,11.411961,0.1,127.85681,1615936392441
Fix,GT,37.3935079,-122.0970981,-5.205928039729596,10.813001,0.1,128.78922,1615936393441
Fix,GT,37.3934481,-122.0970069,-5.170928039729596,10.064836,0.1,129.61023,1615936394441
Fix,GT,37.3933924,-122.0969247,-5.102928039729596,8.973526,0.1,130.50476,1615936395441
Fix,GT,37.3933431,-122.0968543,-5.0499278890192505,7.5426035,0.1,131.49942,1615936396441
Fix,GT,37.3933026,-122.0967986,-5.008342282354832,5.755314,0.1,132.38327,1615936397441
Fix,GT,37.3932736,-122.0967597,-4.966342432022096,3.6677604,0.1,133.03589,1615936398441
Fix,GT,37.3932567,-122.0967372,-4.942756824016571,1.9665768,0.1,133.3891,1615936399441
Fix,GT,37.3932485,-122.0967265,-4.928585608005523,0.70206225,0.1,133.47833,1615936400441
Fix,GT,37.3932472,-122.0967247,-4.932171216011048,0.014704257,0.1,133.5033,1615936401441
Fix,GT,37.3932472,-122.0967247,-4.929,0.0020707415,0.1,133.50162,1615936402441
Fix,GT,37.3932472,-122.0967247,-4.929,0.0017238513,0.1,133.50183,1615936403441
Fix,GT,37.3932472,-122.0967247,-4.9289998531043535,0.0009999999,0.1,133.50198,1615936404441
Fix,GT,37.3932472,-122.0967247,-4.929,0.001,0.1,133.50201,1615936405441
Fix,GT,37.3932472,-122.0967247,-4.929,0.0017238512,0.1,133.50201,1615936406441
Fix,GT,37.3932472,-122.0967247,-4.9289998531043535,0.0,0.1,133.5022,1615936407441
Fix,GT,37.3932472,-122.0967247,-4.9289998531043535,0.0004143921,0.1,133.50247,1615936408441
Fix,GT,37.3932472,-122.0967247,-4.929,0.0011716469,0.1,133.50238,1615936409441
Fix,GT,37.3932472,-122.0967247,-4.9289998531043535,0.0005860389,0.1,133.50244,1615936410441
Fix,GT,37.3932472,-122.0967247,-4.9289998531043535,0.0009999999,0.1,133.50192,1615936411441
Fix,GT,37.3932472,-122.0967247,-4.929,0.001,0.1,133.5018,1615936412441
Fix,GT,37.3932472,-122.0967247,-4.929,0.0,0.1,133.50174,1615936413441
Fix,GT,37.3932472,-122.0967247,-4.929,0.0,0.1,133.50165,1615936414441
Fix,GT,37.3932472,-122.0967247,-4.929,0.00058560784,0.1,133.50162,1615936415441
Fix,GT,37.3932472,-122.0967247,-4.928999853104353,0.0005856078,0.1,133.50198,1615936416441
Fix,GT,37.3932472,-122.0967247,-4.929,0.0005860391,0.1,133.50174,1615936417441
Fix,GT,37.3932472,-122.0967247,-4.929,0.00082817447,0.1,133.50122,1615936418441
Fix,GT,37.3932472,-122.0967247,-4.929,0.0011716469,0.1,133.5011,1615936419441
Fix,GT,37.3932472,-122.0967247,-4.929,0.001,0.1,133.5011,1615936420441
Fix,GT,37.3932472,-122.0967247,-4.9289998531043535,0.0017572546,0.1,133.50122,1615936421441
Fix,GT,37.3932472,-122.0967247,-4.928,0.0011716469,0.1,133.50146,1615936422441
Fix,GT,37.3932472,-122.0967247,-4.9289998531043535,0.0009999999,0.1,133.50195,1615936423441
Fix,GT,37.3932472,-122.0967247,-4.929,0.001,0.1,133.50201,1615936424441
Fix,GT,37.3932472,-122.0967248,-4.930999853044748,0.004390897,0.1,133.50244,1615936425441
Fix,GT,37.393245,-122.0967219,-4.939585460454226,0.945933,0.1,133.50781,1615936426441
Fix,GT,37.3932342,-122.0967077,-4.927756823301316,2.6239638,0.1,133.56476,1615936427441
Fix,GT,37.3932119,-122.0966784,-4.8983424310684205,4.549006,0.1,133.56332,1615936428441
Fix,GT,37.3931783,-122.0966343,-4.850099109113216,6.374335,0.1,133.53647,1615936429441
Fix,GT,37.3931322,-122.0965747,-4.79568471840024,8.259526,0.1,134.28156,1615936430441
Fix,GT,37.3930746,-122.0965037,-4.697513505995274,9.594915,0.1,135.79718,1615936431441
Fix,GT,37.3930069,-122.0964237,-4.639342430591583,11.012188,0.1,137.0907,1615936432441
Fix,GT,37.3929296,-122.0963351,-4.550856075882911,12.218594,0.1,137.48007,1615936433441
Fix,GT,37.3928446,-122.0962395,-4.412612898647785,13.08341,0.1,138.50159,1615936434441
Fix,GT,37.392753,-122.0961411,-4.270441684126855,13.610489,0.1,139.8053,1615936435441
Fix,GT,37.3926573,-122.0960425,-4.130784113824367,13.879426,0.1,141.03497,1615936436441
Fix,GT,37.3925588,-122.0959456,-3.997441682815552,13.78968,0.1,142.29639,1615936437441
Fix,GT,37.3924606,-122.0958531,-3.8594415679872034,13.515498,0.1,143.28003,1615936438441
Fix,GT,37.3923629,-122.0957624,-3.755784113824368,13.504181,0.1,143.41177,1615936439441
Fix,GT,37.3922651,-122.0956714,-3.641198398798704,13.536926,0.1,143.44543,1615936440441
Fix,GT,37.3921664,-122.0955804,-3.556099253118038,13.686611,0.1,143.67175,1615936441441
Fix,GT,37.3920654,-122.0954897,-3.4856848607063293,13.890234,0.1,144.75555,1615936442441
Fix,GT,37.3919621,-122.0954,-3.3906847593188285,13.956056,0.1,145.43466,1615936443441
Fix,GT,37.3918585,-122.0953111,-3.3051985062360765,13.907556,0.1,145.35223,1615936444441
Fix,GT,37.3917558,-122.095221,-3.1787120585739608,13.939699,0.1,144.38843,1615936445441
Fix,GT,37.3916549,-122.0951265,-3.018071962058544,14.022478,0.1,142.39215,1615936446441
Fix,GT,37.3915554,-122.0950279,-2.905784114718437,14.143731,0.1,140.90851,1615936447441
Fix,GT,37.3914569,-122.0949252,-2.8088560764789583,14.294602,0.1,139.58524,1615936448441
Fix,GT,37.391359,-122.0948185,-2.7098559958934785,14.470575,0.1,138.53879,1615936449441
Fix,GT,37.3912629,-122.0947093,-2.591,14.341911,0.1,136.98633,1615936450441
Fix,GT,37.3911707,-122.0945962,-2.5201985095739365,14.319973,0.1,134.53271,1615936451441
Fix,GT,37.391082,-122.0944785,-2.41751357537508,14.37359,0.1,132.38544,1615936452441
Fix,GT,37.3909961,-122.0943571,-2.317612904071808,14.376262,0.1,131.10919,1615936453441
Fix,GT,37.3909123,-122.0942335,-2.230684864044189,14.36902,0.1,129.87912,1615936454441
Fix,GT,37.3908298,-122.094108,-2.154585608065128,14.419007,0.1,129.10663,1615936455441
Fix,GT,37.3907485,-122.0939806,-2.0581984526515007,14.475115,0.1,128.30609,1615936456441
Fix,GT,37.3906678,-122.0938518,-1.961856140732765,14.54139,0.1,127.647766,1615936457441
Fix,GT,37.3905886,-122.0937205,-1.8715136494636533,14.60891,0.1,126.56549,1615936458441
Fix,GT,37.3905118,-122.0935862,-1.77375687789917,14.696048,0.1,124.85037,1615936459441
Fix,GT,37.3904373,-122.0934479,-1.7571711643934251,14.807423,0.1,123.275696,1615936460441
Fix,GT,37.3903651,-122.0933066,-1.643684818059206,14.922923,0.1,122.37848,1615936461441
Fix,GT,37.3902927,-122.0931635,-1.5889279945492745,15.093193,0.1,122.18628,1615936462441
Fix,GT,37.3902203,-122.0930182,-1.5358287830352784,15.266382,0.1,121.80441,1615936463441
Fix,GT,37.3901476,-122.0928708,-1.495585653156042,15.424887,0.1,121.651306,1615936464441
Fix,GT,37.3900742,-122.0927225,-1.4038113908767702,15.470179,0.1,121.75589,1615936465441
Fix,GT,37.3900004,-122.0925742,-1.3007840905189516,15.483737,0.1,121.82172,1615936466441
Fix,GT,37.3899265,-122.0924257,-1.2337121356129646,15.505786,0.1,121.87512,1615936467441
Fix,GT,37.3898523,-122.0922772,-1.1217841308116911,15.52775,0.1,121.978546,1615936468441
Fix,GT,37.3897781,-122.0921283,-1.0612704784870148,15.594416,0.1,121.84503,1615936469441
Fix,GT,37.3897037,-122.0919783,-1.0177568261623382,15.685894,0.1,121.81033,1615936470441
Fix,GT,37.3896288,-122.0918277,-0.9146129419505598,15.732602,0.1,121.730316,1615936471441
Fix,GT,37.3895541,-122.0916764,-0.8566848453283309,15.746389,0.1,121.746124,1615936472441
Fix,GT,37.3894797,-122.0915266,-0.7933424117863179,15.487846,0.1,121.7478,1615936473441
Fix,GT,37.3894069,-122.091379,-0.781657588005066,15.262239,0.1,121.573364,1615936474441
Fix,GT,37.3893349,-122.0912333,-0.7753151292800904,15.111522,0.1,121.718994,1615936475441
Fix,GT,37.3892634,-122.091089,-0.7600992393493653,14.974836,0.1,121.72955,1615936476441
Fix,GT,37.3891925,-122.090946,-0.7807295427918435,14.87869,0.1,121.80481,1615936477441
Fix,GT,37.3891223,-122.0908031,-0.7796575874686241,14.829996,0.1,121.39838,1615936478441
Fix,GT,37.3890526,-122.0906605,-0.7757294971644879,14.773792,0.1,121.429016,1615936479441
Fix,GT,37.3889827,-122.0905188,-0.7717568268775941,14.741898,0.1,121.79883,1615936480441
Fix,GT,37.3889127,-122.0903776,-0.782657587558031,14.677475,0.1,121.781494,1615936481441
Fix,GT,37.3888435,-122.0902379,-0.7741711946427823,14.407816,0.1,121.74426,1615936482441
Fix,GT,37.3887754,-122.0901016,-0.7388560665547848,14.066538,0.1,122.09515,1615936483441
Fix,GT,37.3887081,-122.0899691,-0.7195855874121189,13.757891,0.1,122.563416,1615936484441
Fix,GT,37.3886416,-122.0898401,-0.7052431941926479,13.435289,0.1,123.2009,1615936485441
Fix,GT,37.3885751,-122.0897154,-0.7171712176799774,13.129419,0.1,123.85199,1615936486441
Fix,GT,37.3885091,-122.0895944,-0.7293151074051857,12.836088,0.1,124.49298,1615936487441
Fix,GT,37.3884445,-122.0894763,-0.713414369881153,12.539701,0.1,124.03516,1615936488441
Fix,GT,37.388383,-122.0893595,-0.7135136318802833,12.226332,0.1,123.15515,1615936489441
Fix,GT,37.3883241,-122.0892448,-0.6927841547727585,11.970308,0.1,122.39331,1615936490441
Fix,GT,37.3882674,-122.0891316,-0.6980719349086284,11.724928,0.1,121.83801,1615936491441
Fix,GT,37.3882121,-122.0890201,-0.6979280447959899,11.505287,0.1,121.870026,1615936492441
Fix,GT,37.3881585,-122.0889121,-0.67878413438797,10.916565,0.1,121.65866,1615936493441
Fix,GT,37.3881089,-122.0888121,-0.676099262714386,9.864913,0.1,121.74704,1615936494441
Fix,GT,37.3880659,-122.0887252,-0.669684871673584,8.140238,0.1,121.61362,1615936495441
Fix,GT,37.3880319,-122.0886565,-0.6579280252754689,6.2003098,0.1,121.73663,1615936496441
Fix,GT,37.3880071,-122.0886063,-0.6565856090784074,4.273213,0.1,121.70123,1615936497441
Fix,GT,37.3879904,-122.0885725,-0.646585589826107,2.8314908,0.1,121.63815,1615936498441
Fix,GT,37.3879796,-122.0885506,-0.6461712373793125,1.7466023,0.1,121.59961,1615936499441
Fix,GT,37.3879739,-122.0885391,-0.6484143715798855,0.71352017,0.1,121.61127,1615936500441
Fix,GT,37.387972,-122.0885352,-0.6515855896770955,0.13809389,0.1,121.621155,1615936501441
Fix,GT,37.3879719,-122.088535,-0.655,0.0018287817,0.1,121.62512,1615936502441
Fix,GT,37.3879719,-122.088535,-0.6539999805092812,0.0011716464,0.1,121.62378,1615936503441
Fix,GT,37.3879719,-122.088535,-0.6539999805092812,0.0015856092,0.1,121.62381,1615936504441
Fix,GT,37.3879719,-122.088535,-0.654000019490719,0.001,0.1,121.62366,1615936505441
Fix,GT,37.3879719,-122.088535,-0.654,0.001,0.1,121.62372,1615936506441
Fix,GT,37.3879719,-122.088535,-0.6539999805092812,0.0012425672,0.1,121.62378,1615936507441
Fix,GT,37.3879719,-122.088535,-0.6539999805092812,0.0014142136,0.1,121.62396,1615936508441
Fix,GT,37.3879719,-122.088535,-0.654000019490719,0.001,0.1,121.624054,1615936509441
Fix,GT,37.3879719,-122.088535,-0.6539999805092812,0.001,0.1,121.62393,1615936510441
Fix,GT,37.3879719,-122.088535,-0.654000019490719,0.0012425673,0.1,121.62372,1615936511441
Fix,GT,37.3879719,-122.088535,-0.654000019490719,0.0012425673,0.1,121.62372,1615936512441
Fix,GT,37.3879719,-122.088535,-0.654000019490719,0.00082817633,0.1,121.623566,1615936513441
Fix,GT,37.3879719,-122.088535,-0.654000019490719,0.00041439096,0.1,121.623505,1615936514441
Fix,GT,37.3879719,-122.088535,-0.654,0.001,0.1,121.62363,1615936515441
Fix,GT,37.3879719,-122.088535,-0.654,0.0,0.1,121.62366,1615936516441
Fix,GT,37.3879719,-122.088535,-0.654,0.000585609,0.1,121.62372,1615936517441
Fix,GT,37.3879719,-122.0885351,-0.655,0.0,0.1,121.62381,1615936518441
Fix,GT,37.3879717,-122.0885347,-0.6604143714606763,0.20229101,0.1,121.62836,1615936519441
Fix,GT,37.3879689,-122.0885289,-0.6655855890214444,1.120519,0.1,121.569885,1615936520441
Fix,GT,37.3879606,-122.0885121,-0.6704143911600113,2.4486568,0.1,121.36151,1615936521441
Fix,GT,37.3879454,-122.0884801,-0.6755855887234212,4.191293,0.1,120.89969,1615936522441
Fix,GT,37.3879226,-122.0884318,-0.6485855894088746,5.8079453,0.1,120.60483,1615936523441
Fix,GT,37.3878921,-122.0883674,-0.641999980866909,7.4340315,0.1,120.63214,1615936524441
Fix,GT,37.3878547,-122.0882892,-0.6049999819695949,8.617789,0.1,120.70932,1615936525441
Fix,GT,37.3878123,-122.0882001,-0.5747568090856074,9.747627,0.1,120.58139,1615936526441
Fix,GT,37.3877655,-122.0881001,-0.5425409569740296,10.791321,0.1,120.263916,1615936527441
Fix,GT,37.387714,-122.0879899,-0.5170719718933106,11.814905,0.1,120.395294,1615936528441
Fix,GT,37.3876586,-122.0878699,-0.4759553482532501,12.714287,0.1,119.74481,1615936529441
Fix,GT,37.3875997,-122.0877413,-0.4404416959285736,13.577668,0.1,119.88989,1615936530441
Fix,GT,37.387536,-122.0876056,-0.3625136523246764,14.239438,0.1,120.57791,1615936531441
Fix,GT,37.3874688,-122.0874659,-0.3198287825584411,14.618944,0.1,121.21423,1615936532441
Fix,GT,37.3873998,-122.0873249,-0.271270470559597,14.646114,0.1,121.374756,1615936533441
Fix,GT,37.3873304,-122.0871841,-0.26,14.648388,0.1,121.66913,1615936534441
Fix,GT,37.3872612,-122.0870441,-0.2276129133701324,14.527133,0.1,121.74112,1615936535441
Fix,GT,37.3871921,-122.0869055,-0.1725856035947799,14.445326,0.1,121.87271,1615936536441
Fix,GT,37.3871236,-122.0867673,-0.1274417008459568,14.383556,0.1,121.772644,1615936537441
Fix,GT,37.3870555,-122.0866292,-0.0862431761026382,14.370294,0.1,121.6759,1615936538441
Fix,GT,37.3869872,-122.0864914,-0.0577568265199661,14.375988,0.1,121.77496,1615936539441
Fix,GT,37.3869187,-122.0863536,-0.0369280452132225,14.361393,0.1,121.85547,1615936540441
Fix,GT,37.3868504,-122.0862157,-0.050900738120079,14.395303,0.1,121.641785,1615936541441
Fix,GT,37.3867822,-122.0860777,-0.0367841317653655,14.35599,0.1,121.72424,1615936542441
Fix,GT,37.3867142,-122.0859402,-0.053,14.311141,0.1,121.76575,1615936543441
Fix,GT,37.3866463,-122.085803,-0.0137568268775939,14.277941,0.1,121.802216,1615936544441
Fix,GT,37.3865782,-122.0856664,-0.0001712179183959,14.240118,0.1,121.965576,1615936545441
Fix,GT,37.3865103,-122.0855303,9.926283359527584e-05,14.204451,0.1,121.776,1615936546441
Fix,GT,37.3864429,-122.0853943,0.0084863458871841,14.148153,0.1,121.73697,1615936547441
Fix,GT,37.3863761,-122.0852586,0.0109007368385791,14.058205,0.1,121.62579,1615936548441
Fix,GT,37.3863098,-122.0851243,0.0101712184250354,13.883476,0.1,121.70685,1615936549441
Fix,GT,37.3862442,-122.084992,0.0165856086015701,13.744652,0.1,121.778046,1615936550441
Fix,GT,37.3861788,-122.0848602,0.0097568269968032,13.75301,0.1,121.63452,1615936551441
Fix,GT,37.3861138,-122.0847279,-0.0015856090784072,13.744785,0.1,121.49228,1615936552441
Fix,GT,37.3860497,-122.0845977,-0.0115856090784072,13.153378,0.1,121.70239,1615936553441
Fix,GT,37.3859899,-122.084478,0.0050719542503356,11.822264,0.1,122.045715,1615936554441
Fix,GT,37.3859375,-122.0843731,-0.0020000000596046,9.992481,0.1,121.98724,1615936555441
Fix,GT,37.3858947,-122.0842872,0.0024143908321857,7.9143267,0.1,121.797424,1615936556441
Fix,GT,37.3858614,-122.0842201,-0.0009999999701976,6.153206,0.1,121.78705,1615936557441
Fix,GT,37.3858366,-122.08417,0.0058287816345691,4.2847114,0.1,121.77777,1615936558441
Fix,GT,37.38582,-122.0841363,0.0010000000298023,2.756494,0.1,121.68988,1615936559441
Fix,GT,37.3858103,-122.0841166,-0.007585608869791,1.3454926,0.1,121.628174,1615936560441
Fix,GT,37.3858073,-122.0841107,-0.0124143905341625,0.04846862,0.1,121.62787,1615936561441
Fix,GT,37.3858073,-122.0841108,-0.0159999995231628,0.0058582313,0.1,121.6333,1615936562441
Fix,GT,37.3858073,-122.0841108,-0.0150000004470348,0.0012425673,0.1,121.6322,1615936563441
Fix,GT,37.3858073,-122.0841108,-0.0139999999999999,0.0012425673,0.1,121.63205,1615936564441
Fix,GT,37.3858073,-122.0841108,-0.0140000004172325,0.00041439096,0.1,121.632355,1615936565441
Fix,GT,37.3858073,-122.0841108,-0.0150000004470348,0.0011716464,0.1,121.63205,1615936566441
Fix,GT,37.3858073,-122.0841108,-0.0139999995827674,0.0,0.1,121.6319,1615936567441
Fix,GT,37.3858073,-122.0841108,-0.014,0.0,0.1,121.63208,1615936568441
Fix,GT,37.3858073,-122.0841108,-0.0139999995827674,0.000585609,0.1,121.63211,1615936569441
Fix,GT,37.3858073,-122.0841108,-0.0139999995827674,0.0,0.1,121.63187,1615936570441
Fix,GT,37.3858073,-122.0841108,-0.0139999995827674,0.0,0.1,121.63153,1615936571441
Fix,GT,37.3858073,-122.0841108,-0.0140000004172325,0.000585609,0.1,121.631165,1615936572441
Fix,GT,37.3858073,-122.0841108,-0.0139999995827674,0.0,0.1,121.63104,1615936573441
Fix,GT,37.3858073,-122.0841108,-0.0139999995827674,0.0,0.1,121.63068,1615936574441
Fix,GT,37.3858073,-122.0841108,-0.0139999995827674,0.0005856089,0.1,121.630615,1615936575441
Fix,GT,37.3858073,-122.0841108,-0.014,0.0,0.1,121.63101,1615936576441
Fix,GT,37.3858073,-122.0841108,-0.0140000004172325,0.0,0.1,121.63104,1615936577441
Fix,GT,37.3858073,-122.0841108,-0.0140000004172325,0.00041439122,0.1,121.63141,1615936578441
Fix,GT,37.3858073,-122.0841108,-0.014,0.0,0.1,121.6311,1615936579441
Fix,GT,37.3858073,-122.0841108,-0.014,0.0005856089,0.1,121.63101,1615936580441
Fix,GT,37.3858073,-122.0841108,-0.0139999995827674,0.0,0.1,121.63077,1615936581441
Fix,GT,37.3858073,-122.0841108,-0.0140000004172325,0.0,0.1,121.63092,1615936582441
Fix,GT,37.3858073,-122.0841108,-0.0139999995827674,0.0,0.1,121.6311,1615936583441
Fix,GT,37.3858073,-122.0841108,-0.0139999999999999,0.0,0.1,121.63098,1615936584441
Fix,GT,37.3858073,-122.0841108,-0.0140000004172325,0.0,0.1,121.631134,1615936585441
Fix,GT,37.3858073,-122.0841108,-0.0139999999999999,0.0,0.1,121.63159,1615936586441
Fix,GT,37.3858073,-122.0841108,-0.0139999999999999,0.0,0.1,121.63141,1615936587441
Fix,GT,37.3858073,-122.0841108,-0.014,0.0,0.1,121.631195,1615936588441
Fix,GT,37.3858073,-122.0841108,-0.0139999995827674,0.0,0.1,121.63141,1615936589441
Fix,GT,37.3858073,-122.0841108,-0.0140000004172325,0.0,0.1,121.631195,1615936590441
Fix,GT,37.3858073,-122.0841108,-0.014,0.0,0.1,121.63138,1615936591441
Fix,GT,37.3858073,-122.0841108,-0.014,0.0,0.1,121.63147,1615936592441
Fix,GT,37.3858073,-122.0841108,-0.014,0.0,0.1,121.63162,1615936593441
Fix,GT,37.3858073,-122.0841108,-0.0140000004172325,0.0,0.1,121.63168,1615936594441
Fix,GT,37.3858073,-122.0841108,-0.0140000004172325,0.0,0.1,121.63165,1615936595441
Fix,GT,37.3858073,-122.0841108,-0.0140000004172325,0.0,0.1,121.63162,1615936596441
Fix,GT,37.3858073,-122.0841108,-0.0140000004172325,0.00058560865,0.1,121.63156,1615936597441
Fix,GT,37.3858073,-122.0841108,-0.014,0.001,0.1,121.6315,1615936598441
Fix,GT,37.3858073,-122.0841108,-0.014,0.001,0.1,121.63153,1615936599441
Fix,GT,37.3858073,-122.0841108,-0.0140000004172325,0.0,0.1,121.631775,1615936600441
Fix,GT,37.3858073,-122.0841108,-0.0139999995827674,0.0,0.1,121.63196,1615936601441
Fix,GT,37.3858073,-122.0841108,-0.014,0.0,0.1,121.631996,1615936602441
Fix,GT,37.3858073,-122.0841108,-0.0140000004172325,0.0,0.1,121.63202,1615936603441
Fix,GT,37.3858073,-122.0841108,-0.0139999995827674,0.0004143915,0.1,121.63196,1615936604441
Fix,GT,37.3858073,-122.0841108,-0.0139999995827674,0.0,0.1,121.6319,1615936605441
Fix,GT,37.3858073,-122.0841108,-0.0139999995827674,0.0,0.1,121.631836,1615936606441
Fix,GT,37.3858073,-122.0841108,-0.0139999995827674,0.0,0.1,121.631775,1615936607441
Fix,GT,37.3858073,-122.0841108,-0.014,0.0,0.1,121.63153,1615936608441
Fix,GT,37.3858073,-122.0841108,-0.014,0.0,0.1,121.6319,1615936609441
Fix,GT,37.3858073,-122.0841108,-0.0139999995827674,0.0,0.1,121.63187,1615936610441
Fix,GT,37.3858073,-122.0841108,-0.0140000004172325,0.0,0.1,121.631744,1615936611441
Fix,GT,37.3858073,-122.0841108,-0.0139999995827674,0.0,0.1,121.63165,1615936612441
Fix,GT,37.3858073,-122.0841108,-0.014,0.0,0.1,121.63165,1615936613441
Fix,GT,37.3858073,-122.0841108,-0.0139999995827674,0.0,0.1,121.63159,1615936614441
Fix,GT,37.3858073,-122.0841108,-0.0139999995827674,0.0,0.1,121.63156,1615936615441
Fix,GT,37.3858073,-122.0841108,-0.0139999995827674,0.0,0.1,121.63153,1615936616441
Fix,GT,37.3858073,-122.0841108,-0.0139999995827674,0.0,0.1,121.63156,1615936617441
Fix,GT,37.3858073,-122.0841108,-0.0139999995827674,0.0,0.1,121.631744,1615936618441
Fix,GT,37.3858073,-122.0841108,-0.0140000004172325,0.0,0.1,121.63147,1615936619441
Fix,GT,37.3858073,-122.0841108,-0.0139999995827674,0.0,0.1,121.6315,1615936620441
Fix,GT,37.3858073,-122.0841108,-0.0140000004172325,0.0,0.1,121.63165,1615936621441
Fix,GT,37.3858073,-122.0841108,-0.014,0.0,0.1,121.631775,1615936622441
Fix,GT,37.3858073,-122.0841108,-0.0139999995827674,0.0,0.1,121.63138,1615936623441
Fix,GT,37.3858073,-122.0841108,-0.0139999995827674,0.0,0.1,121.63147,1615936624441
Fix,GT,37.3858073,-122.0841108,-0.014,0.0,0.1,121.63141,1615936625441
Fix,GT,37.3858073,-122.0841108,-0.014,0.0,0.1,121.631165,1615936626441
Fix,GT,37.3858073,-122.0841108,-0.0139999995827674,0.0,0.1,121.63107,1615936627441
Fix,GT,37.3858073,-122.0841108,-0.0139999995827674,0.001,0.1,121.631165,1615936628441
Fix,GT,37.3858073,-122.0841108,-0.0139999995827674,0.0005856084,0.1,121.631226,1615936629441
Fix,GT,37.3858073,-122.0841108,-0.014,0.0,0.1,121.63107,1615936630441
Fix,GT,37.3858073,-122.0841108,-0.014,0.001,0.1,121.6311,1615936631441
Fix,GT,37.3858073,-122.0841108,-0.014,0.0,0.1,121.63089,1615936632441
Fix,GT,37.3858073,-122.0841108,-0.014,0.0,0.1,121.6308,1615936633441
Fix,GT,37.3858073,-122.0841108,-0.014,0.00058560853,0.1,121.63086,1615936634441
Fix,GT,37.3858073,-122.0841108,-0.014,0.0,0.1,121.63083,1615936635441
Fix,GT,37.3858073,-122.0841108,-0.0139999995827674,0.0,0.1,121.630585,1615936636441
Fix,GT,37.3858073,-122.0841108,-0.0139999995827674,0.0,0.1,121.63071,1615936637441
Fix,GT,37.3858073,-122.0841108,-0.0140000004172325,0.0,0.1,121.6311,1615936638441
Fix,GT,37.3858073,-122.0841108,-0.0140000004172325,0.0,0.1,121.631134,1615936639441
Fix,GT,37.3858073,-122.0841108,-0.014,0.0,0.1,121.631226,1615936640441
Fix,GT,37.3858073,-122.0841108,-0.0140000004172325,0.0,0.1,121.63141,1615936641441
Fix,GT,37.3858073,-122.0841108,-0.0139999995827674,0.0005856084,0.1,121.6311,1615936642441
Fix,GT,37.3858073,-122.0841108,-0.0140000004172325,0.0,0.1,121.63101,1615936643441
Fix,GT,37.3858073,-122.0841108,-0.0140000004172325,0.0,0.1,121.63098,1615936644441
Fix,GT,37.3858073,-122.0841108,-0.0129999996125698,0.0,0.1,121.63104,1615936645441
Fix,GT,37.3858073,-122.0841108,-0.0139999995827674,0.0,0.1,121.63098,1615936646441
Fix,GT,37.3858073,-122.0841108,-0.0129999996125698,0.001,0.1,121.63107,1615936647441
Fix,GT,37.3858073,-122.0841108,-0.0140000004172325,0.00041439157,0.1,121.63107,1615936648441
Fix,GT,37.3858073,-122.0841108,-0.014,0.0011716466,0.1,121.631165,1615936649441
Fix,GT,37.3858073,-122.0841108,-0.0144143911898136,0.011093262,0.1,121.63263,1615936650441
Fix,GT,37.3858063,-122.0841088,-0.0245856076478958,0.6524628,0.1,121.619385,1615936651441
Fix,GT,37.3858003,-122.0840965,-0.0292431745529174,1.9852357,0.1,121.64581,1615936652441
Fix,GT,37.385787,-122.0840696,-0.0071712167859077,3.662632,0.1,121.79376,1615936653441
Fix,GT,37.3857653,-122.0840263,-0.00841439178586,5.3279552,0.1,121.87897,1615936654441
Fix,GT,37.3857357,-122.0839666,-0.0384143915176391,7.129918,0.1,121.86456,1615936655441
Fix,GT,37.3856979,-122.0838905,-0.0285856084823608,8.618596,0.1,121.73041,1615936656441
Fix,GT,37.3856538,-122.0838013,-0.0174416933059692,10.013851,0.1,121.69507,1615936657441
Fix,GT,37.385603,-122.0836982,0.0098287833631038,11.402037,0.1,121.54404,1615936658441
Fix,GT,37.3855463,-122.0835829,0.0387568254470825,12.554653,0.1,121.57318,1615936659441
Fix,GT,37.3854846,-122.0834582,0.0594143933057784,13.42981,0.1,121.68701,1615936660441
Fix,GT,37.385419,-122.0833247,0.0999726982116699,14.324142,0.1,121.49936,1615936661441
Fix,GT,37.3853502,-122.0831847,0.1569999953210353,14.73381,0.1,121.612854,1615936662441
Fix,GT,37.3852795,-122.0830418,0.2075583130717277,15.047479,0.1,121.70816,1615936663441
Fix,GT,37.3852074,-122.0828959,0.2475856158435344,15.342062,0.1,121.684326,1615936664441
Fix,GT,37.385134,-122.0827475,0.293900732576847,15.58111,0.1,121.7681,1615936665441
Fix,GT,37.3850595,-122.0825973,0.3499007520079612,15.726303,0.1,121.79236,1615936666441
Fix,GT,37.3849842,-122.0824465,0.3799007300138474,15.779418,0.1,121.94238,1615936667441
Fix,GT,37.384909,-122.082295,0.4079999878406524,15.838578,0.1,121.75638,1615936668441
Fix,GT,37.3848336,-122.0821428,0.4291439034044743,15.893943,0.1,121.73654,1615936669441
Fix,GT,37.3847577,-122.0819905,0.4644143916368485,15.902027,0.1,121.935974,1615936670441
Fix,GT,37.3846821,-122.0818381,0.4927295258045197,15.873522,0.1,121.68497,1615936671441
Fix,GT,37.3846072,-122.0816862,0.522486366212368,15.719297,0.1,121.648254,1615936672441
Fix,GT,37.384533,-122.0815362,0.6242158592641354,15.53133,0.1,121.70563,1615936673441
Fix,GT,37.3844597,-122.081388,0.6832431756258012,15.377874,0.1,121.77588,1615936674441
Fix,GT,37.3843869,-122.0812413,0.7146575677394866,15.199593,0.1,121.898254,1615936675441
Fix,GT,37.3843149,-122.0810964,0.784,15.030463,0.1,121.61569,1615936676441
Fix,GT,37.3842442,-122.0809528,0.844387095928192,14.852566,0.1,121.6915,1615936677441
Fix,GT,37.3841739,-122.080811,0.913585580676794,14.739872,0.1,121.69049,1615936678441
Fix,GT,37.3841039,-122.08067,0.9758734512925148,14.68406,0.1,121.79199,1615936679441
Fix,GT,37.3840341,-122.0805296,1.0169007447957992,14.603584,0.1,121.92639,1615936680441
Fix,GT,37.3839646,-122.08039,1.066558282583952,14.5391245,0.1,121.726776,1615936681441
Fix,GT,37.3838955,-122.0802505,1.1064863210320477,14.535522,0.1,121.703125,1615936682441
Fix,GT,37.3838268,-122.0801112,1.1415583165287972,14.4787655,0.1,121.559784,1615936683441
Fix,GT,37.3837587,-122.0799722,1.2053871013522148,14.418799,0.1,121.57095,1615936684441
Fix,GT,37.3836903,-122.0798344,1.2801438863873482,14.350121,0.1,121.84424,1615936685441
Fix,GT,37.3836217,-122.0796973,1.3622158479988575,14.29357,0.1,122.04739,1615936686441
Fix,GT,37.3835535,-122.079561,1.4755583191514017,14.18009,0.1,121.88495,1615936687441
Fix,GT,37.3834867,-122.0794265,1.5503871052265166,13.866181,0.1,121.81607,1615936688441
Fix,GT,37.3834215,-122.0792953,1.6203870582580566,13.4949875,0.1,121.71643,1615936689441
Fix,GT,37.3833585,-122.0791675,1.6944143928289417,13.110136,0.1,121.599304,1615936690441
Fix,GT,37.3832973,-122.0790433,1.757315091073513,12.791363,0.1,121.6048,1615936691441
Fix,GT,37.3832369,-122.0789199,1.849171159029007,12.843261,0.1,121.09198,1615936692441
Fix,GT,37.3831806,-122.078795,1.936729479730129,12.55556,0.1,118.08441,1615936693441
Fix,GT,37.3831299,-122.0786708,2.0486575725078584,12.156435,0.1,116.65808,1615936694441
Fix,GT,37.3830809,-122.0785501,2.167900752305985,11.84087,0.1,117.30429,1615936695441
Fix,GT,37.3830302,-122.0784356,2.2172431797385217,11.315576,0.1,119.91458,1615936696441
Fix,GT,37.3829803,-122.0783305,2.283657573223114,10.291691,0.1,121.01364,1615936697441
Fix,GT,37.3829346,-122.0782374,2.3463150773346424,9.010273,0.1,121.65555,1615936698441
Fix,GT,37.3828954,-122.0781578,2.3988287155628205,7.504264,0.1,121.51346,1615936699441
Fix,GT,37.3828638,-122.0780934,2.427999927639961,5.9125843,0.1,121.43616,1615936700441
Fix,GT,37.3828396,-122.0780445,2.447828860074281,4.393288,0.1,121.75769,1615936701441
Fix,GT,37.3828212,-122.0780078,2.470828713655472,3.2877119,0.1,122.020935,1615936702441
Fix,GT,37.3828076,-122.0779809,2.4858287134468555,2.4050832,0.1,122.14703,1615936703441
Fix,GT,37.3827982,-122.0779622,2.5008287876844406,1.5147535,0.1,122.1716,1615936704441
Fix,GT,37.3827933,-122.0779524,2.512414319008589,0.4950457,0.1,122.23413,1615936705441
Fix,GT,37.3827927,-122.0779511,2.5218287876844405,0.008858097,0.1,122.24805,1615936706441
Fix,GT,37.3827927,-122.0779511,2.527,0.001242566,0.1,122.247894,1615936707441
Fix,GT,37.3827927,-122.0779511,2.529,0.0018954964,0.1,122.24805,1615936708441
Fix,GT,37.3827927,-122.0779511,2.53,0.00082817185,0.1,122.2478,1615936709441
Fix,GT,37.3827927,-122.0779511,2.530999924570322,0.00041439413,0.1,122.247925,1615936710441
Fix,GT,37.3827927,-122.0779511,2.531000075429678,0.0,0.1,122.24814,1615936711441
Fix,GT,37.3827927,-122.0779511,2.530999924570322,0.00058560574,0.1,122.24823,1615936712441
Fix,GT,37.3827927,-122.0779511,2.531000075429678,0.001,0.1,122.24805,1615936713441
Fix,GT,37.3827927,-122.0779511,2.530999924570322,0.0009999999,0.1,122.24832,1615936714441
Fix,GT,37.3827927,-122.0779511,2.531,0.0,0.1,122.24835,1615936715441
Fix,GT,37.3827927,-122.0779511,2.531000075429678,0.0,0.1,122.24841,1615936716441
Fix,GT,37.3827927,-122.0779511,2.531,0.0,0.1,122.24841,1615936717441
Fix,GT,37.3827927,-122.0779511,2.531,0.0,0.1,122.248474,1615936718441
Fix,GT,37.3827927,-122.0779511,2.531000075429678,0.0,0.1,122.248474,1615936719441
Fix,GT,37.3827927,-122.0779511,2.530999924570322,0.0,0.1,122.24844,1615936720441
Fix,GT,37.3827927,-122.0779511,2.531,0.0,0.1,122.24841,1615936721441
Fix,GT,37.3827927,-122.0779511,2.531,0.0,0.1,122.24836,1615936722441
Fix,GT,37.3827927,-122.0779511,2.531,0.0,0.1,122.24829,1615936723441
Fix,GT,37.3827927,-122.0779511,2.531000075429678,0.0,0.1,122.24817,1615936724441
Fix,GT,37.3827927,-122.0779511,2.531,0.0,0.1,122.24811,1615936725441
Fix,GT,37.3827927,-122.0779511,2.531,0.000585605,0.1,122.24814,1615936726441
Fix,GT,37.3827927,-122.0779511,2.531000075429678,0.0,0.1,122.24823,1615936727441
Fix,GT,37.3827927,-122.0779511,2.531,0.0,0.1,122.2482,1615936728441
Fix,GT,37.3827927,-122.0779511,2.531,0.0,0.1,122.24805,1615936729441
Fix,GT,37.3827927,-122.0779511,2.531,0.0,0.1,122.24805,1615936730441
Fix,GT,37.3827927,-122.0779511,2.531,0.0,0.1,122.24811,1615936731441
Fix,GT,37.3827927,-122.0779511,2.532,0.0,0.1,122.2482,1615936732441
Fix,GT,37.3827927,-122.0779511,2.532,0.001,0.1,122.24817,1615936733441
Fix,GT,37.3827927,-122.0779511,2.5320000754594805,0.0012425653,0.1,122.24805,1615936734441
Fix,GT,37.3827927,-122.0779511,2.533,0.0033459682,0.1,122.248566,1615936735441
Fix,GT,37.3827922,-122.0779501,2.529000075370073,0.36237139,0.1,122.25821,1615936736441
Fix,GT,37.3827887,-122.0779431,2.5320000754594805,1.2099683,0.1,122.27429,1615936737441
Fix,GT,37.3827803,-122.0779266,2.543828791260719,2.294794,0.1,122.28583,1615936738441
Fix,GT,37.3827661,-122.0778983,2.565,3.651775,0.1,122.27356,1615936739441
Fix,GT,37.3827457,-122.0778565,2.585243187427521,5.0110164,0.1,120.619385,1615936740441
Fix,GT,37.3827269,-122.077798,2.611215937137604,6.0809946,0.1,109.53235,1615936741441
Fix,GT,37.3827211,-122.0777284,2.6630000793635844,6.2742844,0.1,92.66559,1615936742441
Fix,GT,37.382731,-122.07766,2.634171208262443,6.1504517,0.1,77.000824,1615936743441
Fix,GT,37.3827541,-122.0775965,2.5637120814323424,6.3110137,0.1,62.63925,1615936744441
Fix,GT,37.382791,-122.07754,2.389054497718811,6.756791,0.1,47.758575,1615936745441
Fix,GT,37.3828407,-122.077492,2.22527050280571,7.2481194,0.1,35.000458,1615936746441
Fix,GT,37.3828978,-122.077447,2.1072257058620454,7.83698,0.1,31.956207,1615936747441
Fix,GT,37.3829611,-122.0773987,2.0535856040120124,8.621202,0.1,30.763916,1615936748441
Fix,GT,37.3830316,-122.0773477,1.995585603952408,9.41789,0.1,29.863525,1615936749441
Fix,GT,37.3831082,-122.0772925,1.93985609716177,10.1922,0.1,30.065155,1615936750441
Fix,GT,37.3831881,-122.0772333,1.813756865859032,10.311541,0.1,30.622437,1615936751441
Fix,GT,37.383268,-122.0771737,1.6801984544992448,10.391765,0.1,30.700714,1615936752441
Fix,GT,37.3833493,-122.0771132,1.5632431885004046,10.596138,0.1,30.39392,1615936753441
Fix,GT,37.3834331,-122.0770514,1.4797568114995956,11.018903,0.1,30.398254,1615936754441
Fix,GT,37.3835193,-122.0769873,1.423513665318489,11.202171,0.1,30.648102,1615936755441
Fix,GT,37.3836064,-122.0769219,1.385513663470745,11.328085,0.1,30.904633,1615936756441
Fix,GT,37.3836935,-122.0768563,1.3285136222839355,11.181194,0.1,30.861664,1615936757441
Fix,GT,37.383779,-122.0767917,1.3016848683655262,10.987321,0.1,31.142242,1615936758441
Fix,GT,37.3838625,-122.076727,1.264756848782301,10.798095,0.1,31.902435,1615936759441
Fix,GT,37.3839445,-122.0766625,1.1887120718955997,10.695708,0.1,32.154663,1615936760441
Fix,GT,37.3840258,-122.0765984,1.0367840548157692,10.610479,0.1,32.041656,1615936761441
Fix,GT,37.3841065,-122.076535,0.9161984773874284,10.520243,0.1,32.061768,1615936762441
Fix,GT,37.3841863,-122.0764721,0.8256848033368587,10.392773,0.1,32.118896,1615936763441
Fix,GT,37.3842647,-122.0764097,0.7612704312801362,10.250938,0.1,32.356445,1615936764441
Fix,GT,37.3843421,-122.0763478,0.6868560132682323,10.100099,0.1,32.569885,1615936765441
Fix,GT,37.3844182,-122.0762865,0.6369999810159206,9.957317,0.1,32.72046,1615936766441
Fix,GT,37.384493,-122.0762266,0.6013696537017822,9.774708,0.1,32.525116,1615936767441
Fix,GT,37.3845665,-122.0761676,0.5904416182041168,9.612148,0.1,32.53012,1615936768441
Fix,GT,37.3846391,-122.0761097,0.5499280161857605,9.4696455,0.1,32.38025,1615936769441
Fix,GT,37.3847108,-122.0760535,0.4953424276411533,9.317569,0.1,31.824677,1615936770441
Fix,GT,37.3847799,-122.0760003,0.4661712203323841,8.43606,0.1,31.369965,1615936771441
Fix,GT,37.3848381,-122.0759564,0.4385136323869228,6.6155434,0.1,30.873047,1615936772441
Fix,GT,37.3848832,-122.075923,0.3983424242734909,4.929861,0.1,30.38852,1615936773441
Fix,GT,37.3849164,-122.0758987,0.362,3.7869139,0.1,30.211273,1615936774441
Fix,GT,37.3849434,-122.0758794,0.3395856132209301,3.052435,0.1,29.752716,1615936775441
Fix,GT,37.384964,-122.0758649,0.3372432007491589,2.108611,0.1,29.491028,1615936776441
Fix,GT,37.3849748,-122.0758573,0.3391712059974671,0.6336833,0.1,29.336426,1615936777441
Fix,GT,37.3849762,-122.0758563,0.3284143970012665,0.010569634,0.1,29.320953,1615936778441
Fix,GT,37.3849762,-122.0758563,0.3310000098645687,0.0018518392,0.1,29.321259,1615936779441
Fix,GT,37.3849762,-122.0758563,0.3309999901354313,0.0009266201,0.1,29.32132,1615936780441
Fix,GT,37.3849762,-122.0758563,0.3309999901354313,0.00041439722,0.1,29.321228,1615936781441
Fix,GT,37.3849762,-122.0758563,0.3309999901354313,0.0005856028,0.1,29.32138,1615936782441
Fix,GT,37.3849762,-122.0758563,0.331,0.0005856028,0.1,29.321228,1615936783441
Fix,GT,37.3849762,-122.0758563,0.3310000098645687,0.0,0.1,29.320984,1615936784441
Fix,GT,37.3849762,-122.0758563,0.331,0.0,0.1,29.321075,1615936785441
Fix,GT,37.3849762,-122.0758563,0.3310000098645687,0.001,0.1,29.320862,1615936786441
Fix,GT,37.3849762,-122.0758563,0.3310000098645687,0.00041439742,0.1,29.321014,1615936787441
Fix,GT,37.3849762,-122.0758563,0.3309999901354313,0.001171649,0.1,29.320679,1615936788441
Fix,GT,37.3849764,-122.0758561,0.3251712050437927,0.20590493,0.1,29.314056,1615936789441
Fix,GT,37.3849811,-122.0758529,0.3245856025218964,0.9644046,0.1,29.26538,1615936790441
Fix,GT,37.3849921,-122.0758452,0.312171214312315,1.8449537,0.1,29.15918,1615936791441
Fix,GT,37.3850099,-122.0758339,0.2847568072080612,2.5467348,0.1,26.99826,1615936792441
Fix,GT,37.3850347,-122.075825,0.275756798684597,3.178149,0.1,17.714966,1615936793441
Fix,GT,37.3850657,-122.0758249,0.2401439771652221,3.767398,0.1,1.2256165,1615936794441
Fix,GT,37.3850996,-122.0758405,0.1958560171723365,4.090487,0.1,339.18005,1615936795441
Fix,GT,37.3851266,-122.0758716,0.1473696365356445,4.1785336,0.1,318.19983,1615936796441
Fix,GT,37.3851498,-122.0759117,0.0572704194784164,4.595192,0.1,305.57483,1615936797441
Fix,GT,37.3851718,-122.0759576,0.0381712054312229,4.883235,0.1,301.2564,1615936798441
Fix,GT,37.3851948,-122.0760065,0.0083424088358879,5.168049,0.1,300.52277,1615936799441
Fix,GT,37.3852195,-122.0760579,-0.025486387014389,5.44452,0.1,301.1028,1615936800441
Fix,GT,37.3852456,-122.0761116,-0.0494143979549408,5.700494,0.1,301.24854,1615936801441
Fix,GT,37.3852729,-122.0761674,-0.0966575920581817,5.837511,0.1,301.33102,1615936802441
Fix,GT,37.3853,-122.0762234,-0.1516575922966003,5.749422,0.1,301.24066,1615936803441
Fix,GT,37.3853269,-122.0762782,-0.2097295826673507,5.6661844,0.1,301.47342,1615936804441
Fix,GT,37.3853538,-122.0763321,-0.2658287962675095,5.569821,0.1,301.92917,1615936805441
Fix,GT,37.3853804,-122.0763847,-0.3079007877707481,5.4692917,0.1,302.34952,1615936806441
Fix,GT,37.3854065,-122.0764366,-0.3398287864625454,5.3802786,0.1,301.74173,1615936807441
Fix,GT,37.3854312,-122.0764879,-0.3644143983125686,5.2624187,0.1,301.0464,1615936808441
Fix,GT,37.3854553,-122.0765378,-0.3321088781356811,5.115278,0.1,301.07324,1615936809441
Fix,GT,37.3854793,-122.0765861,-0.4547568047046662,5.020208,0.1,301.75037,1615936810441
Fix,GT,37.3855032,-122.0766334,-0.4734143843054771,4.9170485,0.1,302.1838,1615936811441
Fix,GT,37.3855276,-122.0766809,-0.508071976929903,5.0643916,0.1,302.82745,1615936812441
Fix,GT,37.3855524,-122.0767283,-0.5406575775444508,4.971789,0.1,303.19925,1615936813441
Fix,GT,37.3855759,-122.0767745,-0.5768287798762322,4.5961223,0.1,301.76855,1615936814441
Fix,GT,37.3855895,-122.0768179,-0.5937568045258521,3.7790966,0.1,290.01105,1615936815441
Fix,GT,37.3855899,-122.076859,-0.5954143984913826,3.5209014,0.1,271.46008,1615936816441
Fix,GT,37.3855788,-122.076895,-0.5957568045258522,3.304922,0.1,250.50555,1615936817441
Fix,GT,37.3855581,-122.076922,-0.6274143799543381,3.423996,0.1,228.89899,1615936818441
Fix,GT,37.3855312,-122.0769443,-0.6248287972211838,3.7530906,0.1,215.16563,1615936819441
Fix,GT,37.3855012,-122.0769667,-0.5965135903060437,4.0045557,0.1,211.43196,1615936820441
Fix,GT,37.3854692,-122.0769904,-0.5777568039894103,4.244626,0.1,210.59637,1615936821441
Fix,GT,37.3854349,-122.0770146,-0.5291711866855622,4.5111628,0.1,209.32567,1615936822441
Fix,GT,37.3853984,-122.0770404,-0.5055855861604214,4.775696,0.1,209.41241,1615936823441
Fix,GT,37.3853602,-122.077068,-0.4715856012105941,5.013339,0.1,209.94861,1615936824441
Fix,GT,37.3853206,-122.0770972,-0.444171202301979,5.107807,0.1,210.55222,1615936825441
Fix,GT,37.3852823,-122.0771266,-0.3943424041271209,4.874495,0.1,211.36656,1615936826441
Fix,GT,37.3852457,-122.0771553,-0.3547568030953407,4.716224,0.1,212.09586,1615936827441
Fix,GT,37.3852102,-122.0771841,-0.3301711921393871,4.6758714,0.1,212.81396,1615936828441
Fix,GT,37.385175,-122.0772131,-0.2933424038887023,4.7076564,0.1,213.31216,1615936829441
Fix,GT,37.3851393,-122.0772429,-0.2689280045628547,4.8444037,0.1,213.36961,1615936830441
Fix,GT,37.3851022,-122.0772723,-0.2510992059707642,4.8339696,0.1,211.93271,1615936831441
Fix,GT,37.3850655,-122.0772993,-0.2003424031734466,4.6575556,0.1,210.29208,1615936832441
Fix,GT,37.3850288,-122.0773255,-0.1849279982447624,4.7260675,0.1,209.62471,1615936833441
Fix,GT,37.3849911,-122.0773524,-0.1565855959653854,4.9215107,0.1,209.66562,1615936834441
Fix,GT,37.3849516,-122.077381,-0.1203423989415168,5.2262125,0.1,209.9001,1615936835441
Fix,GT,37.3849102,-122.0774113,-0.068441606760025,5.281259,0.1,210.21072,1615936836441
Fix,GT,37.3848701,-122.0774408,-0.0427568027079105,5.0632696,0.1,210.28566,1615936837441
Fix,GT,37.384831,-122.0774693,-0.0093424012959003,5.0262136,0.1,209.97154,1615936838441
Fix,GT,37.3847913,-122.0774975,0.023,5.0964785,0.1,209.33705,1615936839441
Fix,GT,37.3847508,-122.0775255,0.0590720005631446,5.1828556,0.1,208.86017,1615936840441
Fix,GT,37.3847094,-122.0775542,0.0984143969118595,5.348098,0.1,208.90594,1615936841441
Fix,GT,37.3846664,-122.0775839,0.1316576034426689,5.5518465,0.1,208.82536,1615936842441
Fix,GT,37.3846222,-122.0776143,0.1742431946992874,5.613367,0.1,208.66826,1615936843441
Fix,GT,37.3845775,-122.077645,0.2181440064907074,5.681876,0.1,208.54869,1615936844441
Fix,GT,37.3845321,-122.0776757,0.2447296003699302,5.7895975,0.1,208.30965,1615936845441
Fix,GT,37.3844857,-122.0777072,0.299900809764862,5.9681196,0.1,208.4374,1615936846441
Fix,GT,37.3844376,-122.0777401,0.3444864009618759,6.188587,0.1,208.53334,1615936847441
Fix,GT,37.3843877,-122.0777742,0.3824864128232002,6.4021206,0.1,208.53218,1615936848441
Fix,GT,37.3843362,-122.0778093,0.4370720013976097,6.611869,0.1,208.46964,1615936849441
Fix,GT,37.3842831,-122.0778454,0.4914864023923874,6.821456,0.1,208.29735,1615936850441
Fix,GT,37.3842282,-122.0778826,0.5401440208554268,7.0207458,0.1,208.4845,1615936851441
Fix,GT,37.384172,-122.0779216,0.5889008208811283,7.2353177,0.1,209.04482,1615936852441
Fix,GT,37.3841145,-122.0779622,0.6404143814742564,7.4930763,0.1,209.20885,1615936853441
Fix,GT,37.3840543,-122.0780042,0.6806576226651669,7.7636547,0.1,209.01901,1615936854441
Fix,GT,37.3839923,-122.0780474,0.7420719812810421,7.9894257,0.1,208.9289,1615936855441
Fix,GT,37.3839287,-122.0780917,0.8045584318339825,8.086322,0.1,208.94933,1615936856441
Fix,GT,37.3838651,-122.0781361,0.8529007801711559,8.077018,0.1,209.0355,1615936857441
Fix,GT,37.3838015,-122.0781805,0.9144864052534104,8.078439,0.1,209.02591,1615936858441
Fix,GT,37.383738,-122.078225,0.9809728406667708,8.06902,0.1,209.17885,1615936859441
Fix,GT,37.3836756,-122.0782699,1.0464144009947778,7.880889,0.1,209.86554,1615936860441
Fix,GT,37.3836151,-122.0783143,1.0842432029843332,7.6769915,0.1,210.4506,1615936861441
Fix,GT,37.3835566,-122.0783583,1.100585598886013,7.4605036,0.1,210.99043,1615936862441
Fix,GT,37.3835004,-122.0784021,1.186072005867958,7.2083874,0.1,212.22495,1615936863441
Fix,GT,37.3834473,-122.078446,1.2296576414108276,6.883831,0.1,213.49763,1615936864441
Fix,GT,37.3833989,-122.0784876,1.305243203699589,6.0170693,0.1,214.35114,1615936865441
Fix,GT,37.3833603,-122.0785227,1.3564864081144334,4.4002643,0.1,216.01341,1615936866441
Fix,GT,37.3833354,-122.0785469,1.3615855984687806,2.6532297,0.1,217.41928,1615936867441
Fix,GT,37.3833204,-122.0785618,1.3435856384932996,1.6573493,0.1,218.1926,1615936868441
Fix,GT,37.3833117,-122.0785709,1.3892432464063167,1.1003094,0.1,218.82227,1615936869441
Fix,GT,37.3833035,-122.0785806,1.410828803539276,1.49965,0.1,221.03703,1615936870441
Fix,GT,37.3832932,-122.0785973,1.453900812804699,2.1953228,0.1,228.41255,1615936871441
Fix,GT,37.3832823,-122.0786254,1.5388016725480556,3.2812521,0.1,241.1788,1615936872441
Fix,GT,37.383275,-122.0786694,1.6448288040161132,4.5695033,0.1,258.03302,1615936873441
Fix,GT,37.3832771,-122.0787297,1.7013152165412904,5.991495,0.1,274.1759,1615936874441
Fix,GT,37.3832923,-122.0788024,1.7904864131212237,7.261338,0.1,286.37723,1615936875441
Fix,GT,37.3833203,-122.0788836,1.7905135865211486,8.34551,0.1,295.3234,1615936876441
Fix,GT,37.3833594,-122.0789712,1.7360992358922958,9.37661,0.1,299.95456,1615936877441
Fix,GT,37.3834047,-122.0790665,1.6969279881715775,10.269875,0.1,300.94672,1615936878441
Fix,GT,37.3834549,-122.0791696,1.642441572666168,11.083289,0.1,301.33783,1615936879441
Fix,GT,37.3835085,-122.0792798,1.538855928272009,11.7195215,0.1,301.26965,1615936880441
Fix,GT,37.3835643,-122.0793956,1.476,12.245439,0.1,300.88812,1615936881441
Fix,GT,37.3836225,-122.0795163,1.4800000441074372,12.682419,0.1,301.3136,1615936882441
Fix,GT,37.3836832,-122.0796399,1.3924415674209594,12.972744,0.1,301.60693,1615936883441
Fix,GT,37.383745,-122.0797656,1.3256848156750205,13.160038,0.1,301.5911,1615936884441
Fix,GT,37.3838076,-122.079893,1.2685135815143584,13.324423,0.1,301.61557,1615936885441
Fix,GT,37.3838712,-122.0800218,1.1780271615982056,13.491251,0.1,301.6839,1615936886441
Fix,GT,37.3839354,-122.0801516,1.1435856307446957,13.570201,0.1,301.86432,1615936887441
Fix,GT,37.3840004,-122.0802815,1.0874144034385682,13.565521,0.1,302.00598,1615936888441
Fix,GT,37.3840651,-122.0804113,1.030054347753525,13.5537,0.1,301.83026,1615936889441
Fix,GT,37.3841294,-122.0805414,0.971099175095558,13.550968,0.1,301.56863,1615936890441
Fix,GT,37.3841935,-122.0806718,0.9003423585295678,13.550272,0.1,301.54022,1615936891441
Fix,GT,37.3842573,-122.0808013,0.7368925683498382,13.51185,0.1,301.79437,1615936892441
Fix,GT,37.3843215,-122.0809302,0.4832703526616096,13.4913025,0.1,301.8504,1615936893441
Fix,GT,37.3843858,-122.0810595,0.5013600919246674,13.459339,0.1,301.888,1615936894441
Fix,GT,37.3844504,-122.0811885,0.5180991895794869,13.4985895,0.1,301.9427,1615936895441
Fix,GT,37.3845147,-122.0813183,0.497684769630432,13.53294,0.1,301.69556,1615936896441
Fix,GT,37.3845787,-122.0814486,0.4383152435719967,13.585902,0.1,301.58755,1615936897441
Fix,GT,37.3846434,-122.0815791,0.3751983577907085,13.638005,0.1,301.804,1615936898441
Fix,GT,37.3847085,-122.0817104,0.3024144039154053,13.704281,0.1,301.60458,1615936899441
Fix,GT,37.3847736,-122.0818423,0.2927567882537841,13.795229,0.1,301.75372,1615936900441
Fix,GT,37.3848395,-122.0819751,0.2549279729127884,13.873407,0.1,301.7328,1615936901441
Fix,GT,37.3849054,-122.0821081,0.246756795912981,13.837093,0.1,301.81433,1615936902441
Fix,GT,37.3849711,-122.0822408,0.2150720254778861,13.796371,0.1,301.7029,1615936903441
Fix,GT,37.3850363,-122.082373,0.2185135836303234,13.747415,0.1,301.55994,1615936904441
Fix,GT,37.3851013,-122.0825052,0.1827567832171917,13.747122,0.1,301.5368,1615936905441
Fix,GT,37.3851662,-122.0826368,0.2095135840773582,13.598713,0.1,301.62253,1615936906441
Fix,GT,37.3852299,-122.0827663,0.1760991742610931,13.344753,0.1,301.5439,1615936907441
Fix,GT,37.3852922,-122.0828933,0.1449279816150665,13.042491,0.1,301.49072,1615936908441
Fix,GT,37.3853533,-122.0830171,0.1172432074844837,12.730118,0.1,301.76578,1615936909441
Fix,GT,37.3854134,-122.0831375,0.1253423857688903,12.432348,0.1,301.93103,1615936910441
Fix,GT,37.3854719,-122.0832545,0.0650991732776165,11.972727,0.1,301.94724,1615936911441
Fix,GT,37.3855269,-122.0833649,0.0269279814958572,10.9291115,0.1,301.8457,1615936912441
Fix,GT,37.3855761,-122.0834637,-0.0102432106733322,9.665736,0.1,301.90076,1615936913441
Fix,GT,37.3856186,-122.0835485,-0.0434144047498702,8.022976,0.1,302.02988,1615936914441
Fix,GT,37.3856527,-122.0836165,-0.0515855950415134,6.175268,0.1,302.07507,1615936915441
Fix,GT,37.3856771,-122.083665,-0.0574144017100334,3.933836,0.1,301.9523,1615936916441
Fix,GT,37.3856916,-122.0836942,-0.0615855947434902,2.2694654,0.1,301.8566,1615936917441
Fix,GT,37.3856986,-122.0837084,-0.0589999982416629,0.7770018,0.1,301.8142,1615936918441
Fix,GT,37.3856999,-122.0837111,-0.0634144052267074,0.009375503,0.1,301.81,1615936919441
Fix,GT,37.3856999,-122.0837111,-0.059000001758337,0.0020002683,0.1,301.8075,1615936920441
Fix,GT,37.3856999,-122.0837111,-0.0579999999999999,0.001,0.1,301.80762,1615936921441
Fix,GT,37.3856999,-122.0837111,-0.0579999982714653,0.001,0.1,301.80756,1615936922441
Fix,GT,37.3856999,-122.0837111,-0.0579999999999999,0.0005860548,0.1,301.80746,1615936923441
Fix,GT,37.3856999,-122.0837111,-0.0579999999999999,0.001,0.1,301.80786,1615936924441
Fix,GT,37.3856999,-122.0837111,-0.0580000017285347,0.0,0.1,301.80762,1615936925441
Fix,GT,37.3856999,-122.0837111,-0.058,0.0,0.1,301.80768,1615936926441
Fix,GT,37.3856999,-122.0837111,-0.0580000017285347,0.0,0.1,301.80777,1615936927441
Fix,GT,37.3856999,-122.0837111,-0.058,0.0,0.1,301.80783,1615936928441
Fix,GT,37.3856999,-122.0837111,-0.058,0.0,0.1,301.808,1615936929441
Fix,GT,37.3856999,-122.0837111,-0.058,0.0,0.1,301.80798,1615936930441
Fix,GT,37.3856999,-122.0837111,-0.0579999982714653,0.00041440307,0.1,301.80817,1615936931441
Fix,GT,37.3856999,-122.0837111,-0.0579999982714653,0.00058559695,0.1,301.8083,1615936932441
Fix,GT,37.3856999,-122.0837111,-0.0580000017285347,0.001,0.1,301.80835,1615936933441
Fix,GT,37.3856999,-122.0837111,-0.0579999982714653,0.0,0.1,301.8084,1615936934441
Fix,GT,37.3856999,-122.0837111,-0.0579999982714653,0.0012425622,0.1,301.808,1615936935441
Fix,GT,37.3856999,-122.0837111,-0.0579999982714653,0.0012425622,0.1,301.808,1615936936441
Fix,GT,37.3856999,-122.0837111,-0.0579999999999999,0.0012425622,0.1,301.80792,1615936937441
Fix,GT,37.3856999,-122.0837111,-0.058,0.0,0.1,301.80804,1615936938441
Fix,GT,37.3856999,-122.0837111,-0.0579999982714653,0.0,0.1,301.80765,1615936939441
Fix,GT,37.3856999,-122.0837111,-0.0580000017285347,0.0005855973,0.1,301.8079,1615936940441
Fix,GT,37.3856999,-122.0837111,-0.0580000017285347,0.0,0.1,301.8081,1615936941441
Fix,GT,37.3856999,-122.0837111,-0.0580000017285347,0.0,0.1,301.80823,1615936942441
Fix,GT,37.3856999,-122.0837111,-0.0579999999999999,0.0,0.1,301.80817,1615936943441
Fix,GT,37.3856999,-122.0837111,-0.0579999982714653,0.0,0.1,301.80817,1615936944441
Fix,GT,37.3856999,-122.0837111,-0.0579999999999999,0.0,0.1,301.80804,1615936945441
Fix,GT,37.3856999,-122.0837111,-0.058,0.0,0.1,301.80817,1615936946441
Fix,GT,37.3856999,-122.0837111,-0.0580000017285347,0.0,0.1,301.80814,1615936947441
Fix,GT,37.3856999,-122.0837111,-0.0580000017285347,0.0,0.1,301.808,1615936948441
Fix,GT,37.3856999,-122.0837111,-0.0580000017285347,0.0,0.1,301.808,1615936949441
Fix,GT,37.3856999,-122.0837111,-0.058,0.0,0.1,301.80835,1615936950441
Fix,GT,37.3856999,-122.0837111,-0.058,0.0005855977,0.1,301.80832,1615936951441
Fix,GT,37.3856999,-122.0837111,-0.0580000017285347,0.0,0.1,301.8082,1615936952441
Fix,GT,37.3856999,-122.0837111,-0.0580000017285347,0.00058559777,0.1,301.80807,1615936953441
Fix,GT,37.3856999,-122.0837111,-0.0579999999999999,0.001,0.1,301.80823,1615936954441
Fix,GT,37.3856999,-122.0837111,-0.0580000017285347,0.0,0.1,301.80823,1615936955441
Fix,GT,37.3856999,-122.0837111,-0.058,0.0,0.1,-58.191765,1615936956441
Fix,GT,37.3856999,-122.0837111,-0.0580000017285347,0.0,0.1,301.8082,1615936957441
Fix,GT,37.3856999,-122.0837111,-0.0579999999999999,0.0,0.1,301.8082,1615936958441
Fix,GT,37.3856999,-122.0837111,-0.058,0.0,0.1,301.8084,1615936959441
Fix,GT,37.3856999,-122.0837111,-0.058,0.00041440202,0.1,301.80826,1615936960441
Fix,GT,37.3856999,-122.0837111,-0.058,0.00041440202,0.1,301.80838,1615936961441
Fix,GT,37.3856999,-122.0837111,-0.0580000017285347,0.0,0.1,301.80817,1615936962441
Fix,GT,37.3856999,-122.0837111,-0.058,0.0,0.1,301.80807,1615936963441
Fix,GT,37.3856999,-122.0837111,-0.058,0.0005855982,0.1,301.8083,1615936964441
Fix,GT,37.3856999,-122.0837111,-0.058,0.001,0.1,301.80814,1615936965441
Fix,GT,37.3856999,-122.0837111,-0.058,0.001,0.1,301.8081,1615936966441
Fix,GT,37.3856999,-122.0837111,-0.0580000017285347,0.0004144017,0.1,301.8081,1615936967441
Fix,GT,37.3856999,-122.0837111,-0.058,0.001,0.1,301.8081,1615936968441
Fix,GT,37.3856999,-122.0837111,-0.0594144015908241,0.03736684,0.1,301.80774,1615936969441
Fix,GT,37.3857025,-122.0837165,-0.069,1.209298,0.1,301.76294,1615936970441
Fix,GT,37.3857123,-122.0837361,-0.068,2.8515077,0.1,301.84973,1615936971441
Fix,GT,37.3857305,-122.0837722,-0.075,4.6666527,0.1,302.0512,1615936972441
Fix,GT,37.3857566,-122.083825,-0.0855855985879898,6.398692,0.1,301.69647,1615936973441
Fix,GT,37.3857909,-122.0838942,-0.067828804641962,8.016837,0.1,301.7232,1615936974441
Fix,GT,37.3858317,-122.0839772,-0.0725855987668037,9.254446,0.1,301.54938,1615936975441
Fix,GT,37.3858785,-122.0840725,-0.057,10.553242,0.1,301.37836,1615936976441
Fix,GT,37.385931,-122.0841799,-0.0675855987668037,11.735784,0.1,301.3831,1615936977441
Fix,GT,37.3859887,-122.0842986,-0.0581711993515491,12.851339,0.1,301.21265,1615936978441
Fix,GT,37.3860499,-122.0844247,-0.0478288022279739,13.201559,0.1,301.45633,1615936979441
Fix,GT,37.3861131,-122.0845526,-0.0502432031631469,13.473781,0.1,301.67474,1615936980441
Fix,GT,37.3861777,-122.0846835,-0.0564144010543823,13.817876,0.1,301.76505,1615936981441
Fix,GT,37.3862447,-122.0848182,-0.0264144017398357,14.281496,0.1,301.88287,1615936982441
Fix,GT,37.3863137,-122.0849565,-0.0219279947578907,14.583154,0.1,301.89154,1615936983441
Fix,GT,37.3863836,-122.0850986,-0.0323423964977264,15.027437,0.1,301.40903,1615936984441
Fix,GT,37.3864558,-122.0852455,0.0007567975223064,15.470917,0.1,301.59918,1615936985441
Fix,GT,37.3865299,-122.0853957,0.0152432026267051,15.809213,0.1,301.60718,1615936986441
Fix,GT,37.3866056,-122.0855489,0.0032703927159309,16.123447,0.1,301.77426,1615936987441
Fix,GT,37.3866823,-122.0857041,-0.0327567988336086,16.084557,0.1,301.76318,1615936988441
Fix,GT,37.3867582,-122.0858569,-0.0303423980474472,15.763159,0.1,301.82254,1615936989441
Fix,GT,37.3868326,-122.0860061,-0.0396576030254364,15.395235,0.1,301.8937,1615936990441
Fix,GT,37.3869053,-122.0861517,-0.0504864025712013,15.034975,0.1,301.87326,1615936991441
Fix,GT,37.3869762,-122.0862939,-0.0552432003915309,14.667358,0.1,301.85095,1615936992441
Fix,GT,37.3870453,-122.0864327,-0.0825584070086479,14.310844,0.1,301.7265,1615936993441
Fix,GT,37.3871125,-122.0865682,-0.0876576054692268,13.955444,0.1,301.73648,1615936994441
Fix,GT,37.387178,-122.0867006,-0.1264144006371498,13.62838,0.1,301.65027,1615936995441
Fix,GT,37.3872418,-122.0868299,-0.1602432065606117,13.2941065,0.1,301.61343,1615936996441
Fix,GT,37.3873037,-122.086956,-0.191414406299591,12.943756,0.1,301.52866,1615936997441
Fix,GT,37.387364,-122.0870789,-0.2264864038228988,12.602074,0.1,301.3556,1615936998441
Fix,GT,37.3874225,-122.0871986,-0.2598288012742996,12.268486,0.1,301.57465,1615936999441
Fix,GT,37.3874799,-122.0873151,-0.2601711987257004,11.98456,0.1,301.60266,1615937000441
Fix,GT,37.3875363,-122.0874285,-0.2789999916851521,11.706823,0.1,301.9731,1615937001441
Fix,GT,37.3875916,-122.0875397,-0.3236576125025749,11.504534,0.1,301.78662,1615937002441
Fix,GT,37.3876455,-122.0876482,-0.3404863939285278,11.006588,0.1,301.8735,1615937003441
Fix,GT,37.3876957,-122.0877488,-0.3663152050971985,9.93059,0.1,302.00815,1615937004441
Fix,GT,37.38774,-122.0878373,-0.4119008044600486,8.424912,0.1,301.98077,1615937005441
Fix,GT,37.3877753,-122.0879077,-0.4159999876022339,6.2627625,0.1,302.11368,1615937006441
Fix,GT,37.3877999,-122.0879567,-0.4215856118500233,4.020105,0.1,302.03824,1615937007441
Fix,GT,37.3878153,-122.0879874,-0.4298288012742997,2.4446461,0.1,302.00742,1615937008441
Fix,GT,37.3878239,-122.0880047,-0.441,1.1426762,0.1,301.95917,1615937009441
Fix,GT,37.3878262,-122.0880093,-0.4474144006371499,0.029404664,0.1,301.95465,1615937010441
Fix,GT,37.3878262,-122.0880093,-0.449,0.004900838,0.1,301.95822,1615937011441
Fix,GT,37.3878262,-122.0880093,-0.4470000133216381,0.0015855995,0.1,301.9584,1615937012441
