MessageType,Provider,LatitudeDegrees,LongitudeDegrees,AltitudeMeters,SpeedMps,AccuracyMeters,BearingDegrees,UnixTimeMillis
Fix,GT,37.4443955,-122.2326981,11.68999965161085,0.001,0.1,300.7305,1609797015433
Fix,GT,37.4443955,-122.2326981,11.69,0.001821009,0.1,300.731,1609797016433
Fix,GT,37.4443955,-122.2326981,11.68999965161085,0.0014142136,0.099,300.73184,1609797017433
Fix,GT,37.4443955,-122.2326981,11.69,0.0,0.1,300.73163,1609797018433
Fix,GT,37.4443955,-122.2326981,11.68999965161085,0.0011390888,0.1,300.73123,1609797019433
Fix,GT,37.4443955,-122.2326981,11.69,0.0012751247,0.1,300.7303,1609797020433
Fix,GT,37.4443955,-122.2326981,11.690000348389148,0.0012751248,0.1,300.73184,1609797021433
Fix,GT,37.4443955,-122.2326981,11.69,0.0012751247,0.1,300.73206,1609797022433
Fix,GT,37.4443955,-122.2326981,11.690000348389148,0.0014142136,0.1,300.7318,1609797023433
Fix,GT,37.4443955,-122.2326981,11.690000348389148,0.0014142136,0.1,300.73138,1609797024433
Fix,GT,37.4443955,-122.2326981,11.690000348389148,0.0022144592,0.1,300.73135,1609797025433
Fix,GT,37.4443955,-122.2326981,11.690000348389148,0.0011390889,0.1,300.73132,1609797026433
Fix,GT,37.4443955,-122.2326981,11.69,0.0019600973,0.1,300.73126,1609797027433
Fix,GT,37.4443955,-122.2326981,11.690000348389148,0.002236068,0.1,300.73126,1609797028433
Fix,GT,37.4443955,-122.2326981,11.69,0.0019600973,0.1,300.7314,1609797029433
Fix,GT,37.4443955,-122.2326981,11.69,0.001613968,0.1,300.7315,1609797030433
Fix,GT,37.4443955,-122.2326981,11.690000348389148,0.0014142136,0.1,300.73123,1609797031433
Fix,GT,37.4443955,-122.2326981,11.690000348389148,0.0014142136,0.1,300.73126,1609797032433
Fix,GT,37.4443955,-122.2326981,11.69,0.0014142136,0.1,300.7312,1609797033433
Fix,GT,37.4443955,-122.2326981,11.69,0.001960097,0.1,300.73117,1609797034433
Fix,GT,37.4443955,-122.2326981,11.690000348389148,0.0010000002,0.1,300.7313,1609797035433
Fix,GT,37.4443955,-122.2326981,11.68999965161085,0.0012751245,0.1,300.73138,1609797036433
Fix,GT,37.4443955,-122.2326981,11.68999965161085,0.001,0.1,300.73126,1609797037433
Fix,GT,37.4443955,-122.2326981,11.689,0.001139089,0.1,300.73105,1609797038433
Fix,GT,37.4443955,-122.2326981,11.689,0.001139089,0.1,300.73105,1609797039433
Fix,GT,37.4443955,-122.2326981,11.689,0.0014142136,0.1,300.73077,1609797040433
Fix,GT,37.4443955,-122.2326981,11.688999651640652,0.0026295185,0.1,300.73068,1609797041433
Fix,GT,37.4443955,-122.2326981,11.689000348359349,0.0013357906,0.1,300.73108,1609797042433
Fix,GT,37.4443955,-122.2326981,11.687999651670456,0.0028512652,0.1,300.7308,1609797043433
Fix,GT,37.4443955,-122.2326981,11.686663861215113,0.01037649,0.1,300.73248,1609797044433
Fix,GT,37.4443969,-122.2327012,11.678999651938678,0.66536427,0.1,300.77026,1609797045433
Fix,GT,37.4444014,-122.2327109,11.682007719397545,1.3362284,0.1,300.66574,1609797046433
Fix,GT,37.4444079,-122.2327289,11.694663860976696,2.090596,0.1,296.7735,1609797047433
Fix,GT,37.4444117,-122.2327563,11.681343162059784,2.7687013,0.1,283.4008,1609797048433
Fix,GT,37.4444075,-122.2327928,11.675627351760864,3.593439,0.1,264.1156,1609797049433
Fix,GT,37.4443905,-122.2328351,11.52361260867119,4.6078978,0.1,243.51001,1609797050433
Fix,GT,37.4443628,-122.2328822,11.369940689265729,5.631157,0.1,232.2403,1609797051433
Fix,GT,37.4443211,-122.2329279,11.11428418850899,6.5875654,0.1,218.89343,1609797052433
Fix,GT,37.4442686,-122.2329703,10.820575750947,7.1219053,0.1,211.47426,1609797053433
Fix,GT,37.4442126,-122.233012,10.48024733197689,7.333273,0.1,210.61368,1609797054433
Fix,GT,37.4441566,-122.2330579,10.198612305164335,7.4444623,0.1,214.25676,1609797055433
Fix,GT,37.4441067,-122.2331116,10.00764209485054,7.1712513,0.1,223.14516,1609797056433
Fix,GT,37.4440678,-122.2331731,9.84561968716979,6.7690153,0.1,234.13675,1609797057433
Fix,GT,37.4440407,-122.2332385,9.64794811207056,6.382661,0.1,244.67639,1609797058433
Fix,GT,37.4440238,-122.2333055,9.401247615635397,6.1850886,0.1,254.03046,1609797059433
Fix,GT,37.4440154,-122.2333754,9.037553367882968,6.307624,0.1,263.3902,1609797060433
Fix,GT,37.4440186,-122.2334461,8.759277081489563,6.3567867,0.1,275.6712,1609797061433
Fix,GT,37.444035,-122.2335182,8.620941027641297,7.0369906,0.1,288.47946,1609797062433
Fix,GT,37.4440643,-122.2335941,8.404970765501261,7.9502907,0.1,296.84924,1609797063433
Fix,GT,37.4441008,-122.2336781,8.260007125318051,8.977432,0.1,299.23117,1609797064433
Fix,GT,37.4441446,-122.2337699,8.079291320800781,9.971997,0.1,301.4413,1609797065433
Fix,GT,37.4441927,-122.2338663,7.883283955156802,10.062475,0.1,302.11096,1609797066433
Fix,GT,37.4442408,-122.2339622,7.6822694466114045,9.935759,0.1,302.17398,1609797067433
Fix,GT,37.4442873,-122.2340537,7.516612607359887,9.064167,0.1,302.43085,1609797068433
Fix,GT,37.4443272,-122.2341317,7.351619979083537,7.2698574,0.1,302.67087,1609797069433
Fix,GT,37.4443577,-122.2341918,7.221642094254493,5.300168,0.1,302.35278,1609797070433
Fix,GT,37.4443782,-122.2342324,7.124313675403595,3.2515035,0.1,302.3675,1609797071433
Fix,GT,37.4443901,-122.2342554,7.071328418850899,1.7359881,0.1,302.39972,1609797072433
Fix,GT,37.4443956,-122.2342663,7.049664209425449,0.5521695,0.1,302.41058,1609797073433
Fix,GT,37.4443962,-122.2342676,7.043,0.0038798647,0.1,302.41336,1609797074433
Fix,GT,37.4443961,-122.2342676,7.0533357905149465,0.001960097,0.1,302.41278,1609797075433
Fix,GT,37.444396,-122.2342676,7.058,0.0016642095,0.1,302.41168,1609797076433
Fix,GT,37.444396,-122.2342676,7.058,0.0006642095,0.1,302.4118,1609797077433
Fix,GT,37.444396,-122.2342676,7.059,0.00066420954,0.1,302.41193,1609797078433
Fix,GT,37.444396,-122.2342676,7.059,0.001,0.1,302.4119,1609797079433
Fix,GT,37.444396,-122.2342676,7.059,0.001821008,0.1,302.41177,1609797080433
Fix,GT,37.444396,-122.2342676,7.059,0.001821008,0.1,302.41153,1609797081433
Fix,GT,37.444396,-122.2342676,7.059,0.001,0.1,302.4112,1609797082433
Fix,GT,37.444396,-122.2342676,7.059,0.001139089,0.1,302.41104,1609797083433
Fix,GT,37.444396,-122.2342676,7.058999789625407,0.00047487963,0.1,302.4115,1609797084433
Fix,GT,37.444396,-122.2342676,7.059,0.0,0.1,302.4119,1609797085433
Fix,GT,37.444396,-122.2342676,7.059,0.00033579065,0.1,302.41187,1609797086433
Fix,GT,37.444396,-122.2342676,7.058,0.00047487975,0.1,302.41153,1609797087433
Fix,GT,37.4443968,-122.2342693,7.04766420930624,0.5529621,0.1,302.43097,1609797088433
Fix,GT,37.4444029,-122.2342813,7.023656627744436,2.0209596,0.099,302.50082,1609797089433
Fix,GT,37.4444162,-122.2343072,6.933306301057339,3.5105777,0.1,302.4759,1609797090433
Fix,GT,37.4444349,-122.2343494,6.948671581625939,4.9087057,0.1,298.3475,1609797091433
Fix,GT,37.4444502,-122.2344092,7.004693699598312,6.082116,0.1,284.6679,1609797092433
Fix,GT,37.4444478,-122.2344822,7.125372654914856,6.698369,0.1,262.97586,1609797093433
Fix,GT,37.4444216,-122.2345544,7.159656622737646,7.2822633,0.1,239.77893,1609797094433
Fix,GT,37.4443728,-122.234615,7.216350321739912,7.952078,0.1,220.43167,1609797095433
Fix,GT,37.4443083,-122.2346681,7.341365063846111,9.272585,0.1,211.4281,1609797096433
Fix,GT,37.4442288,-122.2347221,7.565730567336082,10.720449,0.1,207.87987,1609797097433
Fix,GT,37.4441381,-122.2347823,7.859745313644408,12.054588,0.1,207.82788,1609797098433
Fix,GT,37.4440372,-122.2348499,8.212752686798574,13.330933,0.1,208.05249,1609797099433
Fix,GT,37.4439265,-122.2349237,8.702796668469906,14.503678,0.1,207.7962,1609797100433
Fix,GT,37.4438061,-122.235003,9.075394509792329,15.621881,0.1,207.63524,1609797101433
Fix,GT,37.4436772,-122.2350891,9.376715544760229,16.790333,0.1,208.23627,1609797102433
Fix,GT,37.4435409,-122.2351818,9.506350255161523,17.556852,0.1,208.3661,1609797103433
Fix,GT,37.4433996,-122.2352783,9.614708451926708,18.022205,0.1,208.51363,1609797104433
Fix,GT,37.4432578,-122.2353749,9.78605161958933,17.82661,0.1,208.25241,1609797105433
Fix,GT,37.443116,-122.2354705,9.962708453953269,17.936737,0.1,208.03357,1609797106433
Fix,GT,37.4429728,-122.2355661,10.205715524822471,18.089777,0.1,207.78696,1609797107433
Fix,GT,37.442828,-122.2356621,10.531453784883023,18.267859,0.1,207.6418,1609797108433
Fix,GT,37.4426819,-122.2357583,11.143468537330628,18.347599,0.1,207.51894,1609797109433
Fix,GT,37.4425351,-122.2358541,11.838557034492492,18.383066,0.1,207.19356,1609797110433
Fix,GT,37.4423878,-122.2359488,12.87795919895172,18.359638,0.1,207.05367,1609797111433
Fix,GT,37.4422408,-122.2360434,14.007936668127774,18.250273,0.1,207.21674,1609797112433
Fix,GT,37.4420968,-122.2361385,15.008542305231094,17.862675,0.1,208.0607,1609797113433
Fix,GT,37.4419568,-122.2362333,15.86890759897232,17.448044,0.1,208.31656,1609797114433
Fix,GT,37.4418199,-122.2363266,16.70153493463993,17.245338,0.1,208.48694,1609797115433
Fix,GT,37.4416833,-122.2364215,17.447154371351,17.420994,0.1,209.15811,1609797116433
Fix,GT,37.4415469,-122.2365209,18.24385544374585,17.61653,0.1,210.75867,1609797117433
Fix,GT,37.4414122,-122.2366282,19.06088549906016,17.800848,0.1,213.48941,1609797118433
Fix,GT,37.4412817,-122.2367462,20.00258599677682,17.924736,0.1,217.57127,1609797119433
Fix,GT,37.4411579,-122.2368774,20.903870756208896,18.076351,0.1,221.9406,1609797120433
Fix,GT,37.4410407,-122.2370197,21.84995864471793,18.137413,0.1,225.25684,1609797121433
Fix,GT,37.4409302,-122.2371709,22.88557119256258,18.200584,0.1,229.07259,1609797122433
Fix,GT,37.440828,-122.2373319,23.918229432106017,18.271235,0.1,233.02289,1609797123433
Fix,GT,37.4407321,-122.2375001,24.964602159172298,18.341652,0.1,235.27457,1609797124433
Fix,GT,37.4406408,-122.2376722,26.08691507679224,18.196758,0.1,236.73962,1609797125433
Fix,GT,37.4405511,-122.2378421,27.0989380286932,17.832056,0.1,236.09491,1609797126433
Fix,GT,37.4404607,-122.2380051,28.217309912800783,17.204983,0.1,234.34216,1609797127433
Fix,GT,37.4403693,-122.2381567,29.223908588677645,16.462017,0.1,231.95174,1609797128433
Fix,GT,37.4402774,-122.2382988,30.079213104814293,15.93916,0.1,230.51845,1609797129433
Fix,GT,37.4401857,-122.2384366,30.912185408055784,15.8806,0.1,229.78004,1609797130433
Fix,GT,37.4400929,-122.2385731,31.705877273470165,15.872567,0.1,229.35298,1609797131433
Fix,GT,37.4399986,-122.2387079,32.501879190415146,15.847289,0.1,228.21458,1609797132433
Fix,GT,37.4399022,-122.2388398,33.329206638574604,15.812885,0.1,227.03023,1609797133433
Fix,GT,37.4398036,-122.238969,34.06386448684335,15.842769,0.1,225.46507,1609797134433
Fix,GT,37.439702,-122.2390951,34.79220664858818,15.831639,0.1,223.87393,1609797135433
Fix,GT,37.4395978,-122.2392162,35.54257303020358,15.681085,0.1,221.9205,1609797136433
Fix,GT,37.4394913,-122.2393312,36.44992362424731,15.483438,0.1,219.963,1609797137433
Fix,GT,37.4393842,-122.2394402,37.37355834537745,15.115444,0.1,218.53139,1609797138433
Fix,GT,37.4392789,-122.2395431,38.16118566879631,14.447926,0.1,217.40613,1609797139433
Fix,GT,37.4391775,-122.239638,38.86217715740204,13.638213,0.1,216.16983,1609797140433
Fix,GT,37.4390798,-122.239725,39.48844651997089,13.057367,0.1,215.01035,1609797141433
Fix,GT,37.4389827,-122.2398082,40.05147605383396,13.131018,0.1,213.79993,1609797142433
Fix,GT,37.4388804,-122.2398906,40.67414885884524,13.930119,0.1,212.0915,1609797143433
Fix,GT,37.4387701,-122.2399751,41.26076756262779,14.784443,0.1,210.90915,1609797144433
Fix,GT,37.4386509,-122.2400614,41.71907507023215,15.818134,0.1,209.38419,1609797145433
Fix,GT,37.4385211,-122.2401492,42.11378358951211,16.88234,0.1,207.45071,1609797146433
Fix,GT,37.4383812,-122.2402379,42.49408860230446,17.855528,0.1,206.33571,1609797147433
Fix,GT,37.4382339,-122.2403267,42.80073066031933,18.344692,0.1,205.05725,1609797148433
Fix,GT,37.4380821,-122.2404116,43.0187011256218,18.525738,0.1,203.1213,1609797149433
Fix,GT,37.437929,-122.2404911,43.18,18.185095,0.1,202.02336,1609797150433
Fix,GT,37.4377784,-122.2405648,43.313695035249,17.704353,0.1,200.54448,1609797151433
Fix,GT,37.4376307,-122.2406335,43.38800129306316,17.286457,0.1,200.1163,1609797152433
Fix,GT,37.4374867,-122.2407013,43.50572458580136,16.82455,0.1,200.7369,1609797153433
Fix,GT,37.4373472,-122.2407692,43.72205040001869,16.506704,0.099,201.30667,1609797154433
Fix,GT,37.4372084,-122.2408394,44.01040227460861,16.783598,0.1,202.41774,1609797155433
Fix,GT,37.4370662,-122.2409178,44.41075152319669,17.666977,0.099,204.53178,1609797156433
Fix,GT,37.4369221,-122.2410076,44.876758900702,18.024254,0.1,207.42473,1609797157433
Fix,GT,37.4367821,-122.2411069,45.49818604838848,17.607325,0.1,211.1021,1609797158433
Fix,GT,37.4366542,-122.2412175,46.17651912727952,16.904816,0.1,217.10753,1609797159433
Fix,GT,37.4365412,-122.2413392,46.86683414411544,16.21503,0.1,223.05197,1609797160433
Fix,GT,37.4364416,-122.241468,47.4007884041667,15.512862,0.1,227.55142,1609797161433
Fix,GT,37.4363541,-122.2415988,47.88278101199865,14.777641,0.1,230.63419,1609797162433
Fix,GT,37.4362725,-122.2417254,48.45182679027319,14.022261,0.1,231.22711,1609797163433
Fix,GT,37.4361972,-122.2418473,49.05581941103935,13.26401,0.1,232.69348,1609797164433
Fix,GT,37.4361295,-122.2419653,49.59246736642718,12.373651,0.1,235.12524,1609797165433
Fix,GT,37.4360733,-122.2420746,50.09380465269089,10.588422,0.1,238.3439,1609797166433
Fix,GT,37.4360326,-122.2421701,50.47640972214937,8.548305,0.1,243.53476,1609797167433
Fix,GT,37.4360075,-122.2422473,50.73838603612781,6.2549796,0.1,249.33209,1609797168433
Fix,GT,37.4359939,-122.242307,50.92970704421401,5.0542192,0.1,254.61774,1609797169433
Fix,GT,37.4359849,-122.2423604,51.10637276649474,4.8456054,0.1,258.5187,1609797170433
Fix,GT,37.4359793,-122.2424194,51.27371009686589,5.822304,0.1,263.86923,1609797171433
Fix,GT,37.4359787,-122.2424936,51.43804283541441,7.471715,0.1,270.79446,1609797172433
Fix,GT,37.435987,-122.2425874,51.70573815482855,9.243396,0.1,278.04327,1609797173433
Fix,GT,37.4360079,-122.2426988,52.23245257481933,11.050879,0.1,285.81323,1609797174433
Fix,GT,37.4360448,-122.2428238,52.694496943861246,12.54859,0.1,291.93857,1609797175433
Fix,GT,37.4360939,-122.2429618,53.348500114828354,14.184299,0.1,294.70987,1609797176433
Fix,GT,37.4361514,-122.2431147,54.11887132018804,15.731955,0.1,295.178,1609797177433
Fix,GT,37.4362149,-122.2432825,55.061264672368765,17.087753,0.099,295.2818,1609797178433
Fix,GT,37.436284,-122.2434617,56.11191740724445,17.932278,0.1,295.8479,1609797179433
Fix,GT,37.4363544,-122.243642,57.13730162778496,17.588192,0.099,296.18967,1609797180433
Fix,GT,37.4364269,-122.2438186,58.19992489233613,17.684692,0.1,298.3781,1609797181433
Fix,GT,37.4365093,-122.2439922,59.28526637339592,18.164806,0.1,302.34406,1609797182433
Fix,GT,37.4366042,-122.2441625,60.34961139321327,18.620438,0.1,306.93317,1609797183433
Fix,GT,37.4367114,-122.2443276,61.48627564036846,19.102943,0.1,310.36276,1609797184433
Fix,GT,37.4368264,-122.2444916,62.69963369166851,19.570919,0.1,311.63382,1609797185433
Fix,GT,37.4369461,-122.2446572,63.91296024870872,20.019327,0.1,312.50018,1609797186433
Fix,GT,37.43707,-122.2448252,65.01793805813789,20.452328,0.1,312.43744,1609797187433
Fix,GT,37.4371954,-122.2449977,65.98191043183206,20.858305,0.1,312.24448,1609797188433
Fix,GT,37.4373241,-122.2451743,66.910557875216,21.584955,0.1,312.46283,1609797189433
Fix,GT,37.437459,-122.2453568,67.81188831219077,22.470581,0.1,313.02948,1609797190433
Fix,GT,37.4376011,-122.2455446,68.75523691940307,23.340303,0.1,313.74918,1609797191433
Fix,GT,37.4377502,-122.2457365,69.7255896204114,24.01334,0.1,314.55704,1609797192433
Fix,GT,37.4379039,-122.245931,70.78460447326303,24.448082,0.1,314.6547,1609797193433
Fix,GT,37.4380598,-122.2461282,71.78060238754749,24.671385,0.1,314.84976,1609797194433
Fix,GT,37.4382178,-122.2463262,72.82925920569896,24.90839,0.1,314.85876,1609797195433
Fix,GT,37.4383773,-122.2465261,73.86660023596882,25.132092,0.099,314.76788,1609797196433
Fix,GT,37.4385376,-122.2467289,74.90892344093322,25.41848,0.1,314.61487,1609797197433
Fix,GT,37.4386998,-122.2469341,75.91358991533518,25.700617,0.1,314.49503,1609797198433
Fix,GT,37.4388635,-122.2471425,76.9669234843254,26.08261,0.1,314.39706,1609797199433
Fix,GT,37.4390292,-122.2473544,78.02560759866238,26.46537,0.1,314.28143,1609797200433
Fix,GT,37.4391969,-122.2475703,79.11359512138367,26.853672,0.1,314.126,1609797201433
Fix,GT,37.4393665,-122.2477893,80.19026675319671,27.210014,0.1,314.10965,1609797202433
Fix,GT,37.4395385,-122.2480113,81.28460756829381,27.558868,0.1,313.85263,1609797203433
Fix,GT,37.4397112,-122.2482377,82.39561001300812,27.880728,0.1,313.5983,1609797204433
Fix,GT,37.439886,-122.248466,83.50961003303527,28.174648,0.1,313.93796,1609797205433
Fix,GT,37.4400635,-122.2486964,84.67095075047017,28.493,0.099,313.78235,1609797206433
Fix,GT,37.4402422,-122.2489298,85.84630878633261,28.755678,0.1,313.6369,1609797207433
Fix,GT,37.4404224,-122.2491651,87.0086175200343,29.002975,0.1,313.87573,1609797208433
Fix,GT,37.440604,-122.2494017,88.18794856163859,29.04857,0.1,313.79544,1609797209433
Fix,GT,37.4407857,-122.2496377,89.32326426926255,29.037212,0.1,314.00934,1609797210433
Fix,GT,37.4409679,-122.2498731,90.46429190415144,29.027311,0.1,314.10202,1609797211433
Fix,GT,37.4411502,-122.2501083,91.6076148904562,29.035152,0.1,314.0467,1609797212433
Fix,GT,37.4413318,-122.2503442,92.75462783387304,28.992771,0.1,313.77765,1609797213433
Fix,GT,37.4415124,-122.2505802,94.01733379554749,28.903,0.1,313.83603,1609797214433
Fix,GT,37.4416934,-122.2508145,95.32931899094582,28.819206,0.1,314.05432,1609797215433
Fix,GT,37.4418729,-122.2510492,96.63798320770265,28.747673,0.1,313.59375,1609797216433
Fix,GT,37.4420504,-122.2512851,97.94463550654052,28.65373,0.1,312.9589,1609797217433
Fix,GT,37.4422234,-122.2515238,99.17063261401654,28.470766,0.1,311.5438,1609797218433
Fix,GT,37.442391,-122.251767,100.29561780107022,28.398685,0.1,309.95245,1609797219433
Fix,GT,37.4425515,-122.2520163,101.44627459967136,28.311058,0.1,307.92947,1609797220433
Fix,GT,37.4427047,-122.2522712,102.56027898967268,28.19261,0.1,306.07812,1609797221433
Fix,GT,37.4428508,-122.2525312,103.66327156099678,28.087265,0.1,304.33362,1609797222433
Fix,GT,37.4429907,-122.2527952,104.76159993892908,28.000324,0.099,302.81982,1609797223433
Fix,GT,37.4431242,-122.2530633,105.87126728105544,27.94095,0.1,301.09314,1609797224433
Fix,GT,37.443251,-122.2533357,106.96159886717795,27.891129,0.1,299.38882,1609797225433
Fix,GT,37.4433713,-122.253612,108.05193473348022,27.81214,0.1,297.7667,1609797226433
Fix,GT,37.4434844,-122.2538917,109.1576073384285,27.69924,0.1,295.98682,1609797227433
Fix,GT,37.44359,-122.2541748,110.2619357140362,27.599297,0.1,294.14737,1609797228433
Fix,GT,37.4436882,-122.2544607,111.35459989836812,27.499043,0.1,292.35718,1609797229433
Fix,GT,37.4437786,-122.2547497,112.4272674291134,27.437515,0.1,290.52557,1609797230433
Fix,GT,37.4438622,-122.2550411,113.49459582901002,27.369827,0.1,289.09384,1609797231433
Fix,GT,37.4439403,-122.2553342,114.5872749106288,27.304422,0.1,287.80127,1609797232433
Fix,GT,37.444012,-122.255629,115.65595398831368,27.243645,0.1,286.06793,1609797233433
Fix,GT,37.4440757,-122.2559257,116.7339242901802,27.11419,0.1,283.9986,1609797234433
Fix,GT,37.4441307,-122.2562235,117.775916882813,26.997904,0.1,282.19745,1609797235433
Fix,GT,37.4441793,-122.2565219,118.78022298634052,26.896702,0.1,280.9566,1609797236433
Fix,GT,37.4442223,-122.2568205,119.69588719660044,26.823591,0.1,279.55402,1609797237433
Fix,GT,37.4442589,-122.2571201,120.56153293824195,26.809402,0.1,277.84317,1609797238433
Fix,GT,37.4442883,-122.2574207,121.38085748976472,26.786263,0.1,276.06473,1609797239433
Fix,GT,37.4443098,-122.2577222,122.16152170085904,26.796627,0.1,274.19995,1609797240433
Fix,GT,37.4443242,-122.2580246,122.8511672527492,26.801497,0.1,272.55823,1609797241433
Fix,GT,37.4443314,-122.2583272,123.50282035338878,26.759209,0.1,270.89255,1609797242433
Fix,GT,37.4443313,-122.2586296,124.09114130622147,26.770851,0.1,269.03525,1609797243433
Fix,GT,37.4443231,-122.2589324,124.5914548187852,26.869137,0.1,267.0665,1609797244433
Fix,GT,37.4443079,-122.2592363,124.99075345242022,27.017244,0.1,265.72882,1609797245433
Fix,GT,37.4442878,-122.2595414,125.30007812619208,27.141531,0.1,264.75018,1609797246433
Fix,GT,37.4442641,-122.2598474,125.55705207896231,27.287998,0.1,264.11908,1609797247433
Fix,GT,37.4442387,-122.2601555,125.74170513698458,27.581154,0.1,263.98224,1609797248433
Fix,GT,37.4442133,-122.2604672,125.87901863345505,27.89773,0.1,264.1911,1609797249433
Fix,GT,37.4441886,-122.260783,125.98336182713508,28.245834,0.1,264.42212,1609797250433
Fix,GT,37.4441638,-122.2611021,126.1447200421691,28.465843,0.1,264.1617,1609797251433
Fix,GT,37.4441378,-122.2614227,126.36071996665,28.5654,0.099,264.1832,1609797252433
Fix,GT,37.4441125,-122.2617447,126.57270884913206,28.693987,0.1,264.3251,1609797253433
Fix,GT,37.4440875,-122.2620684,126.71938048297169,28.863396,0.1,264.41095,1609797254433
Fix,GT,37.4440626,-122.2623939,126.88938048750164,29.006466,0.1,264.29907,1609797255433
Fix,GT,37.4440364,-122.262721,127.02968652296066,29.204174,0.1,264.22455,1609797256433
Fix,GT,37.4440108,-122.2630507,127.11001110571624,29.40572,0.1,264.3361,1609797257433
Fix,GT,37.4439843,-122.2633823,127.26636560678484,29.60007,0.1,264.00787,1609797258433
Fix,GT,37.4439572,-122.263716,127.36473487186431,29.743387,0.1,264.24457,1609797259433
Fix,GT,37.4439331,-122.2640509,127.46067543143032,29.759777,0.1,265.3365,1609797260433
Fix,GT,37.4439172,-122.2643872,127.45599634855984,29.89033,0.1,267.6718,1609797261433
Fix,GT,37.4439107,-122.2647258,127.41030966719984,30.095083,0.1,269.35846,1609797262433
Fix,GT,37.4439114,-122.265067,127.3289663989246,30.264751,0.1,270.8062,1609797263433
Fix,GT,37.4439201,-122.2654092,127.18895149561764,30.347374,0.099,272.7699,1609797264433
Fix,GT,37.4439381,-122.2657525,126.99628743049504,30.558071,0.1,274.6173,1609797265433
Fix,GT,37.4439655,-122.2660967,126.724257602185,30.635197,0.1,276.45422,1609797266433
Fix,GT,37.4440009,-122.26644,126.3822352206409,30.66523,0.1,278.00043,1609797267433
Fix,GT,37.4440428,-122.2667828,125.99989562427996,30.710732,0.1,279.2796,1609797268433
Fix,GT,37.4440919,-122.2671245,125.5762500849068,30.731472,0.1,281.13358,1609797269433
Fix,GT,37.4441503,-122.267464,125.13522396111487,30.765882,0.1,283.0369,1609797270433
Fix,GT,37.4442176,-122.2678014,124.70021277448534,30.796211,0.099,284.9864,1609797271433
Fix,GT,37.4442941,-122.2681361,124.26289187422394,30.85009,0.1,286.91364,1609797272433
Fix,GT,37.4443794,-122.2684683,123.81322392702104,30.903843,0.1,288.52966,1609797273433
Fix,GT,37.4444726,-122.2687974,123.36255973660946,30.927027,0.1,290.385,1609797274433
Fix,GT,37.4445742,-122.2691224,122.91188062477111,30.875061,0.1,292.3269,1609797275433
Fix,GT,37.4446839,-122.2694428,122.37519404888153,30.836464,0.1,293.97412,1609797276433
Fix,GT,37.4448,-122.2697592,121.95923517137766,30.852232,0.1,295.3877,1609797277433
Fix,GT,37.4449234,-122.270072,121.54720532101392,30.938778,0.1,297.07443,1609797278433
Fix,GT,37.4450545,-122.2703814,121.1492387894392,31.072994,0.1,298.78632,1609797279433
Fix,GT,37.445194,-122.2706866,120.78993281763792,31.187479,0.1,300.77542,1609797280433
Fix,GT,37.4453419,-122.2709867,120.54328743612766,31.262081,0.1,302.4164,1609797281433
Fix,GT,37.4454967,-122.2712814,120.39897013473512,31.18055,0.1,304.323,1609797282433
Fix,GT,37.4456583,-122.2715686,120.3003471710384,31.044857,0.099,305.9326,1609797283433
Fix,GT,37.4458261,-122.2718484,120.33836181238294,30.914877,0.1,307.7822,1609797284433
Fix,GT,37.4459995,-122.272121,120.5277203324139,30.802906,0.1,309.19318,1609797285433
Fix,GT,37.4461779,-122.2723865,120.7977388704419,30.668272,0.1,310.7644,1609797286433
Fix,GT,37.4463598,-122.2726461,121.14109349754452,30.462086,0.1,311.3135,1609797287433
Fix,GT,37.4465402,-122.2729037,121.55244040948152,30.235859,0.1,311.09216,1609797288433
Fix,GT,37.4467186,-122.2731597,121.97244405308366,29.925066,0.1,311.02988,1609797289433
Fix,GT,37.4468952,-122.2734122,122.48280613803864,29.445845,0.1,311.1947,1609797290433
Fix,GT,37.4470677,-122.2736599,123.05213450312615,28.749905,0.1,311.04062,1609797291433
Fix,GT,37.4472367,-122.2739012,123.66182858407498,28.094837,0.1,311.31625,1609797292433
Fix,GT,37.4474022,-122.2741367,124.34485101664066,27.450203,0.1,311.22226,1609797293433
Fix,GT,37.4475637,-122.2743666,125.07118685907125,26.783932,0.1,311.3219,1609797294433
Fix,GT,37.4477209,-122.274591,125.82051522690058,26.062767,0.1,311.25458,1609797295433
Fix,GT,37.4478744,-122.2748093,126.5315114762783,25.480656,0.1,311.31073,1609797296433
Fix,GT,37.4480247,-122.2750238,127.26219070243836,25.069387,0.1,311.2342,1609797297433
Fix,GT,37.4481732,-122.2752354,127.9735039907694,24.858177,0.1,311.44574,1609797298433
Fix,GT,37.4483219,-122.275445,128.71750398528576,24.816189,0.1,311.60583,1609797299433
Fix,GT,37.4484706,-122.2756546,129.41917586329578,24.834473,0.1,311.33856,1609797300433
Fix,GT,37.448618,-122.2758655,130.11683980345725,24.84086,0.1,311.0425,1609797301433
Fix,GT,37.4487653,-122.2760784,130.82951924484968,25.06182,0.1,310.82166,1609797302433
Fix,GT,37.4489138,-122.2762935,131.55585119307042,25.30672,0.1,310.78622,1609797303433
Fix,GT,37.4490632,-122.2765115,132.28517955636977,25.573214,0.1,310.42685,1609797304433
Fix,GT,37.4492133,-122.2767325,132.98750791454313,25.784786,0.1,310.23553,1609797305433
Fix,GT,37.4493645,-122.2769557,133.66182131052017,26.07061,0.1,310.30447,1609797306433
Fix,GT,37.4495173,-122.2771812,134.30749298095702,26.229828,0.1,310.2219,1609797307433
Fix,GT,37.4496694,-122.2774078,134.88211974716188,26.246126,0.1,309.8276,1609797308433
Fix,GT,37.4498214,-122.277637,135.33215373265745,26.489716,0.1,309.56982,1609797309433
Fix,GT,37.4499742,-122.2778685,135.82476897269487,26.718252,0.1,309.5017,1609797310433
Fix,GT,37.4501278,-122.2781017,136.25176149594785,26.765507,0.1,309.4082,1609797311433
Fix,GT,37.4502809,-122.278335,136.65151552277803,26.6982,0.1,309.47714,1609797312433
Fix,GT,37.4504341,-122.2785674,137.12304832991958,26.65472,0.1,309.55383,1609797313433
Fix,GT,37.4505877,-122.2787992,137.4203691780865,26.702827,0.1,309.63187,1609797314433
Fix,GT,37.4507414,-122.2790313,137.64902995824815,26.710827,0.1,309.5348,1609797315433
Fix,GT,37.4508951,-122.279264,137.80936240816118,26.783278,0.1,309.51495,1609797316433
Fix,GT,37.4510493,-122.2794978,137.8936716607809,26.900658,0.1,309.45062,1609797317433
Fix,GT,37.4512036,-122.2797329,137.91534332323073,26.987598,0.1,309.3874,1609797318433
Fix,GT,37.4513585,-122.2799688,137.9433283379078,27.08754,0.1,309.26694,1609797319433
Fix,GT,37.4515137,-122.2802059,137.94298839482664,27.21381,0.1,309.29208,1609797320433
Fix,GT,37.45167,-122.2804441,137.90132084178924,27.38242,0.1,309.35562,1609797321433
Fix,GT,37.4518277,-122.2806841,137.7646375744939,27.680616,0.1,309.48212,1609797322433
Fix,GT,37.4519876,-122.2809266,137.62528675073386,28.013174,0.1,309.40842,1609797323433
Fix,GT,37.4521488,-122.2811725,137.3966041880846,28.247852,0.1,309.2541,1609797324433
Fix,GT,37.4523104,-122.2814196,137.11260009336473,28.292177,0.1,309.24805,1609797325433
Fix,GT,37.452472,-122.2816661,136.76158167350292,28.195919,0.1,309.4207,1609797326433
Fix,GT,37.4526335,-122.2819119,136.37357416307927,28.156235,0.1,309.29077,1609797327433
Fix,GT,37.4527945,-122.2821578,135.94556665086748,28.130709,0.1,309.27054,1609797328433
Fix,GT,37.4529548,-122.2824026,135.46853663063047,27.957409,0.1,309.3372,1609797329433
Fix,GT,37.4531146,-122.2826463,134.92484591707586,27.914898,0.1,309.33096,1609797330433
Fix,GT,37.4532747,-122.2828898,134.3358539249897,27.929031,0.1,309.53934,1609797331433
Fix,GT,37.4534358,-122.2831326,133.70918175250293,28.01698,0.1,309.7558,1609797332433
Fix,GT,37.4535978,-122.2833765,133.0981782127619,28.165005,0.1,309.64102,1609797333433
Fix,GT,37.4537603,-122.2836225,132.47819715479017,28.355957,0.1,309.35767,1609797334433
Fix,GT,37.4539233,-122.2838707,131.8518573551774,28.54697,0.1,309.3177,1609797335433
Fix,GT,37.454087,-122.2841212,131.2341631362438,28.778515,0.1,309.20667,1609797336433
Fix,GT,37.4542519,-122.2843738,130.57250646209718,28.978125,0.1,309.2094,1609797337433
Fix,GT,37.454417,-122.2846278,129.9608461554945,29.00061,0.1,309.12085,1609797338433
Fix,GT,37.4545827,-122.2848812,129.31417058682442,29.001926,0.1,309.3805,1609797339433
Fix,GT,37.4547488,-122.2851345,128.68451759201287,29.029797,0.1,309.34735,1609797340433
Fix,GT,37.4549153,-122.2853874,128.0511630268097,28.996683,0.1,309.62622,1609797341433
Fix,GT,37.4550822,-122.2856395,127.39784599649906,29.00479,0.1,309.5158,1609797342433
Fix,GT,37.455249,-122.2858921,126.70918553221226,29.038645,0.1,309.56384,1609797343433
Fix,GT,37.4554155,-122.2861454,126.0625138335228,29.064611,0.1,309.22287,1609797344433
Fix,GT,37.4555814,-122.2863993,125.37349504169822,28.990242,0.1,309.23395,1609797345433
Fix,GT,37.4557473,-122.2866512,124.61880080583693,28.824663,0.099,309.69568,1609797346433
Fix,GT,37.4559139,-122.2869007,123.88748369401694,28.778427,0.1,309.8386,1609797347433
Fix,GT,37.4560815,-122.2871488,123.25120799171924,28.787682,0.1,310.8085,1609797348433
Fix,GT,37.4562553,-122.2873901,122.80025676426293,28.782436,0.1,313.21136,1609797349433
Fix,GT,37.4564363,-122.2876231,122.435249445498,28.797516,0.1,315.03384,1609797350433
Fix,GT,37.4566235,-122.2878484,122.20896990656853,28.784134,0.1,317.06488,1609797351433
Fix,GT,37.4568164,-122.2880656,122.08463794761896,28.75521,0.099,318.96643,1609797352433
Fix,GT,37.4570146,-122.2882741,122.063007525146,28.683289,0.1,320.87076,1609797353433
Fix,GT,37.4572173,-122.2884744,122.18503763020038,28.591297,0.1,322.34763,1609797354433
Fix,GT,37.4574231,-122.2886676,122.42609032535552,28.46261,0.1,323.96103,1609797355433
Fix,GT,37.4576328,-122.2888514,122.80443736502528,28.350399,0.1,326.10556,1609797356433
Fix,GT,37.4578475,-122.2890246,123.26944124758244,28.33538,0.1,328.13333,1609797357433
Fix,GT,37.4580663,-122.2891897,123.80948259687425,28.356522,0.1,329.62827,1609797358433
Fix,GT,37.458289,-122.2893466,124.38179970884325,28.360466,0.1,331.56607,1609797359433
Fix,GT,37.4585159,-122.2894943,124.95383366134762,28.392946,0.1,333.18634,1609797360433
Fix,GT,37.4587464,-122.2896331,125.5624864937067,28.338688,0.1,335.30066,1609797361433
Fix,GT,37.4589794,-122.2897621,126.16145637547967,28.236729,0.1,336.8975,1609797362433
Fix,GT,37.4592153,-122.2898821,126.7474714615345,28.26123,0.1,338.78708,1609797363433
Fix,GT,37.4594544,-122.2899928,127.25811676615476,28.335587,0.099,340.46854,1609797364433
Fix,GT,37.4596967,-122.2900954,127.84348656278848,28.436201,0.1,342.02234,1609797365433
Fix,GT,37.459942,-122.2901897,128.38717705479263,28.528343,0.1,343.85538,1609797366433
Fix,GT,37.4601904,-122.2902741,128.97810168510676,28.61689,0.1,345.90436,1609797367433
Fix,GT,37.460442,-122.2903446,129.6651733909249,28.635952,0.1,348.35144,1609797368433
Fix,GT,37.4606955,-122.2904045,130.26680352306366,28.593185,0.1,350.12512,1609797369433
Fix,GT,37.4609488,-122.2904532,130.8124679321945,28.278282,0.1,352.2823,1609797370433
Fix,GT,37.4612002,-122.2904908,131.36081498473882,27.978376,0.1,354.14297,1609797371433
Fix,GT,37.4614511,-122.2905155,131.92113215491176,27.958889,0.1,356.76093,1609797372433
Fix,GT,37.4617029,-122.2905267,132.55918858462573,27.957869,0.1,358.68436,1609797373433
Fix,GT,37.4619541,-122.2905322,133.28552842879293,27.822674,0.1,359.0425,1609797374433
Fix,GT,37.4622044,-122.2905384,133.9341473543644,27.743958,0.1,358.61914,1609797375433
Fix,GT,37.4624539,-122.290545,134.51480753326416,27.6428,0.1,358.82333,1609797376433
Fix,GT,37.4627026,-122.2905511,135.0391358517408,27.591234,0.1,358.71033,1609797377433
Fix,GT,37.4629509,-122.2905575,135.59046013328435,27.55291,0.1,358.6827,1609797378433
Fix,GT,37.4631987,-122.2905647,136.20047173690796,27.441727,0.1,358.4739,1609797379433
Fix,GT,37.4634447,-122.2905736,136.8531852885783,27.128841,0.1,358.08603,1609797380433
Fix,GT,37.4636862,-122.2905846,137.64086393457652,26.497765,0.1,357.74826,1609797381433
Fix,GT,37.4639226,-122.2905968,138.39716958168148,26.065586,0.1,357.61545,1609797382433
Fix,GT,37.464156,-122.2906099,138.93042990645765,25.817307,0.1,357.1729,1609797383433
Fix,GT,37.4643874,-122.2906276,139.28542650294304,25.679798,0.1,355.8236,1609797384433
Fix,GT,37.464618,-122.2906521,139.6344072434008,25.684092,0.099,354.43414,1609797385433
Fix,GT,37.4648481,-122.2906833,139.9610982336998,25.653635,0.1,353.06607,1609797386433
Fix,GT,37.4650766,-122.2907217,140.2450680192113,25.492863,0.1,351.70538,1609797387433
Fix,GT,37.4653026,-122.2907654,140.5077363623679,25.282732,0.1,350.72156,1609797388433
Fix,GT,37.4655257,-122.290813,140.75940388846396,24.924923,0.1,350.19296,1609797389433
Fix,GT,37.4657449,-122.2908605,140.98104200550915,24.439913,0.1,350.29538,1609797390433
Fix,GT,37.46596,-122.2909053,141.2207700113058,23.94345,0.1,350.81125,1609797391433
Fix,GT,37.4661708,-122.2909475,141.51375490230322,23.463192,0.1,350.9268,1609797392433
Fix,GT,37.4663774,-122.2909893,141.81938880491256,22.97284,0.1,350.3635,1609797393433
Fix,GT,37.4665789,-122.291035,142.14508321720362,22.474815,0.1,349.035,1609797394433
Fix,GT,37.4667753,-122.2910858,142.3603694447577,22.052761,0.1,347.6294,1609797395433
Fix,GT,37.4669672,-122.2911422,142.36464476644994,21.70903,0.1,346.09732,1609797396433
Fix,GT,37.4671557,-122.2912029,142.12959269300103,21.465008,0.1,345.21622,1609797397433
Fix,GT,37.4673415,-122.2912663,141.77888310965895,21.313433,0.1,344.42102,1609797398433
Fix,GT,37.4675253,-122.2913314,141.15215415906903,20.947014,0.1,344.08386,1609797399433
Fix,GT,37.4677028,-122.2913974,140.64477622750402,20.114834,0.1,342.77032,1609797400433
Fix,GT,37.4678703,-122.2914678,139.8834445233345,18.969894,0.1,340.40756,1609797401433
Fix,GT,37.4680249,-122.2915387,139.01112378704545,17.498764,0.1,339.5307,1609797402433
Fix,GT,37.4681659,-122.2916031,138.14443343073128,15.827173,0.1,340.27997,1609797403433
Fix,GT,37.4682936,-122.2916587,137.29613539394737,14.107756,0.1,341.12128,1609797404433
Fix,GT,37.4684048,-122.291705,136.58085953494904,11.858359,0.1,341.9006,1609797405433
Fix,GT,37.4684964,-122.2917414,136.13291311731936,9.463098,0.1,342.49854,1609797406433
Fix,GT,37.4685666,-122.2917703,135.8536146158874,6.9041233,0.1,341.2195,1609797407433
Fix,GT,37.4686148,-122.2917922,135.72264139926435,4.5011764,0.1,339.73395,1609797408433
Fix,GT,37.4686451,-122.2918083,135.6703282790184,2.8646116,0.1,337.068,1609797409433
Fix,GT,37.4686624,-122.2918186,135.63732473796605,1.540611,0.1,335.53348,1609797410433
Fix,GT,37.4686724,-122.2918249,135.60866413879396,0.9324405,0.1,334.54633,1609797411433
Fix,GT,37.468677,-122.2918279,135.59766009733082,0.16633636,0.1,334.07843,1609797412433
Fix,GT,37.4686771,-122.291828,135.5899959591031,0.0022360678,0.1,334.06894,1609797413433
Fix,GT,37.4686771,-122.291828,135.5879959591627,0.0016641377,0.099,334.06613,1609797414433
Fix,GT,37.4686771,-122.291828,135.58700404080747,0.0010000002,0.1,334.0655,1609797415433
Fix,GT,37.4686771,-122.2918279,135.587,0.00093923154,0.1,334.0644,1609797416433
Fix,GT,37.4686771,-122.2918279,135.5879959591627,0.00066413666,0.1,334.06433,1609797417433
Fix,GT,37.4686771,-122.2918279,135.589,0.0,0.1,334.06476,1609797418433
Fix,GT,37.4686771,-122.2918279,135.587,0.000664136,0.1,334.06506,1609797419433
Fix,GT,37.4686771,-122.2918279,135.587,0.0,0.1,334.06485,1609797420433
Fix,GT,37.4686772,-122.2918279,135.58599595922232,0.00033586464,0.1,334.06467,1609797421433
Fix,GT,37.4686772,-122.2918279,135.58400404071807,0.00033586507,0.1,334.06488,1609797422433
Fix,GT,37.4686772,-122.2918279,135.584,0.001,0.1,334.0648,1609797423433
Fix,GT,37.4686772,-122.2918279,135.58300404068828,0.00033586565,0.1,334.06506,1609797424433
Fix,GT,37.4686772,-122.2918279,135.5820040406585,0.001,0.1,334.06503,1609797425433
Fix,GT,37.4686772,-122.2918279,135.58200404065846,0.001,0.1,334.06497,1609797426433
Fix,GT,37.4686772,-122.2918279,135.581,0.001415154,0.1,334.0647,1609797427433
Fix,GT,37.4686772,-122.2918279,135.58,0.005268735,0.1,334.0611,1609797428433
Fix,GT,37.4686798,-122.2918296,135.5656681729853,0.8374183,0.1,333.78864,1609797429433
Fix,GT,37.4686909,-122.2918372,135.54998835742475,1.9651217,0.1,332.51086,1609797430433
Fix,GT,37.4687121,-122.2918534,135.53500403925776,3.5827985,0.1,329.38562,1609797431433
Fix,GT,37.4687435,-122.2918829,135.57467577672006,4.9514894,0.1,322.177,1609797432433
Fix,GT,37.4687758,-122.2919303,135.75803042173385,5.886324,0.1,307.46024,1609797433433
Fix,GT,37.4687934,-122.2919968,135.917042083472,6.3694663,0.1,283.224,1609797434433
Fix,GT,37.4687871,-122.2920728,135.98534347701073,7.1935844,0.1,258.82242,1609797435433
Fix,GT,37.4687571,-122.2921526,136.01034347844123,8.26488,0.1,239.96135,1609797436433
Fix,GT,37.4687067,-122.29223,136.04132826006412,9.408106,0.1,228.49376,1609797437433
Fix,GT,37.4686432,-122.2923113,136.03831659451126,10.759076,0.1,224.4231,1609797438433
Fix,GT,37.468571,-122.2923993,136.00064485263823,11.331811,0.1,224.13876,1609797439433
Fix,GT,37.468498,-122.2924883,135.8663013702929,11.231657,0.1,224.22179,1609797440433
Fix,GT,37.4684266,-122.2925771,135.63862248653174,11.102092,0.1,225.37462,1609797441433
Fix,GT,37.4683596,-122.2926698,135.3699162320495,11.043943,0.1,228.95642,1609797442433
Fix,GT,37.4682961,-122.292766,135.01955390849707,11.067703,0.1,230.44894,1609797443433
Fix,GT,37.468231,-122.2928616,134.59788213461638,11.160297,0.1,228.3383,1609797444433
Fix,GT,37.4681608,-122.292953,134.09151176106928,11.295401,0.1,224.80022,1609797445433
Fix,GT,37.4680872,-122.2930412,133.50148888111116,10.994341,0.1,223.57884,1609797446433
Fix,GT,37.468023,-122.2931263,132.90785917121173,9.79067,0.1,229.03838,1609797447433
Fix,GT,37.4679779,-122.2932137,132.27516820025443,8.888605,0.1,241.37167,1609797448433
Fix,GT,37.4679554,-122.2933102,131.4597521609068,9.170702,0.1,260.19238,1609797449433
Fix,GT,37.4679688,-122.2934124,130.81791241389516,9.346993,0.1,288.22705,1609797450433
Fix,GT,37.468017,-122.2934995,130.65800762474538,9.800522,0.1,309.9058,1609797451433
Fix,GT,37.4680841,-122.2935845,130.69566785547138,11.413668,0.1,315.93076,1609797452433
Fix,GT,37.4681648,-122.2936772,130.80435485783218,12.899124,0.1,317.63245,1609797453433
Fix,GT,37.4682563,-122.2937798,130.9120647496581,14.290251,0.1,318.25903,1609797454433
Fix,GT,37.4683562,-122.2938892,131.3167938172817,14.940694,0.1,318.8903,1609797455433
Fix,GT,37.4684584,-122.2939991,131.84082042521237,14.893368,0.1,319.61877,1609797456433
Fix,GT,37.4685606,-122.2941043,132.4685077122748,14.377169,0.1,321.1408,1609797457433
Fix,GT,37.4686615,-122.2941988,133.1688665314913,13.568588,0.1,325.6353,1609797458433
Fix,GT,37.4687663,-122.2942651,133.99020974832771,12.604768,0.1,339.02673,1609797459433
Fix,GT,37.4688728,-122.2942906,134.83356129586696,11.633653,0.1,355.08844,1609797460433
Fix,GT,37.4689739,-122.2942803,135.6308550171852,11.170691,0.1,9.418457,1609797461433
Fix,GT,37.4690685,-122.2942396,136.36318735107778,11.1775255,0.1,23.890015,1609797462433
Fix,GT,37.4691526,-122.2941709,137.08550800961257,11.21854,0.1,37.801575,1609797463433
Fix,GT,37.4692214,-122.2940778,137.7711721741855,11.381415,0.1,52.111816,1609797464433
Fix,GT,37.4692702,-122.2939642,138.448851618886,11.586203,0.1,66.88916,1609797465433
Fix,GT,37.4692963,-122.2938364,139.09818754416705,11.855916,0.1,80.55542,1609797466433
Fix,GT,37.4692966,-122.2937018,139.81952278715374,12.07634,0.1,94.80017,1609797467433
Fix,GT,37.4692696,-122.2935685,140.53650404661894,12.447586,0.1,109.961334,1609797468433
Fix,GT,37.4692127,-122.2934447,141.19781281170248,13.01219,0.1,125.707306,1609797469433
Fix,GT,37.4691295,-122.293334,141.72678223246336,14.0563545,0.1,136.15436,1609797470433
Fix,GT,37.4690309,-122.293224,142.19945824176074,15.263845,0.1,139.06146,1609797471433
Fix,GT,37.4689214,-122.2931079,142.62709942620992,16.585783,0.1,140.10971,1609797472433
Fix,GT,37.4688014,-122.2929843,143.02375251975656,17.891834,0.1,141.21771,1609797473433
Fix,GT,37.4686686,-122.2928562,143.11632396808267,19.32465,0.099,143.33167,1609797474433
Fix,GT,37.4685214,-122.2927248,142.9936301214397,20.771027,0.1,145.50366,1609797475433
Fix,GT,37.4683601,-122.2925921,142.83364115965367,21.936144,0.1,147.83636,1609797476433
Fix,GT,37.4681857,-122.2924632,142.6349464290142,23.02456,0.1,150.80856,1609797477433
Fix,GT,37.4679982,-122.2923388,142.42596173053985,24.144142,0.1,152.98193,1609797478433
Fix,GT,37.4677977,-122.2922165,142.20195830887556,25.312262,0.1,154.66919,1609797479433
Fix,GT,37.4675863,-122.2920954,142.01060286784173,26.237816,0.1,155.9961,1609797480433
Fix,GT,37.4673662,-122.2919788,141.7322558865249,26.807575,0.1,158.01056,1609797481433
Fix,GT,37.4671387,-122.2918696,141.42096592792868,27.235842,0.1,159.82977,1609797482433
Fix,GT,37.4669064,-122.2917656,141.2192746192217,27.490917,0.1,160.63745,1609797483433
Fix,GT,37.4666714,-122.2916643,140.917911547184,27.657524,0.1,161.27856,1609797484433
Fix,GT,37.4664342,-122.2915667,140.68191154634954,27.746517,0.1,162.34052,1609797485433
Fix,GT,37.4661944,-122.291476,140.38026693916322,27.84267,0.1,164.02545,1609797486433
Fix,GT,37.4659519,-122.2913948,140.11191920554637,27.893585,0.1,165.72583,1609797487433
Fix,GT,37.4657071,-122.2913227,139.84793103450536,27.92101,0.1,167.90118,1609797488433
Fix,GT,37.4654602,-122.2912618,139.57964878505467,27.95835,0.1,169.75616,1609797489433
Fix,GT,37.4652111,-122.2912097,139.2889115406573,28.15082,0.1,171.00873,1609797490433
Fix,GT,37.4649593,-122.2911625,138.96625923508407,28.334316,0.1,171.8703,1609797491433
Fix,GT,37.4647055,-122.2911223,138.66257565093042,28.461006,0.1,173.76599,1609797492433
Fix,GT,37.4644499,-122.2910916,138.29490032738445,28.554512,0.1,175.25085,1609797493433
Fix,GT,37.4641929,-122.2910692,137.89556086716055,28.64728,0.1,176.6261,1609797494433
Fix,GT,37.4639349,-122.2910526,137.53057975232602,28.682384,0.1,177.50995,1609797495433
Fix,GT,37.4636765,-122.2910409,137.18889671042564,28.720924,0.1,178.13562,1609797496433
Fix,GT,37.4634175,-122.2910311,136.74386959809064,28.802483,0.1,178.29858,1609797497433
Fix,GT,37.4631579,-122.2910216,136.21252601748705,28.8443,0.1,178.211,1609797498433
Fix,GT,37.4628982,-122.2910118,135.6861901102066,28.811333,0.1,178.29407,1609797499433
Fix,GT,37.4626392,-122.2910033,135.13354900538923,28.681425,0.1,178.71667,1609797500433
Fix,GT,37.4623817,-122.2909964,134.7735950400829,28.496206,0.1,178.70752,1609797501433
Fix,GT,37.4621258,-122.2909883,134.49227047988774,28.314392,0.099,178.4007,1609797502433
Fix,GT,37.4618717,-122.2909776,134.26191923326252,28.13491,0.1,177.78735,1609797503433
Fix,GT,37.4616191,-122.2909629,133.92589650803805,27.992384,0.1,176.6861,1609797504433
Fix,GT,37.461368,-122.2909396,133.44018602767585,27.916763,0.1,174.87158,1609797505433
Fix,GT,37.4611179,-122.2909065,132.87218999004364,27.882044,0.1,173.12646,1609797506433
Fix,GT,37.460869,-122.2908637,132.294834774822,27.91775,0.1,171.35303,1609797507433
Fix,GT,37.4606202,-122.2908115,131.7208617374897,28.04049,0.1,169.7237,1609797508433
Fix,GT,37.4603715,-122.2907506,131.14283476409315,28.203568,0.1,168.03748,1609797509433
Fix,GT,37.4601231,-122.290679,130.6275258076787,28.3758,0.1,166.15314,1609797510433
Fix,GT,37.459875,-122.2905971,130.00654503303764,28.576948,0.1,164.40753,1609797511433
Fix,GT,37.4596272,-122.2905051,129.43220141807197,28.780338,0.1,162.61597,1609797512433
Fix,GT,37.45938,-122.2904033,128.848873172611,28.97922,0.1,160.94586,1609797513433
Fix,GT,37.4591339,-122.290291,128.32918601310254,29.132729,0.1,159.03027,1609797514433
Fix,GT,37.4588898,-122.2901678,127.75951422473788,29.244816,0.1,157.28857,1609797515433
Fix,GT,37.4586476,-122.2900358,127.17385000652077,29.357594,0.1,155.79175,1609797516433
Fix,GT,37.458408,-122.2898943,126.53251407647132,29.427696,0.1,153.77576,1609797517433
Fix,GT,37.4581717,-122.2897428,125.94584225070476,29.47389,0.1,152.1795,1609797518433
Fix,GT,37.4579386,-122.2895823,125.377517965436,29.510902,0.1,150.26828,1609797519433
Fix,GT,37.4577097,-122.2894125,124.84088833460213,29.552094,0.1,148.56189,1609797520433
Fix,GT,37.4574847,-122.2892335,124.37187691116333,29.57198,0.1,146.6142,1609797521433
Fix,GT,37.457265,-122.2890443,123.99925526535512,29.55759,0.1,144.50317,1609797522433
Fix,GT,37.4570511,-122.2888457,123.75894213482738,29.51033,0.1,142.58179,1609797523433
Fix,GT,37.4568422,-122.2886398,123.58097323158384,29.447031,0.099,141.00726,1609797524433
Fix,GT,37.4566392,-122.2884264,123.50898059400916,29.339146,0.1,138.92175,1609797525433
Fix,GT,37.4564427,-122.2882058,123.5646948863268,29.177073,0.1,137.41718,1609797526433
Fix,GT,37.4562528,-122.2879794,123.76106558397412,28.974804,0.1,135.59012,1609797527433
Fix,GT,37.4560695,-122.2877477,124.06541287440062,28.781982,0.1,134.15408,1609797528433
Fix,GT,37.4558922,-122.287512,124.4517718759179,28.568783,0.1,132.36703,1609797529433
Fix,GT,37.4557228,-122.2872702,124.86542456287144,28.387592,0.1,130.27155,1609797530433
Fix,GT,37.4555595,-122.287024,125.15305389392375,28.325047,0.1,129.32315,1609797531433
Fix,GT,37.4553976,-122.2867761,125.4097411002517,28.401718,0.1,129.33258,1609797532433
Fix,GT,37.4552346,-122.2865282,125.78680270993708,28.448395,0.1,129.50165,1609797533433
Fix,GT,37.4550711,-122.2862804,126.3221502596736,28.453194,0.1,129.44775,1609797534433
Fix,GT,37.4549083,-122.2860323,126.96286434197424,28.415718,0.1,129.33148,1609797535433
Fix,GT,37.4547458,-122.2857846,127.59415785080192,28.353785,0.1,129.40094,1609797536433
Fix,GT,37.4545836,-122.2855373,128.20915405774116,28.308693,0.1,129.34784,1609797537433
Fix,GT,37.4544218,-122.2852903,128.84382971182467,28.252144,0.1,129.32196,1609797538433
Fix,GT,37.4542601,-122.2850438,129.44349382930994,28.20579,0.099,129.54434,1609797539433
Fix,GT,37.4540983,-122.2847989,130.05982589662074,28.109625,0.1,129.53574,1609797540433
Fix,GT,37.4539371,-122.2845543,130.65316570445896,28.049065,0.1,129.47403,1609797541433
Fix,GT,37.4537763,-122.2843102,131.26581430336836,27.99221,0.1,129.46466,1609797542433
Fix,GT,37.453616,-122.2840664,131.89250166603924,27.93223,0.1,129.4079,1609797543433
Fix,GT,37.4534562,-122.2838227,132.52749774551393,27.881699,0.1,129.24402,1609797544433
Fix,GT,37.4532973,-122.2835791,133.1534746414423,27.83538,0.1,129.29517,1609797545433
Fix,GT,37.4531383,-122.2833363,133.7324940508902,27.776688,0.1,129.31683,1609797546433
Fix,GT,37.4529795,-122.283094,134.2804555375278,27.744911,0.1,129.48233,1609797547433
Fix,GT,37.45282,-122.2828523,134.77313507911563,27.781101,0.1,129.52878,1609797548433
Fix,GT,37.4526603,-122.2826103,135.234107943058,27.814358,0.1,129.46387,1609797549433
Fix,GT,37.4525005,-122.2823678,135.66211565864086,27.85923,0.1,129.475,1609797550433
Fix,GT,37.4523405,-122.2821247,136.0557529720366,27.947102,0.1,129.46548,1609797551433
Fix,GT,37.4521801,-122.2818804,136.37208847486974,28.038029,0.1,129.24396,1609797552433
Fix,GT,37.4520199,-122.2816349,136.6767294333577,28.11511,0.1,129.26941,1609797553433
Fix,GT,37.4518588,-122.281389,136.89272171735763,28.222668,0.1,129.42896,1609797554433
Fix,GT,37.4516966,-122.2811424,137.09339398205282,28.351807,0.1,129.39517,1609797555433
Fix,GT,37.4515337,-122.2808945,137.25302676448226,28.491486,0.1,129.42993,1609797556433
Fix,GT,37.4513703,-122.2806456,137.3663395254314,28.530825,0.1,129.37762,1609797557433
Fix,GT,37.4512072,-122.2803968,137.42567180991173,28.478235,0.1,129.37167,1609797558433
Fix,GT,37.4510444,-122.2801483,137.42799228441714,28.449415,0.1,129.33496,1609797559433
Fix,GT,37.4508815,-122.2799,137.37329323017596,28.471024,0.1,129.41925,1609797560433
Fix,GT,37.4507182,-122.2796515,137.27896141582727,28.516293,0.1,129.5191,1609797561433
Fix,GT,37.450554,-122.2794033,137.1202973189354,28.57393,0.1,129.61502,1609797562433
Fix,GT,37.4503897,-122.2791539,136.89925872689486,28.654907,0.1,129.45471,1609797563433
Fix,GT,37.4502254,-122.2789038,136.69225872170924,28.729937,0.1,129.33539,1609797564433
Fix,GT,37.4500608,-122.2786522,136.38489965093137,28.84359,0.1,129.2945,1609797565433
Fix,GT,37.4498959,-122.2783998,135.98223149642348,28.87597,0.1,129.27567,1609797566433
Fix,GT,37.4497308,-122.2781482,135.61257144826652,28.798431,0.1,129.53952,1609797567433
Fix,GT,37.4495654,-122.2778978,135.14088015916943,28.75722,0.1,129.64377,1609797568433
Fix,GT,37.4493996,-122.2776482,134.66753684309126,28.729977,0.1,129.8677,1609797569433
Fix,GT,37.4492332,-122.2773995,134.12217774084212,28.738285,0.1,129.9231,1609797570433
Fix,GT,37.4490668,-122.2771506,133.49149419623615,28.768265,0.1,129.92007,1609797571433
Fix,GT,37.4488995,-122.2769022,132.81448269480467,28.780136,0.1,130.28717,1609797572433
Fix,GT,37.4487312,-122.2766547,132.06614674714208,28.799343,0.1,130.51562,1609797573433
Fix,GT,37.4485618,-122.2764078,131.23844780516623,28.854265,0.1,130.7992,1609797574433
Fix,GT,37.448391,-122.2761617,130.42279141855238,28.874638,0.1,131.14502,1609797575433
Fix,GT,37.448219,-122.2759169,129.60579140406847,28.853489,0.1,131.33484,1609797576433
Fix,GT,37.448047,-122.2756725,128.7827836532593,28.837864,0.1,131.43417,1609797577433
Fix,GT,37.4478753,-122.2754281,127.93311563622952,28.831348,0.1,131.15997,1609797578433
Fix,GT,37.4477042,-122.275183,127.11310408228636,28.815065,0.1,131.09479,1609797579433
Fix,GT,37.4475334,-122.2749378,126.27712724590302,28.810768,0.1,131.08405,1609797580433
Fix,GT,37.4473624,-122.2746928,125.44912348496914,28.802383,0.1,131.25134,1609797581433
Fix,GT,37.4471906,-122.2744487,124.62279130268098,28.821152,0.1,131.38477,1609797582433
Fix,GT,37.447019,-122.274204,123.81913492369652,28.859127,0.1,131.20401,1609797583433
Fix,GT,37.446847,-122.2739592,123.08883359375596,28.885014,0.1,131.33826,1609797584433
Fix,GT,37.4466748,-122.2737143,122.43784902137516,28.891727,0.1,131.40475,1609797585433
Fix,GT,37.4465026,-122.2734698,121.89821583005786,28.854074,0.1,131.31195,1609797586433
Fix,GT,37.4463312,-122.2732254,121.50892267251017,28.739796,0.1,131.2724,1609797587433
Fix,GT,37.446161,-122.2729816,121.26893813228608,28.603062,0.1,131.048,1609797588433
Fix,GT,37.4459919,-122.2727388,121.05660994935036,28.450745,0.1,131.24902,1609797589433
Fix,GT,37.4458244,-122.2724973,120.9292895012498,28.22491,0.1,130.44885,1609797590433
Fix,GT,37.445662,-122.2722527,120.81864861690995,28.09964,0.1,129.078,1609797591433
Fix,GT,37.4455057,-122.2720032,120.7533127026558,28.059126,0.1,127.2121,1609797592433
Fix,GT,37.4453554,-122.2717481,120.71231684026122,28.083673,0.1,125.73663,1609797593433
Fix,GT,37.4452099,-122.2714879,120.75967596450448,28.170769,0.1,124.45456,1609797594433
Fix,GT,37.445069,-122.2712232,120.87237460613252,28.124004,0.1,122.88849,1609797595433
Fix,GT,37.4449346,-122.2709544,121.07173787346484,28.020416,0.1,121.49933,1609797596433
Fix,GT,37.4448055,-122.2706829,121.36407327979803,27.936638,0.1,120.01633,1609797597433
Fix,GT,37.444682,-122.2704082,121.6460732946396,27.852493,0.1,118.775696,1609797598433
Fix,GT,37.4445644,-122.2701309,121.9824247085154,27.724195,0.1,117.17401,1609797599433
Fix,GT,37.4444535,-122.269851,122.3174288251996,27.592579,0.1,115.58768,1609797600433
Fix,GT,37.4443496,-122.2695684,122.59635140144825,27.496244,0.1,114.04114,1609797601433
Fix,GT,37.4442515,-122.2692836,122.8567415254712,27.389767,0.1,112.72424,1609797602433
Fix,GT,37.4441596,-122.2689973,123.2147182981968,27.22594,0.1,111.11029,1609797603433
Fix,GT,37.4440744,-122.2687095,123.58543254214524,27.093277,0.1,109.58569,1609797604433
Fix,GT,37.4439953,-122.2684204,123.86975298270583,27.009855,0.1,108.29309,1609797605433
Fix,GT,37.4439224,-122.2681296,124.19307376870512,26.93631,0.1,106.6738,1609797606433
Fix,GT,37.4438557,-122.2678373,124.50243259593844,26.874908,0.1,105.23349,1609797607433
Fix,GT,37.4437947,-122.2675436,124.81240967699884,26.81813,0.1,103.9505,1609797608433
Fix,GT,37.4437393,-122.2672491,125.12673784250022,26.7634,0.1,102.61499,1609797609433
Fix,GT,37.4436897,-122.2669532,125.4280737569332,26.721497,0.1,101.13208,1609797610433
Fix,GT,37.4436458,-122.2666566,125.7294134157896,26.6695,0.1,99.87799,1609797611433
Fix,GT,37.4436075,-122.2663593,126.0237300824821,26.60836,0.1,98.41513,1609797612433
Fix,GT,37.4435756,-122.2660616,126.28573760601878,26.572681,0.1,96.9823,1609797613433
Fix,GT,37.4435494,-122.2657632,126.54204274076224,26.551132,0.1,95.54425,1609797614433
Fix,GT,37.4435296,-122.2654641,126.71439018702506,26.554258,0.1,93.964325,1609797615433
Fix,GT,37.4435157,-122.2651639,126.86603498625756,26.689556,0.1,92.724945,1609797616433
Fix,GT,37.443507,-122.2648611,126.9793476420641,26.91409,0.1,91.37552,1609797617433
Fix,GT,37.4435039,-122.2645557,127.04501550984384,27.15331,0.1,90.09674,1609797618433
Fix,GT,37.4435065,-122.2642472,127.02793416965008,27.43461,0.099,88.601746,1609797619433
Fix,GT,37.4435157,-122.2639358,127.0123824557662,27.684593,0.1,87.12439,1609797620433
Fix,GT,37.4435318,-122.2636223,126.97865253973008,27.91936,0.1,85.54797,1609797621433
Fix,GT,37.4435555,-122.2633068,126.94631642904878,28.168,0.1,83.53583,1609797622433
Fix,GT,37.4435873,-122.2629894,126.72325057411194,28.472616,0.1,82.367615,1609797623433
Fix,GT,37.4436224,-122.2626691,126.42158648627996,28.723629,0.1,82.05304,1609797624433
Fix,GT,37.4436582,-122.2623469,126.08991063791512,28.851112,0.1,82.10199,1609797625433
Fix,GT,37.4436929,-122.262023,125.75324279040098,29.006775,0.1,82.29361,1609797626433
Fix,GT,37.4437276,-122.2616972,125.4816134866178,29.153406,0.1,82.299866,1609797627433
Fix,GT,37.4437624,-122.2613702,125.27828934520484,29.253242,0.1,82.331604,1609797628433
Fix,GT,37.4437976,-122.2610422,125.0876289907992,29.304417,0.1,82.20419,1609797629433
Fix,GT,37.443834,-122.260714,124.92829306092858,29.314486,0.1,81.789276,1609797630433
Fix,GT,37.4438712,-122.2603861,124.72460972380638,29.296743,0.1,81.89343,1609797631433
Fix,GT,37.443907,-122.2600584,124.44292605158688,29.192883,0.1,82.3288,1609797632433
Fix,GT,37.4439398,-122.2597328,124.06955164691806,28.907072,0.1,83.33444,1609797633433
Fix,GT,37.4439668,-122.2594094,123.64887980428338,28.641062,0.1,84.7207,1609797634433
Fix,GT,37.4439861,-122.2590881,123.19022307088972,28.408567,0.1,86.4592,1609797635433
Fix,GT,37.4439976,-122.2587686,122.69652423739431,28.212631,0.1,88.25012,1609797636433
Fix,GT,37.4440013,-122.2584498,122.13650091552736,28.27995,0.1,89.91083,1609797637433
Fix,GT,37.4439968,-122.2581294,121.50116497296094,28.421555,0.1,91.90411,1609797638433
Fix,GT,37.4439828,-122.2578079,120.79846979641914,28.585976,0.1,94.10742,1609797639433
Fix,GT,37.4439604,-122.2574855,120.04112608242036,28.686226,0.1,95.505066,1609797640433
Fix,GT,37.4439317,-122.2571627,119.21111051809788,28.801338,0.1,97.26184,1609797641433
Fix,GT,37.4438936,-122.25684,118.31975903201104,28.945076,0.1,99.47583,1609797642433
Fix,GT,37.4438461,-122.2565178,117.34674346208573,29.081676,0.1,101.1514,1609797643433
Fix,GT,37.4437906,-122.256196,116.2907313529551,29.210728,0.1,103.30859,1609797644433
Fix,GT,37.4437255,-122.2558753,115.18337639522554,29.365206,0.1,105.08725,1609797645433
Fix,GT,37.4436518,-122.2555558,113.97701711571216,29.531172,0.1,107.0647,1609797646433
Fix,GT,37.4435693,-122.2552375,112.76302927452326,29.710384,0.1,108.68042,1609797647433
Fix,GT,37.4434791,-122.2549203,111.55534520602224,29.89756,0.1,110.50653,1609797648433
Fix,GT,37.4433798,-122.2546055,110.34368888044357,30.016848,0.1,112.49591,1609797649433
Fix,GT,37.4432723,-122.2542941,109.12570116609334,30.057743,0.099,114.28821,1609797650433
Fix,GT,37.4431564,-122.253987,107.9026810438037,30.077047,0.1,116.30948,1609797651433
Fix,GT,37.4430321,-122.2536852,106.674016933918,30.05433,0.1,118.24838,1609797652433
Fix,GT,37.4428999,-122.253389,105.4590169121027,30.028187,0.1,120.12982,1609797653433
Fix,GT,37.4427597,-122.2530991,104.27334502124786,29.999802,0.1,122.11926,1609797654433
Fix,GT,37.4426117,-122.2528156,103.06436362582446,29.979332,0.1,124.18164,1609797655433
Fix,GT,37.4424556,-122.2525394,101.84768089717628,29.9613,0.1,126.3244,1609797656433
Fix,GT,37.4422929,-122.2522696,100.71506827616692,29.906286,0.1,127.63089,1609797657433
Fix,GT,37.4421242,-122.2520061,99.51135750886796,29.987206,0.1,129.66425,1609797658433
Fix,GT,37.4419464,-122.251749,98.21499823516606,30.32925,0.1,132.09851,1609797659433
Fix,GT,37.441759,-122.2514961,97.0747381658256,30.744223,0.1,133.37769,1609797660433
Fix,GT,37.4415666,-122.2512435,95.98170696169136,31.116592,0.1,133.81213,1609797661433
Fix,GT,37.441371,-122.2509886,94.74334478473662,31.4982,0.1,133.76807,1609797662433
Fix,GT,37.4411734,-122.2507306,93.47434474778176,31.795622,0.1,133.82532,1609797663433
Fix,GT,37.4409741,-122.2504707,92.221688436985,31.993542,0.1,133.83142,1609797664433
Fix,GT,37.4407737,-122.2502101,90.95732132720948,32.078953,0.1,133.927,1609797665433
Fix,GT,37.4405729,-122.249949,89.69601385596394,32.114273,0.1,133.84854,1609797666433
Fix,GT,37.4403723,-122.2496879,88.388336838305,32.051743,0.1,133.81134,1609797667433
Fix,GT,37.4401726,-122.2494266,87.12799308544396,32.019062,0.1,133.6326,1609797668433
Fix,GT,37.4399731,-122.2491656,85.88936272010207,31.953196,0.1,133.70587,1609797669433
Fix,GT,37.4397738,-122.2489056,84.67599828770756,31.897064,0.1,133.93265,1609797670433
Fix,GT,37.4395739,-122.2486468,83.34497491425276,31.86669,0.1,134.18622,1609797671433
Fix,GT,37.439373,-122.2483899,81.96499829220771,31.827662,0.1,134.53723,1609797672433
Fix,GT,37.4391711,-122.2481354,80.6996623674035,31.734478,0.1,135.03717,1609797673433
Fix,GT,37.4389685,-122.2478828,79.38565150880814,31.66528,0.1,135.07849,1609797674433
Fix,GT,37.4387672,-122.2476324,78.15634669762849,31.1399,0.1,135.13312,1609797675433
Fix,GT,37.4385705,-122.2473886,76.84338560721278,30.13971,0.1,135.53802,1609797676433
Fix,GT,37.4383801,-122.2471599,75.80301841980219,28.411968,0.1,137.28107,1609797677433
Fix,GT,37.4381936,-122.2469533,74.65507072788476,26.958593,0.1,139.42758,1609797678433
Fix,GT,37.43801,-122.2467619,73.5036979470849,26.062395,0.1,140.59851,1609797679433
Fix,GT,37.4378309,-122.2465788,72.42377938365937,25.293297,0.1,140.6391,1609797680433
Fix,GT,37.4376564,-122.246399,71.34838884192706,24.953289,0.1,140.29279,1609797681433
Fix,GT,37.4374837,-122.24622,70.32404720282554,24.780674,0.1,140.46716,1609797682433
Fix,GT,37.437312,-122.2460427,69.36342993700504,24.621578,0.1,140.59933,1609797683433
Fix,GT,37.4371412,-122.2458661,68.33540853491425,24.48859,0.1,140.57904,1609797684433
Fix,GT,37.4369735,-122.2456918,67.32374820148945,23.774189,0.1,140.25232,1609797685433
Fix,GT,37.4368124,-122.2455227,66.20736741369961,22.822409,0.1,140.13208,1609797686433
Fix,GT,37.436659,-122.245359,65.05169551473855,21.838634,0.1,139.15302,1609797687433
Fix,GT,37.4365151,-122.2452006,63.89834983366728,20.565676,0.1,138.36432,1609797688433
Fix,GT,37.4363826,-122.2450524,62.82741418969631,18.726967,0.1,138.24728,1609797689433
Fix,GT,37.4362634,-122.2449199,61.88610946726799,16.656702,0.1,138.42023,1609797690433
Fix,GT,37.4361584,-122.2448027,61.08114849674701,14.553902,0.1,138.18591,1609797691433
Fix,GT,37.4360661,-122.2446997,60.35948261091113,12.906609,0.1,138.31409,1609797692433
Fix,GT,37.4359847,-122.2446085,59.73517970508337,11.364935,0.1,138.13159,1609797693433
Fix,GT,37.4359121,-122.2445269,59.20953906542063,10.3536625,0.1,138.14374,1609797694433
Fix,GT,37.4358433,-122.2444499,58.73188280445338,10.06457,0.1,138.37445,1609797695433
Fix,GT,37.4357767,-122.2443763,58.2959079694748,9.766588,0.1,138.64615,1609797696433
Fix,GT,37.4357105,-122.2443035,57.95124997901917,9.782593,0.1,138.8341,1609797697433
Fix,GT,37.4356444,-122.2442316,57.679601540148255,9.499352,0.1,138.98035,1609797698433
Fix,GT,37.4355804,-122.2441624,57.44961887660622,9.3375225,0.1,139.3049,1609797699433
Fix,GT,37.4355168,-122.2440941,57.29397044008971,9.2583,0.1,139.49939,1609797700433
Fix,GT,37.4354537,-122.2440264,57.15997654747963,9.170998,0.1,139.3872,1609797701433
Fix,GT,37.4353917,-122.2439588,57.07230466651916,9.060799,0.1,138.87054,1609797702433
Fix,GT,37.4353312,-122.2438921,56.93863278460503,8.745123,0.1,138.73987,1609797703433
Fix,GT,37.4352749,-122.2438285,56.80831248092652,8.036785,0.1,137.46167,1609797704433
Fix,GT,37.4352282,-122.2437647,56.63559536388516,7.3717413,0.1,129.8811,1609797705433
Fix,GT,37.4351953,-122.2436939,56.48030465602875,7.0968957,0.1,116.75256,1609797706433
Fix,GT,37.4351797,-122.243616,56.32195139104128,7.067725,0.099,99.34134,1609797707433
