MessageType,Provider,LatitudeDegrees,LongitudeDegrees,AltitudeMeters,SpeedMps,AccuracyMeters,BearingDegrees,UnixTimeMillis
Fix,GT,34.1759681,-118.4652946,177.814,0.0022330834,0.1,182.21288,1638984173999
Fix,GT,34.1759681,-118.4652946,177.814,0.0010010016,0.1,182.21278,1638984174999
Fix,GT,34.1759681,-118.4652946,177.814,0.0028292353,0.1,182.21255,1638984175999
Fix,GT,34.1759681,-118.4652946,177.814,0.001006317,0.1,182.21312,1638984176999
Fix,GT,34.1759681,-118.4652946,177.814,0.0031633538,0.1,182.21263,1638984177999
Fix,GT,34.1759681,-118.4652946,177.814,0.0031570212,0.1,182.21257,1638984178999
Fix,GT,34.1759681,-118.4652946,177.814,0.0022354934,0.1,182.21251,1638984179999
Fix,GT,34.1759681,-118.4652946,177.814,0.0,0.1,182.21324,1638984180999
Fix,GT,34.1759681,-118.4652946,177.814,0.0014142136,0.1,182.21284,1638984181999
Fix,GT,34.1759681,-118.4652946,177.814,0.0014162221,0.1,182.21304,1638984182999
Fix,GT,34.1759681,-118.4652946,177.814,0.002997553,0.1,182.21297,1638984183999
Fix,GT,34.1759681,-118.4652946,177.814,0.003,0.1,182.21304,1638984184999
Fix,GT,34.1759681,-118.4652946,177.814,0.003164635,0.1,182.21297,1638984185999
Fix,GT,34.1759681,-118.4652946,177.814,0.004997543,0.1,182.2132,1638984186999
Fix,GT,34.1759681,-118.4652946,177.814,0.00499754,0.1,182.21317,1638984187999
Fix,GT,34.1759681,-118.4652946,177.814,0.004,0.1,182.21303,1638984188999
Fix,GT,34.1759681,-118.4652946,177.814,0.003,0.1,182.21304,1638984189999
Fix,GT,34.1759681,-118.4652946,177.814,0.0014131905,0.1,182.21324,1638984190999
Fix,GT,34.1759681,-118.4652946,177.814,0.0022340356,0.1,182.21341,1638984191999
Fix,GT,34.1759681,-118.4652946,177.816,0.005997769,0.1,182.21324,1638984192999
Fix,GT,34.175968,-118.4652946,177.818,0.011000113,0.1,182.21326,1638984193999
Fix,GT,34.1759679,-118.4652946,177.821,0.017029386,0.1,182.21333,1638984194999
Fix,GT,34.1759677,-118.4652946,177.824,0.02401834,0.1,182.21307,1638984195999
Fix,GT,34.1759674,-118.4652946,177.827,0.031059481,0.1,182.21317,1638984196999
Fix,GT,34.175967,-118.4652946,177.83,0.03904876,0.1,182.21394,1638984197999
Fix,GT,34.1759666,-118.4652946,177.8329975042939,0.042293824,0.1,182.2144,1638984198999
Fix,GT,34.1759644,-118.4652946,177.831,0.5657897,0.1,181.76021,1638984199999
Fix,GT,34.1759561,-118.4652922,177.833,1.1788645,0.1,176.08191,1638984200999
Fix,GT,34.1759433,-118.4652858,177.8210075160861,1.7194105,0.1,165.79297,1638984201999
Fix,GT,34.1759266,-118.4652757,177.80500250864029,2.3542414,0.1,157.68304,1638984202999
Fix,GT,34.1759066,-118.465263,177.80700251191854,2.5267549,0.1,153.89703,1638984203999
Fix,GT,34.1758855,-118.4652504,177.75402766650913,2.8086624,0.1,153.91821,1638984204999
Fix,GT,34.1758592,-118.4652375,177.74098740792277,3.3558302,0.1,158.2279,1638984205999
Fix,GT,34.1758321,-118.4652302,177.67401765102147,2.8071456,0.1,167.55164,1638984206999
Fix,GT,34.1758107,-118.4652295,177.60905302190784,1.986144,0.1,177.18024,1638984207999
Fix,GT,34.1757945,-118.4652382,177.38217696917056,2.1798575,0.1,195.95097,1638984208999
Fix,GT,34.1757852,-118.4652609,176.9450253134966,2.9864638,0.1,224.00883,1638984209999
Fix,GT,34.1757814,-118.4652944,177.0570050692558,4.411394,0.1,254.59972,1638984210999
Fix,GT,34.1757809,-118.4653501,177.14096954512596,6.350425,0.1,267.9043,1638984211999
Fix,GT,34.1757769,-118.4654333,177.44196950650218,8.385957,0.1,268.82843,1638984212999
Fix,GT,34.1757762,-118.465535,177.63593893575666,10.029906,0.1,269.83295,1638984213999
Fix,GT,34.1757763,-118.4656475,177.83594649994376,10.349378,0.1,269.97992,1638984214999
Fix,GT,34.1757766,-118.4657581,178.05993112570047,9.952187,0.1,269.91473,1638984215999
Fix,GT,34.1757763,-118.4658606,178.34593104040624,8.828332,0.1,269.79904,1638984216999
Fix,GT,34.1757753,-118.4659524,178.4559872133136,7.892801,0.1,269.2554,1638984217999
Fix,GT,34.1757722,-118.4660292,178.422033288002,6.4191737,0.1,266.1092,1638984218999
Fix,GT,34.17576,-118.4660959,178.34282821911572,5.9836783,0.1,255.40544,1638984219999
Fix,GT,34.175732,-118.4661588,178.47895892620087,7.2983828,0.1,237.73,1638984220999
Fix,GT,34.1756777,-118.4662185,178.53802313351633,8.7807,0.1,216.19308,1638984221999
Fix,GT,34.1755993,-118.4662596,178.45201801568268,10.073344,0.1,197.89029,1638984222999
Fix,GT,34.1755024,-118.4662789,178.35302576887608,11.446539,0.1,185.62447,1638984223999
Fix,GT,34.1753949,-118.4662874,178.28101806116103,12.328279,0.1,181.73279,1638984224999
Fix,GT,34.1752806,-118.4662874,178.25101808410884,13.084735,0.1,179.08118,1638984225999
Fix,GT,34.1751579,-118.4662903,178.20503621411325,14.139648,0.1,181.9628,1638984226999
Fix,GT,34.1750272,-118.4662977,178.14403107929232,14.878825,0.1,182.04584,1638984227999
Fix,GT,34.1748906,-118.4663019,178.09399222034216,15.296077,0.1,180.46402,1638984228999
Fix,GT,34.1747534,-118.4663029,178.02501038599013,15.148428,0.1,180.14574,1638984229999
Fix,GT,34.1746179,-118.4663044,177.9120571924448,14.914597,0.1,180.11908,1638984230999
Fix,GT,34.174481,-118.4663045,177.82504685282706,15.615717,0.1,179.55139,1638984231999
Fix,GT,34.1743361,-118.466303,177.70202866768835,16.443554,0.1,179.2799,1638984232999
Fix,GT,34.1741856,-118.4663018,177.58902609431743,16.851162,0.1,179.54883,1638984233999
Fix,GT,34.1740342,-118.4663017,177.46005486691,16.737062,0.1,179.91187,1638984234999
Fix,GT,34.1738846,-118.4663025,177.32802354335786,16.410366,0.1,180.0597,1638984235999
Fix,GT,34.1737393,-118.4663034,177.20002881127596,15.771375,0.1,180.04329,1638984236999
Fix,GT,34.1736008,-118.4663042,177.08099475502968,14.949533,0.1,180.08638,1638984237999
Fix,GT,34.1734711,-118.4663043,176.97503150916097,13.774379,0.1,179.67346,1638984238999
Fix,GT,34.1733528,-118.466305,176.88402891880273,12.462099,0.1,180.35019,1638984239999
Fix,GT,34.1732465,-118.4663076,176.77304737854004,11.164354,0.1,181.36519,1638984240999
Fix,GT,34.1731514,-118.4663125,176.67602635419365,9.897606,0.1,182.46114,1638984241999
Fix,GT,34.1730691,-118.4663175,176.579021109581,8.3683815,0.1,182.98833,1638984242999
Fix,GT,34.1730014,-118.466323,176.50002906107903,6.6090117,0.1,183.77936,1638984243999
Fix,GT,34.1729518,-118.4663277,176.43001322567463,4.3757887,0.1,184.04868,1638984244999
Fix,GT,34.1729225,-118.4663299,176.3890158904791,2.323156,0.1,183.24582,1638984245999
Fix,GT,34.1729065,-118.4663307,176.36500530314447,1.3055058,0.1,182.59166,1638984246999
Fix,GT,34.1728989,-118.4663312,176.3510026548505,0.33393806,0.1,182.5354,1638984247999
Fix,GT,34.1728985,-118.4663312,176.34100265806913,0.005820769,0.1,182.54834,1638984248999
Fix,GT,34.1728984,-118.4663312,176.33700266128778,0.0028293156,0.1,182.5458,1638984249999
Fix,GT,34.1728984,-118.4663312,176.337,0.0029979644,0.1,182.54196,1638984250999
Fix,GT,34.1728984,-118.4663312,176.337,0.001,0.1,182.54112,1638984251999
Fix,GT,34.1728984,-118.4663312,176.337,0.001,0.1,182.54146,1638984252999
Fix,GT,34.1728984,-118.4663312,176.337,0.001,0.1,182.54205,1638984253999
Fix,GT,34.1728984,-118.4663312,176.337,0.001,0.1,182.54204,1638984254999
Fix,GT,34.1728984,-118.4663312,176.337,0.0019973195,0.1,182.5424,1638984255999
Fix,GT,34.1728984,-118.4663312,176.337,0.0014142136,0.1,182.5428,1638984256999
Fix,GT,34.1728984,-118.4663312,176.337,0.001,0.1,182.54283,1638984257999
Fix,GT,34.1728984,-118.4663312,176.337,0.0028305177,0.1,182.54298,1638984258999
Fix,GT,34.1728984,-118.4663312,176.337,0.0031613784,0.1,182.54317,1638984259999
Fix,GT,34.1728984,-118.4663312,176.337,0.0042432593,0.1,182.5438,1638984260999
Fix,GT,34.1728984,-118.4663312,176.334,0.004121708,0.1,182.54413,1638984261999
Fix,GT,34.1728985,-118.4663312,176.32800270336867,0.00565011,0.1,182.54488,1638984262999
Fix,GT,34.1728985,-118.4663312,176.328,0.0030004394,0.1,182.54527,1638984263999
Fix,GT,34.1728985,-118.4663312,176.31700541973115,0.00299793,0.1,182.5456,1638984264999
Fix,GT,34.1728984,-118.4663312,176.30100271314382,0.001,0.1,182.54623,1638984265999
Fix,GT,34.1728976,-118.4663313,176.28900271630286,0.36842048,0.1,182.43419,1638984266999
Fix,GT,34.1728883,-118.4663314,176.27000271952153,1.7324741,0.1,181.64256,1638984267999
Fix,GT,34.1728664,-118.4663316,176.24600816839933,3.0821142,0.1,180.64468,1638984268999
Fix,GT,34.1728333,-118.4663323,176.20301090407372,4.1497555,0.1,180.732,1638984269999
Fix,GT,34.1727963,-118.4663324,176.17900272929668,3.6453693,0.1,180.04497,1638984270999
Fix,GT,34.1727677,-118.4663324,176.1440109298229,2.8451614,0.1,179.75287,1638984271999
Fix,GT,34.1727442,-118.4663323,176.114,2.3711514,0.1,179.58978,1638984272999
Fix,GT,34.1727248,-118.4663322,176.103,1.8872213,0.1,179.35345,1638984273999
Fix,GT,34.1727102,-118.4663321,176.0860054843426,1.4790587,0.1,179.36963,1638984274999
Fix,GT,34.172697,-118.4663321,176.07200549089907,1.4349946,0.1,179.21179,1638984275999
Fix,GT,34.1726822,-118.466332,176.0560054973364,1.9139469,0.1,178.9898,1638984276999
Fix,GT,34.1726613,-118.4663317,176.041,2.7428813,0.1,179.14587,1638984277999
Fix,GT,34.1726317,-118.4663314,176.02200826531646,3.8709135,0.1,179.04816,1638984278999
Fix,GT,34.1725916,-118.4663307,175.99000827497244,5.0221195,0.1,179.12256,1638984279999
Fix,GT,34.1725414,-118.46633,175.9440110464096,6.1201277,0.1,179.33319,1638984280999
Fix,GT,34.1724816,-118.4663292,175.91301382410526,7.029542,0.1,179.32495,1638984281999
Fix,GT,34.1724179,-118.4663282,175.8920166078806,7.0494623,0.1,179.4508,1638984282999
Fix,GT,34.1723583,-118.4663291,175.86001108503342,6.1784563,0.1,182.16435,1638984283999
Fix,GT,34.1723094,-118.4663403,175.837,5.3458247,0.1,194.34978,1638984284999
Fix,GT,34.1722731,-118.4663705,175.79798888897898,5.1061387,0.1,218.81622,1638984285999
Fix,GT,34.1722535,-118.4664178,175.76400278097393,5.314582,0.1,245.70712,1638984286999
Fix,GT,34.1722487,-118.4664779,175.76797772693632,6.322609,0.1,265.32346,1638984287999
Fix,GT,34.1722522,-118.4665536,176.152829967916,7.752718,0.1,272.72818,1638984288999
Fix,GT,34.1722557,-118.4666429,176.87174884331228,8.616917,0.1,271.60678,1638984289999
Fix,GT,34.1722575,-118.4667385,177.75474296593666,8.706326,0.1,270.3371,1638984290999
Fix,GT,34.1722578,-118.466828,178.58678182411194,7.7203746,0.1,269.99774,1638984291999
Fix,GT,34.1722586,-118.4669063,179.2928235782385,6.6837373,0.1,270.37344,1638984292999
Fix,GT,34.1722594,-118.4669723,179.8818486043215,5.5070767,0.1,270.64172,1638984293999
Fix,GT,34.1722602,-118.4670266,180.3798765015602,4.498925,0.1,270.99332,1638984294999
Fix,GT,34.1722614,-118.4670694,180.7849044599533,3.2890072,0.1,272.36023,1638984295999
Fix,GT,34.1722634,-118.4670959,181.03294936096668,1.7948271,0.1,275.074,1638984296999
Fix,GT,34.1722657,-118.467112,181.18796056902409,1.5413711,0.1,278.6444,1638984297999
Fix,GT,34.1722716,-118.4671341,181.4229210495949,3.0042965,0.1,286.01843,1638984298999
Fix,GT,34.1722873,-118.4671659,181.8088842596412,4.0769334,0.1,300.5711,1638984299999
Fix,GT,34.1723189,-118.467195,182.22286434459687,5.465976,0.1,324.52368,1638984300999
Fix,GT,34.1723735,-118.4672126,182.48594058316945,7.675697,0.1,345.79962,1638984301999
Fix,GT,34.1724523,-118.4672251,182.62795184493064,10.138005,0.1,353.87186,1638984302999
Fix,GT,34.1725536,-118.4672347,182.63502835869787,12.336811,0.1,355.0293,1638984303999
Fix,GT,34.1726726,-118.4672489,182.4760652976632,14.288379,0.1,353.3173,1638984304999
Fix,GT,34.1728105,-118.4672701,182.23907958459856,16.506426,0.1,351.86957,1638984305999
Fix,GT,34.1729671,-118.4672981,181.9340825202465,18.540787,0.1,350.94125,1638984306999
Fix,GT,34.1731403,-118.4673284,181.6660911617279,20.19111,0.1,351.84894,1638984307999
Fix,GT,34.1733279,-118.4673569,181.30912263697385,21.704556,0.1,352.95416,1638984308999
Fix,GT,34.1735294,-118.4673825,180.83416274535656,23.157526,0.1,353.96823,1638984309999
Fix,GT,34.1737423,-118.4674077,180.5360800368786,24.174337,0.1,353.8378,1638984310999
Fix,GT,34.1739624,-118.4674344,180.60093418139212,24.824211,0.1,353.9256,1638984311999
Fix,GT,34.1741877,-118.4674621,180.8979083213806,25.490355,0.1,353.67322,1638984312999
Fix,GT,34.1744202,-118.4674904,181.18697992277143,26.397758,0.1,354.088,1638984313999
Fix,GT,34.1746615,-118.4675205,181.23697128665447,27.40707,0.1,353.7416,1638984314999
Fix,GT,34.1749099,-118.4675541,181.2809913761616,27.914093,0.1,352.73367,1638984315999
Fix,GT,34.1751599,-118.4675971,181.28300575566288,28.089035,0.1,350.86484,1638984316999
Fix,GT,34.1754116,-118.4676485,181.26101152420043,28.52958,0.1,349.60672,1638984317999
Fix,GT,34.1756672,-118.4677067,181.26801730597012,29.180931,0.1,348.64633,1638984318999
Fix,GT,34.1759293,-118.4677716,181.29097689962387,30.178175,0.1,347.69635,1638984319999
Fix,GT,34.1761947,-118.4678441,181.34395085799696,30.079134,0.1,346.3178,1638984320999
Fix,GT,34.1764557,-118.467926,181.45097974252693,29.755781,0.1,344.05444,1638984321999
Fix,GT,34.1767112,-118.4680186,181.46601738321783,29.463755,0.1,342.26315,1638984322999
Fix,GT,34.1769636,-118.4681184,181.5949303898812,29.407064,0.1,341.0444,1638984323999
Fix,GT,34.1772122,-118.4682238,181.73194483196733,29.09483,0.1,339.90155,1638984324999
Fix,GT,34.177456,-118.4683348,181.8929505833984,28.718134,0.1,338.0611,1638984325999
Fix,GT,34.1776934,-118.4684542,182.0539505286813,28.343287,0.1,336.30725,1638984326999
Fix,GT,34.1779252,-118.4685789,182.1729766936302,27.982716,0.1,335.1577,1638984327999
Fix,GT,34.1781518,-118.468708,182.34892417216292,27.61103,0.1,333.6873,1638984328999
Fix,GT,34.1783726,-118.4688431,182.47194744586943,27.418962,0.1,332.09937,1638984329999
Fix,GT,34.1785908,-118.4689859,182.61096492528915,27.61519,0.1,330.44742,1638984330999
Fix,GT,34.1788053,-118.4691364,182.63600585234167,27.412107,0.1,328.92392,1638984331999
Fix,GT,34.1790156,-118.4692898,182.6280205057263,27.139082,0.1,328.3643,1638984332999
Fix,GT,34.1792236,-118.4694418,182.58099120235445,26.857092,0.1,328.604,1638984333999
Fix,GT,34.1794314,-118.4695918,182.49298532116413,26.976122,0.1,328.8154,1638984334999
Fix,GT,34.1796415,-118.4697437,182.5919735491276,27.296803,0.1,328.66733,1638984335999
Fix,GT,34.1798516,-118.4698969,182.7429646942616,27.29463,0.1,328.30618,1638984336999
Fix,GT,34.1800635,-118.4700533,182.86696465563773,27.906796,0.1,328.1529,1638984337999
Fix,GT,34.1802804,-118.4702138,183.0199764113426,28.592451,0.1,328.1695,1638984338999
Fix,GT,34.1805001,-118.4703763,183.2029380134344,28.49333,0.1,328.18466,1638984339999
Fix,GT,34.1807173,-118.4705374,183.41990839624404,28.118547,0.1,328.21146,1638984340999
Fix,GT,34.1809338,-118.4706974,183.76788758921623,28.378384,0.1,328.05182,1638984341999
Fix,GT,34.1811531,-118.4708614,184.1378637729883,29.021858,0.1,327.73465,1638984342999
Fix,GT,34.181377,-118.4710298,184.68080137074,29.419542,0.1,327.74927,1638984343999
Fix,GT,34.1816009,-118.4712019,185.2958130264282,29.55327,0.1,326.44666,1638984344999
Fix,GT,34.1818242,-118.4713799,186.10071774995328,29.832485,0.1,326.46912,1638984345999
Fix,GT,34.1820515,-118.471557,186.83277990829944,30.176132,0.1,327.2167,1638984346999
Fix,GT,34.1822814,-118.4717314,187.5587826475501,30.12318,0.1,327.89185,1638984347999
Fix,GT,34.1825122,-118.4719016,188.2738062577844,29.88078,0.1,328.32312,1638984348999
Fix,GT,34.1827399,-118.4720702,188.9448120163083,29.403227,0.1,328.0836,1638984349999
Fix,GT,34.1829643,-118.4722369,189.5928177913427,29.206455,0.1,328.05234,1638984350999
Fix,GT,34.1831893,-118.4724036,190.18883254623407,29.452654,0.1,328.23615,1638984351999
Fix,GT,34.1834161,-118.4725706,190.7048443398476,29.496109,0.1,328.2905,1638984352999
Fix,GT,34.1836417,-118.4727361,191.13386515194176,29.104958,0.1,328.522,1638984353999
Fix,GT,34.1838649,-118.4728969,191.7417870154381,28.631994,0.1,329.2666,1638984354999
Fix,GT,34.1840868,-118.4730496,192.3548378411532,28.147211,0.1,330.97937,1638984355999
Fix,GT,34.18431,-118.4731894,192.93984969198704,27.71845,0.1,333.37885,1638984356999
Fix,GT,34.1845336,-118.4733174,193.36983448415995,27.260103,0.1,335.25192,1638984357999
Fix,GT,34.184757,-118.4734341,193.8588553981781,26.799534,0.1,337.426,1638984358999
Fix,GT,34.18498,-118.4735392,194.2678854035139,26.38463,0.1,339.38623,1638984359999
Fix,GT,34.1852026,-118.4736339,194.55891547203063,26.09979,0.1,341.21542,1638984360999
Fix,GT,34.1854283,-118.4737195,194.6419576909542,26.481945,0.1,343.37408,1638984361999
Fix,GT,34.1856583,-118.4737941,194.59901512646675,26.358414,0.1,345.75464,1638984362999
Fix,GT,34.1858887,-118.4738587,194.4010484552384,26.17973,0.1,347.49347,1638984363999
Fix,GT,34.1861193,-118.4739133,194.212,25.999006,0.1,349.84158,1638984364999
Fix,GT,34.186349,-118.473957,193.94911835604907,25.419159,0.1,351.41467,1638984365999
Fix,GT,34.1865717,-118.4739925,193.6011427854896,24.569246,0.1,353.04535,1638984366999
Fix,GT,34.1867908,-118.4740179,193.1361003598571,24.334145,0.1,355.23203,1638984367999
Fix,GT,34.1870098,-118.4740358,192.4232770319581,24.451672,0.1,356.47043,1638984368999
Fix,GT,34.1872303,-118.4740469,191.8301462812424,24.50679,0.1,358.16882,1638984369999
Fix,GT,34.1874513,-118.4740516,191.26717084169388,24.584206,0.1,359.00494,1638984370999
Fix,GT,34.1876735,-118.4740554,190.76216491079333,24.664528,0.1,358.89108,1638984371999
Fix,GT,34.1878964,-118.4740598,190.3111283966303,24.872217,0.1,358.7832,1638984372999
Fix,GT,34.188122,-118.4740644,189.8491530110836,25.08513,0.1,358.8829,1638984373999
Fix,GT,34.1883479,-118.4740681,189.32314091551305,25.026104,0.1,359.00262,1638984374999
Fix,GT,34.188574,-118.4740718,188.9600889296532,25.190954,0.1,359.03543,1638984375999
Fix,GT,34.1888022,-118.4740745,188.72204604637625,25.485716,0.1,359.2582,1638984376999
Fix,GT,34.1890334,-118.474077,188.60102458381647,25.767498,0.1,359.05432,1638984377999
Fix,GT,34.1892663,-118.4740807,188.5709661625028,25.772484,0.1,358.92798,1638984378999
Fix,GT,34.1894974,-118.4740839,188.7149445726872,25.540583,0.1,359.0426,1638984379999
Fix,GT,34.1897275,-118.474087,188.94991369128223,25.5256,0.1,359.0393,1638984380999
Fix,GT,34.1899579,-118.47409,189.29487657547,25.594858,0.1,359.0107,1638984381999
Fix,GT,34.1901892,-118.4740934,189.71485482770208,25.754038,0.1,358.92532,1638984382999
Fix,GT,34.1904215,-118.474097,190.1278855963349,25.765642,0.1,358.8816,1638984383999
Fix,GT,34.1906538,-118.4741008,190.54387619638445,25.78859,0.1,358.882,1638984384999
Fix,GT,34.1908866,-118.4741047,190.94787916594743,25.880278,0.1,358.92007,1638984385999
Fix,GT,34.1911199,-118.4741078,191.40583872056007,25.876339,0.1,359.1712,1638984386999
Fix,GT,34.191353,-118.4741104,191.8028975473046,25.806248,0.1,359.1148,1638984387999
Fix,GT,34.1915848,-118.4741136,192.2048725783229,25.693134,0.1,358.9833,1638984388999
Fix,GT,34.1918167,-118.4741181,192.6598537799716,25.77117,0.1,358.65527,1638984389999
Fix,GT,34.1920479,-118.4741231,193.0838692051172,25.496998,0.1,358.9605,1638984390999
Fix,GT,34.1922761,-118.4741263,193.4678846568465,25.11074,0.1,359.07748,1638984391999
Fix,GT,34.1925005,-118.4741296,193.86790014457705,24.693138,0.1,359.05658,1638984392999
Fix,GT,34.1927219,-118.474133,194.26987192827465,24.557968,0.1,359.04175,1638984393999
Fix,GT,34.1929453,-118.4741372,194.6698843061924,25.033604,0.1,358.82358,1638984394999
Fix,GT,34.1931736,-118.474142,195.02886853921413,25.452291,0.1,358.9395,1638984395999
Fix,GT,34.1934018,-118.4741454,195.44487153971195,25.27438,0.1,359.20883,1638984396999
Fix,GT,34.1936284,-118.4741478,195.92384945583345,24.962652,0.1,359.41537,1638984397999
Fix,GT,34.1938516,-118.4741499,196.34289011764525,24.572857,0.1,359.32538,1638984398999
Fix,GT,34.1940715,-118.4741528,196.59687429142,24.22668,0.1,358.98535,1638984399999
Fix,GT,34.1942892,-118.4741559,196.7479339379072,24.177015,0.1,359.34253,1638984400999
Fix,GT,34.1945081,-118.474158,196.87696221160888,24.374365,0.1,359.4701,1638984401999
Fix,GT,34.1947287,-118.4741606,197.00196532654763,24.57285,0.1,359.03946,1638984402999
Fix,GT,34.1949518,-118.4741665,197.1499526697397,24.92659,0.1,358.47882,1638984403999
Fix,GT,34.1951776,-118.4741723,197.27095893859865,25.054565,0.1,358.9903,1638984404999
Fix,GT,34.195403,-118.4741763,197.4139462516308,25.075142,0.1,359.06985,1638984405999
Fix,GT,34.1956301,-118.47418,197.465,25.312479,0.1,359.25958,1638984406999
Fix,GT,34.195859,-118.4741824,197.4949714870453,25.437721,0.1,359.39877,1638984407999
Fix,GT,34.1960884,-118.4741848,197.55297463035583,25.467697,0.1,359.47556,1638984408999
Fix,GT,34.1963175,-118.4741836,197.68395873248576,25.399792,0.1,0.8296509,1638984409999
Fix,GT,34.196548,-118.4741758,197.8059491586685,25.898376,0.1,2.1362305,1638984410999
Fix,GT,34.1967832,-118.4741606,197.9599586503506,26.18333,0.1,3.7127686,1638984411999
Fix,GT,34.1970174,-118.4741391,198.1079522414804,25.99969,0.1,4.68161,1638984412999
Fix,GT,34.1972517,-118.4741129,198.2799139493704,26.227203,0.1,5.8761597,1638984413999
Fix,GT,34.1974852,-118.4740783,198.46694576627016,25.913786,0.1,7.491699,1638984414999
Fix,GT,34.1977141,-118.4740381,198.5909968066216,25.490437,0.1,8.610291,1638984415999
Fix,GT,34.1979401,-118.4739944,198.7559168900252,25.301294,0.1,9.254364,1638984416999
Fix,GT,34.1981633,-118.4739481,199.0489296066761,24.951424,0.1,9.722015,1638984417999
Fix,GT,34.1983833,-118.4739016,199.29394234859944,24.649773,0.1,9.739807,1638984418999
Fix,GT,34.1986033,-118.4738558,199.4909487028122,24.954762,0.1,9.497467,1638984419999
Fix,GT,34.1988265,-118.47381,199.66593902570008,25.126303,0.1,9.592285,1638984420999
Fix,GT,34.1990489,-118.473763,199.8219614520073,25.037409,0.1,9.877563,1638984421999
Fix,GT,34.1992702,-118.4737159,199.94195819860693,24.790565,0.1,9.77359,1638984422999
Fix,GT,34.1994896,-118.4736695,200.0639420632124,24.697485,0.1,9.72171,1638984423999
Fix,GT,34.1997098,-118.4736236,200.2449226751328,24.883146,0.1,9.645355,1638984424999
Fix,GT,34.1999315,-118.4735767,200.49991937428712,25.032541,0.1,9.878387,1638984425999
Fix,GT,34.2001543,-118.4735298,200.7219225234985,25.15306,0.1,9.718018,1638984426999
Fix,GT,34.2003772,-118.4734833,200.97492891037464,24.951097,0.1,9.665985,1638984427999
Fix,GT,34.200597,-118.4734393,201.17694824695587,24.502674,0.1,8.848816,1638984428999
Fix,GT,34.2008141,-118.473401,201.3869158207178,24.142418,0.1,7.683655,1638984429999
Fix,GT,34.2010304,-118.4733679,201.6050129635334,24.294655,0.1,6.6027527,1638984430999
Fix,GT,34.2012501,-118.4733379,201.77,24.818537,0.1,6.057434,1638984431999
Fix,GT,34.2014759,-118.4733109,201.91995129197835,25.456837,0.1,5.049011,1638984432999
Fix,GT,34.2017051,-118.4732887,201.97394799518585,25.632984,0.1,3.9909668,1638984433999
Fix,GT,34.2019363,-118.4732711,202.09994794368745,25.704678,0.1,3.067749,1638984434999
Fix,GT,34.2021668,-118.4732571,202.2149478940964,25.485786,0.1,2.504181,1638984435999
Fix,GT,34.2023955,-118.473247,202.3459576221109,25.256725,0.1,1.4186401,1638984436999
Fix,GT,34.2026221,-118.4732421,202.43497715860607,25.05581,0.1,0.49160767,1638984437999
Fix,GT,34.2028491,-118.4732392,202.53695753997565,25.452238,0.1,0.8078003,1638984438999
Fix,GT,34.2030852,-118.4732305,202.62797711521387,27.06613,0.1,2.0307312,1638984439999
Fix,GT,34.2033361,-118.4732177,202.84393127804995,28.649393,0.1,2.2567139,1638984440999
Fix,GT,34.2036012,-118.4732055,203.02794103753567,30.160141,0.1,1.6515808,1638984441999
Fix,GT,34.2038774,-118.4731966,203.14493770295385,31.070213,0.1,1.1044006,1638984442999
Fix,GT,34.2041616,-118.4731905,203.36592451375725,32.023952,0.1,0.5995178,1638984443999
Fix,GT,34.2044534,-118.4731867,203.54691130203008,32.486603,0.1,0.44766235,1638984444999
Fix,GT,34.2047453,-118.4731828,203.7769276567697,32.199837,0.1,0.5749512,1638984445999
Fix,GT,34.2050349,-118.4731789,203.95898025071625,32.03755,0.1,0.3960266,1638984446999
Fix,GT,34.2053227,-118.4731765,204.14693081241845,31.802412,0.1,359.97122,1638984447999
Fix,GT,34.2056078,-118.4731789,204.4079208512306,31.4059,0.1,358.90527,1638984448999
Fix,GT,34.2058903,-118.4731846,204.63592407780885,31.414373,0.1,359.0817,1638984449999
Fix,GT,34.2061752,-118.4731875,204.8469206995964,31.913496,0.1,359.42447,1638984450999
Fix,GT,34.2064662,-118.4731918,205.03794708347323,32.745396,0.1,358.71906,1638984451999
Fix,GT,34.206766,-118.4731993,205.26392385846376,33.78705,0.1,358.74078,1638984452999
Fix,GT,34.2070738,-118.4732055,205.4889569231868,34.352886,0.1,359.19022,1638984453999
Fix,GT,34.207384,-118.4732075,205.728930346787,34.501957,0.1,359.7877,1638984454999
Fix,GT,34.2076958,-118.473207,205.96888048076627,34.678013,0.1,0.008300781,1638984455999
Fix,GT,34.208009,-118.473206,206.2339003058672,34.690296,0.1,0.094055176,1638984456999
Fix,GT,34.20832,-118.4732034,206.65991684257983,34.394276,0.1,0.5123596,1638984457999
Fix,GT,34.2086313,-118.4731992,206.9058934574127,34.730175,0.1,0.49346924,1638984458999
Fix,GT,34.2089456,-118.4731952,206.9029766716957,34.96202,0.1,0.5199585,1638984459999
Fix,GT,34.2092599,-118.4731903,207.10893662029503,34.80889,0.1,0.5741577,1638984460999
Fix,GT,34.2095751,-118.4731868,207.2838964930773,35.149033,0.1,0.1630249,1638984461999
Fix,GT,34.2098937,-118.4731846,207.6168897109628,35.58347,0.1,0.22799683,1638984462999
Fix,GT,34.2102168,-118.4731816,207.759959856987,36.051384,0.1,0.40078735,1638984463999
Fix,GT,34.2105419,-118.4731774,208.131899545908,36.036465,0.1,0.5458374,1638984464999
Fix,GT,34.2108663,-118.4731732,208.4139095060229,35.953197,0.1,0.3183899,1638984465999
Fix,GT,34.2111899,-118.4731701,208.6429362590313,35.769142,0.1,0.31674194,1638984466999
Fix,GT,34.2115106,-118.4731666,208.81293955695628,35.39793,0.1,0.48162842,1638984467999
Fix,GT,34.2118295,-118.4731634,209.12187563908105,35.414608,0.1,0.15945435,1638984468999
Fix,GT,34.2121475,-118.4731617,209.4528284224868,35.07157,0.1,0.14535522,1638984469999
Fix,GT,34.2124621,-118.4731593,209.8598552007676,34.828667,0.1,0.18218994,1638984470999
Fix,GT,34.2127753,-118.4731575,210.3588348414302,34.573425,0.1,0.14163208,1638984471999
Fix,GT,34.2130852,-118.473155,210.86580094921592,34.141308,0.1,0.31802368,1638984472999
Fix,GT,34.2133911,-118.4731516,211.48679062843323,33.780235,0.1,0.31066895,1638984473999
Fix,GT,34.2136954,-118.4731487,212.1428140966892,33.79097,0.1,0.21139526,1638984474999
Fix,GT,34.2140012,-118.4731478,212.71981053638456,34.10983,0.1,359.77005,1638984475999
Fix,GT,34.2143091,-118.4731484,213.3448069764376,34.108047,0.1,359.8897,1638984476999
Fix,GT,34.214615,-118.4731476,213.9308000137806,33.735435,0.1,0.15106201,1638984477999
Fix,GT,34.2149172,-118.4731465,214.50781340169908,33.313152,0.1,359.9739,1638984478999
Fix,GT,34.2152164,-118.4731462,215.0538505797386,33.001163,0.1,359.9439,1638984479999
Fix,GT,34.2155117,-118.473146,215.45689802956585,32.53017,0.1,359.96585,1638984480999
Fix,GT,34.2158033,-118.4731444,215.8498707151413,32.246784,0.1,0.27236938,1638984481999
Fix,GT,34.2160949,-118.4731434,216.14691486370563,32.498898,0.1,359.9072,1638984482999
Fix,GT,34.21639,-118.4731428,216.51697273159024,33.05601,0.1,0.15286255,1638984483999
Fix,GT,34.2166892,-118.4731402,216.61899317646024,33.217426,0.1,0.65582275,1638984484999
Fix,GT,34.2169885,-118.4731354,216.6890102446079,33.20606,0.1,0.5699463,1638984485999
Fix,GT,34.2172879,-118.4731315,216.69593847441672,33.17578,0.1,0.44595337,1638984486999
Fix,GT,34.2175857,-118.4731282,216.693017105937,32.87716,0.1,0.3433838,1638984487999
Fix,GT,34.2178804,-118.4731265,216.7789589071274,32.512245,0.1,0.02041626,1638984488999
Fix,GT,34.2181715,-118.4731263,216.91196915245052,31.913486,0.1,0.14865112,1638984489999
Fix,GT,34.218454,-118.4731243,217.0329416776896,30.75956,0.1,0.46542358,1638984490999
Fix,GT,34.2187266,-118.473121,217.16295192646984,29.814646,0.1,0.47329712,1638984491999
Fix,GT,34.2189931,-118.4731186,217.2499725036621,29.333755,0.1,0.33270264,1638984492999
Fix,GT,34.219256,-118.4731158,217.3309827992916,28.994507,0.1,0.5013428,1638984493999
Fix,GT,34.219516,-118.4731131,217.4129621230364,28.747717,0.1,0.31903076,1638984494999
Fix,GT,34.2197761,-118.4731112,217.53795864105223,29.020395,0.1,0.3057251,1638984495999
Fix,GT,34.2200393,-118.4731085,217.6289724025726,29.355165,0.1,0.4779358,1638984496999
Fix,GT,34.2203048,-118.4731058,217.75592058336736,29.51125,0.1,0.38098145,1638984497999
Fix,GT,34.2205711,-118.473103,217.9539308800697,29.512007,0.1,0.44140625,1638984498999
Fix,GT,34.2208358,-118.4730994,218.18886854982367,29.272804,0.1,0.64004517,1638984499999
Fix,GT,34.2210993,-118.4730959,218.48390305519104,29.184639,0.1,0.48025513,1638984500999
Fix,GT,34.2213621,-118.4730927,218.5470658451319,29.11036,0.1,0.52285767,1638984501999
Fix,GT,34.2216231,-118.4730895,218.709069372654,28.70836,0.1,0.48104858,1638984502999
Fix,GT,34.2218807,-118.4730873,218.60506249332428,28.539284,0.1,0.18978882,1638984503999
Fix,GT,34.2221395,-118.4730866,218.55797915029524,28.938839,0.1,359.9264,1638984504999
Fix,GT,34.2224024,-118.4730854,218.6109304366112,29.24819,0.1,0.42700195,1638984505999
Fix,GT,34.2226656,-118.4730824,218.774912968278,29.123392,0.1,0.45724487,1638984506999
Fix,GT,34.2229278,-118.4730801,218.97295470166208,29.158337,0.1,0.21957397,1638984507999
Fix,GT,34.2231914,-118.4730789,219.09496163654327,29.194637,0.1,0.3670349,1638984508999
Fix,GT,34.2234542,-118.4730758,219.1859581103325,29.245619,0.1,0.55651855,1638984509999
Fix,GT,34.2237187,-118.4730723,219.2889371097088,29.295572,0.1,0.5399475,1638984510999
Fix,GT,34.2239815,-118.4730692,219.46393705177303,28.98455,0.1,0.4914856,1638984511999
Fix,GT,34.2242412,-118.4730665,219.60892999315263,28.63311,0.1,0.43023682,1638984512999
Fix,GT,34.2244978,-118.473064,219.7409299311638,28.296158,0.1,0.44085693,1638984513999
Fix,GT,34.2247525,-118.4730616,219.9210105199814,28.308775,0.1,0.36636353,1638984514999
Fix,GT,34.2250091,-118.47306,219.86996490240097,28.645197,0.1,0.24713135,1638984515999
Fix,GT,34.2252687,-118.4730564,220.02794730532167,28.945799,0.1,0.73828125,1638984516999
Fix,GT,34.2255311,-118.4730531,220.18095429098608,29.301254,0.1,0.21713257,1638984517999
Fix,GT,34.2257973,-118.4730517,220.3519542491436,29.92814,0.1,0.2778015,1638984518999
Fix,GT,34.2260684,-118.4730491,220.47496477603912,30.143143,0.1,0.4758911,1638984519999
Fix,GT,34.2263413,-118.4730464,220.58294006454943,30.308847,0.1,0.36706543,1638984520999
Fix,GT,34.2266152,-118.4730446,220.7419294245243,30.379288,0.1,0.28396606,1638984521999
Fix,GT,34.2268891,-118.4730421,220.92688344621652,30.31467,0.1,0.56832886,1638984522999
Fix,GT,34.2271608,-118.473038,221.20194343948364,29.94456,0.1,0.96261597,1638984523999
Fix,GT,34.2274285,-118.4730297,221.4189221584797,29.42087,0.1,2.094452,1638984524999
Fix,GT,34.2276901,-118.473015,221.6239291706085,28.747025,0.1,3.0132446,1638984525999
Fix,GT,34.2279467,-118.473,221.9128582172394,28.250345,0.1,2.1002197,1638984526999
Fix,GT,34.2282001,-118.4729902,222.3209822616577,28.111925,0.1,1.2736206,1638984527999
Fix,GT,34.2284558,-118.4729838,222.550836659193,28.682257,0.1,1.4767151,1638984528999
Fix,GT,34.2287177,-118.4729719,222.69894313430785,29.603365,0.1,2.2897644,1638984529999
Fix,GT,34.2289895,-118.4729594,222.8739430847168,30.718414,0.1,1.668396,1638984530999
Fix,GT,34.2292713,-118.4729514,223.0849252310992,31.775911,0.1,0.9103699,1638984531999
Fix,GT,34.2295623,-118.4729458,223.4078966578245,32.798885,0.1,0.83465576,1638984532999
Fix,GT,34.2298603,-118.47294,223.762878730774,33.209118,0.1,0.8401184,1638984533999
Fix,GT,34.2301605,-118.4729351,224.0818893349171,33.410786,0.1,0.48641968,1638984534999
Fix,GT,34.2304629,-118.4729314,224.323899954319,33.625214,0.1,0.55825806,1638984535999
Fix,GT,34.2307671,-118.472927,224.6378748344183,33.900826,0.1,0.4477539,1638984536999
Fix,GT,34.2310741,-118.4729241,224.84097494435312,34.21317,0.1,0.40322876,1638984537999
Fix,GT,34.2313819,-118.4729205,225.11585311597588,33.976257,0.1,0.5079956,1638984538999
Fix,GT,34.231687,-118.4729175,225.4988601578474,33.853683,0.1,0.2869873,1638984539999
Fix,GT,34.2319942,-118.4729153,225.83185644578933,34.390392,0.1,0.2989502,1638984540999
Fix,GT,34.2323069,-118.4729123,226.0848706874848,34.951134,0.1,0.41204834,1638984541999
Fix,GT,34.2326236,-118.4729087,226.4189029303193,35.237743,0.1,0.4477539,1638984542999
Fix,GT,34.2329402,-118.4729049,226.68688845169544,34.93859,0.1,0.6214905,1638984543999
Fix,GT,34.2332548,-118.4729003,226.96592797017092,34.853523,0.1,0.53118896,1638984544999
Fix,GT,34.2335688,-118.4728961,227.24191709303847,34.736427,0.1,0.6246948,1638984545999
Fix,GT,34.23388,-118.4728908,227.5218953717947,34.319584,0.1,0.8357239,1638984546999
Fix,GT,34.2341873,-118.472887,227.8699025022388,33.909775,0.1,0.21466064,1638984547999
Fix,GT,34.2344934,-118.472886,228.1348915743828,34.078873,0.1,0.02218628,1638984548999
Fix,GT,34.234803,-118.4728855,228.43585168880227,34.54204,0.1,0.042266846,1638984549999
Fix,GT,34.2351129,-118.4728842,228.744869661808,34.160748,0.1,0.2581482,1638984550999
Fix,GT,34.2354185,-118.4728811,229.2338478060961,33.62613,0.1,0.4460144,1638984551999
Fix,GT,34.2357194,-118.4728781,229.5408803148269,33.136425,0.1,0.44024658,1638984552999
Fix,GT,34.2360163,-118.4728751,229.62299637001752,32.73514,0.1,0.40872192,1638984553999
Fix,GT,34.2363086,-118.4728725,229.8358982720375,32.15208,0.1,0.36587524,1638984554999
Fix,GT,34.2365972,-118.4728699,230.14789454728367,32.01186,0.1,0.36087036,1638984555999
Fix,GT,34.2368877,-118.4728677,230.4379017329812,32.33643,0.1,0.2243042,1638984556999
Fix,GT,34.2371779,-118.4728652,230.6959089345336,32.044518,0.1,0.46670532,1638984557999
Fix,GT,34.2374651,-118.4728617,230.96888333320612,31.671392,0.1,0.47558594,1638984558999
Fix,GT,34.237749,-118.472859,231.2658868829608,31.24385,0.1,0.2906189,1638984559999
Fix,GT,34.2380263,-118.4728569,231.52490139180424,30.198544,0.1,0.45309448,1638984560999
Fix,GT,34.2382916,-118.4728536,231.82190861862892,28.816399,0.1,0.63912964,1638984561999
Fix,GT,34.2385496,-118.4728504,232.1018939042688,28.501465,0.1,0.5446472,1638984562999
Fix,GT,34.2388034,-118.472847,232.41891211938852,27.436462,0.1,0.56427,1638984563999
Fix,GT,34.2390421,-118.4728438,232.5899743464589,25.739027,0.1,0.5480957,1638984564999
Fix,GT,34.2392696,-118.4728407,232.8708606156111,24.786793,0.1,0.5010681,1638984565999
Fix,GT,34.2394886,-118.4728389,233.12188986313345,23.73168,0.1,0.12567139,1638984566999
Fix,GT,34.2396974,-118.4728381,233.2469853026867,22.721416,0.1,0.15115356,1638984567999
Fix,GT,34.2399007,-118.4728372,233.40992645144465,22.405272,0.1,0.16720581,1638984568999
Fix,GT,34.2400996,-118.4728358,233.6289263870716,21.526863,0.1,0.292511,1638984569999
Fix,GT,34.2402873,-118.4728345,233.83493000656367,20.137896,0.1,0.26119995,1638984570999
Fix,GT,34.2404639,-118.4728331,234.0489373216033,19.130882,0.1,0.35925293,1638984571999
Fix,GT,34.2406341,-118.4728315,234.1939557192325,18.639776,0.1,0.39682007,1638984572999
Fix,GT,34.2408012,-118.47283,234.4079482940436,18.546463,0.1,0.36669922,1638984573999
Fix,GT,34.2409702,-118.4728285,234.5899260699749,18.9615,0.1,0.37780762,1638984574999
Fix,GT,34.2411438,-118.4728267,234.75296300399305,19.636494,0.1,0.47583008,1638984575999
Fix,GT,34.2413246,-118.4728246,234.9309333492517,20.251848,0.1,0.47979736,1638984576999
Fix,GT,34.2415084,-118.4728225,235.0339666467309,20.579697,0.1,0.45925903,1638984577999
Fix,GT,34.2416933,-118.4728204,235.2698998532892,20.375244,0.1,0.580719,1638984578999
Fix,GT,34.2418755,-118.4728181,235.4849257552624,20.081915,0.1,0.48599243,1638984579999
Fix,GT,34.2420575,-118.4728163,235.66792940634488,20.41514,0.1,0.34487915,1638984580999
Fix,GT,34.2422452,-118.4728148,235.8259144732356,21.19629,0.1,0.3554077,1638984581999
Fix,GT,34.2424364,-118.4728125,236.0639255645275,21.272282,0.1,0.61846924,1638984582999
Fix,GT,34.2426299,-118.4728095,236.30292550253867,21.665092,0.1,0.82525635,1638984583999
Fix,GT,34.242828,-118.4728064,236.50693662244083,22.288387,0.1,0.59436035,1638984584999
Fix,GT,34.2430294,-118.4728038,236.7459813437462,22.471731,0.1,0.4534607,1638984585999
Fix,GT,34.2432325,-118.4728023,236.82398132795092,22.566166,0.1,0.2272644,1638984586999
Fix,GT,34.2434374,-118.4728017,237.03089160877468,22.77906,0.1,359.9819,1638984587999
Fix,GT,34.243643,-118.4728008,237.203925185442,23.006237,0.1,0.35238647,1638984588999
Fix,GT,34.2438539,-118.4727993,237.34897379237407,23.863022,0.1,0.2808838,1638984589999
Fix,GT,34.2440699,-118.4727972,237.5199363002181,23.897102,0.1,0.5163574,1638984590999
Fix,GT,34.2442848,-118.4727943,237.67294749629497,23.893402,0.1,0.6044922,1638984591999
Fix,GT,34.2445022,-118.4727914,237.8269286860824,24.35237,0.1,0.58413696,1638984592999
Fix,GT,34.2447245,-118.4727886,237.95996619075532,25.02109,0.1,0.53726196,1638984593999
Fix,GT,34.2449535,-118.4727854,238.0119849612713,25.757698,0.1,0.6502991,1638984594999
Fix,GT,34.2451861,-118.4727813,238.0380188145041,25.864565,0.1,0.8878784,1638984595999
Fix,GT,34.2454198,-118.4727745,238.03400376605987,26.010645,0.1,1.8921204,1638984596999
Fix,GT,34.2456551,-118.4727606,238.12893969249728,26.182709,0.1,3.5597534,1638984597999
Fix,GT,34.2458905,-118.4727377,238.31691700899603,26.31085,0.1,5.4699097,1638984598999
Fix,GT,34.2461252,-118.4727053,238.4859358158708,26.108345,0.1,7.4618225,1638984599999
Fix,GT,34.2463565,-118.4726646,238.6908828604221,25.809412,0.1,8.816101,1638984600999
Fix,GT,34.2465861,-118.4726185,238.952856289506,25.95092,0.1,9.875305,1638984601999
Fix,GT,34.2468168,-118.4725679,239.2868485994339,25.948978,0.1,10.584747,1638984602999
Fix,GT,34.2470463,-118.472516,239.58889014297725,25.99156,0.1,10.495209,1638984603999
Fix,GT,34.2472776,-118.4724643,239.87289763402936,26.108753,0.1,10.613159,1638984604999
Fix,GT,34.2475093,-118.4724111,240.2428216589093,26.14962,0.1,10.777435,1638984605999
Fix,GT,34.24774,-118.472358,240.83075315272805,26.063583,0.1,10.750793,1638984606999
Fix,GT,34.2479724,-118.4723066,241.435771951437,26.364346,0.1,10.06015,1638984607999
Fix,GT,34.2482083,-118.472259,242.02179458248617,26.69162,0.1,8.910065,1638984608999
Fix,GT,34.2484474,-118.4722178,242.51481345075368,26.700644,0.1,7.394165,1638984609999
Fix,GT,34.2486866,-118.4721845,242.9638552068472,26.807623,0.1,5.810669,1638984610999
Fix,GT,34.2489269,-118.4721599,243.42781314116715,26.611446,0.1,4.0968323,1638984611999
Fix,GT,34.2491654,-118.4721429,243.79891221672293,26.345156,0.1,3.1020508,1638984612999
Fix,GT,34.2494012,-118.4721271,244.03291596388817,26.090372,0.1,2.961029,1638984613999
Fix,GT,34.2496378,-118.4721132,244.22593883228305,26.571888,0.1,2.6389465,1638984614999
Fix,GT,34.2498797,-118.4721,244.54181634807588,26.947409,0.1,2.177063,1638984615999
Fix,GT,34.2501212,-118.4720897,244.96184299868344,26.655159,0.1,1.9478455,1638984616999
Fix,GT,34.2503632,-118.4720789,245.2730804803968,27.267414,0.1,2.3679504,1638984617999
Fix,GT,34.2506134,-118.4720657,245.32501150685547,28.285604,0.1,2.4642944,1638984618999
Fix,GT,34.2508706,-118.4720528,245.4289692902565,28.799501,0.1,2.0775146,1638984619999
Fix,GT,34.2511305,-118.4720434,245.59493084514145,28.712418,0.1,1.3302002,1638984620999
Fix,GT,34.2513857,-118.4720378,245.7649384794235,27.847755,0.1,0.66815186,1638984621999
Fix,GT,34.2516337,-118.4720354,245.86897306221724,27.289461,0.1,0.1918335,1638984622999
Fix,GT,34.2518782,-118.4720342,245.9889614858628,27.015406,0.1,0.27166748,1638984623999
Fix,GT,34.252121,-118.4720321,246.1389421814084,26.811928,0.1,0.4321289,1638984624999
Fix,GT,34.2523614,-118.4720295,246.2519498494864,26.527313,0.1,0.5578613,1638984625999
Fix,GT,34.2525991,-118.4720262,246.36991506040096,26.210205,0.1,0.6635132,1638984626999
Fix,GT,34.2528338,-118.4720222,246.56793044817448,25.879862,0.1,0.80340576,1638984627999
Fix,GT,34.2530656,-118.4720185,246.72694199186563,25.552784,0.1,0.56051636,1638984628999
Fix,GT,34.2532941,-118.4720144,246.8639845182896,25.1778,0.1,1.4403381,1638984629999
Fix,GT,34.2535196,-118.4720041,246.92492252945905,24.86573,0.1,2.6414795,1638984630999
Fix,GT,34.2537417,-118.4719907,247.089961232543,24.516956,0.1,3.0801697,1638984631999
Fix,GT,34.253961,-118.4719763,247.1078991240263,24.199858,0.1,3.1653137,1638984632999
Fix,GT,34.2541777,-118.4719617,247.18396893548967,24.0488,0.1,3.112732,1638984633999
Fix,GT,34.2543958,-118.471947,247.32694170755147,24.44022,0.1,3.168335,1638984634999
Fix,GT,34.2546143,-118.4719318,247.4639572181105,23.871166,0.1,3.2833557,1638984635999
Fix,GT,34.2548236,-118.471918,247.59094939774275,22.63251,0.1,3.075714,1638984636999
Fix,GT,34.2550224,-118.4719048,247.68197662580013,21.576103,0.1,3.2369385,1638984637999
Fix,GT,34.255211,-118.4718898,247.7009844048023,20.34539,0.1,4.458679,1638984638999
Fix,GT,34.2553886,-118.4718668,247.67101560807228,19.510983,0.1,7.950348,1638984639999
Fix,GT,34.2555568,-118.4718255,247.52512105864287,18.66609,0.1,14.507507,1638984640999
Fix,GT,34.2557114,-118.4717575,247.30305471670627,18.099558,0.1,24.49054,1638984641999
Fix,GT,34.2558481,-118.4716593,247.1040704058409,17.522745,0.1,35.421783,1638984642999
Fix,GT,34.2559647,-118.471537,247.03499217069148,16.993496,0.1,44.66925,1638984643999
Fix,GT,34.256067,-118.4714057,246.93305484855173,16.151737,0.1,47.921204,1638984644999
Fix,GT,34.2561607,-118.4712828,246.79804705166816,14.634923,0.1,46.99286,1638984645999
Fix,GT,34.2562555,-118.471177,246.6290941777229,14.006044,0.1,39.548523,1638984646999
Fix,GT,34.2563628,-118.4710979,246.3800903276801,13.742625,0.1,26.133331,1638984647999
Fix,GT,34.2564822,-118.4710585,246.1171218420863,13.304174,0.1,7.8631897,1638984648999
Fix,GT,34.2565998,-118.4710679,245.73713374269008,12.606045,0.1,348.96823,1638984649999
Fix,GT,34.2567044,-118.4711126,245.30515353161096,11.766721,0.1,336.56842,1638984650999
Fix,GT,34.2567977,-118.4711656,244.90913789743183,11.027703,0.1,334.26923,1638984651999
Fix,GT,34.2568823,-118.4712141,244.5741064617038,9.757262,0.1,334.4551,1638984652999
Fix,GT,34.2569568,-118.4712569,244.3270749786496,8.440086,0.1,334.29507,1638984653999
Fix,GT,34.25702,-118.4712933,244.1420513414741,7.192043,0.1,334.28174,1638984654999
Fix,GT,34.257074,-118.4713244,244.02194071155785,6.0519238,0.1,334.40344,1638984655999
Fix,GT,34.2571171,-118.4713491,243.9780435122848,4.4897127,0.1,335.1414,1638984656999
Fix,GT,34.2571471,-118.4713655,243.9510197944045,2.9403095,0.1,335.821,1638984657999
Fix,GT,34.2571661,-118.4713756,243.9320158479213,1.635223,0.1,336.1963,1638984658999
Fix,GT,34.2571741,-118.4713799,243.913007930398,0.3741267,0.1,336.21884,1638984659999
Fix,GT,34.2571746,-118.4713803,243.911,0.011721869,0.1,336.21136,1638984660999
Fix,GT,34.2571745,-118.4713804,243.913,0.009847211,0.1,336.21207,1638984661999
Fix,GT,34.2571745,-118.4713804,243.915,0.00894268,0.1,336.2115,1638984662999
Fix,GT,34.2571745,-118.4713804,243.916,0.0067069903,0.1,336.2115,1638984663999
Fix,GT,34.2571745,-118.4713804,243.916,0.0044742376,0.1,336.21127,1638984664999
Fix,GT,34.2571745,-118.4713804,243.916,0.003605551,0.1,336.21094,1638984665999
Fix,GT,34.2571745,-118.4713804,243.916,0.0028291112,0.1,336.21063,1638984666999
Fix,GT,34.2571745,-118.4713804,243.916,0.0014142136,0.1,336.21017,1638984667999
Fix,GT,34.2571745,-118.4713804,243.916,0.001,0.1,336.20953,1638984668999
Fix,GT,34.2571745,-118.4713804,243.916,0.0022327832,0.1,336.20898,1638984669999
Fix,GT,34.2571745,-118.4713804,243.916,0.0028284271,0.1,336.20853,1638984670999
Fix,GT,34.2571745,-118.4713804,243.916,0.004470739,0.1,336.20813,1638984671999
Fix,GT,34.2571745,-118.4713804,243.916,0.0050026313,0.1,336.20764,1638984672999
Fix,GT,34.2571745,-118.4713804,243.916,0.0072090863,0.1,336.20682,1638984673999
Fix,GT,34.2571744,-118.4713804,243.916,0.008058841,0.1,336.2063,1638984674999
Fix,GT,34.2571744,-118.4713804,243.916,0.0078078434,0.1,336.20615,1638984675999
Fix,GT,34.2571744,-118.4713803,243.916,0.005830252,0.1,336.2059,1638984676999
Fix,GT,34.2571743,-118.4713803,243.916,0.0010049716,0.1,336.20554,1638984677999
Fix,GT,34.2571743,-118.4713802,243.916,0.004236948,0.1,336.2055,1638984678999
Fix,GT,34.2571743,-118.4713803,243.915,0.014142419,0.1,336.2055,1638984679999
Fix,GT,34.2571744,-118.4713803,243.914,0.035346784,0.1,336.20703,1638984680999
Fix,GT,34.2571778,-118.4713823,243.8830363122821,1.2693632,0.1,336.1285,1638984681999
Fix,GT,34.257201,-118.4713951,243.8260242275,4.244962,0.1,335.7,1638984682999
Fix,GT,34.2572429,-118.4714192,243.7360363691449,6.025517,0.1,334.2123,1638984683999
Fix,GT,34.2572953,-118.4714571,243.8999393373728,7.3021045,0.1,327.02686,1638984684999
Fix,GT,34.2573469,-118.4715174,243.95202023667096,8.316006,0.1,311.03146,1638984685999
Fix,GT,34.2573862,-118.4716053,243.9080202524662,9.840164,0.1,292.62457,1638984686999
Fix,GT,34.2574074,-118.4717197,243.77903242874143,11.493339,0.1,278.42242,1638984687999
Fix,GT,34.2574182,-118.4718545,243.72103245449065,13.361615,0.1,274.25555,1638984688999
Fix,GT,34.2574266,-118.4720071,243.71497158020736,14.600452,0.1,273.09915,1638984689999
Fix,GT,34.2574328,-118.4721684,243.76800812625885,14.900786,0.1,272.1255,1638984690999
Fix,GT,34.2574369,-118.4723291,243.778971536398,14.587707,0.1,271.40536,1638984691999
Fix,GT,34.2574391,-118.4724835,243.8369633749724,13.787684,0.1,270.84586,1638984692999
Fix,GT,34.25744,-118.4726268,243.83601629018787,12.414809,0.1,270.37427,1638984693999
Fix,GT,34.2574401,-118.4727533,243.876991848588,10.838701,0.1,270.2887,1638984694999
Fix,GT,34.2574405,-118.4728606,243.92197960567475,9.159479,0.1,270.87317,1638984695999
Fix,GT,34.2574454,-118.4729554,243.93397550785545,8.33182,0.1,276.62805,1638984696999
Fix,GT,34.2574659,-118.4730366,243.88600408518312,7.830213,0.1,293.10986,1638984697999
Fix,GT,34.2575086,-118.4731036,243.9230408834219,8.379017,0.1,312.20883,1638984698999
Fix,GT,34.2575698,-118.4731653,243.998946810484,9.554309,0.1,321.69202,1638984699999
Fix,GT,34.2576427,-118.4732334,244.11095905280112,10.869765,0.1,322.2311,1638984700999
Fix,GT,34.257724,-118.4733061,244.1899467283488,11.465862,0.1,324.9422,1638984701999
Fix,GT,34.2578127,-118.4733675,244.4088523647785,11.4106455,0.1,334.1149,1638984702999
Fix,GT,34.2579107,-118.4734025,244.85978248071672,11.702119,0.1,349.8485,1638984703999
Fix,GT,34.2580146,-118.4733978,245.46774534761903,11.841047,0.1,9.448883,1638984704999
Fix,GT,34.2581126,-118.4733506,246.0797451517582,12.200627,0.1,28.837921,1638984705999
Fix,GT,34.2581952,-118.4732632,246.67477786481385,12.611065,0.1,48.853363,1638984706999
Fix,GT,34.2582485,-118.473146,247.21277769422528,12.420442,0.1,68.555786,1638984707999
Fix,GT,34.2582663,-118.4730186,247.72082696282865,11.82392,0.1,87.34186,1638984708999
Fix,GT,34.2582481,-118.4728989,248.1038804303408,11.170664,0.1,107.238495,1638984709999
Fix,GT,34.2581976,-118.4727948,248.36793810623885,11.813552,0.1,126.74631,1638984710999
Fix,GT,34.2581109,-118.4727082,248.62686372751,13.650502,0.1,147.5951,1638984711999
Fix,GT,34.2579902,-118.4726538,248.9778512275219,15.470628,0.1,165.19434,1638984712999
Fix,GT,34.2578445,-118.4726278,249.27995037198065,17.401272,0.1,174.04315,1638984713999
Fix,GT,34.25768,-118.4726132,249.3699627500177,19.316326,0.1,176.09149,1638984714999
Fix,GT,34.2574973,-118.4726008,249.49699585801363,21.26849,0.1,176.88403,1638984715999
Fix,GT,34.2572985,-118.4725911,249.40105388766528,22.918854,0.1,177.7868,1638984716999
Fix,GT,34.2570847,-118.4725831,249.2411327457428,24.566406,0.1,178.12628,1638984717999
Fix,GT,34.2568554,-118.472576,248.95309963655475,26.324102,0.1,178.34912,1638984718999
Fix,GT,34.2566122,-118.4725689,248.7540207731128,27.56867,0.1,178.53009,1638984719999
Fix,GT,34.2563598,-118.472564,248.60810394603016,28.48945,0.1,179.0282,1638984720999
Fix,GT,34.2560987,-118.4725571,248.4440957016349,29.31455,0.1,178.0636,1638984721999
Fix,GT,34.2558323,-118.4725462,248.2610707907081,29.818962,0.1,177.54034,1638984722999
Fix,GT,34.2555601,-118.4725325,248.1150916823149,30.63597,0.1,177.26782,1638984723999
Fix,GT,34.2552804,-118.472519,247.9960542162061,31.481098,0.1,177.86182,1638984724999
Fix,GT,34.2549936,-118.4725105,247.8650626054406,32.062332,0.1,178.96765,1638984725999
Fix,GT,34.2547036,-118.4725064,247.8070584751368,32.327663,0.1,178.76001,1638984726999
Fix,GT,34.2544098,-118.4724973,247.6480668802261,32.96091,0.1,178.02893,1638984727999
Fix,GT,34.2541097,-118.4724879,247.4601087609529,33.573925,0.1,178.77649,1638984728999
Fix,GT,34.2538076,-118.4724835,247.2720669813156,33.443615,0.1,179.4992,1638984729999
Fix,GT,34.2535047,-118.4724837,247.08110892522333,33.82326,0.1,180.0931,1638984730999
Fix,GT,34.2531999,-118.4724867,246.9341173942089,33.689846,0.1,180.30193,1638984731999
Fix,GT,34.2528978,-118.4724891,246.7800629380345,33.33168,0.1,180.10466,1638984732999
Fix,GT,34.2525988,-118.472491,246.5801343669892,33.017586,0.1,180.10352,1638984733999
Fix,GT,34.2523026,-118.4724939,246.37608404135705,32.693733,0.1,180.3849,1638984734999
Fix,GT,34.2520094,-118.4724975,246.24808410573004,32.37456,0.1,180.27217,1638984735999
Fix,GT,34.2517189,-118.4724995,246.1390589190721,32.062424,0.1,180.03174,1638984736999
Fix,GT,34.2514312,-118.4725008,245.955084232092,31.785383,0.1,180.05562,1638984737999
Fix,GT,34.2511455,-118.4725027,245.81805479270216,31.650621,0.1,180.14798,1638984738999
Fix,GT,34.2508612,-118.4725052,245.7080337433815,31.39978,0.1,180.07588,1638984739999
Fix,GT,34.2505785,-118.4725039,245.64901688456536,31.432018,0.1,179.03302,1638984740999
Fix,GT,34.2502909,-118.4724968,245.4101056060195,32.38707,0.1,178.51959,1638984741999
Fix,GT,34.2499924,-118.4724902,244.9061817807555,33.75266,0.1,179.00122,1638984742999
Fix,GT,34.2496853,-118.4724877,244.2733722891808,34.318966,0.1,179.7229,1638984743999
Fix,GT,34.2493751,-118.4724909,243.48331753331425,34.394104,0.1,180.75034,1638984744999
Fix,GT,34.2490659,-118.4725016,242.679305059433,34.290394,0.1,182.40091,1638984745999
Fix,GT,34.2487568,-118.4725256,242.05723320525885,34.459797,0.1,184.61469,1638984746999
Fix,GT,34.2484476,-118.4725652,241.45523762226108,34.591686,0.1,187.33379,1638984747999
Fix,GT,34.2481399,-118.4726228,240.94816561013465,34.510582,0.1,189.82042,1638984748999
Fix,GT,34.247834,-118.4726911,240.5811572341919,34.62231,0.1,190.48973,1638984749999
Fix,GT,34.2475266,-118.4727611,240.21116585654025,34.784,0.1,190.59482,1638984750999
Fix,GT,34.247219,-118.4728314,239.8531191649437,34.62492,0.1,190.53833,1638984751999
Fix,GT,34.2469137,-118.4729015,239.70700851809977,34.30228,0.1,190.5817,1638984752999
Fix,GT,34.2466124,-118.4729693,239.65106819629668,33.726925,0.1,190.04626,1638984753999
Fix,GT,34.2463139,-118.4730286,239.6540426542759,33.46397,0.1,188.1387,1638984754999
Fix,GT,34.2460149,-118.4730738,239.4470896403193,33.299664,0.1,185.84079,1638984755999
Fix,GT,34.2457169,-118.4731052,239.21807689142224,33.023193,0.1,183.71283,1638984756999
Fix,GT,34.2454207,-118.4731233,238.94109832417965,32.761913,0.1,181.81454,1638984757999
Fix,GT,34.2451254,-118.473131,238.60114117610456,32.86798,0.1,180.4772,1638984758999
Fix,GT,34.2448281,-118.4731335,238.21121406412124,32.94259,0.1,180.11368,1638984759999
Fix,GT,34.2445322,-118.4731362,237.868111397028,32.698753,0.1,180.41292,1638984760999
Fix,GT,34.2442388,-118.4731399,237.66807289022208,32.414047,0.1,180.45332,1638984761999
Fix,GT,34.2439477,-118.4731436,237.41709868884087,32.167545,0.1,180.34746,1638984762999
Fix,GT,34.2436588,-118.473147,237.2610687036514,31.932577,0.1,180.38576,1638984763999
Fix,GT,34.2433731,-118.4731505,236.98017618262767,31.527596,0.1,180.33543,1638984764999
Fix,GT,34.2430898,-118.4731531,236.7670172011852,31.30474,0.1,180.14967,1638984765999
Fix,GT,34.2428088,-118.4731556,236.56810758787395,31.027578,0.1,180.37466,1638984766999
Fix,GT,34.2425325,-118.4731584,236.2252713167071,30.329868,0.1,180.20831,1638984767999
Fix,GT,34.2422617,-118.4731607,235.9031379146576,29.735445,0.1,180.30753,1638984768999
Fix,GT,34.241996,-118.4731634,235.6071250784993,29.303305,0.1,180.34547,1638984769999
Fix,GT,34.2417327,-118.4731663,235.3731035876274,29.155937,0.1,180.27336,1638984770999
Fix,GT,34.2414694,-118.4731683,235.10411230361464,29.308264,0.1,180.08987,1638984771999
Fix,GT,34.2412053,-118.4731697,234.87509509694576,29.227346,0.1,180.16106,1638984772999
Fix,GT,34.2409428,-118.4731726,234.6091384220124,29.020405,0.1,180.28783,1638984773999
Fix,GT,34.2406818,-118.4731751,234.33216449844835,28.95198,0.1,180.3332,1638984774999
Fix,GT,34.2404207,-118.4731784,234.0551212978363,28.892683,0.1,180.42667,1638984775999
Fix,GT,34.240163,-118.4731819,233.7771387271881,28.406876,0.1,180.4232,1638984776999
Fix,GT,34.2399079,-118.4731847,233.47412581312653,28.199957,0.1,180.24002,1638984777999
Fix,GT,34.2396543,-118.4731865,233.17909985685347,28.119242,0.1,180.09886,1638984778999
Fix,GT,34.2393994,-118.4731887,232.94111296534533,28.469547,0.1,180.4387,1638984779999
Fix,GT,34.2391428,-118.4731918,232.6901173938513,28.465273,0.1,180.411,1638984780999
Fix,GT,34.2388847,-118.4731947,232.41207832050324,28.81218,0.1,180.25636,1638984781999
Fix,GT,34.2386251,-118.4731961,232.15411321175097,28.747162,0.1,179.99792,1638984782999
Fix,GT,34.2383668,-118.4731978,231.93210457897183,28.55178,0.1,180.47534,1638984783999
Fix,GT,34.2381091,-118.4732016,231.6791177366376,28.696983,0.1,180.49901,1638984784999
Fix,GT,34.237849,-118.4732049,231.4311178235412,29.005388,0.1,180.38223,1638984785999
Fix,GT,34.2375873,-118.473208,231.1821091763377,29.106,0.1,180.28989,1638984786999
Fix,GT,34.2373247,-118.47321,230.90510925382367,29.117466,0.1,180.17105,1638984787999
Fix,GT,34.2370614,-118.4732122,230.6231224544048,29.234724,0.1,180.22238,1638984788999
Fix,GT,34.2367979,-118.4732145,230.36908753061297,29.200108,0.1,180.33444,1638984789999
Fix,GT,34.2365354,-118.4732177,230.1500919747353,29.119396,0.1,180.37148,1638984790999
Fix,GT,34.236272,-118.4732197,229.90506574451925,29.300192,0.1,180.05527,1638984791999
Fix,GT,34.2360078,-118.4732218,229.7140921074152,29.24759,0.1,180.41017,1638984792999
Fix,GT,34.2357452,-118.4732251,229.58803511428832,29.00089,0.1,180.50966,1638984793999
Fix,GT,34.2354841,-118.4732288,229.3371757001877,28.90731,0.1,180.38103,1638984794999
Fix,GT,34.2352236,-118.4732314,229.0071802222133,28.884718,0.1,180.26453,1638984795999
Fix,GT,34.2349636,-118.4732335,228.69614956200124,28.82959,0.1,180.16753,1638984796999
Fix,GT,34.2347037,-118.4732357,228.3851452654004,28.764832,0.1,180.24538,1638984797999
Fix,GT,34.2344445,-118.4732383,228.12911453521247,28.765955,0.1,180.28319,1638984798999
Fix,GT,34.2341859,-118.4732407,227.9020969852209,28.57396,0.1,180.25452,1638984799999
Fix,GT,34.2339295,-118.4732427,227.6831146994829,28.321531,0.1,180.17609,1638984800999
Fix,GT,34.2336751,-118.4732447,227.4281280273795,28.187704,0.1,180.28333,1638984801999
Fix,GT,34.2334204,-118.4732471,227.16510602951047,28.335966,0.1,180.35284,1638984802999
Fix,GT,34.2331646,-118.4732505,226.9021016856432,28.333097,0.1,180.54024,1638984803999
Fix,GT,34.2329093,-118.4732541,226.67508848667143,28.387249,0.1,180.33255,1638984804999
Fix,GT,34.2326535,-118.4732564,226.37714610725644,28.31375,0.1,180.25232,1638984805999
Fix,GT,34.2323991,-118.4732589,226.102115198493,28.102303,0.1,180.34534,1638984806999
Fix,GT,34.2321502,-118.4732612,225.81715074956412,26.986385,0.1,180.2339,1638984807999
Fix,GT,34.2319141,-118.4732634,225.55009761464595,25.35578,0.1,180.36423,1638984808999
Fix,GT,34.2316904,-118.4732659,225.44806216347217,24.497255,0.1,180.36472,1638984809999
Fix,GT,34.2314706,-118.4732681,225.28009331279995,24.270723,0.1,180.24017,1638984810999
Fix,GT,34.2312514,-118.4732695,225.02510671901703,24.495003,0.1,180.0638,1638984811999
Fix,GT,34.2310276,-118.47327,224.8890444984436,25.1519,0.1,179.9469,1638984812999
Fix,GT,34.2308009,-118.4732718,224.71307124710083,25.09922,0.1,180.42331,1638984813999
Fix,GT,34.2305777,-118.4732746,224.51508912324903,24.160036,0.1,180.4907,1638984814999
Fix,GT,34.230366,-118.4732774,224.3141159439087,22.972683,0.1,180.50154,1638984815999
Fix,GT,34.230161,-118.4732803,224.0861071009636,22.628471,0.1,180.50905,1638984816999
Fix,GT,34.2299574,-118.4732827,223.8451027124524,22.454123,0.1,180.33473,1638984817999
Fix,GT,34.2297572,-118.4732844,223.6160938485265,22.05144,0.1,180.17482,1638984818999
Fix,GT,34.2295584,-118.4732855,223.3780983870029,22.10708,0.1,180.07008,1638984819999
Fix,GT,34.2293594,-118.4732869,223.14409845781324,22.038586,0.1,180.28587,1638984820999
Fix,GT,34.2291606,-118.4732888,222.9100806143284,22.096916,0.1,180.38832,1638984821999
Fix,GT,34.2289618,-118.4732912,222.7300851529241,22.003103,0.1,180.42189,1638984822999
Fix,GT,34.2287644,-118.4732936,222.54706278848647,21.73658,0.1,180.47157,1638984823999
Fix,GT,34.2285697,-118.4732962,222.52399102389813,21.467443,0.1,180.42525,1638984824999
Fix,GT,34.2283778,-118.4732983,222.44919761586192,21.079916,0.1,180.34195,1638984825999
Fix,GT,34.2281895,-118.4732999,222.2770089889765,20.808441,0.1,180.18137,1638984826999
Fix,GT,34.2280007,-118.4733014,222.0840854564309,21.15915,0.1,180.23082,1638984827999
Fix,GT,34.2278071,-118.4733028,221.8900540103912,21.77226,0.1,180.17822,1638984828999
Fix,GT,34.2276098,-118.4733042,221.6281396266222,21.89603,0.1,180.2922,1638984829999
Fix,GT,34.2274128,-118.4733063,221.30617127752308,21.832531,0.1,180.30223,1638984830999
Fix,GT,34.2272141,-118.4733078,221.0461217824817,22.37699,0.1,180.14029,1638984831999
Fix,GT,34.2270109,-118.4733092,220.92207673257587,22.550587,0.1,180.24457,1638984832999
Fix,GT,34.2268083,-118.4733109,220.7430948548913,22.435606,0.1,180.25816,1638984833999
Fix,GT,34.2266047,-118.4733127,220.57504972064493,22.815527,0.1,180.37271,1638984834999
Fix,GT,34.2263978,-118.4733154,220.49903618621823,22.917538,0.1,180.53618,1638984835999
Fix,GT,34.2261929,-118.4733175,220.42004526495933,22.464716,0.1,180.19066,1638984836999
Fix,GT,34.2259931,-118.4733193,220.3130452965498,21.844034,0.1,180.2774,1638984837999
Fix,GT,34.2257984,-118.4733212,220.27202719724173,21.436028,0.1,180.39117,1638984838999
Fix,GT,34.2256058,-118.473323,220.162063505292,21.338377,0.1,180.22437,1638984839999
Fix,GT,34.225414,-118.473325,220.0490499317646,21.209213,0.1,180.47908,1638984840999
Fix,GT,34.2252228,-118.4733276,219.95303633975985,21.334824,0.1,180.39868,1638984841999
Fix,GT,34.2250281,-118.473329,219.8510636396408,21.842007,0.1,180.06683,1638984842999
Fix,GT,34.2248293,-118.4733302,219.8249863532781,22.229359,0.1,180.29549,1638984843999
Fix,GT,34.2246279,-118.4733326,219.7791365619898,22.384628,0.1,180.61053,1638984844999
Fix,GT,34.2244257,-118.4733358,219.61303188699483,22.580143,0.1,180.45718,1638984845999
Fix,GT,34.2242213,-118.4733375,219.5280683775544,22.66538,0.1,180.15881,1638984846999
Fix,GT,34.2240174,-118.4733387,219.3270957949161,22.554365,0.1,180.13417,1638984847999
Fix,GT,34.2238145,-118.4733412,219.1890456488132,22.436144,0.1,180.68102,1638984848999
Fix,GT,34.2236128,-118.4733445,219.12102284049988,22.303688,0.1,180.566,1638984849999
Fix,GT,34.2234136,-118.4733471,219.0750228562951,21.895313,0.1,180.45639,1638984850999
Fix,GT,34.2232169,-118.4733492,219.02103659582136,21.834604,0.1,180.28581,1638984851999
Fix,GT,34.2230188,-118.4733513,218.92805035465955,22.15082,0.1,180.42233,1638984852999
Fix,GT,34.2228168,-118.4733536,218.7940732936859,22.55288,0.1,180.33928,1638984853999
Fix,GT,34.2226135,-118.4733551,218.6210733451844,22.531149,0.1,180.01874,1638984854999
Fix,GT,34.22241,-118.4733559,218.4920504602194,22.704218,0.1,180.05875,1638984855999
Fix,GT,34.2222046,-118.4733571,218.482032133162,22.750565,0.1,180.31134,1638984856999
Fix,GT,34.2219989,-118.4733595,218.4769954062104,22.892422,0.1,180.51361,1638984857999
Fix,GT,34.2217933,-118.4733629,218.5129724183083,22.701511,0.1,180.65292,1638984858999
Fix,GT,34.2215899,-118.4733664,218.6091196043492,22.483002,0.1,180.66418,1638984859999
Fix,GT,34.2213856,-118.4733695,218.47298618984223,22.922222,0.1,180.47998,1638984860999
Fix,GT,34.2211772,-118.473372,218.4111750487089,23.299564,0.1,180.31174,1638984861999
Fix,GT,34.2209657,-118.4733734,218.259073756218,23.509357,0.1,180.17868,1638984862999
Fix,GT,34.2207541,-118.4733746,218.0970876466632,23.422245,0.1,180.10262,1638984863999
Fix,GT,34.2205429,-118.4733755,217.91105539369585,23.514057,0.1,180.02399,1638984864999
Fix,GT,34.2203313,-118.4733764,217.78607390975952,23.414373,0.1,180.23695,1638984865999
Fix,GT,34.2201209,-118.4733784,217.66104622638227,23.247759,0.1,180.26953,1638984866999
Fix,GT,34.2199125,-118.4733798,217.55308326542377,22.999308,0.1,180.08621,1638984867999
Fix,GT,34.2197069,-118.4733806,217.43404166114328,22.659227,0.1,180.04033,1638984868999
