MessageType,Provider,LatitudeDegrees,LongitudeDegrees,AltitudeMeters,SpeedMps,AccuracyMeters,BearingDegrees,UnixTimeMillis
Fix,GT,37.4160296,-122.0809353,-26.595,0.001,0.1,180.91385,1640722628999
Fix,GT,37.4160296,-122.0809353,-26.595,0.001,0.1,180.91382,1640722629999
Fix,GT,37.4160296,-122.0809353,-26.595,0.0,0.1,180.91402,1640722630999
Fix,GT,37.4160296,-122.0809353,-26.595,0.0,0.1,180.91408,1640722631999
Fix,GT,37.4160296,-122.0809353,-26.595,0.0,0.1,180.91425,1640722632999
Fix,GT,37.4160296,-122.0809353,-26.595,0.0022328356,0.1,180.91469,1640722633999
Fix,GT,37.4160296,-122.0809353,-26.594,0.0019991503,0.1,180.9143,1640722634999
Fix,GT,37.4160296,-122.0809353,-26.594,0.002997088,0.1,180.91441,1640722635999
Fix,GT,37.4160296,-122.0809353,-26.594,0.0031617898,0.1,180.91483,1640722636999
Fix,GT,37.4160296,-122.0809353,-26.594,0.0028284271,0.1,180.91455,1640722637999
Fix,GT,37.4160296,-122.0809353,-26.595,0.0022402823,0.1,180.91408,1640722638999
Fix,GT,37.4160295,-122.0809353,-26.595,0.0063218186,0.1,180.9139,1640722639999
Fix,GT,37.4160295,-122.0809353,-26.595,0.0058289375,0.1,180.9146,1640722640999
Fix,GT,37.4160295,-122.0809353,-26.595,0.0080565745,0.1,180.91444,1640722641999
Fix,GT,37.4160295,-122.0809353,-26.595,0.0072103515,0.1,180.91443,1640722642999
Fix,GT,37.4160295,-122.0809353,-26.595,0.0089429505,0.1,180.91464,1640722643999
Fix,GT,37.4160295,-122.0809353,-26.595,0.010296414,0.1,180.91484,1640722644999
Fix,GT,37.4160295,-122.0809353,-26.595,0.01166483,0.1,180.91505,1640722645999
Fix,GT,37.4160295,-122.0809353,-26.594,0.015810559,0.1,180.91531,1640722646999
Fix,GT,37.4160295,-122.0809353,-26.594,0.020518431,0.1,180.91795,1640722647999
Fix,GT,37.4160287,-122.0809352,-26.60000304949284,0.35709944,0.1,180.91357,1640722648999
Fix,GT,37.4160227,-122.0809344,-26.59300152993202,0.97797614,0.1,179.23645,1640722649999
Fix,GT,37.4160115,-122.0809298,-26.57500153517723,1.6324486,0.1,171.05048,1640722650999
Fix,GT,37.4159946,-122.0809201,-26.568,2.4245882,0.1,161.29022,1640722651999
Fix,GT,37.4159731,-122.0809096,-26.601989180326463,2.6080348,0.1,159.94489,1640722652999
Fix,GT,37.4159507,-122.0809004,-26.651004652917383,2.6160495,0.1,161.86804,1640722653999
Fix,GT,37.4159283,-122.0808909,-26.4470046684742,2.5009131,0.1,161.73962,1640722654999
Fix,GT,37.4159064,-122.0808805,-26.47899687707424,2.8602154,0.1,159.79065,1640722655999
Fix,GT,37.4158815,-122.0808591,-26.469021933078768,3.7430742,0.1,146.37146,1640722656999
Fix,GT,37.4158619,-122.0808195,-26.436009431004525,4.402627,0.1,122.04382,1640722657999
Fix,GT,37.4158514,-122.0807706,-26.408012617111208,4.4399223,0.1,104.44293,1640722658999
Fix,GT,37.415847,-122.0807212,-26.404007911622525,4.3319592,0.1,95.883575,1640722659999
Fix,GT,37.4158449,-122.0806753,-26.38100952506065,3.631342,0.1,93.0571,1640722660999
Fix,GT,37.4158433,-122.0806414,-26.344011149704457,2.376462,0.1,92.68509,1640722661999
Fix,GT,37.4158424,-122.0806208,-26.29201438200474,1.271871,0.1,92.610596,1640722662999
Fix,GT,37.4158419,-122.0806094,-26.259012825489044,1.0745329,0.1,92.41724,1640722663999
Fix,GT,37.4158426,-122.080593,-26.22700482547283,1.8914404,0.1,88.467865,1640722664999
Fix,GT,37.4158499,-122.0805682,-26.17101613676548,2.7698798,0.1,74.16324,1640722665999
Fix,GT,37.4158672,-122.0805383,-26.08601780748367,3.8074331,0.1,55.657593,1640722666999
Fix,GT,37.4158987,-122.0805094,-26.030995127677915,4.867164,0.1,34.12091,1640722667999
Fix,GT,37.4159405,-122.0804927,-26.029004888057703,4.738506,0.1,15.939178,1640722668999
Fix,GT,37.4159772,-122.0804859,-25.976011441767216,3.5522609,0.1,7.205963,1640722669999
Fix,GT,37.4160053,-122.0804827,-25.94500655913353,3.0486968,0.1,4.255951,1640722670999
Fix,GT,37.4160321,-122.0804801,-25.92597039055824,3.103531,0.1,3.0192566,1640722671999
Fix,GT,37.4160647,-122.0804771,-25.89900990128517,4.2425632,0.1,2.9250183,1640722672999
Fix,GT,37.4161083,-122.0804736,-25.887006621837617,5.4758096,0.1,2.7339172,1640722673999
Fix,GT,37.4161627,-122.0804702,-25.914996678709983,6.217524,0.1,2.361145,1640722674999
Fix,GT,37.4162185,-122.0804671,-25.925001665830614,6.09428,0.1,1.8044434,1640722675999
Fix,GT,37.4162726,-122.0804655,-25.870008355081083,5.9290986,0.1,0.5907593,1640722676999
Fix,GT,37.416325,-122.0804649,-25.886996647357943,5.460337,0.1,0.008575439,1640722677999
Fix,GT,37.4163698,-122.0804647,-25.92999159246683,4.3722644,0.1,359.7503,1640722678999
Fix,GT,37.4164039,-122.0804645,-25.98199493992329,3.0732625,0.1,359.65363,1640722679999
Fix,GT,37.4164259,-122.0804645,-26.170950933814048,1.9181718,0.1,359.58435,1640722680999
Fix,GT,37.4164394,-122.0804644,-26.32396605753899,1.0434574,0.1,359.55106,1640722681999
Fix,GT,37.4164454,-122.0804643,-26.44297446358204,0.41008085,0.1,359.55127,1640722682999
Fix,GT,37.4164482,-122.0804643,-26.541979508638384,0.25003508,0.1,359.5548,1640722683999
Fix,GT,37.4164509,-122.0804643,-26.63597773361206,0.44307652,0.1,359.55276,1640722684999
Fix,GT,37.4164559,-122.0804645,-26.73397766619921,0.6423792,0.1,359.6269,1640722685999
Fix,GT,37.4164633,-122.0804641,-26.82998621463776,0.9251965,0.1,0.67718506,1640722686999
Fix,GT,37.4164731,-122.0804629,-26.92097753059864,1.304967,0.1,2.974762,1640722687999
Fix,GT,37.4164877,-122.0804577,-27.019975729584694,1.9517242,0.1,11.493927,1640722688999
Fix,GT,37.4165061,-122.0804412,-27.114996522426605,2.801338,0.1,29.92279,1640722689999
Fix,GT,37.4165237,-122.0804089,-27.15099825602769,3.9471717,0.1,53.409363,1640722690999
Fix,GT,37.4165345,-122.080356,-27.19099825078249,5.5986266,0.1,76.64572,1640722691999
Fix,GT,37.4165354,-122.0802822,-27.207010526418685,7.4087267,0.1,90.16647,1640722692999
Fix,GT,37.4165314,-122.0801904,-27.203,8.716268,0.1,92.93649,1640722693999
Fix,GT,37.4165261,-122.0800863,-27.161,9.701749,0.1,93.401184,1640722694999
Fix,GT,37.4165195,-122.0799721,-27.115014160633088,10.541175,0.1,93.95007,1640722695999
Fix,GT,37.4165113,-122.0798492,-27.059007101058963,11.263847,0.1,94.57532,1640722696999
Fix,GT,37.4165019,-122.0797192,-27.02700712180137,11.77556,0.1,94.96277,1640722697999
Fix,GT,37.4164922,-122.0795853,-26.971005357086657,11.963569,0.1,94.72919,1640722698999
Fix,GT,37.4164831,-122.0794518,-26.969983882069585,11.735638,0.1,94.7041,1640722699999
Fix,GT,37.4164743,-122.0793212,-26.975976651132104,11.550014,0.1,94.542725,1640722700999
Fix,GT,37.4164654,-122.0791905,-27.00000720500946,11.567967,0.1,94.61578,1640722701999
Fix,GT,37.4164566,-122.0790615,-27.019,11.32021,0.1,94.72391,1640722702999
Fix,GT,37.416448,-122.0789359,-27.04400543504953,11.003921,0.1,94.723816,1640722703999
Fix,GT,37.4164397,-122.0788138,-27.06500545060635,10.699292,0.1,94.99048,1640722704999
Fix,GT,37.4164306,-122.0786968,-27.10199817794561,10.017217,0.1,95.58374,1640722705999
Fix,GT,37.4164216,-122.0785896,-27.082996345400808,9.04221,0.1,96.00568,1640722706999
Fix,GT,37.4164132,-122.0784937,-27.11098534011841,8.008615,0.1,96.416595,1640722707999
Fix,GT,37.416405,-122.0784104,-27.11002205204964,6.793062,0.1,97.11047,1640722708999
Fix,GT,37.4163977,-122.0783425,-27.067016585707663,5.30124,0.1,97.541534,1640722709999
Fix,GT,37.416392,-122.0782926,-27.09698706328869,3.6361504,0.1,98.324615,1640722710999
Fix,GT,37.4163875,-122.0782619,-27.14199814671278,1.9386026,0.1,100.865814,1640722711999
Fix,GT,37.416385,-122.0782487,-27.12999814152717,0.5013103,0.1,102.49902,1640722712999
Fix,GT,37.4163849,-122.0782472,-27.128,0.07147681,0.1,102.74127,1640722713999
Fix,GT,37.4163854,-122.0782479,-27.11700373780728,0.08731981,0.1,102.74066,1640722714999
Fix,GT,37.4163857,-122.0782477,-27.11200187408924,0.28497905,0.1,102.87485,1640722715999
Fix,GT,37.416383,-122.0782382,-27.09100751686097,1.4831334,0.1,106.45145,1640722716999
Fix,GT,37.4163721,-122.0782194,-27.07899623119832,2.5676308,0.1,120.43475,1640722717999
Fix,GT,37.4163455,-122.0782003,-27.02699433124065,3.9709902,0.1,147.1513,1640722718999
Fix,GT,37.416301,-122.0781929,-26.982,5.906231,0.1,172.16669,1640722719999
Fix,GT,37.4162388,-122.0781919,-26.90900760006904,7.8127494,0.1,178.97382,1640722720999
Fix,GT,37.416163,-122.0781943,-26.873001905143266,8.834029,0.1,181.65863,1640722721999
Fix,GT,37.4160834,-122.0781995,-26.82602292394638,8.751325,0.1,182.79016,1640722722999
Fix,GT,37.4160059,-122.0782056,-26.76600766205788,8.486053,0.1,183.17995,1640722723999
Fix,GT,37.4159307,-122.078212,-26.72603265088797,8.254714,0.1,183.3272,1640722724999
Fix,GT,37.4158577,-122.0782171,-26.701017332434656,7.9386077,0.1,182.52715,1640722725999
Fix,GT,37.4157908,-122.0782194,-26.64201158607006,6.7712326,0.1,180.73756,1640722726999
Fix,GT,37.4157376,-122.0782203,-26.62400774502754,4.912529,0.1,180.48016,1640722727999
Fix,GT,37.4157037,-122.0782206,-26.59600194144249,2.6468122,0.1,180.17076,1640722728999
Fix,GT,37.4156886,-122.0782208,-26.601996106863023,0.78261507,0.1,180.1505,1640722729999
Fix,GT,37.4156868,-122.078221,-26.619996096491818,0.017503219,0.1,180.1685,1640722730999
Fix,GT,37.4156871,-122.0782212,-26.627998043060305,0.026421402,0.1,180.16788,1640722731999
Fix,GT,37.4156872,-122.0782212,-26.634,0.022825424,0.1,180.16698,1640722732999
Fix,GT,37.4156873,-122.0782213,-26.692933113455776,0.018790085,0.1,180.16733,1640722733999
Fix,GT,37.4156882,-122.078222,-26.94899802750349,0.016155494,0.1,180.1676,1640722734999
Fix,GT,37.4156882,-122.078222,-26.949,0.013602117,0.1,180.16797,1640722735999
Fix,GT,37.4156882,-122.078222,-26.949,0.0114042265,0.1,180.16817,1640722736999
Fix,GT,37.4156882,-122.078222,-26.949,0.010439825,0.1,180.16858,1640722737999
Fix,GT,37.4156882,-122.078222,-26.949,0.009055385,0.1,180.16893,1640722738999
Fix,GT,37.4156882,-122.078222,-26.949,0.0070001422,0.1,180.16922,1640722739999
Fix,GT,37.4156882,-122.078222,-26.949,0.006,0.1,180.16942,1640722740999
Fix,GT,37.4156882,-122.078222,-26.949,0.0051009953,0.1,180.16977,1640722741999
Fix,GT,37.4156882,-122.078222,-26.949,0.0050990195,0.1,180.17021,1640722742999
Fix,GT,37.4156882,-122.078222,-26.949,0.004472136,0.1,180.17061,1640722743999
Fix,GT,37.4156882,-122.078222,-26.949,0.0049989317,0.1,180.1709,1640722744999
Fix,GT,37.4156882,-122.078222,-26.949,0.0042426405,0.1,180.17117,1640722745999
Fix,GT,37.4156882,-122.078222,-26.949,0.0042426405,0.1,180.17155,1640722746999
Fix,GT,37.4156882,-122.078222,-26.949,0.0036068507,0.1,180.1718,1640722747999
Fix,GT,37.4156882,-122.078222,-26.949,0.0036055513,0.1,180.17226,1640722748999
Fix,GT,37.4156882,-122.078222,-26.949,0.0036055513,0.1,180.17262,1640722749999
Fix,GT,37.4156882,-122.078222,-26.949,0.0031631885,0.1,180.17299,1640722750999
Fix,GT,37.4156882,-122.078222,-26.949,0.0031622776,0.1,180.17331,1640722751999
Fix,GT,37.4156882,-122.078222,-26.949,0.0031622776,0.1,180.17365,1640722752999
Fix,GT,37.4156882,-122.078222,-26.949,0.0031622776,0.1,180.17403,1640722753999
Fix,GT,37.4156882,-122.078222,-26.949,0.0036055513,0.1,180.17432,1640722754999
Fix,GT,37.4156882,-122.078222,-26.949,0.002830044,0.1,180.17477,1640722755999
Fix,GT,37.4156882,-122.078222,-26.949,0.002236068,0.1,-179.82487,1640722756999
Fix,GT,37.4156882,-122.078222,-26.949,0.0028271887,0.1,180.17532,1640722757999
Fix,GT,37.4156882,-122.078222,-26.949,0.002236068,0.1,180.1757,1640722758999
Fix,GT,37.4156882,-122.078222,-26.949,0.002236068,0.1,180.176,1640722759999
Fix,GT,37.4156882,-122.078222,-26.949,0.002234337,0.1,180.17642,1640722760999
Fix,GT,37.4156882,-122.078222,-26.949,0.002236068,0.1,180.17688,1640722761999
Fix,GT,37.4156882,-122.078222,-26.949,0.0022355684,0.1,180.17728,1640722762999
Fix,GT,37.4156883,-122.078222,-26.98799787849188,0.0014133349,0.1,180.17749,1640722763999
Fix,GT,37.4156883,-122.078222,-26.991,0.0014142136,0.1,-179.82213,1640722764999
Fix,GT,37.4156883,-122.078222,-26.991,0.0014142136,0.1,180.1783,1640722765999
Fix,GT,37.4156883,-122.078222,-26.991,0.0022343118,0.1,180.17863,1640722766999
Fix,GT,37.4156883,-122.078222,-26.991,0.0014142136,0.1,180.17911,1640722767999
Fix,GT,37.4156883,-122.078222,-26.991,0.0014142136,0.1,-179.82059,1640722768999
Fix,GT,37.4156883,-122.078222,-26.991,0.0010008916,0.1,180.18004,1640722769999
Fix,GT,37.4156883,-122.078222,-26.991,0.0010008937,0.1,180.18033,1640722770999
Fix,GT,37.4156883,-122.078222,-26.991,0.001,0.1,180.18065,1640722771999
Fix,GT,37.4156883,-122.078222,-26.991,0.001,0.1,-179.81892,1640722772999
Fix,GT,37.4156883,-122.078222,-26.991,0.001,0.1,180.18164,1640722773999
Fix,GT,37.4156883,-122.078222,-26.991,0.0014142136,0.1,180.18199,1640722774999
Fix,GT,37.4156883,-122.078222,-26.991,0.0014142136,0.1,180.18217,1640722775999
Fix,GT,37.4156883,-122.078222,-26.991,0.0014142136,0.1,180.18275,1640722776999
Fix,GT,37.4156883,-122.078222,-26.991,0.0014142136,0.1,-179.81691,1640722777999
Fix,GT,37.4156883,-122.078222,-26.991,0.0014133031,0.1,180.18352,1640722778999
Fix,GT,37.4156883,-122.078222,-26.991,0.0014142136,0.1,180.18399,1640722779999
Fix,GT,37.4156883,-122.078222,-26.991,0.0014142136,0.1,180.1845,1640722780999
Fix,GT,37.4156883,-122.078222,-26.991,0.0014160327,0.1,180.185,1640722781999
Fix,GT,37.4156883,-122.078222,-26.991,0.002236068,0.1,180.18535,1640722782999
Fix,GT,37.4156883,-122.078222,-26.991,0.002000525,0.1,180.18597,1640722783999
Fix,GT,37.4156883,-122.078222,-26.991,0.002,0.1,180.18634,1640722784999
Fix,GT,37.4156883,-122.078222,-26.991,0.0030003623,0.1,180.18675,1640722785999
Fix,GT,37.4156883,-122.078222,-26.991,0.0041209543,0.1,180.18713,1640722786999
Fix,GT,37.4156883,-122.078222,-26.991,0.004471353,0.1,180.18773,1640722787999
Fix,GT,37.4156883,-122.078222,-26.991,0.005386167,0.1,180.18842,1640722788999
Fix,GT,37.4156883,-122.078222,-26.991,0.0072111026,0.1,180.18886,1640722789999
Fix,GT,37.4156878,-122.078222,-26.9960045183897,0.29790887,0.1,180.19,1640722790999
Fix,GT,37.4156771,-122.0782221,-27.004006792783738,2.4683778,0.1,180.26962,1640722791999
Fix,GT,37.4156442,-122.0782222,-26.96798865306377,4.8883667,0.1,180.34473,1640722792999
Fix,GT,37.4155884,-122.0782229,-26.93801819515228,7.473582,0.1,180.56027,1640722793999
Fix,GT,37.4155085,-122.0782244,-26.901002279460428,10.1421385,0.1,180.71341,1640722794999
Fix,GT,37.4154067,-122.078226,-26.886006853759287,12.38899,0.1,180.41559,1640722795999
Fix,GT,37.4152881,-122.0782268,-26.752068687796594,13.95885,0.1,180.21866,1640722796999
Fix,GT,37.4151566,-122.0782279,-26.623032125234605,15.007374,0.1,180.38219,1640722797999
Fix,GT,37.415022,-122.0782294,-26.45704139614105,14.80434,0.1,180.28688,1640722798999
Fix,GT,37.4148901,-122.0782288,-26.266036876678463,14.442456,0.1,179.69324,1640722799999
Fix,GT,37.4147611,-122.0782284,-26.087032338023185,14.153094,0.1,179.71814,1640722800999
Fix,GT,37.4146354,-122.0782276,-25.899078705430032,13.743147,0.1,179.66455,1640722801999
Fix,GT,37.414514,-122.0782271,-25.7170603197813,13.209122,0.1,179.7475,1640722802999
Fix,GT,37.4143974,-122.078227,-25.53005347633362,12.630232,0.1,179.71063,1640722803999
Fix,GT,37.4142884,-122.0782262,-25.363048931360243,11.443564,0.1,179.5448,1640722804999
Fix,GT,37.4141928,-122.0782254,-25.22502101618052,9.783419,0.1,179.7992,1640722805999
Fix,GT,37.4141122,-122.0782255,-25.10903276193142,8.076405,0.1,179.95667,1640722806999
Fix,GT,37.414048,-122.0782255,-24.987035178959367,6.068526,0.1,179.95508,1640722807999
Fix,GT,37.4140046,-122.0782255,-24.87402585232258,3.558612,0.1,180.11539,1640722808999
Fix,GT,37.4139827,-122.0782255,-24.827011776685715,1.5124121,0.1,180.13376,1640722809999
Fix,GT,37.4139751,-122.0782255,-24.801997639596465,0.2853176,0.1,180.11098,1640722810999
Fix,GT,37.4139747,-122.0782255,-24.802,0.009055385,0.1,180.09933,1640722811999
Fix,GT,37.4139748,-122.0782255,-24.798,0.0069952593,0.1,180.10107,1640722812999
Fix,GT,37.4139749,-122.0782255,-24.796,0.006,0.1,180.09981,1640722813999
Fix,GT,37.4139749,-122.0782255,-24.79799761945009,0.005,0.1,180.10045,1640722814999
Fix,GT,37.4139749,-122.0782255,-24.800997614383697,0.004,0.1,180.10085,1640722815999
Fix,GT,37.4139749,-122.0782255,-24.801,0.0031642804,0.1,180.10127,1640722816999
Fix,GT,37.4139749,-122.0782255,-24.801,0.0031622776,0.1,180.10126,1640722817999
Fix,GT,37.4139749,-122.0782255,-24.801,0.002236068,0.1,180.10167,1640722818999
Fix,GT,37.4139749,-122.0782255,-24.801,0.0022382962,0.1,180.10187,1640722819999
Fix,GT,37.4139749,-122.0782255,-24.801,0.0022340869,0.1,180.10193,1640722820999
Fix,GT,37.4139749,-122.0782254,-24.801,0.0022340824,0.1,180.10219,1640722821999
Fix,GT,37.4139749,-122.0782254,-24.801,0.0028284271,0.1,180.10248,1640722822999
Fix,GT,37.4139749,-122.0782254,-24.801,0.0028284271,0.1,180.1026,1640722823999
Fix,GT,37.4139749,-122.0782254,-24.801,0.0014162114,0.1,180.10263,1640722824999
Fix,GT,37.4139749,-122.0782254,-24.8,0.002236068,0.1,180.10281,1640722825999
Fix,GT,37.4139749,-122.0782254,-24.80099755913019,0.0031622776,0.1,180.10313,1640722826999
Fix,GT,37.413975,-122.0782255,-24.803997554063795,0.003,0.1,180.10316,1640722827999
Fix,GT,37.413975,-122.0782255,-24.804,0.004122804,0.1,180.1034,1640722828999
Fix,GT,37.413975,-122.0782256,-24.804,0.0044712787,0.1,180.10359,1640722829999
Fix,GT,37.413975,-122.0782256,-24.804,0.005829855,0.1,180.10374,1640722830999
Fix,GT,37.413975,-122.0782256,-24.803,0.007614775,0.1,180.10355,1640722831999
Fix,GT,37.4139741,-122.0782255,-24.807,0.41978344,0.1,180.09628,1640722832999
Fix,GT,37.4139629,-122.0782254,-24.79200495195389,2.1465578,0.1,179.9823,1640722833999
Fix,GT,37.4139351,-122.0782253,-24.73900992417336,4.0475407,0.1,179.94641,1640722834999
Fix,GT,37.4138906,-122.0782252,-24.646044749975204,6.0126424,0.1,179.93011,1640722835999
Fix,GT,37.4138251,-122.0782249,-24.549039856910703,8.441433,0.1,179.82953,1640722836999
Fix,GT,37.4137392,-122.0782251,-24.44509235215187,10.485576,0.1,179.89117,1640722837999
Fix,GT,37.4136385,-122.0782251,-24.16407252931595,11.9375925,0.1,179.97162,1640722838999
Fix,GT,37.4135238,-122.0782253,-23.807095230937,13.490677,0.1,180.13145,1640722839999
Fix,GT,37.413396,-122.0782261,-23.24221594810486,14.823757,0.1,180.10364,1640722840999
Fix,GT,37.4132576,-122.0782262,-22.38922643744945,15.763974,0.1,179.99951,1640722841999
Fix,GT,37.4131142,-122.0782267,-21.411229414463044,16.027998,0.1,180.04723,1640722842999
Fix,GT,37.41297,-122.0782262,-20.312277858376504,15.935086,0.1,179.83289,1640722843999
Fix,GT,37.4128269,-122.0782259,-19.18730372619629,15.856036,0.1,179.8266,1640722844999
Fix,GT,37.4126841,-122.0782257,-18.107289103865625,15.829026,0.1,179.96179,1640722845999
Fix,GT,37.4125412,-122.078226,-17.043254094600677,15.936005,0.1,180.20947,1640722846999
Fix,GT,37.412397,-122.078227,-16.131216411054133,16.073397,0.1,180.46107,1640722847999
Fix,GT,37.4122517,-122.0782293,-15.413181118130684,16.054651,0.1,180.88684,1640722848999
Fix,GT,37.4121094,-122.0782326,-14.87410479217768,15.509362,0.1,181.16982,1640722849999
Fix,GT,37.4119705,-122.0782355,-14.481084512114524,15.538873,0.1,180.9681,1640722850999
Fix,GT,37.4118307,-122.0782379,-14.284025659203529,15.364202,0.1,180.7879,1640722851999
Fix,GT,37.4116938,-122.0782395,-14.242992287397383,15.027467,0.1,180.53896,1640722852999
Fix,GT,37.4115598,-122.0782409,-14.383935601651668,14.696654,0.1,180.6339,1640722853999
Fix,GT,37.4114304,-122.0782424,-14.675865794181822,13.894813,0.1,180.84158,1640722854999
Fix,GT,37.4113121,-122.0782486,-15.01989139521122,12.355217,0.1,184.4154,1640722855999
Fix,GT,37.4112071,-122.07827,-15.458847137212752,11.330746,0.1,193.22618,1640722856999
Fix,GT,37.4111139,-122.0783134,-16.08786761206389,10.865975,0.1,205.42096,1640722857999
Fix,GT,37.411034,-122.0783831,-16.906763328194618,10.830088,0.1,219.74597,1640722858999
Fix,GT,37.4109719,-122.0784773,-17.750768089473247,10.828135,0.1,236.61752,1640722859999
Fix,GT,37.4109372,-122.0785929,-18.83274414718151,11.124042,0.1,256.3946,1640722860999
Fix,GT,37.4109376,-122.0787198,-19.894717505455016,11.42981,0.1,277.14276,1640722861999
Fix,GT,37.4109704,-122.0788436,-20.84181655120849,11.689451,0.1,293.60583,1640722862999
Fix,GT,37.4110292,-122.0789537,-21.5108424577713,11.779258,0.1,308.95587,1640722863999
Fix,GT,37.4111091,-122.0790439,-22.02787899005413,12.146221,0.1,322.5054,1640722864999
Fix,GT,37.411207,-122.0791089,-22.331986821711062,12.35147,0.1,337.04373,1640722865999
Fix,GT,37.4113147,-122.0791428,-22.6089181393981,12.242444,0.1,350.64227,1640722866999
Fix,GT,37.411424,-122.0791393,-22.927917986035347,12.066597,0.1,7.7261353,1640722867999
Fix,GT,37.4115251,-122.0790932,-23.239920483231543,11.82318,0.1,26.69571,1640722868999
Fix,GT,37.4116075,-122.0790111,-23.26694954311848,11.684428,0.1,43.829895,1640722869999
Fix,GT,37.4116697,-122.0789028,-23.44496009141207,11.921166,0.1,58.760193,1640722870999
Fix,GT,37.4117082,-122.0787778,-23.441010662078856,11.837416,0.1,73.920715,1640722871999
Fix,GT,37.4117187,-122.0786439,-23.339026704669,12.032841,0.1,89.44934,1640722872999
Fix,GT,37.4117009,-122.0785074,-23.25701605248452,12.49138,0.1,103.91995,1640722873999
Fix,GT,37.4116577,-122.0783715,-23.11905092799664,13.514805,0.1,114.197266,1640722874999
Fix,GT,37.411602,-122.0782278,-23.07402685427666,14.749731,0.1,115.793884,1640722875999
Fix,GT,37.4115377,-122.0780738,-23.02403228449821,16.041443,0.1,117.766754,1640722876999
Fix,GT,37.4114648,-122.0779091,-22.940029649198056,17.291399,0.1,119.41138,1640722877999
Fix,GT,37.4113813,-122.0777362,-22.852002700328825,18.446898,0.1,121.86691,1640722878999
Fix,GT,37.4112885,-122.0775573,-22.65304869496822,19.352068,0.1,122.720245,1640722879999
Fix,GT,37.4111937,-122.077369,-22.52308130669594,20.052702,0.1,121.26535,1640722880999
Fix,GT,37.4110997,-122.0771716,-22.3400380140543,20.6455,0.1,120.11554,1640722881999
Fix,GT,37.4110056,-122.0769664,-22.147035362303257,21.19766,0.1,119.1835,1640722882999
Fix,GT,37.4109115,-122.0767544,-21.976040877759456,21.744537,0.1,118.510864,1640722883999
Fix,GT,37.4108178,-122.0765352,-21.81104095196724,22.26046,0.1,117.43295,1640722884999
Fix,GT,37.4107247,-122.0763099,-21.376172313690187,22.64018,0.1,116.895294,1640722885999
Fix,GT,37.4106308,-122.076081,-20.738197286129,22.904572,0.1,116.951965,1640722886999
Fix,GT,37.4105365,-122.0758498,-19.80924430787564,23.076145,0.1,116.64569,1640722887999
Fix,GT,37.4104426,-122.0756166,-18.7892777479291,23.16839,0.1,116.44623,1640722888999
Fix,GT,37.4103483,-122.0753829,-17.617319578409194,23.180435,0.1,116.77432,1640722889999
Fix,GT,37.4102525,-122.0751503,-16.444339471817013,23.193916,0.1,117.21756,1640722890999
Fix,GT,37.4101559,-122.0749187,-15.424223955333233,22.94261,0.1,117.66031,1640722891999
Fix,GT,37.4100582,-122.0746939,-14.496232675552369,22.39604,0.1,118.8819,1640722892999
Fix,GT,37.4099597,-122.0744764,-13.66124696558714,21.901169,0.1,119.81241,1640722893999
Fix,GT,37.4098624,-122.074264,-12.928186249375344,21.448612,0.1,119.39072,1640722894999
Fix,GT,37.4097722,-122.0740526,-12.330200504779816,21.070269,0.1,116.9317,1640722895999
Fix,GT,37.4096909,-122.0738373,-11.834111589431762,21.14231,0.1,113.86505,1640722896999
Fix,GT,37.4096197,-122.0736146,-11.508025152683256,21.389685,0.1,110.35614,1640722897999
Fix,GT,37.409557,-122.0733845,-11.322041995346543,21.681206,0.1,107.43646,1640722898999
Fix,GT,37.4095002,-122.0731484,-11.270036460280418,21.95875,0.1,106.10895,1640722899999
Fix,GT,37.4094436,-122.0729117,-11.343969094574453,21.755375,0.1,107.137115,1640722900999
Fix,GT,37.4093803,-122.0726808,-11.5239352671504,21.47954,0.1,110.22403,1640722901999
Fix,GT,37.4093053,-122.0724565,-11.752915417432783,21.619564,0.1,114.61435,1640722902999
Fix,GT,37.4092172,-122.0722364,-12.062878549695016,21.988274,0.1,117.75879,1640722903999
Fix,GT,37.4091214,-122.0720163,-12.46686136072874,22.444525,0.1,118.914764,1640722904999
Fix,GT,37.4090216,-122.0717922,-13.09781010055542,23.011982,0.1,119.03693,1640722905999
Fix,GT,37.4089199,-122.071563,-13.857789894223211,23.365602,0.1,119.02493,1640722906999
Fix,GT,37.4088175,-122.0713321,-14.661755402684213,23.385672,0.1,118.83298,1640722907999
Fix,GT,37.4087163,-122.0711008,-15.47578346824646,23.310228,0.1,118.772095,1640722908999
Fix,GT,37.408616,-122.07087,-16.318780233621595,23.215578,0.1,118.32645,1640722909999
Fix,GT,37.4085174,-122.0706393,-17.125799866080285,23.161919,0.1,117.887085,1640722910999
Fix,GT,37.4084236,-122.0704045,-17.764871119856835,23.393482,0.1,114.88159,1640722911999
Fix,GT,37.4083424,-122.0701588,-18.30480778032541,23.730246,0.1,110.707214,1640722912999
Fix,GT,37.4082715,-122.0699038,-18.74483906173706,24.105978,0.1,108.109344,1640722913999
Fix,GT,37.4082053,-122.069642,-19.13088484382629,24.515837,0.1,107.32416,1640722914999
Fix,GT,37.4081388,-122.0693758,-19.158040372252465,24.872808,0.1,107.2677,1640722915999
Fix,GT,37.4080716,-122.069106,-19.070014443695545,25.159748,0.1,107.233765,1640722916999
Fix,GT,37.4080037,-122.068834,-18.905130213201044,25.246246,0.1,107.319824,1640722917999
Fix,GT,37.4079359,-122.068562,-18.88602898573876,25.244844,0.1,107.25986,1640722918999
Fix,GT,37.4078702,-122.0682886,-18.902005807042123,25.31863,0.1,105.91611,1640722919999
Fix,GT,37.4078113,-122.068012,-18.91099127459526,25.303864,0.1,104.25531,1640722920999
Fix,GT,37.4077571,-122.067736,-18.98197960650921,25.071543,0.1,103.332825,1640722921999
Fix,GT,37.407704,-122.06746,-19.10296206206084,25.221148,0.1,103.898895,1640722922999
Fix,GT,37.407648,-122.0671826,-19.234921073853968,25.451971,0.1,104.477234,1640722923999
Fix,GT,37.4075889,-122.0669035,-19.430994143724444,25.662693,0.1,104.94507,1640722924999
Fix,GT,37.4075283,-122.066623,-19.407026398301124,25.77426,0.1,105.17224,1640722925999
Fix,GT,37.4074666,-122.0663419,-19.37996474432945,25.843365,0.1,105.33423,1640722926999
Fix,GT,37.4074051,-122.06606,-19.35900882893801,25.916786,0.1,105.1174,1640722927999
Fix,GT,37.4073433,-122.0657774,-19.29303242653608,25.963549,0.1,105.21384,1640722928999
Fix,GT,37.4072818,-122.0654942,-19.1459970471859,26.03157,0.1,105.084595,1640722929999
Fix,GT,37.4072208,-122.0652098,-19.10806211298704,26.102978,0.1,105.02933,1640722930999
Fix,GT,37.4071591,-122.064925,-19.069014813244344,26.14701,0.1,105.18417,1640722931999
Fix,GT,37.4070966,-122.0646395,-19.06105044811964,26.291935,0.1,105.285645,1640722932999
Fix,GT,37.4070332,-122.0643523,-19.03502972483635,26.453735,0.1,105.44537,1640722933999
Fix,GT,37.4069698,-122.0640633,-18.99001190972328,26.625505,0.1,105.23987,1640722934999
Fix,GT,37.4069067,-122.063773,-18.989005964636803,26.623938,0.1,105.12341,1640722935999
Fix,GT,37.406844,-122.0634829,-18.982985063672064,26.600613,0.1,105.00513,1640722936999
Fix,GT,37.4067816,-122.0631925,-19.02299700784683,26.657736,0.1,105.03851,1640722937999
Fix,GT,37.406719,-122.0629014,-19.07296703189612,26.734802,0.1,104.98822,1640722938999
Fix,GT,37.4066559,-122.0626095,-19.09202401590348,26.80155,0.1,105.24271,1640722939999
Fix,GT,37.406592,-122.0623173,-19.09400300687552,26.857393,0.1,105.27902,1640722940999
Fix,GT,37.4065281,-122.0620244,-19.1319849408865,26.91189,0.1,105.10196,1640722941999
Fix,GT,37.4064641,-122.0617309,-19.137966816186907,26.966015,0.1,105.30539,1640722942999
Fix,GT,37.4063993,-122.0614369,-19.172990935027595,27.027847,0.1,105.35953,1640722943999
Fix,GT,37.4063344,-122.0611425,-19.171,27.077896,0.1,105.458984,1640722944999
Fix,GT,37.4062689,-122.0608474,-19.152006062984466,27.144289,0.1,105.33624,1640722945999
Fix,GT,37.4062046,-122.0605514,-19.12600607275963,27.191471,0.1,105.028625,1640722946999
Fix,GT,37.4061409,-122.0602544,-19.06903041267395,27.259216,0.1,104.86627,1640722947999
Fix,GT,37.4060771,-122.0599566,-19.0659695378542,27.338568,0.1,105.041016,1640722948999
Fix,GT,37.4060124,-122.0596583,-19.05199389779568,27.379084,0.1,105.13199,1640722949999
Fix,GT,37.4059472,-122.0593597,-19.035009167969225,27.427994,0.1,105.330414,1640722950999
Fix,GT,37.4058817,-122.0590608,-18.997009182810785,27.464006,0.1,105.17996,1640722951999
Fix,GT,37.4058164,-122.0587612,-19.03099693417549,27.535215,0.1,105.27133,1640722952999
Fix,GT,37.4057503,-122.0584612,-19.032987717151645,27.576271,0.1,105.29605,1640722953999
Fix,GT,37.4056843,-122.0581607,-19.06299077302217,27.613266,0.1,105.39731,1640722954999
Fix,GT,37.4056175,-122.0578599,-19.093003080546858,27.657663,0.1,105.429504,1640722955999
Fix,GT,37.4055512,-122.0575587,-19.08199074369669,27.690578,0.1,105.25339,1640722956999
Fix,GT,37.4054852,-122.0572567,-19.11898763871193,27.767027,0.1,105.158325,1640722957999
Fix,GT,37.4054196,-122.0569537,-19.11703095269204,27.833788,0.1,105.22867,1640722958999
Fix,GT,37.4053531,-122.0566502,-19.13899069952965,27.889284,0.1,105.3443,1640722959999
Fix,GT,37.4052858,-122.0563464,-19.184996894955635,27.950527,0.1,105.61624,1640722960999
Fix,GT,37.4052162,-122.0560428,-19.17401865959168,27.980618,0.1,106.349,1640722961999
Fix,GT,37.4051433,-122.0557401,-19.178968851208687,28.01197,0.1,107.136505,1640722962999
Fix,GT,37.4050675,-122.0554381,-19.20196880233288,28.034775,0.1,107.68198,1640722963999
Fix,GT,37.4049893,-122.055137,-19.07902812188864,28.012314,0.1,108.203064,1640722964999
Fix,GT,37.4049091,-122.0548384,-18.99402503633499,27.757345,0.1,108.85983,1640722965999
Fix,GT,37.4048269,-122.0545432,-19.06391537040472,27.597647,0.1,109.45166,1640722966999
Fix,GT,37.4047445,-122.0542497,-18.70613813257217,27.527456,0.1,109.26355,1640722967999
Fix,GT,37.4046621,-122.0539562,-18.12822009849549,27.57341,0.1,109.25342,1640722968999
Fix,GT,37.4045797,-122.0536619,-17.347296014666558,27.655668,0.1,109.20096,1640722969999
Fix,GT,37.404497,-122.0533665,-16.3483343218565,27.778015,0.1,109.22931,1640722970999
Fix,GT,37.4044141,-122.05307,-15.265322204470634,27.859098,0.1,109.25885,1640722971999
Fix,GT,37.4043313,-122.0527718,-14.254310047984122,28.06308,0.1,108.9079,1640722972999
Fix,GT,37.4042493,-122.0524701,-13.460221804976465,28.385479,0.1,108.59433,1640722973999
Fix,GT,37.4041677,-122.0521644,-12.876158679485322,28.69443,0.1,108.18747,1640722974999
Fix,GT,37.4040875,-122.0518546,-12.42409535253048,28.926308,0.1,107.68561,1640722975999
Fix,GT,37.4040085,-122.0515431,-11.996111417770386,28.964073,0.1,107.402466,1640722976999
Fix,GT,37.4039314,-122.0512304,-11.932955364465714,28.984682,0.1,106.8403,1640722977999
Fix,GT,37.4038566,-122.0509166,-12.069964875459672,29.041552,0.1,106.38739,1640722978999
Fix,GT,37.4037829,-122.0506013,-12.439897663116454,29.16033,0.1,105.95749,1640722979999
Fix,GT,37.4037113,-122.0502834,-12.926814234375954,29.312607,0.1,105.430115,1640722980999
Fix,GT,37.403641,-122.0499638,-13.736708095371725,29.413084,0.1,105.16058,1640722981999
Fix,GT,37.4035713,-122.0496427,-14.642704437971116,29.501856,0.1,105.18921,1640722982999
Fix,GT,37.4035009,-122.049321,-15.61066537809372,29.566141,0.1,105.16632,1640722983999
Fix,GT,37.4034304,-122.0489986,-16.71261653369665,29.631649,0.1,105.30124,1640722984999
Fix,GT,37.4033597,-122.0486755,-17.808677270650865,29.68674,0.1,105.103424,1640722985999
Fix,GT,37.403289,-122.048352,-18.713764050781727,29.713196,0.1,105.28775,1640722986999
Fix,GT,37.4032177,-122.0480286,-19.35085756897926,29.671303,0.1,105.31201,1640722987999
Fix,GT,37.4031465,-122.0477064,-19.703935162067413,29.513607,0.1,105.34946,1640722988999
Fix,GT,37.4030764,-122.0473862,-19.83896103858948,29.290142,0.1,105.19751,1640722989999
Fix,GT,37.4030071,-122.047068,-19.809035768389705,29.12135,0.1,105.10574,1640722990999
Fix,GT,37.4029381,-122.0467513,-19.72599348688125,29.04196,0.1,105.24866,1640722991999
Fix,GT,37.4028687,-122.0464353,-19.687022830128672,28.994772,0.1,105.29886,1640722992999
Fix,GT,37.402799,-122.0461199,-19.6620097990036,28.952888,0.1,105.36035,1640722993999
Fix,GT,37.4027301,-122.0458048,-19.609016356110573,28.908552,0.1,105.15814,1640722994999
Fix,GT,37.402662,-122.045491,-19.56700327610969,28.647291,0.1,104.97281,1640722995999
Fix,GT,37.4025951,-122.0451807,-19.52601968562603,28.277699,0.1,104.976135,1640722996999
Fix,GT,37.4025291,-122.0448743,-19.501993428468705,27.91032,0.1,105.09799,1640722997999
Fix,GT,37.4024634,-122.0445722,-19.50499341869354,27.537458,0.1,105.08472,1640722998999
Fix,GT,37.4023986,-122.0442741,-19.5,27.173805,0.1,105.23602,1640722999999
Fix,GT,37.4023342,-122.0439802,-19.51297359657288,26.813007,0.1,105.17163,1640723000999
Fix,GT,37.402271,-122.04369,-19.520013221025465,26.455088,0.1,105.15726,1640723001999
Fix,GT,37.4022082,-122.0434037,-19.537993379712105,26.120752,0.1,105.214386,1640723002999
Fix,GT,37.4021462,-122.043121,-19.55598342484236,25.795961,0.1,105.26428,1640723003999
Fix,GT,37.402085,-122.0428418,-19.59698008084297,25.482615,0.1,105.210144,1640723004999
Fix,GT,37.4020248,-122.0425659,-19.648980051517487,25.173506,0.1,105.10388,1640723005999
Fix,GT,37.4019654,-122.0422932,-19.71898002254963,24.884457,0.1,105.19565,1640723006999
Fix,GT,37.4019063,-122.0420237,-19.797986662149427,24.634527,0.1,105.26166,1640723007999
Fix,GT,37.4018474,-122.0417562,-19.85296660649777,24.524555,0.1,105.31607,1640723008999
Fix,GT,37.4017888,-122.0414893,-19.947976590752603,24.504274,0.1,105.22046,1640723009999
Fix,GT,37.4017305,-122.0412225,-20.01896316027641,24.482384,0.1,105.10376,1640723010999
Fix,GT,37.4016726,-122.0409559,-20.077,24.453608,0.1,105.201965,1640723011999
Fix,GT,37.4016141,-122.0406896,-20.06801343488693,24.45013,0.1,105.29434,1640723012999
Fix,GT,37.4015562,-122.0404246,-20.050006727218623,24.197912,0.1,105.088165,1640723013999
Fix,GT,37.4014995,-122.0401626,-20.00800673699379,23.85207,0.1,105.05597,1640723014999
Fix,GT,37.4014433,-122.0399047,-19.981050600767137,23.461061,0.1,105.237366,1640723015999
Fix,GT,37.4013878,-122.039651,-19.95402364748717,23.160492,0.1,105.240234,1640723016999
Fix,GT,37.4013327,-122.0393992,-19.91201691520214,23.100922,0.1,105.19824,1640723017999
Fix,GT,37.4012782,-122.0391476,-19.88500677585602,23.073397,0.1,104.98758,1640723018999
Fix,GT,37.4012237,-122.0388963,-19.842,23.06513,0.1,105.115204,1640723019999
Fix,GT,37.4011691,-122.0386454,-19.829993204593656,22.96213,0.1,105.226685,1640723020999
Fix,GT,37.4011147,-122.0383961,-19.812006805062296,22.805208,0.1,105.175476,1640723021999
Fix,GT,37.4010606,-122.0381491,-19.814,22.536728,0.1,105.313324,1640723022999
Fix,GT,37.401007,-122.0379056,-19.81200682449341,22.221802,0.1,105.37137,1640723023999
Fix,GT,37.4009537,-122.0376652,-19.881955577254296,22.03556,0.1,105.4509,1640723024999
Fix,GT,37.4009003,-122.0374256,-19.938023953318595,22.029133,0.1,105.59,1640723025999
Fix,GT,37.4008461,-122.0371872,-20.00498629283905,21.844059,0.1,106.282715,1640723026999
Fix,GT,37.4007885,-122.0369528,-20.08293136644363,21.577114,0.1,107.68292,1640723027999
Fix,GT,37.4007288,-122.0367228,-20.20094501590729,21.300652,0.1,107.91928,1640723028999
Fix,GT,37.4006707,-122.0364953,-20.32495182132721,21.02845,0.1,107.40408,1640723029999
Fix,GT,37.4006165,-122.0362702,-20.44493796908856,20.540245,0.1,106.11633,1640723030999
Fix,GT,37.4005679,-122.0360532,-20.51496548950672,19.285097,0.1,105.27716,1640723031999
Fix,GT,37.4005242,-122.0358523,-20.58896544063091,17.526447,0.1,105.38852,1640723032999
Fix,GT,37.4004809,-122.0356738,-20.66495501083136,15.476913,0.1,108.88962,1640723033999
Fix,GT,37.4004289,-122.0355207,-20.81988216984272,14.174374,0.1,116.347534,1640723034999
Fix,GT,37.4003622,-122.0353866,-20.95089935606718,13.816752,0.1,125.92908,1640723035999
Fix,GT,37.4002759,-122.0352773,-20.944020851850507,13.432049,0.1,141.21405,1640723036999
Fix,GT,37.4001704,-122.035207,-20.833034801363944,13.147301,0.1,158.6394,1640723037999
Fix,GT,37.4000542,-122.035182,-20.699076669216154,13.075127,0.1,177.4237,1640723038999
Fix,GT,37.3999379,-122.0352051,-20.626975571036336,13.094294,0.1,195.36195,1640723039999
Fix,GT,37.3998317,-122.0352683,-20.45606640005112,13.038522,0.1,211.31715,1640723040999
Fix,GT,37.39974,-122.0353601,-20.31903849458694,12.956474,0.1,222.05031,1640723041999
Fix,GT,37.3996609,-122.035466,-20.22406658351421,12.794623,0.1,229.92352,1640723042999
Fix,GT,37.3995921,-122.0355842,-20.10005965679884,13.14343,0.1,236.50587,1640723043999
Fix,GT,37.3995336,-122.0357148,-19.894073795080185,13.426374,0.1,243.58102,1640723044999
Fix,GT,37.399488,-122.0358555,-19.56513020074368,13.537775,0.1,251.05496,1640723045999
Fix,GT,37.3994585,-122.0360036,-19.12414799821377,13.503081,0.1,259.35284,1640723046999
Fix,GT,37.3994477,-122.0361544,-18.65916584676504,13.279425,0.1,269.19482,1640723047999
Fix,GT,37.3994644,-122.0362992,-18.145201411902903,12.630811,0.1,285.012,1640723048999
Fix,GT,37.3995107,-122.0364243,-17.597169838905334,11.83649,0.1,300.95895,1640723049999
Fix,GT,37.399578,-122.0365237,-17.08215944391489,11.322088,0.1,315.95328,1640723050999
Fix,GT,37.3996624,-122.0365956,-16.609149017095568,11.441147,0.1,331.36813,1640723051999
Fix,GT,37.3997604,-122.0366373,-16.149145667016505,11.454167,0.1,347.00443,1640723052999
Fix,GT,37.399863,-122.0366434,-15.772099616765976,11.354679,0.1,2.7261963,1640723053999
Fix,GT,37.3999625,-122.0366143,-15.458074813961984,11.372509,0.1,18.595215,1640723054999
Fix,GT,37.4000524,-122.0365507,-15.16510702371597,11.601116,0.1,34.789642,1640723055999
Fix,GT,37.4001303,-122.0364569,-14.934064300060273,12.407525,0.1,47.87497,1640723056999
Fix,GT,37.4002002,-122.0363404,-14.571143084526062,13.351158,0.1,53.978424,1640723057999
Fix,GT,37.4002713,-122.0362117,-14.323114622116089,14.38,0.1,55.101257,1640723058999
Fix,GT,37.4003453,-122.0360692,-14.048086083889007,15.739529,0.1,57.806946,1640723059999
Fix,GT,37.4004204,-122.0359093,-13.85706824147701,17.126926,0.1,60.02185,1640723060999
Fix,GT,37.4004977,-122.0357324,-13.747,18.611609,0.1,61.374084,1640723061999
Fix,GT,37.40058,-122.0355397,-13.729,20.09005,0.1,61.17035,1640723062999
Fix,GT,37.4006711,-122.0353341,-13.814956726312635,21.506645,0.1,60.212524,1640723063999
Fix,GT,37.4007693,-122.0351179,-13.959963890314103,22.567743,0.1,60.03302,1640723064999
Fix,GT,37.4008688,-122.0348899,-14.213891524314882,23.432728,0.1,61.981476,1640723065999
Fix,GT,37.4009643,-122.0346494,-14.6198370718956,24.145454,0.1,64.25714,1640723066999
Fix,GT,37.401056,-122.0343987,-15.1487643455863,24.600832,0.1,65.660736,1640723067999
Fix,GT,37.4011451,-122.0341429,-15.78673498517275,24.82845,0.1,66.54642,1640723068999
Fix,GT,37.4012318,-122.0338828,-16.610694640874865,25.099651,0.1,67.50171,1640723069999
Fix,GT,37.4013171,-122.0336184,-17.50061052042246,25.404863,0.1,67.92737,1640723070999
Fix,GT,37.4014017,-122.0333497,-18.50061728721857,25.761494,0.1,68.61322,1640723071999
Fix,GT,37.401484,-122.0330754,-19.362700728535653,26.11392,0.1,69.541595,1640723072999
Fix,GT,37.4015639,-122.0327963,-20.023791691243648,26.363575,0.1,70.43515,1640723073999
Fix,GT,37.4016411,-122.0325138,-20.45786460340023,26.488615,0.1,71.17145,1640723074999
Fix,GT,37.4017159,-122.0322288,-20.67393770766258,26.68469,0.1,71.89572,1640723075999
Fix,GT,37.4017886,-122.0319401,-20.84391194343567,26.937962,0.1,72.48605,1640723076999
Fix,GT,37.4018606,-122.0316481,-21.02095223915577,27.180859,0.1,72.41626,1640723077999
Fix,GT,37.4019341,-122.031354,-21.18391538900137,27.410397,0.1,72.29941,1640723078999
Fix,GT,37.4020087,-122.0310575,-21.43788212776184,27.664267,0.1,72.25296,1640723079999
Fix,GT,37.4020837,-122.0307582,-21.657940985679627,27.897966,0.1,72.411224,1640723080999
Fix,GT,37.4021589,-122.0304562,-21.828963067770005,28.136667,0.1,72.415436,1640723081999
Fix,GT,37.4022348,-122.0301517,-22.004937133133414,28.355114,0.1,72.500305,1640723082999
Fix,GT,37.4023109,-122.0298448,-22.18194815969467,28.5652,0.1,72.49698,1640723083999
Fix,GT,37.402388,-122.0295358,-22.28998887687921,28.763575,0.1,72.2771,1640723084999
Fix,GT,37.4024662,-122.0292253,-22.22811508858204,28.869251,0.1,72.228455,1640723085999
Fix,GT,37.4025446,-122.028914,-21.883237911224366,28.91473,0.1,72.2623,1640723086999
Fix,GT,37.4026223,-122.0286025,-21.219260549187663,28.874458,0.1,72.47208,1640723087999
Fix,GT,37.4026994,-122.0282917,-20.34034661275148,28.750679,0.1,72.56287,1640723088999
Fix,GT,37.4027758,-122.0279824,-19.39135452544689,28.600061,0.1,72.661896,1640723089999
Fix,GT,37.4028501,-122.0276747,-18.676220460295674,28.295591,0.1,73.180176,1640723090999
Fix,GT,37.4029212,-122.0273692,-18.026217007160184,28.04775,0.1,73.90405,1640723091999
Fix,GT,37.4029883,-122.0270647,-17.57315359956026,27.895576,0.1,74.83298,1640723092999
Fix,GT,37.4030524,-122.0267602,-17.348086278021334,27.872702,0.1,75.322876,1640723093999
Fix,GT,37.4031134,-122.0264547,-17.256,27.914787,0.1,76.11331,1640723094999
Fix,GT,37.4031715,-122.0261474,-17.32290597963333,28.00165,0.1,76.848724,1640723095999
Fix,GT,37.4032269,-122.025838,-17.560883263230323,28.152,0.1,77.50162,1640723096999
Fix,GT,37.4032797,-122.0255257,-18.0378039355278,28.369051,0.1,78.15567,1640723097999
Fix,GT,37.4033305,-122.0252104,-18.537796130657195,28.562092,0.1,78.59546,1640723098999
Fix,GT,37.4033802,-122.0248931,-19.262697585105897,28.705769,0.1,78.67255,1640723099999
Fix,GT,37.4034309,-122.0245741,-20.12163664436341,28.872383,0.1,78.54257,1640723100999
Fix,GT,37.4034815,-122.0242531,-21.19256417500973,29.082567,0.1,78.60782,1640723101999
Fix,GT,37.4035331,-122.0239296,-22.16562053894997,29.337921,0.1,78.38367,1640723102999
Fix,GT,37.4035868,-122.023604,-23.1226428527832,29.507748,0.1,77.927765,1640723103999
Fix,GT,37.4036437,-122.0232778,-23.79076793974638,29.617928,0.1,76.991455,1640723104999
Fix,GT,37.4037058,-122.0229523,-24.30285144531727,29.643658,0.1,76.13489,1640723105999
Fix,GT,37.4037701,-122.0226273,-24.513946605086325,29.619925,0.1,75.81592,1640723106999
Fix,GT,37.4038353,-122.0223032,-24.604984725236893,29.571333,0.1,75.58295,1640723107999
Fix,GT,37.4039011,-122.0219798,-24.80491588258744,29.524612,0.1,75.39554,1640723108999
Fix,GT,37.403967,-122.0216571,-25.06291194665432,29.447123,0.1,75.27881,1640723109999
Fix,GT,37.4040342,-122.0213359,-25.21391567015648,29.376915,0.1,74.86859,1640723110999
Fix,GT,37.4041026,-122.021016,-25.28199616199732,29.2707,0.1,74.44812,1640723111999
Fix,GT,37.4041729,-122.0206982,-25.24699615710973,29.151281,0.1,74.26712,1640723112999
Fix,GT,37.4042439,-122.0203816,-25.374934589803217,29.059645,0.1,73.83862,1640723113999
Fix,GT,37.4043162,-122.0200669,-25.48296147513389,28.93795,0.1,73.7663,1640723114999
Fix,GT,37.404388,-122.0197532,-25.56596142745018,28.88141,0.1,73.68207,1640723115999
Fix,GT,37.4044602,-122.0194397,-25.635988413751125,28.933521,0.1,73.67816,1640723116999
Fix,GT,37.4045324,-122.019126,-25.589988399088384,28.808495,0.1,73.8356,1640723117999
Fix,GT,37.4046034,-122.018815,-25.644,28.45829,0.1,73.75427,1640723118999
Fix,GT,37.4046738,-122.0185082,-25.618003876566885,28.06018,0.1,73.74985,1640723119999
Fix,GT,37.4047431,-122.0182057,-25.665988355994227,27.65527,0.1,73.85507,1640723120999
Fix,GT,37.4048107,-122.0179075,-25.77699611377716,27.259027,0.1,73.94437,1640723121999
Fix,GT,37.4048778,-122.0176134,-25.86498443579673,26.924463,0.1,73.70401,1640723122999
Fix,GT,37.4049447,-122.0173231,-25.95996493762732,26.59226,0.1,73.63989,1640723123999
Fix,GT,37.4050122,-122.0170368,-26.05498829805851,26.308422,0.1,72.79797,1640723124999
Fix,GT,37.4050825,-122.0167531,-26.101964851260185,26.324541,0.1,72.386475,1640723125999
Fix,GT,37.4051539,-122.0164692,-26.146980448782443,26.392445,0.1,72.10791,1640723126999
Fix,GT,37.4052255,-122.0161845,-26.15698433995247,26.454412,0.1,72.479126,1640723127999
Fix,GT,37.4052946,-122.0158983,-26.188015679359435,26.505833,0.1,73.074554,1640723128999
Fix,GT,37.4053622,-122.0156113,-26.24794505465031,26.494509,0.1,73.35156,1640723129999
Fix,GT,37.4054292,-122.0153241,-26.305976423025133,26.512634,0.1,73.48248,1640723130999
Fix,GT,37.4054957,-122.0150359,-26.33601573729515,26.675344,0.1,73.45773,1640723131999
Fix,GT,37.4055632,-122.0147455,-26.3700196954608,26.896757,0.1,73.55786,1640723132999
Fix,GT,37.4056309,-122.0144524,-26.43495661687851,27.149557,0.1,73.61719,1640723133999
Fix,GT,37.405699,-122.0141565,-26.46299605125189,27.376,0.1,73.69873,1640723134999
Fix,GT,37.4057671,-122.0138584,-26.53199604648352,27.524822,0.1,73.712524,1640723135999
Fix,GT,37.4058359,-122.013559,-26.592964374899864,27.65044,0.1,73.67377,1640723136999
Fix,GT,37.405905,-122.0132583,-26.629,27.772387,0.1,73.72879,1640723137999
Fix,GT,37.4059742,-122.012956,-26.68296428853273,27.90845,0.1,73.803406,1640723138999
Fix,GT,37.4060432,-122.0126522,-26.74098410916329,28.059383,0.1,73.826294,1640723139999
Fix,GT,37.4061132,-122.0123462,-26.800920449256893,28.331182,0.1,73.73053,1640723140999
Fix,GT,37.4061845,-122.0120373,-26.882011947274208,28.58352,0.1,73.53601,1640723141999
Fix,GT,37.406257,-122.0117258,-26.967980064332483,28.879032,0.1,73.585754,1640723142999
Fix,GT,37.4063297,-122.011411,-27.00697205668688,29.148127,0.1,73.732056,1640723143999
Fix,GT,37.4064022,-122.0110935,-27.109960032105445,29.310925,0.1,73.8291,1640723144999
Fix,GT,37.406475,-122.0107746,-27.20196398544312,29.421614,0.1,73.88165,1640723145999
Fix,GT,37.4065477,-122.0104544,-27.329931891441344,29.54017,0.1,73.97046,1640723146999
Fix,GT,37.4066205,-122.0101327,-27.506895708441736,29.661455,0.1,73.9906,1640723147999
Fix,GT,37.4066937,-122.0098097,-27.682955824196338,29.778769,0.1,73.87897,1640723148999
Fix,GT,37.4067678,-122.0094859,-27.75098793756962,29.877657,0.1,73.7529,1640723149999
Fix,GT,37.4068418,-122.0091611,-27.693016102314,29.918211,0.1,73.834625,1640723150999
Fix,GT,37.4069157,-122.0088359,-27.60207254731655,29.941505,0.1,73.92609,1640723151999
Fix,GT,37.406989,-122.0085105,-27.3690685979724,29.91481,0.1,73.986694,1640723152999
Fix,GT,37.4070626,-122.0081855,-27.13005656003952,29.920424,0.1,73.81882,1640723153999
Fix,GT,37.4071367,-122.0078605,-26.95108089542389,29.911407,0.1,73.84604,1640723154999
Fix,GT,37.4072109,-122.0075359,-26.749085041582585,29.899548,0.1,73.78998,1640723155999
Fix,GT,37.4072849,-122.007211,-26.55110541510582,29.891592,0.1,73.85275,1640723156999
Fix,GT,37.4073586,-122.0068861,-26.40504871034622,29.914612,0.1,74.03961,1640723157999
Fix,GT,37.4074318,-122.0065603,-26.309,30.045074,0.1,74.04645,1640723158999
Fix,GT,37.4075049,-122.0062325,-26.372983724832537,30.234179,0.1,74.25223,1640723159999
Fix,GT,37.4075776,-122.0059022,-26.404942969322207,30.437857,0.1,74.41968,1640723160999
Fix,GT,37.4076502,-122.0055692,-26.64488580513,30.667639,0.1,74.49872,1640723161999
Fix,GT,37.407723,-122.0052336,-26.95586934089661,30.920807,0.1,74.58014,1640723162999
Fix,GT,37.4077967,-122.0048952,-27.309889626026152,31.19847,0.1,74.41904,1640723163999
Fix,GT,37.4078714,-122.0045539,-27.621922238826752,31.431755,0.1,74.45453,1640723164999
Fix,GT,37.4079465,-122.0042105,-27.86690165948868,31.630716,0.1,74.39569,1640723165999
Fix,GT,37.4080224,-122.003865,-28.07191795301437,31.830421,0.1,74.36029,1640723166999
Fix,GT,37.4080987,-122.0035172,-28.177950714588167,31.992462,0.1,74.44507,1640723167999
Fix,GT,37.4081747,-122.0031687,-28.233979440867905,31.961765,0.1,74.50598,1640723168999
Fix,GT,37.4082501,-122.0028205,-28.253983533382417,31.926365,0.1,74.63776,1640723169999
Fix,GT,37.4083249,-122.0024723,-28.28398763573169,31.927097,0.1,74.66052,1640723170999
Fix,GT,37.4083998,-122.0021241,-28.31799174749852,31.931387,0.1,74.612976,1640723171999
Fix,GT,37.4084752,-122.0017758,-28.37096695184708,31.956038,0.1,74.56125,1640723172999
Fix,GT,37.4085509,-122.0014274,-28.38901654338837,31.968504,0.1,74.43808,1640723173999
Fix,GT,37.4086271,-122.0010791,-28.429995859384537,31.98725,0.1,74.53543,1640723174999
Fix,GT,37.4087027,-122.0007304,-28.464995854616166,31.990347,0.1,74.460236,1640723175999
Fix,GT,37.4087792,-122.000382,-28.49996679878235,31.995052,0.1,74.30893,1640723176999
Fix,GT,37.4088558,-122.0000336,-28.524983380079263,32.002674,0.1,74.37689,1640723177999
Fix,GT,37.408932,-121.9996847,-28.56697088176012,32.025414,0.1,74.54385,1640723178999
Fix,GT,37.4090078,-121.9993358,-28.589,32.001408,0.1,74.47998,1640723179999
Fix,GT,37.4090834,-121.9989873,-28.64294579929113,31.947285,0.1,74.720215,1640723180999
Fix,GT,37.4091578,-121.9986395,-28.700979129731657,31.79613,0.1,74.7489,1640723181999
Fix,GT,37.4092317,-121.9982934,-28.730020894408227,31.641363,0.1,74.78955,1640723182999
Fix,GT,37.4093056,-121.9979488,-28.71801673483849,31.546152,0.1,74.511505,1640723183999
Fix,GT,37.4093807,-121.9976056,-28.73897068065405,31.479614,0.1,74.36926,1640723184999
Fix,GT,37.4094559,-121.9972631,-28.723987420439723,31.417215,0.1,74.32617,1640723185999
Fix,GT,37.409531,-121.9969213,-28.74498320794105,31.339872,0.1,74.42734,1640723186999
Fix,GT,37.4096056,-121.9965802,-28.807983188867567,31.296087,0.1,74.4245,1640723187999
Fix,GT,37.4096802,-121.9962385,-28.79797475433349,31.48702,0.1,74.397156,1640723188999
Fix,GT,37.4097556,-121.9958943,-28.83595366448164,31.679447,0.1,74.4491,1640723189999
Fix,GT,37.4098307,-121.9955488,-28.84301686859131,31.725578,0.1,74.67859,1640723190999
Fix,GT,37.4099051,-121.9952026,-28.858974668502807,31.751635,0.1,74.6546,1640723191999
Fix,GT,37.4099798,-121.9948565,-28.860008453488348,31.738174,0.1,74.665955,1640723192999
Fix,GT,37.4100544,-121.9945107,-28.89595768487453,31.66598,0.1,74.59299,1640723193999
Fix,GT,37.4101293,-121.9941661,-28.88702541732788,31.598576,0.1,74.49527,1640723194999
Fix,GT,37.4102039,-121.9938218,-28.908978794753548,31.586828,0.1,74.578705,1640723195999
Fix,GT,37.4102783,-121.9934776,-28.880012737274168,31.559286,0.1,74.579834,1640723196999
Fix,GT,37.4103532,-121.9931338,-28.83601700234413,31.523062,0.1,74.49356,1640723197999
Fix,GT,37.4104282,-121.9927907,-28.80300425535441,31.47931,0.1,74.51553,1640723198999
Fix,GT,37.4105023,-121.9924477,-28.797021300911904,31.43448,0.1,74.61609,1640723199999
Fix,GT,37.4105766,-121.9921054,-28.752059708476065,31.369257,0.1,74.559296,1640723200999
Fix,GT,37.4106508,-121.991764,-28.7280213482976,31.29503,0.1,74.46445,1640723201999
Fix,GT,37.4107248,-121.9914235,-28.612059842824934,31.193851,0.1,74.58835,1640723202999
Fix,GT,37.4107979,-121.991084,-28.44102139598131,31.078634,0.1,74.748474,1640723203999
Fix,GT,37.4108715,-121.9907458,-28.366038556218147,30.997,0.1,74.24872,1640723204999
Fix,GT,37.4109465,-121.9904091,-28.20309006464481,30.901472,0.1,74.245056,1640723205999
Fix,GT,37.4110211,-121.9900735,-28.01101717400551,30.770342,0.1,74.209656,1640723206999
Fix,GT,37.4110964,-121.98974,-27.85409026491642,30.596327,0.1,73.74744,1640723207999
Fix,GT,37.4111743,-121.9894096,-27.56610757595301,30.412113,0.1,72.84018,1640723208999
Fix,GT,37.4112554,-121.9890825,-27.20015508317947,30.250652,0.1,72.40982,1640723209999
Fix,GT,37.4113374,-121.9887577,-26.74122856646776,30.06754,0.1,71.979095,1640723210999
Fix,GT,37.4114215,-121.9884358,-26.26217701107264,29.91271,0.1,71.4057,1640723211999
Fix,GT,37.4115073,-121.9881164,-25.7812204246521,29.768549,0.1,70.94214,1640723212999
Fix,GT,37.4115956,-121.9877998,-25.329199036479,29.635065,0.1,70.228455,1640723213999
Fix,GT,37.4116857,-121.9874861,-24.896190589904787,29.3367,0.1,69.79312,1640723214999
Fix,GT,37.4117769,-121.9871777,-24.516147438168524,28.910994,0.1,69.13394,1640723215999
Fix,GT,37.4118692,-121.9868747,-24.2272951965332,28.512676,0.1,68.6246,1640723216999
Fix,GT,37.4119626,-121.9865773,-23.980134722709657,28.101088,0.1,67.98755,1640723217999
Fix,GT,37.412057,-121.9862854,-23.74431760269404,27.679327,0.1,67.43036,1640723218999
Fix,GT,37.4121519,-121.9859989,-23.64805226516724,27.261738,0.1,67.10321,1640723219999
Fix,GT,37.4122469,-121.9857172,-23.657973839163784,26.890837,0.1,66.70581,1640723220999
Fix,GT,37.4123399,-121.9854391,-23.66196944522857,26.516743,0.1,68.14038,1640723221999
Fix,GT,37.4124257,-121.9851599,-23.714,26.512337,0.1,68.65921,1640723222999
Fix,GT,37.412516,-121.9848818,-23.77995188045502,26.682552,0.1,66.79364,1640723223999
Fix,GT,37.4126133,-121.9846042,-23.913021896362302,27.027235,0.1,65.35742,1640723224999
Fix,GT,37.412718,-121.9843255,-23.964929856300355,27.536469,0.1,63.888245,1640723225999
Fix,GT,37.4128296,-121.9840447,-24.100938556671142,28.04138,0.1,63.005463,1640723226999
Fix,GT,37.4129444,-121.9837593,-24.24393409723044,28.49848,0.1,62.98047,1640723227999
Fix,GT,37.4130612,-121.9834713,-24.37200879669189,28.68827,0.1,62.716736,1640723228999
Fix,GT,37.4131802,-121.9831827,-24.41994716334343,28.832346,0.1,62.177826,1640723229999
Fix,GT,37.4133015,-121.9828927,-24.629850134015083,29.156149,0.1,62.118347,1640723230999
Fix,GT,37.413425,-121.9826002,-24.8329161618948,29.450966,0.1,61.771637,1640723231999
Fix,GT,37.4135506,-121.9823054,-25.120836557686328,29.69603,0.1,61.684418,1640723232999
Fix,GT,37.4136768,-121.9820087,-25.41285849380493,29.837116,0.1,61.799988,1640723233999
Fix,GT,37.4138033,-121.9817105,-25.70986719310284,29.964191,0.1,61.696808,1640723234999
Fix,GT,37.4139303,-121.9814115,-25.80401772642136,29.994972,0.1,61.78949,1640723235999
Fix,GT,37.4140572,-121.9811124,-25.69905767208338,29.979488,0.1,61.677246,1640723236999
Fix,GT,37.4141839,-121.9808138,-25.49408438169956,29.92987,0.1,61.853638,1640723237999
Fix,GT,37.4143101,-121.9805155,-25.148191171586515,29.838337,0.1,61.772186,1640723238999
Fix,GT,37.4144363,-121.9802184,-24.85396439504624,29.759094,0.1,61.67206,1640723239999
Fix,GT,37.4145618,-121.9799219,-24.486240590929985,29.68387,0.1,61.894684,1640723240999
Fix,GT,37.4146862,-121.9796257,-24.182169485926625,29.580969,0.1,62.00769,1640723241999
Fix,GT,37.4148104,-121.9793302,-23.85006250810624,29.577122,0.1,61.90753,1640723242999
Fix,GT,37.414935,-121.979035,-23.514102800190447,29.551174,0.1,61.827576,1640723243999
Fix,GT,37.4150596,-121.9787401,-23.19212528324127,29.543367,0.1,61.863373,1640723244999
Fix,GT,37.415184,-121.978445,-22.84316124796868,29.56309,0.1,61.865295,1640723245999
Fix,GT,37.4153089,-121.9781497,-22.51919729328156,29.608585,0.1,61.849243,1640723246999
Fix,GT,37.415434,-121.9778539,-22.26621994370221,29.649712,0.1,61.821533,1640723247999
Fix,GT,37.4155595,-121.977558,-21.88021119052172,29.681307,0.1,61.742737,1640723248999
Fix,GT,37.4156858,-121.9772616,-21.56616193461418,29.806839,0.1,61.64206,1640723249999
Fix,GT,37.4158123,-121.9769641,-21.19712608098984,29.890429,0.1,61.7836,1640723250999
Fix,GT,37.415939,-121.9766652,-20.89513522982597,30.030369,0.1,61.757996,1640723251999
Fix,GT,37.4160662,-121.9763649,-20.657112810730933,30.18455,0.1,61.7713,1640723252999
Fix,GT,37.4161942,-121.9760629,-20.461072274208068,30.353493,0.1,61.80594,1640723253999
Fix,GT,37.4163225,-121.9757591,-20.29108139431477,30.531454,0.1,61.905426,1640723254999
Fix,GT,37.4164516,-121.9754537,-20.19103621292114,30.613483,0.1,61.76013,1640723255999
Fix,GT,37.416581,-121.9751487,-20.15599546855688,30.540691,0.1,61.805237,1640723256999
Fix,GT,37.4167095,-121.9748441,-20.179968246936795,30.47841,0.1,61.949097,1640723257999
Fix,GT,37.4168372,-121.9745395,-20.30993642628193,30.450176,0.1,62.13498,1640723258999
Fix,GT,37.4169642,-121.9742347,-20.51383180952072,30.433502,0.1,62.21878,1640723259999
Fix,GT,37.4170913,-121.9739302,-20.68484528648853,30.420607,0.1,62.06958,1640723260999
Fix,GT,37.4172193,-121.9736264,-20.97880868053436,30.425428,0.1,61.761932,1640723261999
Fix,GT,37.4173481,-121.9733228,-21.35781760263443,30.439713,0.1,61.75772,1640723262999
Fix,GT,37.4174769,-121.9730191,-21.768753509283066,30.479786,0.1,61.64911,1640723263999
Fix,GT,37.4176066,-121.9727153,-22.149018277645112,30.507452,0.1,61.6528,1640723264999
Fix,GT,37.417736,-121.9724108,-22.490734697580336,30.57856,0.1,61.832397,1640723265999
Fix,GT,37.4178644,-121.9721045,-22.958821421027185,30.699135,0.1,62.259186,1640723266999
Fix,GT,37.4179902,-121.9717948,-23.512743315219883,30.82373,0.1,63.385895,1640723267999
Fix,GT,37.4181105,-121.9714802,-24.079784341216087,30.937586,0.1,65.050446,1640723268999
Fix,GT,37.4182221,-121.9711594,-24.503839238226416,30.98231,0.1,67.398254,1640723269999
Fix,GT,37.4183225,-121.970833,-24.75193103146553,30.973335,0.1,69.80704,1640723270999
Fix,GT,37.4184131,-121.9705024,-24.760013808190827,30.89441,0.1,71.980286,1640723271999
Fix,GT,37.4184909,-121.9701679,-24.59503225207329,30.800152,0.1,75.0809,1640723272999
Fix,GT,37.4185558,-121.9698297,-24.417041509330275,30.798746,0.1,77.3132,1640723273999
Fix,GT,37.4186103,-121.9694885,-24.258083105564115,30.802631,0.1,79.517456,1640723274999
Fix,GT,37.4186539,-121.9691448,-24.08810629874468,30.812449,0.1,81.80539,1640723275999
Fix,GT,37.4186864,-121.968799,-23.980037011146543,30.84961,0.1,84.187225,1640723276999
Fix,GT,37.4187086,-121.9684512,-23.89713430541753,30.893469,0.1,86.15573,1640723277999
Fix,GT,37.4187229,-121.9681027,-23.78903245151043,30.923918,0.1,87.164246,1640723278999
Fix,GT,37.4187353,-121.9677534,-23.81391646850109,30.972763,0.1,87.311615,1640723279999
Fix,GT,37.418747,-121.9674034,-23.894013936042786,31.059036,0.1,87.35565,1640723280999
Fix,GT,37.4187592,-121.9670522,-24.22791629683972,31.176514,0.1,87.22479,1640723281999
Fix,GT,37.4187717,-121.9666993,-24.34985104370117,31.381485,0.1,87.2919,1640723282999
Fix,GT,37.4187835,-121.9663435,-24.669827595055104,31.632849,0.1,87.4621,1640723283999
Fix,GT,37.418795,-121.9659851,-25.148715477585792,31.860456,0.1,87.441956,1640723284999
Fix,GT,37.4188066,-121.9656247,-25.652803896546363,31.97767,0.1,87.47296,1640723285999
Fix,GT,37.4188182,-121.9652637,-26.11777098190784,32.007973,0.1,87.377625,1640723286999
Fix,GT,37.4188303,-121.9649022,-26.623812858104703,32.04552,0.1,87.33362,1640723287999
Fix,GT,37.4188425,-121.9645404,-27.03987823224068,32.058407,0.1,87.27838,1640723288999
Fix,GT,37.418855,-121.9641787,-27.31986404556036,32.029423,0.1,87.230774,1640723289999
Fix,GT,37.4188679,-121.9638175,-27.504934300899503,31.969019,0.1,87.21002,1640723290999
Fix,GT,37.4188806,-121.9634571,-27.65292014247179,31.876312,0.1,87.290405,1640723291999
Fix,GT,37.4188936,-121.9630979,-27.776934167385104,31.804712,0.1,87.042755,1640723292999
Fix,GT,37.4189068,-121.9627393,-27.97986820292473,31.746893,0.1,87.21329,1640723293999
Fix,GT,37.4189192,-121.9623812,-28.23687749457359,31.7041,0.1,87.28314,1640723294999
Fix,GT,37.4189313,-121.9620237,-28.43387737214565,31.643097,0.1,87.240875,1640723295999
Fix,GT,37.4189443,-121.9616668,-28.66087252533436,31.597713,0.1,86.96573,1640723296999
Fix,GT,37.4189596,-121.9613106,-28.86696219205856,31.546291,0.1,86.269745,1640723297999
Fix,GT,37.4189785,-121.9609555,-29.022929039478303,31.485842,0.1,85.65314,1640723298999
Fix,GT,37.4189996,-121.9606012,-29.13498579376936,31.413284,0.1,85.34744,1640723299999
Fix,GT,37.419022,-121.9602477,-29.263966818749903,31.368305,0.1,85.02106,1640723300999
Fix,GT,37.419047,-121.9598949,-29.307009489893915,31.337885,0.1,84.36719,1640723301999
Fix,GT,37.4190746,-121.9595426,-29.43787175929546,31.349218,0.1,83.980255,1640723302999
Fix,GT,37.4191036,-121.9591903,-29.52006180751324,31.340746,0.1,83.70514,1640723303999
Fix,GT,37.4191331,-121.9588385,-29.416099941790105,31.281696,0.1,83.813354,1640723304999
Fix,GT,37.419161,-121.958487,-29.458952360987663,31.268274,0.1,84.19568,1640723305999
Fix,GT,37.4191883,-121.9581354,-29.49398569399118,31.262339,0.1,84.20917,1640723306999
Fix,GT,37.4192149,-121.9577838,-29.53398567986488,31.24615,0.1,84.61777,1640723307999
Fix,GT,37.4192385,-121.9574322,-29.563014334261418,31.211555,0.1,85.45871,1640723308999
Fix,GT,37.4192555,-121.9570804,-29.576985651612283,31.185648,0.1,87.21979,1640723309999
Fix,GT,37.4192649,-121.9567284,-29.564,31.15691,0.1,88.544464,1640723310999
Fix,GT,37.4192677,-121.9563766,-29.49204313099385,31.12104,0.1,89.75696,1640723311999
Fix,GT,37.4192667,-121.9560256,-29.40402398520708,31.015522,0.1,90.05322,1640723312999
Fix,GT,37.4192653,-121.9556761,-29.30206722450256,30.86224,0.1,89.962524,1640723313999
Fix,GT,37.4192648,-121.9553282,-29.27103364521265,30.731066,0.1,89.74606,1640723314999
Fix,GT,37.4192647,-121.9549817,-29.22800481128693,30.611055,0.1,89.85611,1640723315999
Fix,GT,37.4192642,-121.9546364,-29.24502889597416,30.51815,0.1,89.86914,1640723316999
Fix,GT,37.4192636,-121.9542921,-29.239995179295537,30.448042,0.1,89.80084,1640723317999
Fix,GT,37.4192634,-121.9539485,-29.238,30.381062,0.1,89.83276,1640723318999
Fix,GT,37.4192633,-121.9536056,-29.2419855092764,30.34401,0.1,89.73175,1640723319999
Fix,GT,37.4192634,-121.9532628,-29.25299516505003,30.334059,0.1,89.63953,1640723320999
Fix,GT,37.4192642,-121.9529207,-29.256995160341265,30.196215,0.1,89.58728,1640723321999
Fix,GT,37.4192647,-121.9525806,-29.261975777864457,30.0101,0.1,89.72394,1640723322999
Fix,GT,37.4192646,-121.9522434,-29.26999030172825,29.675226,0.1,89.80792,1640723323999
