MessageType,Provider,LatitudeDegrees,LongitudeDegrees,AltitudeMeters,SpeedMps,AccuracyMeters,BearingDegrees,UnixTimeMillis
Fix,GT,37.3450571,-121.909655,-12.716,0.001,0.1,139.9685,1617396188445
Fix,GT,37.3450571,-121.909655,-12.716,0.0010121089,0.1,139.96875,1617396189445
Fix,GT,37.3450571,-121.909655,-12.716000378966331,0.001012109,0.1,139.96881,1617396190445
Fix,GT,37.3450571,-121.909655,-12.716000378966331,0.00054737116,0.1,139.96857,1617396191445
Fix,GT,37.3450571,-121.909655,-12.716000378966331,0.0015594801,0.1,139.96924,1617396192445
Fix,GT,37.3450571,-121.909655,-12.716,0.0012267285,0.1,139.97064,1617396193445
Fix,GT,37.3450571,-121.909655,-12.712,0.0,0.1,139.96875,1617396194445
Fix,GT,37.3450571,-121.909655,-12.717000378996136,0.001,0.1,139.96832,1617396195445
Fix,GT,37.3450571,-121.909655,-12.709000378757716,0.00054737093,0.1,139.9685,1617396196445
Fix,GT,37.3450571,-121.909655,-12.70254737085104,0.0011874852,0.1,139.96844,1617396197445
Fix,GT,37.3450571,-121.909655,-12.697000378400087,0.0011874852,0.1,139.9685,1617396198445
Fix,GT,37.3450571,-121.909655,-12.691,0.00045262923,0.1,139.96875,1617396199445
Fix,GT,37.3450565,-121.9096545,-12.69000037819147,0.2642287,0.1,139.99951,1617396200445
Fix,GT,37.3450527,-121.9096506,-12.685453007280827,0.87773556,0.1,140.112,1617396201445
Fix,GT,37.345044,-121.9096415,-12.68845262926817,1.6683776,0.1,140.25366,1617396202445
Fix,GT,37.3450297,-121.9096275,-12.679452629327772,2.287583,0.1,141.4346,1617396203445
Fix,GT,37.34501,-121.9096135,-12.6694530069232,2.658627,0.1,148.74323,1617396204445
Fix,GT,37.3449848,-121.9096067,-12.655547370553016,2.8859513,0.1,164.88025,1617396205445
Fix,GT,37.3449566,-121.9096129,-12.630715777039528,3.223518,0.1,186.68839,1617396206445
Fix,GT,37.3449278,-121.9096327,-12.554589518606662,3.847516,0.1,207.2865,1617396207445
Fix,GT,37.3448992,-121.9096649,-12.493189481258392,4.635005,0.1,221.07307,1617396208445
Fix,GT,37.3448676,-121.9097065,-12.446642110943795,5.51381,0.1,226.69615,1617396209445
Fix,GT,37.3448339,-121.9097557,-12.40273722112179,5.7844977,0.1,229.22585,1617396210445
Fix,GT,37.3448007,-121.9098048,-12.378452629625798,5.5912623,0.1,229.6273,1617396211445
Fix,GT,37.3447685,-121.9098517,-12.360831592202189,5.3721433,0.1,228.92375,1617396212445
Fix,GT,37.3447369,-121.9098968,-12.329736483603718,5.393861,0.1,228.82675,1617396213445
Fix,GT,37.3447039,-121.909944,-12.279736850976944,5.7551255,0.1,228.70119,1617396214445
Fix,GT,37.3446679,-121.9099949,-12.242210919320584,6.320599,0.1,228.487,1617396215445
Fix,GT,37.3446283,-121.9100511,-12.22462067398429,6.9233284,0.1,228.42741,1617396216445
Fix,GT,37.344587,-121.9101101,-12.209810883164405,6.8880377,0.1,228.7871,1617396217445
Fix,GT,37.3445472,-121.9101678,-12.151358251601458,6.635009,0.1,229.1296,1617396218445
Fix,GT,37.344509,-121.9102238,-12.14281088116765,6.411429,0.1,229.23825,1617396219445
Fix,GT,37.3444721,-121.9102779,-12.109473340034484,6.1776724,0.1,229.2291,1617396220445
Fix,GT,37.3444365,-121.9103296,-12.094,5.941633,0.1,229.30534,1617396221445
Fix,GT,37.344402,-121.9103792,-12.063284220457078,5.714936,0.1,228.77356,1617396222445
Fix,GT,37.3443686,-121.9104265,-12.034947759866714,5.4878807,0.1,228.23572,1617396223445
Fix,GT,37.3443364,-121.9104718,-12.00399964225292,5.2669125,0.1,228.20375,1617396224445
Fix,GT,37.3443056,-121.9105156,-11.999,5.0454206,0.1,228.69539,1617396225445
Fix,GT,37.344277,-121.9105576,-11.973904903203248,4.6933017,0.1,229.31023,1617396226445
Fix,GT,37.3442513,-121.9105957,-11.961189123421908,4.10348,0.1,229.75264,1617396227445
Fix,GT,37.3442299,-121.9106266,-11.919905615121127,3.1256008,0.1,228.81679,1617396228445
Fix,GT,37.344213,-121.9106497,-11.91954772529006,2.6083074,0.1,227.27951,1617396229445
Fix,GT,37.3441946,-121.9106687,-11.911,2.7894773,0.1,220.75354,1617396230445
Fix,GT,37.3441693,-121.9106813,-11.896284219741824,3.3080535,0.1,204.32883,1617396231445
Fix,GT,37.3441365,-121.9106839,-11.816284571796656,4.0335007,0.1,184.95825,1617396232445
Fix,GT,37.3440972,-121.9106717,-11.771284569740295,5.023917,0.1,165.59802,1617396233445
Fix,GT,37.3440524,-121.9106439,-11.669189479351044,6.1222134,0.1,152.08484,1617396234445
Fix,GT,37.3440035,-121.9105985,-11.650810520648957,7.4320717,0.1,142.34949,1617396235445
Fix,GT,37.3439481,-121.9105405,-11.655452282905578,8.5810585,0.1,139.24725,1617396236445
Fix,GT,37.3438857,-121.9104726,-11.655095086991786,9.778895,0.1,139.00757,1617396237445
Fix,GT,37.3438154,-121.9103959,-11.639810174167156,10.935898,0.1,138.6452,1617396238445
Fix,GT,37.3437388,-121.9103111,-11.621547023385762,11.508083,0.1,138.15167,1617396239445
Fix,GT,37.3436614,-121.9102253,-11.581999654829502,11.39184,0.1,138.55289,1617396240445
Fix,GT,37.3435845,-121.9101414,-11.60781086665392,11.22073,0.1,139.01926,1617396241445
Fix,GT,37.3435092,-121.9100609,-11.591642109513282,10.5989895,0.1,139.44266,1617396242445
Fix,GT,37.3434408,-121.909988,-11.591,9.264034,0.1,139.46808,1617396243445
Fix,GT,37.3433831,-121.9099268,-11.594810520648956,7.436608,0.1,139.56064,1617396244445
Fix,GT,37.3433395,-121.9098796,-11.614999653846024,5.2958546,0.1,138.95206,1617396245445
Fix,GT,37.343312,-121.9098494,-11.650357543230056,2.863384,0.1,138.48468,1617396246445
Fix,GT,37.3432982,-121.9098338,-11.670452977865937,1.4483031,0.1,138.17169,1617396247445
Fix,GT,37.3432907,-121.9098253,-11.683000348180531,0.8072104,0.1,138.12686,1617396248445
Fix,GT,37.3432878,-121.9098221,-11.69,0.038669698,0.1,138.12408,1617396249445
Fix,GT,37.3432878,-121.9098221,-11.694000348508355,0.0021292167,0.1,138.13263,1617396250445
Fix,GT,37.3432878,-121.9098222,-11.693999651491644,0.0014142136,0.1,138.12991,1617396251445
Fix,GT,37.3432878,-121.9098222,-11.691,0.001,0.1,138.12921,1617396252445
Fix,GT,37.3432875,-121.9098218,-11.694,0.22798201,0.1,138.13507,1617396253445
Fix,GT,37.343284,-121.9098179,-11.69445263016224,0.84787285,0.1,138.1134,1617396254445
Fix,GT,37.3432761,-121.9098091,-11.702357890486716,1.5914391,0.1,138.06662,1617396255445
Fix,GT,37.3432618,-121.9097921,-11.709,2.7575488,0.1,136.8844,1617396256445
Fix,GT,37.3432435,-121.9097618,-11.67447369837761,4.0370955,0.1,127.38202,1617396257445
Fix,GT,37.3432288,-121.909713,-11.627757571130992,5.3188677,0.1,109.409546,1617396258445
Fix,GT,37.3432253,-121.9096463,-11.515831245779992,6.6026435,0.1,91.017395,1617396259445
Fix,GT,37.3432386,-121.9095657,-11.451262809455397,8.095136,0.1,74.18771,1617396260445
Fix,GT,37.3432729,-121.9094769,-11.470621382325888,9.500462,0.1,60.779083,1617396261445
Fix,GT,37.3433271,-121.9093827,-11.51981086355448,11.0982,0.1,51.621643,1617396262445
Fix,GT,37.3433973,-121.9092821,-11.56571578025818,12.638815,0.1,48.17752,1617396263445
Fix,GT,37.3434781,-121.9091695,-11.662073322683572,14.149015,0.1,47.7666,1617396264445
Fix,GT,37.3435679,-121.9090464,-11.730884538829326,15.161104,0.1,47.45987,1617396265445
Fix,GT,37.343659,-121.9089191,-11.830810519695284,15.116133,0.1,48.253998,1617396266445
Fix,GT,37.3437511,-121.9087902,-11.911526299238204,15.541401,0.1,48.03897,1617396267445
Fix,GT,37.3438455,-121.9086569,-11.988904902517795,16.060555,0.1,48.368256,1617396268445
Fix,GT,37.3439429,-121.9085186,-12.064337177038192,16.613216,0.1,48.643097,1617396269445
Fix,GT,37.3440433,-121.9083753,-12.105284221172331,17.20581,0.1,48.57263,1617396270445
Fix,GT,37.3441474,-121.9082269,-12.208146972358223,17.774075,0.1,48.686676,1617396271445
Fix,GT,37.3442544,-121.9080741,-12.147263510525228,18.230455,0.1,48.616028,1617396272445
Fix,GT,37.3443636,-121.9079185,-12.062926332831385,18.490744,0.1,48.702484,1617396273445
Fix,GT,37.3444739,-121.9077605,-12.00681051850319,18.695854,0.1,48.686493,1617396274445
Fix,GT,37.3445856,-121.9076007,-11.994621394127607,18.95758,0.1,48.71408,1617396275445
Fix,GT,37.3446984,-121.9074385,-12.079505581229924,19.087936,0.1,48.851624,1617396276445
Fix,GT,37.3448105,-121.9072765,-12.171000362724063,18.829052,0.1,48.95331,1617396277445
Fix,GT,37.3449202,-121.9071173,-12.088336813926698,18.457443,0.1,49.21228,1617396278445
Fix,GT,37.3450265,-121.9069594,-12.023905259132386,18.104324,0.1,49.99823,1617396279445
Fix,GT,37.3451294,-121.9068037,-11.913874097168446,17.700035,0.1,50.350525,1617396280445
Fix,GT,37.3452299,-121.9066507,-11.73261059677601,17.453545,0.1,50.7464,1617396281445
Fix,GT,37.3453289,-121.9064989,-11.27410537713766,17.28072,0.1,50.583435,1617396282445
Fix,GT,37.3454271,-121.9063495,-10.552979121446608,16.977245,0.1,50.29706,1617396283445
Fix,GT,37.345524,-121.9062046,-9.60592653131485,16.42728,0.1,49.750183,1617396284445
Fix,GT,37.3456179,-121.9060671,-8.6302211894989,15.651648,0.1,48.739716,1617396285445
Fix,GT,37.3457104,-121.9059405,-7.812147764146328,14.764309,0.1,46.263306,1617396286445
Fix,GT,37.3458022,-121.9058262,-7.074674036800861,13.989163,0.1,44.16574,1617396287445
Fix,GT,37.3458899,-121.9057186,-6.454652747631073,13.288355,0.1,43.95288,1617396288445
Fix,GT,37.3459752,-121.9056187,-5.8910106361508365,12.62005,0.1,42.90555,1617396289445
Fix,GT,37.3460557,-121.9055236,-5.384821154177189,11.9570465,0.1,43.416656,1617396290445
Fix,GT,37.3461312,-121.9054315,-5.002894819736481,11.46655,0.1,44.860413,1617396291445
Fix,GT,37.3462013,-121.9053398,-4.64242111480236,11.008544,0.1,46.72528,1617396292445
Fix,GT,37.346267,-121.9052501,-4.316137021511793,10.589184,0.1,47.663055,1617396293445
Fix,GT,37.3463295,-121.9051629,-4.03349490147829,10.125416,0.1,48.15271,1617396294445
Fix,GT,37.346387,-121.9050818,-3.875757927894592,8.977676,0.1,48.31137,1617396295445
Fix,GT,37.3464355,-121.9050129,-3.753926334440708,7.239091,0.1,48.56891,1617396296445
Fix,GT,37.3464733,-121.9049594,-3.653115816414356,5.2969217,0.1,48.47406,1617396297445
Fix,GT,37.3464978,-121.9049245,-3.602736852169037,3.0799565,0.1,48.528656,1617396298445
Fix,GT,37.3465115,-121.9049052,-3.5835473704338074,1.6269863,0.1,48.566742,1617396299445
Fix,GT,37.3465182,-121.9048956,-3.5824527363479137,0.6181643,0.1,48.573242,1617396300445
Fix,GT,37.3465193,-121.9048941,-3.595547370374203,0.009882801,0.1,48.582825,1617396301445
Fix,GT,37.3465193,-121.9048942,-3.599,0.0025715916,0.1,48.58136,1617396302445
Fix,GT,37.3465192,-121.9048943,-3.603,0.0025818464,0.1,48.58026,1617396303445
Fix,GT,37.3465192,-121.9048943,-3.603000107377768,0.0021883124,0.1,48.580048,1617396304445
Fix,GT,37.3465192,-121.9048943,-3.603,0.0020543286,0.1,48.579956,1617396305445
Fix,GT,37.3465192,-121.9048943,-3.603,0.0014142136,0.1,48.58026,1617396306445
Fix,GT,37.3465192,-121.9048943,-3.603,0.0014142136,0.1,48.58023,1617396307445
Fix,GT,37.3465192,-121.9048943,-3.603000107377768,0.0018640724,0.1,48.5802,1617396308445
Fix,GT,37.3465192,-121.9048943,-3.603,0.0014142136,0.1,48.58029,1617396309445
Fix,GT,37.3465192,-121.9048943,-3.603,0.0012267282,0.1,48.58081,1617396310445
Fix,GT,37.3465192,-121.9048943,-3.603,0.0014142136,0.1,48.58075,1617396311445
Fix,GT,37.3465192,-121.9048943,-3.603,0.0,0.1,48.580627,1617396312445
Fix,GT,37.3465192,-121.9048943,-3.603,0.0004526297,0.1,48.580658,1617396313445
Fix,GT,37.3465192,-121.9048943,-3.6029998926222326,0.0,0.1,48.58069,1617396314445
Fix,GT,37.3465192,-121.9048943,-3.603000107377768,0.0,0.1,48.58081,1617396315445
Fix,GT,37.3465192,-121.9048943,-3.6029998926222326,0.0006401152,0.1,48.58087,1617396316445
Fix,GT,37.3465192,-121.9048943,-3.6029998926222326,0.0012267281,0.1,48.581024,1617396317445
Fix,GT,37.3465192,-121.9048943,-3.6029998926222326,0.0015594813,0.1,48.580902,1617396318445
Fix,GT,37.3465192,-121.9048943,-3.6029998926222326,0.0010947405,0.1,48.58075,1617396319445
Fix,GT,37.3465191,-121.9048943,-3.602000107347965,0.0024526299,0.1,48.5813,1617396320445
Fix,GT,37.3465191,-121.9048944,-3.6,0.010960369,0.1,48.580994,1617396321445
Fix,GT,37.3465201,-121.9048928,-3.603905366808176,0.553622,0.1,48.599854,1617396322445
Fix,GT,37.3465274,-121.9048824,-3.583642217695713,1.8670427,0.1,48.65857,1617396323445
Fix,GT,37.3465433,-121.9048597,-3.547189375132322,3.562144,0.1,48.755737,1617396324445
Fix,GT,37.3465695,-121.9048217,-3.5126420059502124,5.3580112,0.1,48.885986,1617396325445
Fix,GT,37.3466072,-121.9047673,-3.446210552930832,7.325759,0.1,48.886078,1617396326445
Fix,GT,37.3466546,-121.9047012,-3.4116422122120857,8.294225,0.1,47.331146,1617396327445
Fix,GT,37.3467118,-121.9046367,-3.399736850976944,8.769167,0.1,38.55963,1617396328445
Fix,GT,37.3467801,-121.904589,-3.3625474703907967,8.638107,0.1,24.716888,1617396329445
Fix,GT,37.3468551,-121.9045615,-3.465505332022905,8.907925,0.1,13.115112,1617396330445
Fix,GT,37.3469373,-121.904552,-3.670221011161804,9.541748,0.1,1.9697266,1617396331445
Fix,GT,37.3470271,-121.9045608,-3.9535789012908937,10.50009,0.1,352.5049,1617396332445
Fix,GT,37.3471227,-121.9045885,-4.296841927051544,11.285116,0.1,343.70993,1617396333445
Fix,GT,37.3472186,-121.9046387,-4.279810648262501,11.841694,0.1,333.72617,1617396334445
Fix,GT,37.3473103,-121.9047119,-4.193020942121745,12.344578,0.1,323.46057,1617396335445
Fix,GT,37.3473924,-121.9048087,-4.12054749250412,12.691851,0.1,312.59,1617396336445
Fix,GT,37.3474623,-121.9049212,-4.269673651218414,12.600291,0.1,305.94095,1617396337445
Fix,GT,37.3475268,-121.9050389,-4.708799939632415,12.857174,0.1,303.54837,1617396338445
Fix,GT,37.3475917,-121.9051648,-5.539905327111483,13.808458,0.1,302.5129,1617396339445
Fix,GT,37.3476614,-121.9053029,-6.507357802629471,15.134846,0.1,302.17792,1617396340445
Fix,GT,37.3477378,-121.905453,-7.512810445070267,16.424658,0.1,302.61124,1617396341445
Fix,GT,37.3478207,-121.905615,-8.46331545111537,17.667912,0.1,302.60242,1617396342445
Fix,GT,37.34791,-121.9057895,-9.270852855116129,19.018497,0.1,302.50977,1617396343445
Fix,GT,37.3480055,-121.9059761,-9.964063419759274,20.243452,0.1,302.70026,1617396344445
Fix,GT,37.3481072,-121.9061729,-10.48548419570923,21.30024,0.1,302.96713,1617396345445
Fix,GT,37.3482143,-121.9063786,-10.796315780878068,22.175213,0.1,303.09024,1617396346445
Fix,GT,37.3483262,-121.9065913,-10.90973651817441,22.94381,0.1,303.38837,1617396347445
Fix,GT,37.3484426,-121.9068094,-10.624178954958916,23.504253,0.1,303.92447,1617396348445
Fix,GT,37.3485646,-121.9070289,-10.22780000400543,23.811396,0.1,305.72873,1617396349445
Fix,GT,37.3486945,-121.9072438,-9.85915789425373,23.961487,0.1,308.06287,1617396350445
Fix,GT,37.348833,-121.9074536,-9.477536838948726,24.29397,0.1,310.85638,1617396351445
Fix,GT,37.3489804,-121.9076587,-9.086442097365858,24.548431,0.1,312.6564,1617396352445
Fix,GT,37.3491322,-121.9078578,-8.777852363586426,24.198273,0.1,314.44,1617396353445
Fix,GT,37.3492864,-121.908047,-8.371610260695219,23.700125,0.1,316.41174,1617396354445
Fix,GT,37.349443,-121.9082246,-7.959726050674916,23.17263,0.1,319.0193,1617396355445
Fix,GT,37.3496024,-121.9083893,-7.605042089223861,22.707212,0.1,321.49237,1617396356445
Fix,GT,37.349764,-121.9085423,-7.308062912642956,22.233887,0.1,323.78506,1617396357445
Fix,GT,37.3499267,-121.9086845,-6.995042083978653,21.796524,0.1,325.99036,1617396358445
Fix,GT,37.3500914,-121.9088166,-6.688536792814732,21.695797,0.1,328.25787,1617396359445
Fix,GT,37.3502611,-121.9089406,-6.404968570351601,21.904696,0.1,330.79245,1617396360445
Fix,GT,37.3504368,-121.9090563,-6.069473850488663,22.131292,0.1,333.20715,1617396361445
Fix,GT,37.3506176,-121.9091646,-5.796778729617595,22.382515,0.1,335.27377,1617396362445
Fix,GT,37.350803,-121.9092679,-5.525294627010823,22.633184,0.1,336.24988,1617396363445
Fix,GT,37.3509921,-121.909368,-5.11536816740036,22.89877,0.1,337.42328,1617396364445
Fix,GT,37.3511837,-121.9094665,-4.685084112882614,23.06977,0.1,337.7046,1617396365445
Fix,GT,37.3513768,-121.9095652,-4.222989498138428,23.228136,0.1,337.75793,1617396366445
Fix,GT,37.3515711,-121.9096653,-3.7812524219453336,23.410814,0.1,337.50204,1617396367445
Fix,GT,37.3517665,-121.909767,-3.365536721050739,23.530521,0.1,337.3174,1617396368445
Fix,GT,37.3519622,-121.9098701,-3.055778957158327,23.63242,0.1,337.0559,1617396369445
Fix,GT,37.3521591,-121.9099748,-2.8701367630958554,23.831915,0.1,336.90735,1617396370445
Fix,GT,37.3523576,-121.9100816,-2.6885684593319894,24.166164,0.1,336.43115,1617396371445
Fix,GT,37.3525587,-121.9101933,-2.598473646521568,24.674246,0.1,335.77914,1617396372445
Fix,GT,37.3527628,-121.9103093,-2.497,25.039074,0.1,335.35394,1617396373445
Fix,GT,37.3529685,-121.9104291,-2.480642018467188,25.300194,0.1,334.87613,1617396374445
Fix,GT,37.3531757,-121.9105518,-2.499168378263712,25.599737,0.1,334.4675,1617396375445
Fix,GT,37.3533849,-121.9106779,-2.546715742170811,25.923363,0.1,334.10605,1617396376445
Fix,GT,37.3535959,-121.9108073,-2.635336833626032,26.262924,0.1,333.66882,1617396377445
Fix,GT,37.3538089,-121.9109412,-2.773315920948982,26.633419,0.1,332.98196,1617396378445
Fix,GT,37.3540236,-121.9110796,-2.9490635876357554,26.962982,0.1,332.50046,1617396379445
Fix,GT,37.3542393,-121.9112217,-3.2452421979904176,27.112013,0.1,332.1272,1617396380445
Fix,GT,37.3544556,-121.9113659,-3.564694733917713,27.22712,0.1,331.62384,1617396381445
Fix,GT,37.3546698,-121.9115132,-3.806673861503601,26.993568,0.1,330.79758,1617396382445
Fix,GT,37.3548806,-121.9116626,-4.243273990213871,26.767855,0.1,330.2276,1617396383445
Fix,GT,37.3550894,-121.9118126,-4.708010809779167,26.730333,0.1,330.03583,1617396384445
Fix,GT,37.355298,-121.9119651,-5.245326622545719,26.878302,0.1,329.4129,1617396385445
Fix,GT,37.3555072,-121.9121197,-5.903305812835693,27.058254,0.1,329.51782,1617396386445
Fix,GT,37.3557185,-121.9122747,-6.724832214832306,27.290817,0.1,329.3461,1617396387445
Fix,GT,37.3559306,-121.9124327,-7.453231866627931,27.4991,0.1,329.18494,1617396388445
Fix,GT,37.3561447,-121.912591,-8.219400818020105,27.639912,0.1,329.44244,1617396389445
Fix,GT,37.3563592,-121.9127489,-8.910779200434686,27.557781,0.1,329.44812,1617396390445
Fix,GT,37.3565724,-121.9129067,-9.656852940231564,27.435062,0.1,329.26166,1617396391445
Fix,GT,37.3567847,-121.9130643,-10.443495007634162,27.324148,0.1,329.2282,1617396392445
Fix,GT,37.356996,-121.9132212,-11.17296859908104,27.19582,0.1,329.15234,1617396393445
Fix,GT,37.3572059,-121.9133783,-11.806421576559543,27.061394,0.1,329.0415,1617396394445
Fix,GT,37.3574145,-121.9135347,-12.41380083373189,26.910206,0.1,328.95526,1617396395445
Fix,GT,37.3576217,-121.9136903,-12.948084627687932,26.707005,0.1,328.9571,1617396396445
Fix,GT,37.3578273,-121.9138449,-13.377484873384237,26.515617,0.1,329.05103,1617396397445
Fix,GT,37.3580317,-121.9139973,-13.713863764733077,26.287663,0.1,329.261,1617396398445
Fix,GT,37.3582345,-121.9141479,-13.974505855500698,26.037811,0.1,329.3062,1617396399445
Fix,GT,37.3584354,-121.9142967,-14.144431679964065,25.748306,0.1,329.282,1617396400445
Fix,GT,37.3586346,-121.9144446,-14.277694455176592,25.713276,0.1,329.19498,1617396401445
Fix,GT,37.3588339,-121.9145934,-14.353000427752733,25.790375,0.1,329.0961,1617396402445
Fix,GT,37.3590341,-121.9147425,-14.407621120929718,25.902184,0.1,329.23404,1617396403445
Fix,GT,37.3592351,-121.9148925,-14.50290528023243,26.040337,0.1,329.12207,1617396404445
Fix,GT,37.3594374,-121.915043,-14.59007332661748,26.175735,0.1,329.27194,1617396405445
Fix,GT,37.3596407,-121.9151944,-14.648358357131482,26.372854,0.1,329.1444,1617396406445
Fix,GT,37.3598466,-121.9153479,-14.725073762118818,26.82343,0.1,329.1144,1617396407445
Fix,GT,37.360056,-121.915504,-14.81143124049902,27.187487,0.1,329.26987,1617396408445
Fix,GT,37.3602677,-121.9156604,-14.928525956690311,27.353325,0.1,329.36523,1617396409445
Fix,GT,37.3604804,-121.9158177,-14.987789601743223,27.483057,0.1,329.42313,1617396410445
Fix,GT,37.3606942,-121.9159755,-15.093074210464955,27.573215,0.1,329.398,1617396411445
Fix,GT,37.3609081,-121.916134,-15.127737250477075,27.586487,0.1,329.2388,1617396412445
Fix,GT,37.3611215,-121.9162929,-15.091736350029707,27.513882,0.1,329.09967,1617396413445
Fix,GT,37.3613338,-121.9164513,-14.97030556693673,27.28748,0.1,329.20587,1617396414445
Fix,GT,37.3615441,-121.9166079,-14.739704523563384,27.009079,0.1,329.14847,1617396415445
Fix,GT,37.361752,-121.916763,-14.40542123427987,26.725723,0.1,329.1442,1617396416445
Fix,GT,37.3619582,-121.916916,-14.02074689400196,26.463242,0.1,329.29047,1617396417445
Fix,GT,37.3621624,-121.9170679,-13.468651776373386,26.265133,0.1,329.05475,1617396418445
Fix,GT,37.3623647,-121.9172196,-12.838294646441936,26.092411,0.1,329.08713,1617396419445
Fix,GT,37.3625664,-121.9173696,-12.16857879665494,25.987898,0.1,329.1451,1617396420445
Fix,GT,37.3627674,-121.9175193,-11.483220865905285,25.89272,0.1,329.25195,1617396421445
Fix,GT,37.3629675,-121.9176679,-10.829409645855426,25.738586,0.1,329.254,1617396422445
Fix,GT,37.3631661,-121.9178157,-10.066883285105227,25.497295,0.1,329.1876,1617396423445
Fix,GT,37.3633623,-121.9179625,-9.232788866996763,25.241186,0.1,329.07806,1617396424445
Fix,GT,37.3635566,-121.918108,-8.45333648326993,25.000908,0.1,329.1266,1617396425445
Fix,GT,37.3637493,-121.9182521,-7.863915408790111,24.83384,0.1,329.02966,1617396426445
Fix,GT,37.3639406,-121.9183967,-7.483536301374436,24.742325,0.1,328.93747,1617396427445
Fix,GT,37.3641312,-121.9185402,-7.079557284772395,24.567068,0.1,328.89948,1617396428445
Fix,GT,37.3643184,-121.9186839,-6.841115898430347,24.18532,0.1,328.00027,1617396429445
Fix,GT,37.3645006,-121.91883,-6.638400059103965,23.905354,0.1,326.7149,1617396430445
Fix,GT,37.3646795,-121.9189812,-6.39477875226736,23.988445,0.1,325.28946,1617396431445
Fix,GT,37.364856,-121.9191385,-6.215757779121399,24.13033,0.1,323.89468,1617396432445
Fix,GT,37.3650301,-121.9193022,-6.173620925843716,24.15659,0.1,322.47348,1617396433445
Fix,GT,37.3652006,-121.9194694,-6.161810371279716,23.871077,0.1,321.46375,1617396434445
Fix,GT,37.365367,-121.9196385,-6.227031615018845,23.799738,0.1,320.37283,1617396435445
Fix,GT,37.3655312,-121.9198135,-6.334884114682675,24.058075,0.1,318.925,1617396436445
Fix,GT,37.3656936,-121.9199956,-6.467600136160851,24.339485,0.1,317.5194,1617396437445
Fix,GT,37.3658544,-121.9201847,-6.613884106367826,24.631897,0.1,316.17456,1617396438445
Fix,GT,37.3660144,-121.9203816,-6.765336740583182,25.171364,0.1,314.84366,1617396439445
Fix,GT,37.3661756,-121.9205889,-6.919147290915251,26.095634,0.1,313.61996,1617396440445
Fix,GT,37.3663372,-121.9208069,-7.072599925071001,26.583263,0.1,312.1407,1617396441445
Fix,GT,37.3664967,-121.9210335,-7.241147497415542,26.93826,0.1,310.6026,1617396442445
Fix,GT,37.3666525,-121.9212692,-7.409505413651466,27.29504,0.1,308.7751,1617396443445
Fix,GT,37.3668061,-121.921513,-7.655052774906158,27.746372,0.1,307.75116,1617396444445
Fix,GT,37.3669603,-121.9217629,-7.906242220878601,28.218008,0.1,307.58984,1617396445445
Fix,GT,37.3671165,-121.9220173,-8.184915865391492,28.632355,0.1,307.35822,1617396446445
Fix,GT,37.3672741,-121.9222756,-8.541484698742627,28.953178,0.1,307.33112,1617396447445
Fix,GT,37.3674333,-121.922536,-8.827126794070004,29.134485,0.1,307.38647,1617396448445
Fix,GT,37.3675926,-121.9227965,-9.158105561733247,28.952755,0.1,307.44165,1617396449445
Fix,GT,37.3677506,-121.9230545,-9.511389445483683,28.670883,0.1,307.39478,1617396450445
Fix,GT,37.367907,-121.9233102,-9.919105566501615,28.393238,0.1,307.3656,1617396451445
Fix,GT,37.3680619,-121.9235638,-10.4975165848732,28.188278,0.1,307.3991,1617396452445
Fix,GT,37.3682165,-121.9238161,-11.143063306063414,28.296564,0.1,307.40137,1617396453445
Fix,GT,37.3683724,-121.9240719,-11.807558565557002,28.707932,0.1,307.37405,1617396454445
Fix,GT,37.3685301,-121.9243296,-12.484622225910426,28.742931,0.1,307.45956,1617396455445
Fix,GT,37.3686879,-121.924587,-13.309022102683784,28.850636,0.1,307.47626,1617396456445
Fix,GT,37.3688472,-121.9248468,-14.325222006917,29.15247,0.1,307.28033,1617396457445
Fix,GT,37.3690074,-121.925108,-15.487506170511246,29.165335,0.1,307.60248,1617396458445
Fix,GT,37.3691697,-121.9253664,-16.618885055303572,29.093533,0.1,308.74414,1617396459445
Fix,GT,37.3693393,-121.9256144,-17.44668527498841,28.672352,0.1,313.12924,1617396460445
Fix,GT,37.3695244,-121.925836,-18.25935920122265,28.245464,0.1,319.35242,1617396461445
Fix,GT,37.3697224,-121.9260349,-19.05659003686905,28.083866,0.1,322.5372,1617396462445
Fix,GT,37.3699268,-121.9262203,-19.83394736722112,27.923492,0.1,325.50378,1617396463445
Fix,GT,37.3701373,-121.9263907,-20.358389739632607,27.685762,0.1,328.46747,1617396464445
Fix,GT,37.3703527,-121.9265445,-20.531073142051696,27.344215,0.1,332.38196,1617396465445
Fix,GT,37.3705738,-121.9266749,-20.45011507931352,26.923573,0.1,337.02606,1617396466445
Fix,GT,37.3707988,-121.9267809,-20.15934646552801,26.431465,0.1,341.28882,1617396467445
Fix,GT,37.3710237,-121.9268653,-19.60722110801936,25.413675,0.1,345.14166,1617396468445
Fix,GT,37.3712372,-121.9269285,-18.907314675420523,23.193085,0.1,347.55017,1617396469445
Fix,GT,37.3714322,-121.926978,-18.19686314791441,21.099697,0.1,349.15433,1617396470445
Fix,GT,37.3716149,-121.9270211,-17.545220003008843,20.317858,0.1,349.16354,1617396471445
Fix,GT,37.371793,-121.9270637,-16.94374641418457,20.00838,0.1,349.10437,1617396472445
Fix,GT,37.3719703,-121.9271069,-16.34719907128811,20.092083,0.1,348.81268,1617396473445
Fix,GT,37.3721481,-121.9271516,-15.68459941458702,20.144375,0.1,348.50827,1617396474445
Fix,GT,37.3723263,-121.9271973,-15.028673168122769,20.233788,0.1,348.36618,1617396475445
Fix,GT,37.3725052,-121.9272443,-14.33986304143071,20.396809,0.1,347.89664,1617396476445
Fix,GT,37.3726861,-121.9272954,-13.72238941541314,20.743196,0.1,346.7914,1617396477445
Fix,GT,37.3728684,-121.9273553,-13.121557872176172,21.074871,0.1,343.80493,1617396478445
Fix,GT,37.373049,-121.9274289,-12.682347068011762,20.963537,0.1,340.3011,1617396479445
Fix,GT,37.3732227,-121.9275167,-12.384873460829258,20.65459,0.1,336.1043,1617396480445
Fix,GT,37.373389,-121.9276216,-12.081294644981623,20.742496,0.1,331.07275,1617396481445
Fix,GT,37.3735488,-121.9277443,-11.927,20.718441,0.1,326.68033,1617396482445
Fix,GT,37.3736991,-121.9278803,-11.911621114253997,20.402016,0.1,322.2555,1617396483445
Fix,GT,37.3738394,-121.9280266,-11.98754736071825,20.099453,0.1,318.397,1617396484445
Fix,GT,37.3739688,-121.9281834,-12.156862981498245,19.826323,0.1,314.03247,1617396485445
Fix,GT,37.3740872,-121.9283493,-12.402936728090047,19.588268,0.1,309.96304,1617396486445
Fix,GT,37.3741941,-121.9285238,-12.71846387141943,19.384298,0.1,305.8065,1617396487445
Fix,GT,37.3742901,-121.9287059,-13.138274441361428,19.254576,0.1,301.68445,1617396488445
Fix,GT,37.3743743,-121.9288953,-13.630969325125218,19.193285,0.1,297.01175,1617396489445
Fix,GT,37.3744463,-121.9290936,-14.362748084276916,19.50343,0.1,292.5144,1617396490445
Fix,GT,37.3745078,-121.9293043,-14.961590479642153,20.236515,0.1,288.33548,1617396491445
Fix,GT,37.3745574,-121.9295251,-15.854738014698029,20.412148,0.1,283.70737,1617396492445
Fix,GT,37.3745953,-121.9297511,-16.826243470162154,20.544804,0.1,280.8634,1617396493445
Fix,GT,37.3746284,-121.9299815,-17.790906547904015,20.831444,0.1,279.75946,1617396494445
Fix,GT,37.37466,-121.9302137,-18.56913739746809,20.839903,0.1,279.6755,1617396495445
Fix,GT,37.3746919,-121.9304451,-19.283421561062337,20.758326,0.1,280.02283,1617396496445
Fix,GT,37.3747271,-121.9306728,-19.85582200220228,20.22026,0.1,281.3684,1617396497445
Fix,GT,37.3747636,-121.9308918,-20.302443130373955,19.473553,0.1,281.94046,1617396498445
Fix,GT,37.3747995,-121.9311057,-20.59714689400792,19.248169,0.1,281.914,1617396499445
Fix,GT,37.3748369,-121.9313171,-20.708620497435334,19.182495,0.1,282.89108,1617396500445
Fix,GT,37.3748776,-121.9315295,-20.7790947214365,19.561638,0.1,283.80713,1617396501445
Fix,GT,37.3749211,-121.931746,-20.70573742088676,19.964088,0.1,284.2995,1617396502445
Fix,GT,37.3749673,-121.9319657,-20.67264146628976,20.24931,0.1,285.02493,1617396503445
Fix,GT,37.3750158,-121.9321868,-20.598378272473813,20.366934,0.1,285.49808,1617396504445
Fix,GT,37.3750661,-121.932408,-20.474473608374595,20.263628,0.1,286.1197,1617396505445
Fix,GT,37.3751167,-121.9326262,-20.407831525862218,20.031797,0.1,286.19543,1617396506445
Fix,GT,37.3751671,-121.9328436,-20.389378886699674,20.112259,0.1,285.82397,1617396507445
Fix,GT,37.375215,-121.9330631,-20.41052699947357,20.142609,0.1,284.72797,1617396508445
Fix,GT,37.3752604,-121.9332823,-20.44083213534952,20.007015,0.1,284.4212,1617396509445
Fix,GT,37.3753057,-121.9335012,-20.472811166614296,20.08464,0.1,284.28522,1617396510445
Fix,GT,37.3753508,-121.9337214,-20.50771522334217,20.178661,0.1,284.3772,1617396511445
Fix,GT,37.3753964,-121.9339424,-20.52954674908519,20.26687,0.1,284.24423,1617396512445
Fix,GT,37.3754408,-121.9341649,-20.59216847330332,20.36272,0.1,283.87915,1617396513445
Fix,GT,37.3754846,-121.9343871,-20.630094721913338,20.194202,0.1,283.58643,1617396514445
Fix,GT,37.375527,-121.9346076,-20.69635791713,19.952,0.1,283.14713,1617396515445
Fix,GT,37.3755672,-121.9348264,-20.755073132157328,19.863598,0.1,283.23758,1617396516445
Fix,GT,37.3756093,-121.9350433,-20.792262575179336,19.676699,0.1,283.6752,1617396517445
Fix,GT,37.3756509,-121.9352577,-20.830547981917857,19.416866,0.1,283.32568,1617396518445
Fix,GT,37.3756905,-121.9354708,-20.89207375031709,19.478012,0.1,282.80295,1617396519445
Fix,GT,37.3757278,-121.9356885,-20.93826381841302,20.063732,0.1,281.39755,1617396520445
Fix,GT,37.3757633,-121.9359166,-20.949715208739043,21.109047,0.1,280.566,1617396521445
Fix,GT,37.3757982,-121.9361568,-20.98981055521965,22.122238,0.1,280.05432,1617396522445
Fix,GT,37.3758345,-121.9364067,-21.046452638804915,22.767338,0.1,280.85907,1617396523445
Fix,GT,37.3758772,-121.9366605,-21.07481055498124,23.210377,0.1,282.49597,1617396524445
Fix,GT,37.3759249,-121.9369198,-21.113073119342328,23.929928,0.1,283.14658,1617396525445
Fix,GT,37.3759761,-121.9371865,-21.182525756001475,24.65989,0.1,283.64423,1617396526445
Fix,GT,37.3760296,-121.937461,-21.243452638685703,25.420135,0.1,283.58395,1617396527445
Fix,GT,37.3760849,-121.937744,-21.311336941599844,26.180218,0.1,283.7997,1617396528445
Fix,GT,37.3761424,-121.9380353,-21.364883665204047,26.983261,0.1,283.8555,1617396529445
Fix,GT,37.3762019,-121.9383352,-21.426810554265977,27.742218,0.1,283.82947,1617396530445
Fix,GT,37.3762629,-121.938643,-21.487452638506888,28.409607,0.1,283.8791,1617396531445
Fix,GT,37.376325,-121.9389567,-21.558715188443664,28.83311,0.1,283.87924,1617396532445
Fix,GT,37.3763882,-121.939275,-21.64697902292013,29.23627,0.1,283.9139,1617396533445
Fix,GT,37.3764519,-121.9395965,-21.719978376090527,29.456833,0.1,283.86478,1617396534445
Fix,GT,37.3765161,-121.9399205,-21.80297902226448,29.681324,0.1,283.8099,1617396535445
Fix,GT,37.3765804,-121.9402471,-21.87271517837048,29.90306,0.1,283.8116,1617396536445
Fix,GT,37.3766449,-121.940576,-21.89654670906067,30.070477,0.1,283.63013,1617396537445
Fix,GT,37.3767086,-121.9409067,-21.91016846829653,30.162651,0.1,283.46753,1617396538445
Fix,GT,37.3767723,-121.9412382,-22.023715173155068,30.245192,0.1,283.49518,1617396539445
Fix,GT,37.3768361,-121.9415705,-22.023925599366425,30.297745,0.1,283.46744,1617396540445
Fix,GT,37.3768998,-121.9419033,-22.016020979702475,30.306921,0.1,283.38254,1617396541445
Fix,GT,37.376963,-121.9422361,-21.87121042776108,30.290226,0.1,283.40112,1617396542445
Fix,GT,37.3770274,-121.9425683,-21.795188797444105,30.300575,0.1,283.7054,1617396543445
Fix,GT,37.3770922,-121.9429006,-21.72818944740296,30.28554,0.1,283.54657,1617396544445
Fix,GT,37.3771565,-121.9432327,-21.61849459886551,30.248598,0.1,283.53308,1617396545445
Fix,GT,37.3772202,-121.9435644,-21.44149459886551,30.125996,0.1,283.35886,1617396546445
Fix,GT,37.3772827,-121.9438931,-21.19277876996994,29.71939,0.1,283.37262,1617396547445
Fix,GT,37.3773444,-121.9442186,-21.00566306591034,29.607212,0.1,283.26816,1617396548445
Fix,GT,37.3774064,-121.9445441,-20.97528417110444,29.66779,0.1,283.4666,1617396549445
Fix,GT,37.3774693,-121.9448697,-21.11376859343052,29.687239,0.1,283.56906,1617396550445
Fix,GT,37.3775328,-121.9451957,-21.434010802268983,29.75121,0.1,283.68896,1617396551445
Fix,GT,37.3775968,-121.9455221,-21.90651620340348,29.795645,0.1,283.86813,1617396552445
Fix,GT,37.377662,-121.945849,-22.626474242687223,29.905682,0.1,283.8781,1617396553445
Fix,GT,37.3777274,-121.9461775,-23.401947162538768,30.060064,0.1,284.02353,1617396554445
Fix,GT,37.3777942,-121.9465075,-24.25628479528428,30.246675,0.1,284.1966,1617396555445
Fix,GT,37.3778607,-121.9468399,-25.10996883773804,30.45367,0.1,283.94775,1617396556445
Fix,GT,37.3779269,-121.9471747,-25.73170564728975,30.642584,0.1,283.71375,1617396557445
Fix,GT,37.3779922,-121.9475113,-25.993978243470192,30.701153,0.1,283.5429,1617396558445
Fix,GT,37.3780572,-121.947848,-25.98685174128413,30.64549,0.1,283.51688,1617396559445
Fix,GT,37.3781226,-121.9481836,-25.62819963908196,30.5323,0.1,283.7862,1617396560445
Fix,GT,37.3781882,-121.9485173,-24.91050479900837,30.349571,0.1,283.82684,1617396561445
Fix,GT,37.3782537,-121.9488487,-24.07245205318928,30.134441,0.1,283.84488,1617396562445
Fix,GT,37.3783191,-121.9491777,-23.267504120022057,29.914154,0.1,283.96744,1617396563445
Fix,GT,37.3783843,-121.9495037,-22.67417799755931,29.55469,0.1,284.03094,1617396564445
Fix,GT,37.3784489,-121.9498245,-22.26006296271085,29.04992,0.1,283.82855,1617396565445
Fix,GT,37.3785111,-121.9501405,-22.049568351507187,28.611538,0.1,283.76044,1617396566445
Fix,GT,37.3785729,-121.9504519,-21.98980989384652,28.226046,0.1,283.9536,1617396567445
Fix,GT,37.378634,-121.950759,-22.02281120470166,27.842344,0.1,283.95825,1617396568445
Fix,GT,37.3786948,-121.9510618,-22.045904617100955,27.491718,0.1,284.2351,1617396569445
Fix,GT,37.3787565,-121.9513615,-22.06045263695717,27.356268,0.1,284.4714,1617396570445
Fix,GT,37.3788193,-121.9516597,-22.102263184189795,27.29932,0.1,284.86322,1617396571445
Fix,GT,37.3788831,-121.9519576,-22.118169116318224,27.361908,0.1,284.99133,1617396572445
Fix,GT,37.3789476,-121.9522566,-22.14690593326092,27.519213,0.1,285.2572,1617396573445
Fix,GT,37.3790161,-121.9525563,-22.180526365995405,27.71785,0.1,286.49042,1617396574445
Fix,GT,37.3790886,-121.9528576,-22.255262519657613,28.081894,0.1,286.79874,1617396575445
Fix,GT,37.3791625,-121.9531638,-22.27718945407868,28.658796,0.1,286.62048,1617396576445
Fix,GT,37.3792374,-121.9534772,-22.322169119894504,29.25827,0.1,286.54733,1617396577445
Fix,GT,37.3793138,-121.9537963,-22.360642090916635,29.721004,0.1,286.67273,1617396578445
Fix,GT,37.379392,-121.9541167,-22.37528351509571,29.576164,0.1,287.2945,1617396579445
Fix,GT,37.379472,-121.9544336,-22.40771515026689,29.274885,0.1,287.73962,1617396580445
Fix,GT,37.3795534,-121.9547459,-22.414905940532684,28.925995,0.1,288.3271,1617396581445
Fix,GT,37.379636,-121.9550537,-22.406263181209564,28.622416,0.1,288.7491,1617396582445
Fix,GT,37.3797196,-121.9553591,-22.41735724058747,28.602894,0.1,289.0499,1617396583445
Fix,GT,37.3798049,-121.9556642,-22.441074394047263,28.658304,0.1,289.32574,1617396584445
Fix,GT,37.3798916,-121.9559695,-22.448263181209565,28.748142,0.1,289.70267,1617396585445
Fix,GT,37.3799792,-121.9562754,-22.44283087757229,28.771122,0.1,289.66406,1617396586445
Fix,GT,37.3800665,-121.9565797,-22.44947363758088,28.500618,0.1,289.72144,1617396587445
Fix,GT,37.3801527,-121.9568809,-22.428189455032346,28.17389,0.1,289.62396,1617396588445
Fix,GT,37.3802377,-121.9571786,-22.437453304946423,27.835648,0.1,289.63727,1617396589445
Fix,GT,37.3803219,-121.9574725,-22.439000668734312,27.476719,0.1,289.6573,1617396590445
Fix,GT,37.3804053,-121.9577625,-22.454736149072648,27.135746,0.1,289.9863,1617396591445
Fix,GT,37.3804903,-121.9580478,-22.44109405851364,26.776924,0.1,290.98917,1617396592445
Fix,GT,37.380579,-121.9583269,-22.47726385176182,26.437212,0.1,292.2614,1617396593445
Fix,GT,37.380671,-121.9585998,-22.510620420843363,26.008854,0.1,293.14447,1617396594445
Fix,GT,37.3807623,-121.9588672,-22.592905272960664,25.57595,0.1,292.9901,1617396595445
Fix,GT,37.3808522,-121.9591312,-22.615453310489656,25.24929,0.1,293.1162,1617396596445
Fix,GT,37.3809417,-121.9593915,-22.73688359797001,24.95588,0.1,293.2404,1617396597445
Fix,GT,37.38103,-121.9596485,-22.791621772170068,24.626356,0.1,292.92123,1617396598445
Fix,GT,37.3811155,-121.9599032,-22.925936327934267,24.331196,0.1,292.5283,1617396599445
Fix,GT,37.3811979,-121.960157,-23.05240995714069,24.25349,0.1,291.61365,1617396600445
Fix,GT,37.3812768,-121.9604112,-23.1747158203125,24.056995,0.1,290.67755,1617396601445
Fix,GT,37.3813517,-121.9606657,-23.242284179687505,24.046701,0.1,289.79425,1617396602445
Fix,GT,37.3814254,-121.9609226,-23.272947265625,24.333153,0.1,289.68753,1617396603445
Fix,GT,37.3815002,-121.961183,-23.284453330665823,24.657887,0.1,289.66516,1617396604445
Fix,GT,37.3815754,-121.9614462,-23.24283084955812,24.78199,0.1,289.6076,1617396605445
Fix,GT,37.3816504,-121.961708,-23.177831542134285,24.490303,0.1,289.82065,1617396606445
Fix,GT,37.3817246,-121.9619673,-23.15464277949929,24.331919,0.1,289.3578,1617396607445
Fix,GT,37.3817971,-121.9622256,-23.07040058732033,24.12015,0.1,289.39435,1617396608445
Fix,GT,37.3818691,-121.9624807,-22.98756904283166,23.776985,0.1,289.56097,1617396609445
Fix,GT,37.3819408,-121.9627312,-22.92935722747445,23.36373,0.1,289.74414,1617396610445
Fix,GT,37.3820126,-121.962977,-22.90133691740036,23.014204,0.1,290.52747,1617396611445
Fix,GT,37.3820877,-121.9632172,-22.88228486010432,22.675758,0.1,291.9298,1617396612445
Fix,GT,37.3821649,-121.9634522,-22.86475712561608,22.31855,0.1,292.39075,1617396613445
Fix,GT,37.3822394,-121.9636826,-22.85571650370956,21.595154,0.1,291.6083,1617396614445
Fix,GT,37.3823083,-121.9639021,-22.864736132085323,20.036812,0.1,291.42426,1617396615445
Fix,GT,37.3823711,-121.9641011,-22.90731661298871,17.861565,0.1,291.48727,1617396616445
Fix,GT,37.3824289,-121.9642761,-22.97214747273922,15.801986,0.1,293.67508,1617396617445
Fix,GT,37.3824939,-121.9644245,-23.211916047096253,14.26371,0.1,303.85388,1617396618445
Fix,GT,37.382581,-121.9645364,-23.4716204007864,13.631269,0.1,321.70682,1617396619445
Fix,GT,37.3826896,-121.9646016,-23.42711571180821,13.164381,0.1,342.9,1617396620445
Fix,GT,37.3828065,-121.9646118,-23.261947247743606,12.930685,0.1,4.444336,1617396621445
Fix,GT,37.3829162,-121.9645672,-22.95096823215485,12.709673,0.1,26.047699,1617396622445
Fix,GT,37.3830046,-121.9644777,-22.54989449071884,12.567774,0.1,46.538055,1617396623445
Fix,GT,37.3830637,-121.9643573,-22.0439358009696,12.498404,0.1,65.24988,1617396624445
Fix,GT,37.3830897,-121.9642203,-21.41546283483505,12.45599,0.1,83.420074,1617396625445
Fix,GT,37.3830798,-121.9640806,-20.83750479900837,12.365008,0.1,101.926605,1617396626445
Fix,GT,37.3830364,-121.9639558,-20.213841725349425,11.746395,0.1,120.50049,1617396627445
Fix,GT,37.3829672,-121.96386,-19.69429436326027,11.166431,0.1,138.92484,1617396628445
Fix,GT,37.3828812,-121.9638004,-19.12501018756628,10.754183,0.1,157.52332,1617396629445
Fix,GT,37.3827852,-121.9637786,-18.63229435622692,10.98873,0.1,175.94867,1617396630445
Fix,GT,37.382684,-121.9637924,-18.00476743224263,11.555599,0.1,190.73656,1617396631445
Fix,GT,37.3825806,-121.9638277,-17.43746281313896,12.294678,0.1,197.27531,1617396632445
Fix,GT,37.3824714,-121.9638754,-16.952252384066583,13.413059,0.1,199.79485,1617396633445
Fix,GT,37.382353,-121.9639306,-16.611326125144956,14.675799,0.1,200.57109,1617396634445
Fix,GT,37.3822244,-121.9639918,-16.361115212023257,15.847649,0.1,200.72792,1617396635445
Fix,GT,37.3820872,-121.9640578,-16.211926252901556,16.534637,0.1,201.13033,1617396636445
Fix,GT,37.381949,-121.9641262,-16.21633694159985,16.427654,0.1,201.63116,1617396637445
Fix,GT,37.3818117,-121.9641935,-16.33650590336323,16.235678,0.1,201.01073,1617396638445
Fix,GT,37.3816789,-121.9642575,-16.580673396945,15.240372,0.1,201.0694,1617396639445
Fix,GT,37.3815575,-121.9643206,-16.957011348366738,13.885374,0.1,204.66693,1617396640445
Fix,GT,37.3814549,-121.9643986,-17.539284896075724,12.927216,0.1,216.11021,1617396641445
Fix,GT,37.3813737,-121.9645004,-18.44916867348552,12.745337,0.1,230.31644,1617396642445
Fix,GT,37.3813155,-121.9646266,-19.42740118828416,13.038337,0.1,246.07124,1617396643445
Fix,GT,37.3812923,-121.9647704,-20.10477950358391,12.972573,0.1,266.79803,1617396644445
Fix,GT,37.3813156,-121.964913,-20.824778894007206,12.922525,0.1,291.12643,1617396645445
Fix,GT,37.3813835,-121.9650306,-21.48425248205662,12.879387,0.1,315.1319,1617396646445
Fix,GT,37.3814834,-121.9651041,-22.201852630615235,12.944323,0.1,338.01703,1617396647445
Fix,GT,37.3815987,-121.9651295,-22.98670509138704,13.047705,0.1,357.6891,1617396648445
Fix,GT,37.381713,-121.9651009,-23.440200333476064,12.836468,0.1,19.948181,1617396649445
Fix,GT,37.3818079,-121.965021,-23.66081126734614,12.551965,0.1,42.440247,1617396650445
Fix,GT,37.3818709,-121.9649056,-23.75809471869469,12.295458,0.1,63.537872,1617396651445
Fix,GT,37.3818954,-121.9647746,-23.55134771579504,11.179314,0.1,84.65869,1617396652445
Fix,GT,37.3818876,-121.9646623,-23.23342146876454,8.856623,0.1,97.80722,1617396653445
Fix,GT,37.3818745,-121.9645672,-23.076210386633875,8.335951,0.1,100.59244,1617396654445
Fix,GT,37.3818547,-121.9644745,-22.93502094888688,8.850277,0.1,106.37958,1617396655445
Fix,GT,37.3818303,-121.9643774,-22.87509471786022,9.233858,0.1,107.56781,1617396656445
Fix,GT,37.3818044,-121.9642727,-22.84228483387828,10.3423605,0.1,106.661285,1617396657445
Fix,GT,37.3817768,-121.9641525,-22.78735792374611,11.822073,0.1,105.78723,1617396658445
Fix,GT,37.3817466,-121.9640157,-22.79854735869169,13.312856,0.1,105.11203,1617396659445
Fix,GT,37.3817137,-121.963864,-22.77828415215015,14.412451,0.1,105.71576,1617396660445
Fix,GT,37.3816747,-121.9637014,-22.73628415107727,15.803232,0.1,107.10535,1617396661445
Fix,GT,37.381629,-121.9635223,-22.77188434010744,17.508184,0.1,107.88272,1617396662445
Fix,GT,37.3815772,-121.9633255,-22.78083150875568,19.162888,0.1,108.416504,1617396663445
Fix,GT,37.3815189,-121.9631121,-22.76507377445698,20.808994,0.1,108.914764,1617396664445
Fix,GT,37.3814557,-121.9628807,-22.804926905035977,22.4943,0.1,108.81506,1617396665445
Fix,GT,37.381388,-121.9626321,-22.82797973817587,24.026438,0.1,108.61069,1617396666445
Fix,GT,37.3813155,-121.9623672,-22.851621133327484,25.54876,0.1,109.12018,1617396667445
Fix,GT,37.3812368,-121.9620871,-22.865210375010967,27.021843,0.1,109.55487,1617396668445
Fix,GT,37.3811529,-121.9617944,-22.832495203882456,27.764793,0.1,109.87378,1617396669445
Fix,GT,37.3810676,-121.9615012,-22.80611565679312,27.550213,0.1,109.82025,1617396670445
Fix,GT,37.3809837,-121.96121,-22.700663014173507,27.294937,0.1,109.583374,1617396671445
Fix,GT,37.3809031,-121.9609207,-22.53928347659111,26.98143,0.1,108.730896,1617396672445
Fix,GT,37.380827,-121.9606334,-22.426736790180207,26.672512,0.1,107.98691,1617396673445
Fix,GT,37.3807543,-121.960348,-22.40150481578708,26.370266,0.1,107.427,1617396674445
Fix,GT,37.3806837,-121.9600653,-22.43584314212203,26.113438,0.1,107.18384,1617396675445
Fix,GT,37.3806126,-121.9597857,-22.49590528440476,25.86286,0.1,107.61575,1617396676445
Fix,GT,37.3805413,-121.9595093,-22.49483217486739,25.602406,0.1,108.04111,1617396677445
Fix,GT,37.3804697,-121.959236,-22.41792688706517,25.339369,0.1,108.229004,1617396678445
Fix,GT,37.3803976,-121.9589644,-22.379074449062347,25.446331,0.1,108.10257,1617396679445
Fix,GT,37.3803253,-121.9586861,-22.344568955004217,26.452402,0.1,107.63635,1617396680445
Fix,GT,37.3802525,-121.9584008,-22.30964207196236,26.462242,0.1,107.65396,1617396681445
Fix,GT,37.3801802,-121.9581179,-22.293452642798425,26.16042,0.1,107.752045,1617396682445
Fix,GT,37.3801075,-121.9578387,-22.26028347918391,25.875093,0.1,108.24103,1617396683445
Fix,GT,37.3800347,-121.9575628,-22.25554802033305,25.602928,0.1,108.07092,1617396684445
Fix,GT,37.3799638,-121.9572884,-22.24373744764924,25.57472,0.1,107.39191,1617396685445
Fix,GT,37.3798949,-121.9570126,-22.224189427375794,25.557865,0.1,107.40839,1617396686445
Fix,GT,37.3798252,-121.9567388,-22.201190088957546,25.337746,0.1,107.67462,1617396687445
Fix,GT,37.3797548,-121.9564669,-22.16102092397213,25.36515,0.1,108.18402,1617396688445
Fix,GT,37.379682,-121.956195,-22.092736124694348,25.420341,0.1,108.79877,1617396689445
Fix,GT,37.3796072,-121.9559235,-22.040547356545925,25.424625,0.1,109.11743,1617396690445
Fix,GT,37.3795318,-121.9556536,-22.01518876990676,25.23122,0.1,109.33826,1617396691445
Fix,GT,37.3794578,-121.9553856,-21.991094057381154,25.033321,0.1,108.69931,1617396692445
Fix,GT,37.3793858,-121.9551181,-21.997905287265777,24.983152,0.1,108.70639,1617396693445
Fix,GT,37.3793142,-121.9548502,-21.99064206892252,25.09272,0.1,108.228,1617396694445
Fix,GT,37.379244,-121.9545797,-21.976452643752097,25.309416,0.1,107.73489,1617396695445
Fix,GT,37.3791752,-121.9543057,-21.948642068743705,25.593086,0.1,107.11505,1617396696445
Fix,GT,37.3791078,-121.9540273,-21.93664141467213,25.960196,0.1,106.634766,1617396697445
Fix,GT,37.3790408,-121.9537438,-21.90209471213817,26.401741,0.1,106.23602,1617396698445
Fix,GT,37.3789748,-121.9534546,-21.893641415596008,26.902592,0.1,105.71689,1617396699445
Fix,GT,37.3789094,-121.9531599,-21.87309471201897,27.187899,0.1,105.30609,1617396700445
Fix,GT,37.3788448,-121.9528634,-21.83654735594988,27.289894,0.1,105.175964,1617396701445
Fix,GT,37.3787805,-121.9525648,-21.81864141747356,27.503578,0.1,104.89459,1617396702445
Fix,GT,37.3787167,-121.9522634,-21.81054735583067,27.717327,0.1,104.96542,1617396703445
Fix,GT,37.3786522,-121.9519595,-21.80209471154213,27.941986,0.1,104.68616,1617396704445
Fix,GT,37.3785885,-121.9516554,-21.810999349981547,27.72543,0.1,104.53415,1617396705445
Fix,GT,37.3785264,-121.9513539,-21.796,27.41381,0.1,104.37717,1617396706445
Fix,GT,37.3784655,-121.9510559,-21.78045264452696,27.06462,0.1,104.33768,1617396707445
Fix,GT,37.3784052,-121.9507621,-21.778167862951754,26.693748,0.1,104.351685,1617396708445
Fix,GT,37.3783464,-121.9504715,-21.78581057834625,26.406189,0.1,103.995605,1617396709445
Fix,GT,37.3782887,-121.9501839,-21.87924231338501,26.13824,0.1,104.08807,1617396710445
Fix,GT,37.3782313,-121.9498989,-22.121505536317827,25.923862,0.1,103.943115,1617396711445
Fix,GT,37.3781752,-121.9496159,-22.45410578584671,25.756218,0.1,103.87689,1617396712445
Fix,GT,37.3781196,-121.9493344,-22.9108947751224,25.612413,0.1,103.78717,1617396713445
Fix,GT,37.3780645,-121.9490541,-23.511611327052115,25.533932,0.1,103.78848,1617396714445
Fix,GT,37.3780095,-121.9487743,-24.18694763982296,25.508202,0.1,103.821014,1617396715445
Fix,GT,37.3779544,-121.9484948,-24.87615795430541,25.483288,0.1,103.76492,1617396716445
Fix,GT,37.3778992,-121.9482159,-25.394557690113785,25.406574,0.1,103.97131,1617396717445
Fix,GT,37.3778436,-121.9479386,-25.684052137881515,25.230991,0.1,103.94519,1617396718445
Fix,GT,37.377789,-121.9476634,-25.791452645361424,25.000288,0.1,103.791046,1617396719445
Fix,GT,37.3777352,-121.9473908,-25.740114841073748,24.71179,0.1,103.85477,1617396720445
Fix,GT,37.3776819,-121.947122,-25.485894171237945,24.340015,0.1,103.76233,1617396721445
Fix,GT,37.3776298,-121.9468574,-25.02355786639452,23.960094,0.1,103.82599,1617396722445
Fix,GT,37.3775778,-121.9465956,-24.41057727470994,23.888277,0.1,103.85394,1617396723445
Fix,GT,37.3775256,-121.9463328,-23.76357728624344,24.089186,0.1,103.89792,1617396724445
Fix,GT,37.3774731,-121.9460674,-23.09076739192009,24.35397,0.1,103.76196,1617396725445
Fix,GT,37.3774205,-121.9457987,-22.44738854932785,24.639174,0.1,103.49994,1617396726445
Fix,GT,37.3773679,-121.9455266,-21.92117823934555,24.976612,0.1,103.65927,1617396727445
Fix,GT,37.3773138,-121.9452507,-21.48779940831661,25.333202,0.1,103.63489,1617396728445
Fix,GT,37.3772597,-121.9449717,-21.17568444746733,25.503311,0.1,103.60538,1617396729445
Fix,GT,37.3772052,-121.9446908,-20.999474150002,25.686901,0.1,103.4458,1617396730445
Fix,GT,37.3771509,-121.9444089,-20.937452647805213,25.62651,0.1,103.530945,1617396731445
Fix,GT,37.3770962,-121.9441291,-21.01578909409046,25.390514,0.1,103.70889,1617396732445
Fix,GT,37.377042,-121.9438516,-21.22867414855957,25.236822,0.1,103.55652,1617396733445
Fix,GT,37.3769885,-121.9435758,-21.449790363729,24.964895,0.1,103.4422,1617396734445
Fix,GT,37.3769368,-121.9433042,-21.57616789650917,24.481728,0.1,103.22281,1617396735445
Fix,GT,37.3768864,-121.9430378,-21.608453292638064,24.069122,0.1,103.32895,1617396736445
Fix,GT,37.3768362,-121.9427749,-21.64690594267845,23.798206,0.1,103.351746,1617396737445
Fix,GT,37.3767867,-121.9425149,-21.653715248554946,23.54733,0.1,103.24103,1617396738445
Fix,GT,37.3767382,-121.9422575,-21.68480995014309,23.29636,0.1,103.14676,1617396739445
Fix,GT,37.3766902,-121.9420029,-21.69945329594612,23.023914,0.1,103.254974,1617396740445
Fix,GT,37.3766425,-121.9417516,-21.717904651671645,22.746689,0.1,103.34433,1617396741445
Fix,GT,37.3765948,-121.9415032,-21.73390529906749,22.49038,0.1,103.39871,1617396742445
Fix,GT,37.3765479,-121.9412578,-21.73428345409036,22.232594,0.1,103.36337,1617396743445
Fix,GT,37.3765011,-121.9410152,-21.73809470033645,21.973743,0.1,103.55798,1617396744445
Fix,GT,37.3764543,-121.9407756,-21.73609469997883,21.710917,0.1,103.714874,1617396745445
Fix,GT,37.3764074,-121.940539,-21.7426420494318,21.463306,0.1,103.942566,1617396746445
Fix,GT,37.3763609,-121.9403052,-21.736114896863697,21.222607,0.1,103.78302,1617396747445
Fix,GT,37.3763157,-121.9400738,-21.70318939781189,20.973434,0.1,103.64459,1617396748445
Fix,GT,37.376271,-121.9398452,-21.63937879419327,20.713173,0.1,103.63226,1617396749445
Fix,GT,37.3762269,-121.9396195,-21.578736745774748,20.453358,0.1,103.67239,1617396750445
Fix,GT,37.3761837,-121.9393965,-21.52718875440955,20.188816,0.1,103.53006,1617396751445
Fix,GT,37.376141,-121.9391766,-21.483189395189285,19.831429,0.1,103.72534,1617396752445
Fix,GT,37.376098,-121.9389626,-21.428378150463104,19.194878,0.1,104.42792,1617396753445
Fix,GT,37.3760543,-121.9387588,-21.374736742198465,18.182861,0.1,105.3642,1617396754445
Fix,GT,37.3760105,-121.9385654,-21.34228345361352,17.554857,0.1,105.950745,1617396755445
Fix,GT,37.3759671,-121.9383764,-21.309189392328264,17.29132,0.1,105.78406,1617396756445
Fix,GT,37.3759256,-121.9381896,-21.270358590245245,17.052624,0.1,105.30005,1617396757445
Fix,GT,37.3758847,-121.9380054,-21.27154671373963,16.815493,0.1,105.42615,1617396758445
Fix,GT,37.3758438,-121.9378236,-21.267168567597864,16.678806,0.1,105.726746,1617396759445
Fix,GT,37.3758035,-121.9376433,-21.20218938922882,16.499716,0.1,105.80853,1617396760445
Fix,GT,37.3757599,-121.9374649,-21.18864204138517,16.648403,0.1,107.61594,1617396761445
Fix,GT,37.3757132,-121.9372828,-21.16000063061714,17.270142,0.1,107.43524,1617396762445
Fix,GT,37.3756681,-121.9370917,-21.11718938684464,18.053444,0.1,105.620575,1617396763445
Fix,GT,37.3756241,-121.9368907,-21.061926746875045,18.862083,0.1,104.97949,1617396764445
Fix,GT,37.3755803,-121.9366833,-20.99073673176765,18.970959,0.1,104.60443,1617396765445
Fix,GT,37.3755374,-121.9364774,-20.870473461747167,18.684067,0.1,104.37189,1617396766445
Fix,GT,37.3754959,-121.9362747,-20.822189383983613,18.38863,0.1,104.23639,1617396767445
Fix,GT,37.3754554,-121.9360751,-20.784452654242514,18.106022,0.1,104.10123,1617396768445
Fix,GT,37.3754159,-121.9358785,-20.728926728367803,17.813065,0.1,103.937836,1617396769445
Fix,GT,37.3753771,-121.935685,-20.6777373431623,17.523144,0.1,103.956085,1617396770445
Fix,GT,37.3753394,-121.935494,-20.64583203130961,17.385628,0.1,103.71704,1617396771445
Fix,GT,37.3753027,-121.9353036,-20.61092610430717,17.344864,0.1,103.47928,1617396772445
Fix,GT,37.3752658,-121.9351134,-20.55173611101508,17.370865,0.1,103.77081,1617396773445
Fix,GT,37.3752281,-121.9349225,-20.52437875652313,17.542553,0.1,103.94238,1617396774445
Fix,GT,37.3751891,-121.9347283,-20.46428345617652,17.947311,0.1,104.135284,1617396775445
Fix,GT,37.3751485,-121.9345297,-20.43499939098954,18.38367,0.1,104.475586,1617396776445
Fix,GT,37.3751056,-121.9343264,-20.4447367195487,18.899113,0.1,104.888885,1617396777445
Fix,GT,37.3750603,-121.9341179,-20.36864203101397,19.315716,0.1,105.446655,1617396778445
Fix,GT,37.3750124,-121.9339064,-20.27728406059742,19.665718,0.1,105.891174,1617396779445
Fix,GT,37.374963,-121.933689,-20.242999396711586,20.463593,0.1,105.77701,1617396780445
Fix,GT,37.3749112,-121.9334623,-20.18790471252799,21.188435,0.1,106.00165,1617396781445
Fix,GT,37.3748566,-121.9332313,-20.160357371151445,21.425697,0.1,106.69107,1617396782445
Fix,GT,37.3748011,-121.933001,-20.10318877062201,21.186756,0.1,106.8103,1617396783445
Fix,GT,37.3747457,-121.9327738,-20.115716546505688,20.904617,0.1,106.91849,1617396784445
Fix,GT,37.3746908,-121.9325494,-20.20997923928499,20.682419,0.1,106.973785,1617396785445
Fix,GT,37.3746357,-121.9323267,-20.341453264534472,20.644312,0.1,107.16763,1617396786445
Fix,GT,37.3745803,-121.9321043,-20.358715951561926,20.640493,0.1,107.22653,1617396787445
Fix,GT,37.3745249,-121.9318819,-20.399715953350068,20.593803,0.1,107.19833,1617396788445
Fix,GT,37.3744709,-121.9316606,-20.41209529003501,20.367422,0.1,106.75656,1617396789445
Fix,GT,37.3744178,-121.9314421,-20.41107454276085,20.107014,0.1,106.904144,1617396790445
Fix,GT,37.3743649,-121.9312264,-20.43509468066692,19.863136,0.1,106.89667,1617396791445
Fix,GT,37.3743127,-121.9310134,-20.48554734003544,19.617397,0.1,107.24304,1617396792445
Fix,GT,37.3742597,-121.9308035,-20.539074554085733,19.373219,0.1,107.97293,1617396793445
Fix,GT,37.3742025,-121.9305966,-20.598904707193377,19.458878,0.1,109.63678,1617396794445
Fix,GT,37.3741421,-121.9303887,-20.664810027748345,19.757734,0.1,110.14331,1617396795445
Fix,GT,37.3740793,-121.9301775,-20.734979890853168,20.16405,0.1,110.50543,1617396796445
Fix,GT,37.374014,-121.9299624,-20.84352661514282,20.541496,0.1,110.91412,1617396797445
Fix,GT,37.373947,-121.9297467,-21.002579854369163,20.440174,0.1,111.31531,1617396798445
Fix,GT,37.3738795,-121.9295331,-21.149715972661973,20.224724,0.1,111.71832,1617396799445
Fix,GT,37.373809,-121.9293239,-21.314863263607023,19.995964,0.1,113.7157,1617396800445
Fix,GT,37.3737312,-121.9291216,-21.458695267021657,19.779182,0.1,117.12088,1617396801445
Fix,GT,37.3736442,-121.9289282,-21.56716864186525,19.535269,0.1,120.988464,1617396802445
Fix,GT,37.3735479,-121.9287443,-21.612716624736784,19.496937,0.1,124.71088,1617396803445
Fix,GT,37.3734412,-121.9285669,-21.605472718477248,19.864372,0.1,128.59528,1617396804445
Fix,GT,37.3733229,-121.9283954,-21.565905328154564,20.274853,0.1,132.30194,1617396805445
Fix,GT,37.3731943,-121.9282289,-21.5231160043478,20.754795,0.1,135.30908,1617396806445
Fix,GT,37.373055,-121.9280678,-21.45892601686716,21.310871,0.1,138.79523,1617396807445
Fix,GT,37.3729034,-121.9279149,-21.370736674249173,21.841091,0.1,142.90057,1617396808445
Fix,GT,37.3727391,-121.9277735,-21.30928400695324,22.361015,0.1,147.85608,1617396809445
Fix,GT,37.3725615,-121.9276496,-21.24245266586542,22.703598,0.1,153.4444,1617396810445
Fix,GT,37.3723725,-121.9275476,-21.07081872498989,22.947214,0.1,159.18567,1617396811445
Fix,GT,37.372175,-121.9274662,-20.27429206496477,23.157919,0.1,163.59033,1617396812445
Fix,GT,37.3719723,-121.9273955,-19.877629393428563,23.566208,0.1,164.7013,1617396813445
Fix,GT,37.3717653,-121.9273249,-19.54187323206663,24.050644,0.1,164.75232,1617396814445
Fix,GT,37.3715539,-121.9272532,-19.29823064100742,24.521065,0.1,164.73376,1617396815445
Fix,GT,37.3713401,-121.9271783,-19.12111531585455,24.726986,0.1,163.83838,1617396816445
Fix,GT,37.371126,-121.9270973,-19.03702064794302,24.935944,0.1,162.50684,1617396817445
Fix,GT,37.3709114,-121.9270089,-19.114148037076,25.231897,0.1,161.17957,1617396818445
Fix,GT,37.3706958,-121.926913,-19.31493807977438,25.570032,0.1,159.99786,1617396819445
Fix,GT,37.3704784,-121.9268098,-19.591168686091898,26.077019,0.1,158.2945,1617396820445
Fix,GT,37.3702604,-121.9266921,-19.65502121844888,26.62686,0.1,154.97314,1617396821445
Fix,GT,37.3700448,-121.9265552,-19.335271832466127,27.018867,0.1,151.41534,1617396822445
Fix,GT,37.3698325,-121.9264025,-18.62490109413862,27.294296,0.1,148.79834,1617396823445
Fix,GT,37.3696266,-121.9262335,-17.70761763930321,27.358282,0.1,144.62158,1617396824445
Fix,GT,37.3694302,-121.9260469,-16.951333635210993,27.362785,0.1,140.86896,1617396825445
Fix,GT,37.3692438,-121.9258443,-16.15788093960285,27.428677,0.1,137.57541,1617396826445
Fix,GT,37.3690667,-121.9256283,-15.274786253929138,27.474169,0.1,134.21793,1617396827445
Fix,GT,37.3688983,-121.9254005,-14.51176561522484,27.556995,0.1,131.30627,1617396828445
Fix,GT,37.3687385,-121.9251614,-13.938839229524136,27.69204,0.1,128.6655,1617396829445
Fix,GT,37.368584,-121.924915,-13.373819025039673,27.83767,0.1,127.68921,1617396830445
Fix,GT,37.3684296,-121.9246658,-12.967609107255935,28.050083,0.1,127.734375,1617396831445
Fix,GT,37.3682745,-121.9244146,-12.43929224973917,28.20841,0.1,127.36954,1617396832445
Fix,GT,37.3681202,-121.9241611,-11.7880490886271,28.24255,0.1,127.20062,1617396833445
Fix,GT,37.367966,-121.9239078,-11.14386010569334,28.173414,0.1,127.24786,1617396834445
Fix,GT,37.367812,-121.923655,-10.50028363725543,28.245136,0.1,127.19568,1617396835445
Fix,GT,37.3676573,-121.923401,-10.001176636934282,28.368946,0.1,127.26416,1617396836445
Fix,GT,37.3675015,-121.9231456,-9.510250716269017,28.587519,0.1,127.4942,1617396837445
Fix,GT,37.3673432,-121.9228895,-9.113251256853342,28.817822,0.1,127.66217,1617396838445
Fix,GT,37.3671838,-121.9226309,-8.834020558774471,29.05056,0.1,127.43753,1617396839445
Fix,GT,37.367024,-121.9223703,-8.644588431477546,29.165966,0.1,127.38324,1617396840445
Fix,GT,37.3668638,-121.9221085,-8.465115447819233,29.276373,0.1,127.345825,1617396841445
Fix,GT,37.3667031,-121.9218451,-8.381378578186036,29.445961,0.1,127.27814,1617396842445
Fix,GT,37.36654,-121.9215817,-8.294020292758942,29.618752,0.1,128.14398,1617396843445
Fix,GT,37.3663716,-121.9213214,-8.141041071653365,29.757912,0.1,129.84973,1617396844445
Fix,GT,37.3661956,-121.921067,-7.946210052788258,29.860731,0.1,131.96393,1617396845445
Fix,GT,37.3660122,-121.9208194,-7.782398859858513,29.98262,0.1,133.40228,1617396846445
Fix,GT,37.365823,-121.9205767,-7.5953988563716415,30.107464,0.1,135.06995,1617396847445
Fix,GT,37.3656279,-121.9203396,-7.42611515623331,30.239546,0.1,136.49615,1617396848445
Fix,GT,37.3654267,-121.9201085,-7.255209789395332,30.34214,0.1,138.2337,1617396849445
Fix,GT,37.3652199,-121.919884,-7.078736383199692,30.373878,0.1,139.77191,1617396850445
Fix,GT,37.3650085,-121.9196655,-7.041662457585335,30.46436,0.1,141.13922,1617396851445
Fix,GT,37.3647915,-121.9194533,-7.042547527849674,30.63321,0.1,142.94763,1617396852445
Fix,GT,37.3645676,-121.9192493,-7.194506331145764,30.80072,0.1,144.87354,1617396853445
Fix,GT,37.364338,-121.9190536,-7.450033390969038,30.826912,0.1,146.58942,1617396854445
Fix,GT,37.3641034,-121.9188662,-7.739506580919027,30.947544,0.1,148.18509,1617396855445
Fix,GT,37.3638639,-121.9186851,-8.132161271721126,31.148289,0.1,149.34296,1617396856445
Fix,GT,37.363621,-121.9185062,-8.671803263515233,31.389877,0.1,149.3277,1617396857445
Fix,GT,37.3633765,-121.9183254,-9.158350079387423,31.634594,0.1,149.48846,1617396858445
Fix,GT,37.3631298,-121.9181437,-9.8212145344913,31.86491,0.1,149.3313,1617396859445
Fix,GT,37.3628817,-121.9179603,-10.645572924137117,32.095425,0.1,149.27545,1617396860445
Fix,GT,37.3626321,-121.9177747,-11.504931022644042,32.321045,0.1,149.0954,1617396861445
Fix,GT,37.3623811,-121.9175875,-12.285741810798644,32.529076,0.1,149.10211,1617396862445
Fix,GT,37.3621284,-121.9173988,-13.12247842246294,32.754307,0.1,149.07523,1617396863445
Fix,GT,37.3618743,-121.9172089,-13.865708169519902,32.916176,0.1,149.10199,1617396864445
Fix,GT,37.361619,-121.9170188,-14.449633985370395,32.985706,0.1,149.19226,1617396865445
Fix,GT,37.3613637,-121.9168288,-14.856486485302453,32.869766,0.1,149.20471,1617396866445
Fix,GT,37.36111,-121.9166407,-15.083601097643374,32.549126,0.1,149.1814,1617396867445
Fix,GT,37.3608594,-121.9164538,-15.19190583255887,32.174747,0.1,149.07306,1617396868445
Fix,GT,37.3606117,-121.9162686,-15.20064192891121,31.875858,0.1,148.96341,1617396869445
Fix,GT,37.3603662,-121.916085,-15.117114567220211,31.59317,0.1,149.12958,1617396870445
Fix,GT,37.3601226,-121.9159032,-14.97711501133442,31.320862,0.1,149.07422,1617396871445
Fix,GT,37.3598812,-121.9157231,-14.905209620416164,31.042683,0.1,149.18945,1617396872445
