MessageType,Provider,LatitudeDegrees,LongitudeDegrees,AltitudeMeters,SpeedMps,AccuracyMeters,BearingDegrees,UnixTimeMillis
Fix,GT,37.4840146,-122.1740672,-30.006,0.00061576715,0.1,17.796692,1615927200435
Fix,GT,37.4840146,-122.1740672,-30.00599910575152,0.0012338596,0.1,17.796844,1615927201435
Fix,GT,37.4840146,-122.1740672,-30.006,0.001180354,0.1,17.796753,1615927202435
Fix,GT,37.4840146,-122.1740672,-30.006,0.0014142136,0.1,17.79654,1615927203435
Fix,GT,37.4840146,-122.1740672,-30.006000894248487,0.0012338597,0.1,17.796509,1615927204435
Fix,GT,37.4840146,-122.1740672,-30.006,0.001,0.1,17.79663,1615927205435
Fix,GT,37.4840146,-122.1740672,-30.00599910575152,0.001,0.1,17.796692,1615927206435
Fix,GT,37.4840146,-122.1740672,-30.00599910575152,0.0011803539,0.1,17.797028,1615927207435
Fix,GT,37.4840146,-122.1740672,-30.006000894248487,0.0012338597,0.1,17.797424,1615927208435
Fix,GT,37.4840146,-122.1740672,-30.006000894248487,0.001180354,0.1,17.797546,1615927209435
Fix,GT,37.4840146,-122.1740672,-30.006,0.0017720596,0.1,17.797424,1615927210435
Fix,GT,37.4840146,-122.1740672,-30.006,0.0016978681,0.1,17.797363,1615927211435
Fix,GT,37.4840146,-122.1740672,-30.00730534431338,0.0011803538,0.1,17.797485,1615927212435
Fix,GT,37.4840146,-122.1740672,-30.00986993137002,0.0031432167,0.1,17.783142,1615927213435
Fix,GT,37.484014,-122.1740675,-30.007516697406764,0.19568485,0.1,17.54657,1615927214435
Fix,GT,37.4840101,-122.1740687,-29.99908217900992,0.75815976,0.1,18.251526,1615927215435
Fix,GT,37.4840001,-122.1740706,-29.987033395767213,1.385128,0.1,25.134216,1615927216435
Fix,GT,37.4839856,-122.1740743,-29.97146880853176,1.6337862,0.1,41.288177,1615927217435
Fix,GT,37.4839715,-122.1740825,-29.9516783759296,1.473852,0.1,61.05481,1615927218435
Fix,GT,37.483963,-122.1740918,-29.9326449804604,0.7815174,0.1,74.78772,1615927219435
Fix,GT,37.4839611,-122.1740944,-29.93266036516428,0.3056007,0.1,78.63043,1615927220435
Fix,GT,37.4839609,-122.1740867,-29.94957907950878,1.2227081,0.1,82.177795,1615927221435
Fix,GT,37.483956,-122.1740651,-29.96635412704945,2.5323458,0.1,95.96185,1615927222435
Fix,GT,37.4839465,-122.1740333,-29.964598877757787,3.3869085,0.1,106.125305,1615927223435
Fix,GT,37.4839441,-122.173992,-29.94193851247429,3.9337006,0.1,93.67331,1615927224435
Fix,GT,37.4839577,-122.1739486,-29.946770632267,4.374291,0.1,68.46799,1615927225435
Fix,GT,37.4839852,-122.1739138,-30.039876484155656,4.33733,0.1,44.578125,1615927226435
Fix,GT,37.4840186,-122.1738915,-30.15056017136574,4.014116,0.1,27.709839,1615927227435
Fix,GT,37.4840526,-122.1738815,-30.11576849454641,3.8128047,0.1,13.097351,1615927228435
Fix,GT,37.4840876,-122.1738878,-30.11003373995424,4.2703533,0.1,352.74542,1615927229435
Fix,GT,37.4841243,-122.1739167,-30.142367384910585,5.4851046,0.1,327.64792,1615927230435
Fix,GT,37.484157,-122.1739725,-30.04648330068588,7.029214,0.1,303.98117,1615927231435
Fix,GT,37.4841826,-122.1740534,-30.055789538443086,8.444005,0.1,289.57416,1615927232435
Fix,GT,37.4842047,-122.1741484,-30.066354125857355,8.942398,0.1,285.93002,1615927233435
Fix,GT,37.4842281,-122.1742441,-30.07330713388324,8.713061,0.1,287.54605,1615927234435
Fix,GT,37.4842554,-122.1743339,-30.094159048765896,8.223608,0.1,292.7757,1615927235435
Fix,GT,37.4842931,-122.1744094,-30.15513923966885,7.7486935,0.1,307.2618,1615927236435
Fix,GT,37.4843476,-122.1744575,-30.21985191357136,7.526771,0.1,331.4999,1615927237435
Fix,GT,37.4844144,-122.1744684,-30.22384184885025,8.062313,0.1,358.72992,1615927238435
Fix,GT,37.4844901,-122.1744462,-30.171569014608863,9.5923,0.1,16.255585,1615927239435
Fix,GT,37.4845782,-122.1744076,-30.122066801071167,11.042229,0.1,19.166931,1615927240435
Fix,GT,37.4846755,-122.1743655,-30.075263676345347,11.6457205,0.1,18.779938,1615927241435
Fix,GT,37.4847731,-122.1743247,-30.016230273365974,11.055737,0.1,18.092102,1615927242435
Fix,GT,37.4848619,-122.1742886,-29.95926367288828,9.548018,0.1,18.008118,1615927243435
Fix,GT,37.4849346,-122.1742578,-29.910680168390275,7.5160484,0.1,19.153198,1615927244435
Fix,GT,37.4849883,-122.1742329,-29.872052317619328,5.292116,0.1,20.844421,1615927245435
Fix,GT,37.485024,-122.1742152,-29.823148091316227,3.21622,0.1,21.819061,1615927246435
Fix,GT,37.4850427,-122.1742057,-29.79651581287384,1.3649122,0.1,22.088623,1615927247435
Fix,GT,37.4850487,-122.1742026,-29.794611586391923,0.27649888,0.1,21.990234,1615927248435
Fix,GT,37.4850492,-122.1742023,-29.79887082469463,0.0015645877,0.1,21.96701,1615927249435
Fix,GT,37.4850492,-122.1742023,-29.8,0.00056458765,0.1,21.9664,1615927250435
Fix,GT,37.4850492,-122.1742023,-29.80000088810921,0.00043541234,0.1,21.966095,1615927251435
Fix,GT,37.4850492,-122.1742023,-29.80000088810921,0.00056458777,0.1,21.965485,1615927252435
Fix,GT,37.4850492,-122.1742023,-29.80043541228771,0.0004354123,0.1,21.965576,1615927253435
Fix,GT,37.4850492,-122.1742023,-29.80274164915085,0.049505394,0.1,21.96344,1615927254435
Fix,GT,37.4850521,-122.1742009,-29.80891782206297,0.8741863,0.1,21.924713,1615927255435
Fix,GT,37.4850678,-122.1741933,-29.79745433533192,3.072166,0.1,21.469086,1615927256435
Fix,GT,37.4851046,-122.1741772,-29.71896099811792,5.4129944,0.1,19.10437,1615927257435
Fix,GT,37.4851593,-122.1741604,-29.558789268225432,6.8849936,0.1,12.268005,1615927258435
Fix,GT,37.4852249,-122.1741565,-29.35425807935,7.731182,0.1,359.49603,1615927259435
Fix,GT,37.4852943,-122.1741765,-29.165641156107192,8.277908,0.1,342.8158,1615927260435
Fix,GT,37.4853601,-122.1742248,-29.04434408736229,8.902261,0.1,324.70425,1615927261435
Fix,GT,37.4854148,-122.1743024,-29.02812386399508,9.782945,0.1,306.4214,1615927262435
Fix,GT,37.4854562,-122.1744067,-29.07331984949112,11.065571,0.1,293.24783,1615927263435
Fix,GT,37.4854912,-122.1745331,-29.10411024802924,12.618937,0.1,287.96082,1615927264435
Fix,GT,37.4855265,-122.1746779,-29.12804788476229,14.19391,0.1,286.5191,1615927265435
Fix,GT,37.4855645,-122.1748399,-29.13809576869011,15.678732,0.1,286.2251,1615927266435
Fix,GT,37.4856057,-122.1750179,-29.146435412049293,17.068384,0.1,286.08115,1615927267435
Fix,GT,37.4856499,-122.1752103,-29.15004701548815,18.320518,0.1,285.90417,1615927268435
Fix,GT,37.4856962,-122.1754149,-29.14485547873377,19.286842,0.1,285.72165,1615927269435
Fix,GT,37.4857445,-122.175629,-29.14257819619775,20.074802,0.1,285.66544,1615927270435
Fix,GT,37.4857944,-122.1758513,-29.155,20.715675,0.1,285.67593,1615927271435
Fix,GT,37.4858456,-122.1760788,-29.15282294005156,21.038593,0.1,285.8106,1615927272435
Fix,GT,37.485898,-122.1763075,-29.163062359690667,21.000418,0.1,286.0528,1615927273435
Fix,GT,37.4859502,-122.176534,-29.1821779294312,20.692808,0.1,285.98355,1615927274435
Fix,GT,37.4860005,-122.1767569,-29.182823809981343,20.304466,0.1,285.4844,1615927275435
Fix,GT,37.4860483,-122.1769763,-29.194369464308025,19.921616,0.1,285.0301,1615927276435
Fix,GT,37.4860941,-122.177192,-29.209082162976262,19.55121,0.1,284.72604,1615927277435
Fix,GT,37.486139,-122.1774029,-29.20138752841949,19.020939,0.1,285.11316,1615927278435
Fix,GT,37.486185,-122.1776063,-29.19538752841949,18.380157,0.1,286.5442,1615927279435
Fix,GT,37.4862341,-122.1778017,-29.20419153404236,17.923597,0.1,287.93582,1615927280435
Fix,GT,37.4862845,-122.1779918,-29.243512244224547,17.4673,0.1,288.36194,1615927281435
Fix,GT,37.4863326,-122.1781753,-29.28009576702118,16.57828,0.1,287.77838,1615927282435
Fix,GT,37.486375,-122.1783473,-29.2923532461524,15.264254,0.1,286.3527,1615927283435
Fix,GT,37.4864106,-122.1785061,-29.31410936716199,14.024336,0.1,285.14636,1615927284435
Fix,GT,37.4864416,-122.1786531,-29.331080418646337,12.863514,0.1,284.3785,1615927285435
Fix,GT,37.486465,-122.1787885,-29.317290888011456,11.686415,0.1,279.54822,1615927286435
Fix,GT,37.4864689,-122.1789148,-29.28814811331034,10.991264,0.1,266.33536,1615927287435
Fix,GT,37.4864442,-122.179031,-29.2706594825387,10.674025,0.1,248.24454,1615927288435
Fix,GT,37.4863912,-122.1791292,-29.362033624202013,10.771482,0.1,229.20506,1615927289435
Fix,GT,37.4863131,-122.1792055,-29.488415597707032,11.605726,0.1,212.74557,1615927290435
Fix,GT,37.4862143,-122.1792664,-29.5149178276062,12.941338,0.1,203.52975,1615927291435
Fix,GT,37.4861004,-122.1793231,-29.506501351326705,14.215615,0.1,201.09117,1615927292435
Fix,GT,37.4859765,-122.1793832,-29.455472404837607,15.228504,0.1,201.22893,1615927293435
Fix,GT,37.4858456,-122.1794485,-29.38108487853408,16.004257,0.1,201.79703,1615927294435
Fix,GT,37.4857094,-122.179518,-29.314438999652864,16.635569,0.1,202.21906,1615927295435
Fix,GT,37.4855685,-122.1795914,-29.23776504278183,17.192371,0.1,202.58955,1615927296435
Fix,GT,37.4854242,-122.1796689,-29.037572415351868,17.660702,0.1,203.78117,1615927297435
Fix,GT,37.4852793,-122.1797563,-28.69660582447052,18.04176,0.1,207.33983,1615927298435
Fix,GT,37.4851381,-122.1798613,-28.371425145089624,18.472994,0.1,213.07837,1615927299435
Fix,GT,37.4850037,-122.1799883,-28.03227146860957,18.926853,0.1,219.96259,1615927300435
Fix,GT,37.4848817,-122.18014,-27.756493041366337,19.356699,0.1,228.31792,1615927301435
Fix,GT,37.4847756,-122.180317,-27.689258352041243,20.024128,0.1,236.10497,1615927302435
Fix,GT,37.4846815,-122.1805152,-27.66566481250525,20.80003,0.1,240.98561,1615927303435
Fix,GT,37.4845936,-122.1807275,-27.7516425293088,21.475079,0.1,243.55064,1615927304435
Fix,GT,37.48451,-122.1809488,-28.07882433259487,21.805586,0.1,245.30862,1615927305435
Fix,GT,37.4844308,-122.1811741,-28.510547037124635,21.718779,0.1,246.71002,1615927306435
Fix,GT,37.4843572,-122.1814002,-28.816329876810315,21.483032,0.1,248.62065,1615927307435
Fix,GT,37.4842938,-122.1816285,-28.846778649896383,21.370361,0.1,252.72632,1615927308435
Fix,GT,37.4842481,-122.1818641,-28.66174943578244,21.660378,0.1,259.47253,1615927309435
Fix,GT,37.4842262,-122.1821092,-28.334491083979604,22.132942,0.1,267.03818,1615927310435
Fix,GT,37.4842298,-122.1823617,-27.99991201889515,22.658854,0.1,274.24408,1615927311435
Fix,GT,37.4842572,-122.1826193,-27.70254899251461,23.408579,0.1,280.2168,1615927312435
Fix,GT,37.4843036,-122.1828825,-27.540956568598745,24.336672,0.1,284.27814,1615927313435
Fix,GT,37.4843636,-122.1831529,-27.525947662711143,25.339367,0.1,286.3283,1615927314435
Fix,GT,37.4844309,-122.183433,-27.58530096000433,26.396759,0.1,286.8157,1615927315435
Fix,GT,37.484501,-122.1837241,-27.664670380830763,27.378534,0.1,286.64056,1615927316435
Fix,GT,37.484572,-122.1840251,-27.767459913372992,28.127361,0.1,286.27563,1615927317435
Fix,GT,37.4846432,-122.1843342,-27.863832132190467,28.751898,0.1,285.90524,1615927318435
Fix,GT,37.4847139,-122.1846512,-27.93076976922154,29.447964,0.1,285.18616,1615927319435
Fix,GT,37.4847825,-122.184977,-27.98164059177041,30.158089,0.1,284.4261,1615927320435
Fix,GT,37.484851,-122.1853105,-28.02623858588933,30.682648,0.1,284.4926,1615927321435
Fix,GT,37.4849221,-122.1856465,-28.066898941099645,30.752617,0.1,285.02133,1615927322435
Fix,GT,37.4849943,-122.1859807,-28.104884463220834,30.481613,0.1,285.11758,1615927323435
Fix,GT,37.4850649,-122.1863119,-28.134673994690186,30.154163,0.1,284.6914,1615927324435
Fix,GT,37.4851327,-122.1866401,-28.1706739936173,29.815847,0.1,284.2346,1615927325435
Fix,GT,37.4851975,-122.1869655,-28.20580316850543,29.516243,0.1,283.60312,1615927326435
Fix,GT,37.4852584,-122.1872895,-28.238061519414188,29.402405,0.1,282.75873,1615927327435
Fix,GT,37.4853156,-122.1876144,-28.26109492620826,29.498604,0.1,282.0504,1615927328435
Fix,GT,37.4853703,-122.1879417,-28.27770739790797,29.686047,0.1,281.53458,1615927329435
Fix,GT,37.4854233,-122.1882728,-28.307721873760222,30.068508,0.1,281.0537,1615927330435
Fix,GT,37.4854745,-122.1886079,-28.343756125330927,30.23835,0.1,280.5846,1615927331435
Fix,GT,37.4855235,-122.1889428,-28.36161247229576,29.961689,0.1,280.11646,1615927332435
Fix,GT,37.4855696,-122.1892746,-28.38720601451397,29.635696,0.1,279.59918,1615927333435
Fix,GT,37.485613,-122.1896037,-28.431674835920333,29.3615,0.1,279.11884,1615927334435
Fix,GT,37.4856542,-122.1899301,-28.48204343551397,29.103828,0.1,278.78125,1615927335435
Fix,GT,37.485694,-122.1902539,-28.565412035107613,28.849508,0.1,278.62006,1615927336435
Fix,GT,37.4857331,-122.190575,-28.64389892962575,28.590809,0.1,278.5932,1615927337435
Fix,GT,37.485772,-122.1908931,-28.69102810391784,28.33965,0.1,278.68793,1615927338435
Fix,GT,37.4858109,-122.1912091,-28.737464371919632,28.249964,0.1,278.74503,1615927339435
Fix,GT,37.4858499,-122.1915252,-28.780110250234603,28.345749,0.1,278.69443,1615927340435
Fix,GT,37.4858888,-122.191842,-28.817981934070588,28.326702,0.1,278.7077,1615927341435
Fix,GT,37.4859276,-122.1921576,-28.856546523034574,28.131102,0.1,278.65436,1615927342435
Fix,GT,37.4859656,-122.1924706,-28.89759355026484,27.882301,0.1,278.55875,1615927343435
Fix,GT,37.4860032,-122.1927809,-28.937804015755653,27.631725,0.1,278.5635,1615927344435
Fix,GT,37.4860407,-122.1930883,-28.97876974990964,27.379492,0.1,278.69736,1615927345435
Fix,GT,37.4860785,-122.1933929,-29.0187552664876,27.136082,0.1,278.8866,1615927346435
Fix,GT,37.4861167,-122.1936946,-29.060995561838148,26.889835,0.1,278.88892,1615927347435
Fix,GT,37.4861541,-122.1939938,-29.11820689532161,26.73677,0.1,278.76758,1615927348435
Fix,GT,37.486191,-122.1942931,-29.16267571207881,26.910475,0.1,278.66956,1615927349435
Fix,GT,37.4862281,-122.1945959,-29.178210464179514,27.276375,0.1,278.66214,1615927350435
Fix,GT,37.4862659,-122.1949024,-29.178095772862434,27.530087,0.1,278.76477,1615927351435
Fix,GT,37.4863041,-122.1952106,-29.185999130189423,27.600468,0.1,278.76172,1615927352435
Fix,GT,37.4863422,-122.1955181,-29.18643541240692,27.432486,0.1,278.762,1615927353435
Fix,GT,37.4863802,-122.1958238,-29.19222581908107,27.32603,0.1,278.77954,1615927354435
Fix,GT,37.4864183,-122.1961297,-29.199435412466528,27.495268,0.1,278.8719,1615927355435
Fix,GT,37.4864573,-122.1964389,-29.19433963793516,27.881165,0.1,278.91437,1615927356435
Fix,GT,37.4864966,-122.1967521,-29.184822937369347,28.162607,0.1,278.85208,1615927357435
Fix,GT,37.4865361,-122.197067,-29.18330710735917,28.20734,0.1,278.85974,1615927358435
Fix,GT,37.4865758,-122.1973819,-29.18412917482853,28.181896,0.1,278.93134,1615927359435
Fix,GT,37.4866154,-122.1976962,-29.1803866545856,28.082314,0.1,278.87616,1615927360435
Fix,GT,37.4866544,-122.1980088,-29.17438752412796,27.856102,0.1,278.70184,1615927361435
Fix,GT,37.4866924,-122.1983188,-29.16185720318556,27.679527,0.1,278.63303,1615927362435
Fix,GT,37.4867303,-122.1986281,-29.15087082540989,27.725666,0.1,278.6638,1615927363435
Fix,GT,37.4867685,-122.1989387,-29.151564587295056,27.846752,0.1,278.7069,1615927364435
Fix,GT,37.4868069,-122.1992498,-29.138372161924835,27.808449,0.1,278.77905,1615927365435
Fix,GT,37.4868455,-122.1995594,-29.129837429761885,27.592228,0.1,278.87155,1615927366435
Fix,GT,37.4868843,-122.199867,-29.142177932411435,27.535896,0.1,278.90216,1615927367435
Fix,GT,37.486923,-122.2001762,-29.145870825648306,27.874788,0.1,278.77768,1615927368435
Fix,GT,37.4869616,-122.2004903,-29.14438665422797,28.333195,0.1,278.6525,1615927369435
Fix,GT,37.4870006,-122.2008088,-29.14012830582261,28.704445,0.1,278.69217,1615927370435
Fix,GT,37.4870405,-122.2011315,-29.13987082576752,29.069996,0.1,278.83957,1615927371435
Fix,GT,37.4870817,-122.201458,-29.134034261852506,29.311193,0.1,278.99408,1615927372435
Fix,GT,37.4871235,-122.201785,-29.128482435792684,29.208082,0.1,279.0213,1615927373435
Fix,GT,37.4871645,-122.2021095,-29.12908041501045,28.898094,0.1,278.85925,1615927374435
Fix,GT,37.4872046,-122.2024306,-29.130966608047487,28.587269,0.1,278.75247,1615927375435
Fix,GT,37.487244,-122.202749,-29.141742520570755,28.452227,0.1,278.7736,1615927376435
Fix,GT,37.4872836,-122.2030677,-29.137905086100098,28.639862,0.1,278.70813,1615927377435
Fix,GT,37.4873229,-122.2033891,-29.132177933305503,28.83482,0.1,278.54147,1615927378435
Fix,GT,37.4873616,-122.2037119,-29.13587082612515,28.884863,0.1,278.44653,1615927379435
Fix,GT,37.4874001,-122.2040348,-29.13046880406141,28.839132,0.1,278.45044,1615927380435
Fix,GT,37.487439,-122.204356,-29.125483304500577,28.62228,0.1,278.62726,1615927381435
Fix,GT,37.4874784,-122.2046754,-29.12912917387486,28.59423,0.1,278.74323,1615927382435
Fix,GT,37.4875181,-122.2049962,-29.122774174809457,28.82597,0.1,278.7544,1615927383435
Fix,GT,37.4875585,-122.2053187,-29.0794244325161,28.858269,0.1,278.92432,1615927384435
Fix,GT,37.4875991,-122.2056393,-28.98845782554149,28.53577,0.1,278.95444,1615927385435
Fix,GT,37.4876391,-122.205956,-28.93548244249821,28.213531,0.1,278.93408,1615927386435
Fix,GT,37.4876792,-122.2062699,-28.94174078989029,28.029257,0.1,279.1497,1615927387435
Fix,GT,37.4877199,-122.2065819,-28.920922243505714,27.847641,0.1,279.25537,1615927388435
Fix,GT,37.4877608,-122.206891,-28.895788682997228,27.60152,0.1,279.41742,1615927389435
Fix,GT,37.4878027,-122.2071984,-28.867166954994204,27.627014,0.1,279.89124,1615927390435
Fix,GT,37.4878475,-122.2075068,-28.8093721613586,27.814867,0.1,280.61383,1615927391435
Fix,GT,37.4878957,-122.2078153,-28.797789543688296,27.694666,0.1,281.3818,1615927392435
Fix,GT,37.4879461,-122.2081202,-28.797904217123985,27.415157,0.1,281.92697,1615927393435
Fix,GT,37.4879982,-122.2084227,-28.78259797793627,27.420181,0.1,282.29312,1615927394435
Fix,GT,37.488052,-122.2087279,-28.76167926037312,27.907776,0.1,282.44302,1615927395435
Fix,GT,37.4881077,-122.2090382,-28.73306678199768,28.248856,0.1,282.8317,1615927396435
Fix,GT,37.4881657,-122.2093486,-28.70846966028213,28.111897,0.1,283.5658,1615927397435
Fix,GT,37.4882267,-122.2096556,-28.69042176860571,27.83651,0.1,284.29742,1615927398435
Fix,GT,37.4882901,-122.2099581,-28.66755094188452,27.500847,0.1,285.03827,1615927399435
Fix,GT,37.4883557,-122.2102559,-28.63310102838278,27.14764,0.1,285.70435,1615927400435
Fix,GT,37.4884229,-122.2105487,-28.493228877037765,26.738869,0.1,286.282,1615927401435
Fix,GT,37.4884911,-122.210836,-28.13103598055244,26.293743,0.1,286.78027,1615927402435
Fix,GT,37.4885603,-122.2111189,-27.54969501134753,26.197678,0.1,287.12003,1615927403435
Fix,GT,37.4886318,-122.2114033,-26.820684882938863,26.709133,0.1,287.67374,1615927404435
Fix,GT,37.4887083,-122.211695,-26.032364120930435,27.622936,0.1,288.48303,1615927405435
Fix,GT,37.4887904,-122.2119965,-25.2419902895689,28.725632,0.1,288.98285,1615927406435
Fix,GT,37.4888769,-122.2123078,-24.46755487650633,29.568312,0.1,289.3277,1615927407435
Fix,GT,37.4889669,-122.2126255,-23.66425302743912,30.0318,0.1,289.79324,1615927408435
Fix,GT,37.4890611,-122.2129463,-22.970116403400898,30.474907,0.1,290.57562,1615927409435
Fix,GT,37.489161,-122.2132697,-22.515624318659302,30.84621,0.1,291.70166,1615927410435
Fix,GT,37.4892665,-122.2135939,-22.213271518111227,31.087666,0.1,292.53763,1615927411435
Fix,GT,37.4893749,-122.2139191,-22.07464959853888,31.251087,0.1,292.75177,1615927412435
Fix,GT,37.4894848,-122.214244,-22.03574099570513,31.159586,0.1,293.19037,1615927413435
Fix,GT,37.4895969,-122.2145657,-22.081540652453903,30.963478,0.1,294.0134,1615927414435
Fix,GT,37.4897122,-122.2148841,-22.369639105379584,30.927116,0.1,294.71674,1615927415435
Fix,GT,37.4898304,-122.2152006,-22.928634701251987,30.911438,0.1,295.36145,1615927416435
Fix,GT,37.489951,-122.2155149,-23.600573627084493,30.769005,0.1,295.92728,1615927417435
Fix,GT,37.4900738,-122.2158257,-24.406664999067782,30.61039,0.1,296.60623,1615927418435
Fix,GT,37.4901989,-122.2161333,-25.24782830452919,30.470507,0.1,297.32855,1615927419435
Fix,GT,37.4903264,-122.2164376,-26.091890698194504,30.354652,0.1,298.01138,1615927420435
Fix,GT,37.4904559,-122.2167391,-26.939828304529183,30.219803,0.1,298.4871,1615927421435
Fix,GT,37.4905863,-122.217038,-27.71204753303528,30.049637,0.1,298.69928,1615927422435
Fix,GT,37.4907166,-122.2173344,-28.272198638916016,29.835918,0.1,298.92514,1615927423435
Fix,GT,37.4908469,-122.2176278,-28.546474532127377,29.55868,0.1,299.13913,1615927424435
Fix,GT,37.4909764,-122.2179177,-28.629272849321364,29.184471,0.1,299.1825,1615927425435
Fix,GT,37.491104,-122.2182034,-28.63869461408257,28.68951,0.1,299.1246,1615927426435
Fix,GT,37.4912287,-122.2184833,-28.640048745512964,28.000187,0.1,299.2284,1615927427435
Fix,GT,37.4913509,-122.2187547,-28.66011114028096,27.125145,0.1,299.57083,1615927428435
Fix,GT,37.4914713,-122.2190169,-28.69188618355989,26.44105,0.1,300.28616,1615927429435
Fix,GT,37.4915925,-122.2192719,-28.70208213713765,26.062382,0.1,301.16226,1615927430435
Fix,GT,37.4917141,-122.2195223,-28.714852794468403,25.826591,0.1,301.2248,1615927431435
Fix,GT,37.4918341,-122.2197722,-28.742790401130915,25.8876,0.1,300.68222,1615927432435
Fix,GT,37.4919533,-122.2200272,-28.79863710272312,26.536263,0.1,299.84753,1615927433435
Fix,GT,37.4920732,-122.2202926,-28.891737269997595,27.447353,0.1,299.0496,1615927434435
Fix,GT,37.4921945,-122.2205674,-28.94423946136236,28.073177,0.1,298.8243,1615927435435
Fix,GT,37.4923188,-122.2208469,-28.937874344110487,28.518757,0.1,299.28262,1615927436435
Fix,GT,37.4924471,-122.2211281,-28.848266247510907,28.772236,0.1,300.0801,1615927437435
Fix,GT,37.4925791,-122.2214086,-28.77687082648277,28.810392,0.1,300.83325,1615927438435
Fix,GT,37.4927134,-122.2216881,-28.730975369930267,28.938023,0.1,300.95834,1615927439435
Fix,GT,37.4928481,-122.2219714,-28.624282460957765,29.413435,0.1,300.41284,1615927440435
Fix,GT,37.4929817,-122.2222607,-28.50665547296405,29.653776,0.1,299.67856,1615927441435
Fix,GT,37.4931123,-122.2225514,-28.39834400242568,29.352165,0.1,299.11865,1615927442435
Fix,GT,37.4932399,-122.2228401,-28.382560211360456,29.069878,0.1,298.87955,1615927443435
Fix,GT,37.4933657,-122.2231283,-28.440076904952527,29.119616,0.1,298.32858,1615927444435
Fix,GT,37.4934896,-122.2234201,-28.48306239902973,29.358387,0.1,297.55798,1615927445435
Fix,GT,37.493611,-122.2237155,-28.43730048465729,29.366024,0.1,296.92905,1615927446435
Fix,GT,37.4937295,-122.2240111,-28.31986069601774,29.098396,0.1,296.441,1615927447435
Fix,GT,37.4938447,-122.2243042,-28.13366689154505,28.745184,0.1,295.86496,1615927448435
Fix,GT,37.4939565,-122.2245964,-27.76315895470977,28.650587,0.1,295.25214,1615927449435
Fix,GT,37.4940658,-122.2248904,-27.39551886063814,28.740627,0.1,294.66003,1615927450435
Fix,GT,37.4941731,-122.2251859,-27.13088750886917,28.663235,0.1,294.24036,1615927451435
Fix,GT,37.4942779,-122.2254808,-27.00114448562265,28.419922,0.1,293.72476,1615927452435
Fix,GT,37.494379,-122.225774,-26.99514885604382,28.087381,0.1,292.98608,1615927453435
Fix,GT,37.4944757,-122.226065,-26.966340429753068,27.617365,0.1,292.21893,1615927454435
Fix,GT,37.4945666,-122.2263501,-26.960742457002404,26.610086,0.1,291.43842,1615927455435
Fix,GT,37.4946511,-122.2266238,-26.977369445443152,25.337135,0.1,290.97888,1615927456435
Fix,GT,37.4947305,-122.2268863,-26.97727802875638,24.419048,0.1,290.66656,1615927457435
Fix,GT,37.4948061,-122.2271403,-26.9965421423018,23.409828,0.1,290.25372,1615927458435
Fix,GT,37.4948766,-122.227382,-27.130939803123475,22.109623,0.1,289.9676,1615927459435
Fix,GT,37.494943,-122.2276119,-27.380912191092968,21.321564,0.1,289.8427,1615927460435
Fix,GT,37.4950082,-122.2278381,-27.753826552003623,21.287725,0.1,289.875,1615927461435
Fix,GT,37.4950741,-122.2280655,-28.170309871435165,21.550674,0.1,289.80914,1615927462435
Fix,GT,37.4951403,-122.2282968,-28.54602689138055,21.92113,0.1,289.3141,1615927463435
Fix,GT,37.4952056,-122.2285318,-28.791619104802606,22.043777,0.1,289.03082,1615927464435
Fix,GT,37.4952708,-122.2287661,-28.87190507316589,21.847866,0.1,289.34894,1615927465435
Fix,GT,37.4953371,-122.228997,-28.867048753947017,21.526958,0.1,290.15616,1615927466435
Fix,GT,37.4954055,-122.2292224,-28.8875448461473,21.117352,0.1,291.40326,1615927467435
Fix,GT,37.4954774,-122.22944,-28.96255497813225,20.495638,0.1,293.17773,1615927468435
Fix,GT,37.4955508,-122.2296469,-29.06378430792689,19.43497,0.1,294.1671,1615927469435
Fix,GT,37.4956204,-122.2298416,-29.11806153252721,18.310553,0.1,293.82413,1615927470435
Fix,GT,37.4956862,-122.2300267,-29.14588446497917,17.622145,0.1,293.97522,1615927471435
Fix,GT,37.4957505,-122.230206,-29.147372144371275,17.123785,0.1,294.25162,1615927472435
Fix,GT,37.4958131,-122.2303797,-29.11967925417423,16.592596,0.1,294.19104,1615927473435
Fix,GT,37.4958734,-122.2305484,-29.136785170972345,16.170048,0.1,293.8893,1615927474435
Fix,GT,37.4959315,-122.2307144,-29.23590996903181,15.924578,0.1,293.39606,1615927475435
Fix,GT,37.495989,-122.2308786,-29.325804052233696,15.7785,0.1,293.64447,1615927476435
Fix,GT,37.4960473,-122.2310389,-29.34848330640793,15.283182,0.1,295.21774,1615927477435
Fix,GT,37.49611,-122.2311879,-29.3434209073782,14.528612,0.1,300.09863,1615927478435
Fix,GT,37.4961832,-122.2313188,-29.2434819265008,13.957512,0.1,308.89862,1615927479435
Fix,GT,37.4962698,-122.2314284,-29.065558831453323,13.489347,0.1,318.62247,1615927480435
Fix,GT,37.4963673,-122.2315166,-28.93584619009495,13.329617,0.1,327.36398,1615927481435
Fix,GT,37.4964738,-122.2315866,-28.758439277350902,13.396539,0.1,335.28534,1615927482435
Fix,GT,37.4965862,-122.2316374,-28.505854940772057,13.155836,0.1,343.21878,1615927483435
Fix,GT,37.4966988,-122.2316712,-28.2871765383482,12.502646,0.1,348.17615,1615927484435
Fix,GT,37.4968063,-122.2316982,-28.124105379760262,11.79856,0.1,348.51703,1615927485435
Fix,GT,37.4969079,-122.231729,-28.056340463787315,11.441195,0.1,344.72522,1615927486435
Fix,GT,37.497002,-122.2317728,-28.0350676112473,10.824217,0.1,336.28195,1615927487435
Fix,GT,37.4970822,-122.231831,-28.006550916463137,9.785684,0.1,326.45566,1615927488435
Fix,GT,37.4971473,-122.2318981,-28.012593595862388,9.059451,0.1,318.05637,1615927489435
Fix,GT,37.4972018,-122.2319715,-28.03538752055168,8.715814,0.1,310.9225,1615927490435
Fix,GT,37.4972464,-122.2320466,-27.99586070096493,7.7169533,0.1,304.78452,1615927491435
Fix,GT,37.4972783,-122.2321123,-27.93506677627564,5.8112993,0.1,299.8937,1615927492435
Fix,GT,37.4972978,-122.2321615,-27.909162561655044,3.896904,0.1,295.33795,1615927493435
Fix,GT,37.4973086,-122.232195,-27.893775041103364,2.5914173,0.1,292.02197,1615927494435
Fix,GT,37.4973153,-122.2322178,-27.879162561655043,1.8073323,0.1,290.80118,1615927495435
Fix,GT,37.4973197,-122.2322328,-27.86595210731029,0.9313005,0.1,290.556,1615927496435
Fix,GT,37.4973212,-122.2322378,-27.864176235705614,0.12479838,0.1,290.52878,1615927497435
Fix,GT,37.4973213,-122.232238,-27.866999169498683,0.0017961212,0.1,290.52722,1615927498435
Fix,GT,37.4973213,-122.232238,-27.8665637562871,0.0022126597,0.1,290.52634,1615927499435
Fix,GT,37.4973213,-122.232238,-27.868176235586404,0.042128313,0.1,290.525,1615927500435
Fix,GT,37.4973222,-122.2322411,-27.87404706186056,0.7491621,0.1,290.50616,1615927501435
Fix,GT,37.4973274,-122.232258,-27.86363053318858,2.5854414,0.1,290.74908,1615927502435
Fix,GT,37.4973386,-122.232294,-27.81408483213186,4.060773,0.1,291.0235,1615927503435
Fix,GT,37.4973523,-122.232338,-27.75440557774901,4.1487713,0.1,291.2104,1615927504435
Fix,GT,37.4973661,-122.2323804,-27.720726322591304,4.114638,0.1,292.04474,1615927505435
Fix,GT,37.4973811,-122.2324255,-27.676036943674088,4.615698,0.1,292.42896,1615927506435
Fix,GT,37.497396,-122.2324771,-27.559285170167684,4.9594955,0.1,289.0868,1615927507435
Fix,GT,37.4974056,-122.2325314,-27.395768480837347,4.772556,0.1,280.94714,1615927508435
Fix,GT,37.4974069,-122.2325837,-27.25984538578988,4.597066,0.1,270.4163,1615927509435
Fix,GT,37.4973974,-122.2326349,-27.163860700964925,4.847413,0.1,255.66716,1615927510435
Fix,GT,37.497373,-122.2326828,-27.08782731282711,5.3756537,0.1,235.3606,1615927511435
Fix,GT,37.4973325,-122.2327216,-26.986429666757587,6.158822,0.1,215.48956,1615927512435
Fix,GT,37.4972788,-122.2327533,-26.77729474675656,6.9698133,0.1,204.15607,1615927513435
Fix,GT,37.4972188,-122.2327831,-26.44797838151455,7.243718,0.1,201.12114,1615927514435
Fix,GT,37.4971593,-122.2328109,-26.085088671445845,6.830535,0.1,200.2169,1615927515435
Fix,GT,37.497103,-122.2328366,-25.749619870066645,6.584841,0.1,199.78052,1615927516435
Fix,GT,37.4970455,-122.2328625,-25.393011769652368,7.136849,0.1,199.5235,1615927517435
Fix,GT,37.4969806,-122.2328915,-25.006720034480097,8.082626,0.1,199.62491,1615927518435
Fix,GT,37.4969091,-122.2329244,-24.643912333846096,8.7244215,0.1,200.08344,1615927519435
Fix,GT,37.496835,-122.2329588,-24.320860053420063,8.723436,0.1,200.20644,1615927520435
Fix,GT,37.4967629,-122.2329923,-24.0554202542603,8.327386,0.1,200.25905,1615927521435
Fix,GT,37.4966943,-122.2330244,-23.82920979335904,7.9389906,0.1,200.34203,1615927522435
Fix,GT,37.4966275,-122.2330556,-23.60050152137876,7.9660816,0.1,200.38109,1615927523435
Fix,GT,37.4965573,-122.2330885,-23.3774819265008,8.831173,0.1,200.30438,1615927524435
Fix,GT,37.4964774,-122.2331253,-23.20609003096819,10.086515,0.1,200.05408,1615927525435
Fix,GT,37.4963876,-122.233166,-23.100956482231616,10.956305,0.1,199.6396,1615927526435
Fix,GT,37.4962935,-122.2332081,-23.08072277194261,11.06712,0.1,199.41301,1615927527435
Fix,GT,37.4962006,-122.23325,-23.158119737774136,10.798614,0.1,199.91756,1615927528435
Fix,GT,37.4961099,-122.2332926,-23.348044213742018,10.715194,0.1,200.86073,1615927529435
Fix,GT,37.4960198,-122.233337,-23.62996292543412,10.775715,0.1,201.46529,1615927530435
Fix,GT,37.4959294,-122.2333825,-23.98749987646937,10.885761,0.1,201.9204,1615927531435
Fix,GT,37.4958388,-122.2334309,-24.47351147291064,10.977428,0.1,203.76546,1615927532435
Fix,GT,37.4957505,-122.2334867,-25.08196717858314,11.010403,0.1,208.42543,1615927533435
Fix,GT,37.4956676,-122.2335559,-25.869695743769405,11.235874,0.1,216.40907,1615927534435
Fix,GT,37.4955939,-122.2336453,-26.80214132201672,11.68294,0.1,227.81535,1615927535435
Fix,GT,37.4955338,-122.2337558,-27.72131185954809,12.0833,0.1,239.72238,1615927536435
Fix,GT,37.4954925,-122.2338826,-28.417496257722377,12.250118,0.1,252.22632,1615927537435
Fix,GT,37.4954765,-122.2340178,-28.85708761164546,12.173248,0.1,267.10995,1615927538435
Fix,GT,37.4954897,-122.2341523,-29.173608659803868,12.127306,0.1,282.56006,1615927539435
Fix,GT,37.495531,-122.2342779,-29.39269866269827,12.195135,0.1,297.79718,1615927540435
Fix,GT,37.4955969,-122.2343862,-29.475306240439416,12.111855,0.1,312.65146,1615927541435
Fix,GT,37.495681,-122.2344688,-29.485272856116296,11.812372,0.1,327.14395,1615927542435
Fix,GT,37.4957761,-122.2345212,-29.488597970843315,11.466889,0.1,341.22568,1615927543435
Fix,GT,37.495876,-122.2345428,-29.46768012729288,11.3208275,0.1,354.88477,1615927544435
Fix,GT,37.4959774,-122.2345333,-29.44951756969094,11.498484,0.1,9.037537,1615927545435
Fix,GT,37.4960769,-122.234492,-29.45719157910348,11.924666,0.1,23.100403,1615927546435
Fix,GT,37.4961692,-122.2344191,-29.477354135394098,12.472393,0.1,36.94821,1615927547435
Fix,GT,37.4962475,-122.2343161,-29.4738563156724,12.943594,0.1,51.76422,1615927548435
Fix,GT,37.4963024,-122.234186,-29.478980251163243,13.457599,0.1,68.42609,1615927549435
Fix,GT,37.4963247,-122.2340356,-29.470955584526063,14.101994,0.1,86.03284,1615927550435
Fix,GT,37.4963132,-122.2338729,-29.38062032169104,15.167937,0.1,99.40625,1615927551435
Fix,GT,37.496279,-122.2336987,-29.27829608488083,16.64034,0.1,105.05682,1615927552435
Fix,GT,37.4962348,-122.2335096,-29.222857184976338,18.232822,0.1,106.53113,1615927553435
Fix,GT,37.4961844,-122.2333037,-29.189665602743624,19.838585,0.1,107.128876,1615927554435
Fix,GT,37.4961288,-122.2330825,-29.151550942003723,21.140732,0.1,107.37961,1615927555435
Fix,GT,37.4960702,-122.2328495,-29.119713495969773,22.075073,0.1,107.31543,1615927556435
Fix,GT,37.4960095,-122.232607,-29.06378025859594,22.852314,0.1,107.35626,1615927557435
Fix,GT,37.4959464,-122.2323571,-28.990650216579432,23.459,0.1,107.59119,1615927558435
Fix,GT,37.495881,-122.2321029,-28.91037735706568,23.672533,0.1,107.872955,1615927559435
Fix,GT,37.4958152,-122.2318494,-28.840712626338004,23.453049,0.1,108.07068,1615927560435
Fix,GT,37.4957502,-122.2315982,-28.81046879512072,23.322706,0.1,107.758484,1615927561435
Fix,GT,37.495686,-122.2313459,-28.785888835161924,23.617931,0.1,107.5224,1615927562435
Fix,GT,37.4956199,-122.2310879,-28.78285110396147,24.26538,0.1,107.93808,1615927563435
Fix,GT,37.49555,-122.2308247,-28.780309733897447,24.71646,0.1,108.739685,1615927564435
Fix,GT,37.4954767,-122.230561,-28.75048330974579,24.592054,0.1,109.526306,1615927565435
Fix,GT,37.4954022,-122.230301,-28.744550070762635,24.305946,0.1,109.64261,1615927566435
Fix,GT,37.4953293,-122.2300416,-28.732306241154674,24.366804,0.1,109.09827,1615927567435
Fix,GT,37.4952586,-122.2297791,-28.74445078629256,24.676104,0.1,108.174866,1615927568435
Fix,GT,37.49519,-122.229511,-28.74624382799864,25.190674,0.1,107.41171,1615927569435
Fix,GT,37.4951203,-122.2292363,-28.717502172887325,25.804882,0.1,107.85065,1615927570435
Fix,GT,37.4950462,-122.2289577,-28.678229311108588,26.152388,0.1,108.78018,1615927571435
Fix,GT,37.4949687,-122.228677,-28.596879511833187,26.3383,0.1,109.168976,1615927572435
Fix,GT,37.4948903,-122.2283966,-28.42829023122788,26.167316,0.1,109.2959,1615927573435
Fix,GT,37.4948122,-122.2281194,-28.1291894351542,25.835802,0.1,109.43817,1615927574435
Fix,GT,37.4947344,-122.2278446,-27.752687253415584,25.84008,0.1,109.474304,1615927575435
Fix,GT,37.4946557,-122.2275668,-27.4524672870636,26.352432,0.1,109.52991,1615927576435
Fix,GT,37.4945739,-122.2272821,-27.28550569042564,27.127895,0.1,109.903015,1615927577435
Fix,GT,37.4944874,-122.2269885,-27.2160180452466,28.244862,0.1,110.42798,1615927578435
Fix,GT,37.4943949,-122.2266826,-27.190952102303505,29.647131,0.1,110.949615,1615927579435
Fix,GT,37.4942951,-122.2263631,-27.19483745121956,30.985868,0.1,111.73285,1615927580435
Fix,GT,37.4941873,-122.2260331,-27.216321574419737,32.026924,0.1,112.634155,1615927581435
Fix,GT,37.4940728,-122.2256955,-27.22577584370971,32.847633,0.1,113.26019,1615927582435
Fix,GT,37.4939528,-122.2253508,-27.454994396805763,33.660297,0.1,113.81381,1615927583435
Fix,GT,37.4938266,-122.2249996,-27.90381497976184,34.47187,0.1,114.70389,1615927584435
Fix,GT,37.4936932,-122.2246432,-28.25706898465753,35.145157,0.1,115.494446,1615927585435
Fix,GT,37.4935537,-122.2242836,-28.596915941238404,35.53733,0.1,116.36316,1615927586435
Fix,GT,37.493409,-122.2239239,-28.78852688384056,35.65384,0.1,117.16214,1615927587435
Fix,GT,37.4932608,-122.2235669,-28.82895296052098,35.496563,0.1,117.77573,1615927588435
Fix,GT,37.4931107,-122.2232142,-28.80105222254992,35.257603,0.1,118.37396,1615927589435
Fix,GT,37.4929583,-122.2228647,-28.75519591939449,35.24266,0.1,118.87512,1615927590435
Fix,GT,37.492804,-122.222516,-28.70029518204928,35.27388,0.1,119.02478,1615927591435
Fix,GT,37.4926497,-122.2221679,-28.68273733687401,35.14057,0.1,119.04254,1615927592435
Fix,GT,37.4924957,-122.2218226,-28.73175618326664,34.829403,0.1,119.25516,1615927593435
Fix,GT,37.4923426,-122.2214813,-28.78531645441055,34.43151,0.1,119.33429,1615927594435
Fix,GT,37.4921911,-122.221144,-28.83717621207237,34.061966,0.1,119.2832,1615927595435
Fix,GT,37.4920418,-122.2208099,-28.86743024042249,33.704475,0.1,119.07953,1615927596435
Fix,GT,37.4918949,-122.2204788,-28.86599064213037,33.3177,0.1,118.942474,1615927597435
Fix,GT,37.49175,-122.2201514,-28.791440583854914,32.899902,0.1,118.977905,1615927598435
Fix,GT,37.4916071,-122.2198289,-28.73261679506302,32.38193,0.1,119.03076,1615927599435
Fix,GT,37.4914664,-122.2195125,-28.684454253792765,31.691544,0.1,119.07178,1615927600435
Fix,GT,37.4913285,-122.2192028,-28.65995124495029,31.057196,0.1,119.08835,1615927601435
Fix,GT,37.4911929,-122.2188984,-28.6603541443348,30.654633,0.1,119.12097,1615927602435
Fix,GT,37.4910588,-122.2185976,-28.65903336906433,30.327152,0.1,119.1734,1615927603435
Fix,GT,37.4909257,-122.2182996,-28.62431140050292,30.131302,0.1,119.159424,1615927604435
Fix,GT,37.490793,-122.2180016,-28.567487617373462,30.2818,0.1,119.04855,1615927605435
Fix,GT,37.4906594,-122.2176997,-28.45122334486246,30.821838,0.1,118.92178,1615927606435
Fix,GT,37.4905233,-122.2173915,-28.130564769893887,31.472357,0.1,118.93756,1615927607435
Fix,GT,37.4903851,-122.2170787,-27.493251775741577,31.68102,0.1,118.97406,1615927608435
Fix,GT,37.4902479,-122.216766,-26.65542884850501,31.428688,0.1,118.63919,1615927609435
Fix,GT,37.4901143,-122.2164553,-25.817817116469143,31.065544,0.1,117.94736,1615927610435
Fix,GT,37.4899856,-122.2161465,-24.96897962892056,30.531582,0.1,117.18024,1615927611435
Fix,GT,37.4898626,-122.2158413,-24.14307035857439,30.001886,0.1,116.40869,1615927612435
Fix,GT,37.4897445,-122.215538,-23.38445357686281,29.771328,0.1,115.66861,1615927613435
Fix,GT,37.489629,-122.2152327,-22.71187970077992,30.03265,0.1,115.131836,1615927614435
Fix,GT,37.4895141,-122.2149236,-22.206107665389776,30.241484,0.1,114.86496,1615927615435
Fix,GT,37.4894003,-122.2146134,-21.915238497287035,30.15681,0.1,114.42856,1615927616435
Fix,GT,37.4892893,-122.2143015,-21.829627027213576,30.31002,0.1,113.57025,1615927617435
Fix,GT,37.4891814,-122.2139843,-21.86559366291761,30.656055,0.1,112.588684,1615927618435
Fix,GT,37.4890764,-122.2136623,-21.96414902749657,30.877348,0.1,111.86429,1615927619435
Fix,GT,37.4889739,-122.2133367,-22.24318045663833,31.026022,0.1,111.13623,1615927620435
Fix,GT,37.4888739,-122.213008,-22.72365520906448,31.153759,0.1,110.54303,1615927621435
Fix,GT,37.4887763,-122.2126778,-23.39317001006007,31.090591,0.1,109.97287,1615927622435
Fix,GT,37.4886815,-122.2123477,-24.22118457531929,30.97189,0.1,109.45087,1615927623435
Fix,GT,37.4885894,-122.2120175,-25.07045677161217,30.91875,0.1,108.99103,1615927624435
Fix,GT,37.4885,-122.2116866,-25.95788790720701,30.905968,0.1,108.34021,1615927625435
Fix,GT,37.4884139,-122.2113539,-26.861293475955726,30.9971,0.1,107.52533,1615927626435
Fix,GT,37.4883314,-122.2110183,-27.661354186177256,31.095728,0.1,106.620544,1615927627435
Fix,GT,37.4882525,-122.2106803,-28.220151421189307,31.220478,0.1,105.983154,1615927628435
Fix,GT,37.4881753,-122.2103395,-28.48612061905861,31.458294,0.1,105.57922,1615927629435
Fix,GT,37.4881001,-122.209995,-28.58591531175375,31.684677,0.1,104.94861,1615927630435
Fix,GT,37.488028,-122.2096481,-28.638627034127715,31.734758,0.1,104.22302,1615927631435
Fix,GT,37.4879596,-122.2093006,-28.68547904789448,31.545872,0.1,103.47186,1615927632435
Fix,GT,37.4878951,-122.2089539,-28.74023952603341,31.491322,0.1,102.72943,1615927633435
Fix,GT,37.4878337,-122.2086053,-28.80092901277542,31.710089,0.1,102.11301,1615927634435
Fix,GT,37.4877744,-122.2082534,-28.87489992141724,31.888588,0.1,101.680084,1615927635435
Fix,GT,37.4877171,-122.2078991,-28.915934143245224,32.037758,0.1,101.154785,1615927636435
Fix,GT,37.4876628,-122.2075429,-28.95141660356521,32.112827,0.1,100.40646,1615927637435
Fix,GT,37.4876119,-122.2071846,-28.99359368169308,32.260902,0.1,99.73489,1615927638435
Fix,GT,37.4875639,-122.2068236,-29.042077002882955,32.43505,0.1,99.17026,1615927639435
Fix,GT,37.487518,-122.2064619,-29.08201541551947,32.3116,0.1,98.85565,1615927640435
Fix,GT,37.4874733,-122.2061027,-29.092822923958305,31.977352,0.1,98.737976,1615927641435
Fix,GT,37.4874294,-122.2057471,-29.113076140671968,31.725006,0.1,98.65378,1615927642435
Fix,GT,37.4873862,-122.2053929,-29.17304365348816,31.696165,0.1,98.53363,1615927643435
Fix,GT,37.4873434,-122.2050384,-29.22158000713587,31.737701,0.1,98.46008,1615927644435
Fix,GT,37.4873007,-122.2046833,-29.232258338689807,31.751968,0.1,98.53076,1615927645435
Fix,GT,37.4872573,-122.2043287,-29.230869959592823,31.685894,0.1,98.72449,1615927646435
Fix,GT,37.4872132,-122.2039755,-29.20456796130538,31.572994,0.1,98.87256,1615927647435
Fix,GT,37.4871688,-122.2036237,-29.16029169225693,31.445591,0.1,98.883026,1615927648435
Fix,GT,37.4871246,-122.2032731,-29.14856545329094,31.336788,0.1,98.80432,1615927649435
Fix,GT,37.4870811,-122.2029234,-29.14059793740511,31.266361,0.1,98.6918,1615927650435
Fix,GT,37.4870381,-122.2025747,-29.108792942523955,31.118408,0.1,98.70624,1615927651435
Fix,GT,37.486995,-122.202228,-29.07433959841728,30.97076,0.1,98.800964,1615927652435
Fix,GT,37.4869518,-122.2018822,-29.062645844340324,30.975925,0.1,98.792725,1615927653435
Fix,GT,37.4869089,-122.2015353,-29.062659536778927,31.144247,0.1,98.635376,1615927654435
Fix,GT,37.4868663,-122.201186,-29.07261249375344,31.355808,0.1,98.529236,1615927655435
Fix,GT,37.4868237,-122.2008345,-29.07556545087695,31.487328,0.1,98.6413,1615927656435
Fix,GT,37.4867803,-122.2004829,-29.07891874116659,31.375666,0.1,98.78528,1615927657435
Fix,GT,37.4867369,-122.2001344,-29.088353290379047,31.02184,0.1,98.75839,1615927658435
Fix,GT,37.4866942,-122.1997895,-29.1035791463852,30.710657,0.1,98.67975,1615927659435
Fix,GT,37.4866524,-122.1994477,-29.123402935892344,30.41592,0.1,98.56738,1615927660435
Fix,GT,37.4866114,-122.1991093,-29.139965785115955,30.153015,0.1,98.5199,1615927661435
Fix,GT,37.4865708,-122.1987731,-29.140727098584176,30.016048,0.1,98.61484,1615927662435
Fix,GT,37.4865298,-122.1984387,-29.123905045628547,29.819815,0.1,98.70364,1615927663435
Fix,GT,37.4864889,-122.1981072,-29.12253123885393,29.505144,0.1,98.7168,1615927664435
Fix,GT,37.4864485,-122.1977794,-29.13840120303631,29.179586,0.1,98.77106,1615927665435
Fix,GT,37.4864081,-122.1974543,-29.162369597107173,29.062872,0.1,98.78772,1615927666435
Fix,GT,37.4863677,-122.1971289,-29.185789576470853,29.20571,0.1,98.75745,1615927667435
Fix,GT,37.4863272,-122.1968023,-29.21159285327792,29.223667,0.1,98.80435,1615927668435
Fix,GT,37.4862864,-122.1964771,-29.24222586491704,28.960663,0.1,98.89081,1615927669435
Fix,GT,37.4862459,-122.1961556,-29.246822919189928,28.608803,0.1,98.90158,1615927670435
Fix,GT,37.4862059,-122.1958381,-29.23224289128184,28.26408,0.1,98.892914,1615927671435
Fix,GT,37.4861663,-122.195524,-29.220483329772943,27.988405,0.1,98.908295,1615927672435
Fix,GT,37.4861271,-122.1952127,-29.22848420098424,27.727345,0.1,98.927765,1615927673435
Fix,GT,37.4860882,-122.1949048,-29.22385625809431,27.388805,0.1,98.89874,1615927674435
Fix,GT,37.4860501,-122.1946009,-29.20633958756924,27.036118,0.1,98.83746,1615927675435
Fix,GT,37.4860126,-122.1943008,-29.204661283016208,26.694496,0.1,98.79797,1615927676435
Fix,GT,37.4859754,-122.1940045,-29.19806580364704,26.352959,0.1,98.96423,1615927677435
Fix,GT,37.4859372,-122.1937124,-29.18130624938011,26.032183,0.1,99.579926,1615927678435
Fix,GT,37.4858964,-122.1934232,-29.17603333568573,25.994396,0.1,100.22659,1615927679435
Fix,GT,37.4858537,-122.193133,-29.16569375044108,26.221367,0.1,100.40167,1615927680435
Fix,GT,37.4858111,-122.1928405,-29.153113717108965,26.263573,0.1,100.146515,1615927681435
Fix,GT,37.4857701,-122.1925491,-29.124631252884864,26.072258,0.1,99.66553,1615927682435
Fix,GT,37.4857312,-122.19226,-29.097727951854463,25.834955,0.1,99.33975,1615927683435
Fix,GT,37.4856936,-122.1919713,-29.0691479178071,25.988766,0.1,99.047516,1615927684435
Fix,GT,37.4856567,-122.1916782,-29.03032413429022,26.517284,0.1,98.67041,1615927685435
Fix,GT,37.4856202,-122.1913794,-29.00172621873021,26.905212,0.1,98.61594,1615927686435
Fix,GT,37.4855831,-122.1910777,-28.992741666793822,27.086006,0.1,98.745056,1615927687435
Fix,GT,37.4855457,-122.1907746,-28.9954362808466,27.171677,0.1,98.701965,1615927688435
Fix,GT,37.4855083,-122.1904704,-28.99513003069162,27.286901,0.1,98.82626,1615927689435
Fix,GT,37.4854697,-122.1901652,-28.962214576661587,27.335714,0.1,99.10727,1615927690435
Fix,GT,37.4854296,-122.1898611,-28.92709497311711,27.154165,0.1,99.44443,1615927691435
Fix,GT,37.4853889,-122.1895598,-28.93717708408833,26.90342,0.1,99.55267,1615927692435
Fix,GT,37.4853482,-122.1892608,-28.933468747735027,26.771572,0.1,99.61688,1615927693435
Fix,GT,37.4853069,-122.1889628,-28.91411457806825,26.73322,0.1,100.00769,1615927694435
Fix,GT,37.4852634,-122.1886657,-28.89608124810457,26.715614,0.1,100.59894,1615927695435
Fix,GT,37.4852177,-122.1883691,-28.869229156136512,26.686626,0.1,101.000824,1615927696435
Fix,GT,37.4851707,-122.1880739,-28.84012830665708,26.522253,0.1,101.44678,1615927697435
Fix,GT,37.485122,-122.187782,-28.822018739461896,26.212519,0.1,102.0564,1615927698435
Fix,GT,37.4850712,-122.1874946,-28.78780832576752,25.87791,0.1,102.797424,1615927699435
Fix,GT,37.4850182,-122.187211,-28.7611154333055,25.681427,0.1,103.44336,1615927700435
Fix,GT,37.4849633,-122.1869287,-28.741340436160563,25.758621,0.1,103.81949,1615927701435
Fix,GT,37.4849065,-122.186645,-28.723986266106365,26.02616,0.1,104.12869,1615927702435
Fix,GT,37.4848478,-122.1863584,-28.69271248614788,26.275497,0.1,104.57214,1615927703435
Fix,GT,37.4847866,-122.1860702,-28.6607270770669,26.510023,0.1,105.07446,1615927704435
Fix,GT,37.4847225,-122.1857798,-28.64172622266412,26.797413,0.1,105.64563,1615927705435
Fix,GT,37.4846554,-122.1854874,-28.6196783040464,27.000435,0.1,106.309906,1615927706435
Fix,GT,37.4845854,-122.185195,-28.597597910046577,26.975483,0.1,106.88983,1615927707435
Fix,GT,37.4845137,-122.184905,-28.577114573597907,26.69212,0.1,107.417145,1615927708435
Fix,GT,37.4844407,-122.1846197,-28.52816748437285,26.333542,0.1,108.135254,1615927709435
Fix,GT,37.4843645,-122.18434,-28.44860289907456,25.938839,0.1,109.71796,1615927710435
Fix,GT,37.4842821,-122.1840684,-28.370472882092,25.437426,0.1,111.96152,1615927711435
Fix,GT,37.4841935,-122.1838069,-28.3043574642241,24.801098,0.1,113.76276,1615927712435
Fix,GT,37.484103,-122.183556,-28.24626162573695,23.846695,0.1,114.58325,1615927713435
Fix,GT,37.4840153,-122.1833189,-28.19419581604004,22.27398,0.1,115.25836,1615927714435
Fix,GT,37.4839294,-122.1831012,-28.15801956868172,20.746372,0.1,117.67151,1615927715435
Fix,GT,37.4838384,-122.182904,-28.06807575452328,19.692043,0.1,122.57147,1615927716435
Fix,GT,37.483737,-122.1827308,-27.86635610169172,18.423355,0.1,129.99219,1615927717435
Fix,GT,37.4836249,-122.1825896,-27.654993657708168,17.008068,0.1,139.37973,1615927718435
Fix,GT,37.4835058,-122.1824836,-27.51147781363129,15.506889,0.1,148.87042,1615927719435
Fix,GT,37.4833885,-122.1824098,-27.40339161992073,13.59093,0.1,156.5108,1615927720435
Fix,GT,37.4832831,-122.1823601,-27.32363453298807,11.45933,0.1,161.07806,1615927721435
Fix,GT,37.4831943,-122.182325,-27.199461571097373,9.294419,0.1,163.2367,1615927722435
Fix,GT,37.4831241,-122.1822995,-27.04878323173523,6.975333,0.1,164.04156,1615927723435
Fix,GT,37.4830719,-122.1822803,-26.90625197052956,5.2795105,0.1,163.38068,1615927724435
Fix,GT,37.4830315,-122.1822636,-26.75481734791398,4.145738,0.1,161.40912,1615927725435
Fix,GT,37.4830025,-122.18225,-26.63329656443,2.7705746,0.1,159.38959,1615927726435
Fix,GT,37.4829832,-122.1822399,-26.550861144542694,2.1653097,0.1,157.9721,1615927727435
Fix,GT,37.4829631,-122.1822294,-26.44957281583548,2.881194,0.1,157.4823,1615927728435
Fix,GT,37.4829322,-122.1822133,-26.271451090574267,4.642103,0.1,157.30212,1615927729435
Fix,GT,37.4828864,-122.182187,-25.980038512617348,6.392235,0.1,154.92664,1615927730435
Fix,GT,37.4828316,-122.1821494,-25.61579891040921,7.3613605,0.1,150.24146,1615927731435
Fix,GT,37.4827743,-122.1821039,-25.25836013686657,7.602687,0.1,146.97186,1615927732435
Fix,GT,37.4827184,-122.1820572,-24.990658163547515,7.2828016,0.1,145.77045,1615927733435
Fix,GT,37.4826674,-122.1820094,-24.830362401247022,6.8649445,0.1,141.2215,1615927734435
Fix,GT,37.4826273,-122.1819545,-24.70591311442852,6.3986816,0.1,128.67084,1615927735435
Fix,GT,37.482604,-122.1818896,-24.54178805655241,6.413677,0.1,110.098755,1615927736435
Fix,GT,37.4826003,-122.1818142,-24.288924700021745,7.2070417,0.1,89.43271,1615927737435
Fix,GT,37.4826186,-122.1817316,-23.903530819475648,8.213642,0.1,70.9841,1615927738435
Fix,GT,37.4826546,-122.1816431,-23.388893213927744,9.389374,0.1,61.409943,1615927739435
Fix,GT,37.4827006,-122.1815462,-22.81598835608363,10.508778,0.1,58.577026,1615927740435
Fix,GT,37.4827536,-122.181443,-22.25839047250152,11.105509,0.1,56.564545,1615927741435
Fix,GT,37.4828103,-122.181341,-21.74304681050777,10.78643,0.1,54.474854,1615927742435
Fix,GT,37.4828674,-122.1812443,-21.29007666254044,10.584169,0.1,53.073975,1615927743435
Fix,GT,37.4829264,-122.1811493,-20.883105874538423,10.794007,0.1,51.43582,1615927744435
Fix,GT,37.4829886,-122.1810559,-20.532150299191475,10.662449,0.1,49.553772,1615927745435
Fix,GT,37.4830503,-122.1809674,-20.254983704447746,10.117415,0.1,48.537323,1615927746435
Fix,GT,37.483111,-122.1808825,-20.03648164567351,10.2914,0.1,47.897095,1615927747435
Fix,GT,37.4831777,-122.180794,-19.84114206954837,11.431385,0.1,45.960693,1615927748435
Fix,GT,37.4832558,-122.1807003,-19.680137960225345,12.45273,0.1,42.611786,1615927749435
Fix,GT,37.4833436,-122.1806067,-19.58548685756326,13.029451,0.1,39.16751,1615927750435
Fix,GT,37.4834378,-122.1805176,-19.5833015704155,13.088438,0.1,35.673615,1615927751435
Fix,GT,37.4835354,-122.180436,-19.675732886195185,12.942001,0.1,32.7554,1615927752435
Fix,GT,37.4836341,-122.1803602,-19.85816069614887,12.740007,0.1,31.002075,1615927753435
Fix,GT,37.4837308,-122.1802865,-20.12683573591709,12.336098,0.1,32.090637,1615927754435
Fix,GT,37.4838188,-122.1802067,-20.467215032935144,11.902124,0.1,39.469635,1615927755435
Fix,GT,37.4838892,-122.180109,-20.98132780468464,11.74972,0.1,53.599976,1615927756435
Fix,GT,37.4839333,-122.1799898,-21.753196856260303,11.975262,0.1,71.4895,1615927757435
Fix,GT,37.483945,-122.179855,-22.748863699674605,12.474541,0.1,90.4917,1615927758435
Fix,GT,37.48392,-122.1797171,-23.87143952357769,12.974707,0.1,110.06769,1615927759435
Fix,GT,37.483857,-122.1795945,-25.08846398794651,13.361957,0.1,130.41223,1615927760435
Fix,GT,37.4837613,-122.179505,-26.25107900175452,13.668938,0.1,151.00375,1615927761435
Fix,GT,37.4836448,-122.1794626,-27.15957798331976,13.804699,0.1,171.84924,1615927762435
Fix,GT,37.483524,-122.1794753,-27.761894193589686,13.697903,0.1,193.26994,1615927763435
Fix,GT,37.4834176,-122.1795425,-28.035345989346503,13.368779,0.1,215.80641,1615927764435
Fix,GT,37.4833424,-122.1796533,-28.10142080771923,13.172293,0.1,238.52692,1615927765435
Fix,GT,37.4833057,-122.1797936,-28.045893634736537,13.723533,0.1,259.53192,1615927766435
Fix,GT,37.4833074,-122.1799527,-27.88070928278565,15.019673,0.1,276.83255,1615927767435
Fix,GT,37.4833438,-122.1801247,-27.66193021196127,16.82377,0.1,288.6602,1615927768435
Fix,GT,37.4834047,-122.1803123,-27.556338746398687,19.08849,0.1,293.60846,1615927769435
Fix,GT,37.483478,-122.1805219,-27.551611686140298,21.39928,0.1,293.62787,1615927770435
Fix,GT,37.4835581,-122.1807559,-27.522778257101777,23.619335,0.1,292.67023,1615927771435
Fix,GT,37.4836414,-122.1810151,-27.4792575095594,25.838581,0.1,291.2254,1615927772435
Fix,GT,37.4837285,-122.1812985,-27.446519930869343,27.882729,0.1,291.05527,1615927773435
Fix,GT,37.4838226,-122.1816014,-27.41788462972641,29.587904,0.1,291.3469,1615927774435
Fix,GT,37.483921,-122.1819222,-27.4489804790318,31.205685,0.1,290.53455,1615927775435
Fix,GT,37.4840194,-122.1822617,-27.48362629926205,32.692356,0.1,289.45343,1615927776435
Fix,GT,37.4841192,-122.1826179,-27.527865923523905,34.07144,0.1,289.22903,1615927777435
Fix,GT,37.4842221,-122.1829887,-27.57880338579416,35.381268,0.1,288.86835,1615927778435
Fix,GT,37.4843251,-122.1833743,-27.64676679706573,36.5179,0.1,288.03656,1615927779435
Fix,GT,37.4844273,-122.1837719,-27.765733482360844,37.36605,0.1,287.72095,1615927780435
Fix,GT,37.4845307,-122.184178,-27.88720221489668,37.99886,0.1,287.61633,1615927781435
Fix,GT,37.4846343,-122.1845903,-27.96928754889965,38.427284,0.1,287.18265,1615927782435
Fix,GT,37.4847356,-122.1850073,-28.00823962408304,38.630028,0.1,286.60434,1615927783435
Fix,GT,37.484834,-122.1854272,-28.043675041913986,38.78958,0.1,286.10498,1615927784435
Fix,GT,37.4849297,-122.1858493,-28.09360924685001,38.82762,0.1,285.61334,1615927785435
Fix,GT,37.4850226,-122.1862715,-28.142450865626337,38.58469,0.1,285.08533,1615927786435
Fix,GT,37.4851111,-122.1866908,-28.175594640165567,38.10971,0.1,284.46475,1615927787435
Fix,GT,37.4851938,-122.1871059,-28.219288388103244,37.58381,0.1,283.4064,1615927788435
Fix,GT,37.485269,-122.1875173,-28.250838362127546,37.078716,0.1,282.27286,1615927789435
Fix,GT,37.4853382,-122.1879245,-28.277111300885675,36.560005,0.1,281.63464,1615927790435
Fix,GT,37.4854028,-122.188327,-28.324996747016904,36.04606,0.1,281.07608,1615927791435
Fix,GT,37.4854639,-122.1887247,-28.37219254362584,35.613407,0.1,280.5669,1615927792435
Fix,GT,37.4855206,-122.1891182,-28.408900053024293,35.096203,0.1,279.71136,1615927793435
Fix,GT,37.4855713,-122.1895066,-28.45385212862492,34.505894,0.1,278.9637,1615927794435
Fix,GT,37.4856188,-122.1898893,-28.4935458753109,34.020912,0.1,278.6505,1615927795435
Fix,GT,37.4856641,-122.1902667,-28.548092602699995,33.47667,0.1,278.3291,1615927796435
Fix,GT,37.4857078,-122.1906373,-28.60580505731702,32.728363,0.1,278.37128,1615927797435
Fix,GT,37.4857514,-122.190998,-28.64328840073944,31.769268,0.1,278.75928,1615927798435
Fix,GT,37.4857951,-122.191347,-28.68790090879798,30.75161,0.1,278.98514,1615927799435
Fix,GT,37.4858383,-122.1916858,-28.738948834836485,29.998142,0.1,279.06128,1615927800435
Fix,GT,37.4858807,-122.1920178,-28.79090091186762,29.497242,0.1,279.0298,1615927801435
Fix,GT,37.4859224,-122.1923449,-28.84020716670156,29.128899,0.1,278.9303,1615927802435
Fix,GT,37.4859629,-122.1926685,-28.884675901204343,28.811192,0.1,278.8125,1615927803435
Fix,GT,37.4860028,-122.1929889,-28.9237229667306,28.58315,0.1,278.78836,1615927804435
Fix,GT,37.4860424,-122.193308,-28.9667229667306,28.569181,0.1,278.75354,1615927805435
Fix,GT,37.4860818,-122.1936279,-29.01320630937815,28.66677,0.1,278.67166,1615927806435
Fix,GT,37.4861208,-122.1939486,-29.057674177467824,28.748108,0.1,278.59003,1615927807435
Fix,GT,37.4861602,-122.1942706,-29.088013744205234,28.9072,0.1,278.68594,1615927808435
Fix,GT,37.4862007,-122.1945949,-29.10404705774784,29.123281,0.1,278.90665,1615927809435
Fix,GT,37.4862419,-122.1949207,-29.11322414684296,29.209555,0.1,278.89642,1615927810435
Fix,GT,37.4862826,-122.1952468,-29.1230470571816,29.175737,0.1,278.77783,1615927811435
Fix,GT,37.486323,-122.1955727,-29.12438749265671,29.170866,0.1,278.7559,1615927812435
Fix,GT,37.4863636,-122.1958992,-29.120129164218906,29.252365,0.1,278.81696,1615927813435
Fix,GT,37.4864048,-122.1962257,-29.11856544989348,29.150484,0.1,278.9796,1615927814435
Fix,GT,37.4864461,-122.1965492,-29.11843628570437,28.790716,0.1,279.05502,1615927815435
Fix,GT,37.486487,-122.1968691,-29.12422588285804,28.580303,0.1,278.93954,1615927816435
Fix,GT,37.4865271,-122.1971889,-29.12359876352549,28.739159,0.1,278.7839,1615927817435
Fix,GT,37.4865668,-122.1975119,-29.114,29.059437,0.1,278.623,1615927818435
Fix,GT,37.4866065,-122.1978383,-29.113129164099693,29.31039,0.1,278.5096,1615927819435
Fix,GT,37.4866461,-122.198166,-29.10154996919632,29.265434,0.1,278.60565,1615927820435
Fix,GT,37.4866862,-122.1984913,-29.094965820789337,28.929916,0.1,278.82364,1615927821435
Fix,GT,37.4867265,-122.1988124,-29.09703244495392,28.607174,0.1,278.9268,1615927822435
Fix,GT,37.4867664,-122.1991313,-29.091047926068303,28.548077,0.1,278.81152,1615927823435
Fix,GT,37.4868058,-122.1994513,-29.09543541800976,28.765938,0.1,278.60733,1615927824435
Fix,GT,37.4868451,-122.1997743,-29.099484211444853,29.048027,0.1,278.62244,1615927825435
Fix,GT,37.4868851,-122.2001001,-29.094421670496462,29.231878,0.1,278.7041,1615927826435
Fix,GT,37.4869253,-122.2004265,-29.076339565098287,29.109352,0.1,278.69272,1615927827435
Fix,GT,37.4869648,-122.20075,-29.07117622417212,28.797905,0.1,278.62393,1615927828435
Fix,GT,37.4870038,-122.2010713,-29.08227207741141,28.759,0.1,278.58606,1615927829435
Fix,GT,37.4870433,-122.2013946,-29.09125919440389,29.13513,0.1,278.749,1615927830435
Fix,GT,37.4870843,-122.2017223,-29.08595207268,29.516668,0.1,278.96887,1615927831435
Fix,GT,37.4871264,-122.202053,-29.07808123630285,29.618326,0.1,279.00168,1615927832435
Fix,GT,37.4871682,-122.202383,-29.0777887339592,29.441177,0.1,278.9243,1615927833435
Fix,GT,37.4872091,-122.2027102,-29.089660437226296,29.13876,0.1,278.77887,1615927834435
Fix,GT,37.4872488,-122.2030339,-29.09351752093434,28.785759,0.1,278.62775,1615927835435
Fix,GT,37.4872879,-122.2033536,-29.087694612085816,28.449509,0.1,278.67297,1615927836435
Fix,GT,37.4873268,-122.2036709,-29.088612509846687,28.38771,0.1,278.69122,1615927837435
Fix,GT,37.4873655,-122.2039896,-29.09069287797809,28.66254,0.1,278.58386,1615927838435
Fix,GT,37.4874047,-122.2043117,-29.088563714742666,28.942726,0.1,278.7317,1615927839435
Fix,GT,37.4874451,-122.204636,-29.08321039795876,29.078732,0.1,278.88342,1615927840435
Fix,GT,37.487486,-122.2049606,-29.07308123469353,29.027199,0.1,278.90958,1615927841435
Fix,GT,37.4875268,-122.2052837,-29.03839241528512,28.802532,0.1,278.97534,1615927842435
Fix,GT,37.4875676,-122.2056043,-28.946443533480167,28.685581,0.1,278.9549,1615927843435
Fix,GT,37.4876083,-122.2059245,-28.88178960269689,28.699175,0.1,278.95068,1615927844435
Fix,GT,37.4876491,-122.2062447,-28.88756372061372,28.635185,0.1,279.0042,1615927845435
Fix,GT,37.4876901,-122.2065646,-28.86740530854464,28.737389,0.1,279.04953,1615927846435
Fix,GT,37.4877318,-122.2068866,-28.846353325009343,29.018106,0.1,279.22284,1615927847435
Fix,GT,37.4877752,-122.2072121,-28.815861122995614,29.35189,0.1,279.72333,1615927848435
Fix,GT,37.4878223,-122.2075397,-28.752890372276305,29.458958,0.1,280.66827,1615927849435
Fix,GT,37.487874,-122.2078656,-28.7380958596468,29.251808,0.1,281.68246,1615927850435
Fix,GT,37.4879288,-122.2081879,-28.739904140353204,29.066639,0.1,282.13257,1615927851435
Fix,GT,37.4879844,-122.20851,-28.716760348796846,29.29459,0.1,282.13287,1615927852435
Fix,GT,37.488041,-122.2088347,-28.68698537206649,29.447643,0.1,282.44287,1615927853435
Fix,GT,37.4880998,-122.2091578,-28.66224455139041,29.140186,0.1,283.1765,1615927854435
Fix,GT,37.488161,-122.209476,-28.63524369603396,28.752235,0.1,283.8545,1615927855435
Fix,GT,37.4882244,-122.209789,-28.61390413868428,28.404802,0.1,284.55127,1615927856435
Fix,GT,37.4882904,-122.210099,-28.5994678670466,28.445894,0.1,285.10876,1615927857435
Fix,GT,37.4883588,-122.2104111,-28.51741423547268,28.879356,0.1,285.5512,1615927858435
Fix,GT,37.488431,-122.2107275,-28.225626988619567,29.262148,0.1,286.42126,1615927859435
Fix,GT,37.4885082,-122.2110457,-27.654015124797823,29.516373,0.1,287.2766,1615927860435
Fix,GT,37.4885885,-122.2113635,-26.862443982243537,29.422243,0.1,287.71655,1615927861435
Fix,GT,37.4886698,-122.2116774,-26.011520367503167,28.98542,0.1,288.17673,1615927862435
Fix,GT,37.4887524,-122.2119868,-25.20445453190804,28.79605,0.1,288.73,1615927863435
Fix,GT,37.4888379,-122.2122955,-24.432436582356694,29.047142,0.1,289.41815,1615927864435
Fix,GT,37.488927,-122.2126069,-23.65979403913021,29.4879,0.1,289.8887,1615927865435
Fix,GT,37.4890197,-122.2129224,-22.977968949288133,30.030922,0.1,290.49796,1615927866435
Fix,GT,37.4891175,-122.2132425,-22.512492861151696,30.61755,0.1,291.51163,1615927867435
Fix,GT,37.489221,-122.2135662,-22.18950010603666,30.93394,0.1,292.24353,1615927868435
Fix,GT,37.4893278,-122.2138885,-22.023084589987995,30.726624,0.1,292.8926,1615927869435
Fix,GT,37.4894356,-122.2142053,-21.97951664733887,30.183117,0.1,293.27142,1615927870435
Fix,GT,37.4895434,-122.214515,-21.99198200029135,29.601822,0.1,293.76404,1615927871435
Fix,GT,37.4896521,-122.2148175,-22.182506563514472,29.146627,0.1,294.52277,1615927872435
Fix,GT,37.489762,-122.2151149,-22.66050984430313,28.842602,0.1,295.041,1615927873435
Fix,GT,37.489873,-122.2154082,-23.25694596666098,28.597973,0.1,295.6224,1615927874435
Fix,GT,37.4899857,-122.215698,-23.94146457064152,28.493935,0.1,296.32187,1615927875435
Fix,GT,37.4901018,-122.2159867,-24.72944922378659,28.714443,0.1,297.17654,1615927876435
Fix,GT,37.4902224,-122.216276,-25.52709177851677,29.000492,0.1,297.90326,1615927877435
Fix,GT,37.4903464,-122.216566,-26.365848900318145,29.219818,0.1,298.4043,1615927878435
Fix,GT,37.4904749,-122.2168572,-27.17282285797596,29.677637,0.1,299.4715,1615927879435
Fix,GT,37.4906111,-122.2171503,-27.884423924416303,30.374968,0.1,300.68893,1615927880435
Fix,GT,37.4907537,-122.2174488,-28.393368361145257,31.166882,0.1,300.884,1615927881435
Fix,GT,37.490899,-122.2177542,-28.59722104299069,31.657623,0.1,300.54605,1615927882435
Fix,GT,37.4910438,-122.2180631,-28.651626312851903,31.701485,0.1,300.2468,1615927883435
