MessageType,Provider,LatitudeDegrees,LongitudeDegrees,AltitudeMeters,SpeedMps,AccuracyMeters,BearingDegrees,UnixTimeMillis
Fix,GT,34.2296194,-118.4014037,227.294,0.0014166082,0.1,136.1712,1639069606999
Fix,GT,34.2296194,-118.4014037,227.294,0.002236068,0.1,136.1713,1639069607999
Fix,GT,34.2296194,-118.4014037,227.294,0.001418336,0.1,136.17133,1639069608999
Fix,GT,34.2296194,-118.4014037,227.294,0.0020029156,0.1,136.17102,1639069609999
Fix,GT,34.2296194,-118.4014037,227.294,0.0019982918,0.1,136.17072,1639069610999
Fix,GT,34.2296194,-118.4014037,227.294,0.0019982914,0.1,136.1709,1639069611999
Fix,GT,34.2296194,-118.4014037,227.294,0.0014142136,0.1,136.17087,1639069612999
Fix,GT,34.2296194,-118.4014037,227.294,0.0028243,0.1,136.17084,1639069613999
Fix,GT,34.2296194,-118.4014037,227.2949970809817,0.0042331754,0.1,136.17108,1639069614999
Fix,GT,34.2296194,-118.4014037,227.295,0.0077962046,0.1,136.17096,1639069615999
Fix,GT,34.2296194,-118.4014037,227.297,0.0042477725,0.1,136.17041,1639069616999
Fix,GT,34.2296194,-118.4014037,227.298,0.005087046,0.1,136.17017,1639069617999
Fix,GT,34.2296194,-118.4014037,227.298,0.0022377989,0.1,136.17029,1639069618999
Fix,GT,34.2296194,-118.4014037,227.298,0.004117591,0.1,136.17062,1639069619999
Fix,GT,34.2296194,-118.4014037,227.298,0.0036042556,0.1,136.1706,1639069620999
Fix,GT,34.2296194,-118.4014037,227.298,0.0028322125,0.1,136.17062,1639069621999
Fix,GT,34.2296194,-118.4014037,227.298,0.0022400732,0.1,136.17053,1639069622999
Fix,GT,34.2296194,-118.4014037,227.299,0.003607415,0.1,136.17047,1639069623999
Fix,GT,34.2296194,-118.4014037,227.299,0.004124127,0.1,136.1705,1639069624999
Fix,GT,34.2296193,-118.4014037,227.299,0.004471115,0.1,136.17035,1639069625999
Fix,GT,34.2296193,-118.4014037,227.299,0.0050990195,0.1,136.17041,1639069626999
Fix,GT,34.2296193,-118.4014037,227.3,0.004125963,0.1,136.1706,1639069627999
Fix,GT,34.2296192,-118.4014037,227.3,0.0053851646,0.1,136.17029,1639069628999
Fix,GT,34.2296192,-118.4014037,227.301,0.005833522,0.1,136.17004,1639069629999
Fix,GT,34.2296192,-118.4014036,227.302,0.008601982,0.1,136.17157,1639069630999
Fix,GT,34.2296191,-118.4014036,227.303,0.0079970695,0.1,136.1735,1639069631999
Fix,GT,34.2296191,-118.4014036,227.3049970686436,0.012648291,0.1,136.17252,1639069632999
Fix,GT,34.2296187,-118.4014028,227.304,0.339941,0.1,136.0755,1639069633999
Fix,GT,34.2296143,-118.4013961,227.303,1.307851,0.1,134.06848,1639069634999
Fix,GT,34.2296046,-118.4013797,227.30100293344256,2.3245773,0.1,129.51282,1639069635999
Fix,GT,34.2295893,-118.4013535,227.296,3.648139,0.1,126.69064,1639069636999
Fix,GT,34.229566,-118.4013147,227.28300586974612,5.104795,0.1,126.63574,1639069637999
Fix,GT,34.2295357,-118.401265,227.2680029355288,6.0106177,0.1,127.21002,1639069638999
Fix,GT,34.2295022,-118.4012146,227.24402055370808,5.859216,0.1,129.9419,1639069639999
Fix,GT,34.2294683,-118.4011703,227.24498825216293,4.9797993,0.1,134.22937,1639069640999
Fix,GT,34.2294453,-118.4011364,227.17501762568952,3.1408606,0.1,129.39203,1639069641999
Fix,GT,34.2294421,-118.4011025,227.17399412333967,2.8517025,0.1,102.79077,1639069642999
Fix,GT,34.2294602,-118.4010694,227.19898236572743,3.5229805,0.1,63.55237,1639069643999
Fix,GT,34.2294972,-118.4010562,227.2410058794022,4.205189,0.1,18.99765,1639069644999
Fix,GT,34.2295421,-118.4010734,227.23799705958368,5.739239,0.1,341.59293,1639069645999
Fix,GT,34.229592,-118.4011126,227.28698529434203,7.273511,0.1,325.93262,1639069646999
Fix,GT,34.2296483,-118.4011584,227.3699735233784,7.569199,0.1,325.95538,1639069647999
Fix,GT,34.2297055,-118.4011981,227.429982344985,6.9885573,0.1,331.56757,1639069648999
Fix,GT,34.2297609,-118.4012184,227.45801177287103,5.9144936,0.1,345.64215,1639069649999
Fix,GT,34.2298122,-118.4012146,227.4169617288709,5.5627775,0.1,5.0871887,1639069650999
Fix,GT,34.2298618,-118.4011913,227.492955830276,6.6447053,0.1,22.255493,1639069651999
Fix,GT,34.2299166,-118.4011437,227.58496760100127,8.393182,0.1,36.925323,1639069652999
Fix,GT,34.2299748,-118.4010749,227.6589823238849,9.770083,0.1,44.756317,1639069653999
Fix,GT,34.2300394,-118.4009912,227.6520117869377,11.191384,0.1,46.48761,1639069654999
Fix,GT,34.2301101,-118.4008956,227.54102947449684,12.413989,0.1,47.880615,1639069655999
Fix,GT,34.2301871,-118.4007884,227.3300796004534,13.680724,0.1,48.743225,1639069656999
Fix,GT,34.2302688,-118.4006689,226.9651326996088,14.823869,0.1,50.786713,1639069657999
Fix,GT,34.2303519,-118.4005349,226.4691563253999,15.995984,0.1,54.064484,1639069658999
Fix,GT,34.2304321,-118.4003846,225.88018881607056,16.769615,0.1,58.851074,1639069659999
Fix,GT,34.2305008,-118.4002216,225.2861623031497,17.126953,0.1,65.104675,1639069660999
Fix,GT,34.2305561,-118.400042,224.70818005257848,18.319769,0.1,72.028625,1639069661999
Fix,GT,34.2305955,-118.3998424,224.0691919057965,19.463736,0.1,79.21927,1639069662999
Fix,GT,34.230616,-118.3996274,223.45216832739115,20.479616,0.1,85.785706,1639069663999
Fix,GT,34.2306158,-118.3994003,223.0920649842024,21.483992,0.1,92.63733,1639069664999
Fix,GT,34.2305947,-118.3991632,223.0789763641357,22.48143,0.1,97.17911,1639069665999
Fix,GT,34.2305663,-118.3989163,223.19995271682737,23.475494,0.1,97.66254,1639069666999
Fix,GT,34.230535,-118.3986592,223.28096452903748,24.34533,0.1,98.19415,1639069667999
Fix,GT,34.2305004,-118.398395,223.3409763469696,24.944473,0.1,98.83237,1639069668999
Fix,GT,34.2304632,-118.3981243,223.4029792985916,25.64252,0.1,99.296875,1639069669999
Fix,GT,34.2304218,-118.3978446,223.451,26.676271,0.1,100.287994,1639069670999
Fix,GT,34.2303748,-118.3975563,223.519,27.40572,0.1,101.06348,1639069671999
Fix,GT,34.2303229,-118.3972635,223.58000295954943,27.74549,0.1,102.472015,1639069672999
Fix,GT,34.230263,-118.3969707,223.66496743708848,27.765179,0.1,104.36084,1639069673999
Fix,GT,34.2301999,-118.396681,223.6710266477465,27.42991,0.1,104.28247,1639069674999
Fix,GT,34.2301349,-118.396396,223.69002961575984,27.043304,0.1,106.1004,1639069675999
Fix,GT,34.2300606,-118.3961184,223.64302369833,26.817553,0.1,109.072174,1639069676999
Fix,GT,34.229974,-118.3958453,223.5050414829254,27.202663,0.1,111.918274,1639069677999
Fix,GT,34.2298756,-118.39557,223.3400563095808,28.041471,0.1,113.82474,1639069678999
Fix,GT,34.2297669,-118.3952916,223.1760474319458,28.623287,0.1,115.726746,1639069679999
Fix,GT,34.2296488,-118.395011,223.056026685834,29.316656,0.1,117.17645,1639069680999
Fix,GT,34.2295239,-118.3947251,222.9670296586752,30.28995,0.1,117.46777,1639069681999
Fix,GT,34.229394,-118.3944296,222.88803263241056,31.253632,0.1,117.60715,1639069682999
Fix,GT,34.2292598,-118.3941265,222.79902077108625,32.01629,0.1,117.95679,1639069683999
Fix,GT,34.2291208,-118.39382,222.65805639225243,32.20653,0.1,118.86331,1639069684999
Fix,GT,34.2289774,-118.393517,222.46206234329932,32.128635,0.1,119.78677,1639069685999
Fix,GT,34.2288325,-118.3932145,222.3130445416569,32.15148,0.1,119.565735,1639069686999
Fix,GT,34.2286881,-118.3929127,222.16704455238585,31.992125,0.1,119.70807,1639069687999
Fix,GT,34.2285439,-118.3926125,222.04403862136604,31.859152,0.1,119.74426,1639069688999
Fix,GT,34.2284006,-118.3923147,221.9230356583595,31.578512,0.1,119.779755,1639069689999
Fix,GT,34.2282592,-118.3920192,221.8000326946974,31.283998,0.1,119.55621,1639069690999
Fix,GT,34.228119,-118.3917241,221.6740445944071,31.467846,0.1,119.42218,1639069691999
Fix,GT,34.2279774,-118.3914253,221.5570089210272,31.932377,0.1,119.39929,1639069692999
Fix,GT,34.2278365,-118.3911207,221.4300267695189,32.304966,0.1,118.156586,1639069693999
Fix,GT,34.2276986,-118.3908101,221.31303272616864,32.558052,0.1,117.88577,1639069694999
Fix,GT,34.2275586,-118.3904985,221.1220684438944,32.73115,0.1,118.48178,1639069695999
Fix,GT,34.2274154,-118.3901884,220.8690744134188,32.581097,0.1,119.131744,1639069696999
Fix,GT,34.2272719,-118.3898804,220.5860774085522,32.566917,0.1,118.9751,1639069697999
Fix,GT,34.2271315,-118.3895686,220.3260595605373,32.773315,0.1,117.50372,1639069698999
Fix,GT,34.2270001,-118.3892496,220.1480387236476,32.83344,0.1,115.12604,1639069699999
Fix,GT,34.22688,-118.3889236,220.0190268140435,32.88329,0.1,112.35989,1639069700999
Fix,GT,34.226772,-118.3885914,219.89303278058767,32.84874,0.1,110.05597,1639069701999
Fix,GT,34.2266759,-118.3882543,219.76902980828285,32.837387,0.1,107.47113,1639069702999
Fix,GT,34.2265927,-118.3879123,219.8009493137598,32.790867,0.1,104.8483,1639069703999
Fix,GT,34.2265231,-118.3875672,220.08787772738933,32.638115,0.1,102.11554,1639069704999
Fix,GT,34.2264667,-118.3872207,220.62680908966064,32.4058,0.1,99.71222,1639069705999
Fix,GT,34.2264226,-118.3868746,221.40174041903012,32.125286,0.1,97.41052,1639069706999
Fix,GT,34.2263909,-118.3865297,222.344719465971,31.821302,0.1,95.022766,1639069707999
Fix,GT,34.226372,-118.3861861,223.2907193987369,31.66883,0.1,92.158844,1639069708999
Fix,GT,34.2263671,-118.3858422,224.2187193315029,31.739962,0.1,89.58264,1639069709999
Fix,GT,34.226374,-118.3854971,225.1287431566716,31.876713,0.1,87.3833,1639069710999
Fix,GT,34.2263879,-118.3851507,225.977740107894,32.02643,0.1,87.06845,1639069711999
Fix,GT,34.2264016,-118.3848024,226.8437400456667,32.249878,0.1,87.04007,1639069712999
Fix,GT,34.2264157,-118.3844522,227.7237250399589,32.327747,0.1,86.90088,1639069713999
Fix,GT,34.2264302,-118.3841021,228.6577070376873,32.225,0.1,86.91046,1639069714999
Fix,GT,34.2264451,-118.3837533,229.6267129364014,32.18973,0.1,86.67505,1639069715999
Fix,GT,34.2264609,-118.3834044,230.5837128734589,32.174587,0.1,86.6774,1639069716999
Fix,GT,34.2264764,-118.383056,231.54770083236693,32.111988,0.1,86.74341,1639069717999
Fix,GT,34.2264921,-118.3827087,232.5167127304077,31.928623,0.1,86.43536,1639069718999
Fix,GT,34.2265087,-118.3823642,233.4666947031021,31.627321,0.1,86.441956,1639069719999
Fix,GT,34.2265252,-118.3820245,234.4127185807228,31.090887,0.1,86.429596,1639069720999
Fix,GT,34.2265411,-118.3816911,235.31973348617552,30.438633,0.1,86.51895,1639069721999
Fix,GT,34.2265563,-118.3813641,236.20575738453863,29.8953,0.1,86.55365,1639069722999
Fix,GT,34.2265708,-118.3810432,236.9727902780772,29.345098,0.1,86.62872,1639069723999
Fix,GT,34.2265851,-118.3807281,237.6408471630812,28.826761,0.1,86.63287,1639069724999
Fix,GT,34.2265987,-118.3804182,238.0369160695076,28.459114,0.1,86.8475,1639069725999
Fix,GT,34.2266121,-118.3801087,238.316943033576,28.711603,0.1,86.41519,1639069726999
Fix,GT,34.2266277,-118.3797958,238.38403898632524,28.921371,0.1,86.335144,1639069727999
Fix,GT,34.2266424,-118.3794839,238.3010959892273,28.641294,0.1,86.67877,1639069728999
Fix,GT,34.2266553,-118.3791743,237.9401500248909,28.575241,0.1,86.94498,1639069729999
Fix,GT,34.2266662,-118.3788639,237.37819808006284,28.589638,0.1,87.818054,1639069730999
Fix,GT,34.2266696,-118.3785524,236.71119512534145,28.854017,0.1,89.968994,1639069731999
Fix,GT,34.226661,-118.3782389,236.1511771594882,28.945105,0.1,93.10431,1639069732999
Fix,GT,34.2266391,-118.3779236,235.59317419826985,29.445845,0.1,95.5665,1639069733999
Fix,GT,34.2266045,-118.3776056,235.04115621495248,29.562243,0.1,98.69736,1639069734999
Fix,GT,34.2265558,-118.3772905,234.48216827487943,29.56683,0.1,101.58026,1639069735999
Fix,GT,34.2264944,-118.3769788,233.9061773353219,29.488976,0.1,104.32117,1639069736999
Fix,GT,34.226421,-118.3766713,233.35616535192727,29.46753,0.1,106.9899,1639069737999
Fix,GT,34.226336,-118.3763693,232.7991653912664,29.328848,0.1,109.670685,1639069738999
Fix,GT,34.2262387,-118.3760732,232.23816543060545,29.3886,0.1,112.74527,1639069739999
Fix,GT,34.2261283,-118.3757828,231.68514441013332,29.527317,0.1,115.68509,1639069740999
Fix,GT,34.2260054,-118.3754978,231.11615648150445,29.620504,0.1,118.41785,1639069741999
Fix,GT,34.2258712,-118.3752204,230.5471535148025,29.584345,0.1,121.27835,1639069742999
Fix,GT,34.225726,-118.3749513,229.98617161613703,29.563316,0.1,124.033936,1639069743999
Fix,GT,34.2255703,-118.3746917,229.3541897260547,29.430122,0.1,126.90039,1639069744999
Fix,GT,34.2254051,-118.3744432,228.66121086096763,29.289656,0.1,129.7738,1639069745999
Fix,GT,34.225231,-118.3742052,228.0231777678728,29.16927,0.1,132.10919,1639069746999
Fix,GT,34.225051,-118.3739756,227.44717781710625,29.02862,0.1,133.75378,1639069747999
Fix,GT,34.2248693,-118.37375,226.8501899175644,28.872028,0.1,133.79028,1639069748999
Fix,GT,34.2246886,-118.3735257,226.21120504307748,28.751482,0.1,133.91483,1639069749999
Fix,GT,34.2245076,-118.3733007,225.5362020756602,29.02948,0.1,133.73413,1639069750999
Fix,GT,34.2243248,-118.3730722,224.8491930770874,29.406542,0.1,133.67236,1639069751999
Fix,GT,34.2241413,-118.3728417,224.18318709146973,29.410057,0.1,133.57098,1639069752999
Fix,GT,34.2239575,-118.3726112,223.5851750625372,29.457907,0.1,133.68402,1639069753999
Fix,GT,34.2237734,-118.3723816,223.042153970778,29.346624,0.1,133.91519,1639069754999
Fix,GT,34.2235912,-118.3721518,222.53815703320504,29.175596,0.1,133.15369,1639069755999
Fix,GT,34.2234145,-118.3719185,222.0311631115675,28.997591,0.1,131.21027,1639069756999
Fix,GT,34.2232466,-118.3716783,221.4671782602072,28.842083,0.1,128.91669,1639069757999
Fix,GT,34.2230871,-118.3714314,220.8211994569301,28.794218,0.1,126.57678,1639069758999
Fix,GT,34.2229372,-118.3711758,220.1541964813471,28.865906,0.1,123.64435,1639069759999
Fix,GT,34.2227987,-118.3709106,219.4752086218596,28.934986,0.1,120.74786,1639069760999
Fix,GT,34.2226694,-118.3706358,218.79720564699173,29.228954,0.1,118.11578,1639069761999
Fix,GT,34.2225503,-118.3703529,218.1222026706934,29.19361,0.1,115.57678,1639069762999
Fix,GT,34.2224411,-118.3700651,217.45020272660253,29.098211,0.1,113.32553,1639069763999
Fix,GT,34.2223436,-118.3697726,216.7921967215538,28.983763,0.1,110.26071,1639069764999
Fix,GT,34.2222583,-118.3694739,216.11619676804543,29.227108,0.1,107.4765,1639069765999
Fix,GT,34.2221857,-118.3691692,215.43821498203275,29.180277,0.1,104.426025,1639069766999
Fix,GT,34.2221255,-118.368861,214.74720897555352,29.135979,0.1,101.902435,1639069767999
Fix,GT,34.2220766,-118.3685509,214.0752029662132,29.009363,0.1,99.35657,1639069768999
Fix,GT,34.2220391,-118.3682402,213.37721513438223,28.84053,0.1,97.07727,1639069769999
Fix,GT,34.2220109,-118.3679287,212.6532242863178,28.971735,0.1,95.015625,1639069770999
Fix,GT,34.2219916,-118.3676139,211.89624252891537,29.180021,0.1,93.37189,1639069771999
Fix,GT,34.2219753,-118.3672969,211.14322439217568,29.338701,0.1,93.41812,1639069772999
Fix,GT,34.2219574,-118.3669788,210.5501486219764,29.38251,0.1,93.77603,1639069773999
Fix,GT,34.2219391,-118.3666612,210.2020728116036,29.290157,0.1,93.489044,1639069774999
Fix,GT,34.2219221,-118.3663448,210.0780212425589,29.126417,0.1,93.50342,1639069775999
Fix,GT,34.2219046,-118.3660304,209.98303035366536,28.95263,0.1,93.69635,1639069776999
Fix,GT,34.2218867,-118.3657177,209.89902428913115,28.844055,0.1,93.704285,1639069777999
Fix,GT,34.221869,-118.3654057,209.80702125799647,28.793648,0.1,93.44693,1639069778999
Fix,GT,34.2218527,-118.3650937,209.7140273381472,28.86568,0.1,93.362915,1639069779999
Fix,GT,34.2218358,-118.3647802,209.6160303840637,29.035898,0.1,93.53204,1639069780999
Fix,GT,34.2218182,-118.3644649,209.52902431297304,29.19657,0.1,93.642456,1639069781999
Fix,GT,34.2217999,-118.3641481,209.42703951787948,29.281712,0.1,93.76355,1639069782999
Fix,GT,34.2217814,-118.3638316,209.2870516893864,29.193796,0.1,93.83191,1639069783999
Fix,GT,34.2217628,-118.3635161,209.1120577840805,29.099388,0.1,93.666534,1639069784999
Fix,GT,34.2217453,-118.3632008,208.8850730104446,29.138115,0.1,93.55505,1639069785999
Fix,GT,34.2217278,-118.362885,208.6390730276108,29.19955,0.1,93.53848,1639069786999
Fix,GT,34.2217102,-118.3625683,208.36908217537405,29.312372,0.1,93.64618,1639069787999
Fix,GT,34.2216917,-118.3622499,208.09707001769544,29.524601,0.1,93.70441,1639069788999
Fix,GT,34.2216737,-118.3619294,207.8051157085896,29.583668,0.1,93.581635,1639069789999
Fix,GT,34.2216552,-118.3616094,207.47910660082104,29.57322,0.1,93.68387,1639069790999
Fix,GT,34.221636,-118.3612889,207.138097486496,29.62505,0.1,94.34378,1639069791999
Fix,GT,34.2216093,-118.36097,206.80809446406363,29.444193,0.1,96.52643,1639069792999
Fix,GT,34.2215709,-118.3606553,206.5070883903504,29.193792,0.1,99.6264,1639069793999
Fix,GT,34.2215181,-118.3603464,206.23607926666736,28.960386,0.1,102.73883,1639069794999
Fix,GT,34.221454,-118.3600432,205.962079285264,28.765272,0.1,105.03952,1639069795999
Fix,GT,34.2213789,-118.3597442,205.74505185252428,28.82066,0.1,107.86615,1639069796999
Fix,GT,34.2212911,-118.3594492,205.72099694901704,28.989807,0.1,110.771545,1639069797999
Fix,GT,34.2211911,-118.3591579,205.90391455245012,29.064323,0.1,113.34482,1639069798999
Fix,GT,34.2210801,-118.3588743,206.27987179863453,28.745195,0.1,116.44086,1639069799999
Fix,GT,34.2209577,-118.3586012,206.6468931404948,28.448673,0.1,119.36328,1639069800999
Fix,GT,34.220826,-118.3583381,207.02589922314883,28.223022,0.1,121.947235,1639069801999
Fix,GT,34.2206851,-118.3580826,207.3978747630715,28.33593,0.1,124.363495,1639069802999
Fix,GT,34.2205344,-118.3578337,207.7848655679226,28.469902,0.1,126.93982,1639069803999
Fix,GT,34.2203737,-118.3575917,208.1748655364513,28.523901,0.1,129.72675,1639069804999
Fix,GT,34.2202042,-118.3573617,208.5568777270317,28.148968,0.1,132.55878,1639069805999
Fix,GT,34.2200283,-118.3571444,208.92389604365823,27.850645,0.1,135.16956,1639069806999
Fix,GT,34.2198454,-118.3569385,209.3008746115565,27.643084,0.1,137.94019,1639069807999
Fix,GT,34.2196561,-118.3567459,209.69087458223103,27.45439,0.1,140.90033,1639069808999
Fix,GT,34.2194594,-118.3565636,210.1808255979419,27.638891,0.1,143.13828,1639069809999
Fix,GT,34.2192585,-118.3563891,210.7288439195752,27.286182,0.1,144.39716,1639069810999
Fix,GT,34.2190597,-118.3562189,211.2028683720231,26.882132,0.1,144.15735,1639069811999
Fix,GT,34.2188631,-118.3560489,211.59788977408408,26.849703,0.1,143.98657,1639069812999
Fix,GT,34.2186663,-118.3558781,211.9049081236124,26.9799,0.1,143.9693,1639069813999
Fix,GT,34.2184685,-118.3557061,212.0969571143389,27.1724,0.1,143.97946,1639069814999
Fix,GT,34.2182687,-118.3555333,212.1240214478373,27.416916,0.1,144.11542,1639069815999
Fix,GT,34.2180669,-118.3553592,212.0240459703803,27.605701,0.1,144.29047,1639069816999
Fix,GT,34.2178646,-118.3551862,211.91205517840388,27.446705,0.1,144.18457,1639069817999
Fix,GT,34.2176647,-118.3550126,211.59310118597745,27.246914,0.1,143.87686,1639069818999
Fix,GT,34.2174658,-118.3548386,211.19414107728,27.367443,0.1,143.61633,1639069819999
Fix,GT,34.2172673,-118.3546612,210.6851717896461,27.416805,0.1,142.94077,1639069820999
Fix,GT,34.2170708,-118.3544794,210.02022399228807,27.68781,0.1,141.65576,1639069821999
Fix,GT,34.2168739,-118.3542885,209.31025166642667,28.332272,0.1,140.23605,1639069822999
Fix,GT,34.2166784,-118.3540896,208.51025786471365,28.39838,0.1,139.1138,1639069823999
Fix,GT,34.2164862,-118.3538862,207.7162579247952,28.362806,0.1,137.8667,1639069824999
Fix,GT,34.2162987,-118.3536773,206.88927641773225,28.32815,0.1,136.30865,1639069825999
Fix,GT,34.2161144,-118.3534635,205.8943287065029,28.535185,0.1,135.51718,1639069826999
Fix,GT,34.2159291,-118.3532456,204.8622949886322,28.868896,0.1,135.27826,1639069827999
Fix,GT,34.2157438,-118.3530257,203.94624588108064,28.858187,0.1,134.96045,1639069828999
Fix,GT,34.2155593,-118.3528049,203.23718752795452,28.867065,0.1,134.84256,1639069829999
Fix,GT,34.215375,-118.3525822,202.661156822145,29.15547,0.1,134.47467,1639069830999
Fix,GT,34.2151886,-118.3523564,202.2371137993932,29.359138,0.1,134.77069,1639069831999
Fix,GT,34.2150012,-118.3521329,201.95306768023968,29.186802,0.1,135.25555,1639069832999
Fix,GT,34.2148139,-118.351911,201.81902154004567,29.077581,0.1,135.05722,1639069833999
Fix,GT,34.2146283,-118.3516898,201.7330338571668,28.920374,0.1,134.99774,1639069834999
Fix,GT,34.2144429,-118.3514688,201.6450338650346,28.96565,0.1,135.01556,1639069835999
Fix,GT,34.2142578,-118.3512487,201.5690215554833,28.737268,0.1,134.96228,1639069836999
Fix,GT,34.2140747,-118.3510292,201.49502156049013,28.574266,0.1,134.70956,1639069837999
Fix,GT,34.213893,-118.3508112,201.4120308078528,28.36582,0.1,134.92938,1639069838999
Fix,GT,34.2137117,-118.3505957,201.3160277345777,28.192505,0.1,135.19476,1639069839999
Fix,GT,34.2135301,-118.3503812,201.22504931735992,28.307049,0.1,135.3457,1639069840999
Fix,GT,34.2133467,-118.3501645,201.1310184983015,28.689665,0.1,135.22174,1639069841999
Fix,GT,34.2131621,-118.3499461,201.05402467012405,28.678537,0.1,135.2649,1639069842999
Fix,GT,34.2129776,-118.3497281,200.96802776032683,28.71309,0.1,135.14044,1639069843999
Fix,GT,34.2127936,-118.3495084,200.8710215963721,28.828115,0.1,134.88068,1639069844999
Fix,GT,34.2126091,-118.3492875,200.7960092577338,28.840853,0.1,134.84607,1639069845999
Fix,GT,34.2124243,-118.3490663,200.7010308662653,28.949213,0.1,134.99115,1639069846999
Fix,GT,34.2122385,-118.3488451,200.5450617468357,29.016703,0.1,135.16913,1639069847999
Fix,GT,34.2120528,-118.3486247,200.3281204342246,28.87915,0.1,135.2591,1639069848999
Fix,GT,34.2118667,-118.3484039,199.9071575273872,29.061138,0.1,134.94617,1639069849999
Fix,GT,34.2116808,-118.3481815,199.4161544803381,29.084143,0.1,135.08951,1639069850999
Fix,GT,34.2114942,-118.3479602,198.8122101418972,29.045534,0.1,134.99213,1639069851999
Fix,GT,34.2113075,-118.3477382,198.1162349188328,29.197886,0.1,135.19324,1639069852999
Fix,GT,34.2111187,-118.3475158,197.3572380649448,29.406008,0.1,135.50934,1639069853999
Fix,GT,34.2109279,-118.3472931,196.5852504898906,29.542204,0.1,135.64853,1639069854999
Fix,GT,34.2107357,-118.3470704,195.814225802362,29.609348,0.1,136.01776,1639069855999
Fix,GT,34.2105424,-118.3468493,194.9692444179654,29.582764,0.1,136.2959,1639069856999
Fix,GT,34.210348,-118.3466294,194.1811980552673,29.62041,0.1,136.60797,1639069857999
Fix,GT,34.2101523,-118.3464105,193.40224453568456,29.6468,0.1,137.07568,1639069858999
Fix,GT,34.2099553,-118.3461925,192.69520124673843,29.737429,0.1,137.57428,1639069859999
Fix,GT,34.2097544,-118.3459784,192.12415793776512,29.74477,0.1,138.67499,1639069860999
Fix,GT,34.2095517,-118.3457687,191.6881331939697,29.550867,0.1,139.38919,1639069861999
Fix,GT,34.2093475,-118.3455641,191.37907745623588,29.409616,0.1,140.71423,1639069862999
Fix,GT,34.2091409,-118.3453658,191.2050464835763,29.209017,0.1,141.52084,1639069863999
Fix,GT,34.2089332,-118.3451732,191.10501859807965,28.946817,0.1,142.68457,1639069864999
Fix,GT,34.2087246,-118.3449873,191.0340124013424,28.654894,0.1,143.68448,1639069865999
Fix,GT,34.2085157,-118.344807,190.9390248084068,28.37655,0.1,144.46915,1639069866999
Fix,GT,34.2083065,-118.3446316,190.8440310176611,28.230223,0.1,145.24585,1639069867999
Fix,GT,34.2080953,-118.3444607,190.76602792233228,28.248003,0.1,146.29184,1639069868999
Fix,GT,34.2078821,-118.3442942,190.68801861917973,28.093079,0.1,147.12323,1639069869999
Fix,GT,34.207669,-118.3441318,190.59403414303063,27.905321,0.1,147.71002,1639069870999
Fix,GT,34.2074553,-118.3439743,190.50502173239,27.699518,0.1,148.72913,1639069871999
Fix,GT,34.2072408,-118.3438221,190.42001552641392,27.618053,0.1,149.62476,1639069872999
Fix,GT,34.2070245,-118.3436721,190.3230341659784,27.747839,0.1,149.87665,1639069873999
Fix,GT,34.2068066,-118.3435221,190.1770466006994,27.938717,0.1,150.14911,1639069874999
Fix,GT,34.2065876,-118.343373,189.93410254514217,27.823727,0.1,150.08228,1639069875999
Fix,GT,34.20637,-118.3432239,189.65216473162167,27.739025,0.1,150.01001,1639069876999
Fix,GT,34.2061532,-118.3430754,189.32309948349,27.605583,0.1,150.1275,1639069877999
Fix,GT,34.2059371,-118.3429277,188.90713060212136,27.572256,0.1,150.164,1639069878999
Fix,GT,34.205721,-118.3427802,188.48613063466547,27.490807,0.1,150.18805,1639069879999
Fix,GT,34.2055057,-118.342634,188.0651275536418,27.354872,0.1,150.44354,1639069880999
Fix,GT,34.2052903,-118.3424894,187.6381213594079,27.477957,0.1,150.67426,1639069881999
Fix,GT,34.2050731,-118.3423444,187.214118274808,27.530382,0.1,150.68549,1639069882999
Fix,GT,34.204857,-118.3421993,186.76511518877743,27.380404,0.1,150.54053,1639069883999
Fix,GT,34.2046422,-118.3420547,186.36911832916732,27.211046,0.1,150.62646,1639069884999
Fix,GT,34.2044285,-118.3419115,185.95413081741333,27.060444,0.1,150.48471,1639069885999
Fix,GT,34.2042167,-118.3417677,185.5411277295947,26.903658,0.1,150.14847,1639069886999
Fix,GT,34.2040058,-118.3416234,185.1361246452332,26.876184,0.1,150.12299,1639069887999
Fix,GT,34.2037956,-118.3414794,184.7271122086048,26.766924,0.1,150.10919,1639069888999
Fix,GT,34.2035863,-118.3413363,184.31115276342632,26.61919,0.1,150.20477,1639069889999
Fix,GT,34.203378,-118.3411947,183.87713720679284,26.469967,0.1,150.36743,1639069890999
Fix,GT,34.2031711,-118.3410545,183.4721216430068,26.08608,0.1,150.32538,1639069891999
Fix,GT,34.202969,-118.3409174,183.0741154313684,25.368702,0.1,150.25305,1639069892999
Fix,GT,34.2027708,-118.3407822,182.6831154578328,25.28363,0.1,150.17322,1639069893999
Fix,GT,34.2025709,-118.3406466,182.29013108778,25.663446,0.1,150.49255,1639069894999
Fix,GT,34.2023659,-118.3405108,181.8731217545867,26.242584,0.1,151.19128,1639069895999
Fix,GT,34.2021557,-118.340375,181.44314364087583,26.700459,0.1,151.63055,1639069896999
Fix,GT,34.2019418,-118.3402345,181.01812805706265,27.443901,0.1,150.43939,1639069897999
Fix,GT,34.2017223,-118.3400829,180.61814995479585,28.727303,0.1,149.58249,1639069898999
Fix,GT,34.2014936,-118.3399251,180.1411468643546,29.55264,0.1,150.45178,1639069899999
Fix,GT,34.2012595,-118.339771,179.73411564528942,29.586155,0.1,151.68219,1639069900999
Fix,GT,34.201024,-118.3396223,179.42012505054473,29.39891,0.1,152.29865,1639069901999
Fix,GT,34.2007898,-118.3394757,179.19205628561974,29.185057,0.1,151.99323,1639069902999
Fix,GT,34.2005582,-118.3393288,179.0390750646591,28.904696,0.1,152.0415,1639069903999
Fix,GT,34.2003272,-118.3391834,178.960040669322,28.992887,0.1,152.21265,1639069904999
Fix,GT,34.2000967,-118.3390373,179.02092803013323,28.761326,0.1,151.78894,1639069905999
Fix,GT,34.1998683,-118.3388886,179.26784663784505,28.931103,0.1,150.80234,1639069906999
Fix,GT,34.1996415,-118.338731,179.49993738889694,29.059494,0.1,149.0896,1639069907999
Fix,GT,34.1994189,-118.3385671,179.66202191889286,28.856909,0.1,147.65106,1639069908999
Fix,GT,34.1992009,-118.3383955,179.54203758382798,28.932512,0.1,145.84094,1639069909999
Fix,GT,34.1989863,-118.3382169,179.4390156635046,28.867132,0.1,144.61938,1639069910999
Fix,GT,34.1987764,-118.3380342,179.32203760099412,28.570503,0.1,143.06921,1639069911999
Fix,GT,34.1985739,-118.3378453,179.05806895089148,28.279612,0.1,141.09222,1639069912999
Fix,GT,34.1983798,-118.3376483,178.68010972172024,28.122362,0.1,138.1582,1639069913999
Fix,GT,34.1981937,-118.3374384,178.1521912729144,28.484276,0.1,135.33966,1639069914999
Fix,GT,34.1980133,-118.3372147,177.51124463427067,28.9814,0.1,132.80133,1639069915999
Fix,GT,34.1978358,-118.3369796,176.69526351237295,29.562109,0.1,131.40839,1639069916999
Fix,GT,34.1976596,-118.3367344,175.73432319003345,30.152386,0.1,130.00275,1639069917999
Fix,GT,34.1974843,-118.3364813,174.56739230287076,30.516878,0.1,129.45996,1639069918999
Fix,GT,34.1973085,-118.336226,173.30338297486307,30.592348,0.1,129.39673,1639069919999
Fix,GT,34.1971322,-118.3359702,172.0833328244686,30.673088,0.1,129.36694,1639069920999
Fix,GT,34.1969563,-118.3357137,171.10730463516714,30.597052,0.1,129.25555,1639069921999
Fix,GT,34.1967807,-118.3354585,170.36322931373118,30.475943,0.1,129.58502,1639069922999
Fix,GT,34.196605,-118.3352052,169.6182387919426,30.356848,0.1,129.69675,1639069923999
Fix,GT,34.1964301,-118.3349527,168.91324198901654,30.233295,0.1,129.45319,1639069924999
Fix,GT,34.1962596,-118.3346976,168.24918231892585,30.170658,0.1,127.42688,1639069925999
Fix,GT,34.1960955,-118.3344336,167.70113834238052,30.662941,0.1,125.939606,1639069926999
Fix,GT,34.1959326,-118.3341611,167.31111007010938,31.11703,0.1,125.14969,1639069927999
Fix,GT,34.1957724,-118.3338846,166.98607863938807,30.994694,0.1,124.101776,1639069928999
Fix,GT,34.1956159,-118.3336057,166.67811326646805,31.201551,0.1,123.68225,1639069929999
Fix,GT,34.1954563,-118.3333228,166.17416364741325,31.938225,0.1,124.04364,1639069930999
Fix,GT,34.1952925,-118.3330316,165.60419201463463,32.823936,0.1,123.418945,1639069931999
Fix,GT,34.1951292,-118.3327335,165.14808186089994,32.93178,0.1,122.96301,1639069932999
Fix,GT,34.1949668,-118.3324342,164.79311967003346,33.020477,0.1,122.703186,1639069933999
Fix,GT,34.1948047,-118.3321331,164.44211969721317,33.02585,0.1,122.71457,1639069934999
Fix,GT,34.1946424,-118.3318344,164.08909766805172,32.751446,0.1,123.20767,1639069935999
Fix,GT,34.1944777,-118.3315416,163.71510714614394,32.45264,0.1,124.43579,1639069936999
Fix,GT,34.1943084,-118.3312565,163.35213238453863,32.211815,0.1,126.58417,1639069937999
Fix,GT,34.194129,-118.3309801,163.04209142911435,32.488594,0.1,128.51685,1639069938999
Fix,GT,34.1939436,-118.3307068,162.83404099476337,32.468987,0.1,129.3797,1639069939999
Fix,GT,34.1937576,-118.3304367,162.7120283874273,32.28229,0.1,129.19226,1639069940999
Fix,GT,34.1935728,-118.3301678,162.62104416823388,31.99105,0.1,129.57455,1639069941999
Fix,GT,34.1933876,-118.3299049,162.70598422205447,31.553434,0.1,130.57849,1639069942999
Fix,GT,34.1932008,-118.3296501,162.74998737478256,31.120607,0.1,131.70697,1639069943999
Fix,GT,34.193013,-118.3294015,162.77996842980386,30.944492,0.1,132.44568,1639069944999
Fix,GT,34.1928213,-118.3291562,162.82998736906055,31.027605,0.1,133.39581,1639069945999
Fix,GT,34.1926278,-118.3289157,162.85002210956813,30.700394,0.1,134.22327,1639069946999
Fix,GT,34.1924343,-118.3286802,162.83899052232502,30.336914,0.1,134.52457,1639069947999
Fix,GT,34.1922428,-118.3284482,162.82001895964143,29.860117,0.1,134.612,1639069948999
Fix,GT,34.1920581,-118.3282245,162.76203160655498,28.187302,0.1,134.60904,1639069949999
Fix,GT,34.1918808,-118.3280108,162.64298735499383,27.60345,0.1,134.73904,1639069950999
Fix,GT,34.1917078,-118.3278026,162.56810118484498,26.613672,0.1,134.84177,1639069951999
Fix,GT,34.1915395,-118.327601,162.1181707880497,26.131313,0.1,134.94287,1639069952999
Fix,GT,34.1913742,-118.3274014,161.88208224987983,25.831747,0.1,134.60535,1639069953999
Fix,GT,34.1912108,-118.3272035,161.53712023854254,25.603825,0.1,134.56735,1639069954999
Fix,GT,34.1910492,-118.3270063,161.13913925504684,25.51626,0.1,134.30316,1639069955999
Fix,GT,34.1908887,-118.3268081,160.6911582801342,25.603458,0.1,134.08945,1639069956999
Fix,GT,34.190729,-118.3266061,160.10919314539433,25.719065,0.1,132.85382,1639069957999
Fix,GT,34.1905716,-118.3264012,159.47120269012453,25.67724,0.1,132.29944,1639069958999
Fix,GT,34.190416,-118.3261954,158.79423124563695,25.61641,0.1,131.88373,1639069959999
Fix,GT,34.1902617,-118.325989,157.960259814024,25.593996,0.1,131.81348,1639069960999
Fix,GT,34.1901065,-118.3257836,157.20325036513805,25.640749,0.1,132.18848,1639069961999
Fix,GT,34.1899491,-118.325575,156.46425042164327,26.337318,0.1,131.81885,1639069962999
Fix,GT,34.1897908,-118.325361,155.69825682902336,26.450481,0.1,131.15521,1639069963999
Fix,GT,34.1896331,-118.3251449,154.77034251594546,26.668728,0.1,130.96252,1639069964999
Fix,GT,34.1894729,-118.3249238,153.75328232216833,27.358038,0.1,130.77173,1639069965999
Fix,GT,34.1893086,-118.3246966,152.82031411457064,28.19348,0.1,130.73682,1639069966999
Fix,GT,34.1891392,-118.3244631,152.13217137384413,28.93348,0.1,130.96225,1639069967999
Fix,GT,34.1889632,-118.3242279,151.5321777677536,29.390265,0.1,132.65149,1639069968999
Fix,GT,34.1887806,-118.3239928,151.07412065529823,29.983442,0.1,132.80289,1639069969999
Fix,GT,34.1885952,-118.3237535,150.6801143307686,30.170944,0.1,132.52554,1639069970999
Fix,GT,34.1884122,-118.323513,150.41708576738833,29.923952,0.1,131.92108,1639069971999
Fix,GT,34.1882328,-118.3232726,150.23906990158557,29.746744,0.1,131.4029,1639069972999
Fix,GT,34.1880551,-118.3230318,150.09798410969972,29.566086,0.1,131.45941,1639069973999
Fix,GT,34.1878789,-118.322794,150.23295231837034,29.158342,0.1,131.44138,1639069974999
Fix,GT,34.1877047,-118.3225603,150.3969523076415,28.73032,0.1,131.97131,1639069975999
Fix,GT,34.1875319,-118.3223313,150.57996819734575,28.296318,0.1,132.23376,1639069976999
Fix,GT,34.1873588,-118.3221091,150.6669840950966,27.866325,0.1,133.72351,1639069977999
Fix,GT,34.1871847,-118.3218944,150.66399681830404,27.36555,0.1,134.34805,1639069978999
Fix,GT,34.1870168,-118.3216858,150.7289522638321,26.013813,0.1,133.2656,1639069979999
Fix,GT,34.1868629,-118.3214846,150.78799045062064,24.448511,0.1,131.78857,1639069980999
Fix,GT,34.1867215,-118.3212889,150.83496179389954,23.531925,0.1,129.6854,1639069981999
Fix,GT,34.1865916,-118.3210897,150.95793630886078,23.123129,0.1,126.59766,1639069982999
Fix,GT,34.1864701,-118.3208889,151.17090762710572,22.660894,0.1,126.00656,1639069983999
Fix,GT,34.1863512,-118.3206924,151.5748375146389,22.141096,0.1,125.7475,1639069984999
Fix,GT,34.1862373,-118.3204997,152.13979286432266,21.36798,0.1,124.68628,1639069985999
Fix,GT,34.1861322,-118.3203143,152.77780238008498,19.869463,0.1,124.02539,1639069986999
Fix,GT,34.1860364,-118.3201438,153.41078001880646,18.076208,0.1,123.65024,1639069987999
Fix,GT,34.1859506,-118.3199889,154.0857895281315,16.25723,0.1,123.29251,1639069988999
Fix,GT,34.1858742,-118.3198504,154.72078948092462,14.528929,0.1,123.25037,1639069989999
Fix,GT,34.1858052,-118.3197251,155.28682771849634,13.179356,0.1,123.064026,1639069990999
Fix,GT,34.1857444,-118.3196143,155.6389138415456,11.216228,0.1,123.11975,1639069991999
Fix,GT,34.1856931,-118.319521,155.88392978107927,9.65158,0.1,123.21011,1639069992999
Fix,GT,34.1856476,-118.3194379,156.06098084509372,8.701065,0.1,123.07764,1639069993999
Fix,GT,34.1856072,-118.3193639,156.15497126066683,7.5686307,0.1,123.01141,1639069994999
Fix,GT,34.1855733,-118.319302,156.206993612051,5.9944444,0.1,123.18515,1639069995999
Fix,GT,34.1855474,-118.3192551,156.24798722100255,4.4380264,0.1,123.348816,1639069996999
Fix,GT,34.1855277,-118.3192195,156.2809968045354,3.4641287,0.1,123.46326,1639069997999
Fix,GT,34.1855126,-118.3191922,156.3009936076403,2.6032045,0.1,123.30658,1639069998999
Fix,GT,34.1855015,-118.3191719,156.31099680310487,1.8283646,0.1,123.20105,1639069999999
Fix,GT,34.1854951,-118.3191602,156.324,0.73838264,0.1,123.18811,1639070000999
Fix,GT,34.1854934,-118.3191572,156.328,0.0051881257,0.1,123.17554,1639070001999
Fix,GT,34.1854934,-118.3191572,156.325,0.0014198057,0.1,123.17966,1639070002999
Fix,GT,34.1854934,-118.3191573,156.326,0.0036011692,0.1,123.17743,1639070003999
Fix,GT,34.1854934,-118.3191573,156.327,0.0014142136,0.1,123.17749,1639070004999
Fix,GT,34.1854934,-118.3191573,156.327,0.0014168444,0.1,123.177246,1639070005999
Fix,GT,34.1854934,-118.3191573,156.327,0.0028284271,0.1,123.1774,1639070006999
Fix,GT,34.1854934,-118.3191573,156.32799679738284,0.0042426405,0.1,123.1774,1639070007999
Fix,GT,34.1854932,-118.3191571,156.32600320333242,0.1698754,0.1,123.17917,1639070008999
Fix,GT,34.1854904,-118.319152,156.3309967958927,1.0710634,0.1,123.13553,1639070009999
Fix,GT,34.185482,-118.3191367,156.3449935903549,2.2571044,0.1,122.996765,1639070010999
Fix,GT,34.1854685,-118.3191115,156.3530064110756,3.3005452,0.1,122.85141,1639070011999
Fix,GT,34.1854487,-118.319075,156.34400961875917,4.772223,0.1,122.90616,1639070012999
Fix,GT,34.1854209,-118.3190244,156.3259967930317,6.3679094,0.1,123.523895,1639070013999
Fix,GT,34.1853864,-118.318962,156.2880288691521,7.4569044,0.1,123.806274,1639070014999
Fix,GT,34.1853479,-118.3188921,156.27892941522595,8.038758,0.1,123.91254,1639070015999
Fix,GT,34.185307,-118.3188153,156.37495828151702,8.712714,0.1,122.108185,1639070016999
Fix,GT,34.1852698,-118.3187288,156.43896148204803,9.264375,0.1,114.9917,1639070017999
Fix,GT,34.1852456,-118.3186288,156.50802568435668,9.837806,0.1,102.26602,1639070018999
Fix,GT,34.1852409,-118.3185178,156.264061016202,10.58991,0.1,89.617065,1639070019999
Fix,GT,34.1852508,-118.3184011,156.05606745398046,11.148417,0.1,82.17041,1639070020999
Fix,GT,34.185272,-118.3182793,155.8430674690008,11.608326,0.1,76.392334,1639070021999
Fix,GT,34.185302,-118.3181586,155.61907391107084,11.586987,0.1,71.84915,1639070022999
Fix,GT,34.1853377,-118.3180409,155.38607392752172,11.406769,0.1,69.242065,1639070023999
Fix,GT,34.185374,-118.3179321,155.14507394534348,9.954832,0.1,67.74228,1639070024999
Fix,GT,34.185405,-118.3178421,154.9280643157959,7.9816623,0.1,67.487305,1639070025999
Fix,GT,34.185429,-118.3177714,154.7460578970909,6.18876,0.1,67.667816,1639070026999
Fix,GT,34.1854474,-118.3177169,154.60003860664366,4.7163625,0.1,67.68295,1639070027999
Fix,GT,34.1854613,-118.3176758,154.4920321793556,3.476803,0.1,67.726654,1639070028999
Fix,GT,34.1854706,-118.317648,154.42101609325408,2.0126495,0.1,67.84534,1639070029999
Fix,GT,34.1854753,-118.3176337,154.38500643873215,0.95452446,0.1,67.8699,1639070030999
Fix,GT,34.1854774,-118.3176273,154.36900322008134,0.3155221,0.1,67.77106,1639070031999
Fix,GT,34.1854776,-118.3176267,154.3650032207966,0.0036281762,0.1,67.770355,1639070032999
Fix,GT,34.1854776,-118.3176267,154.36500322157144,0.004993557,0.1,67.769714,1639070033999
Fix,GT,34.1854775,-118.3176267,154.366,0.0028284271,0.1,67.76752,1639070034999
Fix,GT,34.1854775,-118.3176268,154.366,0.0014142136,0.1,67.7673,1639070035999
Fix,GT,34.1854775,-118.3176268,154.366,0.0014142136,0.1,67.76727,1639070036999
Fix,GT,34.1854775,-118.3176268,154.366,0.0028257559,0.1,67.767334,1639070037999
Fix,GT,34.1854775,-118.3176268,154.366,0.0031622776,0.1,67.767334,1639070038999
Fix,GT,34.1854775,-118.3176268,154.366,0.0031622776,0.1,67.7673,1639070039999
Fix,GT,34.1854775,-118.3176268,154.366,0.0041227085,0.1,67.76706,1639070040999
Fix,GT,34.1854775,-118.3176268,154.366,0.0041231057,0.1,67.76697,1639070041999
Fix,GT,34.1854775,-118.3176268,154.366,0.0050954716,0.1,67.76718,1639070042999
Fix,GT,34.1854775,-118.3176268,154.366,0.0041231057,0.1,67.76718,1639070043999
Fix,GT,34.1854775,-118.3176268,154.366,0.0031637093,0.1,67.76709,1639070044999
Fix,GT,34.1854775,-118.3176268,154.366,0.0036041194,0.1,67.76703,1639070045999
Fix,GT,34.1854775,-118.3176268,154.36599676895145,0.004240582,0.1,67.76697,1639070046999
Fix,GT,34.1854775,-118.3176268,154.36300323182343,0.0063985894,0.1,67.76691,1639070047999
Fix,GT,34.1854775,-118.3176268,154.3610032325387,0.0067072175,0.1,67.766846,1639070048999
Fix,GT,34.1854776,-118.3176268,154.36,0.0072111026,0.1,67.76697,1639070049999
Fix,GT,34.1854776,-118.3176268,154.359,0.006708204,0.1,67.76703,1639070050999
Fix,GT,34.1854777,-118.3176267,154.3560097042322,0.14693461,0.1,67.766754,1639070051999
Fix,GT,34.1854811,-118.3176168,154.31601617729663,2.2328634,0.1,67.67731,1639070052999
Fix,GT,34.1854939,-118.317581,154.23104207026958,4.832155,0.1,66.78516,1639070053999
Fix,GT,34.1855156,-118.3175218,154.07106797468663,7.089476,0.1,65.841736,1639070054999
Fix,GT,34.1855457,-118.3174445,153.8360809416175,8.48946,0.1,64.44971,1639070055999
Fix,GT,34.1855819,-118.3173561,153.5101522038579,9.53044,0.1,63.12921,1639070056999
Fix,GT,34.1856212,-118.3172621,153.14813928109407,9.805569,0.1,63.19391,1639070057999
Fix,GT,34.1856602,-118.3171658,152.82410691374542,9.930268,0.1,63.9794,1639070058999
Fix,GT,34.185697,-118.3170669,152.46511990165712,10.082207,0.1,66.71808,1639070059999
Fix,GT,34.1857308,-118.316959,151.95624958014486,11.621314,0.1,70.03339,1639070060999
Fix,GT,34.1857665,-118.3168267,151.33412968301772,13.726163,0.1,72.365814,1639070061999
Fix,GT,34.1858037,-118.316684,151.3279546009302,13.696062,0.1,71.48514,1639070062999
Fix,GT,34.1858446,-118.3165485,151.70783133769035,12.688148,0.1,68.13608,1639070063999
Fix,GT,34.1858895,-118.3164273,152.21783129429815,11.7775345,0.1,64.065,1639070064999
Fix,GT,34.185939,-118.31632,152.77380854171514,10.803489,0.1,58.59619,1639070065999
Fix,GT,34.1859895,-118.316228,153.2498863980174,9.418736,0.1,55.870575,1639070066999
Fix,GT,34.1860287,-118.3161457,153.650844168663,8.122017,0.1,63.18277,1639070067999
Fix,GT,34.1860444,-118.3160649,154.1578733591437,7.458942,0.1,81.1958,1639070068999
Fix,GT,34.1860338,-118.3159828,154.57787008333207,8.220744,0.1,104.26434,1639070069999
Fix,GT,34.1859927,-118.3159016,154.80593827599287,9.494737,0.1,125.45682,1639070070999
Fix,GT,34.1859285,-118.315823,154.75601624733207,10.8736925,0.1,135.80313,1639070071999
Fix,GT,34.1858531,-118.315741,154.69501950109003,11.40932,0.1,137.0503,1639070072999
Fix,GT,34.1857785,-118.3156574,154.64398049461843,11.122352,0.1,135.99048,1639070073999
Fix,GT,34.1857097,-118.3155763,154.58901625835895,10.235647,0.1,134.27261,1639070074999
Fix,GT,34.1856491,-118.315501,154.5150195143223,8.936754,0.1,133.06415,1639070075999
Fix,GT,34.1855974,-118.3154365,154.4660130124092,7.5248017,0.1,133.77701,1639070076999
Fix,GT,34.1855475,-118.3153903,154.38407158398627,6.8552666,0.1,144.86896,1639070077999
Fix,GT,34.1854886,-118.3153683,154.17309763598442,7.1087008,0.1,166.67761,1639070078999
Fix,GT,34.1854212,-118.3153817,153.82214974415302,8.341146,0.1,194.26874,1639070079999
Fix,GT,34.1853499,-118.3154307,153.5950846565962,9.97389,0.1,212.77718,1639070080999
Fix,GT,34.185275,-118.3155014,153.3500683927536,11.012194,0.1,217.37674,1639070081999
Fix,GT,34.1851918,-118.3155695,153.08211075544355,11.234446,0.1,211.8161,1639070082999
Fix,GT,34.1851021,-118.3156252,152.76510752153396,10.988084,0.1,204.21213,1639070083999
Fix,GT,34.18501,-118.3156617,152.49308799147605,10.471772,0.1,194.82948,1639070084999
Fix,GT,34.1849217,-118.3156748,152.26607823467253,9.180978,0.1,182.83168,1639070085999
Fix,GT,34.1848466,-118.3156657,152.09604238641262,7.4232273,0.1,171.64368,1639070086999
Fix,GT,34.1847882,-118.315654,151.94304565691948,5.694082,0.1,171.04254,1639070087999
Fix,GT,34.1847469,-118.3156466,151.82203261923792,3.7091696,0.1,172.29791,1639070088999
Fix,GT,34.1847188,-118.3156423,151.72303915166856,2.634526,0.1,172.99469,1639070089999
Fix,GT,34.1846987,-118.3156389,151.6490195801258,1.8679807,0.1,172.90552,1639070090999
Fix,GT,34.1846836,-118.3156363,151.59501632094384,1.8194554,0.1,173.81812,1639070091999
Fix,GT,34.184664,-118.3156404,151.5210326478481,2.7181222,0.1,186.07806,1639070092999
Fix,GT,34.1846365,-118.315648,151.42305224800108,3.3446093,0.1,191.21602,1639070093999
Fix,GT,34.1846073,-118.3156378,151.33001633107662,3.002435,0.1,166.54724,1639070094999
Fix,GT,34.1845915,-118.3156042,151.22701306819917,3.2584794,0.1,127.32507,1639070095999
Fix,GT,34.1845972,-118.3155631,151.19607189083098,3.3400314,0.1,86.911255,1639070096999
Fix,GT,34.1846223,-118.3155356,151.1130130739212,3.436863,0.1,47.496613,1639070097999
Fix,GT,34.1846581,-118.3155325,151.15597711563112,3.8040648,0.1,6.523468,1639070098999
Fix,GT,34.1846944,-118.3155491,151.27894768142698,4.537168,0.1,341.02335,1639070099999
Fix,GT,34.1847401,-118.3155666,151.44994439935684,6.2773776,0.1,343.39862,1639070100999
Fix,GT,34.1848045,-118.315579,151.6759084024429,8.147187,0.1,352.458,1639070101999
Fix,GT,34.1848846,-118.3155832,151.96686911773682,9.456916,0.1,358.45966,1639070102999
Fix,GT,34.1849745,-118.3155799,152.29390508615973,10.4560375,0.1,2.773346,1639070103999
Fix,GT,34.1850672,-118.315565,152.63690179359912,10.241711,0.1,9.666687,1639070104999
Fix,GT,34.1851514,-118.3155357,152.92791486918927,9.269466,0.1,18.220459,1639070105999
Fix,GT,34.1852223,-118.3154948,153.22190502393246,8.287344,0.1,27.58081,1639070106999
Fix,GT,34.1852789,-118.3154468,153.43692465770246,7.3986874,0.1,36.440247,1639070107999
Fix,GT,34.18533,-118.3153936,153.61893774712087,7.963439,0.1,41.404114,1639070108999
Fix,GT,34.1853876,-118.3153343,153.84990823554992,8.539558,0.1,39.557465,1639070109999
Fix,GT,34.1854523,-118.3152853,154.0899409956932,8.190172,0.1,28.825684,1639070110999
Fix,GT,34.1855223,-118.3152634,154.3189180316925,7.8176947,0.1,9.996094,1639070111999
Fix,GT,34.1855954,-118.3152748,154.5189475297928,8.377715,0.1,347.73376,1639070112999
Fix,GT,34.185666,-118.3153209,154.64601640051603,9.210335,0.1,326.19342,1639070113999
Fix,GT,34.1857327,-118.3153903,154.65096391099692,10.446321,0.1,318.13925,1639070114999
Fix,GT,34.1858045,-118.3154708,154.70398359233144,11.034228,0.1,317.03232,1639070115999
Fix,GT,34.1858764,-118.3155523,154.73498358875514,10.85572,0.1,316.68274,1639070116999
Fix,GT,34.1859461,-118.3156323,154.78400656604768,10.474305,0.1,316.20474,1639070117999
Fix,GT,34.1860113,-118.3157079,154.8109802979231,9.421977,0.1,315.95578,1639070118999
Fix,GT,34.1860667,-118.3157731,154.8749704399109,7.6631174,0.1,315.44174,1639070119999
Fix,GT,34.186109,-118.3158254,154.9239901443124,5.843429,0.1,313.92572,1639070120999
Fix,GT,34.1861389,-118.3158642,154.9489934281111,3.9253385,0.1,312.74625,1639070121999
Fix,GT,34.1861579,-118.3158893,154.96698356670143,2.3892367,0.1,312.32626,1639070122999
Fix,GT,34.1861683,-118.3159034,154.9789901378751,1.0234935,0.1,312.10907,1639070123999
Fix,GT,34.1861714,-118.3159076,154.98,0.10971945,0.1,312.04956,1639070124999
Fix,GT,34.1861714,-118.3159076,154.979,0.004997509,0.1,312.04977,1639070125999
Fix,GT,34.1861713,-118.3159076,154.978,0.004474198,0.1,312.04993,1639070126999
Fix,GT,34.1861713,-118.3159076,154.979,0.0028284271,0.1,312.0494,1639070127999
Fix,GT,34.1861713,-118.3159076,154.979,0.0014142136,0.1,312.0495,1639070128999
Fix,GT,34.1861713,-118.3159076,154.979,0.00141285,0.1,312.0498,1639070129999
Fix,GT,34.1861713,-118.3159076,154.979,0.001,0.1,312.04974,1639070130999
Fix,GT,34.1861713,-118.3159076,154.979,0.0014128495,0.1,312.04984,1639070131999
Fix,GT,34.1861713,-118.3159076,154.979,0.0014128492,0.1,312.0499,1639070132999
Fix,GT,34.1861713,-118.3159076,154.979,0.001412849,0.1,312.05,1639070133999
Fix,GT,34.1861713,-118.3159076,154.979,0.0014169218,0.1,312.05,1639070134999
Fix,GT,34.1861713,-118.3159076,154.979,0.002236068,0.1,312.0503,1639070135999
Fix,GT,34.1861713,-118.3159076,154.979,0.002236068,0.1,312.05038,1639070136999
Fix,GT,34.1861713,-118.3159076,154.979,0.0014169237,0.1,312.05066,1639070137999
Fix,GT,34.1861713,-118.3159076,154.979,0.0014142136,0.1,312.05057,1639070138999
Fix,GT,34.1861713,-118.3159076,154.979,0.0014142136,0.1,312.05072,1639070139999
Fix,GT,34.1861713,-118.3159076,154.979,0.0014142136,0.1,312.0507,1639070140999
Fix,GT,34.1861713,-118.3159076,154.979,0.0014128465,0.1,312.05103,1639070141999
Fix,GT,34.1861713,-118.3159076,154.979,0.0020007794,0.1,312.05112,1639070142999
Fix,GT,34.1861713,-118.3159076,154.979,0.001998066,0.1,312.05136,1639070143999
Fix,GT,34.1861713,-118.3159076,154.979,0.0014142136,0.1,312.0516,1639070144999
Fix,GT,34.1861713,-118.3159076,154.979,0.0020007798,0.1,312.05164,1639070145999
Fix,GT,34.1861713,-118.3159076,154.979,0.0014169292,0.1,312.0517,1639070146999
Fix,GT,34.1861713,-118.3159076,154.979,0.002236068,0.1,312.05157,1639070147999
Fix,GT,34.1861713,-118.3159076,154.979,0.0022352876,0.1,312.0518,1639070148999
Fix,GT,34.1861713,-118.3159076,154.979,0.0019980634,0.1,312.05194,1639070149999
Fix,GT,34.1861713,-118.3159076,154.979,0.001998063,0.1,312.0521,1639070150999
Fix,GT,34.1861713,-118.3159076,154.979,0.0014142136,0.1,312.0522,1639070151999
Fix,GT,34.1861713,-118.3159076,154.979,0.0014161516,0.1,312.05237,1639070152999
Fix,GT,34.1861713,-118.3159076,154.979,0.0010013708,0.1,312.05252,1639070153999
Fix,GT,34.1861713,-118.3159076,154.979,0.0020007815,0.1,312.05255,1639070154999
Fix,GT,34.1861713,-118.3159076,154.979,0.0014128422,0.1,312.05276,1639070155999
Fix,GT,34.1861713,-118.3159076,154.979,0.0014142136,0.1,312.0529,1639070156999
Fix,GT,34.1861713,-118.3159076,154.979,0.0014142136,0.1,312.05298,1639070157999
Fix,GT,34.1861713,-118.3159076,154.979,0.0014142136,0.1,312.0532,1639070158999
Fix,GT,34.1861713,-118.3159076,154.979,0.0014142136,0.1,312.0532,1639070159999
Fix,GT,34.1861713,-118.3159076,154.979,0.0014142136,0.1,312.05347,1639070160999
Fix,GT,34.1861713,-118.3159076,154.979,0.0014142136,0.1,312.05353,1639070161999
Fix,GT,34.1861713,-118.3159076,154.979,0.0014142136,0.1,312.05374,1639070162999
Fix,GT,34.1861713,-118.3159076,154.979,0.0014128397,0.1,312.05386,1639070163999
Fix,GT,34.1861713,-118.3159076,154.979,0.0014128394,0.1,312.05402,1639070164999
Fix,GT,34.1861713,-118.3159076,154.979,0.001,0.1,312.05417,1639070165999
Fix,GT,34.1861713,-118.3159076,154.979,0.0010013747,0.1,312.05438,1639070166999
Fix,GT,34.1861713,-118.3159076,154.979,0.0014128386,0.1,312.05447,1639070167999
Fix,GT,34.1861713,-118.3159076,154.979,0.001,0.1,312.0545,1639070168999
Fix,GT,34.1861713,-118.3159076,154.979,0.001,0.1,312.05472,1639070169999
Fix,GT,34.1861713,-118.3159076,154.979,0.001,0.1,312.05496,1639070170999
Fix,GT,34.1861713,-118.3159076,154.979,0.001,0.1,312.05515,1639070171999
Fix,GT,34.1861713,-118.3159076,154.979,0.001,0.1,312.05518,1639070172999
Fix,GT,34.1861713,-118.3159076,154.979,0.0014142136,0.1,312.05533,1639070173999
Fix,GT,34.1861713,-118.3159076,154.979,0.0014142136,0.1,312.0555,1639070174999
Fix,GT,34.1861713,-118.3159076,154.979,0.0014169465,0.1,312.05566,1639070175999
Fix,GT,34.1861713,-118.3159076,154.979,0.002826457,0.1,312.05582,1639070176999
Fix,GT,34.1861713,-118.3159076,154.979,0.004233231,0.1,312.0561,1639070177999
Fix,GT,34.1861713,-118.3159076,154.979,0.0028338968,0.1,312.05597,1639070178999
Fix,GT,34.1861713,-118.3159076,154.979,0.004473893,0.1,312.05566,1639070179999
Fix,GT,34.1861713,-118.3159076,154.979,0.005,0.1,312.05588,1639070180999
Fix,GT,34.1861713,-118.3159076,154.979,0.005830952,0.1,312.05603,1639070181999
Fix,GT,34.1861713,-118.3159076,154.979,0.0064031244,0.1,312.05637,1639070182999
Fix,GT,34.1861713,-118.3159076,154.979,0.00565934,0.1,312.05664,1639070183999
Fix,GT,34.1861713,-118.3159076,154.979,0.005830952,0.1,312.0569,1639070184999
Fix,GT,34.1861713,-118.3159077,154.979,0.005095767,0.1,312.05692,1639070185999
Fix,GT,34.1861713,-118.3159076,154.979,0.0036055513,0.1,312.05707,1639070186999
Fix,GT,34.1861713,-118.3159076,154.979,0.007,0.1,312.05716,1639070187999
Fix,GT,34.1861713,-118.3159076,154.979,0.0152272,0.1,312.05737,1639070188999
Fix,GT,34.1861712,-118.3159076,154.978,0.026072212,0.1,312.05746,1639070189999
Fix,GT,34.1861712,-118.3159077,154.978,0.042007215,0.1,312.05753,1639070190999
Fix,GT,34.186171,-118.3159078,154.977,0.0610226,0.1,312.05704,1639070191999
Fix,GT,34.1861731,-118.3159118,154.95901001358033,1.2360597,0.1,311.99902,1639070192999
Fix,GT,34.186187,-118.3159323,154.96599666142464,3.5353084,0.1,311.2926,1639070193999
Fix,GT,34.1862095,-118.3159731,154.9599766249657,5.4461703,0.1,303.99716,1639070194999
Fix,GT,34.1862295,-118.3160407,154.8990167000294,7.449209,0.1,286.94043,1639070195999
Fix,GT,34.1862297,-118.3161282,154.75908685874936,8.516514,0.1,265.8521,1639070196999
Fix,GT,34.1862037,-118.3162227,154.48314034032822,9.758075,0.1,247.40973,1639070197999
Fix,GT,34.1861602,-118.3163231,153.9362506658435,11.114765,0.1,241.54694,1639070198999
Fix,GT,34.1861081,-118.3164351,153.11722398006916,12.504908,0.1,240.68158,1639070199999
Fix,GT,34.1860535,-118.3165601,152.4522340590954,13.453411,0.1,243.33554,1639070200999
Fix,GT,34.1860031,-118.3166942,151.79519063174723,13.664644,0.1,246.66547,1639070201999
Fix,GT,34.1859586,-118.3168328,151.3791036990881,13.704535,0.1,250.02263,1639070202999
Fix,GT,34.1859244,-118.3169723,151.1970334584713,13.041265,0.1,255.53217,1639070203999
Fix,GT,34.1859036,-118.3171063,151.85975570094587,12.160247,0.1,260.67316,1639070204999
Fix,GT,34.1858889,-118.3172339,152.3958359804749,11.718771,0.1,261.9889,1639070205999
Fix,GT,34.1858744,-118.3173605,152.8008694259524,11.825218,0.1,261.01245,1639070206999
Fix,GT,34.1858581,-118.3174871,153.2098861398697,11.801777,0.1,261.3329,1639070207999
Fix,GT,34.1858532,-118.3176149,153.51991961097718,11.945393,0.1,270.97748,1639070208999
Fix,GT,34.185871,-118.3177446,153.80394304561617,12.4907255,0.1,283.21875,1639070209999
Fix,GT,34.1859127,-118.3178763,154.03994638442992,13.561491,0.1,294.13907,1639070210999
Fix,GT,34.1859729,-118.3180159,154.02002011013033,15.556048,0.1,297.66647,1639070211999
Fix,GT,34.1860434,-118.3181737,153.8401072769165,17.357227,0.1,297.90588,1639070212999
Fix,GT,34.1861191,-118.318347,153.42716430282593,18.79037,0.1,297.0037,1639070213999
Fix,GT,34.1861986,-118.3185358,152.74829178875683,20.170687,0.1,296.30975,1639070214999
Fix,GT,34.1862813,-118.3187373,151.7523488855362,21.222166,0.1,295.95947,1639070215999
Fix,GT,34.1863678,-118.3189498,150.58337580299377,22.49901,0.1,295.72235,1639070216999
Fix,GT,34.1864582,-118.3191762,149.56332218551634,23.69178,0.1,295.30887,1639070217999
Fix,GT,34.1865511,-118.3194116,148.7702148361206,24.392088,0.1,295.14273,1639070218999
Fix,GT,34.1866464,-118.3196537,148.20814773130417,24.942589,0.1,295.39612,1639070219999
Fix,GT,34.186747,-118.3198994,147.98407052439453,25.562696,0.1,296.5746,1639070220999
Fix,GT,34.1868557,-118.3201463,147.9659630507827,25.815151,0.1,298.77792,1639070221999
Fix,GT,34.1869715,-118.3203874,148.04804703629017,25.561981,0.1,300.72125,1639070222999
Fix,GT,34.187092,-118.3206219,148.02104368585347,25.309967,0.1,302.15182,1639070223999
Fix,GT,34.1872172,-118.320852,148.0229899161458,25.48477,0.1,303.81512,1639070224999
Fix,GT,34.1873511,-118.3210799,148.23390586400032,25.958998,0.1,305.9652,1639070225999
Fix,GT,34.1874935,-118.321305,148.72379151165484,26.218014,0.1,307.94366,1639070226999
Fix,GT,34.1876414,-118.3215272,149.12188564336302,26.246058,0.1,308.9905,1639070227999
Fix,GT,34.1877922,-118.3217465,149.49188225489854,26.279158,0.1,309.45554,1639070228999
Fix,GT,34.1879428,-118.3219674,149.8818519408703,26.444967,0.1,308.83963,1639070229999
Fix,GT,34.1880928,-118.3221906,150.26985864078998,26.362623,0.1,308.973,1639070230999
Fix,GT,34.1882435,-118.3224097,150.58390237408875,26.115759,0.1,310.09705,1639070231999
Fix,GT,34.1883961,-118.3226231,150.87694275885823,25.776134,0.1,310.8304,1639070232999
Fix,GT,34.1885478,-118.3228321,151.13790906667708,25.442686,0.1,310.97824,1639070233999
Fix,GT,34.1886993,-118.3230396,151.3629225218296,25.54379,0.1,311.08682,1639070234999
Fix,GT,34.1888508,-118.3232483,151.55796293735503,25.427982,0.1,311.02875,1639070235999
Fix,GT,34.1890014,-118.3234543,151.74991237723827,25.189962,0.1,311.19727,1639070236999
Fix,GT,34.1891512,-118.3236593,151.9789292114973,25.21888,0.1,311.08887,1639070237999
Fix,GT,34.1893016,-118.3238654,152.29587187933922,25.329865,0.1,311.05502,1639070238999
Fix,GT,34.1894522,-118.3240723,152.68388534140584,25.37275,0.1,311.02017,1639070239999
Fix,GT,34.189603,-118.3242793,153.14481111049653,25.341768,0.1,311.04828,1639070240999
Fix,GT,34.1897525,-118.3244847,153.6808009492159,24.961256,0.1,310.9142,1639070241999
Fix,GT,34.1898985,-118.3246873,154.27275703048704,24.508366,0.1,310.59515,1639070242999
Fix,GT,34.1900432,-118.3248875,154.93576035428046,24.445107,0.1,310.99054,1639070243999
Fix,GT,34.1901897,-118.3250859,155.63071641540526,24.555105,0.1,311.75037,1639070244999
Fix,GT,34.1903378,-118.3252818,156.41474336910247,24.190744,0.1,312.46597,1639070245999
Fix,GT,34.1904853,-118.3254716,157.18975006961824,23.773321,0.1,313.2151,1639070246999
Fix,GT,34.1906327,-118.3256572,157.89376690745354,23.493542,0.1,313.8425,1639070247999
Fix,GT,34.1907798,-118.3258383,158.52679388904568,23.207415,0.1,314.3555,1639070248999
Fix,GT,34.190926,-118.3260157,159.11680397725107,22.924623,0.1,314.48682,1639070249999
Fix,GT,34.1910701,-118.3261918,159.69483435952662,22.590124,0.1,314.18915,1639070250999
Fix,GT,34.1912113,-118.326365,160.19785799241066,22.131739,0.1,314.16663,1639070251999
Fix,GT,34.1913496,-118.3265343,160.7278342894316,21.580612,0.1,314.6231,1639070252999
Fix,GT,34.191485,-118.326696,161.22590866917372,20.761679,0.1,315.26273,1639070253999
Fix,GT,34.1916159,-118.3268523,161.80980714970826,20.222609,0.1,314.87747,1639070254999
Fix,GT,34.1917449,-118.3270068,162.2319086305499,20.252342,0.1,314.9651,1639070255999
Fix,GT,34.1918742,-118.3271612,162.47387814617156,20.070051,0.1,315.08307,1639070256999
Fix,GT,34.1920014,-118.3273143,162.84088150388004,19.893759,0.1,314.52777,1639070257999
Fix,GT,34.1921274,-118.3274683,163.1818577771187,19.944372,0.1,314.58368,1639070258999
Fix,GT,34.1922535,-118.3276212,163.4549220982194,19.746788,0.1,314.60886,1639070259999
Fix,GT,34.1923793,-118.327774,163.72191530627012,19.935074,0.1,314.37885,1639070260999
Fix,GT,34.1925047,-118.3279277,163.92895256149768,19.708591,0.1,314.30487,1639070261999
Fix,GT,34.1926282,-118.3280789,164.1299356055856,19.391876,0.1,314.20496,1639070262999
Fix,GT,34.1927485,-118.3282292,164.28194576168062,19.097042,0.1,313.4682,1639070263999
Fix,GT,34.1928662,-118.3283793,164.3999898278117,18.96044,0.1,313.0892,1639070264999
Fix,GT,34.1929831,-118.3285305,164.4309830427766,19.025692,0.1,312.61032,1639070265999
Fix,GT,34.1930992,-118.3286827,164.42403731441496,19.17055,0.1,312.19812,1639070266999
Fix,GT,34.1932153,-118.3288372,164.3750271434784,19.159182,0.1,311.85852,1639070267999
Fix,GT,34.1933307,-118.3289935,164.3130237559676,19.471594,0.1,311.18567,1639070268999
Fix,GT,34.1934472,-118.3291549,164.2080135779381,19.958195,0.1,310.6306,1639070269999
Fix,GT,34.1935655,-118.3293219,164.0820712991953,20.46949,0.1,310.1537,1639070270999
Fix,GT,34.1936854,-118.3294938,163.9130848978758,20.844269,0.1,309.70447,1639070271999
Fix,GT,34.1938049,-118.3296678,163.75203736424447,20.745165,0.1,309.27194,1639070272999
Fix,GT,34.1939221,-118.3298419,163.59306455183028,20.54524,0.1,308.6266,1639070273999
Fix,GT,34.1940367,-118.3300172,163.54797961091995,20.698687,0.1,307.7742,1639070274999
Fix,GT,34.1941515,-118.3301976,163.58099320220947,21.20319,0.1,307.03403,1639070275999
Fix,GT,34.1942672,-118.3303842,163.62497960197925,21.700302,0.1,306.31973,1639070276999
Fix,GT,34.1943834,-118.3305756,163.71095579499007,21.885187,0.1,305.94803,1639070277999
Fix,GT,34.1944989,-118.3307671,163.83792857688664,21.697063,0.1,305.74295,1639070278999
Fix,GT,34.1946118,-118.3309575,164.01192856186628,21.487888,0.1,305.00903,1639070279999
Fix,GT,34.1947223,-118.33115,164.2259353519082,21.524683,0.1,304.1051,1639070280999
Fix,GT,34.1948308,-118.3313448,164.42693193268778,21.84276,0.1,303.50735,1639070281999
Fix,GT,34.1949414,-118.3315455,164.53898638367653,22.523563,0.1,303.336,1639070282999
Fix,GT,34.1950539,-118.3317516,164.639972761631,22.787964,0.1,303.03012,1639070283999
Fix,GT,34.1951656,-118.3319584,164.72097956657407,22.679928,0.1,302.71747,1639070284999
Fix,GT,34.1952762,-118.3321653,164.76799659365415,22.679964,0.1,302.42526,1639070285999
Fix,GT,34.1953855,-118.3323731,164.93490800935032,22.634823,0.1,301.97577,1639070286999
Fix,GT,34.1954938,-118.3325797,165.18092843544486,22.408812,0.1,302.10562,1639070287999
Fix,GT,34.195602,-118.3327866,165.4079386460781,22.716038,0.1,301.88824,1639070288999
Fix,GT,34.1957111,-118.3329973,165.65290454053877,23.034872,0.1,301.68726,1639070289999
Fix,GT,34.195822,-118.333211,165.87793179798123,23.412613,0.1,301.9375,1639070290999
Fix,GT,34.1959361,-118.3334241,166.06395565938948,23.262653,0.1,303.1281,1639070291999
Fix,GT,34.1960521,-118.3336325,166.29389765405656,23.050922,0.1,304.031,1639070292999
Fix,GT,34.1961709,-118.3338393,166.5099215183258,23.30058,0.1,305.02078,1639070293999
Fix,GT,34.1962941,-118.3340425,166.76792150187492,23.060837,0.1,306.57788,1639070294999
Fix,GT,34.1964191,-118.3342407,167.09787027800084,22.857023,0.1,307.24152,1639070295999
Fix,GT,34.1965459,-118.3344367,167.49786000746488,22.94896,0.1,308.09363,1639070296999
Fix,GT,34.1966754,-118.3346315,167.98881899297237,23.08257,0.1,308.86932,1639070297999
Fix,GT,34.1968084,-118.3348271,168.61576429998877,23.518732,0.1,309.18155,1639070298999
Fix,GT,34.1969425,-118.3350278,169.37374033403395,23.914474,0.1,307.71545,1639070299999
Fix,GT,34.1970736,-118.3352381,170.1307368623018,24.514122,0.1,306.4483,1639070300999
Fix,GT,34.1972071,-118.335448,170.87975731152295,24.190628,0.1,307.83435,1639070301999
Fix,GT,34.1973409,-118.3356527,171.6177572607398,23.906593,0.1,307.96536,1639070302999
Fix,GT,34.1974734,-118.3358597,172.28676404911278,24.572338,0.1,306.975,1639070303999
Fix,GT,34.1976109,-118.3360788,173.00476399976014,26.013283,0.1,307.1256,1639070304999
Fix,GT,34.1977591,-118.3363073,173.70573657315967,27.451279,0.1,308.20312,1639070305999
