MessageType,Provider,LatitudeDegrees,LongitudeDegrees,AltitudeMeters,SpeedMps,AccuracyMeters,BearingDegrees,UnixTimeMillis
Fix,GT,37.3949553,-122.10234,-5.072,0.0022345374,0.1,20.432556,1619023630999
Fix,GT,37.3949553,-122.10234,-5.072,0.0010007732,0.1,20.43396,1619023631999
Fix,GT,37.3949553,-122.10234,-5.072,0.0031601032,0.1,20.435638,1619023632999
Fix,GT,37.3949552,-122.10234,-5.072,0.0022337504,0.1,20.43814,1619023633999
Fix,GT,37.3949551,-122.10234,-5.072,0.0014157579,0.1,20.439728,1619023634999
Fix,GT,37.3949552,-122.1023401,-5.072,0.0022371837,0.1,20.441376,1619023635999
Fix,GT,37.3949552,-122.1023401,-5.072,0.0028310965,0.1,20.443054,1619023636999
Fix,GT,37.3949552,-122.1023401,-5.072,0.007208162,0.1,20.445587,1619023637999
Fix,GT,37.3949553,-122.1023401,-5.07,0.008600823,0.1,20.411865,1619023638999
Fix,GT,37.3949554,-122.1023403,-5.067,0.012808788,0.1,20.410156,1619023639999
Fix,GT,37.3949551,-122.1023394,-5.07099809551239,0.48557386,0.1,19.390259,1619023640999
Fix,GT,37.3949531,-122.1023313,-5.078,1.9585807,0.1,10.324921,1619023641999
Fix,GT,37.3949512,-122.1023067,-5.09900191295147,3.256699,0.1,1.6456604,1619023642999
Fix,GT,37.3949493,-122.1022603,-5.137,4.5431457,0.1,6.5305786,1619023643999
Fix,GT,37.3949385,-122.1021971,-5.033013449490071,5.783488,0.1,16.243378,1619023644999
Fix,GT,37.394916,-122.1021245,-4.92703465950489,6.598182,0.1,24.096344,1619023645999
Fix,GT,37.3948876,-122.1020527,-4.8150308761596685,6.8888144,0.1,28.103546,1619023646999
Fix,GT,37.3948591,-122.1019884,-4.604029009878635,5.946952,0.1,28.610687,1619023647999
Fix,GT,37.3948415,-122.1019395,-4.478019382238387,5.0751467,0.1,17.001984,1619023648999
Fix,GT,37.3948393,-122.1019039,-4.39200971198082,4.561856,0.1,350.3615,1619023649999
Fix,GT,37.3948509,-122.1018722,-4.351992213487626,4.9243917,0.1,322.75177,1619023650999
Fix,GT,37.3948801,-122.1018414,-4.364996098279953,5.8411183,0.1,300.299,1619023651999
Fix,GT,37.3949299,-122.1018115,-4.400996089935303,6.8716183,0.1,294.45294,1619023652999
Fix,GT,37.3949906,-122.1017778,-4.43198824441433,7.8924727,0.1,293.89276,1619023653999
Fix,GT,37.3950619,-122.1017375,-4.500982328534127,9.242372,0.1,296.40652,1619023654999
Fix,GT,37.3951403,-122.1016841,-4.565986226320267,9.812769,0.1,300.60513,1619023655999
Fix,GT,37.3952141,-122.1016285,-4.639992112398147,8.948389,0.1,301.39474,1619023656999
Fix,GT,37.3952764,-122.1015812,-4.683009880661965,7.2279353,0.1,301.29135,1619023657999
Fix,GT,37.3953237,-122.1015451,-4.725986137866974,4.7019114,0.1,301.7166,1619023658999
Fix,GT,37.3953491,-122.1015248,-4.761996030926704,1.9880842,0.1,303.63336,1619023659999
Fix,GT,37.3953574,-122.1015179,-4.799988067030907,0.5512072,0.1,304.22406,1619023660999
Fix,GT,37.3953641,-122.1015121,-4.814996013879776,1.172417,0.1,305.46405,1619023661999
Fix,GT,37.3953748,-122.1015022,-4.810001997172832,1.2391841,0.1,307.79333,1619023662999
Fix,GT,37.3953797,-122.1014974,-4.817,0.004351543,0.1,309.0637,1619023663999
Fix,GT,37.3953797,-122.1014974,-4.822,0.0072839996,0.1,309.06662,1619023664999
Fix,GT,37.3953797,-122.1014974,-4.822,0.006324069,0.1,309.06567,1619023665999
Fix,GT,37.3953797,-122.1014974,-4.822,0.0067064366,0.1,309.06784,1619023666999
Fix,GT,37.3953797,-122.1014974,-4.822,0.005001677,0.1,309.06934,1619023667999
Fix,GT,37.3953797,-122.1014974,-4.822,0.0036068398,0.1,309.0712,1619023668999
Fix,GT,37.3953797,-122.1014974,-4.822,0.0028284271,0.1,309.07315,1619023669999
Fix,GT,37.3953797,-122.1014974,-4.822,0.002237949,0.1,309.07507,1619023670999
Fix,GT,37.3953797,-122.1014974,-4.822,0.0030003302,0.1,309.07657,1619023671999
Fix,GT,37.3953797,-122.1014974,-4.822,0.003,0.1,309.07828,1619023672999
Fix,GT,37.3953797,-122.1014974,-4.822,0.003161946,0.1,309.08,1619023673999
Fix,GT,37.3953797,-122.1014974,-4.822,0.002,0.1,309.08173,1619023674999
Fix,GT,37.3953797,-122.1014974,-4.822,0.0022376354,0.1,309.0836,1619023675999
Fix,GT,37.3953797,-122.1014974,-4.822,0.0036027355,0.1,309.08545,1619023676999
Fix,GT,37.3953797,-122.1014974,-4.822,0.0028291151,0.1,309.0871,1619023677999
Fix,GT,37.3953797,-122.1014974,-4.822,0.0031622776,0.1,309.0887,1619023678999
Fix,GT,37.3953797,-122.1014974,-4.822,0.0022379842,0.1,309.09036,1619023679999
Fix,GT,37.3953797,-122.1014974,-4.822,0.0031622776,0.1,309.0922,1619023680999
Fix,GT,37.3953797,-122.1014974,-4.822,0.0029958459,0.1,309.09415,1619023681999
Fix,GT,37.3953797,-122.1014974,-4.822,0.0022355767,0.1,309.0958,1619023682999
Fix,GT,37.3953797,-122.1014974,-4.822,0.0014154352,0.1,309.09775,1619023683999
Fix,GT,37.3953797,-122.1014974,-4.822,0.0028300511,0.1,309.09937,1619023684999
Fix,GT,37.3953797,-122.1014974,-4.823,0.0036055513,0.1,309.101,1619023685999
Fix,GT,37.3953797,-122.1014973,-4.825997901916503,0.0044703176,0.1,309.10205,1619023686999
Fix,GT,37.3953812,-122.1014958,-4.840995795369149,0.611689,0.1,309.49686,1619023687999
Fix,GT,37.3953844,-122.1014926,-4.850991573810577,0.062391803,0.1,310.29562,1619023688999
Fix,GT,37.3953846,-122.1014922,-4.8589936678409575,0.123516515,0.1,310.35968,1619023689999
Fix,GT,37.3953871,-122.1014894,-4.863997885048389,0.05840731,0.1,311.04337,1619023690999
Fix,GT,37.395387,-122.1014894,-4.868997880816459,0.002002119,0.1,311.04776,1619023691999
Fix,GT,37.395387,-122.1014894,-4.869,4.246712e-06,0.1,311.04932,1619023692999
Fix,GT,37.3953871,-122.1014894,-4.869,2.127588e-06,0.1,311.05173,1619023693999
Fix,GT,37.3953871,-122.1014894,-4.87,0.0014142136,0.1,311.05386,1619023694999
Fix,GT,37.3953871,-122.1014894,-4.87,0.0030023989,0.1,311.05563,1619023695999
Fix,GT,37.3953871,-122.1014894,-4.87000214022398,0.0041231057,0.1,311.0569,1619023696999
Fix,GT,37.3953871,-122.1014895,-4.87,0.0053813485,0.1,311.059,1619023697999
Fix,GT,37.3953871,-122.1014896,-4.87,0.0050017852,0.1,311.06055,1619023698999
Fix,GT,37.3953877,-122.101489,-4.87999784719944,0.2665395,0.1,311.2052,1619023699999
Fix,GT,37.3953877,-122.1014889,-4.874002156972884,0.006713621,0.1,311.23544,1619023700999
Fix,GT,37.3953876,-122.1014889,-4.87200216114521,0.011401275,0.1,311.23685,1619023701999
Fix,GT,37.3953874,-122.1014887,-4.87,0.014558144,0.1,311.2381,1619023702999
Fix,GT,37.3953872,-122.1014885,-4.867,0.021095023,0.1,311.2374,1619023703999
Fix,GT,37.395387,-122.1014881,-4.865,0.029831506,0.1,311.23892,1619023704999
Fix,GT,37.3953866,-122.1014876,-4.862,0.04030932,0.1,311.24557,1619023705999
Fix,GT,37.3953899,-122.1014826,-4.919969451069831,1.3880837,0.1,312.16565,1619023706999
Fix,GT,37.3954091,-122.1014578,-5.12100218629837,3.8290312,0.1,319.45746,1619023707999
Fix,GT,37.3954336,-122.1014029,-4.8980109526515,4.8088827,0.1,346.07916,1619023708999
Fix,GT,37.395433,-122.1013221,-4.833008778810501,6.8946543,0.1,15.444489,1619023709999
Fix,GT,37.3954038,-122.1012351,-4.808002198934555,8.863444,0.1,25.928864,1619023710999
Fix,GT,37.3953642,-122.1011357,-4.80999559378624,10.6142435,0.1,27.126923,1619023711999
Fix,GT,37.3953146,-122.1010192,-4.824995585441589,12.581668,0.1,28.565125,1619023712999
Fix,GT,37.3952554,-122.1008855,-4.826002211511135,14.459211,0.1,29.01593,1619023713999
Fix,GT,37.3951882,-122.1007339,-4.8689645490646365,16.2436,0.1,28.78656,1619023714999
Fix,GT,37.3951143,-122.1005644,-4.946002219855785,17.966022,0.1,28.349243,1619023715999
Fix,GT,37.3950344,-122.1003787,-4.91900444817543,19.429066,0.1,28.04425,1619023716999
Fix,GT,37.3949489,-122.100177,-4.867020054876805,21.030638,0.1,27.769745,1619023717999
Fix,GT,37.3948563,-122.099959,-4.809015627443791,22.593681,0.1,28.548767,1619023718999
Fix,GT,37.3947557,-122.0997298,-4.7779955265522,23.611965,0.1,28.89563,1619023719999
Fix,GT,37.394652,-122.0994951,-4.8039910364151,23.690699,0.1,29.068542,1619023720999
Fix,GT,37.3945486,-122.0992625,-4.820017960548401,23.465769,0.1,28.924377,1619023721999
Fix,GT,37.3944475,-122.0990328,-4.777024742305279,23.083752,0.1,28.876892,1619023722999
Fix,GT,37.3943478,-122.0988067,-4.768009013652801,22.650663,0.1,29.06485,1619023723999
Fix,GT,37.3942499,-122.0985849,-4.734013546228408,22.219114,0.1,28.902313,1619023724999
Fix,GT,37.394154,-122.0983674,-4.67602940517664,21.806885,0.1,28.898865,1619023725999
Fix,GT,37.3940596,-122.0981535,-4.571029459416866,21.42192,0.1,29.069977,1619023726999
Fix,GT,37.3939653,-122.0979439,-4.512988648891449,21.01391,0.1,30.132355,1619023727999
Fix,GT,37.3938682,-122.0977412,-4.46199545109272,20.749447,0.1,32.0744,1619023728999
Fix,GT,37.3937657,-122.097542,-4.412011393725872,21.180231,0.1,33.76422,1619023729999
Fix,GT,37.3936542,-122.0973423,-4.360002282857895,21.749027,0.1,36.56894,1619023730999
Fix,GT,37.3935322,-122.0971439,-4.287018297195434,22.33203,0.1,39.052612,1619023731999
Fix,GT,37.3934002,-122.0969472,-4.216022912621498,22.905552,0.1,41.294983,1619023732999
Fix,GT,37.3932598,-122.0967545,-4.064073455810546,23.109665,0.1,43.405518,1619023733999
Fix,GT,37.3931138,-122.0965658,-3.868034494996071,23.256754,0.1,45.06546,1619023734999
Fix,GT,37.3929615,-122.0963823,-3.695055292129517,23.345774,0.1,47.34317,1619023735999
Fix,GT,37.3928056,-122.0962074,-3.43306231790781,22.92529,0.1,49.13568,1619023736999
Fix,GT,37.3926487,-122.0960419,-3.149064744472504,22.417969,0.1,51.010315,1619023737999
Fix,GT,37.3924911,-122.0958864,-2.955057911872864,21.905071,0.1,52.786865,1619023738999
Fix,GT,37.3923339,-122.09574,-2.766034809708596,21.43793,0.1,53.60147,1619023739999
Fix,GT,37.3921796,-122.0955983,-2.604030223429203,20.989414,0.1,53.949738,1619023740999
Fix,GT,37.3920286,-122.0954617,-2.4760372648239133,20.186193,0.1,54.52246,1619023741999
Fix,GT,37.3918837,-122.0953335,-2.3230419991016387,18.96163,0.1,55.280975,1619023742999
Fix,GT,37.3917477,-122.0952148,-2.1490654487609864,18.117184,0.1,54.299896,1619023743999
Fix,GT,37.3916187,-122.0950957,-1.9750257585644724,17.656063,0.1,52.642,1619023744999
Fix,GT,37.3914962,-122.0949749,-1.860981232643128,17.10023,0.1,50.471558,1619023745999
Fix,GT,37.3913819,-122.0948529,-1.7360399515628815,16.457281,0.1,48.052063,1619023746999
Fix,GT,37.3912752,-122.0947297,-1.6369952914714814,15.9094305,0.1,46.09137,1619023747999
Fix,GT,37.3911754,-122.0946059,-1.538044811427593,15.46744,0.1,44.24829,1619023748999
Fix,GT,37.3910816,-122.0944815,-1.4240236266851425,15.043097,0.1,42.587524,1619023749999
Fix,GT,37.3909912,-122.0943559,-1.3170260359048842,15.031086,0.1,41.31128,1619023750999
Fix,GT,37.3909028,-122.0942271,-1.2220165970921515,15.197159,0.1,40.156403,1619023751999
Fix,GT,37.3908152,-122.0940952,-1.1340237530469892,15.239365,0.1,39.185547,1619023752999
Fix,GT,37.3907298,-122.0939618,-1.0400214147567748,15.105815,0.1,38.100494,1619023753999
Fix,GT,37.390648,-122.0938286,-0.9470405230522156,14.797524,0.1,36.988373,1619023754999
Fix,GT,37.3905701,-122.0936967,-0.8600191025733948,14.379293,0.1,35.973236,1619023755999
Fix,GT,37.3904964,-122.0935665,-0.7670263125896454,14.058639,0.1,34.39618,1619023756999
Fix,GT,37.3904274,-122.093437,-0.7260551159381866,13.700832,0.1,33.093384,1619023757999
Fix,GT,37.3903608,-122.0933089,-0.5670144027471542,13.343157,0.1,32.621643,1619023758999
Fix,GT,37.3902961,-122.0931816,-0.5549927857518197,13.426312,0.1,32.47818,1619023759999
Fix,GT,37.3902303,-122.0930514,-0.506,13.933957,0.1,32.071228,1619023760999
Fix,GT,37.3901625,-122.0929154,-0.4960241309404373,14.431898,0.1,31.81366,1619023761999
Fix,GT,37.3900927,-122.0927747,-0.4470096695423126,14.871825,0.1,31.963959,1619023762999
Fix,GT,37.3900203,-122.0926299,-0.3520121074914932,15.393394,0.1,31.917786,1619023763999
Fix,GT,37.3899461,-122.0924798,-0.2800315344929695,15.882925,0.1,31.749908,1619023764999
Fix,GT,37.3898702,-122.0923257,-0.1820242990255355,16.131914,0.1,31.46753,1619023765999
Fix,GT,37.3897949,-122.0921712,-0.1700024341344833,16.083982,0.1,31.55072,1619023766999
Fix,GT,37.3897192,-122.0920153,-0.1310097532272339,16.276064,0.1,30.973969,1619023767999
Fix,GT,37.3896431,-122.0918561,-0.0320244253873825,16.536793,0.1,31.43106,1619023768999
Fix,GT,37.3895638,-122.0916946,0.1279632993340492,17.006584,0.1,31.620941,1619023769999
Fix,GT,37.389481,-122.091528,0.2059901962280273,17.595078,0.1,32.105072,1619023770999
Fix,GT,37.3893947,-122.0913567,0.2249901793003082,18.1941,0.1,32.304962,1619023771999
Fix,GT,37.3893064,-122.0911804,0.239002459347248,18.741922,0.1,31.803864,1619023772999
Fix,GT,37.3892168,-122.0909976,0.2389926092624664,19.328936,0.1,31.093994,1619023773999
Fix,GT,37.3891257,-122.0908082,0.2349975321888923,19.86595,0.1,31.429321,1619023774999
Fix,GT,37.3890302,-122.090615,0.2339975280165672,20.35531,0.1,32.073486,1619023775999
Fix,GT,37.3889316,-122.0904185,0.1970247621536255,20.703691,0.1,32.32321,1619023776999
Fix,GT,37.3888304,-122.0902196,0.1289925588369369,21.046858,0.1,32.875916,1619023777999
Fix,GT,37.3887257,-122.090019,0.1679975153803825,21.298258,0.1,33.505524,1619023778999
Fix,GT,37.3886196,-122.0898202,0.1589950222969055,21.052187,0.1,33.82242,1619023779999
Fix,GT,37.388516,-122.0896265,0.1279601097106933,19.995811,0.1,33.53247,1619023780999
Fix,GT,37.388422,-122.0894485,0.1469975027441978,17.877272,0.1,32.902588,1619023781999
Fix,GT,37.3883406,-122.0892889,0.1860200123786926,15.860092,0.1,32.038788,1619023782999
Fix,GT,37.3882689,-122.0891453,0.1299949884414672,14.227207,0.1,31.87326,1619023783999
Fix,GT,37.3882057,-122.0890167,0.1569949802160263,12.558138,0.1,31.148468,1619023784999
Fix,GT,37.3881509,-122.0889025,0.1860125709176063,11.104905,0.1,31.030884,1619023785999
Fix,GT,37.3881018,-122.0888006,0.1799949631690979,9.867599,0.1,31.285797,1619023786999
Fix,GT,37.3880595,-122.0887137,0.2049949548244476,8.011968,0.1,31.365753,1619023787999
Fix,GT,37.3880269,-122.0886472,0.2060025268197059,5.785287,0.1,31.431152,1619023788999
Fix,GT,37.3880051,-122.0886025,0.2109974689483642,3.6120994,0.1,31.446777,1619023789999
Fix,GT,37.387992,-122.0885757,0.2189974647760391,2.0339856,0.1,31.42331,1619023790999
Fix,GT,37.3879855,-122.0885623,0.221,0.81257033,0.1,31.401245,1619023791999
Fix,GT,37.3879842,-122.0885594,0.2200076310634613,0.02418803,0.1,31.395142,1619023792999
Fix,GT,37.3879842,-122.0885594,0.223,0.0036055513,0.1,31.397522,1619023793999
Fix,GT,37.3879842,-122.0885594,0.223,0.0030004142,0.1,31.395203,1619023794999
Fix,GT,37.3879842,-122.0885594,0.2220025563240051,0.001,0.1,31.395721,1619023795999
Fix,GT,37.3879842,-122.0885594,0.221,0.0009974395,0.1,31.396057,1619023796999
Fix,GT,37.3879842,-122.0885594,0.221,0.001,0.1,31.396149,1619023797999
Fix,GT,37.3879842,-122.0885594,0.221,0.0014142136,0.1,31.396149,1619023798999
Fix,GT,37.3879842,-122.0885594,0.221,0.0009974268,0.1,31.396515,1619023799999
Fix,GT,37.3879842,-122.0885594,0.221,0.0,0.1,31.39685,1619023800999
Fix,GT,37.3879842,-122.0885594,0.221,0.001,0.1,31.396606,1619023801999
Fix,GT,37.3879842,-122.0885594,0.221,0.0009974142,0.1,31.396484,1619023802999
Fix,GT,37.3879842,-122.0885594,0.221,0.0031622776,0.1,31.39563,1619023803999
Fix,GT,37.3879842,-122.0885594,0.221,0.0014142136,0.1,31.39685,1619023804999
Fix,GT,37.3879842,-122.0885594,0.221,0.0009974014,0.1,31.397003,1619023805999
Fix,GT,37.3879842,-122.0885594,0.221,0.0,0.1,31.396515,1619023806999
Fix,GT,37.3879842,-122.0885594,0.221,0.000997393,0.1,31.396301,1619023807999
Fix,GT,37.3879842,-122.0885594,0.221,3.6928225e-06,0.1,31.396149,1619023808999
Fix,GT,37.3879842,-122.0885594,0.221,0.0010010834,0.1,31.395905,1619023809999
Fix,GT,37.3879842,-122.0885594,0.221,0.0014142136,0.1,31.395569,1619023810999
Fix,GT,37.3879842,-122.0885594,0.221,0.0010010869,0.1,31.395172,1619023811999
Fix,GT,37.3879842,-122.0885594,0.221,0.0009973719,0.1,31.394806,1619023812999
Fix,GT,37.3879842,-122.0885594,0.221,0.0,0.1,31.394104,1619023813999
Fix,GT,37.3879842,-122.0885594,0.221,0.0014131215,0.1,31.393585,1619023814999
Fix,GT,37.3879842,-122.0885594,0.221,0.0014142136,0.1,31.392944,1619023815999
Fix,GT,37.3879842,-122.0885594,0.221,0.001413118,0.1,31.392395,1619023816999
Fix,GT,37.3879842,-122.0885594,0.221,0.0014104669,0.1,31.391785,1619023817999
Fix,GT,37.3879842,-122.0885594,0.221,2.65342e-06,0.1,31.3909,1619023818999
Fix,GT,37.3879842,-122.0885594,0.221,0.0019973426,0.1,31.390137,1619023819999
Fix,GT,37.3879842,-122.0885594,0.221,0.0010011026,0.1,31.389404,1619023820999
Fix,GT,37.3879843,-122.0885594,0.221,0.0,0.1,31.38861,1619023821999
Fix,GT,37.3879843,-122.0885594,0.221,2.6704074e-06,0.1,31.387451,1619023822999
Fix,GT,37.3879843,-122.0885594,0.221,0.001,0.1,31.386292,1619023823999
Fix,GT,37.3879843,-122.0885594,0.221,0.0019973211,0.1,31.385284,1619023824999
Fix,GT,37.3879843,-122.0885594,0.221,0.0010026831,0.1,31.384125,1619023825999
Fix,GT,37.3879843,-122.0885594,0.221,0.0010011132,0.1,31.382935,1619023826999
Fix,GT,37.3879843,-122.0885594,0.221,0.0010049213,0.1,31.381836,1619023827999
Fix,GT,37.3879843,-122.0885594,0.221,0.001,0.1,31.38034,1619023828999
Fix,GT,37.3879843,-122.0885594,0.221,0.0010011183,0.1,31.378845,1619023829999
Fix,GT,37.3879843,-122.0885594,0.221,0.0014130934,0.1,31.37735,1619023830999
Fix,GT,37.3879843,-122.0885594,0.221,0.001,0.1,31.375977,1619023831999
Fix,GT,37.3879843,-122.0885594,0.221,0.001,0.1,31.37445,1619023832999
Fix,GT,37.3879843,-122.0885594,0.221,0.0020027172,0.1,31.372803,1619023833999
Fix,GT,37.3879843,-122.0885594,0.221,0.0030004417,0.1,31.371033,1619023834999
Fix,GT,37.3879843,-122.0885594,0.221,0.0049949912,0.1,31.36914,1619023835999
Fix,GT,37.3879843,-122.0885594,0.222,0.005,0.1,31.367218,1619023836999
Fix,GT,37.3879843,-122.0885594,0.224,0.007276837,0.1,31.365295,1619023837999
Fix,GT,37.3879842,-122.088559,0.2180027382373809,0.29951796,0.1,31.359467,1619023838999
Fix,GT,37.3879794,-122.0885492,0.214,2.0682137,0.1,31.439545,1619023839999
Fix,GT,37.3879647,-122.0885191,0.2239972532987594,4.101296,0.1,31.775574,1619023840999
Fix,GT,37.3879403,-122.0884702,0.232,6.206025,0.1,31.943237,1619023841999
Fix,GT,37.3879048,-122.0883991,0.2739614268541336,8.587003,0.1,31.91513,1619023842999
Fix,GT,37.3878599,-122.0883082,0.2979972405433654,10.23186,0.1,31.525757,1619023843999
Fix,GT,37.3878088,-122.0882037,0.3259778904914856,11.594981,0.1,31.082275,1619023844999
Fix,GT,37.387754,-122.0880872,0.3780055358409881,12.313546,0.1,29.895844,1619023845999
Fix,GT,37.3876978,-122.0879642,0.4289861392378807,12.802826,0.1,29.385437,1619023846999
Fix,GT,37.3876401,-122.0878364,0.4410027763843536,13.209058,0.1,29.43393,1619023847999
Fix,GT,37.3875796,-122.0877058,0.4759610713720321,13.25964,0.1,30.69281,1619023848999
Fix,GT,37.3875186,-122.0875789,0.5489916452765465,12.843266,0.1,31.503326,1619023849999
Fix,GT,37.3874582,-122.0874557,0.5779860543012618,12.905958,0.1,31.340942,1619023850999
Fix,GT,37.3873965,-122.0873292,0.6049832394123077,13.470229,0.1,31.32608,1619023851999
Fix,GT,37.3873317,-122.0871961,0.6369972023367881,14.148537,0.1,31.33487,1619023852999
Fix,GT,37.3872632,-122.0870561,0.6719943962097168,14.945333,0.1,31.398926,1619023853999
Fix,GT,37.3871913,-122.0869104,0.7279943876266479,15.145877,0.1,31.987335,1619023854999
Fix,GT,37.3871191,-122.0867668,0.802985947906971,14.975791,0.1,32.09195,1619023855999
Fix,GT,37.3870476,-122.086623,0.8579859267473221,15.121293,0.1,31.66043,1619023856999
Fix,GT,37.3869756,-122.086476,0.8829943622350692,15.471523,0.1,31.351166,1619023857999
Fix,GT,37.3869022,-122.0863259,0.8969858841300011,15.58568,0.1,31.507324,1619023858999
Fix,GT,37.3868288,-122.0861765,0.8799915179610251,15.526862,0.1,31.69928,1619023859999
Fix,GT,37.3867547,-122.0860272,0.8879886732101441,15.57897,0.1,31.791168,1619023860999
Fix,GT,37.3866811,-122.085879,0.9239801484942436,15.333349,0.1,31.737885,1619023861999
Fix,GT,37.3866091,-122.0857337,0.941005680322647,14.968864,0.1,31.65207,1619023862999
Fix,GT,37.3865388,-122.0855914,0.9340028443932532,14.65955,0.1,31.61914,1619023863999
Fix,GT,37.3864703,-122.0854527,0.9179914541244508,14.111613,0.1,31.66034,1619023864999
Fix,GT,37.3864056,-122.0853225,0.9250085589289666,12.973474,0.1,31.831116,1619023865999
Fix,GT,37.3863458,-122.0852027,0.915005714416504,12.164842,0.1,32.076324,1619023866999
Fix,GT,37.3862886,-122.0850886,0.9150028614401818,11.693535,0.1,32.023438,1619023867999
Fix,GT,37.386234,-122.0849799,0.927988537311554,10.942331,0.1,31.824219,1619023868999
Fix,GT,37.3861847,-122.0848798,0.9030028699040412,9.9255,0.1,31.53479,1619023869999
Fix,GT,37.3861399,-122.0847887,0.8859942514896393,9.126589,0.1,31.448273,1619023870999
Fix,GT,37.386099,-122.0847051,0.8760057569742203,8.09296,0.1,31.503082,1619023871999
Fix,GT,37.3860643,-122.0846348,0.871,6.4610615,0.1,31.684265,1619023872999
Fix,GT,37.3860385,-122.0845825,0.8820028870105744,4.226762,0.1,31.57425,1619023873999
Fix,GT,37.3860235,-122.0845519,0.875,2.2752388,0.1,31.671844,1619023874999
Fix,GT,37.3860162,-122.0845371,0.8729971044659615,0.8378033,0.1,31.710785,1619023875999
Fix,GT,37.3860148,-122.0845342,0.8690028997659683,0.043190535,0.1,31.71524,1619023876999
Fix,GT,37.3860148,-122.0845342,0.867,0.004119844,0.1,31.716187,1619023877999
Fix,GT,37.3860148,-122.0845342,0.867,0.0019982962,0.1,31.712921,1619023878999
Fix,GT,37.3860148,-122.0845342,0.867,0.001,0.1,31.711853,1619023879999
Fix,GT,37.3860148,-122.0845342,0.867,0.001,0.1,31.71051,1619023880999
Fix,GT,37.3860148,-122.0845342,0.867,0.0,0.1,31.709015,1619023881999
Fix,GT,37.3860148,-122.0845342,0.867,4.1370504e-06,0.1,31.707611,1619023882999
Fix,GT,37.3860148,-122.0845342,0.867,0.001,0.1,31.706146,1619023883999
Fix,GT,37.3860148,-122.0845342,0.867,0.0009970661,0.1,31.704407,1619023884999
Fix,GT,37.3860148,-122.0845342,0.867,0.001,0.1,31.703156,1619023885999
Fix,GT,37.3860148,-122.0845342,0.867,0.0014129948,0.1,31.701752,1619023886999
Fix,GT,37.3860148,-122.0845342,0.867,0.0009970535,0.1,31.700531,1619023887999
Fix,GT,37.3860148,-122.0845342,0.867,0.0014129912,0.1,31.699097,1619023888999
Fix,GT,37.3860148,-122.0845342,0.867,0.0014129895,0.1,31.697632,1619023889999
Fix,GT,37.3860148,-122.0845342,0.867,0.001,0.1,31.69629,1619023890999
Fix,GT,37.3860148,-122.0845342,0.867,0.001412986,0.1,31.69455,1619023891999
Fix,GT,37.3860148,-122.0845342,0.867,0.001,0.1,31.693481,1619023892999
Fix,GT,37.3860148,-122.0845343,0.867,0.001,0.1,31.692017,1619023893999
Fix,GT,37.3860148,-122.0845343,0.867,0.0009970237,0.1,31.690857,1619023894999
Fix,GT,37.3860148,-122.0845343,0.867,2.9806497e-06,0.1,31.689545,1619023895999
Fix,GT,37.3860148,-122.0845343,0.867,0.0014099922,0.1,31.688202,1619023896999
Fix,GT,37.3860148,-122.0845343,0.867,2.989173e-06,0.1,31.686768,1619023897999
Fix,GT,37.3860148,-122.0845343,0.867,2.9934647e-06,0.1,31.685364,1619023898999
Fix,GT,37.3860148,-122.0845343,0.867,0.0009970022,0.1,31.684143,1619023899999
Fix,GT,37.3860148,-122.0845343,0.867,0.0,0.1,31.682922,1619023900999
Fix,GT,37.3860148,-122.0845343,0.867,0.0,0.1,31.68158,1619023901999
Fix,GT,37.3860148,-122.0845343,0.867,0.001,0.1,31.680176,1619023902999
Fix,GT,37.3860148,-122.0845343,0.867,0.001,0.1,31.678528,1619023903999
Fix,GT,37.3860148,-122.0845343,0.867,0.001412963,0.1,31.677124,1619023904999
Fix,GT,37.3860148,-122.0845343,0.867,0.0014142136,0.1,31.67569,1619023905999
Fix,GT,37.3860148,-122.0845343,0.867,0.001,0.1,31.674255,1619023906999
Fix,GT,37.3860148,-122.0845343,0.867,0.001,0.1,31.672913,1619023907999
Fix,GT,37.3860148,-122.0845343,0.867,0.0014142136,0.1,31.671265,1619023908999
Fix,GT,37.3860148,-122.0845343,0.867,0.0014142136,0.1,31.6698,1619023909999
Fix,GT,37.3860148,-122.0845343,0.867,0.0014142136,0.1,31.668304,1619023910999
Fix,GT,37.3860148,-122.0845343,0.867,0.0014142136,0.1,31.666962,1619023911999
Fix,GT,37.3860148,-122.0845343,0.868,0.026331162,0.1,31.666534,1619023912999
Fix,GT,37.3860135,-122.0845316,0.866,0.4776618,0.1,31.66742,1619023913999
Fix,GT,37.386011,-122.0845267,0.8699969384074211,0.5187745,0.1,31.679535,1619023914999
Fix,GT,37.3860084,-122.0845215,0.869,0.7854693,0.1,31.688416,1619023915999
Fix,GT,37.3860035,-122.0845117,0.873,1.1438036,0.1,31.693146,1619023916999
Fix,GT,37.3859977,-122.0845,0.8750030744671822,1.2701689,0.1,31.74118,1619023917999
Fix,GT,37.3859911,-122.0844869,0.875003078699112,1.5114462,0.1,32.027374,1619023918999
Fix,GT,37.3859816,-122.0844683,0.871,2.5560682,0.1,32.38205,1619023919999
Fix,GT,37.3859656,-122.0844371,0.874,3.971724,0.1,32.856537,1619023920999
Fix,GT,37.3859429,-122.0843936,0.8799969084858894,5.2146845,0.1,33.081726,1619023921999
Fix,GT,37.3859129,-122.0843365,0.896,6.712169,0.1,32.82724,1619023922999
Fix,GT,37.3858778,-122.0842681,0.8860031000971794,7.714332,0.1,32.259827,1619023923999
Fix,GT,37.3858387,-122.0841906,0.8810093129873275,8.598418,0.1,31.703766,1619023924999
Fix,GT,37.3857958,-122.0841038,0.8540248689651488,9.500199,0.1,31.384308,1619023925999
Fix,GT,37.3857486,-122.0840076,0.8730124514102935,10.44492,0.1,31.43216,1619023926999
Fix,GT,37.3856971,-122.0839028,0.8769844142794608,11.365532,0.1,31.411987,1619023927999
Fix,GT,37.3856414,-122.0837894,0.903,12.2472515,0.1,31.310974,1619023928999
Fix,GT,37.385582,-122.0836682,0.911993748664856,12.856479,0.1,31.388123,1619023929999
Fix,GT,37.3855203,-122.0835429,0.939996870100498,13.154502,0.1,31.485962,1619023930999
Fix,GT,37.3854575,-122.0834157,0.974984329342842,13.348511,0.1,31.395355,1619023931999
Fix,GT,37.3853937,-122.0832858,1.017990584552288,13.684783,0.1,31.292694,1619023932999
Fix,GT,37.3853286,-122.0831522,1.0619937145709992,14.09864,0.1,30.987244,1619023933999
Fix,GT,37.3852614,-122.0830133,1.1129779713749886,14.64025,0.1,31.184967,1619023934999
Fix,GT,37.3851906,-122.0828692,1.1509842435121536,15.290492,0.1,31.46756,1619023935999
Fix,GT,37.385117,-122.0827196,1.179006311058998,15.798879,0.1,31.392609,1619023936999
Fix,GT,37.3850413,-122.0825659,1.2179747219085693,16.068771,0.1,31.631836,1619023937999
Fix,GT,37.3849647,-122.0824121,1.2539968360066416,16.021475,0.1,31.99121,1619023938999
Fix,GT,37.3848876,-122.082259,1.287,16.054806,0.1,31.959564,1619023939999
Fix,GT,37.384811,-122.0821059,1.3040031725764274,16.000685,0.1,31.536865,1619023940999
Fix,GT,37.3847361,-122.0819528,1.3259872927665712,15.796587,0.1,31.231476,1619023941999
Fix,GT,37.3846621,-122.0818018,1.3749840945005416,15.590035,0.1,31.309753,1619023942999
Fix,GT,37.3845887,-122.0816529,1.4379681466817855,15.38746,0.1,31.468597,1619023943999
Fix,GT,37.3845166,-122.0815058,1.5129681037664413,15.208942,0.1,31.37616,1619023944999
Fix,GT,37.3844454,-122.0813604,1.6089361217021942,15.061529,0.1,31.171295,1619023945999
Fix,GT,37.3843747,-122.0812164,1.64099360370636,14.88637,0.1,31.361511,1619023946999
Fix,GT,37.3843041,-122.0810741,1.6559743809700012,14.7697,0.1,31.678314,1619023947999
Fix,GT,37.3842334,-122.0809318,1.7369839663505555,14.923966,0.1,31.507507,1619023948999
Fix,GT,37.3841626,-122.0807877,1.7880128438472749,15.11677,0.1,30.979065,1619023949999
Fix,GT,37.384093,-122.0806397,1.8479871392250065,15.406344,0.1,29.131104,1619023950999
Fix,GT,37.3840253,-122.0804866,1.927977463185787,15.601711,0.1,28.404694,1619023951999
Fix,GT,37.3839572,-122.0803326,2.009977433562278,15.435573,0.1,29.240326,1619023952999
Fix,GT,37.3838887,-122.0801827,2.0429774039387705,15.111502,0.1,30.032562,1619023953999
Fix,GT,37.3838201,-122.0800375,2.107983838796616,14.743617,0.1,30.676788,1619023954999
Fix,GT,37.3837518,-122.0798966,2.1909643988013268,14.399036,0.1,31.223785,1619023955999
Fix,GT,37.3836843,-122.0797601,2.2729935183525085,14.029195,0.1,31.42752,1619023956999
Fix,GT,37.3836188,-122.0796271,2.3689837747216225,13.650267,0.1,31.44513,1619023957999
Fix,GT,37.3835545,-122.0794967,2.459974005699158,13.595049,0.1,31.2193,1619023958999
Fix,GT,37.3834903,-122.0793652,2.5319869856834414,13.731914,0.1,31.193207,1619023959999
Fix,GT,37.383425,-122.0792325,2.595986968755722,13.836643,0.1,31.397827,1619023960999
Fix,GT,37.3833615,-122.0791032,2.6909771652817724,12.891066,0.1,31.24585,1619023961999
Fix,GT,37.3833037,-122.0789856,2.7549967336654664,11.576166,0.1,31.393555,1619023962999
Fix,GT,37.3832514,-122.0788797,2.8369542112350468,10.658684,0.1,31.279419,1619023963999
Fix,GT,37.3832033,-122.0787794,2.913970526278019,10.267463,0.1,29.032837,1619023964999
Fix,GT,37.3831607,-122.0786799,3.013970487654209,9.939143,0.1,26.478546,1619023965999
Fix,GT,37.3831215,-122.0785808,3.098954031825066,9.748564,0.1,25.751984,1619023966999
Fix,GT,37.3830834,-122.0784836,3.182973698616028,9.2952175,0.1,26.673248,1619023967999
Fix,GT,37.383046,-122.0783948,3.2199736647605897,8.324623,0.1,28.43042,1619023968999
Fix,GT,37.38301,-122.0783153,3.277986815452576,7.643464,0.1,30.290161,1619023969999
Fix,GT,37.3829763,-122.0782455,3.3229867980480194,6.7472763,0.1,31.634827,1619023970999
Fix,GT,37.3829447,-122.0781829,3.3379801716804507,6.4202094,0.1,32.2648,1619023971999
Fix,GT,37.382914,-122.0781228,3.388990073144436,6.16868,0.1,32.684998,1619023972999
Fix,GT,37.3828837,-122.0780644,3.410986747264862,6.527534,0.1,32.985046,1619023973999
Fix,GT,37.382849,-122.0779976,3.4579767772555354,7.5408936,0.1,32.653442,1619023974999
Fix,GT,37.382812,-122.077925,3.5179767476320265,7.713854,0.1,32.44934,1619023975999
Fix,GT,37.3827763,-122.0778536,3.5699900220036507,7.424937,0.1,29.685944,1619023976999
Fix,GT,37.3827522,-122.0777855,3.623023311614991,7.3961816,0.1,15.121948,1619023977999
Fix,GT,37.3827463,-122.0777118,3.623026676654816,7.850136,0.1,355.10254,1619023978999
Fix,GT,37.3827644,-122.0776372,3.533026710510254,8.659764,0.1,332.5057,1619023979999
Fix,GT,37.3828077,-122.0775613,3.2651370648741724,9.538675,0.1,316.99426,1619023980999
Fix,GT,37.382873,-122.0774928,3.131083683431148,10.790934,0.1,303.4947,1619023981999
Fix,GT,37.3829588,-122.0774293,2.985010054886341,11.813342,0.1,298.95282,1619023982999
Fix,GT,37.3830548,-122.0773644,2.945023491024971,12.4738035,0.1,298.06662,1619023983999
Fix,GT,37.3831568,-122.0772969,2.8280100804567336,13.176228,0.1,297.88873,1619023984999
Fix,GT,37.3832635,-122.0772238,2.6630605589151384,13.707275,0.1,299.03424,1619023985999
Fix,GT,37.3833731,-122.0771441,2.523020211696625,14.291434,0.1,299.92673,1619023986999
Fix,GT,37.3834854,-122.0770601,2.4000438485741613,14.789849,0.1,300.28314,1619023987999
Fix,GT,37.3836013,-122.0769729,2.3680202631950378,15.180453,0.1,300.4682,1619023988999
Fix,GT,37.3837178,-122.0768854,2.2960135257244105,14.956422,0.1,300.8278,1619023989999
Fix,GT,37.3838319,-122.0767992,2.2430101569890977,14.641113,0.1,301.24774,1619023990999
Fix,GT,37.383943,-122.0767129,2.163101696848869,14.321076,0.1,301.9438,1619023991999
Fix,GT,37.3840509,-122.0766278,1.9750373367071152,13.9815,0.1,301.88654,1619023992999
Fix,GT,37.3841546,-122.0765461,1.8230305863022804,13.174645,0.1,301.82684,1619023993999
Fix,GT,37.3842525,-122.0764695,1.7320204162597654,12.5303335,0.1,301.9981,1619023994999
Fix,GT,37.3843465,-122.0763951,1.6430408833026886,12.036115,0.1,302.63358,1619023995999
Fix,GT,37.3844375,-122.076322,1.583017056465149,11.831626,0.1,302.6472,1619023996999
Fix,GT,37.3845262,-122.0762503,1.5389726758003233,11.645266,0.1,302.61484,1619023997999
Fix,GT,37.3846131,-122.0761808,1.5130068395137786,11.290965,0.1,301.78546,1619023998999
Fix,GT,37.3846946,-122.0761174,1.4570171199440958,10.053525,0.1,301.36908,1619023999999
Fix,GT,37.3847653,-122.0760622,1.4170068566799163,8.254312,0.1,301.87607,1619024000999
Fix,GT,37.3848208,-122.0760182,1.3889965674281122,6.4239445,0.1,301.88715,1619024001999
Fix,GT,37.3848612,-122.0759863,1.3690171840190888,4.195358,0.1,301.64154,1619024002999
Fix,GT,37.3848892,-122.0759644,1.341,3.1800506,0.1,301.495,1619024003999
Fix,GT,37.3849129,-122.075946,1.31601033616066,3.0972776,0.1,301.25665,1619024004999
Fix,GT,37.3849365,-122.0759279,1.2990137984752654,3.0561614,0.1,300.97943,1619024005999
Fix,GT,37.3849597,-122.0759106,1.2839965461492535,2.7884095,0.1,300.65594,1619024006999
Fix,GT,37.3849748,-122.0758994,1.295996541917324,1.0433868,0.1,300.37268,1619024007999
Fix,GT,37.3849786,-122.075897,1.284,0.20425649,0.1,300.34326,1619024008999
Fix,GT,37.3849819,-122.0758948,1.2750034665465353,0.7620261,0.1,300.32797,1619024009999
Fix,GT,37.3849918,-122.0758879,1.265006941795349,1.9209669,0.1,298.91003,1619024010999
Fix,GT,37.3850097,-122.0758773,1.2320104250311852,3.5241091,0.1,288.7029,1619024011999
Fix,GT,37.3850407,-122.07587,1.2160417523384093,5.1865454,0.1,270.1567,1619024012999
Fix,GT,37.3850836,-122.0758805,1.1510383195281029,6.9390516,0.1,243.63751,1619024013999
Fix,GT,37.3851278,-122.075926,1.035041853904724,8.242863,0.1,218.4532,1619024014999
Fix,GT,37.3851717,-122.0760067,0.9840209523439408,9.4452505,0.1,212.62224,1619024015999
Fix,GT,37.385216,-122.0760978,0.940996503651142,9.49423,0.1,211.33348,1619024016999
Fix,GT,37.3852592,-122.0761896,0.8760350058078765,9.479745,0.1,210.6787,1619024017999
Fix,GT,37.3853023,-122.0762832,0.7900385529398919,9.698304,0.1,210.25854,1619024018999
Fix,GT,37.3853469,-122.0763794,0.7210105273127555,9.300621,0.1,210.14734,1619024019999
Fix,GT,37.3853852,-122.0764627,0.6950105400085449,7.031244,0.1,210.54161,1619024020999
Fix,GT,37.3854124,-122.076522,0.6440351762771607,5.108973,0.1,210.8957,1619024021999
Fix,GT,37.3854367,-122.0765734,0.6401197432279587,5.0252476,0.1,211.79193,1619024022999
Fix,GT,37.3854637,-122.0766271,0.5679894215464592,5.983099,0.1,213.06073,1619024023999
Fix,GT,37.3854955,-122.0766877,0.5250247126817703,6.672079,0.1,213.51912,1619024024999
Fix,GT,37.385526,-122.0767485,0.4980035346150398,6.5348024,0.1,208.6583,1619024025999
Fix,GT,37.3855432,-122.0768045,0.4939787665605545,6.0882564,0.1,190.78828,1619024026999
Fix,GT,37.3855419,-122.0768568,0.4250318882465362,5.9331303,0.1,166.31586,1619024027999
Fix,GT,37.3855229,-122.0769036,0.4699574308395385,6.387608,0.1,137.80081,1619024028999
Fix,GT,37.3854808,-122.0769397,0.494985793352127,7.1651,0.1,118.20572,1619024029999
Fix,GT,37.3854197,-122.0769796,0.539989332318306,7.8929386,0.1,120.43353,1619024030999
Fix,GT,37.3853543,-122.0770288,0.5999857592582702,8.788776,0.1,122.74359,1619024031999
Fix,GT,37.3852841,-122.0770843,0.6799714841842652,9.660363,0.1,122.68326,1619024032999
Fix,GT,37.3852077,-122.0771438,0.7609750190377236,10.298034,0.1,122.27112,1619024033999
Fix,GT,37.3851266,-122.0772066,0.8309749894142151,10.885349,0.1,122.06943,1619024034999
Fix,GT,37.3850413,-122.0772726,0.9059785369634628,11.422637,0.1,121.80676,1619024035999
Fix,GT,37.3849518,-122.0773406,0.978971348285675,11.913577,0.1,121.08685,1619024036999
Fix,GT,37.384858,-122.0774099,1.0719677287340166,12.318525,0.1,120.04758,1619024037999
Fix,GT,37.3847615,-122.0774785,1.1559533309340475,12.421261,0.1,119.21063,1619024038999
Fix,GT,37.3846634,-122.0775461,1.2349892173409462,12.51976,0.1,118.604065,1619024039999
Fix,GT,37.3845628,-122.0776139,1.3339388263225556,12.914731,0.1,118.164795,1619024040999
Fix,GT,37.3844592,-122.077683,1.406996397256851,13.15648,0.1,118.15347,1619024041999
Fix,GT,37.3843532,-122.0777539,1.4979495023489,13.457481,0.1,118.248535,1619024042999
Fix,GT,37.3842456,-122.0778267,1.588967498600483,13.697767,0.1,118.378235,1619024043999
Fix,GT,37.384136,-122.0779012,1.6829674605131149,13.949726,0.1,118.61948,1619024044999
Fix,GT,37.3840246,-122.077978,1.7489710421562197,14.132366,0.1,118.95267,1619024045999
Fix,GT,37.3839141,-122.0780546,1.8529528877139088,13.878977,0.1,118.63037,1619024046999
Fix,GT,37.3838057,-122.0781296,1.9279637174606323,13.491765,0.1,119.30487,1619024047999
Fix,GT,37.3837017,-122.078206,2.039956410169601,13.032898,0.1,120.80939,1619024048999
Fix,GT,37.383604,-122.0782816,2.111003636717797,12.253779,0.1,121.90076,1619024049999
Fix,GT,37.3835146,-122.0783533,2.1779563086032865,11.103538,0.1,122.55908,1619024050999
Fix,GT,37.3834381,-122.0784164,2.263992709398269,9.105692,0.1,122.891174,1619024051999
Fix,GT,37.3833785,-122.0784661,2.3429635046720505,6.666723,0.1,122.86752,1619024052999
Fix,GT,37.3833376,-122.0785017,2.387996346235276,4.3712206,0.1,125.28287,1619024053999
Fix,GT,37.3833108,-122.078529,2.394930498063564,3.1388466,0.1,130.9754,1619024054999
Fix,GT,37.3832878,-122.0785586,2.44297436439991,3.5536458,0.1,141.98871,1619024055999
Fix,GT,37.3832631,-122.0786143,2.574930337250233,5.787635,0.1,161.64929,1619024056999
Fix,GT,37.3832565,-122.0787025,2.657966962695122,7.5427732,0.1,187.76703,1619024057999
Fix,GT,37.3832825,-122.0788043,2.728996324956417,9.716649,0.1,205.46342,1619024058999
Fix,GT,37.3833322,-122.0789128,2.693,11.833384,0.1,211.99838,1619024059999
Fix,GT,37.3833928,-122.0790345,2.6310221010446546,13.711417,0.1,211.58704,1619024060999
Fix,GT,37.3834617,-122.0791755,2.5600295019149777,15.681962,0.1,210.89558,1619024061999
Fix,GT,37.3835386,-122.0793366,2.4650295357704164,17.516731,0.1,210.67337,1619024062999
Fix,GT,37.383623,-122.0795129,2.390022177577019,18.896551,0.1,210.9532,1619024063999
Fix,GT,37.3837146,-122.0797025,2.2690444066524504,20.286985,0.1,211.1615,1619024064999
Fix,GT,37.3838133,-122.0799044,2.1930555717945097,21.583658,0.1,211.58482,1619024065999
Fix,GT,37.3839176,-122.0801137,2.089,21.930714,0.1,212.04094,1619024066999
Fix,GT,37.3840232,-122.0803229,2.007037133097649,21.790308,0.1,212.35054,1619024067999
Fix,GT,37.3841286,-122.080529,1.9019962824583048,21.563303,0.1,212.62265,1619024068999
Fix,GT,37.3842318,-122.0807326,1.793026052415371,21.186333,0.1,211.77785,1619024069999
Fix,GT,37.3843298,-122.0809301,1.6550707941055298,19.857618,0.1,211.75328,1619024070999
Fix,GT,37.3844209,-122.0811135,1.5910298418998718,18.360329,0.1,211.83344,1619024071999
Fix,GT,37.3845058,-122.0812825,1.5409925308227537,17.073298,0.1,212.29425,1619024072999
Fix,GT,37.3845851,-122.0814401,1.48197382825613,16.053947,0.1,211.5491,1619024073999
Fix,GT,37.384657,-122.0815878,1.3880524027347565,14.605129,0.1,211.12196,1619024074999
Fix,GT,37.384722,-122.0817219,1.290029978275299,13.146175,0.1,210.96077,1619024075999
Fix,GT,37.3847787,-122.0818393,1.282022509098053,11.075227,0.1,211.1311,1619024076999
Fix,GT,37.3848263,-122.0819365,1.266015023469925,9.089089,0.1,211.45699,1619024077999
Fix,GT,37.3848651,-122.0820155,1.257,7.3737454,0.1,211.52922,1619024078999
Fix,GT,37.3848965,-122.0820789,1.2629924713373182,5.83414,0.1,211.62987,1619024079999
Fix,GT,37.3849195,-122.0821255,1.2490037685632709,4.0217886,0.1,211.57169,1619024080999
Fix,GT,37.3849363,-122.0821598,1.2440075455904007,3.2241764,0.1,211.38339,1619024081999
Fix,GT,37.3849501,-122.0821878,1.2359962228536605,2.5605705,0.1,211.22221,1619024082999
Fix,GT,37.3849595,-122.0822071,1.239,1.4430937,0.1,211.13121,1619024083999
Fix,GT,37.3849639,-122.0822162,1.244996214389801,0.41477352,0.1,211.08951,1619024084999
Fix,GT,37.3849643,-122.0822171,1.241,0.019191347,0.1,211.08324,1619024085999
Fix,GT,37.3849644,-122.0822172,1.242,0.008035463,0.1,211.08365,1619024086999
Fix,GT,37.3849644,-122.0822172,1.242,0.0020008967,0.1,211.08055,1619024087999
Fix,GT,37.3849644,-122.0822172,1.242,0.0029961977,0.1,211.0796,1619024088999
Fix,GT,37.3849644,-122.0822172,1.242,3.8068297e-06,0.1,211.07875,1619024089999
Fix,GT,37.3849644,-122.0822172,1.242,0.0010015786,0.1,211.07812,1619024090999
Fix,GT,37.3849644,-122.0822172,1.243,0.0010015804,0.1,211.07672,1619024091999
Fix,GT,37.384965,-122.0822184,1.24,0.37992507,0.1,211.0649,1619024092999
Fix,GT,37.3849682,-122.0822248,1.243,0.9812398,0.1,211.03328,1619024093999
Fix,GT,37.384974,-122.0822368,1.247003828108311,1.5296612,0.1,210.97858,1619024094999
Fix,GT,37.3849837,-122.082257,1.245,2.7955606,0.1,210.91042,1619024095999
Fix,GT,37.3850003,-122.0822915,1.2389961633682252,4.3879213,0.1,210.8588,1619024096999
Fix,GT,37.3850246,-122.0823422,1.226,6.093804,0.1,210.87292,1619024097999
Fix,GT,37.3850563,-122.0824073,1.2090230705738068,7.309491,0.1,211.15485,1619024098999
Fix,GT,37.3850932,-122.0824822,1.1959884518384931,8.128627,0.1,212.05621,1619024099999
Fix,GT,37.3851337,-122.0825621,1.1759961463809012,8.5010395,0.1,212.26228,1619024100999
Fix,GT,37.3851745,-122.0826424,1.1390192892551425,8.492122,0.1,212.02438,1619024101999
Fix,GT,37.3852172,-122.0827274,1.1300193104147909,9.413514,0.1,212.12439,1619024102999
Fix,GT,37.3852649,-122.0828224,1.097023197889328,10.480559,0.1,211.8271,1619024103999
Fix,GT,37.3853167,-122.0829268,1.071011611640453,11.325164,0.1,211.41002,1619024104999
Fix,GT,37.3853717,-122.0830395,1.0369845004081724,12.064317,0.1,211.31325,1619024105999
Fix,GT,37.3854299,-122.0831579,1.015019395649433,12.4763155,0.1,211.5044,1619024106999
Fix,GT,37.3854898,-122.083279,0.9570155334472656,12.783261,0.1,211.76389,1619024107999
Fix,GT,37.3855516,-122.0834029,0.9030155503749848,12.974716,0.1,211.93448,1619024108999
Fix,GT,37.3856142,-122.083528,0.8470116754770279,13.3039255,0.1,211.67685,1619024109999
Fix,GT,37.3856785,-122.0836576,0.823,13.678425,0.1,211.55215,1619024110999
Fix,GT,37.3857435,-122.0837891,0.815,13.582866,0.1,211.72955,1619024111999
Fix,GT,37.3858079,-122.0839189,0.8349843814373016,13.534808,0.1,211.64194,1619024112999
Fix,GT,37.3858721,-122.0840489,0.8400039088726043,13.673739,0.1,211.37262,1619024113999
Fix,GT,37.3859371,-122.0841815,0.8149765213727951,13.932829,0.1,211.13832,1619024114999
Fix,GT,37.386003,-122.084317,0.8349725786447525,14.172935,0.1,211.30948,1619024115999
Fix,GT,37.38607,-122.0844527,0.8720313730239868,14.008396,0.1,211.63797,1619024116999
Fix,GT,37.386136,-122.084586,0.8619921482801437,13.746673,0.1,211.67143,1619024117999
Fix,GT,37.386199,-122.0847139,0.8759842796325683,12.502927,0.1,211.28247,1619024118999
Fix,GT,37.386254,-122.0848269,0.903,10.910433,0.1,211.27263,1619024119999
Fix,GT,37.3863026,-122.0849257,0.8830354470014572,9.882062,0.1,211.61174,1619024120999
Fix,GT,37.3863489,-122.0850191,0.8999921141862869,9.502484,0.1,211.72859,1619024121999
Fix,GT,37.3863926,-122.0851068,0.8929921057224274,8.622413,0.1,211.70616,1619024122999
Fix,GT,37.3864317,-122.0851853,0.901996048629284,7.8216524,0.1,211.77159,1619024123999
Fix,GT,37.3864681,-122.0852584,0.904,7.541924,0.1,211.5981,1619024124999
Fix,GT,37.3865036,-122.0853307,0.8970079196691513,7.694168,0.1,211.30908,1619024125999
Fix,GT,37.3865423,-122.0854101,0.898,8.721278,0.1,211.1702,1619024126999
Fix,GT,37.386584,-122.0854954,0.913992063164711,8.8221,0.1,211.47226,1619024127999
Fix,GT,37.3866253,-122.0855795,0.9220039726495742,8.671432,0.1,211.47691,1619024128999
Fix,GT,37.3866667,-122.0856635,0.9000238612890243,8.989685,0.1,211.63919,1619024129999
Fix,GT,37.3867122,-122.0857554,0.8989960188865662,10.1736765,0.1,211.56927,1619024130999
Fix,GT,37.3867624,-122.0858571,0.879,10.773483,0.1,211.78136,1619024131999
Fix,GT,37.3868142,-122.0859599,0.8620119687318802,10.670606,0.1,212.26212,1619024132999
Fix,GT,37.3868653,-122.0860604,0.840992012143135,10.48423,0.1,212.11864,1619024133999
Fix,GT,37.3869142,-122.0861575,0.856,9.806622,0.1,211.92259,1619024134999
Fix,GT,37.3869594,-122.0862476,0.8370160095691681,9.127855,0.1,211.85225,1619024135999
Fix,GT,37.3870023,-122.0863336,0.81,8.849746,0.1,211.91693,1619024136999
Fix,GT,37.3870439,-122.0864166,0.788,8.532437,0.1,211.92989,1619024137999
Fix,GT,37.387084,-122.086497,0.788991969704628,8.293376,0.1,211.64333,1619024138999
Fix,GT,37.3871225,-122.0865753,0.7860040193796158,8.061377,0.1,211.37372,1619024139999
Fix,GT,37.3871599,-122.0866519,0.7870040236115455,7.8274,0.1,211.2904,1619024140999
Fix,GT,37.3871953,-122.0867241,0.7790120835304261,7.0107155,0.1,211.53717,1619024141999
Fix,GT,37.3872258,-122.0867858,0.7580120962262153,5.812989,0.1,211.54874,1619024142999
Fix,GT,37.3872507,-122.0868357,0.7370080726146698,4.849802,0.1,211.56935,1619024143999
Fix,GT,37.3872736,-122.0868814,0.7190080810785294,4.7022934,0.1,211.40527,1619024144999
Fix,GT,37.387295,-122.0869256,0.702,4.5419226,0.1,210.95808,1619024145999
Fix,GT,37.3873156,-122.0869684,0.6990040491223335,4.0921693,0.1,210.96771,1619024146999
Fix,GT,37.3873325,-122.0870036,0.6920040533542633,3.3339396,0.1,211.08165,1619024147999
Fix,GT,37.3873472,-122.087034,0.685,2.940977,0.1,211.29858,1619024148999
Fix,GT,37.3873596,-122.0870591,0.678,2.233018,0.1,211.40103,1619024149999
Fix,GT,37.387367,-122.0870743,0.676,0.8192008,0.1,211.43922,1619024150999
Fix,GT,37.3873683,-122.0870768,0.6700081406831742,0.016264949,0.1,211.44347,1619024151999
Fix,GT,37.3873683,-122.0870768,0.67,0.002235106,0.1,211.4469,1619024152999
Fix,GT,37.3873683,-122.0870768,0.67,0.0029959213,0.1,211.44463,1619024153999
Fix,GT,37.3873683,-122.0870768,0.67,0.0014125224,0.1,211.44447,1619024154999
Fix,GT,37.3873683,-122.0870768,0.67,0.0014166079,0.1,211.44391,1619024155999
Fix,GT,37.3873683,-122.0870768,0.67,0.001,0.1,211.44324,1619024156999
Fix,GT,37.3873683,-122.0870768,0.67,0.001,0.1,211.44266,1619024157999
Fix,GT,37.3873683,-122.0870768,0.67,0.0009958999,0.1,211.44196,1619024158999
Fix,GT,37.3873683,-122.0870768,0.67,0.001,0.1,211.44125,1619024159999
Fix,GT,37.3873683,-122.0870768,0.67,0.0009958914,0.1,211.44077,1619024160999
Fix,GT,37.3873683,-122.0870768,0.669,0.0,0.1,211.44022,1619024161999
Fix,GT,37.3873683,-122.0870768,0.669,0.001,0.1,211.43953,1619024162999
Fix,GT,37.3873683,-122.0870768,0.669,0.0010017072,0.1,211.43866,1619024163999
Fix,GT,37.3873683,-122.0870768,0.669,0.001,0.1,211.43788,1619024164999
Fix,GT,37.3873683,-122.0870768,0.669,0.001,0.1,211.43698,1619024165999
Fix,GT,37.3873683,-122.0870768,0.669,0.001,0.1,211.43608,1619024166999
Fix,GT,37.3873683,-122.0870768,0.669,0.002232667,0.1,211.43506,1619024167999
Fix,GT,37.3873683,-122.0870768,0.669,0.0028284271,0.1,211.43425,1619024168999
Fix,GT,37.3873683,-122.0870768,0.669,0.00223266,0.1,211.43332,1619024169999
Fix,GT,37.3873683,-122.0870768,0.669,0.002,0.1,211.43248,1619024170999
Fix,GT,37.3873683,-122.0870768,0.669,4.1552785e-06,0.1,211.43156,1619024171999
Fix,GT,37.3873683,-122.0870768,0.669,0.0014124906,0.1,211.43059,1619024172999
Fix,GT,37.3873683,-122.0870768,0.669,0.002000983,0.1,211.42934,1619024173999
Fix,GT,37.3873683,-122.0870768,0.669,0.002238537,0.1,211.42805,1619024174999
Fix,GT,37.3873683,-122.0870768,0.669,0.0028284271,0.1,211.42705,1619024175999
Fix,GT,37.3873683,-122.0870768,0.669,0.002236068,0.1,211.42616,1619024176999
Fix,GT,37.3873683,-122.0870768,0.669,0.0014176496,0.1,211.42471,1619024177999
Fix,GT,37.3873683,-122.0870768,0.669,0.0019975486,0.1,211.42369,1619024178999
Fix,GT,37.3873683,-122.0870768,0.669,4.189253e-06,0.1,211.42259,1619024179999
Fix,GT,37.3873683,-122.0870768,0.669,0.001,0.1,211.42111,1619024180999
Fix,GT,37.3873683,-122.0870768,0.669,0.0009958022,0.1,211.4197,1619024181999
Fix,GT,37.3873683,-122.0870768,0.669,0.0010017406,0.1,211.41821,1619024182999
Fix,GT,37.3873683,-122.0870768,0.669,0.0014124713,0.1,211.41672,1619024183999
Fix,GT,37.3873683,-122.0870768,0.668,0.001,0.1,211.41531,1619024184999
Fix,GT,37.3873683,-122.0870768,0.6689957852959634,0.001,0.1,211.41386,1619024185999
Fix,GT,37.3873683,-122.0870768,0.669,0.001,0.1,211.41223,1619024186999
Fix,GT,37.3873683,-122.0870768,0.669,0.002230848,0.1,211.41034,1619024187999
Fix,GT,37.3873683,-122.0870768,0.6690042275190353,0.03486246,0.1,211.41104,1619024188999
Fix,GT,37.3873701,-122.0870805,0.668,0.7377223,0.1,211.42812,1619024189999
Fix,GT,37.3873751,-122.0870907,0.671,1.3513372,0.1,211.5081,1619024190999
Fix,GT,37.3873834,-122.0871074,0.676,2.1294568,0.1,211.61972,1619024191999
Fix,GT,37.3873956,-122.0871321,0.6710084890127183,3.149238,0.1,211.76608,1619024192999
Fix,GT,37.3874142,-122.0871693,0.6660042487978935,4.5727735,0.1,211.7561,1619024193999
Fix,GT,37.3874395,-122.0872198,0.6670042530298232,5.966301,0.1,211.58037,1619024194999
Fix,GT,37.3874704,-122.0872823,0.658995742738247,6.9067464,0.1,211.41167,1619024195999
Fix,GT,37.387503,-122.0873486,0.6550042614936828,6.8408194,0.1,211.38818,1619024196999
Fix,GT,37.3875346,-122.0874127,0.6400085315704346,6.4252806,0.1,211.15028,1619024197999
Fix,GT,37.3875642,-122.0874731,0.6130128100514411,6.1362658,0.1,211.63387,1619024198999
Fix,GT,37.3875931,-122.0875313,0.5990085484981538,6.0722103,0.1,211.88489,1619024199999
Fix,GT,37.3876255,-122.0875959,0.5709914430379868,7.6833715,0.1,211.66104,1619024200999
Fix,GT,37.3876648,-122.087675,0.5500256962776184,8.775504,0.1,211.36818,1619024201999
Fix,GT,37.3877088,-122.0877644,0.515,9.80739,0.1,211.42613,1619024202999
Fix,GT,37.3877572,-122.0878626,0.4970042912960052,10.474235,0.1,211.73686,1619024203999
Fix,GT,37.3878074,-122.0879626,0.4850171821117401,10.421944,0.1,212.1083,1619024204999
Fix,GT,37.3878582,-122.0880627,0.414042997598648,10.672018,0.1,212.1719,1619024205999
Fix,GT,37.3879104,-122.0881658,0.3720344319343567,10.863471,0.1,211.99998,1619024206999
Fix,GT,37.3879623,-122.0882693,0.3359956917762756,10.9358635,0.1,211.71626,1619024207999
Fix,GT,37.3880149,-122.0883756,0.3289956875443458,11.165317,0.1,211.35606,1619024208999
Fix,GT,37.3880675,-122.0884833,0.3299870497584343,11.267222,0.1,211.08682,1619024209999
Fix,GT,37.3881206,-122.0885931,0.3170345678329467,11.504434,0.1,210.85559,1619024210999
Fix,GT,37.3881756,-122.0887063,0.2709783739447594,11.983683,0.1,211.03574,1619024211999
Fix,GT,37.3882335,-122.0888241,0.2770086588859558,12.468943,0.1,211.40137,1619024212999
Fix,GT,37.3882945,-122.088947,0.2720216686725616,13.112724,0.1,211.74825,1619024213999
Fix,GT,37.3883593,-122.089076,0.2380433802604675,13.842788,0.1,211.88423,1619024214999
Fix,GT,37.3884273,-122.0892117,0.2130043422579765,14.563595,0.1,211.7522,1619024215999
Fix,GT,37.3884976,-122.0893542,0.2089913070201873,15.230599,0.1,210.95337,1619024216999
Fix,GT,37.3885705,-122.0895034,0.2089782463908195,15.73847,0.1,211.3438,1619024217999
Fix,GT,37.3886465,-122.0896577,0.2140130648612976,16.429037,0.1,211.19756,1619024218999
Fix,GT,37.3887253,-122.0898182,0.2029825632572174,16.923336,0.1,211.55014,1619024219999
Fix,GT,37.3888071,-122.0899827,0.1870218170881271,17.418652,0.1,211.71635,1619024220999
Fix,GT,37.3888921,-122.0901523,0.1529868968725204,18.057676,0.1,211.85977,1619024221999
Fix,GT,37.3889798,-122.0903267,0.1240174877643585,18.297127,0.1,211.91039,1619024222999
Fix,GT,37.3890673,-122.0905005,0.1530306332111358,18.056671,0.1,211.94386,1619024223999
Fix,GT,37.3891533,-122.0906718,0.1619693367481231,17.811798,0.1,211.71432,1619024224999
Fix,GT,37.3892375,-122.0908407,0.138,17.494038,0.1,211.50792,1619024225999
Fix,GT,37.3893192,-122.0910062,0.130004388988018,17.014393,0.1,211.18202,1619024226999
Fix,GT,37.3893986,-122.0911685,0.0969912135601043,16.71625,0.1,211.03539,1619024227999
Fix,GT,37.3894765,-122.0913283,0.11,16.486595,0.1,211.14568,1619024228999
Fix,GT,37.389554,-122.0914859,0.0870396151542663,16.324476,0.1,211.50998,1619024229999
Fix,GT,37.3896315,-122.0916423,0.0510264354944229,16.23616,0.1,211.44322,1619024230999
Fix,GT,37.3897082,-122.0917971,-0.0039735391139984,15.995144,0.1,211.50183,1619024231999
Fix,GT,37.3897841,-122.09195,-0.0819249555468559,15.85387,0.1,211.62285,1619024232999
Fix,GT,37.389859,-122.0921008,-0.1149955812692642,15.575978,0.1,211.44208,1619024233999
Fix,GT,37.389932,-122.0922491,-0.2209601933360099,15.395838,0.1,211.30074,1619024234999
Fix,GT,37.3900055,-122.0923984,-0.2969645824432373,15.773985,0.1,211.15556,1619024235999
Fix,GT,37.3900816,-122.0925539,-0.3499822742938995,16.54806,0.1,211.2619,1619024236999
Fix,GT,37.3901618,-122.0927166,-0.4509689503908157,17.241583,0.1,211.67854,1619024237999
Fix,GT,37.3902458,-122.0928838,-0.519013319671154,17.727345,0.1,211.92331,1619024238999
Fix,GT,37.3903309,-122.0930532,-0.5580488860011101,17.755844,0.1,211.76817,1619024239999
Fix,GT,37.3904154,-122.0932213,-0.7498620991706848,17.40097,0.1,212.05151,1619024240999
Fix,GT,37.3905003,-122.0933865,-0.8879198523759841,17.19894,0.1,213.07558,1619024241999
Fix,GT,37.3905871,-122.093547,-1.003053483247757,16.926437,0.1,214.89713,1619024242999
Fix,GT,37.390677,-122.0937005,-1.1129420040249824,16.683977,0.1,216.62828,1619024243999
Fix,GT,37.3907691,-122.0938496,-1.2539866036176683,16.5461,0.1,218.51863,1619024244999
Fix,GT,37.3908646,-122.0939932,-1.3319150758385658,16.37,0.1,220.35977,1619024245999
Fix,GT,37.3909631,-122.0941333,-1.4419597346782684,16.54157,0.1,221.6448,1619024246999
Fix,GT,37.3910644,-122.0942721,-1.5589238713383675,16.70908,0.1,222.64568,1619024247999
Fix,GT,37.391169,-122.0944103,-1.6579596585035323,16.93091,0.1,223.6363,1619024248999
Fix,GT,37.3912772,-122.0945473,-1.783977566897869,17.01598,0.1,225.3131,1619024249999
Fix,GT,37.3913883,-122.0946797,-1.897968564033508,16.891558,0.1,227.2948,1619024250999
Fix,GT,37.3915025,-122.0948059,-2.001968533992767,16.76473,0.1,229.20375,1619024251999
Fix,GT,37.3916184,-122.0949257,-2.1339955006241795,16.45808,0.1,231.0087,1619024252999
Fix,GT,37.3917346,-122.0950396,-2.251887408316135,16.181448,0.1,231.91965,1619024253999
Fix,GT,37.3918494,-122.0951507,-2.3339684447050093,15.954055,0.1,232.01323,1619024254999
Fix,GT,37.3919637,-122.0952601,-2.453959390819073,16.058819,0.1,232.10858,1619024255999
Fix,GT,37.3920795,-122.095371,-2.56693677008152,16.350264,0.1,232.24942,1619024256999
Fix,GT,37.3921978,-122.095484,-2.7109593141078947,16.573296,0.1,232.12039,1619024257999
Fix,GT,37.3923161,-122.095597,-2.809986425340176,16.445282,0.1,232.27744,1619024258999
Fix,GT,37.3924331,-122.0957093,-2.9180226455926896,16.435366,0.1,231.91286,1619024259999
Fix,GT,37.39255,-122.0958228,-2.9969365330934523,16.457985,0.1,231.65001,1619024260999
Fix,GT,37.392667,-122.0959376,-3.1349591617584225,16.544989,0.1,231.19153,1619024261999
Fix,GT,37.3927824,-122.0960543,-3.289922789156437,16.484911,0.1,229.97151,1619024262999
Fix,GT,37.3928948,-122.0961735,-3.4409499928355216,16.312822,0.1,228.61626,1619024263999
Fix,GT,37.3930043,-122.0962938,-3.553945395231247,16.091185,0.1,227.78543,1619024264999
Fix,GT,37.3931092,-122.096415,-3.65992257231474,15.725264,0.1,225.96785,1619024265999
Fix,GT,37.3932085,-122.0965373,-3.7839544119834896,15.363592,0.1,224.23329,1619024266999
Fix,GT,37.3933038,-122.0966608,-3.920917864322663,15.24936,0.1,222.93973,1619024267999
Fix,GT,37.3933972,-122.0967871,-4.0409314892292025,15.316882,0.1,221.85449,1619024268999
Fix,GT,37.3934889,-122.0969161,-4.164945140600205,15.478865,0.1,220.3778,1619024269999
Fix,GT,37.393579,-122.097051,-4.2469496656656265,15.849479,0.1,218.40593,1619024270999
Fix,GT,37.3936677,-122.0971937,-4.262958779275417,16.231237,0.1,216.40889,1619024271999
Fix,GT,37.3937543,-122.097343,-4.272977078437805,16.464169,0.1,214.90088,1619024272999
Fix,GT,37.3938384,-122.0974943,-4.298977057278157,16.100788,0.1,214.04509,1619024273999
Fix,GT,37.3939152,-122.0976357,-4.314954072237015,14.125346,0.1,213.24428,1619024274999
Fix,GT,37.3939824,-122.0977658,-4.321004597127437,13.607045,0.1,211.721,1619024275999
Fix,GT,37.3940461,-122.097895,-4.360967790484428,13.453172,0.1,210.43256,1619024276999
Fix,GT,37.3941062,-122.0980256,-4.423949338495732,13.415353,0.1,208.73312,1619024277999
Fix,GT,37.3941647,-122.0981593,-4.477949291944504,13.671854,0.1,207.96587,1619024278999
Fix,GT,37.3942233,-122.0982965,-4.586967701613903,13.940129,0.1,207.35638,1619024279999
Fix,GT,37.3942817,-122.0984369,-4.648967671573162,14.163403,0.1,207.1641,1619024280999
Fix,GT,37.394343,-122.0985809,-4.712986132264137,14.654676,0.1,208.2723,1619024281999
Fix,GT,37.3944084,-122.098729,-4.742986119568348,15.403845,0.1,208.4284,1619024282999
Fix,GT,37.3944757,-122.0988826,-4.775990737915039,15.471505,0.1,208.40746,1619024283999
Fix,GT,37.3945427,-122.0990344,-4.805962917804718,15.174322,0.1,208.70378,1619024284999
Fix,GT,37.3946081,-122.0991827,-4.835962882995606,14.864275,0.1,208.13112,1619024285999
Fix,GT,37.394671,-122.099329,-4.870023219287396,14.603462,0.1,207.72427,1619024286999
Fix,GT,37.3947332,-122.099474,-4.856079017519951,14.643824,0.1,208.10648,1619024287999
Fix,GT,37.3947962,-122.0996186,-4.8689720860719685,14.4264,0.1,208.16666,1619024288999
Fix,GT,37.3948578,-122.099759,-4.902023282766342,13.88077,0.1,208.36926,1619024289999
Fix,GT,37.3949166,-122.0998941,-4.884967374503612,13.459611,0.1,208.05031,1619024290999
Fix,GT,37.3949742,-122.1000262,-4.898920694708824,13.128215,0.1,208.33319,1619024291999
Fix,GT,37.395032,-122.1001579,-4.904957976222039,13.525972,0.1,208.07121,1619024292999
Fix,GT,37.3950914,-122.1002958,-4.906,14.163828,0.1,207.69958,1619024293999
Fix,GT,37.3951525,-122.1004387,-4.89702338886261,14.544826,0.1,207.75839,1619024294999
Fix,GT,37.3952157,-122.100585,-4.906,14.822048,0.1,208.09477,1619024295999
Fix,GT,37.3952794,-122.1007312,-4.87302811741829,14.605835,0.1,208.30254,1619024296999
Fix,GT,37.3953423,-122.1008739,-4.852014071404934,14.296217,0.1,208.3773,1619024297999
Fix,GT,37.3954042,-122.1010148,-4.841004694700241,14.376049,0.1,208.25374,1619024298999
Fix,GT,37.3954685,-122.1011608,-4.804023495256901,15.175049,0.1,208.43564,1619024299999
Fix,GT,37.3955366,-122.1013141,-4.78503762626648,15.840567,0.1,208.87643,1619024300999
Fix,GT,37.395608,-122.1014716,-4.75,16.157997,0.1,209.50316,1619024301999
Fix,GT,37.3956807,-122.1016285,-4.758962306022644,15.876304,0.1,209.51299,1619024302999
Fix,GT,37.3957507,-122.1017792,-4.760981136083603,14.678979,0.1,210.01155,1619024303999
Fix,GT,37.3958139,-122.1019138,-4.773,13.156692,0.1,210.314,1619024304999
Fix,GT,37.3958724,-122.1020365,-4.816,12.409447,0.1,209.71431,1619024305999
Fix,GT,37.3959297,-122.1021585,-4.8789763563275335,12.812044,0.1,209.45877,1619024306999
Fix,GT,37.3959878,-122.1022885,-4.912018931865692,13.701832,0.1,208.05043,1619024307999
Fix,GT,37.396048,-122.1024287,-4.905042634785175,14.589156,0.1,207.54811,1619024308999
Fix,GT,37.3961118,-122.1025785,-4.946995258569718,15.484762,0.1,207.68134,1619024309999
Fix,GT,37.39618,-122.1027364,-5.001933559060096,16.259336,0.1,207.99023,1619024310999
Fix,GT,37.3962513,-122.1029021,-5.011995250105858,17.044785,0.1,207.64769,1619024311999
Fix,GT,37.3963229,-122.1030746,-5.076957211792469,17.559185,0.1,205.84361,1619024312999
Fix,GT,37.3963921,-122.1032554,-5.0940142754316335,18.068684,0.1,204.76291,1619024313999
Fix,GT,37.3964616,-122.1034419,-5.149966661036015,18.300453,0.1,204.45844,1619024314999
Fix,GT,37.3965306,-122.1036284,-5.221976165294647,18.03483,0.1,204.84816,1619024315999
Fix,GT,37.3966002,-122.1038092,-5.281976144134998,17.446676,0.1,205.8166,1619024316999
Fix,GT,37.3966694,-122.1039841,-5.387966571748256,17.136288,0.1,205.56213,1619024317999
Fix,GT,37.3967333,-122.104154,-5.437004779696465,16.10102,0.1,204.21033,1619024318999
Fix,GT,37.3967911,-122.1043115,-5.471976080358028,14.428818,0.1,204.8584,1619024319999
Fix,GT,37.3968459,-122.1044509,-5.507980847358703,12.991624,0.1,206.87076,1619024320999
Fix,GT,37.396898,-122.1045753,-5.546990415215492,11.797361,0.1,207.622,1619024321999
Fix,GT,37.3969457,-122.1046856,-5.574,10.132149,0.1,208.67667,1619024322999
Fix,GT,37.3969843,-122.1047702,-5.632971194148063,7.0387783,0.1,208.94763,1619024323999
Fix,GT,37.397005,-122.1048218,-5.67598077917099,4.750166,0.1,196.23666,1619024324999
Fix,GT,37.3970072,-122.1048509,-5.72795671504736,3.8993795,0.1,164.55951,1619024325999
Fix,GT,37.3970002,-122.1048664,-5.777971117973327,3.4607656,0.1,124.516174,1619024326999
Fix,GT,37.3969884,-122.10487,-5.887961456775665,3.5255508,0.1,84.32971,1619024327999
Fix,GT,37.3969688,-122.1048587,-5.969004822134972,4.821013,0.1,51.046326,1619024328999
Fix,GT,37.3969416,-122.1048165,-5.999009652853013,7.0320835,0.1,31.848083,1619024329999
Fix,GT,37.3969091,-122.1047393,-5.959024153292178,9.352914,0.1,23.25235,1619024330999
Fix,GT,37.3968788,-122.1046322,-5.8700435140132905,11.297608,0.1,16.681396,1619024331999
Fix,GT,37.3968461,-122.1045006,-5.776082265079021,13.004651,0.1,18.765808,1619024332999
Fix,GT,37.3968012,-122.1043532,-5.674024216771126,14.471079,0.1,23.636719,1619024333999
Fix,GT,37.396741,-122.104196,-5.558053323447704,16.006184,0.1,27.402924,1619024334999
Fix,GT,37.39667,-122.1040294,-5.473048518180847,17.269672,0.1,28.41867,1619024335999
Fix,GT,37.3965924,-122.1038528,-5.3631019795537,18.441727,0.1,28.746826,1619024336999
Fix,GT,37.3965099,-122.103665,-5.229194416046142,19.545418,0.1,28.759155,1619024337999
Fix,GT,37.3964231,-122.1034672,-5.1090291877985,20.452526,0.1,28.943665,1619024338999
Fix,GT,37.3963305,-122.1032619,-5.00207790184021,21.06981,0.1,29.466766,1619024339999
Fix,GT,37.3962371,-122.1030565,-4.917024365484714,20.765158,0.1,29.548065,1619024340999
Fix,GT,37.3961452,-122.1028546,-4.810975613057613,20.303324,0.1,29.009888,1619024341999
Fix,GT,37.3960573,-122.102658,-4.7369267756938935,19.343645,0.1,29.272705,1619024342999
Fix,GT,37.3959753,-122.1024746,-4.67098534244299,17.942379,0.1,28.735077,1619024343999
Fix,GT,37.3958992,-122.1023032,-4.6460586810112,16.875597,0.1,28.818604,1619024344999
