MessageType,Provider,LatitudeDegrees,LongitudeDegrees,AltitudeMeters,SpeedMps,AccuracyMeters,BearingDegrees,UnixTimeMillis
Fix,GT,37.3450563,-121.9096563,-12.716,0.00053327106,0.1,139.96869,1617396187653
Fix,GT,37.3450563,-121.9096563,-12.716,0.001,0.1,139.96854,1617396188665
Fix,GT,37.3450563,-121.9096563,-12.716,0.001,0.1,139.96857,1617396189661
Fix,GT,37.3450563,-121.9096563,-12.716,0.001,0.1,139.96848,1617396190675
Fix,GT,37.3450563,-121.9096563,-12.716,0.0003717499,0.1,139.96857,1617396191662
Fix,GT,37.3450563,-121.9096563,-12.716,0.0028807037,0.1,139.96924,1617396192652
Fix,GT,37.3450563,-121.9096563,-12.716,0.0014406645,0.1,139.96967,1617396193664
Fix,GT,37.3450563,-121.9096563,-12.712683074653148,0.001,0.1,139.96844,1617396194668
Fix,GT,37.3450563,-121.9096563,-12.715173384666445,0.0010718183,0.1,139.96826,1617396195682
Fix,GT,37.3450563,-121.9096563,-12.707301158547402,0.001,0.1,139.96844,1617396196669
Fix,GT,37.3450563,-121.9096563,-12.7014741063118,0.000743726,0.1,139.96848,1617396197652
Fix,GT,37.3450563,-121.9096563,-12.695342613816262,0.001,0.1,139.96857,1617396198665
Fix,GT,37.3450563,-121.9096563,-12.690390854656696,0.001,0.1,139.96857,1617396199660
Fix,GT,37.3450553,-121.9096553,-12.688259601652623,0.39427787,0.1,140.01788,1617396200674
Fix,GT,37.3450506,-121.9096504,-12.685404363811015,1.0484762,0.1,140.13156,1617396201659
Fix,GT,37.3450406,-121.9096401,-12.687903609633445,1.8300962,0.1,140.28333,1617396202654
Fix,GT,37.3450252,-121.9096256,-12.675071099162102,2.3820095,0.1,142.39404,1617396203665
Fix,GT,37.3450046,-121.9096126,-12.669617395341398,2.6993475,0.1,151.40466,1617396204661
Fix,GT,37.3449783,-121.9096085,-12.649420820474624,2.9685516,0.1,169.9682,1617396205676
Fix,GT,37.3449504,-121.9096177,-12.634339452266692,3.3738601,0.1,191.41295,1617396206673
Fix,GT,37.3449225,-121.90964,-12.525081143260005,3.9861531,0.1,211.2995,1617396207658
Fix,GT,37.344893,-121.9096747,-12.480661424875258,4.8236113,0.1,222.6328,1617396208676
Fix,GT,37.3448614,-121.9097179,-12.439765225291254,5.6760483,0.1,227.57693,1617396209661
Fix,GT,37.3448273,-121.9097677,-12.396949306547643,5.75033,0.1,229.36282,1617396210668
Fix,GT,37.3447944,-121.9098165,-12.381297686636447,5.547977,0.1,229.52097,1617396211670
Fix,GT,37.3447625,-121.9098624,-12.347898522675038,5.330926,0.1,228.81116,1617396212662
Fix,GT,37.3447304,-121.9099084,-12.315579530715942,5.462567,0.1,228.8271,1617396213673
Fix,GT,37.3446971,-121.9099559,-12.27165085875988,5.8666306,0.1,228.63057,1617396214667
Fix,GT,37.34466,-121.9100086,-12.222411631941796,6.4667,0.1,228.44511,1617396215679
Fix,GT,37.3446199,-121.9100654,-12.249531204700473,6.9765525,0.1,228.4998,1617396216672
Fix,GT,37.3445796,-121.9101234,-12.198353075504302,6.8381834,0.1,228.85072,1617396217655
Fix,GT,37.3445401,-121.9101807,-12.154335428237916,6.583235,0.1,229.21712,1617396218655
Fix,GT,37.3445017,-121.9102369,-12.130041410326957,6.3783064,0.1,229.21024,1617396219666
Fix,GT,37.3444655,-121.9102895,-12.116371656537057,6.1243973,0.1,229.30774,1617396220652
Fix,GT,37.3444301,-121.9103414,-12.069159861564636,5.899065,0.1,229.16257,1617396221657
Fix,GT,37.3443962,-121.91039,-12.05162044698,5.6734257,0.1,228.68729,1617396222647
Fix,GT,37.3443623,-121.9104377,-12.013028359949589,5.424311,0.1,228.19531,1617396223667
Fix,GT,37.3443307,-121.9104821,-12.006442467033864,5.230578,0.1,228.27104,1617396224655
Fix,GT,37.3442999,-121.9105262,-11.993534782350064,4.9930205,0.1,228.80377,1617396225669
Fix,GT,37.3442721,-121.9105673,-11.97072015440464,4.58534,0.1,229.46327,1617396226663
Fix,GT,37.3442473,-121.9106042,-11.949613397181034,3.9286273,0.1,229.62985,1617396227662
Fix,GT,37.344227,-121.9106333,-11.933029108583929,2.9303617,0.1,228.62318,1617396228666
Fix,GT,37.3442104,-121.910655,-11.920089182138444,2.6202512,0.1,226.43895,1617396229654
Fix,GT,37.3441903,-121.9106737,-11.904852862358092,2.8715484,0.1,217.65265,1617396230678
Fix,GT,37.3441632,-121.9106843,-11.877906947553155,3.4577446,0.1,199.96509,1617396231667
Fix,GT,37.3441287,-121.9106842,-11.813610454499722,4.2066855,0.1,180.68735,1617396232661
Fix,GT,37.3440871,-121.9106681,-11.748514877676962,5.2822447,0.1,161.92383,1617396233674
Fix,GT,37.3440414,-121.9106367,-11.658977980077267,6.4129086,0.1,149.26788,1617396234667
Fix,GT,37.3439914,-121.9105885,-11.655149109125135,7.6977835,0.1,141.57526,1617396235657
Fix,GT,37.3439352,-121.9105286,-11.657,8.814518,0.1,138.93097,1617396236650
Fix,GT,37.3438703,-121.910458,-11.653,10.023698,0.1,139.07104,1617396237662
Fix,GT,37.3437912,-121.9103714,-11.641754986763,11.285555,0.1,138.56708,1617396238756
Fix,GT,37.3437363,-121.9103104,-11.621324368655682,11.50929,0.1,138.15192,1617396239467
Fix,GT,37.3436443,-121.9102086,-11.58429219031334,11.3548565,0.1,138.64221,1617396240657
Fix,GT,37.3435682,-121.9101259,-11.612000346064567,11.166557,0.1,139.15277,1617396241649
Fix,GT,37.3434929,-121.9100456,-11.593316896617411,10.335889,0.1,139.52032,1617396242661
Fix,GT,37.3434272,-121.9099756,-11.586476795375347,8.930831,0.1,139.45529,1617396243652
Fix,GT,37.3433715,-121.9099163,-11.600332016825677,6.980363,0.1,139.42719,1617396244666
Fix,GT,37.3433315,-121.909873,-11.619696811020376,4.775156,0.1,138.81909,1617396245656
Fix,GT,37.3433076,-121.9098465,-11.655032853007317,2.4442441,0.1,138.42267,1617396246651
Fix,GT,37.3432955,-121.9098329,-11.673909823834896,1.2783139,0.1,138.13803,1617396247663
Fix,GT,37.3432888,-121.9098254,-11.685540679514409,0.65309167,0.1,138.13168,1617396248654
Fix,GT,37.343287,-121.9098234,-11.692913936316968,0.018143408,0.1,138.1305,1617396249645
Fix,GT,37.343287,-121.9098234,-11.694,0.000964362,0.1,138.13278,1617396250656
Fix,GT,37.343287,-121.9098235,-11.693,0.0018245408,0.1,138.1294,1617396251650
Fix,GT,37.343287,-121.9098235,-11.69043147534132,0.0014142136,0.1,138.1294,1617396252656
Fix,GT,37.3432863,-121.9098227,-11.6935295920074,0.33460695,0.1,138.1351,1617396253647
Fix,GT,37.3432818,-121.9098176,-11.695651428401469,0.9800535,0.1,138.10614,1617396254665
Fix,GT,37.3432729,-121.9098075,-11.706566870868206,1.8500707,0.1,138.03033,1617396255656
Fix,GT,37.3432574,-121.9097884,-11.7084959602952,3.013822,0.1,135.93561,1617396256650
Fix,GT,37.3432388,-121.9097538,-11.653248891830444,4.2600555,0.1,123.8262,1617396257661
Fix,GT,37.343225,-121.9096942,-11.59642325747013,5.73756,0.1,103.610016,1617396258759
Fix,GT,37.343224,-121.909645,-11.514566517353058,6.627222,0.1,90.69647,1617396259463
Fix,GT,37.3432432,-121.9095466,-11.447760630190372,8.408828,0.1,70.74951,1617396260660
Fix,GT,37.3432815,-121.9094572,-11.4877254627347,9.83695,0.1,58.41992,1617396261652
Fix,GT,37.3433402,-121.9093606,-11.537644634842874,11.429761,0.1,50.228546,1617396262662
Fix,GT,37.3434123,-121.9092588,-11.580681960523128,12.960355,0.1,48.05603,1617396263652
Fix,GT,37.3434963,-121.9091419,-11.677089173913004,14.477276,0.1,47.55957,1617396264668
Fix,GT,37.3435864,-121.9090184,-11.7562296590209,15.190969,0.1,47.641785,1617396265658
Fix,GT,37.3436767,-121.9088918,-11.843587644398212,15.182426,0.1,48.185364,1617396266650
Fix,GT,37.3437692,-121.9087622,-11.933017598152162,15.636549,0.1,48.150208,1617396267650
Fix,GT,37.3438665,-121.908625,-11.993654800653458,16.18752,0.1,48.386932,1617396268673
Fix,GT,37.3439638,-121.9084864,-12.084323355317116,16.731787,0.1,48.64688,1617396269666
Fix,GT,37.3440635,-121.9083442,-12.123420572519302,17.332178,0.1,48.65341,1617396270651
Fix,GT,37.34417,-121.9081921,-12.183814546585085,17.894838,0.1,48.690002,1617396271669
Fix,GT,37.3442767,-121.9080398,-12.16,18.28543,0.1,48.521606,1617396272660
Fix,GT,37.3443875,-121.9078819,-12.054849079191683,18.535519,0.1,48.7713,1617396273671
Fix,GT,37.3444964,-121.9077259,-11.99092295998335,18.744587,0.1,48.626923,1617396274657
Fix,GT,37.3446106,-121.9075622,-12.01455198454857,19.029568,0.1,48.746796,1617396275677
Fix,GT,37.3447227,-121.907401,-12.107996368765832,19.054436,0.1,48.854004,1617396276669
Fix,GT,37.3448334,-121.907241,-12.146231000900269,18.732773,0.1,49.04657,1617396277660
Fix,GT,37.3449438,-121.9070805,-12.083497631192206,18.390392,0.1,49.46103,1617396278672
Fix,GT,37.3450485,-121.9069239,-12.021012142658233,18.024876,0.1,50.081055,1617396279666
Fix,GT,37.3451517,-121.9067675,-11.838213792324066,17.611034,0.1,50.476593,1617396280675
Fix,GT,37.3452507,-121.9066161,-11.650025050878526,17.425903,0.1,50.69464,1617396281665
Fix,GT,37.3453487,-121.9064662,-11.148702200055125,17.229475,0.1,50.54651,1617396282655
Fix,GT,37.3454481,-121.9063153,-10.351577534914016,16.896235,0.1,50.207825,1617396283671
Fix,GT,37.345541,-121.9061771,-9.406052200496196,16.278284,0.1,49.670685,1617396284634
Fix,GT,37.3456354,-121.9060399,-8.482895084679127,15.477924,0.1,48.387604,1617396285644
Fix,GT,37.3457278,-121.9059157,-7.660903059810399,14.612787,0.1,45.741028,1617396286645
Fix,GT,37.3458205,-121.9058014,-6.922229749560357,13.841927,0.1,44.266968,1617396287661
Fix,GT,37.3459066,-121.9056966,-6.332357534110546,13.146183,0.1,43.519714,1617396288648
Fix,GT,37.3459927,-121.9055961,-5.779421983122825,12.479,0.1,43.03598,1617396289667
Fix,GT,37.3460713,-121.9055027,-5.285330137252807,11.828728,0.1,43.557556,1617396290658
Fix,GT,37.3461451,-121.9054115,-4.924190371751785,11.363607,0.1,45.32892,1617396291650
Fix,GT,37.3462142,-121.9053202,-4.569389021396637,10.916038,0.1,47.003326,1617396292651
Fix,GT,37.3462805,-121.905229,-4.261489607334137,10.493452,0.1,47.828735,1617396293673
Fix,GT,37.3463418,-121.9051431,-3.995655839204788,9.956003,0.1,48.16919,1617396294666
Fix,GT,37.3463982,-121.9050636,-3.841965583622456,8.607446,0.1,48.38867,1617396295677
Fix,GT,37.3464439,-121.9049985,-3.7303731852173807,6.8356447,0.1,48.603638,1617396296669
Fix,GT,37.3464787,-121.9049493,-3.6351479803323743,4.754841,0.1,48.479004,1617396297657
Fix,GT,37.3465005,-121.9049181,-3.597061276435852,2.697849,0.1,48.53351,1617396298664
Fix,GT,37.3465124,-121.9049014,-3.583,1.4100771,0.1,48.572998,1617396299660
Fix,GT,37.3465179,-121.9048936,-3.5837632732987403,0.3739032,0.1,48.5766,1617396300676
Fix,GT,37.3465183,-121.9048931,-3.596397436857224,0.0041695377,0.1,48.581207,1617396301669
Fix,GT,37.3465182,-121.9048932,-3.6,0.0031622776,0.1,48.580383,1617396302661
Fix,GT,37.3465182,-121.9048933,-3.603,0.0018711698,0.1,48.580322,1617396303673
Fix,GT,37.3465182,-121.9048933,-3.603,0.0023343547,0.1,48.579895,1617396304665
Fix,GT,37.3465182,-121.9048933,-3.603,0.0025286975,0.1,48.579926,1617396305650
Fix,GT,37.3465182,-121.9048933,-3.6030000000000006,0.0019154561,0.1,48.580322,1617396306660
Fix,GT,37.3465182,-121.9048933,-3.603,0.0017851228,0.1,48.580322,1617396307654
Fix,GT,37.3465182,-121.9048933,-3.6030000000000006,0.0014142136,0.1,48.580353,1617396308667
Fix,GT,37.3465182,-121.9048933,-3.603,0.0014142136,0.1,48.580322,1617396309666
Fix,GT,37.3465182,-121.9048933,-3.603,0.0014142136,0.1,48.580627,1617396310679
Fix,GT,37.3465182,-121.9048933,-3.603,0.0012882652,0.1,48.58075,1617396311669
Fix,GT,37.3465182,-121.9048933,-3.603,0.0014142136,0.1,48.58081,1617396312656
Fix,GT,37.3465182,-121.9048933,-3.603,0.0,0.1,48.58075,1617396313662
Fix,GT,37.3465182,-121.9048933,-3.603,0.0004528701,0.1,48.58069,1617396314654
Fix,GT,37.3465182,-121.9048933,-3.603,0.0,0.1,48.58072,1617396315677
Fix,GT,37.3465182,-121.9048933,-3.603,0.0006986552,0.1,48.58084,1617396316669
Fix,GT,37.3465182,-121.9048933,-3.603,0.001,0.1,48.58087,1617396317655
Fix,GT,37.3465182,-121.9048933,-3.603,0.0013365145,0.1,48.580963,1617396318666
Fix,GT,37.3465181,-121.9048933,-3.603,0.00273924,0.1,48.58087,1617396319665
Fix,GT,37.3465181,-121.9048933,-3.601,0.0015379079,0.1,48.58133,1617396320678
Fix,GT,37.3465181,-121.9048934,-3.6,0.008311493,0.1,48.580444,1617396321665
Fix,GT,37.34652,-121.9048906,-3.6049512076377854,0.84469384,0.1,48.60257,1617396322652
Fix,GT,37.3465288,-121.9048781,-3.5786674456894394,2.1437578,0.1,48.672455,1617396323644
Fix,GT,37.3465471,-121.9048516,-3.538662347018718,3.9762084,0.1,48.779053,1617396324666
Fix,GT,37.3465756,-121.9048105,-3.4979795458316807,5.807357,0.1,48.90027,1617396325660
Fix,GT,37.3466153,-121.9047535,-3.419111244916916,7.60901,0.1,48.823975,1617396326648
Fix,GT,37.3466648,-121.9046857,-3.409588265657425,8.442807,0.1,46.19989,1617396327658
Fix,GT,37.3467256,-121.9046228,-3.3836461097002024,8.774303,0.1,35.73471,1617396328670
Fix,GT,37.3467952,-121.9045802,-3.370131916224957,8.627764,0.1,22.059235,1617396329662
Fix,GT,37.3468715,-121.9045564,-3.5053206043839458,9.013918,0.1,10.692047,1617396330654
Fix,GT,37.346957,-121.9045508,-3.740409748077393,9.747884,0.1,359.69357,1617396331673
Fix,GT,37.3470476,-121.9045636,-4.026383789539337,10.700325,0.1,350.7124,1617396332662
Fix,GT,37.3471452,-121.9045964,-4.296331611156464,11.43024,0.1,341.4829,1617396333673
Fix,GT,37.3472401,-121.9046515,-4.278611994802952,11.965721,0.1,331.5488,1617396334667
Fix,GT,37.347329,-121.9047289,-4.181869348049164,12.441898,0.1,321.08484,1617396335653
Fix,GT,37.3474096,-121.9048316,-4.126935464382171,12.683157,0.1,310.46344,1617396336665
Fix,GT,37.3474775,-121.9049452,-4.347985954403877,12.57674,0.1,305.42413,1617396337661
Fix,GT,37.3475423,-121.9050657,-4.8662001825571055,13.029762,0.1,303.1369,1617396338673
Fix,GT,37.3476077,-121.9051933,-5.752385089874267,14.105663,0.1,302.3178,1617396339667
Fix,GT,37.3476795,-121.9053359,-6.751619553089142,15.428415,0.1,302.32382,1617396340678
Fix,GT,37.3477568,-121.9054872,-7.717862601399421,16.71529,0.1,302.57602,1617396341668
Fix,GT,37.3478404,-121.9056506,-8.675725919485092,17.980883,0.1,302.57767,1617396342661
Fix,GT,37.347932,-121.9058298,-9.423118838191034,19.308834,0.1,302.52536,1617396343671
Fix,GT,37.3480275,-121.9060159,-10.080039434075356,20.477383,0.1,302.74045,1617396344656
Fix,GT,37.3481328,-121.9062195,-10.57935131072998,21.51814,0.1,303.00922,1617396345679
Fix,GT,37.3482402,-121.9064251,-10.83927936065197,22.369268,0.1,303.1553,1617396346671
Fix,GT,37.3483521,-121.9066373,-10.897266543149946,23.090687,0.1,303.46423,1617396347662
Fix,GT,37.348471,-121.9068588,-10.503915014266967,23.611238,0.1,304.16165,1617396348674
Fix,GT,37.3485934,-121.9070754,-10.138940604805946,23.848015,0.1,306.2647,1617396349664
Fix,GT,37.3487241,-121.9072879,-9.785512360692024,24.00203,0.1,308.64035,1617396350658
Fix,GT,37.348865,-121.9074969,-9.39443037879467,24.36739,0.1,311.38922,1617396351660
Fix,GT,37.3490127,-121.9076996,-9.01404011821747,24.497871,0.1,313.0097,1617396352653
Fix,GT,37.3491643,-121.907896,-8.707579073905944,24.098999,0.1,314.85306,1617396353648
Fix,GT,37.3493214,-121.9080861,-8.287286154747008,23.59285,0.1,316.88028,1617396354665
Fix,GT,37.3494776,-121.9082597,-7.848691494822503,23.064327,0.1,319.67438,1617396355659
Fix,GT,37.3496362,-121.9084205,-7.557226177811623,22.610315,0.1,322.0882,1617396356651
Fix,GT,37.3498,-121.9085728,-7.231804258286953,22.132835,0.1,324.31033,1617396357662
Fix,GT,37.3499612,-121.9087113,-6.930813161849976,21.73796,0.1,326.44678,1617396358652
Fix,GT,37.3501291,-121.9088437,-6.603025952577591,21.737194,0.1,328.79373,1617396359667
Fix,GT,37.3502989,-121.9089648,-6.343875035285949,21.972782,0.1,331.3166,1617396360660
Fix,GT,37.3504744,-121.9090779,-6.052428944587708,22.17118,0.1,333.6906,1617396361652
Fix,GT,37.3506577,-121.9091855,-5.724216845333576,22.43856,0.1,335.5971,1617396362660
Fix,GT,37.3508427,-121.9092876,-5.426008482933044,22.694717,0.1,336.58167,1617396363654
Fix,GT,37.351035,-121.9093884,-5.01632292842865,22.946362,0.1,337.4992,1617396364668
Fix,GT,37.3512257,-121.9094863,-4.590398419678212,23.10099,0.1,337.77737,1617396365661
Fix,GT,37.3514171,-121.9095842,-4.134867441236973,23.266144,0.1,337.6566,1617396366651
Fix,GT,37.3516138,-121.9096857,-3.690104195594788,23.448067,0.1,337.46274,1617396367662
Fix,GT,37.3518093,-121.9097877,-3.286503815770149,23.54515,0.1,337.26956,1617396368662
Fix,GT,37.352006,-121.9098917,-3.0020951185822486,23.67412,0.1,337.02148,1617396369666
Fix,GT,37.3521997,-121.9099947,-2.8178976290225983,23.881044,0.1,336.86523,1617396370648
Fix,GT,37.3524009,-121.9101037,-2.667589030623436,24.259924,0.1,336.27246,1617396371660
Fix,GT,37.3526008,-121.9102153,-2.5764028123617173,24.769455,0.1,335.673,1617396372650
Fix,GT,37.3528105,-121.9103352,-2.488447007060051,25.10114,0.1,335.23413,1617396373675
Fix,GT,37.3530137,-121.9104539,-2.491944190502167,25.355045,0.1,334.80286,1617396374661
Fix,GT,37.3532191,-121.910576,-2.50198069691658,25.66541,0.1,334.39658,1617396375650
Fix,GT,37.3534311,-121.9107044,-2.570192088186741,25.988537,0.1,334.01587,1617396376663
Fix,GT,37.3536383,-121.9108318,-2.6651342630386354,26.335285,0.1,333.53192,1617396377642
Fix,GT,37.3538543,-121.9109684,-2.815419026374817,26.707142,0.1,332.89575,1617396378655
Fix,GT,37.3540679,-121.9111069,-3.096005066514015,26.9874,0.1,332.3638,1617396379648
Fix,GT,37.3542832,-121.911249,-3.2825355983376503,27.142927,0.1,332.06384,1617396380646
Fix,GT,37.3545007,-121.9113948,-3.614757291793823,27.199314,0.1,331.4571,1617396381652
Fix,GT,37.3547163,-121.9115439,-3.8363119186162944,26.941128,0.1,330.6487,1617396382661
Fix,GT,37.3549237,-121.9116916,-4.33694678246975,26.735796,0.1,330.20682,1617396383648
Fix,GT,37.3551309,-121.9118409,-4.796761627733708,26.750183,0.1,329.93018,1617396384642
Fix,GT,37.3553406,-121.9119949,-5.37399544852972,26.915356,0.1,329.36972,1617396385647
Fix,GT,37.3555511,-121.9121501,-6.05934098815918,27.101734,0.1,329.53873,1617396386651
Fix,GT,37.3557649,-121.9123073,-6.907545087814331,27.337132,0.1,329.22134,1617396387661
Fix,GT,37.3559761,-121.9124647,-7.600891600310803,27.545197,0.1,329.20578,1617396388656
Fix,GT,37.3561876,-121.9126208,-8.361059282779692,27.635853,0.1,329.4403,1617396389642
Fix,GT,37.356405,-121.9127809,-9.060195789933204,27.529833,0.1,329.415,1617396390657
Fix,GT,37.3566146,-121.9129361,-9.809783575773238,27.413464,0.1,329.24252,1617396391640
Fix,GT,37.356829,-121.9130953,-10.594872088193895,27.297813,0.1,329.2949,1617396392651
Fix,GT,37.3570388,-121.9132514,-11.296815729111431,27.170462,0.1,329.1422,1617396393646
Fix,GT,37.3572488,-121.9134086,-11.935629756957294,27.029789,0.1,329.0547,1617396394647
Fix,GT,37.3574591,-121.9135664,-12.532636266708373,26.871967,0.1,328.9315,1617396395657
Fix,GT,37.3576643,-121.9137206,-13.03727767008543,26.673618,0.1,328.93582,1617396396649
Fix,GT,37.357872,-121.9138763,-13.438694356918337,26.467388,0.1,329.09866,1617396397660
Fix,GT,37.3580751,-121.9140277,-13.75922948873043,26.237255,0.1,329.2837,1617396398655
Fix,GT,37.3582757,-121.9141765,-14.010905046701431,25.98323,0.1,329.27875,1617396399646
Fix,GT,37.3584772,-121.9143258,-14.170749311327937,25.711105,0.1,329.2959,1617396400651
Fix,GT,37.358675,-121.9144728,-14.303130355387928,25.729055,0.1,329.11874,1617396401644
Fix,GT,37.3588771,-121.9146238,-14.356930292785169,25.81769,0.1,329.11652,1617396402658
Fix,GT,37.3590767,-121.9147724,-14.42018194103241,25.929829,0.1,329.22992,1617396403654
Fix,GT,37.3592801,-121.9149242,-14.525448454856877,26.070599,0.1,329.1469,1617396404665
Fix,GT,37.3594816,-121.915074,-14.6161933426857,26.201359,0.1,329.23804,1617396405659
Fix,GT,37.3596836,-121.9152245,-14.658633213996886,26.451618,0.1,329.16656,1617396406651
Fix,GT,37.3598921,-121.91538,-14.748930529415606,26.923443,0.1,329.10236,1617396407661
Fix,GT,37.3601006,-121.9155351,-14.831779817819594,27.227257,0.1,329.33258,1617396408653
Fix,GT,37.3603155,-121.915694,-14.952843779087068,27.384182,0.1,329.33823,1617396409668
Fix,GT,37.3605266,-121.9158499,-15.019501329362392,27.507229,0.1,329.41928,1617396410659
Fix,GT,37.3607375,-121.9160056,-15.112971596360207,27.59084,0.1,329.39316,1617396411645
Fix,GT,37.3609536,-121.9161659,-15.13122280406952,27.574562,0.1,329.20667,1617396412655
Fix,GT,37.3611669,-121.9163249,-15.077669300079346,27.479809,0.1,329.13055,1617396413655
Fix,GT,37.3613769,-121.9164816,-14.934998428881167,27.237015,0.1,329.201,1617396414647
Fix,GT,37.3615882,-121.9166389,-14.668238547623158,26.944023,0.1,329.09842,1617396415653
Fix,GT,37.3617928,-121.9167916,-14.351078071832656,26.67766,0.1,329.18896,1617396416639
Fix,GT,37.3620034,-121.9169476,-13.892331686019896,26.413612,0.1,329.2632,1617396417662
Fix,GT,37.3622044,-121.9170976,-13.347147052824498,26.224728,0.1,329.01935,1617396418649
Fix,GT,37.3624102,-121.9172516,-12.698872380971908,26.057743,0.1,329.12164,1617396419667
Fix,GT,37.3626092,-121.9173997,-12.0323932646513,25.975174,0.1,329.12347,1617396420655
Fix,GT,37.3628092,-121.9175485,-11.34696964198351,25.862785,0.1,329.2566,1617396421650
Fix,GT,37.3630114,-121.9176987,-10.671740966796875,25.697903,0.1,329.23978,1617396422662
Fix,GT,37.3632069,-121.9178442,-9.894645984977483,25.437916,0.1,329.16403,1617396423649
Fix,GT,37.3634003,-121.917989,-9.07972001606226,25.200394,0.1,329.08624,1617396424637
Fix,GT,37.3635988,-121.9181377,-8.28228301203251,24.95259,0.1,329.18887,1617396425660
Fix,GT,37.3637894,-121.9182806,-7.783383275866509,24.8224,0.1,328.96338,1617396426651
Fix,GT,37.3639826,-121.9184265,-7.388170276165009,24.713753,0.1,329.0026,1617396427662
Fix,GT,37.3641697,-121.9185677,-7.000537601351738,24.489456,0.1,328.81335,1617396428646
Fix,GT,37.3643562,-121.9187118,-6.795451305449008,24.10226,0.1,327.76538,1617396429646
Fix,GT,37.3645392,-121.9188599,-6.578605927526951,23.909761,0.1,326.405,1617396430656
Fix,GT,37.3647163,-121.9190114,-6.347606152117253,24.014692,0.1,325.03943,1617396431649
Fix,GT,37.3648927,-121.9191704,-6.192415024340153,24.15422,0.1,323.60562,1617396432651
Fix,GT,37.3650649,-121.9193339,-6.174705334365369,24.108461,0.1,322.26245,1617396433643
Fix,GT,37.3652386,-121.9195056,-6.164,23.803356,0.1,321.23843,1617396434668
Fix,GT,37.365403,-121.9196743,-6.249404068291187,23.858852,0.1,320.08044,1617396435659
Fix,GT,37.365564,-121.9198475,-6.357616128087043,24.110275,0.1,318.6444,1617396436641
Fix,GT,37.3657271,-121.920032,-6.506027870774268,24.39713,0.1,317.23428,1617396437647
Fix,GT,37.3658873,-121.9202222,-6.639928460657597,24.721657,0.1,315.91064,1617396438645
Fix,GT,37.3660471,-121.9204206,-6.8001738717556,25.328068,0.1,314.62128,1617396439643
Fix,GT,37.3662109,-121.9206332,-6.955173031806945,26.21637,0.1,313.33652,1617396440657
Fix,GT,37.3663714,-121.9208523,-7.112006361842155,26.661303,0.1,311.8598,1617396441652
Fix,GT,37.3665316,-121.9210826,-7.278470013916492,27.012577,0.1,310.16507,1617396442661
Fix,GT,37.3666843,-121.9213165,-7.451224185287952,27.38051,0.1,308.5471,1617396443646
Fix,GT,37.3668373,-121.921561,-7.695326174825429,27.838936,0.1,307.63208,1617396444643
Fix,GT,37.3669926,-121.921813,-7.953201214581728,28.30941,0.1,307.59576,1617396445647
Fix,GT,37.3671486,-121.9220675,-8.266348368674517,28.699646,0.1,307.32306,1617396446644
Fix,GT,37.3673085,-121.9223293,-8.60733703827858,29.013702,0.1,307.3711,1617396447656
Fix,GT,37.3674676,-121.9225895,-8.885632228016853,29.123112,0.1,307.35388,1617396448654
Fix,GT,37.3676259,-121.922848,-9.239465542167428,28.89889,0.1,307.45633,1617396449648
Fix,GT,37.367785,-121.9231082,-9.593084989249707,28.60712,0.1,307.39166,1617396450658
Fix,GT,37.3679388,-121.9233599,-10.007724531650542,28.346956,0.1,307.3536,1617396451644
Fix,GT,37.3680925,-121.9236111,-10.624262471199035,28.146141,0.1,307.44745,1617396452637
Fix,GT,37.3682483,-121.9238657,-11.25733005464077,28.37291,0.1,307.33975,1617396453644
Fix,GT,37.3684082,-121.9241279,-11.950661336898804,28.76439,0.1,307.4195,1617396454667
Fix,GT,37.3685679,-121.9243887,-12.703980172634123,28.730438,0.1,307.5038,1617396455679
Fix,GT,37.3687247,-121.9246442,-13.502708075284955,28.933105,0.1,307.47266,1617396456670
Fix,GT,37.3688826,-121.9249022,-14.592725847959516,29.171524,0.1,307.2284,1617396457661
Fix,GT,37.3690415,-121.9251604,-15.734619407892229,29.148428,0.1,307.7058,1617396458651
Fix,GT,37.369205,-121.9254184,-16.836440327823162,29.065222,0.1,309.2256,1617396459654
Fix,GT,37.3693771,-121.9256615,-17.588835802197455,28.556072,0.1,314.417,1617396460652
Fix,GT,37.3695685,-121.9258805,-18.46488898676634,28.205389,0.1,320.37842,1617396461668
Fix,GT,37.3697666,-121.9260748,-19.22202224457264,28.048492,0.1,323.09253,1617396462661
Fix,GT,37.3699735,-121.926258,-19.98910923409462,27.877241,0.1,326.16168,1617396463666
Fix,GT,37.3701825,-121.9264231,-20.41914891386032,27.621727,0.1,329.14038,1617396464654
Fix,GT,37.3704027,-121.9265747,-20.543142418563367,27.25462,0.1,333.40646,1617396465671
Fix,GT,37.3706237,-121.9266989,-20.42439659112692,26.821465,0.1,338.07495,1617396466666
Fix,GT,37.3708475,-121.9267993,-20.06998006153107,26.318321,0.1,342.06256,1617396467659
Fix,GT,37.3710732,-121.9268796,-19.46053406524658,24.964357,0.1,346.01962,1617396468669
Fix,GT,37.3712824,-121.9269392,-18.74846003216505,22.662243,0.1,347.92203,1617396469667
Fix,GT,37.3714748,-121.9269865,-18.039461974143983,20.81691,0.1,349.27197,1617396470674
Fix,GT,37.3716546,-121.9270289,-17.399431938946247,20.189342,0.1,349.13245,1617396471665
Fix,GT,37.3718298,-121.9270709,-16.82847228658199,20.014591,0.1,349.05328,1617396472651
Fix,GT,37.372011,-121.9271153,-16.21928385937214,20.106873,0.1,348.73126,1617396473673
Fix,GT,37.3721868,-121.9271599,-15.527449866890906,20.162792,0.1,348.48956,1617396474662
Fix,GT,37.3723681,-121.9272066,-14.867771547138693,20.255219,0.1,348.31827,1617396475678
Fix,GT,37.3725458,-121.9272538,-14.179366464495658,20.479595,0.1,347.71466,1617396476669
Fix,GT,37.3727254,-121.9273055,-13.58910246747732,20.821838,0.1,346.3783,1617396477660
Fix,GT,37.3729102,-121.9273694,-13.012868352174758,21.113625,0.1,343.1711,1617396478673
Fix,GT,37.3730875,-121.9274451,-12.6119273211956,20.877724,0.1,339.48276,1617396479660
Fix,GT,37.3732607,-121.927537,-12.316815565288069,20.647015,0.1,335.07672,1617396480668
Fix,GT,37.3734257,-121.9276459,-11.973457811892033,20.814405,0.1,329.86395,1617396481667
Fix,GT,37.3735826,-121.9277709,-11.929004732787607,20.653633,0.1,325.70172,1617396482659
Fix,GT,37.3737283,-121.9279072,-11.926628968954086,20.331478,0.1,321.69403,1617396483643
Fix,GT,37.373869,-121.9280582,-12.008892669916152,20.033276,0.1,317.4459,1617396484661
Fix,GT,37.3739956,-121.9282166,-12.19832181286812,19.7776,0.1,313.23553,1617396485656
Fix,GT,37.374111,-121.9283833,-12.461129349708555,19.545462,0.1,308.98102,1617396486650
Fix,GT,37.3742168,-121.9285617,-12.806342338085177,19.35445,0.1,304.90533,1617396487662
Fix,GT,37.3743092,-121.9287425,-13.232559316873552,19.240189,0.1,300.83167,1617396488646
Fix,GT,37.3743904,-121.9289326,-13.764446180462835,19.213993,0.1,296.11765,1617396489640
Fix,GT,37.3744611,-121.9291354,-14.440342669844629,19.633533,0.1,291.55112,1617396490652
Fix,GT,37.3745203,-121.9293486,-15.130643393754958,20.296299,0.1,287.38336,1617396491651
Fix,GT,37.3745676,-121.9295734,-16.044702727913858,20.44125,0.1,282.8275,1617396492661
Fix,GT,37.3746037,-121.9297987,-17.04061992537975,20.673458,0.1,280.56183,1617396493654
Fix,GT,37.3746367,-121.9300327,-17.996490419864653,20.855762,0.1,279.76224,1617396494667
Fix,GT,37.3746682,-121.9302636,-18.730672623991968,20.82655,0.1,279.70615,1617396495662
Fix,GT,37.3747,-121.9304913,-19.409506963282823,20.706667,0.1,280.43787,1617396496647
Fix,GT,37.3747359,-121.9307188,-19.96063274240494,20.039177,0.1,281.49323,1617396497653
Fix,GT,37.3747722,-121.9309356,-20.410009153962136,19.428335,0.1,281.93002,1617396498651
Fix,GT,37.3748079,-121.931147,-20.62336138188839,19.197369,0.1,282.0493,1617396499642
Fix,GT,37.3748464,-121.9313613,-20.72498346859217,19.242294,0.1,283.07822,1617396500656
Fix,GT,37.3748875,-121.9315729,-20.767600548028945,19.646603,0.1,283.9223,1617396501649
Fix,GT,37.3749322,-121.9317931,-20.68931293207407,20.050892,0.1,284.39706,1617396502663
Fix,GT,37.3749786,-121.9320118,-20.655716650247573,20.27836,0.1,285.14685,1617396503656
Fix,GT,37.3750267,-121.93223,-20.57546866762638,20.385132,0.1,285.6204,1617396504642
Fix,GT,37.3750781,-121.9324542,-20.45370090341568,20.210426,0.1,286.18518,1617396505658
Fix,GT,37.3751283,-121.9326704,-20.400453628361227,20.023626,0.1,286.24603,1617396506651
Fix,GT,37.3751791,-121.9328909,-20.38228821575641,20.153872,0.1,285.58142,1617396507664
Fix,GT,37.3752257,-121.9331078,-20.43463989651203,20.097649,0.1,284.55667,1617396508651
Fix,GT,37.3752701,-121.933323,-20.436,20.012917,0.1,284.51642,1617396509634
Fix,GT,37.3753166,-121.933548,-20.4846288882494,20.105843,0.1,284.25275,1617396510660
Fix,GT,37.3753612,-121.9337655,-20.513946035236124,20.19794,0.1,284.46564,1617396511647
Fix,GT,37.375407,-121.9339882,-20.52925511133671,20.284508,0.1,284.11487,1617396512654
Fix,GT,37.3754513,-121.9342112,-20.592250427603723,20.335218,0.1,283.93747,1617396513654
Fix,GT,37.3754953,-121.9344355,-20.64453025430441,20.14169,0.1,283.52982,1617396514665
Fix,GT,37.3755367,-121.9346531,-20.70121679806709,19.903273,0.1,282.89288,1617396515655
Fix,GT,37.3755767,-121.93487,-20.78306351298093,19.838964,0.1,283.3913,1617396516647
Fix,GT,37.3756196,-121.9350896,-20.79812460696697,19.618126,0.1,283.67758,1617396517662
Fix,GT,37.3756605,-121.935302,-20.83899960595369,19.36536,0.1,283.2156,1617396518655
Fix,GT,37.3756992,-121.935512,-20.900781342983244,19.568064,0.1,282.57736,1617396519639
Fix,GT,37.3757366,-121.9357351,-20.943235216856003,20.277435,0.1,281.20224,1617396520655
Fix,GT,37.3757717,-121.935965,-20.95647595489025,21.338604,0.1,280.43365,1617396521652
Fix,GT,37.3758072,-121.9362106,-20.99793383139372,22.30417,0.1,280.02032,1617396522664
Fix,GT,37.3758443,-121.9364603,-21.05359111577273,22.865847,0.1,281.32562,1617396523659
Fix,GT,37.3758888,-121.9367179,-21.08170498770476,23.358906,0.1,282.75012,1617396524670
Fix,GT,37.3759369,-121.9369764,-21.120852220177653,24.091227,0.1,283.2629,1617396525661
Fix,GT,37.3759882,-121.9372418,-21.203561795711515,24.812809,0.1,283.7099,1617396526651
Fix,GT,37.3760428,-121.937522,-21.24335201525688,25.588703,0.1,283.57217,1617396527664
Fix,GT,37.376098,-121.9378042,-21.332797933518886,26.346348,0.1,283.8166,1617396528655
Fix,GT,37.3761568,-121.9381014,-21.39127009540796,27.160452,0.1,283.86563,1617396529669
Fix,GT,37.376216,-121.9384002,-21.430806345283983,27.8917,0.1,283.80853,1617396530660
Fix,GT,37.3762768,-121.9387075,-21.497832690477367,28.511694,0.1,283.85822,1617396531653
Fix,GT,37.3763395,-121.9390235,-21.576644568443296,28.931072,0.1,283.89227,1617396532658
Fix,GT,37.3764025,-121.9393411,-21.65793468213081,29.292538,0.1,283.88846,1617396533653
Fix,GT,37.3764672,-121.9396674,-21.74328766584396,29.510487,0.1,283.89133,1617396534666
Fix,GT,37.3765308,-121.939988,-21.81724090921879,29.726673,0.1,283.7605,1617396535654
Fix,GT,37.3765944,-121.9403117,-21.88373759895564,29.940134,0.1,283.76294,1617396536643
Fix,GT,37.3766592,-121.9406437,-21.903602737247944,30.100056,0.1,283.59357,1617396537651
Fix,GT,37.3767232,-121.9409759,-21.930138227164747,30.17221,0.1,283.45068,1617396538655
Fix,GT,37.3767875,-121.9413104,-22.029642565906048,30.259686,0.1,283.4859,1617396539664
Fix,GT,37.3768567,-121.9416715,-22.02852501809597,30.304886,0.1,283.47925,1617396540750
Fix,GT,37.376901,-121.9419035,-22.01577920609713,30.307007,0.1,283.3827,1617396541447
Fix,GT,37.376978,-121.9423076,-21.84157024383545,30.29041,0.1,283.4752,1617396542661
Fix,GT,37.3770423,-121.9426376,-21.78424674761296,30.298376,0.1,283.68854,1617396543655
Fix,GT,37.3771078,-121.9429745,-21.712471846580502,30.282295,0.1,283.49817,1617396544669
Fix,GT,37.3771717,-121.9433043,-21.57421548807621,30.237263,0.1,283.4674,1617396545662
Fix,GT,37.3772344,-121.9436329,-21.38884408056736,30.048012,0.1,283.3678,1617396546653
Fix,GT,37.3772974,-121.9439637,-21.14079390478134,29.658733,0.1,283.30286,1617396547663
Fix,GT,37.3773578,-121.9442826,-20.989691809058183,29.614643,0.1,283.2574,1617396548643
Fix,GT,37.3774199,-121.9446081,-20.978161312073468,29.673111,0.1,283.5286,1617396549643
Fix,GT,37.3774698,-121.9448659,-21.11109964418411,29.686543,0.1,283.5682,1617396550434
Fix,GT,37.3775333,-121.9451919,-21.429699432730672,29.750805,0.1,283.68823,1617396551434
Fix,GT,37.3775973,-121.9455182,-21.900049149096013,29.795023,0.1,283.8657,1617396552434
Fix,GT,37.3776624,-121.9458452,-22.617748857021333,29.90451,0.1,283.88074,1617396553434
Fix,GT,37.3777279,-121.9461736,-23.394248292833566,30.058596,0.1,284.02155,1617396554434
Fix,GT,37.3777947,-121.9465036,-24.2471488032341,30.24429,0.1,284.20038,1617396555434
Fix,GT,37.3778612,-121.946836,-25.103398397654296,30.451607,0.1,283.946,1617396556434
Fix,GT,37.3779274,-121.9471709,-25.72564921015501,30.641235,0.1,283.70865,1617396557434
Fix,GT,37.3779928,-121.9475074,-25.992849854052068,30.701296,0.1,283.54443,1617396558434
Fix,GT,37.3780578,-121.9478441,-25.98869946357608,30.646427,0.1,283.5148,1617396559434
Fix,GT,37.3781231,-121.9481796,-25.634050756275656,30.533829,0.1,283.7868,1617396560434
Fix,GT,37.3781887,-121.9485134,-24.918100245058536,30.350943,0.1,283.82318,1617396561434
Fix,GT,37.3782543,-121.9488448,-24.08210126399993,30.137087,0.1,283.84497,1617396562434
Fix,GT,37.3783197,-121.9491739,-23.275100999474525,29.915848,0.1,283.96625,1617396563434
Fix,GT,37.3783849,-121.9494999,-22.67890062403679,29.560192,0.1,284.0303,1617396564434
Fix,GT,37.3784494,-121.9498207,-22.26344978481531,29.055096,0.1,283.83475,1617396565434
Fix,GT,37.3785117,-121.9501368,-22.05080082258582,28.615477,0.1,283.75873,1617396566434
Fix,GT,37.3785734,-121.9504482,-21.98939994430542,28.229956,0.1,283.95197,1617396567434
Fix,GT,37.3786345,-121.9507553,-22.02240060022473,27.84598,0.1,283.96008,1617396568434
Fix,GT,37.3786953,-121.9510582,-22.04570062872768,27.494495,0.1,284.22934,1617396569434
Fix,GT,37.3787571,-121.951358,-22.06035064318776,27.356838,0.1,284.46777,1617396570434
Fix,GT,37.3788197,-121.9516561,-22.10174992859364,27.299652,0.1,284.85944,1617396571434
Fix,GT,37.3788836,-121.951954,-22.117449240744115,27.360855,0.1,284.99014,1617396572434
Fix,GT,37.3789482,-121.9522529,-22.14669997119904,27.517357,0.1,285.2492,1617396573434
Fix,GT,37.3790166,-121.9525527,-22.179499854803083,27.715485,0.1,286.48566,1617396574434
Fix,GT,37.3790891,-121.9528539,-22.254750590145587,28.077583,0.1,286.8003,1617396575434
Fix,GT,37.3791628,-121.95316,-22.277600722402333,28.651207,0.1,286.62543,1617396576434
Fix,GT,37.3792378,-121.9534735,-22.32144989752769,29.253418,0.1,286.54272,1617396577434
Fix,GT,37.3793142,-121.9537924,-22.36095071062445,29.718391,0.1,286.67206,1617396578434
Fix,GT,37.3793924,-121.9541128,-22.37590075600147,29.57874,0.1,287.2941,1617396579434
Fix,GT,37.3794724,-121.9544297,-22.40709991073609,29.277756,0.1,287.7337,1617396580434
Fix,GT,37.3795537,-121.9547421,-22.41469997024536,28.929668,0.1,288.32178,1617396581434
Fix,GT,37.3796363,-121.9550499,-22.40574925777316,28.62403,0.1,288.7472,1617396582434
Fix,GT,37.3797199,-121.9553553,-22.417049955010416,28.60281,0.1,289.0433,1617396583434
Fix,GT,37.3798051,-121.9556604,-22.44014986610413,28.657375,0.1,289.32373,1617396584434
Fix,GT,37.3798918,-121.9559657,-22.44774925711751,28.74709,0.099,289.70282,1617396585434
Fix,GT,37.3799794,-121.9562716,-22.443550772041085,28.77283,0.1,289.6645,1617396586434
Fix,GT,37.3800668,-121.9565759,-22.450500146389007,28.503448,0.1,289.72357,1617396587434
Fix,GT,37.380153,-121.9568772,-22.42859938973188,28.177065,0.1,289.62567,1617396588434
Fix,GT,37.380238,-121.957175,-22.43735065418482,27.839134,0.1,289.63797,1617396589434
Fix,GT,37.3803221,-121.9574689,-22.439000668734312,27.4799,0.1,289.65552,1617396590434
Fix,GT,37.3804056,-121.957759,-22.45525007140637,27.139318,0.1,289.98224,1617396591434
Fix,GT,37.3804905,-121.9580442,-22.44130002832413,26.780443,0.1,290.9751,1617396592434
Fix,GT,37.3805791,-121.9583234,-22.47674992978573,26.441029,0.1,292.2515,1617396593434
Fix,GT,37.3806712,-121.9585963,-22.50979921761155,26.014051,0.099,293.1413,1617396594434
Fix,GT,37.3807624,-121.9588638,-22.5927006457448,25.5793,0.1,292.98676,1617396595434
Fix,GT,37.3808524,-121.9591278,-22.61534931242466,25.252092,0.1,293.11633,1617396596434
Fix,GT,37.3809419,-121.9593881,-22.73554982441664,24.958818,0.1,293.2401,1617396597434
Fix,GT,37.3810302,-121.9596452,-22.790799893856047,24.629082,0.1,292.92706,1617396598434
Fix,GT,37.3811158,-121.9598999,-22.922549564123152,24.333073,0.1,292.5358,1617396599434
Fix,GT,37.3811981,-121.9601537,-23.050049700319768,24.254879,0.1,291.62146,1617396600434
Fix,GT,37.3812771,-121.960408,-23.174099922180176,24.059402,0.1,290.69336,1617396601434
Fix,GT,37.3813522,-121.9606624,-23.242899383813143,24.045065,0.1,289.80164,1617396602434
Fix,GT,37.3814258,-121.9609194,-23.27500025224685,24.329725,0.1,289.6845,1617396603434
Fix,GT,37.3815006,-121.9611797,-23.284349987566472,24.6556,0.1,289.66626,1617396604434
Fix,GT,37.3815757,-121.9614429,-23.243550085783006,24.78436,0.1,289.6036,1617396605434
Fix,GT,37.3816508,-121.9617046,-23.17855008453131,24.492298,0.1,289.82098,1617396606434
Fix,GT,37.381725,-121.9619641,-23.15495003587008,24.333946,0.1,289.3573,1617396607434
Fix,GT,37.3817974,-121.9622224,-23.072350911021232,24.123428,0.1,289.3919,1617396608434
Fix,GT,37.3818695,-121.9624775,-22.988799455016853,23.780697,0.1,289.56122,1617396609434
Fix,GT,37.3819412,-121.9627279,-22.929049281984568,23.367374,0.1,289.73813,1617396610434
Fix,GT,37.3820131,-121.9629738,-22.899899157375096,23.018154,0.1,290.5102,1617396611434
Fix,GT,37.3820881,-121.963214,-22.88290074965358,22.678688,0.1,291.91895,1617396612434
Fix,GT,37.3821652,-121.9634492,-22.866400177955622,22.323729,0.1,292.39883,1617396613434
Fix,GT,37.3822397,-121.9636795,-22.85509925308824,21.605331,0.099,291.61612,1617396614434
Fix,GT,37.3823087,-121.9638992,-22.865250053823,20.058012,0.1,291.4227,1617396615434
Fix,GT,37.3823716,-121.9640985,-22.904749735355377,17.883924,0.1,291.48212,1617396616434
Fix,GT,37.3824295,-121.9642737,-22.97029981374741,15.817787,0.1,293.62598,1617396617434
Fix,GT,37.3824941,-121.9644222,-23.20739955258369,14.27561,0.1,303.6848,1617396618434
Fix,GT,37.3825807,-121.9645342,-23.470800619721413,13.635361,0.1,321.5037,1617396619434
Fix,GT,37.3826886,-121.9645997,-23.42845012521744,13.168436,0.1,342.67566,1617396620434
Fix,GT,37.3828051,-121.9646104,-23.264000190258024,12.9314785,0.1,4.2190857,1617396621434
Fix,GT,37.3829145,-121.9645665,-22.954150291204453,12.711907,0.1,25.832916,1617396622434
Fix,GT,37.3830029,-121.9644779,-22.554000368595123,12.569094,0.1,46.33197,1617396623434
Fix,GT,37.383062,-121.9643581,-22.05030057501793,12.499846,0.1,65.06183,1617396624434
Fix,GT,37.3830884,-121.9642217,-21.4208004822731,12.4561825,0.1,83.23068,1617396625434
Fix,GT,37.383079,-121.9640824,-20.845101297289133,12.369545,0.1,101.735596,1617396626434
Fix,GT,37.3830359,-121.9639578,-20.220000552892685,11.753245,0.1,120.31891,1617396627434
Fix,GT,37.3829671,-121.9638621,-19.70035054016113,11.173199,0.1,138.73123,1617396628434
Fix,GT,37.3828817,-121.9638023,-19.13045106065273,10.755685,0.1,157.33252,1617396629434
Fix,GT,37.3827862,-121.9637802,-18.63835110151768,10.983821,0.1,175.76343,1617396630434
Fix,GT,37.3826854,-121.9637937,-18.011851167172193,11.5497875,0.1,190.64638,1617396631434
Fix,GT,37.3825592,-121.9638382,-17.324193889677524,12.500267,0.1,198.24136,1617396632652
Fix,GT,37.3824469,-121.9638883,-16.88045683670044,13.679361,0.1,199.90697,1617396633664
Fix,GT,37.3823269,-121.9639447,-16.53476664638519,14.927504,0.1,200.67169,1617396634658
Fix,GT,37.3821978,-121.9640062,-16.329909546107054,16.103077,0.1,200.74545,1617396635648
Fix,GT,37.3820584,-121.9640736,-16.200877884745598,16.534428,0.1,201.31473,1617396636656
Fix,GT,37.3819215,-121.9641416,-16.232976040244104,16.402561,0.1,201.52788,1617396637648
Fix,GT,37.3817824,-121.9642093,-16.375417875528335,16.10828,0.1,200.9231,1617396638664
Fix,GT,37.3816518,-121.9642724,-16.677405948638917,14.938404,0.1,201.26616,1617396639663
Fix,GT,37.3815351,-121.9643364,-17.054554750919344,13.5948,0.1,206.68579,1617396640653
Fix,GT,37.3814365,-121.9644195,-17.72798694598675,12.809776,0.1,219.11246,1617396641658
Fix,GT,37.3813611,-121.9645245,-18.65367890393734,12.819193,0.1,233.21692,1617396642645
Fix,GT,37.3813091,-121.9646533,-19.582983567237854,13.030559,0.1,249.66098,1617396643634
Fix,GT,37.3812942,-121.9647996,-20.23776827386021,12.958157,0.1,271.3683,1617396644644
Fix,GT,37.3813271,-121.9649387,-20.97205462655425,12.909487,0.1,295.91232,1617396645646
Fix,GT,37.3814036,-121.9650493,-21.62104466640949,12.869757,0.1,320.3029,1617396646660
Fix,GT,37.3815071,-121.9651118,-22.38905205118656,12.9615,0.1,341.91068,1617396647654
Fix,GT,37.3816247,-121.9651264,-23.09816177392005,13.034799,0.1,2.4604187,1617396648666
Fix,GT,37.3817348,-121.9650863,-23.515286118507383,12.791027,0.1,24.795135,1617396649658
Fix,GT,37.3818225,-121.9649989,-23.679272391706704,12.483026,0.1,46.796387,1617396650648
Fix,GT,37.3818785,-121.9648769,-23.754370119869712,12.214485,0.1,68.1557,1617396651662
Fix,GT,37.3818943,-121.9647488,-23.479077234447004,10.659946,0.1,88.844055,1617396652654
Fix,GT,37.3818824,-121.9646311,-23.171914395928383,8.610467,0.1,98.625946,1617396653770
Fix,GT,37.3818715,-121.964557,-23.05211388063431,8.2977,0.1,101.233215,1617396654561
Fix,GT,37.3818535,-121.9644747,-22.934692690610884,8.851633,0.1,106.39032,1617396655448
Fix,GT,37.3818236,-121.9643563,-22.87156157493592,9.394105,0.1,107.5372,1617396656660
Fix,GT,37.3817977,-121.9642496,-22.833331877052785,10.637966,0.1,106.37952,1617396657653
Fix,GT,37.3817661,-121.9641103,-22.802582706451417,12.30379,0.1,105.640656,1617396658770
Fix,GT,37.3817418,-121.9639995,-22.79500527846813,13.474423,0.1,104.99432,1617396659559
Fix,GT,37.3817128,-121.9638656,-22.77871137908101,14.406296,0.1,105.70276,1617396660438
Fix,GT,37.3816739,-121.9637031,-22.73671205711365,15.791912,0.1,107.09369,1617396661438
Fix,GT,37.3816283,-121.9635241,-22.77095789155364,17.496147,0.1,107.879364,1617396662438
Fix,GT,37.3815765,-121.9633276,-22.78133140960336,19.150663,0.1,108.41229,1617396663438
Fix,GT,37.3815183,-121.9631142,-22.764431919157506,20.79686,0.1,108.91553,1617396664438
Fix,GT,37.381455,-121.962883,-22.80556807923317,22.482288,0.1,108.81723,1617396665438
Fix,GT,37.3813874,-121.9626345,-22.82719457179308,24.015776,0.1,108.609344,1617396666438
Fix,GT,37.3813149,-121.9623699,-22.85105059862137,25.538113,0.1,109.11713,1617396667438
Fix,GT,37.3812362,-121.9620897,-22.866280807882543,27.012638,0.1,109.55722,1617396668438
Fix,GT,37.3811524,-121.9617973,-22.833992174863816,27.7657,0.1,109.87244,1617396669438
Fix,GT,37.381067,-121.961504,-22.80704277336597,27.551682,0.1,109.82321,1617396670438
Fix,GT,37.3809832,-121.9612126,-22.70166144657135,27.296463,0.1,109.58777,1617396671438
Fix,GT,37.3809024,-121.9609234,-22.53971271944046,26.983395,0.1,108.73474,1617396672438
Fix,GT,37.3808263,-121.960636,-22.42709337198734,26.67471,0.1,107.993835,1617396673438
Fix,GT,37.3807536,-121.9603507,-22.40000717470049,26.372292,0.1,107.428345,1617396674438
Fix,GT,37.380683,-121.9600678,-22.433347077816727,26.116156,0.1,107.17743,1617396675438
Fix,GT,37.380612,-121.9597883,-22.495763322860004,25.864828,0.1,107.615295,1617396676438
Fix,GT,37.3805407,-121.9595118,-22.49533138605953,25.604351,0.1,108.03949,1617396677438
Fix,GT,37.380469,-121.9592385,-22.418568060994147,25.341183,0.1,108.224976,1617396678438
Fix,GT,37.3803971,-121.958967,-22.378431274056435,25.442783,0.1,108.10477,1617396679438
Fix,GT,37.3803248,-121.9586888,-22.34542407560349,26.446737,0.1,107.63876,1617396680438
Fix,GT,37.3802519,-121.9584035,-22.309856018543243,26.46444,0.1,107.65485,1617396681438
Fix,GT,37.3801796,-121.9581205,-22.29338132727146,26.162712,0.1,107.74997,1617396682438
Fix,GT,37.3801068,-121.9578412,-22.260712035298347,25.877192,0.1,108.24036,1617396683438
Fix,GT,37.3800341,-121.9575654,-22.255618009239434,25.604698,0.1,108.072845,1617396684438
Fix,GT,37.3799632,-121.957291,-22.24409336185456,25.57328,0.1,107.39642,1617396685438
Fix,GT,37.3798943,-121.9570152,-22.224474689245223,25.558609,0.1,107.40161,1617396686438
Fix,GT,37.3798245,-121.9567413,-22.201474688768386,25.338902,0.1,107.673676,1617396687438
Fix,GT,37.3797542,-121.9564694,-22.16180473318696,25.364298,0.1,108.18045,1617396688438
Fix,GT,37.3796813,-121.9561975,-22.093093360662458,25.42035,0.1,108.7948,1617396689438
Fix,GT,37.3796066,-121.9559262,-22.04061867213249,25.42532,0.1,109.114624,1617396690438
Fix,GT,37.3795312,-121.9556561,-22.015474688291548,25.232658,0.1,109.3396,1617396691438
Fix,GT,37.3794571,-121.9553881,-21.991237344264984,25.034283,0.1,108.703186,1617396692438
Fix,GT,37.3793852,-121.9551206,-21.997762000113724,24.982895,0.1,108.70502,1617396693438
Fix,GT,37.3793135,-121.9548527,-21.99085601657629,25.09172,0.1,108.23157,1617396694438
Fix,GT,37.3792433,-121.9545822,-21.976381327807903,25.307503,0.1,107.73944,1617396695438
Fix,GT,37.3791746,-121.9543082,-21.94885536268353,25.59117,0.1,107.11914,1617396696438
Fix,GT,37.3791071,-121.9540299,-21.93685536304116,25.956795,0.1,106.63776,1617396697438
Fix,GT,37.37904,-121.9537465,-21.902237344622613,26.39862,0.1,106.240845,1617396698438
Fix,GT,37.378974,-121.9534572,-21.89385536432266,26.8993,0.1,105.720825,1617396699438
Fix,GT,37.3789086,-121.9531626,-21.873236692905422,27.187613,0.1,105.30917,1617396700438
Fix,GT,37.3788612,-121.952945,-21.844229379177094,27.24271,0.1,105.20392,1617396701172
Fix,GT,37.3787659,-121.9525019,-21.81956281501055,27.550777,0.1,104.81363,1617396702656
Fix,GT,37.378701,-121.952196,-21.811781144380568,27.788403,0.1,104.91974,1617396703669
Fix,GT,37.3786372,-121.9518938,-21.80980688637495,27.915379,0.1,104.74368,1617396704661
Fix,GT,37.3785744,-121.9515934,-21.808446310043333,27.66584,0.1,104.50122,1617396705651
Fix,GT,37.3785118,-121.9512885,-21.79634918969869,27.34077,0.1,104.36563,1617396706665
Fix,GT,37.3784514,-121.9509939,-21.78156671822071,26.983269,0.1,104.398346,1617396707656
Fix,GT,37.3783907,-121.9506978,-21.776623663425447,26.62592,0.1,104.254,1617396708667
Fix,GT,37.3783329,-121.9504102,-21.792970080077648,26.346058,0.1,104.02472,1617396709659
Fix,GT,37.3782757,-121.9501256,-21.917704100608823,26.089691,0.1,104.12225,1617396710650
Fix,GT,37.3782178,-121.9498375,-22.17674154436588,25.881449,0.1,103.85263,1617396711663
Fix,GT,37.3781622,-121.9495566,-22.54045636081696,25.72572,0.1,103.84042,1617396712657
Fix,GT,37.3781062,-121.9492728,-23.03793280649185,25.586845,0.1,103.758606,1617396713666
Fix,GT,37.3780516,-121.9489951,-23.646657714784148,25.521769,0.1,103.71466,1617396714657
Fix,GT,37.377997,-121.9487175,-24.34314845108986,25.508127,0.1,103.8089,1617396715650
Fix,GT,37.3779414,-121.9484354,-25.00204277008772,25.472343,0.1,103.74979,1617396716659
Fix,GT,37.3778865,-121.948159,-25.47316993564367,25.38035,0.1,103.98999,1617396717651
Fix,GT,37.3778314,-121.9478842,-25.72463167592883,25.19052,0.1,103.90082,1617396718643
Fix,GT,37.3777762,-121.9476055,-25.794414538383485,24.947884,0.1,103.7973,1617396719658
Fix,GT,37.3777231,-121.9473364,-25.70824452316761,24.642803,0.1,103.88049,1617396720648
Fix,GT,37.3776693,-121.9470646,-25.391429669618606,24.253338,0.1,103.7413,1617396721662
Fix,GT,37.3776178,-121.9468032,-24.906784689188,23.914837,0.1,103.8627,1617396722653
Fix,GT,37.3775662,-121.9465436,-24.285763173937795,23.923592,0.1,103.86319,1617396723645
Fix,GT,37.3775137,-121.946279,-23.62945415472984,24.14269,0.1,103.89261,1617396724650
Fix,GT,37.377461,-121.9460123,-22.95192729949952,24.41098,0.1,103.74014,1617396725653
Fix,GT,37.3774079,-121.94574,-22.31945795971156,24.709602,0.1,103.46167,1617396726664
Fix,GT,37.3773553,-121.9454686,-21.82287230426073,25.055458,0.1,103.699554,1617396727658
Fix,GT,37.3773005,-121.9451886,-21.40852187728882,25.387905,0.1,103.58304,1617396728670
Fix,GT,37.3772467,-121.9449115,-21.124055558621883,25.534302,0.1,103.61246,1617396729661
Fix,GT,37.3771929,-121.9446334,-20.97740818446875,25.72361,0.1,103.449066,1617396730650
Fix,GT,37.377138,-121.9443491,-20.942574071764945,25.574896,0.1,103.59378,1617396731659
Fix,GT,37.3770838,-121.9440725,-21.05563110905885,25.340662,0.1,103.713776,1617396732650
Fix,GT,37.3770305,-121.9437989,-21.28001710116863,25.212124,0.1,103.58743,1617396733637
Fix,GT,37.3769766,-121.9435205,-21.48040247297287,24.87114,0.1,103.36847,1617396734649
Fix,GT,37.3769256,-121.9432519,-21.58567631196976,24.377598,0.1,103.2175,1617396735641
Fix,GT,37.3768755,-121.9429873,-21.61391076168418,24.015285,0.1,103.372406,1617396736638
Fix,GT,37.3768249,-121.9427224,-21.637167766809466,23.74796,0.1,103.32623,1617396737648
Fix,GT,37.3767749,-121.9424597,-21.66482642608881,23.494957,0.1,103.20801,1617396738660
Fix,GT,37.3767269,-121.9422041,-21.69055978870392,23.239407,0.1,103.17285,1617396739655
Fix,GT,37.3766791,-121.9419512,-21.70556941378117,22.963556,0.1,103.29254,1617396740652
Fix,GT,37.3766264,-121.9416744,-21.72213310706616,22.662542,0.1,103.4212,1617396741756
Fix,GT,37.3765936,-121.9415041,-21.7338776459992,22.490765,0.1,103.39874,1617396742443
Fix,GT,37.3765368,-121.9412069,-21.72644235122204,22.177223,0.1,103.41919,1617396743655
Fix,GT,37.3764894,-121.9409621,-21.73532330834865,21.91643,0.1,103.582214,1617396744667
Fix,GT,37.3764425,-121.9407223,-21.737426550507543,21.65231,0.1,103.78247,1617396745671
Fix,GT,37.3763959,-121.9404882,-21.734088906228543,21.410236,0.1,103.93091,1617396746663
Fix,GT,37.3763501,-121.9402569,-21.719454621493817,21.169405,0.1,103.693634,1617396747654
Fix,GT,37.3763045,-121.9400229,-21.68850861549377,20.915506,0.1,103.681854,1617396748668
Fix,GT,37.3762603,-121.9397964,-21.62227201843261,20.657032,0.1,103.65076,1617396749662
Fix,GT,37.3762167,-121.9395733,-21.565813132643697,20.39899,0.1,103.63141,1617396750653
Fix,GT,37.3761732,-121.9393489,-21.513624548137187,20.132576,0.1,103.538055,1617396751662
Fix,GT,37.3761308,-121.9391313,-21.474867604494094,19.708778,0.1,103.81976,1617396752656
Fix,GT,37.376087,-121.9389164,-21.413503901481626,18.970581,0.1,104.648834,1617396753669
Fix,GT,37.3760437,-121.938717,-21.364567433834075,17.980923,0.1,105.533844,1617396754660
Fix,GT,37.3760002,-121.9385262,-21.336,17.493706,0.1,106.02225,1617396755654
Fix,GT,37.3759565,-121.9383355,-21.297048392653465,17.235619,0.1,105.65628,1617396756665
Fix,GT,37.3759116,-121.9381321,-21.286105625092983,16.977518,0.1,105.4563,1617396757758
Fix,GT,37.3758834,-121.9380052,-21.271507098287344,16.814693,0.1,105.426056,1617396758449
Fix,GT,37.3758339,-121.937785,-21.269884788751604,16.63734,0.1,105.618774,1617396759661
Fix,GT,37.3757935,-121.9376062,-21.19888501012325,16.478325,0.1,106.238434,1617396760655
Fix,GT,37.3757485,-121.9374258,-21.187318262696262,16.764294,0.1,107.77234,1617396761666
Fix,GT,37.3757022,-121.9372436,-21.161,17.424276,0.1,107.10101,1617396762657
Fix,GT,37.3756582,-121.9370528,-21.11765036034584,18.214413,0.1,105.53137,1617396763644
Fix,GT,37.3756136,-121.9368475,-21.0497287209034,18.986528,0.1,104.87793,1617396764656
Fix,GT,37.3755703,-121.936642,-20.96392107284069,18.923187,0.1,104.543335,1617396765647
Fix,GT,37.3755272,-121.9364334,-20.85519603466988,18.61828,0.1,104.34314,1617396766663
Fix,GT,37.3754861,-121.9362328,-20.809054333508016,18.334572,0.1,104.2312,1617396767656
Fix,GT,37.3754412,-121.9360114,-20.769679171681403,18.010649,0.1,103.99231,1617396768770
Fix,GT,37.3754142,-121.9358765,-20.72777941220999,17.809387,0.1,103.93793,1617396769458
Fix,GT,37.375368,-121.9356456,-20.671934481620788,17.472828,0.1,103.89905,1617396770653
Fix,GT,37.3753301,-121.9354527,-20.63836015677452,17.36801,0.1,103.6297,1617396771663
Fix,GT,37.3752939,-121.9352639,-20.601871760129928,17.342634,0.1,103.499664,1617396772656
Fix,GT,37.3752563,-121.9350715,-20.543958561241624,17.38502,0.1,103.837524,1617396773668
Fix,GT,37.3752186,-121.9348815,-20.510555097818376,17.62526,0.1,103.93976,1617396774661
Fix,GT,37.3751797,-121.9346882,-20.454961337685585,18.03209,0.1,104.19495,1617396775651
Fix,GT,37.3751383,-121.9344866,-20.437,18.49063,0.1,104.56076,1617396776662
Fix,GT,37.3750951,-121.9342831,-20.432437934875487,19.017147,0.1,104.998474,1617396777657
Fix,GT,37.3750486,-121.9340715,-20.35387044644356,19.375565,0.1,105.58212,1617396778668
Fix,GT,37.3750008,-121.9338611,-20.273765170335768,19.786835,0.1,105.91681,1617396779658
Fix,GT,37.3749514,-121.9336436,-20.24650905311108,20.652597,0.1,105.80362,1617396780650
Fix,GT,37.3748983,-121.9334125,-20.20186593580246,21.259169,0.1,106.17999,1617396781664
Fix,GT,37.3748437,-121.9331831,-20.16074663043022,21.38591,0.1,106.742676,1617396782656
Fix,GT,37.3747874,-121.9329498,-20.09756464123726,21.116884,0.1,106.830505,1617396783671
Fix,GT,37.3747328,-121.9327258,-20.123023247122767,20.851358,0.1,106.9003,1617396784660
Fix,GT,37.3746783,-121.9325038,-20.25153902101517,20.669014,0.1,107.00238,1617396785652
Fix,GT,37.3746223,-121.932278,-20.32935992336273,20.639694,0.1,107.24655,1617396786666
Fix,GT,37.3745673,-121.9320578,-20.37125919866562,20.643267,0.1,107.224,1617396787656
Fix,GT,37.3745131,-121.9318394,-20.40483069053292,20.551386,0.1,107.09363,1617396788638
Fix,GT,37.3744587,-121.9316161,-20.406983342528346,20.311356,0.1,106.737305,1617396789650
Fix,GT,37.3744057,-121.9313979,-20.423,20.056816,0.1,106.96356,1617396790651
Fix,GT,37.3743523,-121.9311799,-20.45277283000946,19.806986,0.1,106.943695,1617396791664
Fix,GT,37.3743005,-121.9309696,-20.490219017028807,19.567204,0.1,107.31036,1617396792655
Fix,GT,37.3742479,-121.9307637,-20.543603558033706,19.35262,0.1,108.41968,1617396793639
Fix,GT,37.3741826,-121.930532,-20.61443463665247,19.541779,0.1,109.82062,1617396794760
Fix,GT,37.3741407,-121.9303884,-20.664994052648545,19.75942,0.1,110.14612,1617396795449
Fix,GT,37.3740643,-121.9301321,-20.75065942144393,20.261742,0.1,110.57782,1617396796660
Fix,GT,37.3739991,-121.9299187,-20.88059011888504,20.539577,0.1,111.00787,1617396797650
Fix,GT,37.3739328,-121.9297057,-21.04470514023304,20.408184,0.1,111.359436,1617396798639
Fix,GT,37.3738641,-121.9294898,-21.1836632694006,20.163376,0.1,111.99112,1617396799653
Fix,GT,37.3737925,-121.9292821,-21.3504347178936,19.952919,0.1,114.30844,1617396800653
Fix,GT,37.3737117,-121.929079,-21.50048668295145,19.72477,0.1,117.973694,1617396801665
Fix,GT,37.3736237,-121.9288897,-21.579783822715285,19.478214,0.1,121.79083,1617396802655
Fix,GT,37.3735273,-121.9287109,-21.62287482851744,19.557478,0.1,125.433105,1617396803637
Fix,GT,37.3734169,-121.9285323,-21.5959882850647,19.941856,0.1,129.35468,1617396804650
Fix,GT,37.3732962,-121.9283616,-21.56641831368208,20.361292,0.1,132.92654,1617396805652
Fix,GT,37.373164,-121.9281945,-21.505462158918384,20.877274,0.1,135.96002,1617396806663
Fix,GT,37.3730235,-121.9280362,-21.440622235774995,21.423573,0.1,139.62082,1617396807654
Fix,GT,37.3728679,-121.9278842,-21.362072856962683,21.958885,0.1,143.82648,1617396808664
Fix,GT,37.3727021,-121.9277471,-21.29132525217533,22.455479,0.1,149.03073,1617396809656
Fix,GT,37.3725229,-121.9276283,-21.247013461709024,22.754772,0.1,154.71783,1617396810650
Fix,GT,37.3723301,-121.9275299,-20.94469364523888,22.99769,0.1,160.26831,1617396811661
Fix,GT,37.3721323,-121.9274525,-20.17338389492035,23.22825,0.1,164.08301,1617396812656
Fix,GT,37.3719269,-121.9273816,-19.79614936631918,23.671188,0.1,164.62622,1617396813665
Fix,GT,37.3717207,-121.9273114,-19.483209237217903,24.162476,0.1,164.7956,1617396814656
Fix,GT,37.3715101,-121.9272398,-19.244277317881583,24.56994,0.1,164.66534,1617396815648
Fix,GT,37.3712934,-121.9271629,-19.0971311801672,24.769787,0.1,163.594,1617396816662
Fix,GT,37.3710805,-121.9270809,-19.023,24.993658,0.1,162.2016,1617396817655
Fix,GT,37.3708678,-121.9269917,-19.152813911110165,25.296566,0.1,160.89459,1617396818646
Fix,GT,37.3706487,-121.926893,-19.393161829948426,25.654346,0.1,159.73785,1617396819660
Fix,GT,37.3704325,-121.9267882,-19.614500343561176,26.20428,0.1,157.62488,1617396820654
Fix,GT,37.3702126,-121.9266655,-19.62184634113312,26.719624,0.1,154.17651,1617396821662
Fix,GT,37.3699999,-121.9265261,-19.22580286443233,27.09385,0.1,151.04077,1617396822652
Fix,GT,37.3697897,-121.9263715,-18.4337510856092,27.3311,0.1,148.07028,1617396823646
Fix,GT,37.3695826,-121.9261958,-17.532370459318162,27.367117,0.1,143.81647,1617396824661
Fix,GT,37.3693906,-121.9260079,-16.78362245678902,27.371763,0.1,140.04984,1617396825649
Fix,GT,37.3692036,-121.9257997,-15.971405979871747,27.435986,0.1,136.81128,1617396826662
Fix,GT,37.3690297,-121.9255824,-15.10586103898287,27.484804,0.1,133.77185,1617396827655
Fix,GT,37.3688616,-121.92535,-14.367806135892868,27.58803,0.1,130.67447,1617396828664
Fix,GT,37.368705,-121.9251114,-13.807724896430967,27.717491,0.1,128.38007,1617396829654
Fix,GT,37.368551,-121.924864,-13.269769340515136,27.872839,0.1,127.70517,1617396830654
Fix,GT,37.3683948,-121.9246123,-12.88814732182026,28.094109,0.1,127.681305,1617396831663
Fix,GT,37.3682409,-121.9243621,-12.32379337489605,28.233805,0.1,127.27875,1617396832656
Fix,GT,37.3680849,-121.9241058,-11.615790380716325,28.217194,0.1,127.19791,1617396833667
Fix,GT,37.3679322,-121.9238548,-10.996475189328192,28.171112,0.1,127.25986,1617396834658
Fix,GT,37.3677795,-121.923604,-10.440893385410307,28.266071,0.1,127.20859,1617396835650
Fix,GT,37.3676224,-121.9233464,-9.884406923294067,28.406076,0.1,127.25339,1617396836663
Fix,GT,37.3674673,-121.9230927,-9.431094432771204,28.632586,0.1,127.576355,1617396837656
Fix,GT,37.3673075,-121.9228343,-9.038388016223909,28.8713,0.1,127.653015,1617396838663
Fix,GT,37.3671491,-121.9225769,-8.808423488259315,29.085636,0.1,127.40393,1617396839657
Fix,GT,37.36699,-121.9223174,-8.599596918821334,29.184013,0.1,127.36658,1617396840652
Fix,GT,37.3668278,-121.9220521,-8.440342449903488,29.311493,0.1,127.33115,1617396841663
Fix,GT,37.3666684,-121.9217911,-8.352707667052744,29.476902,0.1,127.43692,1617396842654
Fix,GT,37.3665019,-121.921524,-8.267347220778465,29.65268,0.1,128.4513,1617396843669
Fix,GT,37.3663335,-121.9212674,-8.094494790554046,29.78424,0.1,130.2486,1617396844659
Fix,GT,37.3661572,-121.9210164,-7.915650939941406,29.88585,0.1,132.39178,1617396845652
Fix,GT,37.3659703,-121.9207666,-7.743547245979309,30.010214,0.1,133.74326,1617396846665
Fix,GT,37.3657814,-121.9205273,-7.551081777870655,30.132046,0.1,135.37787,1617396847656
Fix,GT,37.3655825,-121.9202883,-7.388077246665954,30.266727,0.1,136.89005,1617396848669
Fix,GT,37.3653819,-121.9200609,-7.215415009856224,30.348906,0.1,138.50891,1617396849659
Fix,GT,37.3651759,-121.9198397,-7.06439070802927,30.391495,0.1,140.00757,1617396850651
Fix,GT,37.3649608,-121.9196197,-7.031217707574368,30.496758,0.1,141.44336,1617396851664
Fix,GT,37.3647439,-121.9194108,-7.062006604313851,30.670437,0.1,143.37073,1617396852657
Fix,GT,37.3645156,-121.9192057,-7.234576503634452,30.80286,0.1,145.26947,1617396853670
Fix,GT,37.3642873,-121.9190139,-7.521936751127242,30.847551,0.1,146.9552,1617396854660
Fix,GT,37.3640538,-121.9188297,-7.785466689109802,30.985416,0.1,148.44781,1617396855651
Fix,GT,37.3638105,-121.9186473,-8.256713564872742,31.206503,0.1,149.50018,1617396856663
Fix,GT,37.3635689,-121.9184693,-8.757146305561065,31.44785,0.1,149.31271,1617396857657
Fix,GT,37.3633208,-121.9182863,-9.285227997899057,31.689833,0.1,149.42944,1617396858669
Fix,GT,37.3630766,-121.9181061,-10.006698256015778,31.911488,0.1,149.3852,1617396859658
Fix,GT,37.3628303,-121.917924,-10.81283297097683,32.142822,0.1,149.23666,1617396860649
Fix,GT,37.3625781,-121.9177364,-11.678346699714664,32.361156,0.1,149.04254,1617396861658
Fix,GT,37.3623275,-121.9175494,-12.461300093889236,32.576454,0.1,149.08807,1617396862655
Fix,GT,37.3620719,-121.9173584,-13.297008748173711,32.803345,0.1,149.03055,1617396863666
Fix,GT,37.3618189,-121.9171695,-13.998958089351657,32.932983,0.1,149.13226,1617396864659
Fix,GT,37.3615661,-121.9169813,-14.543978280067442,32.98709,0.1,149.20187,1617396865649
Fix,GT,37.3613085,-121.9167897,-14.915407878398897,32.808746,0.1,149.25348,1617396866660
Fix,GT,37.3610571,-121.9166032,-15.119063144505024,32.476936,0.1,149.1464,1617396867652
Fix,GT,37.3608058,-121.9164155,-15.19458462458849,32.096893,0.1,149.08148,1617396868658
Fix,GT,37.3605612,-121.9162325,-15.187199564933776,31.822182,0.1,148.96301,1617396869648
Fix,GT,37.3603151,-121.9160488,-15.079604247689248,31.53461,0.1,149.15298,1617396870651
Fix,GT,37.36007,-121.9158658,-14.957379695177078,31.265953,0.1,149.12238,1617396871660
Fix,GT,37.3598305,-121.9156872,-14.881217531502246,30.972805,0.1,149.18152,1617396872654
