MessageType,Provider,LatitudeDegrees,LongitudeDegrees,AltitudeMeters,SpeedMps,AccuracyMeters,BearingDegrees,UnixTimeMillis
Fix,GT,37.3958132,-122.102975,-5.9139999283980575,0.0010012863,0.1,208.82106,1625176223000
Fix,GT,37.3958132,-122.102975,-5.914000013769605,0.001,0.1,208.82109,1625176224000
Fix,GT,37.3958132,-122.102975,-5.91400009776419,0.0014129305,0.1,208.82115,1625176225000
Fix,GT,37.3958132,-122.102975,-5.913999830633867,0.0022322438,0.099,208.82013,1625176226000
Fix,GT,37.3958132,-122.102975,-5.91400003304705,0.0014098437,0.1,208.82149,1625176227000
Fix,GT,37.3958132,-122.102975,-5.9140000592092985,0.0,0.1,208.82137,1625176228000
Fix,GT,37.3958132,-122.102975,-5.913999849911312,3.0822503e-06,0.1,208.82144,1625176229000
Fix,GT,37.3958132,-122.1029749,-5.910003012340516,0.0042364635,0.1,208.82124,1625176230000
Fix,GT,37.3958132,-122.1029749,-5.910997063076123,0.007076827,0.1,208.82532,1625176231000
Fix,GT,37.3958132,-122.102975,-5.908999928458593,0.0022384138,0.1,208.82335,1625176232000
Fix,GT,37.3958132,-122.102975,-5.909000071541406,0.002238411,0.1,208.8223,1625176233000
Fix,GT,37.3958132,-122.102975,-5.9080000976650044,0.002,0.1,208.82172,1625176234000
Fix,GT,37.3958132,-122.102975,-5.907999888579361,0.002,0.1,208.82198,1625176235000
Fix,GT,37.3958132,-122.102975,-5.907999973864294,0.001,0.1,208.82184,1625176236000
Fix,GT,37.3958132,-122.102975,-5.908000116922893,0.003161259,0.1,208.82236,1625176237000
Fix,GT,37.3958132,-122.102975,-5.907999966986478,0.001,0.1,208.82182,1625176238000
Fix,GT,37.3958132,-122.102975,-5.908000052271412,0.001,0.1,208.82199,1625176239000
Fix,GT,37.3958132,-122.102975,-5.908000136180781,0.001,0.1,208.822,1625176240000
Fix,GT,37.3958132,-122.102975,-5.907999928470701,0.0010012576,0.1,208.82191,1625176241000
Fix,GT,37.3958132,-122.102975,-5.908000012380072,0.0014129576,0.1,208.82184,1625176242000
Fix,GT,37.3958132,-122.102975,-5.908000155438669,0.0009969717,0.1,208.82176,1625176243000
Fix,GT,37.3958132,-122.102975,-5.907999888579361,0.0009969756,0.1,208.82222,1625176244000
Fix,GT,37.3958132,-122.102975,-5.907999972488732,0.0,0.1,208.82195,1625176245000
Fix,GT,37.3958132,-122.102975,-5.908000116922893,0.0,0.1,208.82193,1625176246000
Fix,GT,37.3958132,-122.102975,-5.907999907837249,0.0009999999,0.099,208.82216,1625176247000
Fix,GT,37.3958132,-122.102975,-5.90799999174662,0.001,0.1,208.82207,1625176248000
Fix,GT,37.3958132,-122.102975,-5.908000136180781,0.0010037146,0.1,208.82158,1625176249000
Fix,GT,37.3958132,-122.102975,-5.90799986794591,0.0022353595,0.1,208.82155,1625176250000
Fix,GT,37.3958132,-122.102975,-5.908002950680908,0.0031595014,0.1,208.8218,1625176251000
Fix,GT,37.3958132,-122.1029749,-5.913000037171646,0.0058368775,0.1,208.82268,1625176252000
Fix,GT,37.3958132,-122.102975,-5.915999829199166,0.0050904597,0.099,208.82278,1625176253000
Fix,GT,37.3958131,-122.102975,-5.916999913207488,0.0028259535,0.1,208.82169,1625176254000
Fix,GT,37.3958131,-122.102975,-5.917000056484016,0.0020007042,0.1,208.82121,1625176255000
Fix,GT,37.3958131,-122.102975,-5.9170001418988685,0.0014184254,0.1,208.82094,1625176256000
Fix,GT,37.3958131,-122.102975,-5.916999932494713,0.0022336235,0.1,208.82109,1625176257000
Fix,GT,37.3958131,-122.102975,-5.917000017909565,0.0014100127,0.1,208.82104,1625176258000
Fix,GT,37.3958131,-122.102975,-5.917000161186094,0.0014129848,0.1,208.82126,1625176259000
Fix,GT,37.3958131,-122.102975,-5.917999892524444,0.0014142134,0.099,208.82158,1625176260000
Fix,GT,37.3958131,-122.102975,-5.917002936847508,0.0022383283,0.1,208.82059,1625176261000
Fix,GT,37.3958131,-122.102975,-5.921000062036561,0.007261552,0.1,208.8201,1625176262000
Fix,GT,37.3958131,-122.102975,-5.922999853820074,0.0014129911,0.1,208.82079,1625176263000
Fix,GT,37.3958131,-122.102975,-5.922000056531746,0.0019982737,0.1,208.8203,1625176264000
Fix,GT,37.3958131,-122.102975,-5.921999846950639,5.88698e-06,0.1,208.8198,1625176265000
Fix,GT,37.3958131,-122.102975,-5.921999932437669,0.001,0.1,208.81967,1625176266000
Fix,GT,37.3958131,-122.102975,-5.922000075835269,2.9357802e-06,0.1,208.81996,1625176267000
Fix,GT,37.3958131,-122.102975,-5.922000161322299,2.9319203e-06,0.1,208.82045,1625176268000
Fix,GT,37.3958131,-122.102975,-5.9219998924518,0.001,0.1,208.82062,1625176269000
Fix,GT,37.3958131,-122.102975,-5.9220000358494,0.001,0.1,208.82028,1625176270000
Fix,GT,37.3958131,-122.102975,-5.92200012133643,0.0009970798,0.1,208.82025,1625176271000
Fix,GT,37.3958131,-122.102975,-5.921999852465931,0.0009999999,0.1,208.82048,1625176272000
Fix,GT,37.3958131,-122.102975,-5.921999997242353,2.9126402e-06,0.1,208.82065,1625176273000
Fix,GT,37.3958131,-122.102975,-5.922000140639953,0.001,0.1,208.82043,1625176274000
Fix,GT,37.3958131,-122.102975,-5.921999931058847,0.0019970953,0.1,208.82036,1625176275000
Fix,GT,37.3958131,-122.102975,-5.922000016545876,0.0019983007,0.1,208.82019,1625176276000
Fix,GT,37.3958131,-122.102975,-5.922000159943476,0.002232487,0.1,208.82031,1625176277000
Fix,GT,37.3958131,-122.102975,-5.921999950362369,0.001,0.1,208.8205,1625176278000
Fix,GT,37.3958131,-122.102975,-5.9220000358494,0.0010011969,0.1,208.82036,1625176279000
Fix,GT,37.3958131,-122.102975,-5.9219998262682925,0.0014142136,0.1,208.82048,1625176280000
Fix,GT,37.3958131,-122.102975,-5.921999911755323,0.0014142136,0.099,208.82051,1625176281000
Fix,GT,37.3958131,-122.102975,-5.922000055152922,0.0014130215,0.1,208.82072,1625176282000
Fix,GT,37.3958131,-122.102975,-5.921999845571816,0.0014142136,0.1,208.82085,1625176283000
Fix,GT,37.3958131,-122.102975,-5.921999931058847,0.002233709,0.1,208.82077,1625176284000
Fix,GT,37.3958131,-122.102975,-5.922000074456445,0.001,0.1,208.82047,1625176285000
Fix,GT,37.3958131,-122.102975,-5.921999866254161,0.0014130278,0.1,208.82053,1625176286000
Fix,GT,37.3958131,-122.102975,-5.922000009651762,0.001,0.1,208.8205,1625176287000
Fix,GT,37.3958131,-122.102975,-5.92200015304936,0.0010011826,0.1,208.82068,1625176288000
Fix,GT,37.3958131,-122.102975,-5.921999944847077,0.0014142136,0.1,208.82085,1625176289000
Fix,GT,37.3958131,-122.102975,-5.922000028955284,0.0010011793,0.1,208.82063,1625176290000
Fix,GT,37.3958131,-122.102975,-5.922000173731707,0.0,0.1,208.82031,1625176291000
Fix,GT,37.3958131,-122.102975,-5.921999904861208,0.0,0.1,208.82002,1625176292000
Fix,GT,37.3958131,-122.102975,-5.922000048258807,0.001,0.1,208.82004,1625176293000
Fix,GT,37.3958131,-122.102975,-5.922000133745837,0.0009971684,0.1,208.82025,1625176294000
Fix,GT,37.3958131,-122.102975,-5.921999924164731,0.001,0.099,208.82036,1625176295000
Fix,GT,37.3958131,-122.102975,-5.922000068941154,0.000997176,0.1,208.82039,1625176296000
Fix,GT,37.3958131,-122.102975,-5.92200015304936,0.0014102253,0.1,208.82033,1625176297000
Fix,GT,37.3958131,-122.102975,-5.921999943468254,0.001,0.1,208.82019,1625176298000
Fix,GT,37.3958131,-122.102975,-5.922000088244677,0.001,0.1,208.82022,1625176299000
Fix,GT,37.3958131,-122.102975,-5.921999878663569,0.001,0.1,208.82033,1625176300000
Fix,GT,37.3958131,-122.102975,-5.9219999641506,0.001,0.1,208.82013,1625176301000
Fix,GT,37.3958131,-122.102975,-5.922000048258806,0.0019983596,0.1,208.81938,1625176302000
Fix,GT,37.3958131,-122.102975,-5.9219998386777,0.0019972029,0.099,208.82031,1625176303000
Fix,GT,37.3958131,-122.102975,-5.921999924164731,0.002,0.1,208.82112,1625176304000
Fix,GT,37.3958131,-122.102975,-5.922000126851722,0.001,0.1,208.82146,1625176305000
Fix,GT,37.3958131,-122.102975,-5.921999917270616,0.001,0.1,208.82143,1625176306000
Fix,GT,37.3958131,-122.102975,-5.922000002757646,0.0019972185,0.1,208.82124,1625176307000
Fix,GT,37.3958131,-122.102975,-5.922000146155245,0.0010011506,0.1,208.82162,1625176308000
Fix,GT,37.3958131,-122.102975,-5.921999937952961,0.001,0.099,208.82167,1625176309000
Fix,GT,37.3958131,-122.102975,-5.9220000813505616,0.002232644,0.1,208.8217,1625176310000
Fix,GT,37.3958131,-122.102975,-5.921999871769454,0.0022337944,0.1,208.822,1625176311000
Fix,GT,37.3958131,-122.102975,-5.922000016545876,0.002,0.1,208.82182,1625176312000
Fix,GT,37.3958131,-122.102975,-5.921999866254161,0.0010027585,0.1,208.82172,1625176313000
Fix,GT,37.3958131,-122.102975,-5.922000009651762,0.002236068,0.1,208.81978,1625176314000
Fix,GT,37.3958131,-122.102975,-5.92199986073887,0.0010011394,0.1,208.82072,1625176315000
Fix,GT,37.3958131,-122.102975,-5.922000004136469,0.0014130757,0.1,208.82098,1625176316000
Fix,GT,37.3958131,-122.102975,-5.922000148912892,0.0014142137,0.1,208.82072,1625176317000
Fix,GT,37.3958131,-122.102975,-5.921999998621177,0.001,0.1,208.8205,1625176318000
Fix,GT,37.3958131,-122.102975,-5.922000142018776,0.0014130805,0.1,208.82028,1625176319000
Fix,GT,37.3958131,-122.102975,-5.921999993105884,0.001,0.1,208.82042,1625176320000
Fix,GT,37.3958131,-122.102975,-5.92199984281417,0.0009999999,0.1,208.82054,1625176321000
Fix,GT,37.3958131,-122.102975,-5.921999986211769,0.001,0.1,208.82062,1625176322000
Fix,GT,37.3958131,-122.102975,-5.922000130988192,0.001,0.1,208.8205,1625176323000
Fix,GT,37.3958131,-122.102975,-5.921999921407084,0.0010011252,0.1,208.8205,1625176324000
Fix,GT,37.3958131,-122.102975,-5.922000124094076,0.0,0.1,208.82048,1625176325000
Fix,GT,37.3958131,-122.102975,-5.921999975181184,0.001,0.1,208.8205,1625176326000
Fix,GT,37.3958131,-122.102975,-5.922000118578784,0.001,0.1,208.82048,1625176327000
Fix,GT,37.3958131,-122.102975,-5.92199996828707,0.001,0.1,208.82042,1625176328000
Fix,GT,37.3958131,-122.102975,-5.922000113063492,0.002,0.1,208.82054,1625176329000
Fix,GT,37.3958131,-122.102975,-5.9219999627717765,0.002,0.1,208.82068,1625176330000
Fix,GT,37.3958131,-122.102975,-5.922000106169376,0.002,0.1,208.82077,1625176331000
Fix,GT,37.3958131,-122.102975,-5.921999957256485,0.0010026855,0.1,208.82066,1625176332000
Fix,GT,37.3958131,-122.102975,-5.922000159943476,0.0019973186,0.1,208.82072,1625176333000
Fix,GT,37.3958131,-122.102975,-5.922000009651761,0.0019973223,0.1,208.82076,1625176334000
Fix,GT,37.3958131,-122.102975,-5.92199986073887,0.001,0.1,208.82126,1625176335000
Fix,GT,37.3958131,-122.102975,-5.922000063425861,0.001,0.1,208.82117,1625176336000
Fix,GT,37.3958131,-122.102975,-5.921999913134146,2.6662801e-06,0.099,208.82088,1625176337000
Fix,GT,37.3958131,-122.102975,-5.922000117199961,0.001,0.1,208.82085,1625176338000
Fix,GT,37.3958131,-122.102975,-5.921999966908246,0.0014142136,0.1,208.82072,1625176339000
Fix,GT,37.3958131,-122.102975,-5.922000169595237,0.0014142136,0.1,208.8207,1625176340000
Fix,GT,37.3958131,-122.102975,-5.922000079971737,0.0028284274,0.1,208.82059,1625176341000
Fix,GT,37.3958131,-122.102975,-5.921999929680023,0.0028284271,0.1,208.82062,1625176342000
Fix,GT,37.3958131,-122.102975,-5.9219998386777,0.002828427,0.1,208.82079,1625176343000
Fix,GT,37.3958131,-122.102975,-5.922000042743515,0.0028284271,0.1,208.82085,1625176344000
Fix,GT,37.3958131,-122.102975,-5.921999951741192,0.0028284271,0.1,208.82089,1625176345000
Fix,GT,37.3958131,-122.102975,-5.922000095138792,0.0028304723,0.1,208.82082,1625176346000
Fix,GT,37.3958131,-122.102975,-5.9219999462259,0.0028284271,0.099,208.82076,1625176347000
Fix,GT,37.3958131,-122.102975,-5.921999855223578,0.002236068,0.099,208.82071,1625176348000
Fix,GT,37.3958131,-122.102975,-5.9220000579105685,0.002236068,0.1,208.82101,1625176349000
Fix,GT,37.3958131,-122.102975,-5.921999907618853,0.0022360678,0.1,208.82114,1625176350000
Fix,GT,37.3958131,-122.102975,-5.92200017097406,0.0022360682,0.1,208.82103,1625176351000
Fix,GT,37.3958131,-122.102975,-5.922000079971738,0.002,0.1,208.82088,1625176352000
Fix,GT,37.3958131,-122.102975,-5.921999988969415,0.002,0.1,208.82097,1625176353000
Fix,GT,37.3958131,-122.102975,-5.921999958635307,0.002,0.1,208.82112,1625176354000
Fix,GT,37.3958131,-122.102975,-5.922000161322299,0.001415735,0.1,208.82112,1625176355000
Fix,GT,37.3958131,-122.102975,-5.922000070319976,0.0020006124,0.1,208.82121,1625176356000
Fix,GT,37.3958131,-122.102975,-5.922,0.002236068,0.1,-151.17891,1625176357000
Fix,GT,37.3958131,-122.102975,-5.922000124094076,0.002238463,0.1,208.82103,1625176358000
Fix,GT,37.3958131,-122.102975,-5.922000033091753,0.002236068,0.1,208.82094,1625176359000
Fix,GT,37.3958131,-122.102975,-5.921999942089431,0.002236068,0.1,208.82103,1625176360000
Fix,GT,37.3958131,-122.102975,-5.921999852465931,0.0020006078,0.1,208.8211,1625176361000
Fix,GT,37.3958131,-122.102975,-5.922000055152923,0.0020000003,0.1,208.82135,1625176362000
Fix,GT,37.3958131,-122.102975,-5.921999964150601,0.002,0.1,208.8214,1625176363000
Fix,GT,37.3958131,-122.102975,-5.921999873148277,0.0010025628,0.099,208.82115,1625176364000
Fix,GT,37.3958131,-122.102975,-5.922000136503484,0.0014131537,0.1,208.82126,1625176365000
Fix,GT,37.3958131,-122.102975,-5.922000045501161,0.001,0.1,208.82109,1625176366000
Fix,GT,37.3958131,-122.102975,-5.921999895209447,0.001,0.1,208.821,1625176367000
Fix,GT,37.3958131,-122.102975,-5.922000158564653,0.0014131584,0.1,208.8209,1625176368000
Fix,GT,37.3958131,-122.102975,-5.922000126851722,0.0014142137,0.1,208.82086,1625176369000
Fix,GT,37.3958131,-122.102975,-5.9220000358494,0.0014142136,0.1,208.82074,1625176370000
Fix,GT,37.3958131,-122.102975,-5.921999944847077,0.0009999999,0.1,208.82089,1625176371000
Fix,GT,37.3958131,-122.102975,-5.921999855223577,0.0010010488,0.1,208.82059,1625176372000
Fix,GT,37.3958131,-122.102975,-5.922000117199961,0.001,0.1,208.82054,1625176373000
Fix,GT,37.3958131,-122.102975,-5.9220000261976375,0.0014131679,0.1,208.82082,1625176374000
Fix,GT,37.3958131,-122.102975,-5.921999936574138,0.0014142134,0.1,208.82068,1625176375000
Fix,GT,37.3958131,-122.102975,-5.921999904861208,0.0014142136,0.1,208.82076,1625176376000
Fix,GT,37.3958131,-122.102975,-5.922000166837592,0.0014142136,0.1,208.82106,1625176377000
Fix,GT,37.3958131,-122.102975,-5.922000075835269,0.0014142136,0.1,208.82126,1625176378000
Fix,GT,37.3958131,-122.102975,-5.92199998621177,0.0010010378,0.099,208.82133,1625176379000
Fix,GT,37.3958131,-122.102975,-5.921999954498838,0.0014142136,0.099,208.82162,1625176380000
Fix,GT,37.3958131,-122.102975,-5.92200015718583,0.0014142136,0.1,208.82158,1625176381000
Fix,GT,37.3958131,-122.102975,-5.922000125472899,0.0014142136,0.1,208.82167,1625176382000
Fix,GT,37.3958131,-122.102975,-5.9220000358494,0.0010010314,0.1,208.8216,1625176383000
Fix,GT,37.3958131,-122.102975,-5.9219999448470775,0.001,0.1,208.82158,1625176384000
Fix,GT,37.3958131,-122.102975,-5.9219998538447545,0.001,0.099,208.82123,1625176385000
Fix,GT,37.3958131,-122.102975,-5.922000175110529,0.001,0.1,208.82109,1625176386000
Fix,GT,37.3958131,-122.102975,-5.922000085487031,0.001,0.1,208.82114,1625176387000
Fix,GT,37.3958131,-122.102975,-5.921999994484708,0.001,0.1,208.82098,1625176388000
Fix,GT,37.3958131,-122.102975,-5.9219999627717765,0.0014142134,0.1,208.8209,1625176389000
Fix,GT,37.3958131,-122.102975,-5.921999871769454,0.0014142136,0.1,208.8212,1625176390000
Fix,GT,37.3958131,-122.102975,-5.9220001351246605,0.0010010187,0.1,208.82117,1625176391000
Fix,GT,37.3958131,-122.102975,-5.9220001034117296,0.0014142136,0.1,208.8213,1625176392000
Fix,GT,37.3958131,-122.102975,-5.9220000716988,0.002234053,0.1,208.82108,1625176393000
Fix,GT,37.3958131,-122.102975,-5.9220000399858685,0.0014142136,0.1,208.82108,1625176394000
Fix,GT,37.3958131,-122.102975,-5.922000068941153,0.0014132012,0.1,208.82098,1625176395000
Fix,GT,37.3958131,-122.102975,-5.921999977938831,0.0014142136,0.1,208.82121,1625176396000
Fix,GT,37.3958131,-122.102975,-5.9219999462259,0.0014142136,0.1,208.8215,1625176397000
Fix,GT,37.3958131,-122.102975,-5.921999855223578,0.0014142134,0.1,208.82158,1625176398000
Fix,GT,37.3958131,-122.102975,-5.92199982488947,0.0014142136,0.1,208.82172,1625176399000
Fix,GT,37.3958131,-122.102975,-5.922000146155245,0.0014142137,0.1,208.82184,1625176400000
Fix,GT,37.3958131,-122.102975,-5.922000055152923,0.0010000002,0.1,208.8219,1625176401000
Fix,GT,37.3958131,-122.102975,-5.922000023439992,0.001,0.1,208.82191,1625176402000
Fix,GT,37.3958131,-122.102975,-5.922000051016454,0.0014142136,0.1,208.82188,1625176403000
Fix,GT,37.3958131,-122.102975,-5.921999961392954,0.001,0.1,208.82182,1625176404000
Fix,GT,37.3958131,-122.102975,-5.921999929680023,2.4058702e-06,0.1,208.8217,1625176405000
Fix,GT,37.3958131,-122.102975,-5.921999897967093,0.0009999999,0.1,208.82162,1625176406000
Fix,GT,37.3958131,-122.102975,-5.921999866254162,0.0010009934,0.1,208.82162,1625176407000
Fix,GT,37.3958131,-122.102975,-5.921999835920054,0.0010009918,0.1,208.82184,1625176408000
Fix,GT,37.3958131,-122.102975,-5.92200015718583,0.0009976095,0.1,208.82204,1625176409000
Fix,GT,37.3958131,-122.102975,-5.922000125472899,0.001,0.1,208.82182,1625176410000
Fix,GT,37.3958131,-122.102975,-5.922000093759968,0.0010009871,0.1,208.82191,1625176411000
Fix,GT,37.3958131,-122.102975,-5.922000063425862,0.0010009856,0.1,208.82199,1625176412000
Fix,GT,37.3958131,-122.102975,-5.922000091002323,0.0014142136,0.1,208.8219,1625176413000
Fix,GT,37.3958131,-122.102975,-5.922000059289393,0.0010009824,0.1,208.82184,1625176414000
Fix,GT,37.3958131,-122.102975,-5.922000027576461,0.0014132328,0.1,208.82167,1625176415000
Fix,GT,37.3958131,-122.102975,-5.92199999586353,0.0014132344,0.1,208.8217,1625176416000
Fix,GT,37.3958131,-122.102975,-5.922000024818815,0.001413236,0.1,208.82153,1625176417000
Fix,GT,37.3958131,-122.102975,-5.922000052395276,0.0014142136,0.1,208.8215,1625176418000
Fix,GT,37.3958131,-122.102975,-5.922000079971737,0.0014142136,0.1,208.82146,1625176419000
Fix,GT,37.3958131,-122.102975,-5.922000107548199,0.0014142136,0.1,208.82172,1625176420000
Fix,GT,37.3958131,-122.102975,-5.922000075835268,0.0022341409,0.1,208.82156,1625176421000
Fix,GT,37.3958131,-122.102975,-5.92200010341173,0.0014132439,0.1,208.82155,1625176422000
Fix,GT,37.3958131,-122.102975,-5.922000073077623,0.0014142136,0.1,208.82126,1625176423000
Fix,GT,37.3958131,-122.102975,-5.922000100654084,0.0014142137,0.1,208.82143,1625176424000
Fix,GT,37.3958131,-122.102975,-5.922000128230546,0.0014161281,0.1,208.82147,1625176425000
Fix,GT,37.3958131,-122.102975,-5.921999862117692,0.0010009634,0.1,208.82167,1625176426000
Fix,GT,37.3958131,-122.102975,-5.921999889694154,0.0010009619,0.1,208.82137,1625176427000
Fix,GT,37.3958131,-122.102975,-5.921999859360047,0.0010009602,0.1,208.82146,1625176428000
Fix,GT,37.3958131,-122.102975,-5.9219999462259,0.0010023144,0.1,208.8215,1625176429000
Fix,GT,37.3958131,-122.102975,-5.921999914512969,0.0014132565,0.1,208.82155,1625176430000
Fix,GT,37.3958131,-122.102975,-5.922000001378822,0.0014142136,0.1,208.82164,1625176431000
Fix,GT,37.3958131,-122.102975,-5.922000028955284,0.0014161062,0.1,208.82144,1625176432000
Fix,GT,37.3958131,-122.102975,-5.922000056531745,0.0014142136,0.1,208.82132,1625176433000
Fix,GT,37.3958131,-122.102975,-5.92200008548703,0.0014142136,0.1,208.82109,1625176434000
Fix,GT,37.3958131,-122.102975,-5.9220000537741,0.0014142137,0.1,208.8213,1625176435000
Fix,GT,37.3958131,-122.102975,-5.922000081350561,0.001,0.1,208.82123,1625176436000
Fix,GT,37.3958131,-122.102975,-5.922000049637631,0.0,0.1,208.82123,1625176437000
Fix,GT,37.3958131,-122.102975,-5.922000077214092,0.0014132692,0.1,208.82005,1625176438000
Fix,GT,37.3958131,-122.102975,-5.922000106169376,0.0010009429,0.1,208.82013,1625176439000
Fix,GT,37.3958131,-122.102975,-5.922000133745838,0.0010000002,0.1,208.8201,1625176440000
Fix,GT,37.3958131,-122.102975,-5.922000161322299,0.001413274,0.1,208.82013,1625176441000
Fix,GT,37.3958131,-122.102975,-5.921999835920055,0.0014142134,0.1,208.82043,1625176442000
Fix,GT,37.3958131,-122.102975,-5.921999863496516,0.0022342098,0.1,208.8206,1625176443000
Fix,GT,37.3958131,-122.102975,-5.921999891072978,0.002234213,0.1,208.82127,1625176444000
Fix,GT,37.3958131,-122.102975,-5.921999979317654,0.0014142136,0.1,208.82153,1625176445000
Fix,GT,37.3958131,-122.102975,-5.922000006894114,0.0014142136,0.1,208.82149,1625176446000
Fix,GT,37.3958131,-122.102975,-5.921999975181184,0.002236068,0.1,208.82137,1625176447000
Fix,GT,37.3958131,-122.102975,-5.922000002757645,0.0014160561,0.1,208.82133,1625176448000
Fix,GT,37.3958131,-122.102975,-5.922000089623499,0.0014142137,0.1,208.82143,1625176449000
Fix,GT,37.3958131,-122.102975,-5.922000117199961,0.0014142136,0.1,208.82129,1625176450000
Fix,GT,37.3958131,-122.102975,-5.922000146155245,0.0014155202,0.1,208.82114,1625176451000
Fix,GT,37.3958131,-122.102975,-5.921999880042392,0.0019986958,0.1,208.8212,1625176452000
Fix,GT,37.3958131,-122.102975,-5.9219999669082455,0.001997777,0.1,208.82112,1625176453000
Fix,GT,37.3958131,-122.102975,-5.9220000537741,0.002000524,0.1,208.821,1625176454000
Fix,GT,37.3958131,-122.102975,-5.922000140639953,0.002,0.1,208.82106,1625176455000
Fix,GT,37.3958131,-122.102975,-5.922000168216415,0.0022360682,0.1,208.82104,1625176456000
Fix,GT,37.3958131,-122.102975,-5.921999902103561,0.0014142136,0.1,208.821,1625176457000
Fix,GT,37.3958131,-122.102975,-5.921999990348238,0.0014142136,0.1,208.82082,1625176458000
Fix,GT,37.3958131,-122.102975,-5.9220000179247,0.0014142136,0.1,208.82071,1625176459000
Fix,GT,37.3958131,-122.102975,-5.922000104790553,0.0014160186,0.1,208.8207,1625176460000
Fix,GT,37.3958131,-122.102975,-5.922000132367015,0.0010009082,0.1,208.8208,1625176461000
Fix,GT,37.3958131,-122.102975,-5.921999866254161,0.0010009066,0.099,208.8211,1625176462000
Fix,GT,37.3958131,-122.102975,-5.921999893830623,0.0014142136,0.099,208.8208,1625176463000
Fix,GT,37.3958131,-122.102975,-5.9219999806964765,0.0014160061,0.099,208.82092,1625176464000
Fix,GT,37.3958131,-122.102975,-5.922000068941153,0.001416003,0.1,208.8208,1625176465000
Fix,GT,37.3958131,-122.102975,-5.921999862117692,0.002236068,0.1,208.82112,1625176466000
Fix,GT,37.3958131,-122.102975,-5.9219999489835455,0.0014159967,0.1,208.82082,1625176467000
Fix,GT,37.3958131,-122.102975,-5.9220000358494,0.0022342878,0.1,208.82071,1625176468000
Fix,GT,37.3958131,-122.102975,-5.922000122715253,0.0014154802,0.1,208.82062,1625176469000
Fix,GT,37.3958131,-122.102975,-5.9219998566024,0.002234294,0.1,208.82024,1625176470000
Fix,GT,37.3958131,-122.102975,-5.921999943468253,0.0022355595,0.1,208.82016,1625176471000
Fix,GT,37.3958131,-122.102975,-5.922000030334107,0.002000508,0.1,208.82048,1625176472000
Fix,GT,37.3958131,-122.102975,-5.922000117199961,0.0019987426,0.1,208.82057,1625176473000
Fix,GT,37.3958131,-122.102975,-5.92199985246593,0.0014133259,0.1,208.82072,1625176474000
Fix,GT,37.3958131,-122.102975,-5.921999939331784,0.0014133274,0.1,208.82074,1625176475000
Fix,GT,37.3958131,-122.102975,-5.9220000261976375,0.0010008847,0.1,208.8203,1625176476000
Fix,GT,37.3958131,-122.102975,-5.922000113063492,3.0146225e-06,0.1,208.82019,1625176477000
Fix,GT,37.3958131,-122.102975,-5.921999846950638,0.0010008814,0.099,208.82028,1625176478000
Fix,GT,37.3958131,-122.102975,-5.921999933816492,0.0014142136,0.099,208.82019,1625176479000
Fix,GT,37.3958131,-122.102975,-5.922000020682345,0.0014142136,0.1,208.82007,1625176480000
Fix,GT,37.3958131,-122.102975,-5.922000166837592,0.0014142136,0.1,208.8202,1625176481000
Fix,GT,37.3958131,-122.102975,-5.921999902103561,0.0014142136,0.1,208.82056,1625176482000
Fix,GT,37.3958131,-122.102975,-5.922000048258807,0.00141334,0.1,208.82066,1625176483000
Fix,GT,37.3958131,-122.102975,-5.9220001351246605,0.0014142137,0.1,208.82063,1625176484000
Fix,GT,37.3958131,-122.102975,-5.921999869011808,0.0014159405,0.1,208.82048,1625176485000
Fix,GT,37.3958131,-122.102975,-5.921999955877661,0.002236068,0.1,208.82051,1625176486000
Fix,GT,37.3958131,-122.102975,-5.922000102032906,0.0028271868,0.1,208.82063,1625176487000
Fix,GT,37.3958131,-122.102975,-5.921999835920055,0.002236068,0.1,208.82079,1625176488000
Fix,GT,37.3958131,-122.102975,-5.922,0.002236068,0.1,-151.17929,1625176489000
Fix,GT,37.3958131,-122.102975,-5.922000068941154,0.002236068,0.1,208.82057,1625176490000
Fix,GT,37.3958131,-122.102975,-5.922,0.0031622776,0.1,-151.1795,1625176491000
Fix,GT,37.3958131,-122.102975,-5.921999891072978,0.0031622774,0.1,208.82048,1625176492000
Fix,GT,37.3958131,-122.102975,-5.922000037228223,0.002236068,0.1,208.8206,1625176493000
Fix,GT,37.3958131,-122.102975,-5.921999830404762,0.0031603628,0.099,208.82079,1625176494000
Fix,GT,37.3958131,-122.102975,-5.921999917270616,0.002236068,0.099,208.82071,1625176495000
Fix,GT,37.3958131,-122.102975,-5.922000063425862,0.002236068,0.1,208.8207,1625176496000
Fix,GT,37.3958131,-122.102975,-5.922000150291715,0.002236068,0.1,208.82062,1625176497000
Fix,GT,37.3958131,-122.102975,-5.921999943468254,0.0022360678,0.1,208.82047,1625176498000
Fix,GT,37.3958131,-122.102975,-5.922000089623499,0.0022355844,0.1,208.8202,1625176499000
Fix,GT,37.3958131,-122.102975,-5.921999882800039,0.002236068,0.1,208.8206,1625176500000
Fix,GT,37.3958131,-122.102975,-5.922000028955284,0.0010020407,0.1,208.82047,1625176501000
Fix,GT,37.3958131,-122.102975,-5.922000117199961,0.0014142137,0.1,208.82053,1625176502000
Fix,GT,37.3958131,-122.102975,-5.9219999103765,0.002234397,0.1,208.82066,1625176503000
Fix,GT,37.3958131,-122.102975,-5.922000056531745,0.0014154023,0.1,208.82074,1625176504000
Fix,GT,37.3958131,-122.102975,-5.9219998497082855,0.0014154,0.099,208.82053,1625176505000
Fix,GT,37.3958131,-122.102975,-5.92199999586353,0.0014142136,0.1,208.82056,1625176506000
Fix,GT,37.3958131,-122.102975,-5.922000142018776,0.001415872,0.1,208.82066,1625176507000
Fix,GT,37.3958131,-122.102975,-5.921999875905923,0.001,0.1,208.82054,1625176508000
Fix,GT,37.3958131,-122.102975,-5.9220000220611695,0.001,0.1,208.82048,1625176509000
Fix,GT,37.3958131,-122.102975,-5.922000168216415,0.001,0.1,208.82045,1625176510000
Fix,GT,37.3958131,-122.102975,-5.921999961392954,0.001,0.1,208.82048,1625176511000
Fix,GT,37.3958131,-122.102975,-5.922000166837592,0.0022344252,0.1,208.82037,1625176512000
Fix,GT,37.3958131,-122.102975,-5.921999900724739,0.0014158533,0.1,208.82036,1625176513000
Fix,GT,37.3958131,-122.102975,-5.922000106169376,0.0022336068,0.1,208.82057,1625176514000
Fix,GT,37.3958131,-122.102975,-5.921999900724738,0.001415847,0.1,208.8207,1625176515000
Fix,GT,37.3958131,-122.102975,-5.922000046879984,0.002236068,0.1,208.82063,1625176516000
Fix,GT,37.3958131,-122.102975,-5.921999899345915,0.0014142136,0.099,208.82065,1625176517000
Fix,GT,37.3958131,-122.102975,-5.922000045501161,0.0014142136,0.1,208.82068,1625176518000
Fix,GT,37.3958131,-122.102975,-5.9219998386777,0.002236068,0.1,208.82074,1625176519000
Fix,GT,37.3958131,-122.102975,-5.922000044122338,0.0014158315,0.1,208.8207,1625176520000
Fix,GT,37.3958131,-122.102975,-5.92199989658827,0.0014142136,0.1,208.82048,1625176521000
Fix,GT,37.3958131,-122.102975,-5.922000102032907,0.0014142136,0.1,208.82042,1625176522000
Fix,GT,37.3958131,-122.102975,-5.921999954498839,0.0014134027,0.1,208.82043,1625176523000
Fix,GT,37.3958131,-122.102975,-5.922000100654084,0.0010008091,0.1,208.82051,1625176524000
Fix,GT,37.3958131,-122.102975,-5.921999953120015,0.0009999999,0.1,208.82065,1625176525000
Fix,GT,37.3958131,-122.102975,-5.922000158564653,0.0014114617,0.1,208.82036,1625176526000
Fix,GT,37.3958131,-122.102975,-5.921999951741193,0.001,0.1,208.8205,1625176527000
Fix,GT,37.3958131,-122.102975,-5.922000097896437,0.001,0.1,208.82072,1625176528000
Fix,GT,37.3958131,-122.102975,-5.92199995036237,0.0014142136,0.1,208.82054,1625176529000
Fix,GT,37.3958131,-122.102975,-5.922000096517615,0.0014142137,0.1,208.82043,1625176530000
Fix,GT,37.3958131,-122.102975,-5.921999890383566,0.0010007982,0.1,208.82079,1625176531000
Fix,GT,37.3958131,-122.102975,-5.922000036538811,0.0014142136,0.1,208.82082,1625176532000
Fix,GT,37.3958131,-122.102975,-5.92199982971535,0.0014142134,0.099,208.82072,1625176533000
Fix,GT,37.3958131,-122.102975,-5.922000035159988,0.0022344936,0.1,208.82057,1625176534000
Fix,GT,37.3958131,-122.102975,-5.921999887625919,0.0014142136,0.099,208.82059,1625176535000
Fix,GT,37.3958131,-122.102975,-5.922000033781165,0.0014142137,0.1,208.82066,1625176536000
Fix,GT,37.3958131,-122.102975,-5.921999886247097,0.002,0.1,208.82072,1625176537000
Fix,GT,37.3958131,-122.102975,-5.922000091691735,0.0022356196,0.1,208.82077,1625176538000
Fix,GT,37.3958131,-122.102975,-5.921999944157665,0.002,0.1,208.82077,1625176539000
Fix,GT,37.3958131,-122.102975,-5.922000149602304,0.002,0.1,208.8207,1625176540000
Fix,GT,37.3958131,-122.102975,-5.921999942778842,0.002,0.1,208.82056,1625176541000
Fix,GT,37.3958131,-122.102975,-5.92200014822348,0.0010018854,0.1,208.82066,1625176542000
Fix,GT,37.3958131,-122.102975,-5.92199994208943,0.0014171973,0.1,208.82068,1625176543000
Fix,GT,37.3958131,-122.102975,-5.922000147534068,0.0010007778,0.1,208.82109,1625176544000
Fix,GT,37.3958131,-122.102975,-5.922,0.0022337518,0.1,208.8213,1625176545000
Fix,GT,37.3958131,-122.102975,-5.922000146155245,0.0010007747,0.1,208.82144,1625176546000
Fix,GT,37.3958131,-122.102975,-5.921999998621177,0.0010007732,0.1,208.82137,1625176547000
Fix,GT,37.3958131,-122.102975,-5.921999851087108,0.0014134421,0.1,208.82141,1625176548000
Fix,GT,37.3958131,-122.102975,-5.922000056531746,0.0014142136,0.1,208.82144,1625176549000
Fix,GT,37.3958131,-122.102975,-5.921999849708285,0.001,0.1,208.8213,1625176550000
Fix,GT,37.3958131,-122.102975,-5.922000114442315,0.0,0.1,208.82138,1625176551000
Fix,GT,37.3958131,-122.102975,-5.921999907618853,0.0009981525,0.099,208.82146,1625176552000
Fix,GT,37.3958131,-122.102975,-5.922000113063492,0.001,0.1,208.82155,1625176553000
Fix,GT,37.3958131,-122.102975,-5.921999965529423,0.001,0.1,208.82161,1625176554000
Fix,GT,37.3958131,-122.102975,-5.922,0.001,0.1,-151.1782,1625176555000
Fix,GT,37.3958131,-122.102975,-5.922000023439992,0.001,0.1,208.82167,1625176556000
Fix,GT,37.3958131,-122.102975,-5.921999875905923,0.0009999999,0.1,208.82153,1625176557000
Fix,GT,37.3958131,-122.102975,-5.922000082039973,0.001,0.1,208.82173,1625176558000
Fix,GT,37.3958131,-122.102975,-5.921999934505903,0.001,0.1,208.82175,1625176559000
Fix,GT,37.3958131,-122.102975,-5.9220001399505415,0.0014142136,0.1,208.82169,1625176560000
Fix,GT,37.3958131,-122.102975,-5.921999992416473,0.0010007512,0.1,208.82164,1625176561000
Fix,GT,37.3958131,-122.102975,-5.9219998448824045,0.0014116543,0.1,208.82147,1625176562000
Fix,GT,37.3958131,-122.102975,-5.922000109616434,0.001000748,0.1,208.82144,1625176563000
Fix,GT,37.3958131,-122.102975,-5.921999962082365,0.001,0.1,208.82141,1625176564000
Fix,GT,37.3958131,-122.102975,-5.922000167527003,0.0014142136,0.1,208.82146,1625176565000
Fix,GT,37.3958131,-122.102975,-5.921999960703542,0.0010007434,0.1,208.82123,1625176566000
Fix,GT,37.3958131,-122.102975,-5.922000166148179,0.0014134719,0.1,208.82112,1625176567000
Fix,GT,37.3958131,-122.102975,-5.922000018614112,0.0010007403,0.1,208.82112,1625176568000
Fix,GT,37.3958131,-122.102975,-5.921999871080042,0.001,0.1,208.82132,1625176569000
Fix,GT,37.3958131,-122.102975,-5.9220000765246805,0.001,0.1,208.82123,1625176570000
Fix,GT,37.3958131,-122.102975,-5.921999928990611,0.001,0.1,208.82144,1625176571000
Fix,GT,37.3958131,-122.102975,-5.921999840745935,0.001,0.1,208.82135,1625176572000
Fix,GT,37.3958131,-122.102975,-5.922000046190572,0.001,0.1,208.82129,1625176573000
Fix,GT,37.3958131,-122.102975,-5.921999898656504,0.0010007308,0.1,208.82117,1625176574000
Fix,GT,37.3958131,-122.102975,-5.922000163390535,0.0014134843,0.1,208.82152,1625176575000
Fix,GT,37.3958131,-122.102975,-5.922000015856465,0.001,0.1,208.82161,1625176576000
Fix,GT,37.3958131,-122.102975,-5.921999868322397,0.0009982471,0.1,208.82167,1625176577000
Fix,GT,37.3958131,-122.102975,-5.922000133056426,0.0,0.1,208.82164,1625176578000
Fix,GT,37.3958131,-122.102975,-5.9219999855223575,0.0,0.1,208.82166,1625176579000
Fix,GT,37.3958131,-122.102975,-5.921999837988289,0.0,0.1,208.82156,1625176580000
Fix,GT,37.3958131,-122.102975,-5.922000043432927,0.0,0.1,208.8215,1625176581000
Fix,GT,37.3958131,-122.102975,-5.921999895898858,0.0,0.099,208.82141,1625176582000
Fix,GT,37.3958131,-122.102975,-5.922000101343496,0.0,0.1,208.8214,1625176583000
Fix,GT,37.3958131,-122.102975,-5.921999953809427,2.4417245e-06,0.1,208.82158,1625176584000
Fix,GT,37.3958131,-122.102975,-5.92199986556475,0.0,0.1,208.82176,1625176585000
Fix,GT,37.3958131,-122.102975,-5.922,0.001,0.1,-151.17833,1625176586000
Fix,GT,37.3958131,-122.102975,-5.921999982764712,0.0010007105,0.1,208.8217,1625176587000
Fix,GT,37.3958131,-122.102975,-5.921999835230642,0.0009982885,0.099,208.82135,1625176588000
Fix,GT,37.3958131,-122.102975,-5.922000041364692,0.0014135062,0.1,208.82126,1625176589000
Fix,GT,37.3958131,-122.102975,-5.921999952430603,0.0009999999,0.099,208.82146,1625176590000
Fix,GT,37.3958131,-122.102975,-5.9220001578752415,0.0,0.1,208.82158,1625176591000
Fix,GT,37.3958131,-122.102975,-5.922000011030584,0.0,0.1,208.82161,1625176592000
Fix,GT,37.3958131,-122.102975,-5.9219999220964965,0.0,0.1,208.82158,1625176593000
Fix,GT,37.3958131,-122.102975,-5.922000128230546,0.0010000002,0.1,208.8214,1625176594000
Fix,GT,37.3958131,-122.102975,-5.922000039296457,0.001,0.1,208.82129,1625176595000
Fix,GT,37.3958131,-122.102975,-5.921999951051781,0.001,0.1,208.82155,1625176596000
Fix,GT,37.3958131,-122.102975,-5.922000097896437,0.0,0.1,208.82167,1625176597000
Fix,GT,37.3958131,-122.102975,-5.922000009651761,0.0,0.1,208.82169,1625176598000
Fix,GT,37.3958131,-122.102975,-5.921999862117693,0.001,0.1,208.8216,1625176599000
Fix,GT,37.3958131,-122.102975,-5.9220000675623305,0.0,0.1,208.82155,1625176600000
Fix,GT,37.3958131,-122.102975,-5.921999920028262,0.0,0.1,208.82118,1625176601000
Fix,GT,37.3958131,-122.102975,-5.921999831783585,0.001,0.099,208.82153,1625176602000
Fix,GT,37.3958131,-122.102975,-5.922000037228223,0.0,0.1,208.82172,1625176603000
Fix,GT,37.3958131,-122.102975,-5.9219998896941535,1.6510301e-06,0.099,208.82187,1625176604000
Fix,GT,37.3958131,-122.102975,-5.922000095138792,0.0009983528,0.1,208.82175,1625176605000
Fix,GT,37.3958131,-122.102975,-5.922000066183507,0.0014135328,0.1,208.82188,1625176606000
Fix,GT,37.3958131,-122.102975,-5.921999977938831,0.0,0.1,208.82188,1625176607000
Fix,GT,37.3958131,-122.102975,-5.921999889004742,0.0009983641,0.1,208.82195,1625176608000
Fix,GT,37.3958131,-122.102975,-5.922000095138792,0.001,0.1,208.8217,1625176609000
Fix,GT,37.3958131,-122.102975,-5.922000006204703,0.0,0.1,208.82182,1625176610000
Fix,GT,37.3958131,-122.102975,-5.921999917960028,0.0014135406,0.099,208.82184,1625176611000
Fix,GT,37.3958131,-122.102975,-5.92199982971535,0.001,0.1,208.8216,1625176612000
Fix,GT,37.3958131,-122.102975,-5.922000035159988,0.0,0.1,208.8218,1625176613000
Fix,GT,37.3958131,-122.102975,-5.922,0.001,0.1,-151.17825,1625176614000
Fix,GT,37.3958131,-122.102975,-5.922000152359949,0.0014142137,0.1,208.82207,1625176615000
Fix,GT,37.3958131,-122.102975,-5.92200000482588,0.0014135484,0.1,208.82222,1625176616000
Fix,GT,37.3958131,-122.102975,-5.921999916581204,0.001,0.099,208.8222,1625176617000
Fix,GT,37.3958131,-122.102975,-5.921999828336527,0.001000662,0.1,208.8222,1625176618000
Fix,GT,37.3958131,-122.102975,-5.922000033781165,0.0,0.1,208.82204,1625176619000
Fix,GT,37.3958131,-122.102975,-5.921999945536488,0.001,0.1,208.82195,1625176620000
Fix,GT,37.3958131,-122.102975,-5.922000150981126,0.0,0.1,208.82185,1625176621000
Fix,GT,37.3958131,-122.102975,-5.9220000627364495,0.0014135579,0.1,208.82167,1625176622000
Fix,GT,37.3958131,-122.102975,-5.922000033781165,0.0010000002,0.1,208.82178,1625176623000
Fix,GT,37.3958131,-122.102975,-5.921999945536489,0.0009984245,0.099,208.8217,1625176624000
Fix,GT,37.3958131,-122.102975,-5.922000150981126,0.0010000002,0.1,208.82176,1625176625000
Fix,GT,37.3958131,-122.102975,-5.9220000627364495,2.2175293e-06,0.1,208.82173,1625176626000
Fix,GT,37.3958131,-122.102975,-5.921999974491773,0.001,0.1,208.82185,1625176627000
Fix,GT,37.3958131,-122.102975,-5.921999886247097,0.001,0.1,208.8218,1625176628000
Fix,GT,37.3958131,-122.102975,-5.922000150981126,0.0009984433,0.1,208.82202,1625176629000
Fix,GT,37.3958131,-122.102975,-5.9220000627364495,0.0,0.1,208.82211,1625176630000
Fix,GT,37.3958131,-122.102975,-5.922000033781164,0.0,0.1,208.8218,1625176631000
Fix,GT,37.3958131,-122.102975,-5.921999945536489,0.0014135734,0.1,208.8219,1625176632000
Fix,GT,37.3958131,-122.102975,-5.921999857291811,1.5416501e-06,0.1,208.82202,1625176633000
Fix,GT,37.3958131,-122.102975,-5.922000122025842,0.0014120387,0.1,208.8221,1625176634000
Fix,GT,37.3958131,-122.102975,-5.922000033781165,1.5341101e-06,0.1,208.82193,1625176635000
Fix,GT,37.3958131,-122.102975,-5.921999945536489,0.0014135797,0.099,208.82173,1625176636000
Fix,GT,37.3958131,-122.102975,-5.9219998566024,0.001,0.1,208.82172,1625176637000
Fix,GT,37.3958131,-122.102975,-5.92200012133643,0.001,0.1,208.82182,1625176638000
Fix,GT,37.3958131,-122.102975,-5.922000092381145,0.0010006293,0.1,208.82204,1625176639000
Fix,GT,37.3958131,-122.102975,-5.921999944847077,0.0,0.1,208.82199,1625176640000
Fix,GT,37.3958131,-122.102975,-5.922000150291714,0.0,0.1,208.82181,1625176641000
Fix,GT,37.3958131,-122.102975,-5.922000002757646,1.5077001e-06,0.1,208.8218,1625176642000
Fix,GT,37.3958131,-122.102975,-5.921999855223577,0.001,0.1,208.82184,1625176643000
Fix,GT,37.3958131,-122.102975,-5.922000119957607,0.001,0.1,208.82195,1625176644000
Fix,GT,37.3958131,-122.102975,-5.922000031712931,0.0014142136,0.1,208.82208,1625176645000
Fix,GT,37.3958131,-122.102975,-5.921999943468253,0.0014142136,0.1,208.82211,1625176646000
Fix,GT,37.3958131,-122.102975,-5.922000148912892,0.0014142136,0.1,208.82188,1625176647000
Fix,GT,37.3958131,-122.102975,-5.922000060668215,0.0014142137,0.1,208.8217,1625176648000
Fix,GT,37.3958131,-122.102975,-5.921999972423539,0.0014142136,0.1,208.82176,1625176649000
Fix,GT,37.3958131,-122.102975,-5.922,0.002,0.1,-151.17825,1625176650000
Fix,GT,37.3958131,-122.102975,-5.922,0.0014142136,0.1,-151.17824,1625176651000
Fix,GT,37.3958131,-122.102975,-5.922000001378823,0.0014142136,0.1,208.82195,1625176652000
Fix,GT,37.3958131,-122.102975,-5.9219999131341465,1.4662e-06,0.1,208.82172,1625176653000
Fix,GT,37.3958131,-122.102975,-5.921999824889469,0.001,0.099,208.82172,1625176654000
Fix,GT,37.3958131,-122.102975,-5.922000089623499,1.4586601e-06,0.1,208.82164,1625176655000
Fix,GT,37.3958131,-122.102975,-5.922000001378822,0.001,0.1,208.82158,1625176656000
Fix,GT,37.3958131,-122.102975,-5.9219998538447545,0.0014142136,0.1,208.8218,1625176657000
Fix,GT,37.3958131,-122.102975,-5.922000118578785,0.0010005996,0.1,208.82188,1625176658000
Fix,GT,37.3958131,-122.102975,-5.922000089623499,0.0014136157,0.1,208.82191,1625176659000
Fix,GT,37.3958131,-122.102975,-5.922000060668215,0.0014142136,0.1,208.82187,1625176660000
Fix,GT,37.3958131,-122.102975,-5.922000031023519,0.0014136188,0.1,208.82208,1625176661000
Fix,GT,37.3958131,-122.102975,-5.921999942778842,0.0014136202,0.1,208.82222,1625176662000
Fix,GT,37.3958131,-122.102975,-5.921999913823558,0.0010005918,0.1,208.82214,1625176663000
Fix,GT,37.3958131,-122.102975,-5.92199982557888,0.0014142136,0.1,208.82204,1625176664000
Fix,GT,37.3958131,-122.102975,-5.922000149602303,0.0014142136,0.1,208.82228,1625176665000
Fix,GT,37.3958131,-122.102975,-5.922000061357627,0.0020003347,0.1,208.82237,1625176666000
Fix,GT,37.3958131,-122.102975,-5.922000032402342,0.0022349062,0.1,208.82266,1625176667000
Fix,GT,37.3958131,-122.102975,-5.9220000034470575,0.0022349095,0.1,208.82254,1625176668000
Fix,GT,37.3958131,-122.102975,-5.921999974491772,0.002236068,0.1,208.82254,1625176669000
Fix,GT,37.3958131,-122.102975,-5.9219998855576845,0.001,0.1,208.82245,1625176670000
Fix,GT,37.3958131,-122.102975,-5.922000150291715,0.002,0.1,208.82268,1625176671000
Fix,GT,37.3958131,-122.102975,-5.92200012133643,0.001,0.1,208.82254,1625176672000
Fix,GT,37.3958131,-122.102975,-5.922000033091753,0.001,0.1,208.82266,1625176673000
Fix,GT,37.3958131,-122.102975,-5.9219999448470775,0.0019991875,0.1,208.82268,1625176674000
Fix,GT,37.3958131,-122.102975,-5.921999915891792,0.001,0.1,208.82266,1625176675000
Fix,GT,37.3958131,-122.102975,-5.921999827647116,0.001999192,0.099,208.82272,1625176676000
Fix,GT,37.3958131,-122.102975,-5.922000151670537,0.0010013758,0.1,208.82277,1625176677000
Fix,GT,37.3958131,-122.102975,-5.922000122715253,0.001,0.1,208.82271,1625176678000
Fix,GT,37.3958131,-122.102975,-5.922000034470576,0.0010000002,0.1,208.82275,1625176679000
Fix,GT,37.3958131,-122.102975,-5.9219999462259,0.001,0.1,208.82265,1625176680000
Fix,GT,37.3958131,-122.102975,-5.921999857291811,0.0019986392,0.1,208.82265,1625176681000
Fix,GT,37.3958131,-122.102975,-5.922000122025842,0.0014150086,0.1,208.82268,1625176682000
Fix,GT,37.3958131,-122.102975,-5.922000093070557,0.0010013533,0.1,208.82281,1625176683000
Fix,GT,37.3958131,-122.102975,-5.922,0.002,0.1,-151.17725,1625176684000
Fix,GT,37.3958131,-122.102975,-5.921999975870596,0.002,0.1,208.82277,1625176685000
Fix,GT,37.3958131,-122.102975,-5.921999946915311,0.0019986583,0.1,208.8226,1625176686000
Fix,GT,37.3958131,-122.102975,-5.921999858670635,0.001,0.1,208.82259,1625176687000
Fix,GT,37.3958131,-122.102975,-5.92199982971535,0.0019986655,0.099,208.82254,1625176688000
Fix,GT,37.3958131,-122.102975,-5.9220000944493805,0.001,0.1,208.82248,1625176689000
Fix,GT,37.3958131,-122.102975,-5.922000065494095,0.0010013268,0.1,208.82253,1625176690000
Fix,GT,37.3958131,-122.102975,-5.921999976560008,0.0019992252,0.1,208.82262,1625176691000
Fix,GT,37.3958131,-122.102975,-5.921999947604723,0.0010013194,0.1,208.82272,1625176692000
Fix,GT,37.3958131,-122.102975,-5.921999859360046,0.001,0.099,208.82271,1625176693000
Fix,GT,37.3958131,-122.102975,-5.921999830404762,0.0009999999,0.099,208.82239,1625176694000
Fix,GT,37.3958131,-122.102975,-5.922000095138792,0.0014136718,0.1,208.82246,1625176695000
Fix,GT,37.3958131,-122.102975,-5.922000066183507,1.8445305e-06,0.1,208.82239,1625176696000
Fix,GT,37.3958131,-122.102975,-5.922000037228223,0.0009986996,0.1,208.82214,1625176697000
Fix,GT,37.3958131,-122.102975,-5.9219999489835455,0.001,0.1,208.8224,1625176698000
Fix,GT,37.3958131,-122.102975,-5.921999920028262,0.001,0.099,208.823,1625176699000
Fix,GT,37.3958131,-122.102975,-5.921999890383566,0.0014142136,0.1,208.8229,1625176700000
Fix,GT,37.3958131,-122.102975,-5.922000155117596,0.0014136812,0.1,208.82268,1625176701000
Fix,GT,37.3958131,-122.102975,-5.922000066872919,0.0014142136,0.1,208.82257,1625176702000
Fix,GT,37.3958131,-122.102975,-5.922000037917634,0.0014142136,0.1,208.8224,1625176703000
Fix,GT,37.3958131,-122.102975,-5.921999949672958,0.0014142134,0.1,208.82243,1625176704000
Fix,GT,37.3958131,-122.102975,-5.921999861428281,0.002236068,0.099,208.82231,1625176705000
Fix,GT,37.3958131,-122.102975,-5.922000126162311,0.002236068,0.1,208.8223,1625176706000
Fix,GT,37.3958131,-122.102975,-5.922000097207026,0.002236068,0.1,208.82246,1625176707000
Fix,GT,37.3958131,-122.102975,-5.922000068251742,0.002236068,0.1,208.82259,1625176708000
Fix,GT,37.3958131,-122.102975,-5.922000038607046,0.002236068,0.1,208.82248,1625176709000
Fix,GT,37.3958131,-122.102975,-5.922000009651761,0.0014152422,0.1,208.82231,1625176710000
Fix,GT,37.3958131,-122.102975,-5.921999921407085,0.0022350424,0.1,208.82227,1625176711000
Fix,GT,37.3958131,-122.102975,-5.922,0.002236068,0.1,-151.17764,1625176712000
Fix,GT,37.3958131,-122.102975,-5.922000097896438,0.0014142136,0.1,208.82253,1625176713000
Fix,GT,37.3958131,-122.102975,-5.922000009651761,0.0014152298,0.1,208.82275,1625176714000
Fix,GT,37.3958131,-122.102975,-5.9219999806964765,0.0014142136,0.1,208.82248,1625176715000
Fix,GT,37.3958131,-122.102975,-5.921999951741192,0.0014142136,0.099,208.82233,1625176716000
Fix,GT,37.3958131,-122.102975,-5.9219999820753,0.0014142136,0.1,208.8224,1625176717000
Fix,GT,37.3958131,-122.102975,-5.921999893830623,0.001000506,0.1,208.82262,1625176718000
Fix,GT,37.3958131,-122.102975,-5.921999864185928,0.0014142136,0.1,208.8228,1625176719000
Fix,GT,37.3958131,-122.102975,-5.922000128919956,0.0010000002,0.1,208.82259,1625176720000
Fix,GT,37.3958131,-122.102975,-5.922000099964673,0.0014142136,0.1,208.82271,1625176721000
Fix,GT,37.3958131,-122.102975,-5.922000011719995,0.0014137139,0.1,208.82295,1625176722000
Fix,GT,37.3958131,-122.102975,-5.921999982764711,0.0010004982,0.1,208.82307,1625176723000
Fix,GT,37.3958131,-122.102975,-5.921999953809428,0.001,0.1,208.823,1625176724000
Fix,GT,37.3958131,-122.102975,-5.921999924854142,0.001,0.1,208.82352,1625176725000
Fix,GT,37.3958131,-122.102975,-5.921999836609466,0.0014137201,0.099,208.8235,1625176726000
Fix,GT,37.3958131,-122.102975,-5.921999866254162,0.0020002804,0.1,208.82367,1625176727000
Fix,GT,37.3958131,-122.102975,-5.921999837298877,0.001,0.1,208.8237,1625176728000
Fix,GT,37.3958131,-122.102975,-5.922000161322299,0.0014137249,0.1,208.8237,1625176729000
Fix,GT,37.3958131,-122.102975,-5.922000132367015,0.0010004874,0.1,208.82379,1625176730000
Fix,GT,37.3958131,-122.102975,-5.9220001034117296,0.0014137279,0.1,208.82356,1625176731000
Fix,GT,37.3958131,-122.102975,-5.922000074456446,0.0014142137,0.1,208.82362,1625176732000
Fix,GT,37.3958131,-122.102975,-5.9219999855223575,0.0010004826,0.1,208.82347,1625176733000
Fix,GT,37.3958131,-122.102975,-5.921999956567072,0.0020002744,0.1,208.82411,1625176734000
Fix,GT,37.3958131,-122.102975,-5.921999927611789,0.001,0.1,208.8239,1625176735000
Fix,GT,37.3958131,-122.102975,-5.922,0.001,0.1,-151.17609,1625176736000
Fix,GT,37.3958131,-122.102975,-5.921999869701219,0.0014137372,0.1,208.82393,1625176737000
Fix,GT,37.3958131,-122.102975,-5.921999840745936,0.0010004748,0.1,208.82379,1625176738000
Fix,GT,37.3958131,-122.102975,-5.922000105479964,0.001,0.1,208.82375,1625176739000
Fix,GT,37.3958131,-122.102975,-5.9220000765246805,1.1387001e-06,0.1,208.82362,1625176740000
Fix,GT,37.3958131,-122.102975,-5.922000046879984,0.001,0.1,208.82375,1625176741000
Fix,GT,37.3958131,-122.102975,-5.9220000179247,0.0014126138,0.1,208.82368,1625176742000
Fix,GT,37.3958131,-122.102975,-5.921999988969415,0.0014142136,0.1,208.8236,1625176743000
Fix,GT,37.3958131,-122.102975,-5.921999960014131,0.0014142136,0.1,208.82349,1625176744000
Fix,GT,37.3958131,-122.102975,-5.921999990348238,0.0014142136,0.1,208.82346,1625176745000
Fix,GT,37.3958131,-122.102975,-5.921999960703543,0.0014142136,0.1,208.82329,1625176746000
Fix,GT,37.3958131,-122.102975,-5.921999931748258,0.0014151278,0.1,208.82353,1625176747000
Fix,GT,37.3958131,-122.102975,-5.921999902792973,0.0014142136,0.1,208.82356,1625176748000
Fix,GT,37.3958131,-122.102975,-5.921999873837689,0.00223516,0.1,208.82347,1625176749000
Fix,GT,37.3958131,-122.102975,-5.9219998448824045,0.002236068,0.099,208.82365,1625176750000
Fix,GT,37.3958131,-122.102975,-5.922000109616434,0.0014142136,0.1,208.82365,1625176751000
Fix,GT,37.3958131,-122.102975,-5.9220000806611495,0.0014142136,0.1,208.82352,1625176752000
Fix,GT,37.3958131,-122.102975,-5.922000110305845,0.0014142136,0.1,208.82356,1625176753000
Fix,GT,37.3958131,-122.102975,-5.9220000813505616,0.0014142137,0.1,208.82353,1625176754000
Fix,GT,37.3958131,-122.102975,-5.922,0.001,0.1,-151.17654,1625176755000
Fix,GT,37.3958131,-122.102975,-5.922000023439992,0.0019993682,0.1,208.82385,1625176756000
Fix,GT,37.3958131,-122.102975,-5.921999994484708,1.07479e-06,0.099,208.82367,1625176757000
Fix,GT,37.3958131,-122.102975,-5.921999965529423,0.000998929,0.1,208.82349,1625176758000
Fix,GT,37.3958131,-122.102975,-5.921999995174119,0.0,0.1,208.8236,1625176759000
Fix,GT,37.3958131,-122.102975,-5.921999966218834,0.0,0.1,208.82358,1625176760000
Fix,GT,37.3958131,-122.102975,-5.92199993726355,0.0,0.099,208.82364,1625176761000
Fix,GT,37.3958131,-122.102975,-5.9219999083082655,0.0,0.1,208.8239,1625176762000
Fix,GT,37.3958131,-122.102975,-5.92199987935298,0.0009989478,0.1,208.82393,1625176763000
Fix,GT,37.3958131,-122.102975,-5.921999850397697,0.0,0.1,208.82378,1625176764000
Fix,GT,37.3958131,-122.102975,-5.922000173731707,0.0,0.1,208.82393,1625176765000
Fix,GT,37.3958131,-122.102975,-5.922000144776423,0.0,0.1,208.82391,1625176766000
Fix,GT,37.3958131,-122.102975,-5.922000175110529,0.0,0.1,208.82402,1625176767000
Fix,GT,37.3958131,-122.102975,-5.922000146155245,0.0009989666,0.1,208.82416,1625176768000
Fix,GT,37.3958131,-122.102975,-5.921999823510647,0.0,0.099,208.82408,1625176769000
Fix,GT,37.3958131,-122.102975,-5.921999853155342,0.0,0.099,208.824,1625176770000
Fix,GT,37.3958131,-122.102975,-5.922,0.0,0.1,-151.17593,1625176771000
Fix,GT,37.3958131,-122.102975,-5.92200014822348,0.0,0.1,208.8242,1625176772000
Fix,GT,37.3958131,-122.102975,-5.922000119268195,0.0009989854,0.1,208.82423,1625176773000
Fix,GT,37.3958131,-122.102975,-5.922000090312911,0.0,0.1,208.82404,1625176774000
Fix,GT,37.3958131,-122.102975,-5.922000061357627,0.001,0.1,208.82396,1625176775000
Fix,GT,37.3958131,-122.102975,-5.922000031712931,0.0,0.1,208.82372,1625176776000
Fix,GT,37.3958131,-122.102975,-5.922000002757645,0.0,0.1,208.8237,1625176777000
Fix,GT,37.3958131,-122.102975,-5.921999973802362,0.0,0.1,208.82365,1625176778000
Fix,GT,37.3958131,-122.102975,-5.922000063425861,0.001,0.1,208.82372,1625176779000
Fix,GT,37.3958131,-122.102975,-5.922000093759968,9.883801e-07,0.1,208.82382,1625176780000
Fix,GT,37.3958131,-122.102975,-5.922000123404664,0.0,0.1,208.8239,1625176781000
Fix,GT,37.3958131,-122.102975,-5.9220000944493805,0.0,0.1,208.82382,1625176782000
Fix,GT,37.3958131,-122.102975,-5.922000124783487,0.000999023,0.1,208.8238,1625176783000
Fix,GT,37.3958131,-122.102975,-5.922000095483497,0.0,0.1,208.82368,1625176784000
Fix,GT,37.3958131,-122.102975,-5.922000066528213,0.0,0.1,208.8237,1625176785000
Fix,GT,37.3958131,-122.102975,-5.922,0.001,0.1,-151.17615,1625176786000
Fix,GT,37.3958131,-122.102975,-5.922000008617644,9.620801e-07,0.1,208.82405,1625176787000
Fix,GT,37.3958131,-122.102975,-5.921999920028262,0.0,0.1,208.82419,1625176788000
Fix,GT,37.3958131,-122.102975,-5.921999891072977,0.0,0.099,208.82394,1625176789000
Fix,GT,37.3958131,-122.102975,-5.922,0.001,0.1,-151.1762,1625176790000
Fix,GT,37.3958131,-122.102975,-5.9219998921070935,0.001,0.1,208.82396,1625176791000
Fix,GT,37.3958131,-122.102975,-5.92199986315181,0.0014142136,0.1,208.824,1625176792000
Fix,GT,37.3958131,-122.102975,-5.921999834196526,0.0009999999,0.099,208.8241,1625176793000
Fix,GT,37.3958131,-122.102975,-5.9220001578752415,0.001413826,0.1,208.82391,1625176794000
Fix,GT,37.3958131,-122.102975,-5.921999835230643,0.001,0.1,208.8243,1625176795000
Fix,GT,37.3958131,-122.102975,-5.9219998652200445,0.001,0.1,208.82437,1625176796000
Fix,GT,37.3958131,-122.102975,-5.921999895554152,0.0009990755,0.1,208.82416,1625176797000
Fix,GT,37.3958131,-122.102975,-5.921999925543554,0.0009990793,0.1,208.82411,1625176798000
Fix,GT,37.3958131,-122.102975,-5.921999955877662,0.001,0.099,208.8243,1625176799000
Fix,GT,37.3958131,-122.102975,-5.921999985867063,9.1326e-07,0.1,208.82452,1625176800000
Fix,GT,37.3958131,-122.102975,-5.921999956911779,0.0009990905,0.1,208.8244,1625176801000
Fix,GT,37.3958131,-122.102975,-5.921999987245886,0.0,0.1,208.82425,1625176802000
Fix,GT,37.3958131,-122.102975,-5.921999957945896,0.001,0.1,208.82405,1625176803000
Fix,GT,37.3958131,-122.102975,-5.921999928990611,0.0009991018,0.1,208.8239,1625176804000
Fix,GT,37.3958131,-122.102975,-5.921999900035328,0.0009999999,0.1,208.82372,1625176805000
Fix,GT,37.3958131,-122.102975,-5.921999870735337,0.0,0.1,208.82396,1625176806000
Fix,GT,37.3958131,-122.102975,-5.921999901069444,0.001,0.1,208.82391,1625176807000
Fix,GT,37.3958131,-122.102975,-5.922000165803474,0.0009991169,0.1,208.8241,1625176808000
Fix,GT,37.3958131,-122.102975,-5.922000136503484,0.0,0.1,208.824,1625176809000
Fix,GT,37.3958131,-122.102975,-5.922000166837592,0.001,0.1,208.82387,1625176810000
Fix,GT,37.3958131,-122.102975,-5.922000137882307,0.0014138524,0.1,208.82396,1625176811000
Fix,GT,37.3958131,-122.102975,-5.922000108582316,0.001,0.1,208.82426,1625176812000
Fix,GT,37.3958131,-122.102975,-5.922000138916425,0.001,0.1,208.82414,1625176813000
Fix,GT,37.3958131,-122.102975,-5.921999875216511,0.001,0.1,208.82402,1625176814000
Fix,GT,37.3958131,-122.102975,-5.921999846261228,0.0,0.1,208.82414,1625176815000
Fix,GT,37.3958131,-122.102975,-5.922000169939944,0.0,0.1,208.82407,1625176816000
Fix,GT,37.3958131,-122.102975,-5.922000081695267,0.001,0.1,208.82402,1625176817000
Fix,GT,37.3958131,-122.102975,-5.922000052739982,8.4562004e-07,0.1,208.82393,1625176818000
Fix,GT,37.3958131,-122.102975,-5.922000023784698,8.4186007e-07,0.1,208.824,1625176819000
Fix,GT,37.3958131,-122.102975,-5.9220000537741,0.000999162,0.1,208.82397,1625176820000
Fix,GT,37.3958131,-122.102975,-5.922000084108207,0.0,0.1,208.82402,1625176821000
Fix,GT,37.3958131,-122.102975,-5.922000114097609,8.3061e-07,0.1,208.8239,1625176822000
Fix,GT,37.3958131,-122.102975,-5.922000144431717,0.0,0.1,208.82402,1625176823000
Fix,GT,37.3958131,-122.102975,-5.922000115131726,0.0,0.1,208.82416,1625176824000
Fix,GT,37.3958131,-122.102975,-5.922000086176442,0.0,0.1,208.82437,1625176825000
Fix,GT,37.3958131,-122.102975,-5.922000116510549,0.0,0.1,208.82431,1625176826000
Fix,GT,37.3958131,-122.102975,-5.922000087210559,0.0,0.1,208.82434,1625176827000
Fix,GT,37.3958131,-122.102975,-5.922000117544666,0.0,0.1,208.82422,1625176828000
Fix,GT,37.3958131,-122.102975,-5.922000088244677,0.0,0.1,208.82413,1625176829000
Fix,GT,37.3958131,-122.102975,-5.922000059289392,0.001,0.1,208.82413,1625176830000
Fix,GT,37.3958131,-122.102975,-5.922000030334107,0.0014138835,0.1,208.82433,1625176831000
Fix,GT,37.3958131,-122.102975,-5.9220001196129015,7.9306005e-07,0.1,208.82431,1625176832000
Fix,GT,37.3958131,-122.102975,-5.922000149947009,0.0014138867,0.1,208.82433,1625176833000
Fix,GT,37.3958131,-122.102975,-5.922000120647018,0.001,0.1,208.82419,1625176834000
Fix,GT,37.3958131,-122.102975,-5.922000091691734,0.0014142136,0.1,208.82408,1625176835000
Fix,GT,37.3958131,-122.102975,-5.922000121681136,0.0014142137,0.1,208.82417,1625176836000
Fix,GT,37.3958131,-122.102975,-5.922,0.0014142136,0.1,-151.17578,1625176837000
Fix,GT,37.3958131,-122.102975,-5.922000123059958,0.0014142136,0.1,208.82428,1625176838000
Fix,GT,37.3958131,-122.102975,-5.922000153049361,0.0014142136,0.1,208.82442,1625176839000
Fix,GT,37.3958131,-122.102975,-5.922000124094076,0.0014142136,0.1,208.82428,1625176840000
Fix,GT,37.3958131,-122.102975,-5.922000094794086,0.001,0.1,208.82445,1625176841000
Fix,GT,37.3958131,-122.102975,-5.922000125128194,0.0022351341,0.1,208.82454,1625176842000
Fix,GT,37.3958131,-122.102975,-5.922000096172909,0.0014142136,0.1,208.82452,1625176843000
Fix,GT,37.3958131,-122.102975,-5.922000066872919,0.00100031,0.1,208.82446,1625176844000
Fix,GT,37.3958131,-122.102975,-5.922000097207027,0.001,0.1,208.82452,1625176845000
Fix,GT,37.3958131,-122.102975,-5.922000127196428,0.0014142136,0.1,208.82465,1625176846000
Fix,GT,37.3958131,-122.102975,-5.922000098241144,0.0014139083,0.1,208.82452,1625176847000
Fix,GT,37.3958131,-122.102975,-5.922000128575251,0.0014142136,0.1,208.82462,1625176848000
Fix,GT,37.3958131,-122.102975,-5.922000158564654,0.0014142137,0.1,208.82462,1625176849000
Fix,GT,37.3958131,-122.102975,-5.922000129609368,0.0014142136,0.1,208.82474,1625176850000
Fix,GT,37.3958131,-122.102975,-5.92200015959877,0.0014142136,0.1,208.82486,1625176851000
Fix,GT,37.3958131,-122.102975,-5.922000130643486,0.002235478,0.1,208.82474,1625176852000
Fix,GT,37.3958131,-122.102975,-5.922000160632888,0.0014142136,0.1,208.82469,1625176853000
Fix,GT,37.3958131,-122.102975,-5.922000131677603,0.0014142137,0.1,208.82481,1625176854000
Fix,GT,37.3958131,-122.102975,-5.922000162011711,0.0014142136,0.1,208.825,1625176855000
Fix,GT,37.3958131,-122.102975,-5.92200013271172,0.0014142136,0.1,208.82503,1625176856000
Fix,GT,37.3958131,-122.102975,-5.922000163045828,0.0019995905,0.1,208.82501,1625176857000
Fix,GT,37.3958131,-122.102975,-5.922000133745837,0.0014142136,0.1,208.82452,1625176858000
Fix,GT,37.3958131,-122.102975,-5.922000104790554,0.0014146188,0.1,208.82436,1625176859000
Fix,GT,37.3958131,-122.102975,-5.9220001351246605,0.0014146165,0.1,208.82446,1625176860000
Fix,GT,37.3958131,-122.102975,-5.922000105824671,0.0010008457,0.1,208.82454,1625176861000
Fix,GT,37.3958131,-122.102975,-5.922000136158778,0.0010000002,0.1,208.82437,1625176862000
Fix,GT,37.3958131,-122.102975,-5.922000106858788,0.0010008365,0.1,208.82426,1625176863000
Fix,GT,37.3958131,-122.102975,-5.922000137192895,9.516243e-07,0.1,208.82457,1625176864000
Fix,GT,37.3958131,-122.102975,-5.922000167182298,0.0010002772,0.1,208.82475,1625176865000
Fix,GT,37.3958131,-122.102975,-5.921999844537698,0.0019996103,0.1,208.82462,1625176866000
Fix,GT,37.3958131,-122.102975,-5.922000109271728,0.001,0.1,208.82468,1625176867000
Fix,GT,37.3958131,-122.102975,-5.92200013926113,6.5788004e-07,0.1,208.82466,1625176868000
Fix,GT,37.3958131,-122.102975,-5.922000169595238,0.001,0.1,208.82477,1625176869000
Fix,GT,37.3958131,-122.102975,-5.921999905895325,6.5039e-07,0.1,208.82484,1625176870000
Fix,GT,37.3958131,-122.102975,-5.921999876940041,6.4663004e-07,0.1,208.82484,1625176871000
Fix,GT,37.3958131,-122.102975,-5.921999906929442,0.001,0.099,208.8248,1625176872000
Fix,GT,37.3958131,-122.102975,-5.92199993726355,0.001,0.1,208.82452,1625176873000
Fix,GT,37.3958131,-122.102975,-5.92199990796356,0.0009993647,0.1,208.82448,1625176874000
Fix,GT,37.3958131,-122.102975,-5.921999938297668,0.0009993684,0.1,208.82457,1625176875000
Fix,GT,37.3958131,-122.102975,-5.921999909342382,0.0,0.099,208.82484,1625176876000
Fix,GT,37.3958131,-122.102975,-5.921999880042393,0.0,0.1,208.82497,1625176877000
Fix,GT,37.3958131,-122.102975,-5.921999851087108,0.0,0.1,208.82477,1625176878000
Fix,GT,37.3958131,-122.102975,-5.92200017511053,0.0009993835,0.1,208.82481,1625176879000
Fix,GT,37.3958131,-122.102975,-5.922000145810539,6.1282003e-07,0.1,208.82469,1625176880000
Fix,GT,37.3958131,-122.102975,-5.922000116855255,0.001,0.1,208.82478,1625176881000
Fix,GT,37.3958131,-122.102975,-5.922000087899971,0.0014142136,0.1,208.82484,1625176882000
Fix,GT,37.3958131,-122.102975,-5.922000117889373,0.001,0.1,208.8248,1625176883000
Fix,GT,37.3958131,-122.102975,-5.922000088934087,0.001,0.1,208.82454,1625176884000
Fix,GT,37.3958131,-122.102975,-5.92200011892349,5.9404e-07,0.1,208.82484,1625176885000
Fix,GT,37.3958131,-122.102975,-5.922000149257597,0.0009994098,0.1,208.82487,1625176886000
Fix,GT,37.3958131,-122.102975,-5.922000120302313,5.8653006e-07,0.1,208.82465,1625176887000
Fix,GT,37.3958131,-122.102975,-5.922000150291715,0.001,0.1,208.825,1625176888000
Fix,GT,37.3958131,-122.102975,-5.92200012133643,5.7902e-07,0.1,208.82487,1625176889000
Fix,GT,37.3958131,-122.102975,-5.922000151325832,5.7527e-07,0.1,208.825,1625176890000
Fix,GT,37.3958131,-122.102975,-5.922000063081155,0.0,0.1,208.82486,1625176891000
Fix,GT,37.3958131,-122.102975,-5.922000152704655,0.0,0.1,208.82478,1625176892000
Fix,GT,37.3958131,-122.102975,-5.922000123404665,0.0,0.1,208.82497,1625176893000
Fix,GT,37.3958131,-122.102975,-5.922000153738772,0.0,0.1,208.82494,1625176894000
Fix,GT,37.3958131,-122.102975,-5.921999830749468,0.0,0.099,208.82497,1625176895000
Fix,GT,37.3958131,-122.102975,-5.922000154772889,0.001,0.1,208.82523,1625176896000
Fix,GT,37.3958131,-122.102975,-5.921999831783586,0.0,0.1,208.82501,1625176897000
Fix,GT,37.3958131,-122.102975,-5.921999862117692,7.710858e-07,0.1,208.8248,1625176898000
Fix,GT,37.3958131,-122.102975,-5.921999892107094,0.0014139892,0.099,208.82503,1625176899000
Fix,GT,37.3958131,-122.102975,-5.921999922441202,5.3774005e-07,0.1,208.82512,1625176900000
Fix,GT,37.3958131,-122.102975,-5.922000011719996,0.001,0.1,208.82452,1625176901000
Fix,GT,37.3958131,-122.102975,-5.921999982764711,0.0009994698,0.1,208.82466,1625176902000
Fix,GT,37.3958131,-122.102975,-5.922000012754114,0.0010000002,0.1,208.82486,1625176903000
Fix,GT,37.3958131,-122.102975,-5.922000043088221,0.0010002166,0.1,208.82498,1625176904000
Fix,GT,37.3958131,-122.102975,-5.922000014132936,5.189801e-07,0.1,208.82487,1625176905000
Fix,GT,37.3958131,-122.102975,-5.9220000441223375,5.1523e-07,0.1,208.82481,1625176906000
Fix,GT,37.3958131,-122.102975,-5.922000015167054,0.0,0.1,208.82465,1625176907000
Fix,GT,37.3958131,-122.102975,-5.922000045156455,0.0,0.1,208.82462,1625176908000
Fix,GT,37.3958131,-122.102975,-5.922000016201171,5.0396005e-07,0.1,208.82497,1625176909000
Fix,GT,37.3958131,-122.102975,-5.922000046190573,0.0,0.1,208.82506,1625176910000
