MessageType,Provider,LatitudeDegrees,LongitudeDegrees,AltitudeMeters,SpeedMps,AccuracyMeters,BearingDegrees,UnixTimeMillis
Fix,GT,37.4150395,-122.0790415,-23.26100068240008,0.005653811,0.1,337.56616,1639594138000
Fix,GT,37.4150395,-122.0790415,-23.26100011914922,0.005,0.1,337.56567,1639594139000
Fix,GT,37.4150395,-122.0790415,-23.26099978336505,0.0044710734,0.1,337.56345,1639594140000
Fix,GT,37.4150395,-122.0790415,-23.26099944758089,0.0058271037,0.099,337.5648,1639594141000
Fix,GT,37.4150395,-122.0790415,-23.26099935009517,0.005656854,0.1,337.5638,1639594142000
Fix,GT,37.4150395,-122.0790415,-23.260999480076133,0.0058288877,0.1,337.56448,1639594143000
Fix,GT,37.4150395,-122.0790415,-23.26099938259041,0.0028360356,0.1,337.5639,1639594144000
Fix,GT,37.4150395,-122.0790415,-23.261000660736578,0.00500304,0.1,337.56378,1639594145000
Fix,GT,37.4150395,-122.0790415,-23.26099987001903,0.005,0.1,337.56406,1639594146000
Fix,GT,37.4150395,-122.0790415,-23.261000010831747,0.005,0.1,337.56384,1639594147000
Fix,GT,37.4150395,-122.0790415,-23.261000140812712,0.005,0.1,337.56384,1639594148000
Fix,GT,37.4150395,-122.0790415,-23.26099980502855,0.0058271084,0.1,337.5638,1639594149000
Fix,GT,37.4150395,-122.0790415,-23.26099945841264,0.004246143,0.099,337.5639,1639594150000
Fix,GT,37.4150395,-122.0790415,-23.26100050909212,0.0050030374,0.1,337.56424,1639594151000
Fix,GT,37.4150395,-122.0790415,-23.2610004116064,0.005,0.1,337.56415,1639594152000
Fix,GT,37.4150395,-122.0790415,-23.26099984835554,0.005,0.1,337.564,1639594153000
Fix,GT,37.4150395,-122.0790415,-23.260999740038063,0.005,0.1,337.5642,1639594154000
Fix,GT,37.4150395,-122.0790415,-23.26100010831747,0.005,0.1,337.5641,1639594155000
Fix,GT,37.4150395,-122.0790415,-23.26100047659688,0.0042426405,0.1,337.5641,1639594156000
Fix,GT,37.4150395,-122.0790415,-23.260999447580893,0.00424264,0.1,337.56387,1639594157000
Fix,GT,37.4150395,-122.0790415,-23.260999350095165,0.003605551,0.099,337.56406,1639594158000
Fix,GT,37.4150395,-122.0790415,-23.260999945841263,0.0036055513,0.1,337.56406,1639594159000
Fix,GT,37.4150395,-122.0790415,-23.261000075822228,0.0031622776,0.1,337.56418,1639594160000
Fix,GT,37.4150395,-122.0790415,-23.26100067156833,0.0036035045,0.1,337.56403,1639594161000
Fix,GT,37.4150395,-122.0790415,-23.260999653384086,0.002236068,0.1,337.5641,1639594162000
Fix,GT,37.4150395,-122.0790415,-23.26099954506661,0.003,0.099,337.56403,1639594163000
Fix,GT,37.4150395,-122.0790415,-23.260999913346023,0.002004616,0.1,337.56403,1639594164000
Fix,GT,37.4150395,-122.0790415,-23.261000043326987,0.003,0.1,337.56412,1639594165000
Fix,GT,37.4150395,-122.0790415,-23.26100017330796,0.0031622776,0.1,337.5639,1639594166000
Fix,GT,37.4150395,-122.0790415,-23.26100054158736,0.0031622779,0.1,337.56403,1639594167000
Fix,GT,37.4150395,-122.0790415,-23.26099975086981,0.0031622776,0.1,337.56387,1639594168000
Fix,GT,37.4150395,-122.0790415,-23.26099988085078,0.0036055513,0.1,337.564,1639594169000
Fix,GT,37.4150395,-122.0790415,-23.261000249130184,0.0044618235,0.1,337.5638,1639594170000
Fix,GT,37.4150395,-122.0790415,-23.261000379111152,0.0041271495,0.1,337.56268,1639594171000
Fix,GT,37.4150395,-122.0790415,-23.26100050909212,0.0028320102,0.1,337.56427,1639594172000
Fix,GT,37.4150395,-122.0790415,-23.26099949090788,0.006393165,0.1,337.56516,1639594173000
Fix,GT,37.4150395,-122.0790415,-23.26099938259041,0.0028284271,0.099,337.5655,1639594174000
Fix,GT,37.4150395,-122.0790415,-23.260999512571374,0.005389494,0.1,337.5644,1639594175000
Fix,GT,37.4150395,-122.0790415,-23.260999653384086,0.005828898,0.1,337.5647,1639594176000
Fix,GT,37.4150395,-122.0790415,-23.261000010831747,0.006322281,0.1,337.5644,1639594177000
Fix,GT,37.4150395,-122.0790415,-23.261000606577845,0.005830952,0.1,337.56378,1639594178000
Fix,GT,37.4150395,-122.0790415,-23.260999350095165,0.006326322,0.1,337.56357,1639594179000
Fix,GT,37.4150395,-122.0790415,-23.26099971837457,0.0063245553,0.1,337.5632,1639594180000
Fix,GT,37.4150395,-122.0790415,-23.26099938259041,0.0063245553,0.1,337.5631,1639594181000
Fix,GT,37.4150395,-122.0790415,-23.260999512571374,0.0053851646,0.099,337.56302,1639594182000
Fix,GT,37.4150395,-122.0790415,-23.260999642552346,0.0063245553,0.1,337.56302,1639594183000
Fix,GT,37.4150395,-122.0790415,-23.26099978336505,0.0053851646,0.1,337.56296,1639594184000
Fix,GT,37.4150395,-122.0790415,-23.260999675047582,0.0053851646,0.1,337.56262,1639594185000
Fix,GT,37.4150395,-122.0790415,-23.260999805028547,0.0041247117,0.1,337.5623,1639594186000
Fix,GT,37.4150395,-122.0790415,-23.260999945841263,0.0044705304,0.1,337.56235,1639594187000
Fix,GT,37.4150395,-122.0790415,-23.26099983752379,0.0036055513,0.1,337.56204,1639594188000
Fix,GT,37.4150395,-122.0790415,-23.26099996750476,0.0035992523,0.099,337.56238,1639594189000
Fix,GT,37.4150395,-122.0790415,-23.260999870019035,0.002236068,0.1,337.5621,1639594190000
Fix,GT,37.4150395,-122.0790415,-23.261,0.002236068,0.1,337.5621,1639594191000
Fix,GT,37.4150395,-122.0790415,-23.260999664215834,0.0014123091,0.1,337.5619,1639594192000
Fix,GT,37.4150395,-122.0790415,-23.26200048744958,4.59691e-06,0.1,337.56183,1639594193000
Fix,GT,37.4150395,-122.0790415,-23.26500039000996,0.0,0.1,337.56174,1639594194000
Fix,GT,37.4150395,-122.0790415,-23.2680048773,0.00141231,0.1,337.56177,1639594195000
Fix,GT,37.4150394,-122.0790412,-23.19997238726541,0.002004595,0.1,337.5614,1639594196000
Fix,GT,37.4150394,-122.0790412,-23.19299984879885,0.005827589,0.1,337.55948,1639594197000
Fix,GT,37.4150394,-122.0790412,-23.195008938776795,0.0063120653,0.1,337.56076,1639594198000
Fix,GT,37.4150394,-122.0790412,-23.209004009323195,0.0041391472,0.099,337.56256,1639594199000
Fix,GT,37.4150394,-122.0790411,-23.221000237888656,0.008058349,0.1,337.56335,1639594200000
Fix,GT,37.4150394,-122.0790411,-23.22200449425774,0.0072919047,0.1,337.5594,1639594201000
Fix,GT,37.4150393,-122.079041,-23.23199934008717,0.014032826,0.1,337.5614,1639594202000
Fix,GT,37.4150393,-122.0790409,-23.237009331927634,0.0032627927,0.1,337.56958,1639594203000
Fix,GT,37.4150418,-122.0790415,-23.26201406118041,0.625566,0.1,338.71136,1639594204000
Fix,GT,37.4150487,-122.0790436,-23.285022662533446,0.8538125,0.099,341.01825,1639594205000
Fix,GT,37.4150583,-122.0790476,-23.32602232196415,1.5172409,0.1,340.70615,1639594206000
Fix,GT,37.4150769,-122.0790561,-23.39301396959089,2.848613,0.1,340.29407,1639594207000
Fix,GT,37.4151064,-122.0790685,-23.41404526883364,4.020713,0.1,340.84747,1639594208000
Fix,GT,37.4151433,-122.0790844,-23.389977069199087,4.4140863,0.1,340.83853,1639594209000
Fix,GT,37.4151798,-122.0791004,-23.384091132478787,4.1242642,0.1,340.42752,1639594210000
Fix,GT,37.4152134,-122.0791157,-23.365040588809176,3.788038,0.099,339.88626,1639594211000
Fix,GT,37.4152446,-122.0791269,-23.354013904671184,3.4048548,0.1,344.41898,1639594212000
Fix,GT,37.4152732,-122.0791272,-23.32399523189152,3.0040827,0.099,357.79446,1639594213000
Fix,GT,37.4152987,-122.0791193,-23.296995135128498,2.8736463,0.1,9.957062,1639594214000
Fix,GT,37.4153238,-122.0791123,-23.32304154317826,2.8653345,0.1,11.122498,1639594215000
Fix,GT,37.4153465,-122.0791073,-23.36301805377797,2.0988567,0.1,10.15506,1639594216000
Fix,GT,37.415364,-122.0791038,-23.40801382942125,2.014141,0.1,9.350189,1639594217000
Fix,GT,37.4153838,-122.0790969,-23.43799493971653,2.731055,0.1,14.000549,1639594218000
Fix,GT,37.4154082,-122.0790774,-23.4969817919368,3.738354,0.1,30.64624,1639594219000
Fix,GT,37.4154316,-122.0790373,-23.490022193342448,5.1252756,0.1,53.746704,1639594220000
Fix,GT,37.4154495,-122.0789757,-23.57193580934871,6.519839,0.1,70.56183,1639594221000
Fix,GT,37.4154681,-122.0788993,-23.65803617789596,7.6600776,0.1,72.66928,1639594222000
Fix,GT,37.4154887,-122.0788151,-23.769040647595187,7.946161,0.099,72.95349,1639594223000
Fix,GT,37.4155084,-122.0787319,-23.860064352596176,7.387457,0.1,73.51959,1639594224000
Fix,GT,37.4155253,-122.0786568,-23.98305508180708,6.4419684,0.1,74.27783,1639594225000
Fix,GT,37.4155381,-122.0785927,-24.071086266709493,5.295441,0.1,76.1485,1639594226000
Fix,GT,37.4155453,-122.0785428,-24.1740367937442,3.610541,0.1,80.24997,1639594227000
Fix,GT,37.4155473,-122.0785123,-24.25901429569069,1.9374728,0.1,83.520386,1639594228000
Fix,GT,37.4155482,-122.0784983,-24.30602789887413,0.66473985,0.1,84.06958,1639594229000
Fix,GT,37.4155485,-122.0784943,-24.350009495124223,0.05049323,0.1,84.16156,1639594230000
Fix,GT,37.4155484,-122.078494,-24.37400529751181,0.012526192,0.1,84.16611,1639594231000
Fix,GT,37.4155482,-122.0784931,-24.38599556583725,0.012074877,0.1,84.16513,1639594232000
Fix,GT,37.4155481,-122.0784916,-24.39001420891844,0.007273488,0.1,84.16519,1639594233000
Fix,GT,37.4155481,-122.0784918,-24.42100855809217,0.0060823844,0.099,84.16461,1639594234000
Fix,GT,37.415548,-122.078492,-24.444009170827457,0.0050990195,0.1,84.164795,1639594235000
Fix,GT,37.415548,-122.0784922,-24.45800954528898,0.0041187173,0.1,84.16467,1639594236000
Fix,GT,37.415548,-122.0784924,-24.474013028420977,0.0031661033,0.1,84.16455,1639594237000
Fix,GT,37.415548,-122.0784926,-24.49200932640489,0.002232315,0.1,84.16376,1639594238000
Fix,GT,37.415548,-122.0784928,-24.51001425593393,0.0010158523,0.1,84.1658,1639594239000
Fix,GT,37.415548,-122.0784931,-24.530013420466336,0.0014077579,0.1,84.1651,1639594240000
Fix,GT,37.415548,-122.0784933,-24.551014035513624,0.0022323169,0.1,84.16464,1639594241000
Fix,GT,37.415548,-122.0784935,-24.573014411330224,0.0014179641,0.1,84.16412,1639594242000
Fix,GT,37.415548,-122.0784936,-24.59701428388059,0.002244678,0.1,84.163605,1639594243000
Fix,GT,37.415548,-122.0784938,-24.622014167671093,0.004470544,0.1,84.16342,1639594244000
Fix,GT,37.4155479,-122.0784938,-24.64702342641726,0.0030875942,0.1,84.1655,1639594245000
Fix,GT,37.4155481,-122.0784908,-24.695026639251505,0.6513809,0.1,84.23602,1639594246000
Fix,GT,37.4155491,-122.078478,-24.75503587985225,1.6970562,0.1,84.395294,1639594247000
Fix,GT,37.4155501,-122.0784524,-24.80402688163798,2.9053962,0.099,86.31415,1639594248000
Fix,GT,37.4155512,-122.0784121,-24.900036375239488,4.2697506,0.1,87.60968,1639594249000
Fix,GT,37.41555,-122.0783572,-25.003045869073365,5.298488,0.1,92.258545,1639594250000
Fix,GT,37.415539,-122.078298,-25.09707259838144,5.557189,0.1,106.0733,1639594251000
Fix,GT,37.4155104,-122.0782458,-25.18000511925668,5.8059473,0.1,128.39084,1639594252000
Fix,GT,37.4154632,-122.0782132,-25.14505437627574,6.4166055,0.1,155.88373,1639594253000
Fix,GT,37.4154013,-122.0782071,-25.1610312294364,7.555977,0.099,178.38904,1639594254000
Fix,GT,37.4153272,-122.0782115,-25.13798657091521,8.910688,0.1,182.79138,1639594255000
Fix,GT,37.4152415,-122.078217,-25.212990258581005,10.191055,0.099,182.1898,1639594256000
Fix,GT,37.4151458,-122.0782198,-25.13795041990885,10.865988,0.1,181.10793,1639594257000
Fix,GT,37.4150466,-122.0782206,-25.053967771883585,11.120046,0.1,180.41049,1639594258000
Fix,GT,37.4149473,-122.0782206,-24.95694109571725,10.86989,0.1,180.35251,1639594259000
Fix,GT,37.4148509,-122.0782212,-24.873940258244986,10.525728,0.099,180.85263,1639594260000
Fix,GT,37.4147577,-122.0782227,-24.77300964278401,10.145907,0.1,180.85547,1639594261000
Fix,GT,37.4146676,-122.0782231,-24.718917554683987,9.856864,0.1,180.46194,1639594262000
Fix,GT,37.4145803,-122.0782239,-24.60096391794598,9.466371,0.1,180.5543,1639594263000
Fix,GT,37.4144975,-122.0782244,-24.458981283157133,8.880929,0.1,180.3816,1639594264000
Fix,GT,37.4144216,-122.0782247,-24.35896777035296,7.9105997,0.1,180.26538,1639594265000
Fix,GT,37.4143549,-122.078225,-24.273986574275884,6.89362,0.1,180.31122,1639594266000
Fix,GT,37.4142978,-122.0782251,-24.212959671132268,5.7764654,0.1,180.38014,1639594267000
Fix,GT,37.4142511,-122.0782251,-24.15398611623328,4.5333576,0.1,180.36147,1639594268000
Fix,GT,37.4142165,-122.0782252,-24.12098697225936,3.1844814,0.1,180.53447,1639594269000
Fix,GT,37.4141921,-122.078225,-24.093994995934423,2.3187,0.1,180.4005,1639594270000
Fix,GT,37.4141742,-122.0782248,-24.078990812366364,1.689741,0.1,180.17424,1639594271000
Fix,GT,37.4141623,-122.0782245,-24.069994773603508,0.948749,0.1,180.0041,1639594272000
Fix,GT,37.4141571,-122.0782243,-24.06700016810605,0.20407423,0.1,179.91907,1639594273000
Fix,GT,37.4141569,-122.0782242,-24.07099933867297,0.013038405,0.1,179.91644,1639594274000
Fix,GT,37.4141569,-122.0782242,-24.070999708567747,0.01019481,0.1,179.91583,1639594275000
Fix,GT,37.4141569,-122.0782242,-24.07100054923772,0.0070048226,0.1,179.9137,1639594276000
Fix,GT,37.4141569,-122.0782242,-24.070999966373204,0.0060872487,0.1,179.91351,1639594277000
Fix,GT,37.4141569,-122.0782242,-24.071000571655578,0.00509902,0.1,179.91345,1639594278000
Fix,GT,37.4141569,-122.0782241,-24.07100023538759,0.004120757,0.1,179.91333,1639594279000
Fix,GT,37.4141569,-122.0782241,-24.07099964131415,0.0031622776,0.1,179.91309,1639594280000
Fix,GT,37.4141569,-122.0782242,-24.071000493193047,0.0028319524,0.1,179.91357,1639594281000
Fix,GT,37.4141569,-122.0782242,-24.07099991032854,0.0022422797,0.1,179.91351,1639594282000
Fix,GT,37.4141569,-122.0782241,-24.07099956285162,0.0014142134,0.1,179.91333,1639594283000
Fix,GT,37.4141569,-122.0782241,-24.070999932746403,0.0035956146,0.1,179.91309,1639594284000
Fix,GT,37.4141569,-122.0782241,-24.07099933867296,0.0014142136,0.099,179.91321,1639594285000
Fix,GT,37.4141569,-122.0782241,-24.07100019055186,0.001995467,0.1,179.91327,1639594286000
Fix,GT,37.4141569,-122.0782241,-24.07099936109083,0.0014078037,0.099,179.91315,1639594287000
Fix,GT,37.4141569,-122.0782241,-24.070999977582137,0.0022349982,0.1,179.91302,1639594288000
Fix,GT,37.4141569,-122.0782242,-24.070999383508696,0.0020010697,0.1,179.91345,1639594289000
Fix,GT,37.4141569,-122.0782242,-24.0710002353876,0.0022323448,0.1,179.91357,1639594290000
Fix,GT,37.4141569,-122.0782241,-24.07099965252308,0.001416867,0.1,179.91333,1639594291000
Fix,GT,37.4141569,-122.078224,-24.06699596409128,0.0014142137,0.1,179.91309,1639594292000
Fix,GT,37.4141568,-122.0782239,-24.05999991036952,0.0019973475,0.1,179.91321,1639594293000
Fix,GT,37.4141568,-122.0782239,-24.060000515375283,0.002236068,0.1,179.91309,1639594294000
Fix,GT,37.4141568,-122.078224,-24.060000179260967,0.001,0.1,179.91351,1639594295000
Fix,GT,37.4141568,-122.078224,-24.05899958547624,0.0014123387,0.1,179.91357,1639594296000
Fix,GT,37.4141568,-122.078224,-24.056995911274104,0.004000557,0.1,179.91412,1639594297000
Fix,GT,37.4141568,-122.078224,-24.05400008960813,0.00600905,0.1,179.91382,1639594298000
Fix,GT,37.4141568,-122.0782238,-24.051999507196246,0.010313033,0.1,179.91284,1639594299000
Fix,GT,37.4141549,-122.0782237,-24.04899583476781,0.49339294,0.1,179.88,1639594300000
Fix,GT,37.4141483,-122.0782235,-24.03499120036792,0.95828366,0.1,179.763,1639594301000
Fix,GT,37.4141372,-122.0782231,-24.01699061998632,1.605783,0.1,179.68744,1639594302000
Fix,GT,37.4141187,-122.0782227,-23.984977905917912,2.5741189,0.1,179.69965,1639594303000
Fix,GT,37.4140892,-122.0782224,-23.924977562613787,4.0228443,0.1,179.8601,1639594304000
Fix,GT,37.4140463,-122.0782218,-23.8499453464346,5.4789286,0.099,179.7185,1639594305000
Fix,GT,37.413992,-122.0782208,-23.70993620724231,6.5201883,0.1,179.68994,1639594306000
Fix,GT,37.4139286,-122.0782205,-23.572955359953458,7.5355096,0.1,180.12752,1639594307000
Fix,GT,37.4138575,-122.0782205,-23.48490081787668,8.234456,0.1,180.4234,1639594308000
Fix,GT,37.4137799,-122.0782207,-23.354004397924523,9.017512,0.1,180.28195,1639594309000
Fix,GT,37.4136953,-122.07822,-23.179851634114986,9.734746,0.1,179.85938,1639594310000
Fix,GT,37.4136046,-122.0782197,-22.91883302904293,10.4082575,0.1,180.38608,1639594311000
Fix,GT,37.4135084,-122.0782198,-22.60183272579359,10.8841915,0.1,180.22528,1639594312000
Fix,GT,37.4134084,-122.0782194,-22.184710543382447,11.351463,0.1,180.0573,1639594313000
Fix,GT,37.413303,-122.0782191,-21.56065632920013,11.945094,0.099,180.47766,1639594314000
Fix,GT,37.413194,-122.0782197,-20.81763908399735,12.287382,0.1,180.41724,1639594315000
Fix,GT,37.4130805,-122.0782195,-20.051611969582737,12.804037,0.1,180.43285,1639594316000
Fix,GT,37.412965,-122.0782201,-19.15762057628017,12.835122,0.1,180.57602,1639594317000
Fix,GT,37.4128507,-122.078221,-18.269580872917548,12.4744215,0.1,180.7325,1639594318000
Fix,GT,37.4127403,-122.0782213,-17.408648503073024,12.093982,0.1,180.42076,1639594319000
Fix,GT,37.412632,-122.0782216,-16.57562123835832,11.954026,0.1,180.55692,1639594320000
Fix,GT,37.4125242,-122.0782223,-15.826702706633602,12.012191,0.1,180.70377,1639594321000
Fix,GT,37.4124169,-122.0782235,-15.129720707409083,11.662492,0.1,181.01279,1639594322000
Fix,GT,37.4123146,-122.0782257,-14.605788151425775,11.055708,0.1,181.46504,1639594323000
Fix,GT,37.4122164,-122.0782288,-14.161841928943527,10.919651,0.1,181.95349,1639594324000
Fix,GT,37.4121188,-122.078232,-13.801868936461862,10.625172,0.1,181.7229,1639594325000
Fix,GT,37.4120252,-122.0782339,-13.514892104621977,10.219125,0.1,181.1754,1639594326000
Fix,GT,37.4119321,-122.0782346,-13.317936849281192,10.569308,0.1,180.36499,1639594327000
Fix,GT,37.4118341,-122.0782348,-13.196959327837453,11.134161,0.1,180.46025,1639594328000
Fix,GT,37.4117336,-122.0782355,-13.139004320580511,11.078106,0.1,180.58203,1639594329000
Fix,GT,37.4116346,-122.0782368,-13.189018290171864,10.929029,0.1,180.97092,1639594330000
Fix,GT,37.4115366,-122.0782387,-13.342072131456808,10.78216,0.1,181.00061,1639594331000
Fix,GT,37.4114402,-122.0782413,-13.553175342075528,10.664308,0.1,181.83522,1639594332000
Fix,GT,37.4113448,-122.0782493,-13.843166250314564,10.569284,0.099,184.91873,1639594333000
Fix,GT,37.411253,-122.0782652,-14.19418036128022,9.93653,0.1,189.55017,1639594334000
Fix,GT,37.4111682,-122.0782915,-14.656198134066535,9.636366,0.1,196.38625,1639594335000
Fix,GT,37.4110905,-122.0783357,-15.235279036228544,9.345094,0.1,208.09251,1639594336000
Fix,GT,37.4110258,-122.0783992,-16.01136408643797,9.094308,0.1,221.20879,1639594337000
Fix,GT,37.4109756,-122.0784797,-16.722346781213304,9.132738,0.1,236.08142,1639594338000
Fix,GT,37.4109448,-122.0785775,-17.676404783343894,9.612744,0.1,252.61752,1639594339000
Fix,GT,37.4109378,-122.0786877,-18.60143125298526,10.122379,0.1,269.6977,1639594340000
Fix,GT,37.4109555,-122.0788018,-19.560274495870804,10.57507,0.1,285.52344,1639594341000
Fix,GT,37.411,-122.0789083,-20.223202245013784,10.875528,0.1,301.7855,1639594342000
Fix,GT,37.4110664,-122.078999,-20.756215398125352,11.0379715,0.1,316.35422,1639594343000
Fix,GT,37.411149,-122.0790682,-21.18414441101253,11.11684,0.1,329.77893,1639594344000
Fix,GT,37.4112415,-122.0791139,-21.44915329429321,11.0477495,0.1,341.53912,1639594345000
Fix,GT,37.411339,-122.0791343,-21.724134781003,10.994802,0.1,353.9603,1639594346000
Fix,GT,37.4114371,-122.0791256,-22.00511647512717,10.943121,0.1,8.084198,1639594347000
Fix,GT,37.4115291,-122.0790854,-22.27202741480525,10.797728,0.1,24.059204,1639594348000
Fix,GT,37.4116071,-122.0790148,-22.26007625846192,10.793793,0.1,39.95288,1639594349000
Fix,GT,37.4116694,-122.0789198,-22.39704876412452,11.218199,0.099,54.484436,1639594350000
Fix,GT,37.4117114,-122.0788043,-22.40603630060237,11.4277525,0.1,70.01788,1639594351000
Fix,GT,37.4117278,-122.0786771,-22.37496393459244,11.620797,0.1,85.27432,1639594352000
Fix,GT,37.4117174,-122.0785459,-22.32700423845649,11.977975,0.1,100.297485,1639594353000
Fix,GT,37.4116823,-122.078414,-22.231000527957924,12.81559,0.1,111.23517,1639594354000
Fix,GT,37.4116313,-122.078276,-22.22695512345014,13.977802,0.1,116.25287,1639594355000
Fix,GT,37.4115694,-122.0781304,-22.16093304142356,15.148942,0.1,118.25363,1639594356000
Fix,GT,37.4115014,-122.0779762,-22.107950014003087,15.785797,0.1,119.25281,1639594357000
Fix,GT,37.4114301,-122.0778225,-22.037004392174072,15.68002,0.1,120.31189,1639594358000
Fix,GT,37.4113567,-122.0776705,-21.934008548833432,15.802346,0.1,121.53186,1639594359000
Fix,GT,37.411281,-122.077517,-21.809009321686347,16.142992,0.1,121.77521,1639594360000
Fix,GT,37.4112019,-122.0773589,-21.71490142654814,16.862215,0.1,122.067505,1639594361000
Fix,GT,37.411121,-122.0771933,-21.563968577261548,17.36749,0.1,120.95767,1639594362000
Fix,GT,37.4110413,-122.0770227,-21.438918980440125,17.398909,0.1,120.391174,1639594363000
Fix,GT,37.4109625,-122.0768538,-21.299995073203466,17.137543,0.099,120.29324,1639594364000
Fix,GT,37.4108872,-122.0766861,-21.18690601362195,16.833801,0.1,118.93262,1639594365000
Fix,GT,37.4108162,-122.0765185,-21.1039059288674,16.803299,0.1,117.601685,1639594366000
Fix,GT,37.4107463,-122.076348,-20.818833997181617,17.196924,0.1,117.29904,1639594367000
Fix,GT,37.4106743,-122.0761751,-20.399758618947114,17.182869,0.1,117.740814,1639594368000
Fix,GT,37.4106031,-122.0760038,-19.84070464139525,17.072048,0.1,117.52222,1639594369000
Fix,GT,37.4105327,-122.075832,-19.14669059343264,17.070177,0.1,117.18634,1639594370000
Fix,GT,37.4104634,-122.0756609,-18.42259284672141,17.033863,0.1,117.16391,1639594371000
Fix,GT,37.4103936,-122.0754907,-17.614606072548312,16.808334,0.1,117.525696,1639594372000
Fix,GT,37.4103244,-122.0753233,-16.776606058384758,16.694513,0.1,117.372314,1639594373000
Fix,GT,37.4102572,-122.0751566,-15.939633534337394,16.476242,0.1,116.65045,1639594374000
Fix,GT,37.4101906,-122.0749901,-15.19266481838189,16.615274,0.1,117.17328,1639594375000
Fix,GT,37.4101211,-122.0748226,-14.50269609360397,16.836185,0.1,118.0827,1639594376000
Fix,GT,37.4100483,-122.0746565,-13.844731568461285,16.78911,0.1,119.28583,1639594377000
Fix,GT,37.4099744,-122.0744905,-13.204686848169658,16.891867,0.1,119.61444,1639594378000
Fix,GT,37.4098997,-122.0743269,-12.605754399687983,16.426132,0.1,120.46271,1639594379000
Fix,GT,37.4098277,-122.0741666,-12.101758602932096,16.227251,0.1,118.94534,1639594380000
Fix,GT,37.4097601,-122.0740035,-11.63183456463879,16.279907,0.099,117.00101,1639594381000
Fix,GT,37.4096992,-122.0738385,-11.261893079495987,15.862557,0.1,113.96915,1639594382000
Fix,GT,37.4096464,-122.0736736,-10.999897397025489,15.682609,0.1,111.31259,1639594383000
Fix,GT,37.4095984,-122.0735062,-10.877923944497947,15.747632,0.1,109.07913,1639594384000
Fix,GT,37.4095544,-122.0733352,-10.76600473202532,16.172768,0.1,107.50882,1639594385000
Fix,GT,37.4095115,-122.0731581,-10.742977676802315,16.495602,0.1,106.8291,1639594386000
Fix,GT,37.4094684,-122.0729782,-10.785044499034994,16.644289,0.1,107.07245,1639594387000
Fix,GT,37.4094224,-122.0728008,-10.910066654596012,16.434471,0.099,108.93317,1639594388000
Fix,GT,37.4093713,-122.0726265,-11.100120704082771,16.591711,0.1,111.177704,1639594389000
Fix,GT,37.4093114,-122.0724497,-11.302089401497506,17.500492,0.1,114.52405,1639594390000
Fix,GT,37.4092412,-122.0722697,-11.524142772130668,17.982988,0.1,117.25339,1639594391000
Fix,GT,37.4091643,-122.0720885,-11.799169349629896,18.298416,0.099,118.67908,1639594392000
Fix,GT,37.4090846,-122.0719057,-12.25622762208991,18.59556,0.1,118.97797,1639594393000
Fix,GT,37.409003,-122.071719,-12.834276338890197,19.141434,0.1,118.776794,1639594394000
Fix,GT,37.4089191,-122.0715289,-13.467312440251469,19.267223,0.1,119.23715,1639594395000
Fix,GT,37.4088349,-122.0713372,-14.13832112051174,19.591824,0.1,118.71942,1639594396000
Fix,GT,37.4087494,-122.0711391,-14.841289508514103,20.14957,0.1,118.86603,1639594397000
Fix,GT,37.4086618,-122.0709391,-15.584347789706662,20.237839,0.1,119.223816,1639594398000
Fix,GT,37.4085737,-122.0707373,-16.320333807757123,20.480015,0.1,118.715454,1639594399000
Fix,GT,37.4084886,-122.0705316,-16.934276408702136,20.49266,0.1,116.56024,1639594400000
Fix,GT,37.4084119,-122.0703209,-17.49417792633548,20.51853,0.1,113.52066,1639594401000
Fix,GT,37.4083429,-122.0701048,-17.970164978220126,20.69439,0.1,110.86102,1639594402000
Fix,GT,37.4082807,-122.0698838,-18.33515560391359,20.759119,0.1,108.87872,1639594403000
Fix,GT,37.4082224,-122.0696609,-18.65715623529628,20.806255,0.1,108.02777,1639594404000
Fix,GT,37.4081661,-122.069436,-18.741044248238207,20.905659,0.1,107.2995,1639594405000
Fix,GT,37.4081107,-122.0692099,-18.70789761155704,20.886953,0.1,107.32736,1639594406000
Fix,GT,37.4080552,-122.0689864,-18.62374655925064,20.552542,0.1,107.48694,1639594407000
Fix,GT,37.4080011,-122.0687668,-18.5019818527326,20.163904,0.1,107.32312,1639594408000
Fix,GT,37.4079478,-122.0685511,-18.50999122073129,19.819878,0.1,107.574554,1639594409000
Fix,GT,37.4078946,-122.0683399,-18.54000875183288,19.398706,0.1,107.53171,1639594410000
Fix,GT,37.407845,-122.0681344,-18.520035175085063,18.542564,0.1,106.60016,1639594411000
Fix,GT,37.4078007,-122.0679374,-18.576031559574883,17.408587,0.1,105.65613,1639594412000
Fix,GT,37.4077612,-122.0677598,-18.62403981729224,15.597975,0.1,105.62717,1639594413000
Fix,GT,37.4077273,-122.0675897,-18.71903546836041,15.539759,0.1,103.145325,1639594414000
Fix,GT,37.407698,-122.0674144,-18.78798183999956,16.249428,0.1,101.644806,1639594415000
Fix,GT,37.4076665,-122.0672295,-18.8731106752567,17.303446,0.099,102.83014,1639594416000
Fix,GT,37.4076289,-122.067033,-19.030111514271702,18.429758,0.1,104.27777,1639594417000
Fix,GT,37.407585,-122.0668256,-19.137013073360546,19.566967,0.099,104.87955,1639594418000
Fix,GT,37.4075392,-122.0666061,-19.11597356310021,20.610836,0.1,104.979034,1639594419000
Fix,GT,37.4074891,-122.0663757,-19.073040497990327,21.712883,0.1,105.670715,1639594420000
Fix,GT,37.4074351,-122.0661332,-19.072986914192327,22.869904,0.1,105.586426,1639594421000
Fix,GT,37.4073794,-122.0658783,-19.01708472854085,23.934164,0.1,105.28226,1639594422000
Fix,GT,37.4073217,-122.0656122,-18.86085834969161,24.873228,0.1,105.36566,1639594423000
Fix,GT,37.4072614,-122.065337,-18.83895134532265,25.66292,0.1,105.54791,1639594424000
Fix,GT,37.4071986,-122.0650538,-18.80898196284473,26.397406,0.1,105.67743,1639594425000
Fix,GT,37.4071339,-122.0647633,-18.806022394067146,27.008972,0.1,105.61511,1639594426000
Fix,GT,37.407068,-122.0644659,-18.84391579454625,27.65781,0.1,105.77609,1639594427000
Fix,GT,37.4070002,-122.0641624,-18.792999658704268,28.132677,0.1,105.60828,1639594428000
Fix,GT,37.4069317,-122.0638535,-18.784995694711803,28.617212,0.1,105.5199,1639594429000
Fix,GT,37.406863,-122.0635406,-18.78993757477776,28.841166,0.1,105.3754,1639594430000
Fix,GT,37.4067942,-122.0632247,-18.828987036529,29.109972,0.1,105.38785,1639594431000
Fix,GT,37.406725,-122.0629059,-18.87906639382057,29.456625,0.1,105.223755,1639594432000
Fix,GT,37.406655,-122.0625824,-18.90905818506144,29.899559,0.1,105.31732,1639594433000
Fix,GT,37.4065835,-122.0622543,-18.912991406798827,30.305202,0.1,105.40463,1639594434000
Fix,GT,37.4065109,-122.0619227,-18.94495992286876,30.617584,0.1,105.55444,1639594435000
Fix,GT,37.4064366,-122.0615873,-18.99099510838464,30.981323,0.1,105.58142,1639594436000
Fix,GT,37.406362,-122.0612493,-18.993969380385707,31.08416,0.1,105.4848,1639594437000
Fix,GT,37.406288,-122.0609088,-18.9799157603425,31.36832,0.1,105.19092,1639594438000
Fix,GT,37.4062142,-122.0605661,-18.924981946160088,31.527496,0.099,105.22427,1639594439000
Fix,GT,37.4061394,-122.0602209,-18.84798704633769,31.797346,0.1,105.31076,1639594440000
Fix,GT,37.4060636,-122.0598739,-18.84396887848992,31.89528,0.1,105.55298,1639594441000
Fix,GT,37.4059865,-122.0595265,-18.77698725026753,31.93613,0.1,105.63904,1639594442000
Fix,GT,37.4059094,-122.059179,-18.717999703647568,31.919569,0.1,105.45694,1639594443000
Fix,GT,37.4058335,-122.0588318,-18.707004975130783,31.74747,0.1,105.46222,1639594444000
Fix,GT,37.4057579,-122.0584884,-18.67702664956869,31.366789,0.1,105.610596,1639594445000
Fix,GT,37.4056827,-122.058148,-18.687990793266334,31.2116,0.1,105.52484,1639594446000
Fix,GT,37.4056082,-122.0578084,-18.699996063340457,31.175138,0.1,105.381165,1639594447000
Fix,GT,37.4055337,-122.0574686,-18.69701753772329,31.253181,0.1,105.52426,1639594448000
Fix,GT,37.4054585,-122.0571282,-18.726996082855383,31.22864,0.1,105.60919,1639594449000
Fix,GT,37.4053834,-122.056789,-18.74889814879,31.112635,0.1,105.56369,1639594450000
Fix,GT,37.4053083,-122.0564507,-18.75403496210743,31.08398,0.099,105.88196,1639594451000
Fix,GT,37.4052308,-122.0561134,-18.774991411760915,31.08243,0.1,106.46515,1639594452000
Fix,GT,37.4051502,-122.055777,-18.749049163393675,31.122671,0.1,107.16873,1639594453000
Fix,GT,37.4050666,-122.0554422,-18.772039854260623,30.936167,0.1,107.737335,1639594454000
Fix,GT,37.4049816,-122.0551117,-18.65095083713532,30.58232,0.099,108.193085,1639594455000
Fix,GT,37.4048951,-122.0547851,-18.56001776762865,30.362335,0.1,108.71097,1639594456000
Fix,GT,37.4048066,-122.0544618,-18.56278300900944,30.150568,0.099,109.25568,1639594457000
Fix,GT,37.4047166,-122.0541417,-18.09073068655562,29.951382,0.1,109.61893,1639594458000
Fix,GT,37.404627,-122.053823,-17.376655060237272,29.900198,0.099,109.306274,1639594459000
Fix,GT,37.4045382,-122.0535041,-16.400531922827476,29.881868,0.1,109.339325,1639594460000
Fix,GT,37.4044498,-122.0531867,-15.260500725571069,29.644773,0.099,109.3291,1639594461000
Fix,GT,37.4043627,-122.0528717,-14.137558571655305,29.403187,0.1,109.05875,1639594462000
Fix,GT,37.4042776,-122.0525585,-13.212659822128712,29.191433,0.1,109.06174,1639594463000
Fix,GT,37.4041935,-122.0522471,-12.54280141906254,29.025612,0.099,108.695435,1639594464000
Fix,GT,37.4041113,-122.0519367,-12.03785469681211,28.854443,0.1,108.22641,1639594465000
Fix,GT,37.4040322,-122.0516283,-11.653885306715964,28.45148,0.1,107.73224,1639594466000
Fix,GT,37.4039568,-122.0513238,-11.442982075186912,28.010996,0.1,107.06714,1639594467000
Fix,GT,37.4038848,-122.0510226,-11.536127898138949,27.672937,0.1,106.617615,1639594468000
Fix,GT,37.4038149,-122.0507238,-11.837140814241488,27.491947,0.1,106.34921,1639594469000
Fix,GT,37.4037471,-122.0504259,-12.19018542632088,27.377256,0.1,105.81128,1639594470000
Fix,GT,37.403681,-122.0501276,-12.791335094951092,27.44444,0.1,105.48987,1639594471000
Fix,GT,37.4036154,-122.0498277,-13.63835674901912,27.645561,0.1,105.39288,1639594472000
Fix,GT,37.4035494,-122.0495266,-14.494379224797711,27.614742,0.1,105.49036,1639594473000
Fix,GT,37.4034832,-122.0492263,-15.420444897511508,27.551102,0.1,105.58334,1639594474000
Fix,GT,37.4034167,-122.0489267,-16.46545862073032,27.529165,0.1,105.599304,1639594475000
Fix,GT,37.4033507,-122.048627,-17.464396313753912,27.50576,0.1,105.38321,1639594476000
Fix,GT,37.4032856,-122.0483278,-18.27824239516165,27.411697,0.1,105.309204,1639594477000
Fix,GT,37.4032212,-122.0480297,-18.86715017913934,27.259508,0.1,105.39111,1639594478000
Fix,GT,37.4031559,-122.0477341,-19.21108327844087,27.061348,0.1,105.657104,1639594479000
Fix,GT,37.4030901,-122.047441,-19.342074945816304,26.85861,0.1,105.87512,1639594480000
Fix,GT,37.4030247,-122.04715,-19.364969607876613,26.719389,0.1,105.75519,1639594481000
Fix,GT,37.4029603,-122.0468593,-19.28993010753113,26.663963,0.1,105.58472,1639594482000
Fix,GT,37.4028965,-122.0465708,-19.24496026030183,26.33653,0.1,105.54956,1639594483000
Fix,GT,37.4028337,-122.0462862,-19.206960749769586,25.949194,0.1,105.49509,1639594484000
Fix,GT,37.4027721,-122.0460056,-19.159990882385525,25.594048,0.1,105.461426,1639594485000
Fix,GT,37.4027114,-122.0457288,-19.1209821874029,25.23811,0.1,105.45331,1639594486000
Fix,GT,37.4026523,-122.0454568,-19.08996489671618,24.53017,0.1,105.197296,1639594487000
Fix,GT,37.402596,-122.0451951,-19.052973987161646,23.584894,0.1,105.11603,1639594488000
Fix,GT,37.4025416,-122.0449397,-19.022990730852825,23.216875,0.099,105.11389,1639594489000
Fix,GT,37.402487,-122.0446873,-19.01499560528994,23.156315,0.1,105.412964,1639594490000
Fix,GT,37.4024321,-122.0444344,-19.02199953939393,23.27767,0.099,105.3327,1639594491000
Fix,GT,37.4023768,-122.044181,-19.022986642844977,23.158407,0.1,105.50198,1639594492000
Fix,GT,37.402321,-122.0439298,-19.04300890053856,23.097534,0.1,105.7789,1639594493000
Fix,GT,37.4022648,-122.0436761,-19.03799142892659,23.537945,0.1,105.40619,1639594494000
Fix,GT,37.402209,-122.0434185,-19.05501349306479,23.699455,0.1,105.241486,1639594495000
Fix,GT,37.4021531,-122.0431598,-19.06399946735799,23.683811,0.099,105.26956,1639594496000
Fix,GT,37.4020974,-122.0429028,-19.098009295385328,23.486115,0.1,105.352905,1639594497000
Fix,GT,37.4020417,-122.0426483,-19.144012837429063,23.229029,0.1,105.383575,1639594498000
Fix,GT,37.401987,-122.0423966,-19.21002629455924,23.023531,0.1,105.34848,1639594499000
Fix,GT,37.4019318,-122.0421455,-19.280026388925503,23.07681,0.1,105.600464,1639594500000
Fix,GT,37.4018764,-122.0418954,-19.33101770990994,22.897291,0.1,105.585266,1639594501000
Fix,GT,37.4018214,-122.0416452,-19.39604336604383,23.136894,0.1,105.400635,1639594502000
Fix,GT,37.4017663,-122.0413925,-19.47799521534332,23.154194,0.1,105.43207,1639594503000
Fix,GT,37.4017112,-122.0411416,-19.56998674514657,22.903685,0.1,105.414795,1639594504000
Fix,GT,37.4016573,-122.0408933,-19.59000916061923,22.719656,0.1,105.1983,1639594505000
Fix,GT,37.4016039,-122.0406458,-19.58000390936248,22.683023,0.1,105.27319,1639594506000
Fix,GT,37.4015501,-122.0403983,-19.569986478057224,22.743078,0.1,105.3277,1639594507000
Fix,GT,37.4014962,-122.0401496,-19.52797382573504,22.91479,0.1,105.21521,1639594508000
Fix,GT,37.4014417,-122.0398979,-19.50893392470013,23.257484,0.1,105.38907,1639594509000
Fix,GT,37.4013854,-122.0396437,-19.48395613856055,23.453873,0.1,105.62445,1639594510000
Fix,GT,37.4013287,-122.0393874,-19.44600899543613,23.65431,0.1,105.38403,1639594511000
Fix,GT,37.4012725,-122.0391292,-19.42097767839953,23.729448,0.099,105.318054,1639594512000
Fix,GT,37.4012158,-122.038871,-19.3940567864622,23.6997,0.1,105.43527,1639594513000
Fix,GT,37.4011589,-122.038613,-19.3809914066298,23.69559,0.1,105.46985,1639594514000
Fix,GT,37.4011023,-122.0383551,-19.37102138096094,23.659876,0.1,105.39661,1639594515000
Fix,GT,37.4010458,-122.0380986,-19.371990850064904,23.440763,0.1,105.484344,1639594516000
Fix,GT,37.4009905,-122.0378481,-19.38608303205855,22.33639,0.1,105.60947,1639594517000
Fix,GT,37.4009367,-122.0376096,-19.469995815285014,21.690065,0.1,105.87451,1639594518000
Fix,GT,37.4008842,-122.0373759,-19.520083404466508,21.339146,0.1,105.70215,1639594519000
Fix,GT,37.4008308,-122.0371462,-19.60499942485476,21.023975,0.1,106.80682,1639594520000
Fix,GT,37.4007742,-122.0369216,-19.72900409738906,20.686213,0.1,107.720276,1639594521000
Fix,GT,37.4007178,-122.0367008,-19.813057061456146,20.31373,0.1,107.657684,1639594522000
Fix,GT,37.4006643,-122.0364845,-19.934995962586253,19.755955,0.1,106.83511,1639594523000
Fix,GT,37.4006143,-122.0362755,-20.051060837936586,18.756102,0.099,106.39862,1639594524000
Fix,GT,37.4005692,-122.0360801,-20.131025771178304,17.242348,0.1,105.77063,1639594525000
Fix,GT,37.4005287,-122.0359012,-20.202047716211062,15.633939,0.1,105.90909,1639594526000
Fix,GT,37.4004906,-122.0357425,-20.288995385587214,13.54306,0.1,107.357025,1639594527000
Fix,GT,37.4004536,-122.0356136,-20.361012961959467,10.487892,0.1,111.375305,1639594528000
Fix,GT,37.4004199,-122.0355203,-20.491031153713354,7.989016,0.1,115.457855,1639594529000
Fix,GT,37.4003874,-122.0354449,-20.560043130554256,7.364182,0.1,119.07938,1639594530000
Fix,GT,37.4003517,-122.0353774,-20.633043650193606,6.9151525,0.1,124.62814,1639594531000
Fix,GT,37.4003122,-122.0353216,-20.646012576741164,6.411708,0.1,132.98547,1639594532000
Fix,GT,37.4002686,-122.0352766,-20.60096924634557,6.181289,0.1,141.3429,1639594533000
Fix,GT,37.400222,-122.0352413,-20.55197413235996,5.923803,0.1,149.3675,1639594534000
Fix,GT,37.4001746,-122.0352161,-20.497986528534444,5.568175,0.1,157.0185,1639594535000
Fix,GT,37.4001232,-122.0351992,-20.4329650237225,6.412571,0.1,165.70056,1639594536000
Fix,GT,37.4000642,-122.0351923,-20.37496991311759,6.757313,0.1,175.45575,1639594537000
Fix,GT,37.4000027,-122.0351959,-20.2899606929617,6.924825,0.1,183.33542,1639594538000
Fix,GT,37.3999402,-122.0352137,-20.237961217636705,7.408634,0.1,194.2902,1639594539000
Fix,GT,37.3998773,-122.0352479,-20.14798232636601,7.8796005,0.099,204.90506,1639594540000
Fix,GT,37.3998171,-122.0352969,-20.066978279404346,8.013318,0.1,214.38707,1639594541000
Fix,GT,37.399763,-122.0353548,-19.982965709888376,7.8187265,0.1,220.69647,1639594542000
Fix,GT,37.3997133,-122.0354169,-19.92000028755516,7.879455,0.1,225.27814,1639594543000
Fix,GT,37.3996662,-122.0354864,-19.85501703051431,8.294429,0.099,229.81166,1639594544000
Fix,GT,37.3996207,-122.0355636,-19.777938716948032,8.72763,0.1,234.0524,1639594545000
Fix,GT,37.3995784,-122.0356492,-19.645935068080203,8.985913,0.1,238.99002,1639594546000
Fix,GT,37.3995424,-122.035738,-19.51388708129525,8.656557,0.1,243.69724,1639594547000
Fix,GT,37.3995138,-122.0358263,-19.295947389945383,8.252625,0.1,248.47296,1639594548000
Fix,GT,37.399492,-122.0359127,-19.07590416037943,7.8353186,0.1,252.97717,1639594549000
Fix,GT,37.3994762,-122.0359983,-18.824891030974683,7.7738366,0.1,257.36725,1639594550000
Fix,GT,37.3994664,-122.0360835,-18.57686522330344,7.5671463,0.1,262.5064,1639594551000
Fix,GT,37.399464,-122.0361715,-18.282891623660923,8.060046,0.1,269.24734,1639594552000
Fix,GT,37.3994717,-122.0362604,-17.993860383783467,7.826609,0.099,278.05603,1639594553000
Fix,GT,37.3994912,-122.0363458,-17.665834584828467,8.042146,0.1,287.8359,1639594554000
Fix,GT,37.3995245,-122.0364272,-17.249843401464634,8.218716,0.1,299.5229,1639594555000
Fix,GT,37.3995714,-122.0364998,-16.891834652082064,8.4062805,0.1,311.24942,1639594556000
Fix,GT,37.3996306,-122.0365626,-16.52783928273432,8.835289,0.1,322.01895,1639594557000
Fix,GT,37.3997013,-122.0366106,-16.169852587774397,9.143497,0.1,334.43335,1639594558000
Fix,GT,37.3997814,-122.0366374,-15.840895529569591,9.28624,0.1,347.89566,1639594559000
Fix,GT,37.3998657,-122.0366417,-15.555887089408,9.58829,0.1,0.4958496,1639594560000
Fix,GT,37.3999524,-122.0366219,-15.282908917211929,10.063038,0.1,13.591919,1639594561000
Fix,GT,37.4000369,-122.0365749,-15.076917548616416,10.523387,0.1,27.577148,1639594562000
Fix,GT,37.4001142,-122.0365016,-14.808912706143689,11.170085,0.099,40.861084,1639594563000
Fix,GT,37.400183,-122.036403,-14.520882550742478,12.199854,0.1,51.339355,1639594564000
Fix,GT,37.40025,-122.0362857,-14.27684833267238,13.368801,0.1,54.379395,1639594565000
Fix,GT,37.4003204,-122.0361559,-13.992912855632603,14.287767,0.1,56.04196,1639594566000
Fix,GT,37.4003903,-122.0360145,-13.781930308626034,15.26933,0.1,58.595886,1639594567000
Fix,GT,37.4004631,-122.035861,-13.659908970712683,16.457773,0.1,58.957275,1639594568000
Fix,GT,37.400543,-122.0356951,-13.559982957798988,17.855095,0.1,58.359497,1639594569000
Fix,GT,37.4006292,-122.0355156,-13.530008532671255,19.263714,0.099,59.26822,1639594570000
Fix,GT,37.4007171,-122.0353221,-13.627073804637416,20.10501,0.1,60.66751,1639594571000
Fix,GT,37.4008047,-122.0351175,-13.788130256236531,21.053732,0.1,62.041107,1639594572000
Fix,GT,37.4008921,-122.0349013,-14.050165140587838,21.879799,0.1,63.536316,1639594573000
Fix,GT,37.4009781,-122.0346759,-14.438181828781964,22.252449,0.1,64.91809,1639594574000
Fix,GT,37.4010606,-122.0344464,-14.911246895130724,22.417953,0.1,65.99396,1639594575000
Fix,GT,37.4011413,-122.0342129,-15.498246932807843,22.55646,0.1,66.65839,1639594576000
Fix,GT,37.4012203,-122.0339781,-16.200359323158395,22.682314,0.099,67.13788,1639594577000
Fix,GT,37.4012989,-122.0337389,-16.97735534118535,23.105766,0.1,67.74225,1639594578000
Fix,GT,37.4013762,-122.0334957,-17.850394551271574,23.232311,0.1,68.40469,1639594579000
Fix,GT,37.401452,-122.0332497,-18.73942399569275,23.546766,0.1,68.947174,1639594580000
Fix,GT,37.4015263,-122.0329989,-19.501272810744123,23.717735,0.1,69.927185,1639594581000
Fix,GT,37.4015977,-122.0327458,-20.086203582092185,23.921095,0.1,70.66873,1639594582000
Fix,GT,37.4016684,-122.0324865,-20.47413418008201,24.64215,0.1,71.30469,1639594583000
Fix,GT,37.4017381,-122.0322201,-20.66707819965156,24.840618,0.1,72.015594,1639594584000
Fix,GT,37.4018061,-122.0319533,-20.82610426495224,24.836977,0.1,71.76929,1639594585000
Fix,GT,37.4018781,-122.0316845,-21.00004377372097,25.45757,0.1,70.890564,1639594586000
Fix,GT,37.4019544,-122.0314088,-21.12808693897538,26.16066,0.1,70.48883,1639594587000
Fix,GT,37.4020329,-122.0311284,-21.34012924578972,26.497671,0.1,70.6192,1639594588000
Fix,GT,37.4021122,-122.0308428,-21.576051472412423,26.98584,0.099,70.71484,1639594589000
Fix,GT,37.4021908,-122.030552,-21.755051794734783,27.398043,0.1,71.62012,1639594590000
Fix,GT,37.4022671,-122.0302559,-21.91009946127841,27.622757,0.1,72.1756,1639594591000
Fix,GT,37.4023413,-122.0299583,-22.100100011516364,27.60232,0.1,72.75653,1639594592000
Fix,GT,37.402415,-122.0296607,-22.2409652329376,27.58026,0.1,72.44275,1639594593000
Fix,GT,37.4024892,-122.0293628,-22.28701312131341,27.651073,0.1,72.50534,1639594594000
Fix,GT,37.4025626,-122.0290661,-22.07684902633913,27.330946,0.1,72.637085,1639594595000
Fix,GT,37.4026347,-122.0287729,-21.58876706713205,26.996319,0.1,72.62103,1639594596000
Fix,GT,37.4027066,-122.0284843,-20.9016454187464,26.578047,0.1,72.34308,1639594597000
Fix,GT,37.4027782,-122.0281984,-20.01761968966853,26.5592,0.1,72.514404,1639594598000
Fix,GT,37.4028492,-122.0279127,-19.198697777397467,26.345205,0.1,72.60986,1639594599000
Fix,GT,37.4029181,-122.0276293,-18.53873659806978,26.180502,0.1,73.223236,1639594600000
Fix,GT,37.4029831,-122.027347,-17.977771278044674,25.794113,0.1,74.11456,1639594601000
Fix,GT,37.4030441,-122.0270686,-17.604888114140834,25.377434,0.1,74.8356,1639594602000
Fix,GT,37.4031019,-122.0267916,-17.404901172592307,25.362326,0.1,75.40198,1639594603000
Fix,GT,37.4031569,-122.0265148,-17.304973941795993,25.12593,0.1,76.22705,1639594604000
Fix,GT,37.4032091,-122.0262389,-17.321904839525,25.186478,0.1,76.680176,1639594605000
Fix,GT,37.4032604,-122.0259595,-17.501099216574804,25.595695,0.1,77.12277,1639594606000
Fix,GT,37.4033096,-122.0256764,-17.796177102860995,25.684523,0.1,77.93805,1639594607000
Fix,GT,37.4033557,-122.0253914,-18.265194422728385,25.854921,0.1,78.58505,1639594608000
Fix,GT,37.4034015,-122.0251034,-18.801292730647138,26.153076,0.1,78.78192,1639594609000
Fix,GT,37.403446,-122.0248122,-19.504314519401177,26.28152,0.1,79.021454,1639594610000
Fix,GT,37.403491,-122.024521,-20.35439235255868,26.23435,0.1,78.79996,1639594611000
Fix,GT,37.4035364,-122.0242301,-21.314392404265234,26.330254,0.1,78.872894,1639594612000
Fix,GT,37.4035825,-122.0239372,-22.265409928634764,26.539185,0.1,78.47595,1639594613000
Fix,GT,37.4036318,-122.023642,-23.16340455476428,26.876495,0.1,77.72684,1639594614000
Fix,GT,37.4036848,-122.0233442,-23.86327586553479,27.109838,0.1,76.97052,1639594615000
Fix,GT,37.4037399,-122.0230461,-24.37814148717513,27.011156,0.1,76.65338,1639594616000
Fix,GT,37.4037964,-122.0227509,-24.63001266480703,26.709324,0.1,76.15723,1639594617000
Fix,GT,37.4038537,-122.0224596,-24.71602139839763,26.529356,0.099,75.790955,1639594618000
Fix,GT,37.4039135,-122.0221672,-24.82606051453203,27.125551,0.1,75.1875,1639594619000
Fix,GT,37.4039773,-122.0218638,-25.01599177723657,28.404797,0.1,75.216064,1639594620000
Fix,GT,37.4040434,-122.0215469,-25.127016731871755,29.518915,0.1,74.86981,1639594621000
Fix,GT,37.4041137,-122.0212198,-25.25596144475881,30.457758,0.1,74.648315,1639594622000
Fix,GT,37.4041863,-122.0208826,-25.26894337423146,31.37213,0.1,74.696625,1639594623000
Fix,GT,37.4042618,-122.0205369,-25.29505153928604,32.04453,0.1,74.3053,1639594624000
Fix,GT,37.4043402,-122.0201845,-25.425030669271948,32.72853,0.1,74.17944,1639594625000
Fix,GT,37.4044209,-122.0198251,-25.513029799140995,33.362675,0.1,73.93436,1639594626000
Fix,GT,37.4045039,-122.0194609,-25.597012979686266,33.71233,0.1,73.79599,1639594627000
Fix,GT,37.4045882,-122.019092,-25.589005036840216,34.24536,0.1,73.784424,1639594628000
Fix,GT,37.404674,-122.0187174,-25.620995559461413,34.72269,0.099,73.870514,1639594629000
Fix,GT,37.4047596,-122.0183403,-25.642039171620272,34.614388,0.1,74.12991,1639594630000
Fix,GT,37.404843,-122.017965,-25.749080988135187,34.351692,0.099,74.31778,1639594631000
Fix,GT,37.4049267,-122.0175932,-25.83998283087276,34.069504,0.1,73.88486,1639594632000
Fix,GT,37.4050113,-122.0172248,-25.9660683511775,33.806896,0.099,73.671326,1639594633000
Fix,GT,37.4050955,-122.0168595,-26.016008624183943,33.547832,0.1,73.7778,1639594634000
Fix,GT,37.4051784,-122.0164958,-26.101013317212463,33.45373,0.1,73.9144,1639594635000
Fix,GT,37.4052605,-122.0161334,-26.12500786728179,33.162796,0.1,73.794586,1639594636000
Fix,GT,37.4053426,-122.0157758,-26.177020873948933,32.74832,0.1,73.54666,1639594637000
Fix,GT,37.405426,-122.0154209,-26.25304674977437,32.87113,0.099,72.93335,1639594638000
Fix,GT,37.4055147,-122.0150636,-26.294939885420728,33.53552,0.1,72.204956,1639594639000
Fix,GT,37.4056081,-122.0146979,-26.30203493007086,34.46452,0.1,72.143005,1639594640000
Fix,GT,37.4057021,-122.0143219,-26.34199515899969,35.238194,0.1,72.66394,1639594641000
Fix,GT,37.4057956,-122.0139391,-26.40205988880992,35.644768,0.1,72.81796,1639594642000
Fix,GT,37.4058884,-122.0135522,-26.46403883495368,35.82283,0.1,73.44299,1639594643000
Fix,GT,37.4059778,-122.0131635,-26.511000123451463,35.835518,0.1,73.97522,1639594644000
Fix,GT,37.4060659,-122.0127737,-26.55505091516394,35.87006,0.1,73.93417,1639594645000
Fix,GT,37.4061537,-122.0123854,-26.63107728817128,35.527752,0.1,74.03891,1639594646000
Fix,GT,37.4062405,-122.0120014,-26.746030554196327,35.209145,0.1,73.95999,1639594647000
Fix,GT,37.4063271,-122.0116199,-26.84896938603185,35.01837,0.1,73.899414,1639594648000
Fix,GT,37.4064136,-122.0112406,-26.925012900441885,34.844498,0.1,73.770905,1639594649000
Fix,GT,37.4065001,-122.0108632,-27.01905185828497,34.704666,0.1,73.73752,1639594650000
Fix,GT,37.4065865,-122.0104866,-27.168073123094626,34.704487,0.1,73.74567,1639594651000
Fix,GT,37.4066733,-122.0101092,-27.360072183639275,34.915695,0.1,73.709656,1639594652000
Fix,GT,37.4067604,-122.0097282,-27.496068028822545,35.26749,0.1,73.957275,1639594653000
Fix,GT,37.4068474,-122.0093431,-27.51006471136585,35.57305,0.1,74.022125,1639594654000
Fix,GT,37.4069351,-122.0089557,-27.48690086093545,35.67569,0.1,73.99771,1639594655000
Fix,GT,37.4070219,-122.0085679,-27.183915214631707,35.643826,0.1,74.14487,1639594656000
Fix,GT,37.4071084,-122.0081808,-26.907905474689787,35.54092,0.1,74.00342,1639594657000
Fix,GT,37.4071956,-122.0077948,-26.664884245133027,35.53368,0.1,73.88324,1639594658000
Fix,GT,37.4072833,-122.0074075,-26.418910330926067,35.76869,0.1,73.93045,1639594659000
Fix,GT,37.4073719,-122.007018,-26.19697461423744,35.89893,0.1,73.812744,1639594660000
Fix,GT,37.4074604,-122.0066278,-26.078918155653405,35.936325,0.099,74.13098,1639594661000
Fix,GT,37.4075467,-122.006237,-26.09895275178924,35.851673,0.1,74.46008,1639594662000
Fix,GT,37.407631,-122.0058467,-26.14112812249502,35.76267,0.1,74.68347,1639594663000
Fix,GT,37.4077158,-122.0054568,-26.439171494648328,35.830624,0.1,74.43353,1639594664000
Fix,GT,37.4078022,-122.0050659,-26.829157471731307,35.975945,0.1,74.20969,1639594665000
Fix,GT,37.4078888,-122.0046736,-27.157136219780423,36.102646,0.099,74.39029,1639594666000
Fix,GT,37.4079747,-122.00428,-27.465115529017524,36.131474,0.1,74.46536,1639594667000
Fix,GT,37.4080607,-122.0038867,-27.68011138324067,36.087166,0.1,74.43524,1639594668000
Fix,GT,37.4081466,-122.0034939,-27.80905918887118,36.035675,0.1,74.53323,1639594669000
Fix,GT,37.4082315,-122.0031013,-27.84397877314268,35.980488,0.1,74.68158,1639594670000
Fix,GT,37.4083163,-122.0027097,-27.86102188494988,35.863014,0.1,74.56052,1639594671000
Fix,GT,37.4084013,-122.0023196,-27.88204652504623,35.726913,0.1,74.427124,1639594672000
Fix,GT,37.4084859,-122.0019327,-27.91202106010122,35.28985,0.1,74.48956,1639594673000
Fix,GT,37.4085697,-122.0015495,-27.951021759117022,35.115925,0.1,74.43027,1639594674000
Fix,GT,37.4086532,-122.0011667,-27.968016539976,35.152187,0.1,74.56708,1639594675000
Fix,GT,37.4087369,-122.0007832,-28.015991092626937,35.25581,0.1,74.44159,1639594676000
Fix,GT,37.4088212,-122.0003984,-28.03602590936143,35.400803,0.1,74.44922,1639594677000
Fix,GT,37.408906,-122.0000117,-28.038005020390266,35.584435,0.1,74.460754,1639594678000
Fix,GT,37.4089896,-121.9996233,-28.06001684069633,35.646008,0.1,74.801056,1639594679000
Fix,GT,37.4090731,-121.9992341,-28.07506841008877,35.702324,0.1,74.664795,1639594680000
Fix,GT,37.4091566,-121.9988445,-28.146020558178893,35.721485,0.099,74.851715,1639594681000
Fix,GT,37.4092394,-121.9984542,-28.17801246613637,35.781895,0.1,74.81052,1639594682000
Fix,GT,37.4093234,-121.9980641,-28.23895382741839,35.75483,0.1,74.59253,1639594683000
Fix,GT,37.4094088,-121.9976744,-28.18601276384433,35.79913,0.1,74.278564,1639594684000
Fix,GT,37.4094944,-121.9972845,-28.177022000031545,35.80372,0.1,74.55194,1639594685000
Fix,GT,37.4095791,-121.9968943,-28.207029816473835,35.812878,0.1,74.59741,1639594686000
Fix,GT,37.4096635,-121.996504,-28.23399619009439,35.766518,0.1,74.523926,1639594687000
Fix,GT,37.4097484,-121.9961146,-28.257024734670765,35.720352,0.099,74.63019,1639594688000
Fix,GT,37.4098324,-121.9957255,-28.3019826089032,35.648457,0.1,74.6655,1639594689000
Fix,GT,37.4099166,-121.9953374,-28.307970558919944,35.564568,0.1,74.555664,1639594690000
Fix,GT,37.4100003,-121.9949501,-28.29103481030884,35.487217,0.1,74.691925,1639594691000
Fix,GT,37.4100838,-121.9945634,-28.33207664125599,35.481697,0.1,74.537476,1639594692000
Fix,GT,37.4101686,-121.9941765,-28.31497897363268,35.561,0.1,74.462494,1639594693000
Fix,GT,37.4102532,-121.9937886,-28.33800916387513,35.62816,0.1,74.466705,1639594694000
Fix,GT,37.410338,-121.993401,-28.338003947844264,35.442738,0.1,74.49011,1639594695000
Fix,GT,37.4104225,-121.9930165,-28.308966403373983,35.25668,0.1,74.323425,1639594696000
Fix,GT,37.410507,-121.9926321,-28.282004803082906,35.32586,0.1,74.57416,1639594697000
Fix,GT,37.4105901,-121.9922477,-28.26496530841803,35.18441,0.1,74.63989,1639594698000
Fix,GT,37.4106731,-121.9918647,-28.20800455068377,35.096066,0.1,74.60611,1639594699000
Fix,GT,37.4107555,-121.9914825,-28.089940974693747,35.018646,0.1,74.712006,1639594700000
Fix,GT,37.4108381,-121.9911011,-27.88093633109983,34.944706,0.1,74.60657,1639594701000
Fix,GT,37.4109211,-121.9907203,-27.849944977323528,34.995167,0.1,74.46115,1639594702000
Fix,GT,37.4110057,-121.990338,-27.71691993679758,35.237904,0.1,74.22003,1639594703000
Fix,GT,37.4110921,-121.9899541,-27.54088928139536,35.343555,0.1,74.14838,1639594704000
Fix,GT,37.4111796,-121.9895696,-27.304843313209712,35.4162,0.1,73.54764,1639594705000
Fix,GT,37.4112703,-121.9891886,-26.895812700632963,34.937275,0.1,72.82428,1639594706000
Fix,GT,37.4113639,-121.9888138,-26.411758246254173,34.69873,0.1,72.055725,1639594707000
Fix,GT,37.4114619,-121.9884403,-25.837788629475984,34.942417,0.1,71.22388,1639594708000
Fix,GT,37.4115635,-121.9880653,-25.269796271829865,35.151165,0.1,70.80844,1639594709000
Fix,GT,37.4116689,-121.9876909,-24.74479243592545,35.14833,0.1,69.92224,1639594710000
Fix,GT,37.4117787,-121.9873187,-24.24181307861489,34.963825,0.1,69.23859,1639594711000
Fix,GT,37.41189,-121.9869519,-23.90699177690921,34.605965,0.1,68.82294,1639594712000
Fix,GT,37.4120037,-121.986587,-23.565906184982502,34.759327,0.1,68.20477,1639594713000
Fix,GT,37.4121219,-121.9862226,-23.300012985847424,34.871162,0.1,67.32675,1639594714000
Fix,GT,37.4122429,-121.9858591,-23.23898367764708,34.879044,0.1,66.9595,1639594715000
Fix,GT,37.4123677,-121.9854964,-23.233033721379936,35.08766,0.1,65.99194,1639594716000
Fix,GT,37.4124986,-121.9851339,-23.3580599584356,35.346424,0.1,64.95624,1639594717000
Fix,GT,37.4126341,-121.9847715,-23.534114203454,35.52848,0.1,64.520996,1639594718000
Fix,GT,37.4127726,-121.9844081,-23.65806396191195,35.778374,0.1,64.10739,1639594719000
Fix,GT,37.4129142,-121.984043,-23.811079837116413,36.087917,0.1,63.696167,1639594720000
Fix,GT,37.4130591,-121.9836768,-23.98708018791489,36.263767,0.099,63.14633,1639594721000
Fix,GT,37.4132074,-121.9833125,-24.05003023344557,36.077065,0.1,62.52481,1639594722000
Fix,GT,37.4133567,-121.9829534,-24.274164572077805,35.622128,0.099,62.038544,1639594723000
Fix,GT,37.4135068,-121.9826003,-24.494080051765778,35.220108,0.1,61.677643,1639594724000
Fix,GT,37.4136557,-121.9822514,-24.750097325925715,34.882195,0.1,61.623352,1639594725000
Fix,GT,37.4138038,-121.9819051,-25.020123073717112,34.702656,0.1,61.720154,1639594726000
Fix,GT,37.4139507,-121.9815599,-25.184013226901182,34.557255,0.1,61.67398,1639594727000
Fix,GT,37.4140977,-121.9812157,-25.11793302335404,34.641716,0.1,61.745605,1639594728000
Fix,GT,37.4142443,-121.9808693,-24.87285557381949,34.801975,0.1,61.978912,1639594729000
Fix,GT,37.4143904,-121.980522,-24.496856223607903,34.6652,0.1,62.04889,1639594730000
Fix,GT,37.4145356,-121.9801763,-24.14380542063806,34.49897,0.1,62.07245,1639594731000
Fix,GT,37.4146802,-121.979832,-23.745835156986487,34.479683,0.1,61.878235,1639594732000
Fix,GT,37.4148264,-121.9794877,-23.33995783794672,34.582027,0.1,61.78723,1639594733000
Fix,GT,37.4149731,-121.979143,-22.95986525326968,34.564507,0.1,61.70981,1639594734000
Fix,GT,37.4151191,-121.9787988,-22.59083915946213,34.463787,0.099,61.990753,1639594735000
Fix,GT,37.4152634,-121.9784541,-22.200813969359736,34.443295,0.1,62.10681,1639594736000
Fix,GT,37.4154083,-121.9781099,-21.819839671962896,34.485813,0.1,61.824036,1639594737000
Fix,GT,37.4155547,-121.9777653,-21.468965598891028,34.651756,0.1,61.680115,1639594738000
Fix,GT,37.415702,-121.9774196,-21.124885745713488,34.74201,0.1,61.917816,1639594739000
Fix,GT,37.4158489,-121.9770724,-20.673679298510777,34.836067,0.1,61.820618,1639594740000
Fix,GT,37.4159958,-121.9767245,-20.30887375170225,34.833855,0.1,61.963318,1639594741000
Fix,GT,37.4161426,-121.976377,-20.02889015706489,34.800346,0.099,61.80844,1639594742000
Fix,GT,37.4162891,-121.9760292,-19.83589469953626,34.829105,0.1,62.06021,1639594743000
Fix,GT,37.4164351,-121.9756807,-19.67792777544912,34.862747,0.099,61.975677,1639594744000
Fix,GT,37.4165824,-121.9753328,-19.55798290615436,34.838436,0.1,61.832214,1639594745000
Fix,GT,37.4167293,-121.9749876,-19.5570297750514,34.42159,0.1,61.732025,1639594746000
Fix,GT,37.4168742,-121.9746455,-19.64908888392896,34.21046,0.1,61.921875,1639594747000
Fix,GT,37.417018,-121.9743036,-19.883142976495435,34.303352,0.1,61.917664,1639594748000
Fix,GT,37.4171636,-121.9739607,-20.092084265641866,34.429127,0.1,61.790894,1639594749000
Fix,GT,37.4173086,-121.9736165,-20.42721938298643,34.492878,0.1,62.04004,1639594750000
Fix,GT,37.4174531,-121.9732711,-20.89819335983693,34.553955,0.1,62.0318,1639594751000
Fix,GT,37.4175988,-121.9729256,-21.35712646943517,34.689285,0.1,61.749542,1639594752000
Fix,GT,37.4177472,-121.9725782,-21.730198370932136,35.05013,0.1,61.499023,1639594753000
Fix,GT,37.4178961,-121.9722286,-22.191214207096024,35.006382,0.1,62.042328,1639594754000
Fix,GT,37.4180409,-121.9718786,-22.72921450814791,34.8485,0.1,62.88031,1639594755000
Fix,GT,37.4181768,-121.971523,-23.26122324343026,35.000652,0.1,65.53119,1639594756000
Fix,GT,37.4183006,-121.9711589,-23.68416862417944,35.07099,0.1,67.779755,1639594757000
Fix,GT,37.4184126,-121.9707884,-23.94003012109734,35.114567,0.1,70.475555,1639594758000
Fix,GT,37.4185099,-121.9704115,-23.87289840434445,35.01921,0.1,73.11865,1639594759000
Fix,GT,37.4185929,-121.970031,-23.676927990149707,34.859455,0.099,75.85162,1639594760000
Fix,GT,37.4186613,-121.9696478,-23.49692392110592,34.66819,0.1,78.65314,1639594761000
Fix,GT,37.4187129,-121.9692628,-23.311945556787776,34.492416,0.1,81.681885,1639594762000
Fix,GT,37.4187504,-121.968877,-23.187941242302767,34.347713,0.1,83.87244,1639594763000
Fix,GT,37.4187767,-121.9684903,-23.142965910678264,34.405952,0.1,85.77377,1639594764000
Fix,GT,37.4187955,-121.9681018,-23.134928449088708,34.49092,0.1,87.12268,1639594765000
Fix,GT,37.418808,-121.9677126,-23.205012616295363,34.459114,0.1,87.504974,1639594766000
Fix,GT,37.4188217,-121.9673241,-23.381428885440343,34.43625,0.1,87.06879,1639594767000
Fix,GT,37.4188351,-121.9669348,-23.624008895874955,34.504745,0.1,87.424805,1639594768000
Fix,GT,37.4188474,-121.966547,-23.847147622820923,34.189556,0.1,87.474335,1639594769000
Fix,GT,37.4188585,-121.9661629,-24.26620950980298,33.8676,0.099,87.774506,1639594770000
Fix,GT,37.41887,-121.9657809,-24.79623479305394,33.895065,0.1,87.33325,1639594771000
Fix,GT,37.4188833,-121.9653962,-25.29121833407646,34.295506,0.1,87.27701,1639594772000
Fix,GT,37.418897,-121.965007,-25.812248338880018,34.606323,0.1,87.20187,1639594773000
Fix,GT,37.4189109,-121.9646162,-26.308305624318773,34.643925,0.099,87.21881,1639594774000
Fix,GT,37.418924,-121.9642251,-26.57311717702821,34.667446,0.1,87.56879,1639594775000
Fix,GT,37.4189362,-121.9638336,-26.83808792812424,34.681995,0.1,87.3728,1639594776000
Fix,GT,37.4189504,-121.9634427,-27.01606708011776,34.570618,0.1,86.895355,1639594777000
Fix,GT,37.4189656,-121.9630531,-27.12601716509741,34.523605,0.1,86.99875,1639594778000
Fix,GT,37.4189808,-121.9626628,-27.33410819506645,34.681114,0.099,86.94641,1639594779000
Fix,GT,37.4189962,-121.9622702,-27.59609992620908,34.926655,0.1,87.07666,1639594780000
Fix,GT,37.4190109,-121.9618755,-27.827125478943813,34.992817,0.1,87.091064,1639594781000
Fix,GT,37.4190259,-121.9614799,-28.108949883318044,35.123634,0.1,86.872314,1639594782000
Fix,GT,37.4190436,-121.9610831,-28.263075733345,35.196182,0.1,86.00314,1639594783000
Fix,GT,37.4190662,-121.9606866,-28.378045420142826,35.173626,0.099,85.33658,1639594784000
Fix,GT,37.419092,-121.9602909,-28.51604584743129,35.115753,0.1,84.73807,1639594785000
Fix,GT,37.4191209,-121.959896,-28.64503790335357,35.088146,0.1,84.2908,1639594786000
Fix,GT,37.4191524,-121.9595015,-28.79703414022177,35.11643,0.1,83.900635,1639594787000
Fix,GT,37.4191845,-121.9591061,-28.79395894089341,35.239986,0.1,84.06659,1639594788000
Fix,GT,37.4192159,-121.95871,-28.60202520731092,35.206482,0.1,84.08014,1639594789000
Fix,GT,37.4192467,-121.9583145,-28.68903373358911,35.145367,0.1,84.34985,1639594790000
Fix,GT,37.4192755,-121.9579194,-28.716062028744723,35.082436,0.099,84.701416,1639594791000
Fix,GT,37.4193018,-121.9575249,-28.7739743090272,35.029053,0.1,85.69974,1639594792000
Fix,GT,37.4193209,-121.9571306,-28.77497893825639,34.834793,0.1,86.87463,1639594793000
Fix,GT,37.4193326,-121.9567398,-28.8129665427208,34.406174,0.1,88.328,1639594794000
Fix,GT,37.4193376,-121.9563527,-28.73994996981695,34.192776,0.1,89.45026,1639594795000
Fix,GT,37.4193373,-121.9559675,-28.64394177642185,33.996548,0.1,90.16052,1639594796000
Fix,GT,37.4193362,-121.9555848,-28.517974242433908,33.761982,0.1,89.864746,1639594797000
Fix,GT,37.4193349,-121.9552044,-28.486995290048416,33.590843,0.099,90.18283,1639594798000
Fix,GT,37.4193329,-121.9548259,-28.47203751495155,33.42255,0.1,90.088684,1639594799000
Fix,GT,37.4193317,-121.9544488,-28.463979454918764,33.377197,0.1,89.92053,1639594800000
Fix,GT,37.4193316,-121.954071,-28.48397542738449,33.4971,0.1,89.634,1639594801000
Fix,GT,37.4193324,-121.953692,-28.459979183764663,33.607075,0.1,89.68396,1639594802000
Fix,GT,37.4193327,-121.9533128,-28.456016928425058,33.49223,0.1,89.53046,1639594803000
Fix,GT,37.4193338,-121.9529353,-28.447975320439788,33.359,0.1,89.695984,1639594804000
Fix,GT,37.4193332,-121.9525586,-28.44497434435692,33.369312,0.1,89.94769,1639594805000
Fix,GT,37.4193329,-121.9521809,-28.507057980186307,33.499065,0.1,89.75818,1639594806000
Fix,GT,37.4193334,-121.9518023,-28.56800414637383,33.50801,0.1,89.68338,1639594807000
Fix,GT,37.4193335,-121.9514244,-28.52999596058298,33.389145,0.1,89.98627,1639594808000
Fix,GT,37.4193329,-121.9510479,-28.570983872505835,33.25596,0.1,89.84894,1639594809000
Fix,GT,37.4193334,-121.9506727,-28.55397986370977,33.201153,0.1,89.65216,1639594810000
Fix,GT,37.4193341,-121.9502973,-28.541991672931243,33.203056,0.1,89.65848,1639594811000
Fix,GT,37.4193338,-121.9499229,-28.51696264739893,33.12346,0.1,90.16626,1639594812000
Fix,GT,37.4193317,-121.9495479,-28.436950292687865,33.26885,0.1,90.256805,1639594813000
Fix,GT,37.4193297,-121.9491718,-28.37794183244184,33.280285,0.1,90.04669,1639594814000
Fix,GT,37.4193288,-121.9487957,-28.27788336770609,33.318066,0.1,90.03583,1639594815000
Fix,GT,37.4193284,-121.9484192,-28.20697519736317,33.340984,0.1,89.75958,1639594816000
