MessageType,Provider,LatitudeDegrees,LongitudeDegrees,AltitudeMeters,SpeedMps,AccuracyMeters,BearingDegrees,UnixTimeMillis
Fix,GT,34.1570349,-118.6345239,250.12500483365147,0.0014168825,0.1,55.883606,1638995325000
Fix,GT,34.1570349,-118.6345239,250.12499627284703,0.004119992,0.1,55.883698,1638995326000
Fix,GT,34.1570349,-118.6345239,250.12499761229265,0.0051019327,0.099,55.88376,1638995327000
Fix,GT,34.1570349,-118.6345238,250.12500145591912,0.0070034284,0.1,55.883606,1638995328000
Fix,GT,34.1570349,-118.6345237,250.124002737117,0.008996779,0.1,55.88379,1638995329000
Fix,GT,34.1570349,-118.6345235,250.1240040765572,0.007003414,0.1,55.88382,1638995330000
Fix,GT,34.1570349,-118.6345234,250.12400291182652,0.0042386553,0.1,55.884247,1638995331000
Fix,GT,34.1570348,-118.6345233,250.12399924292507,0.0063969446,0.1,55.884827,1638995332000
Fix,GT,34.1570348,-118.6345233,250.1239923805436,0.017259534,0.1,55.884888,1638995333000
Fix,GT,34.1570347,-118.6345235,250.12299440931528,0.031269655,0.099,55.886383,1638995334000
Fix,GT,34.1570347,-118.6345239,250.123005648921,0.05615201,0.1,55.884796,1638995335000
Fix,GT,34.1570342,-118.6345256,250.1270044842668,0.36908895,0.1,56.051544,1638995336000
Fix,GT,34.1570309,-118.6345305,250.1260064860189,0.75248224,0.1,58.92047,1638995337000
Fix,GT,34.1570254,-118.6345379,250.12800847432624,0.9886126,0.1,66.39801,1638995338000
Fix,GT,34.1570191,-118.634548,250.12999468398468,1.2368076,0.1,78.38583,1638995339000
Fix,GT,34.1570133,-118.6345628,250.11999667900312,1.5747635,0.1,94.0849,1638995340000
Fix,GT,34.1570104,-118.6345827,250.0919917459013,1.8286444,0.1,113.646515,1638995341000
Fix,GT,34.1570131,-118.6346033,250.06399367613764,1.478665,0.1,133.65112,1638995342000
Fix,GT,34.1570177,-118.634614,250.04799565132453,0.5231026,0.1,142.29083,1638995343000
Fix,GT,34.1570185,-118.6346158,250.04699199030733,0.114474885,0.1,142.85663,1638995344000
Fix,GT,34.1570175,-118.634616,250.04298460759225,0.3676215,0.099,143.80786,1638995345000
Fix,GT,34.1570102,-118.6346125,250.045995284312,1.3767266,0.1,148.02417,1638995346000
Fix,GT,34.1569956,-118.6346031,250.07101271932945,2.2121198,0.1,149.04437,1638995347000
Fix,GT,34.1569767,-118.6345884,250.1079929538304,2.750892,0.099,147.50085,1638995348000
Fix,GT,34.1569547,-118.6345717,250.1520227072797,2.8475788,0.1,147.57025,1638995349000
Fix,GT,34.1569338,-118.6345571,250.1859999501603,2.4255369,0.1,150.15616,1638995350000
Fix,GT,34.1569173,-118.6345497,250.198990142786,1.5792536,0.1,157.06226,1638995351000
Fix,GT,34.1569037,-118.6345478,250.19799819413345,1.5406051,0.1,166.62256,1638995352000
Fix,GT,34.1568875,-118.6345502,250.2380153805437,2.2126648,0.099,179.97864,1638995353000
Fix,GT,34.1568663,-118.6345608,250.27800251267803,2.840379,0.1,197.0059,1638995354000
Fix,GT,34.1568453,-118.63458,250.30500764917537,2.934985,0.1,213.72693,1638995355000
Fix,GT,34.1568313,-118.6346014,250.3500136181933,2.1658432,0.1,227.17935,1638995356000
Fix,GT,34.1568234,-118.6346184,250.3209749296121,1.8101728,0.1,235.60764,1638995357000
Fix,GT,34.1568185,-118.6346405,250.07793199589665,2.3771803,0.1,249.8706,1638995358000
Fix,GT,34.1568252,-118.6346691,249.94207367400733,3.2902558,0.1,277.86548,1638995359000
Fix,GT,34.1568467,-118.6347052,250.0310121354221,5.2568455,0.1,303.35306,1638995360000
Fix,GT,34.1568889,-118.6347518,250.01499343082867,7.586773,0.1,317.85596,1638995361000
Fix,GT,34.1569516,-118.6348059,249.9119568070504,9.359508,0.099,325.28458,1638995362000
Fix,GT,34.1570279,-118.6348628,249.77695073784213,10.554861,0.1,328.36563,1638995363000
Fix,GT,34.1571129,-118.6349241,249.6429481027108,11.29385,0.1,328.72906,1638995364000
Fix,GT,34.1572013,-118.6349898,249.4879539715364,11.724832,0.1,327.19287,1638995365000
Fix,GT,34.1572925,-118.6350609,249.31295980082635,12.351711,0.1,326.70898,1638995366000
Fix,GT,34.1573888,-118.6351364,249.1389246325754,13.190377,0.099,326.53433,1638995367000
Fix,GT,34.1574896,-118.635216,248.95394531741505,13.3952,0.1,326.4351,1638995368000
Fix,GT,34.1575902,-118.6352953,248.81396585957705,13.27191,0.1,326.52155,1638995369000
Fix,GT,34.1576913,-118.6353729,248.6830099407318,13.572785,0.1,327.7997,1638995370000
Fix,GT,34.1577997,-118.6354537,248.68398323020432,14.94036,0.1,328.01343,1638995371000
Fix,GT,34.1579172,-118.6355437,248.787048067193,15.6633,0.1,326.60233,1638995372000
Fix,GT,34.1580334,-118.6356382,248.9460710598228,15.406888,0.099,324.76825,1638995373000
Fix,GT,34.1581445,-118.6357359,249.20011459332304,15.024645,0.1,322.9276,1638995374000
Fix,GT,34.1582462,-118.6358308,249.6051310633393,13.245172,0.1,321.2931,1638995375000
Fix,GT,34.1583305,-118.6359142,250.01610137430765,11.061451,0.1,319.66882,1638995376000
Fix,GT,34.1584004,-118.6359875,250.36314501798805,9.426788,0.1,317.98352,1638995377000
Fix,GT,34.1584542,-118.6360478,250.68409226797496,6.7354383,0.099,316.44455,1638995378000
Fix,GT,34.158488,-118.6360876,250.9100319843553,3.7188993,0.1,315.16364,1638995379000
Fix,GT,34.1585034,-118.6361061,251.0040081026873,1.191716,0.1,314.89453,1638995380000
Fix,GT,34.1585059,-118.6361091,251.00699614861608,0.03339505,0.1,314.8623,1638995381000
Fix,GT,34.158506,-118.6361091,251.01100204550684,0.0053871614,0.1,314.86484,1638995382000
Fix,GT,34.158506,-118.6361091,251.01199585052672,0.002,0.099,314.8661,1638995383000
Fix,GT,34.158506,-118.6361091,251.0120046170196,0.0,0.1,314.86688,1638995384000
Fix,GT,34.158506,-118.6361091,251.0119984220313,0.0010011775,0.1,314.86777,1638995385000
Fix,GT,34.158506,-118.6361091,251.0120071885241,0.0,0.1,314.86765,1638995386000
Fix,GT,34.158506,-118.6361091,251.01200350659715,0.0009971712,0.1,314.8675,1638995387000
Fix,GT,34.158506,-118.6361091,251.01199731160887,0.0,0.099,314.8671,1638995388000
Fix,GT,34.158506,-118.6361091,251.01200607810168,0.0,0.1,314.86606,1638995389000
Fix,GT,34.158506,-118.6361091,251.0120023961747,0.0009971914,0.1,314.8656,1638995390000
Fix,GT,34.158506,-118.6361091,251.01199620118643,0.001,0.1,314.8651,1638995391000
Fix,GT,34.158506,-118.6361091,251.01199937743925,0.02346186,0.1,314.86514,1638995392000
Fix,GT,34.1585075,-118.636111,251.01800183624027,0.4562071,0.099,314.83493,1638995393000
Fix,GT,34.1585118,-118.636116,251.0440108581216,0.84650356,0.1,314.776,1638995394000
Fix,GT,34.1585181,-118.6361238,251.08002012912536,1.150546,0.1,314.68,1638995395000
Fix,GT,34.158526,-118.6361335,251.13401389867136,1.3378901,0.1,314.58176,1638995396000
Fix,GT,34.1585347,-118.6361441,251.19001736143045,1.2875397,0.1,314.47388,1638995397000
Fix,GT,34.1585411,-118.6361521,251.2310058652344,0.75289786,0.1,314.37988,1638995398000
Fix,GT,34.1585439,-118.6361556,251.2480091240473,0.19721921,0.1,314.35544,1638995399000
Fix,GT,34.1585443,-118.6361561,251.2490001754954,0.004462619,0.1,314.35156,1638995400000
Fix,GT,34.1585443,-118.6361561,251.24900649332977,8.202631e-06,0.1,314.3522,1638995401000
Fix,GT,34.1585443,-118.6361561,251.24899777705824,0.0009972726,0.1,314.35263,1638995402000
Fix,GT,34.1585443,-118.6361561,251.2490015209601,0.0014142136,0.1,314.3526,1638995403000
Fix,GT,34.1585443,-118.6361561,251.24899532012267,0.0010011242,0.1,314.35327,1638995404000
Fix,GT,34.1585443,-118.6361561,251.2490015794586,0.0014142136,0.1,314.35358,1638995405000
Fix,GT,34.1585443,-118.6361561,251.24899537862115,0.0014180325,0.099,314.3543,1638995406000
Fix,GT,34.1585443,-118.6361561,251.24900163795704,0.0014130978,0.1,314.35538,1638995407000
Fix,GT,34.1585443,-118.6361561,251.2490028664249,0.0014104139,0.1,314.35562,1638995408000
Fix,GT,34.1585443,-118.6361561,251.2489966655874,0.0,0.1,314.3566,1638995409000
Fix,GT,34.1585443,-118.6361561,251.24900544035737,0.0014142136,0.1,314.35706,1638995410000
Fix,GT,34.1585443,-118.6361561,251.24899923951992,0.0010011046,0.1,314.35788,1638995411000
Fix,GT,34.1585443,-118.6361561,251.24900549885584,0.0014131118,0.1,314.359,1638995412000
Fix,GT,34.1585443,-118.6361561,251.2489992980184,0.001001099,0.1,314.35974,1638995413000
Fix,GT,34.1585443,-118.6361561,251.2490055573543,0.0009973538,0.1,314.36087,1638995414000
Fix,GT,34.1585443,-118.6361561,251.2489968410828,0.0009973606,0.1,314.3616,1638995415000
Fix,GT,34.1585443,-118.6361561,251.24900310041872,0.002,0.1,314.36234,1638995416000
Fix,GT,34.1585443,-118.6361561,251.2489968995813,0.001,0.1,314.36307,1638995417000
Fix,GT,34.1585443,-118.6361561,251.2490007019816,0.001,0.1,314.36423,1638995418000
Fix,GT,34.1585443,-118.6361561,251.2490069613175,0.0014142136,0.1,314.36548,1638995419000
Fix,GT,34.1585443,-118.6361561,251.24899572961195,0.0014142136,0.1,314.36658,1638995420000
Fix,GT,34.1585443,-118.6361561,251.2490045043819,0.0,0.1,314.36737,1638995421000
Fix,GT,34.1585443,-118.6361561,251.24899830354445,0.000997408,0.1,314.368,1638995422000
Fix,GT,34.1585443,-118.6361561,251.2490020474463,3.6561664e-06,0.1,314.3691,1638995423000
Fix,GT,34.1585443,-118.6361561,251.24899333117483,0.0009974214,0.099,314.37012,1638995424000
Fix,GT,34.1585443,-118.6361561,251.24899707507663,0.0014131482,0.099,314.37137,1638995425000
Fix,GT,34.1585443,-118.6361561,251.2490008189785,0.0010010625,0.1,314.37277,1638995426000
Fix,GT,34.1585443,-118.6361561,251.24900707831443,0.001,0.1,314.3736,1638995427000
Fix,GT,34.1585443,-118.6361561,251.24900087747704,0.0010031537,0.1,314.37433,1638995428000
Fix,GT,34.1585443,-118.6361561,251.24900462137884,0.0014142137,0.1,314.3753,1638995429000
Fix,GT,34.1585443,-118.6361561,251.2489934481717,0.0014162994,0.1,314.377,1638995430000
Fix,GT,34.1585443,-118.6361561,251.24900222294173,0.0014131651,0.1,314.37854,1638995431000
Fix,GT,34.1585443,-118.6361561,251.24900596684355,0.0014142137,0.1,314.37994,1638995432000
Fix,GT,34.1585443,-118.6361561,251.24899725057207,0.002236068,0.1,314.3816,1638995433000
Fix,GT,34.1585443,-118.6361561,251.249003509908,0.0022354755,0.1,314.38312,1638995434000
Fix,GT,34.1585443,-118.6361561,251.24899479363648,0.002002504,0.1,314.38516,1638995435000
Fix,GT,34.1585444,-118.6361562,251.247003550224,0.087120056,0.1,314.38528,1638995436000
Fix,GT,34.1585467,-118.636159,251.25700977798687,0.7853084,0.1,314.35016,1638995437000
Fix,GT,34.1585573,-118.636172,251.3130233679288,2.6247296,0.099,314.18927,1638995438000
Fix,GT,34.158579,-118.6361991,251.44003945524992,4.2377353,0.1,313.694,1638995439000
Fix,GT,34.1586101,-118.6362387,251.6190702677085,5.865716,0.1,313.26285,1638995440000
Fix,GT,34.1586496,-118.636291,251.83608621587047,6.947693,0.1,311.90402,1638995441000
Fix,GT,34.1586928,-118.6363505,252.12407719312748,7.574216,0.1,310.80014,1638995442000
Fix,GT,34.1587391,-118.6364155,252.44206594947028,8.24917,0.1,310.42126,1638995443000
Fix,GT,34.1587899,-118.6364861,252.81809159863465,8.964158,0.1,310.3733,1638995444000
Fix,GT,34.1588438,-118.6365622,253.1850728317371,9.25295,0.1,310.27264,1638995445000
Fix,GT,34.1588975,-118.6366375,253.52508378322705,9.262269,0.1,310.7432,1638995446000
Fix,GT,34.1589556,-118.6367173,253.8800603301595,10.366238,0.1,310.77222,1638995447000
Fix,GT,34.1590199,-118.6368061,254.14905922568613,11.209654,0.1,311.13022,1638995448000
Fix,GT,34.1590875,-118.6368964,254.39505505737665,11.35721,0.1,312.19592,1638995449000
Fix,GT,34.1591578,-118.6369885,254.6410370465219,11.562744,0.1,312.29993,1638995450000
Fix,GT,34.1592282,-118.6370793,254.77903120251187,11.336153,0.1,313.51706,1638995451000
Fix,GT,34.1592998,-118.637164,254.8770207422236,10.992773,0.1,316.226,1638995452000
Fix,GT,34.1593719,-118.6372429,254.928002160416,10.6324415,0.099,318.18115,1638995453000
Fix,GT,34.1594423,-118.6373162,254.93499388523912,9.987986,0.099,319.35345,1638995454000
Fix,GT,34.1595068,-118.6373809,254.9209809276564,8.600972,0.099,320.3206,1638995455000
Fix,GT,34.1595621,-118.6374336,254.8499845836656,7.094528,0.1,322.01886,1638995456000
Fix,GT,34.159609,-118.6374743,254.7819978409456,5.738476,0.1,324.60883,1638995457000
Fix,GT,34.1596451,-118.637503,254.72099225693407,4.0074344,0.1,326.40918,1638995458000
Fix,GT,34.1596705,-118.6375225,254.6619784216136,2.7244945,0.1,327.14313,1638995459000
Fix,GT,34.1596878,-118.6375356,254.61698926145348,1.7016132,0.1,327.74103,1638995460000
Fix,GT,34.1596956,-118.6375413,254.5949977314775,0.43323162,0.1,327.96948,1638995461000
Fix,GT,34.1596965,-118.637542,254.58900408079103,0.0063978327,0.1,328.00095,1638995462000
Fix,GT,34.1596965,-118.6375419,254.58799756968853,0.0010009587,0.099,328.00174,1638995463000
Fix,GT,34.1596965,-118.6375419,254.5890013633508,0.0014132578,0.1,327.99994,1638995464000
Fix,GT,34.1596965,-118.6375419,254.5890051570225,0.001,0.1,328.00018,1638995465000
Fix,GT,34.1596965,-118.6375419,254.5889937760073,0.001,0.1,327.99994,1638995466000
Fix,GT,34.1596965,-118.6375419,254.5889976289552,0.0014132662,0.1,327.9994,1638995467000
Fix,GT,34.1596965,-118.6375419,254.5890039715001,0.001413269,0.1,327.99896,1638995468000
Fix,GT,34.1596965,-118.6375419,254.5889925904849,0.0014142136,0.099,327.9985,1638995469000
Fix,GT,34.1596965,-118.6375419,254.58899638415664,0.0014142136,0.1,327.99802,1638995470000
Fix,GT,34.1596965,-118.6375419,254.58900527557475,0.0014142136,0.1,327.99762,1638995471000
Fix,GT,34.1596965,-118.6375419,254.5889964434328,0.0014132803,0.1,327.99725,1638995472000
Fix,GT,34.1596965,-118.6375419,254.5890002371045,0.001,0.1,327.99652,1638995473000
Fix,GT,34.1596965,-118.6375419,254.5890065796494,0.0014142136,0.1,327.99625,1638995474000
Fix,GT,34.1596965,-118.6375419,254.58899774750745,0.001000925,0.1,327.9958,1638995475000
Fix,GT,34.1596965,-118.6375419,254.5890040900524,0.001,0.1,327.99536,1638995476000
Fix,GT,34.1596965,-118.6375419,254.5889927090372,0.001,0.099,327.9949,1638995477000
Fix,GT,34.1596965,-118.6375419,254.58899905158208,2.21264e-06,0.1,327.9944,1638995478000
Fix,GT,34.1596965,-118.6375419,254.58900290453,0.001,0.1,327.99393,1638995479000
Fix,GT,34.1596965,-118.6375419,254.58899407238792,2.1990902e-06,0.1,327.99344,1638995480000
Fix,GT,34.1596965,-118.6375419,254.58899786605969,0.0,0.1,327.99307,1638995481000
Fix,GT,34.1596965,-118.6375419,254.5890016597314,2.18553e-06,0.1,327.99283,1638995482000
Fix,GT,34.1596965,-118.6375419,254.58899282758932,0.0,0.099,327.9923,1638995483000
Fix,GT,34.1596965,-118.6375419,254.58899662126112,0.0,0.1,327.99203,1638995484000
Fix,GT,34.1596965,-118.6375419,254.5890055126792,0.0009978348,0.1,327.99158,1638995485000
Fix,GT,34.1596965,-118.6375419,254.5889966805373,2.1584501e-06,0.1,327.99112,1638995486000
Fix,GT,34.1596965,-118.6375419,254.58900302308217,0.001,0.1,327.99054,1638995487000
Fix,GT,34.1596965,-118.6375419,254.58899419094016,0.001,0.1,327.99023,1638995488000
Fix,GT,34.1596965,-118.6375419,254.5890005334851,0.001,0.1,327.99002,1638995489000
Fix,GT,34.1596965,-118.6375419,254.58900432715683,0.001,0.1,327.98944,1638995490000
Fix,GT,34.1596965,-118.6375419,254.58899300541773,2.12458e-06,0.099,327.98914,1638995491000
Fix,GT,34.1596965,-118.6375419,254.5889967990895,0.001,0.099,327.98825,1638995492000
Fix,GT,34.1596965,-118.6375419,254.5890031416344,0.001,0.1,327.988,1638995493000
Fix,GT,34.1596965,-118.6375419,254.5890069353061,0.0010021044,0.1,327.98727,1638995494000
Fix,GT,34.1596965,-118.6375419,254.58899555429096,0.0010008689,0.1,327.98737,1638995495000
Fix,GT,34.1596965,-118.6375419,254.58899934796267,0.0014133475,0.1,327.98727,1638995496000
Fix,GT,34.1596965,-118.6375419,254.5890031416344,0.001,0.1,327.987,1638995497000
Fix,GT,34.1596965,-118.6375419,254.5890069353061,0.001,0.1,327.98672,1638995498000
Fix,GT,34.1596965,-118.6375419,254.58899810316413,0.0014133559,0.1,327.98663,1638995499000
Fix,GT,34.1596965,-118.6375419,254.5890045049852,0.001,0.1,327.9859,1638995500000
Fix,GT,34.1596965,-118.6375419,254.58899312397,0.001415904,0.1,327.98596,1638995501000
Fix,GT,34.1596965,-118.6375419,254.5889969176417,0.0014142136,0.1,327.98593,1638995502000
Fix,GT,34.1596965,-118.6375419,254.58900326018664,0.0014133672,0.1,327.98502,1638995503000
Fix,GT,34.1596965,-118.6375419,254.5890045049852,0.002236068,0.1,327.9847,1638995504000
Fix,GT,34.1596965,-118.6375419,254.5889956728432,0.0020004793,0.1,327.98462,1638995505000
Fix,GT,34.1596965,-118.6375419,254.5889994665149,0.002,0.1,327.98422,1638995506000
Fix,GT,34.1596965,-118.6375419,254.58900326018664,0.002236068,0.1,327.98395,1638995507000
Fix,GT,34.1596965,-118.6375419,254.5890070538584,0.0020004746,0.1,327.98373,1638995508000
Fix,GT,34.1596965,-118.6375419,254.5889957321193,0.0014142134,0.1,327.98322,1638995509000
Fix,GT,34.1596965,-118.6375419,254.58899498112777,0.001,0.1,327.98273,1638995510000
Fix,GT,34.1596965,-118.6375419,254.5890007705896,0.0014142136,0.1,327.98245,1638995511000
Fix,GT,34.1596964,-118.6375419,254.591002015404,0.0028290888,0.1,327.9821,1638995512000
Fix,GT,34.1596964,-118.6375418,254.59199573206905,0.0031622774,0.1,327.98187,1638995513000
Fix,GT,34.1596964,-118.6375417,254.59399697685848,0.0030003195,0.1,327.98212,1638995514000
Fix,GT,34.1596964,-118.6375417,254.5960007706108,0.0028284271,0.1,327.98196,1638995515000
Fix,GT,34.1596971,-118.6375421,254.59000266844544,0.42007732,0.1,328.00848,1638995516000
Fix,GT,34.1597058,-118.6375482,254.5669999932335,1.856342,0.1,328.1781,1638995517000
Fix,GT,34.1597247,-118.6375623,254.5209828395529,3.141193,0.1,328.2187,1638995518000
Fix,GT,34.1597544,-118.637584,254.45097251743263,4.570498,0.1,328.6016,1638995519000
Fix,GT,34.159796,-118.6376139,254.28296289493144,6.147743,0.1,329.15918,1638995520000
Fix,GT,34.159844,-118.6376559,254.11497257424327,6.6851892,0.1,321.4317,1638995521000
Fix,GT,34.1598845,-118.6377172,253.9379650074872,7.3565397,0.1,304.60672,1638995522000
Fix,GT,34.1599096,-118.6377955,253.64190802654204,7.9219227,0.1,286.3112,1638995523000
Fix,GT,34.1599134,-118.6378885,253.3259361945272,9.082416,0.1,267.14807,1638995524000
Fix,GT,34.1598929,-118.6379938,253.0979635584336,10.849345,0.1,252.47557,1638995525000
Fix,GT,34.1598529,-118.6381124,252.87794102391783,12.414863,0.1,245.96593,1638995526000
Fix,GT,34.1598,-118.6382382,252.46392807255685,13.572487,0.1,240.31425,1638995527000
Fix,GT,34.1597265,-118.6383626,251.92587962713463,14.2904825,0.1,229.80779,1638995528000
Fix,GT,34.1596323,-118.638473,251.12985206649788,14.868166,0.1,220.96658,1638995529000
Fix,GT,34.1595251,-118.6385779,250.1748265701162,15.650213,0.1,218.55283,1638995530000
Fix,GT,34.1594141,-118.6386851,249.23584695535467,15.882025,0.1,219.40588,1638995531000
Fix,GT,34.1593089,-118.6388006,248.4799047978101,15.6327715,0.1,224.6085,1638995532000
Fix,GT,34.1592196,-118.6389226,248.0399382226495,14.384673,0.099,231.63979,1638995533000
Fix,GT,34.1591514,-118.6390437,247.8900050950453,12.707614,0.1,238.226,1638995534000
Fix,GT,34.1591008,-118.6391582,247.90201607367325,11.407688,0.1,243.9529,1638995535000
Fix,GT,34.1590627,-118.6392615,247.93800742535385,9.357002,0.1,246.62854,1638995536000
Fix,GT,34.1590339,-118.6393447,247.9820135549668,7.4457645,0.1,247.52237,1638995537000
Fix,GT,34.1590109,-118.639413,247.98701068488427,6.1347237,0.1,247.49573,1638995538000
Fix,GT,34.1589916,-118.6394683,248.00498879025,4.8226757,0.1,247.00632,1638995539000
Fix,GT,34.1589751,-118.6395153,248.02100326713207,4.6295395,0.1,246.9674,1638995540000
Fix,GT,34.1589593,-118.6395604,248.0370105207708,4.3311224,0.1,247.03458,1638995541000
Fix,GT,34.1589455,-118.6396006,248.0650124405576,3.3917534,0.1,247.20078,1638995542000
Fix,GT,34.1589368,-118.6396259,248.0779960145489,1.7290078,0.099,247.44409,1638995543000
Fix,GT,34.1589326,-118.6396387,248.07700396013723,1.2384647,0.1,247.60301,1638995544000
Fix,GT,34.1589276,-118.6396534,248.07600092415512,1.855509,0.1,247.6748,1638995545000
Fix,GT,34.1589176,-118.6396816,248.08300815314672,3.9901452,0.1,246.65277,1638995546000
Fix,GT,34.1588973,-118.639733,248.1289646342352,6.386388,0.1,244.18909,1638995547000
Fix,GT,34.1588656,-118.6398057,248.1450076843713,8.673185,0.1,241.5989,1638995548000
Fix,GT,34.158822,-118.6398965,248.18102248300613,10.474473,0.1,239.29198,1638995549000
Fix,GT,34.1587687,-118.6400021,248.26102020306465,12.391485,0.1,238.30843,1638995550000
Fix,GT,34.1587054,-118.6401261,248.33201200013863,14.458312,0.1,238.70724,1638995551000
Fix,GT,34.1586371,-118.6402722,248.40902344764768,16.478222,0.1,241.88745,1638995552000
Fix,GT,34.158567,-118.6404409,248.5160145301432,18.296095,0.1,243.83734,1638995553000
Fix,GT,34.1584923,-118.6406278,248.58601750321665,19.843056,0.1,244.34209,1638995554000
Fix,GT,34.158413,-118.6408297,248.68400861411683,21.365152,0.099,244.63824,1638995555000
Fix,GT,34.1583285,-118.6410466,248.8230482668368,22.814735,0.1,244.85016,1638995556000
Fix,GT,34.1582395,-118.641277,249.0480334029633,23.919743,0.1,244.91156,1638995557000
Fix,GT,34.1581478,-118.6415155,249.22803288014973,24.557407,0.1,245.0033,1638995558000
Fix,GT,34.158052,-118.6417597,249.3910081759933,25.307825,0.099,244.27179,1638995559000
Fix,GT,34.15795,-118.6420111,249.46501260964084,26.276419,0.1,243.43427,1638995560000
Fix,GT,34.1578417,-118.6422705,249.5560194992159,27.261038,0.1,243.17288,1638995561000
Fix,GT,34.1577294,-118.6425382,249.7160231147767,28.015722,0.1,243.01884,1638995562000
Fix,GT,34.1576134,-118.6428125,249.7840200685407,28.74772,0.1,242.87254,1638995563000
Fix,GT,34.1574939,-118.6430929,249.89100881557027,29.344608,0.099,242.3523,1638995564000
Fix,GT,34.1573694,-118.643377,249.9650139909899,29.890514,0.099,241.81934,1638995565000
Fix,GT,34.1572411,-118.6436648,250.026020900636,30.32318,0.1,241.60544,1638995566000
Fix,GT,34.1571122,-118.6439569,250.1310202807508,30.597647,0.1,242.08502,1638995567000
Fix,GT,34.1569835,-118.6442512,250.31303725029625,30.813396,0.099,241.94781,1638995568000
Fix,GT,34.1568525,-118.6445481,250.5340648357889,31.22941,0.1,241.79346,1638995569000
Fix,GT,34.1567189,-118.6448494,250.86305194101365,31.685516,0.1,241.65309,1638995570000
Fix,GT,34.1565815,-118.6451512,251.1890431518653,31.7639,0.099,240.70053,1638995571000
Fix,GT,34.1564422,-118.6454526,251.52305571341515,31.841885,0.1,241.07494,1638995572000
Fix,GT,34.1563055,-118.6457572,251.847057339632,32.028965,0.1,241.18092,1638995573000
Fix,GT,34.1561657,-118.6460622,252.18406052586224,32.196968,0.1,240.85391,1638995574000
Fix,GT,34.1560242,-118.6463685,252.5400475154401,32.438866,0.1,240.88626,1638995575000
Fix,GT,34.155883,-118.6466781,252.88105418541468,32.687317,0.1,241.33458,1638995576000
Fix,GT,34.1557434,-118.6469913,253.2090506282624,32.87751,0.1,242.03195,1638995577000
Fix,GT,34.1556057,-118.6473077,253.5400588818155,32.959724,0.1,242.35936,1638995578000
Fix,GT,34.1554687,-118.6476239,253.98909198544385,32.722855,0.1,242.26454,1638995579000
Fix,GT,34.155333,-118.647936,254.6061141403286,32.20998,0.1,242.1339,1638995580000
Fix,GT,34.1551991,-118.6482432,255.38613053106528,31.854374,0.1,242.24864,1638995581000
Fix,GT,34.1550657,-118.6485494,256.3191427087212,31.903574,0.1,242.09491,1638995582000
Fix,GT,34.1549322,-118.6488552,257.2851452555303,31.803747,0.1,242.18855,1638995583000
Fix,GT,34.1547992,-118.6491602,258.24014180918414,31.766665,0.1,242.09975,1638995584000
Fix,GT,34.1546659,-118.6494648,259.2181387129484,31.782194,0.1,242.02356,1638995585000
Fix,GT,34.1545322,-118.64977,260.1691367309466,31.687366,0.1,242.1659,1638995586000
Fix,GT,34.154401,-118.6500718,261.127138491258,31.121052,0.1,242.32681,1638995587000
Fix,GT,34.1542724,-118.6503685,262.0461453960432,30.672888,0.1,242.3013,1638995588000
Fix,GT,34.1541441,-118.6506629,262.93913057675644,30.647886,0.1,242.13426,1638995589000
Fix,GT,34.1540156,-118.6509571,263.8701443788947,30.654633,0.1,242.24872,1638995590000
Fix,GT,34.1538874,-118.6512524,264.7891324955504,30.818798,0.1,242.00288,1638995591000
Fix,GT,34.1537566,-118.6515485,265.75513075368,31.017464,0.1,241.93686,1638995592000
Fix,GT,34.1536259,-118.6518466,266.71913479887974,31.091066,0.1,242.1253,1638995593000
Fix,GT,34.1534956,-118.652146,267.6271401744378,31.244623,0.1,242.29642,1638995594000
Fix,GT,34.1533657,-118.6524471,268.5521391825952,31.279453,0.1,242.8707,1638995595000
Fix,GT,34.1532406,-118.65275,269.487131673307,31.112127,0.1,244.10266,1638995596000
Fix,GT,34.153122,-118.6530555,270.4151298130313,31.143162,0.1,245.53998,1638995597000
Fix,GT,34.1530081,-118.6533658,271.3251502316501,31.487394,0.1,246.45268,1638995598000
Fix,GT,34.1528982,-118.6536825,272.3221268789268,31.903841,0.1,247.77432,1638995599000
Fix,GT,34.1527924,-118.6540056,273.30814021709955,32.031822,0.1,249.08797,1638995600000
Fix,GT,34.1526935,-118.6543309,274.30314084279814,31.97642,0.1,250.43643,1638995601000
Fix,GT,34.152599,-118.6546594,275.2931359949233,32.166313,0.1,251.09167,1638995602000
Fix,GT,34.152505,-118.6549914,276.2751298250478,32.453194,0.1,251.0632,1638995603000
Fix,GT,34.1524104,-118.6553245,277.2711154487168,32.444183,0.099,250.96825,1638995604000
Fix,GT,34.1523156,-118.655656,278.2491311711576,32.20412,0.1,250.80609,1638995605000
Fix,GT,34.1522205,-118.6559858,279.2151370765484,32.217422,0.1,250.65984,1638995606000
Fix,GT,34.1521247,-118.6563165,280.21014601361634,32.404484,0.1,250.66867,1638995607000
Fix,GT,34.1520283,-118.656651,281.19314877171604,32.880936,0.1,250.77084,1638995608000
Fix,GT,34.1519314,-118.6569882,282.20213392935113,32.85377,0.1,250.80032,1638995609000
Fix,GT,34.1518351,-118.6573247,283.1831382265526,32.85348,0.1,250.93498,1638995610000
Fix,GT,34.151739,-118.6576624,284.15612387474766,32.894814,0.1,251.02454,1638995611000
Fix,GT,34.1516442,-118.6579973,285.138140831253,32.3407,0.1,250.98303,1638995612000
Fix,GT,34.1515491,-118.6583275,286.0891241839202,32.19576,0.1,250.62154,1638995613000
Fix,GT,34.1514532,-118.6586579,287.01515145076434,32.361473,0.1,250.68073,1638995614000
Fix,GT,34.1513568,-118.6589917,288.0491336246617,32.822193,0.1,250.72571,1638995615000
Fix,GT,34.1512592,-118.6593305,289.0511299081511,33.301643,0.1,250.79051,1638995616000
Fix,GT,34.1511608,-118.6596743,290.06212701416507,33.745426,0.1,250.85999,1638995617000
Fix,GT,34.1510619,-118.6600202,291.0581443127808,33.525047,0.1,250.98364,1638995618000
Fix,GT,34.1509651,-118.6603611,292.0711045099567,32.92728,0.1,250.95392,1638995619000
Fix,GT,34.1508696,-118.6606959,293.03311571224657,32.433723,0.1,250.9097,1638995620000
Fix,GT,34.1507746,-118.6610261,293.99613185498464,32.12777,0.1,250.61035,1638995621000
Fix,GT,34.1506792,-118.6613544,294.9581163647676,31.941612,0.1,250.64627,1638995622000
Fix,GT,34.1505851,-118.6616798,295.86709726154794,31.739378,0.1,250.66937,1638995623000
Fix,GT,34.1504907,-118.6620054,296.76211354451,31.980446,0.1,250.59985,1638995624000
Fix,GT,34.150395,-118.662335,297.6791121968031,32.312523,0.1,250.831,1638995625000
Fix,GT,34.1503007,-118.6626668,298.5781031058504,32.36249,0.1,251.0885,1638995626000
Fix,GT,34.1502092,-118.662998,299.42910346120186,32.032204,0.1,252.14043,1638995627000
Fix,GT,34.1501246,-118.6633282,300.33110371200746,31.618248,0.1,253.63602,1638995628000
Fix,GT,34.1500492,-118.6636557,301.22211648771315,31.193047,0.1,255.55324,1638995629000
Fix,GT,34.149985,-118.6639851,302.123114839686,31.479275,0.1,257.8716,1638995630000
Fix,GT,34.1499277,-118.6643237,303.00111204364055,32.26379,0.1,258.7812,1638995631000
Fix,GT,34.1498725,-118.6646714,303.95310426518216,33.03121,0.1,259.32468,1638995632000
Fix,GT,34.1498188,-118.6650256,304.9431264215805,33.287457,0.1,259.89398,1638995633000
Fix,GT,34.1497691,-118.6653804,305.8710715819504,33.093254,0.1,260.717,1638995634000
Fix,GT,34.1497236,-118.6657337,306.5270618805755,32.895054,0.1,261.6257,1638995635000
Fix,GT,34.1496839,-118.6660851,306.94701970760104,32.572918,0.099,262.79028,1638995636000
Fix,GT,34.1496504,-118.6664368,307.15502368969703,32.829357,0.1,264.05002,1638995637000
Fix,GT,34.1496235,-118.6667925,307.2269908392399,32.990116,0.1,265.28296,1638995638000
Fix,GT,34.1496026,-118.6671478,307.1619686381905,32.691628,0.099,266.311,1638995639000
Fix,GT,34.1495856,-118.6675003,306.7949538388895,32.449356,0.1,266.64978,1638995640000
Fix,GT,34.1495677,-118.6678513,306.22991775176246,32.363453,0.1,266.1577,1638995641000
Fix,GT,34.1495486,-118.6682006,305.43591559631807,32.23127,0.1,266.1178,1638995642000
Fix,GT,34.1495297,-118.6685488,304.4168812441115,32.13873,0.1,266.13586,1638995643000
Fix,GT,34.1495109,-118.6688948,303.179850542749,31.855148,0.099,266.12314,1638995644000
Fix,GT,34.1494924,-118.6692395,301.7518230803569,31.88759,0.1,266.2798,1638995645000
Fix,GT,34.1494742,-118.6695853,300.1048079167027,32.02437,0.1,266.2149,1638995646000
Fix,GT,34.1494558,-118.669933,298.2268120047865,32.32506,0.1,266.26727,1638995647000
Fix,GT,34.1494371,-118.6702854,296.3297930753652,32.706608,0.1,266.1999,1638995648000
Fix,GT,34.1494174,-118.6706398,294.44078589294054,32.745777,0.1,265.94147,1638995649000
Fix,GT,34.1493969,-118.6709938,292.5418072908939,32.6932,0.1,265.9459,1638995650000
Fix,GT,34.1493767,-118.6713479,290.53380301569274,32.82168,0.1,266.1333,1638995651000
Fix,GT,34.1493585,-118.6717018,288.38178410986114,32.523636,0.1,266.73047,1638995652000
Fix,GT,34.1493465,-118.6720501,286.23378030379234,31.820011,0.1,268.54602,1638995653000
Fix,GT,34.1493464,-118.672392,284.1318659645692,31.426407,0.1,271.42725,1638995654000
Fix,GT,34.1493615,-118.6727308,282.4278103190027,31.219889,0.1,274.65765,1638995655000
Fix,GT,34.1493913,-118.6730659,280.4608075879564,30.998285,0.1,277.49622,1638995656000
Fix,GT,34.1494357,-118.6733966,278.5678125552032,30.861395,0.1,280.25052,1638995657000
Fix,GT,34.1494922,-118.6737219,276.6668098485707,30.500065,0.1,283.40225,1638995658000
Fix,GT,34.1495632,-118.6740391,274.8368314626488,30.153894,0.1,286.53366,1638995659000
Fix,GT,34.1496472,-118.6743489,273.0648347545192,30.009588,0.1,289.44342,1638995660000
Fix,GT,34.1497423,-118.674651,271.4828637640244,29.538029,0.1,291.81226,1638995661000
Fix,GT,34.1498431,-118.6749435,270.12086597809883,28.850813,0.1,292.75565,1638995662000
Fix,GT,34.1499427,-118.6752294,268.6038382601136,28.499432,0.1,292.68826,1638995663000
Fix,GT,34.1500427,-118.6755156,266.9438478550129,28.764528,0.1,292.7448,1638995664000
Fix,GT,34.1501438,-118.6758046,265.24283571448245,29.054207,0.1,292.73636,1638995665000
Fix,GT,34.1502466,-118.6760958,263.4588517859915,29.331253,0.1,293.0941,1638995666000
Fix,GT,34.1503515,-118.6763891,261.68083796096033,29.504131,0.1,293.08984,1638995667000
Fix,GT,34.1504548,-118.6766824,260.0068372325281,29.268103,0.099,292.8894,1638995668000
Fix,GT,34.1505576,-118.6769738,258.3138618116532,29.133183,0.1,292.81717,1638995669000
Fix,GT,34.1506587,-118.6772629,256.82687909589424,28.756556,0.1,292.76346,1638995670000
Fix,GT,34.1507588,-118.6775509,255.45488896403032,28.825407,0.1,292.67703,1638995671000
Fix,GT,34.1508582,-118.6778402,254.15286840839485,28.897997,0.1,291.87625,1638995672000
Fix,GT,34.1509512,-118.6781353,252.93489776162244,29.353462,0.1,289.56464,1638995673000
Fix,GT,34.1510345,-118.6784397,251.6419020515669,29.723658,0.1,286.83368,1638995674000
Fix,GT,34.151107,-118.6787513,250.3098869983841,29.900913,0.1,284.3166,1638995675000
Fix,GT,34.1511685,-118.6790693,248.9058852270521,30.256851,0.1,281.772,1638995676000
Fix,GT,34.1512176,-118.6793925,247.52788101471936,30.273949,0.1,278.87234,1638995677000
Fix,GT,34.1512534,-118.6797182,246.15188459704527,30.252691,0.1,276.07562,1638995678000
Fix,GT,34.151276,-118.6800432,244.8578920745367,29.850931,0.1,273.45953,1638995679000
Fix,GT,34.151287,-118.6803652,243.63890813979472,29.699966,0.1,271.36523,1638995680000
Fix,GT,34.1512912,-118.6806871,242.40690879762167,29.692314,0.1,270.56976,1638995681000
Fix,GT,34.1512935,-118.681009,241.1909120784738,29.698725,0.1,270.42084,1638995682000
Fix,GT,34.151295,-118.6813309,239.9969212179184,29.692234,0.1,270.13385,1638995683000
Fix,GT,34.151296,-118.6816521,238.9659256404345,29.436235,0.1,270.16467,1638995684000
Fix,GT,34.1512978,-118.6819686,237.9749331817312,29.087158,0.099,270.46353,1638995685000
Fix,GT,34.1513003,-118.6822834,237.1799570420198,28.985756,0.1,270.4851,1638995686000
Fix,GT,34.1513028,-118.6825975,236.4899333149295,28.96027,0.1,270.53937,1638995687000
Fix,GT,34.1513056,-118.6829114,235.8869475660925,28.90041,0.099,270.55502,1638995688000
Fix,GT,34.1513072,-118.6832239,235.41996855020136,28.73499,0.1,269.8122,1638995689000
Fix,GT,34.1513019,-118.6835347,234.9599560064231,28.575624,0.099,267.68512,1638995690000
Fix,GT,34.1512849,-118.6838432,234.42794607582525,28.44395,0.1,264.6859,1638995691000
Fix,GT,34.151256,-118.6841503,233.67494852056507,28.493298,0.1,262.5268,1638995692000
Fix,GT,34.1512169,-118.6844556,232.9859437796662,28.417953,0.1,259.9362,1638995693000
Fix,GT,34.1511674,-118.6847577,232.24794679795625,28.435947,0.1,257.82782,1638995694000
Fix,GT,34.1511113,-118.6850594,231.4979447510182,28.512156,0.1,257.0363,1638995695000
Fix,GT,34.1510539,-118.6853602,230.8169438528162,28.395899,0.1,257.0251,1638995696000
Fix,GT,34.1509966,-118.6856596,230.280960699829,28.228777,0.1,256.72507,1638995697000
Fix,GT,34.1509383,-118.6859561,229.8059681348044,27.934982,0.1,256.4591,1638995698000
Fix,GT,34.1508811,-118.6862487,229.26895262252447,27.521965,0.1,256.93948,1638995699000
Fix,GT,34.1508285,-118.6865394,228.77396461813524,27.368198,0.099,258.2251,1638995700000
Fix,GT,34.1507836,-118.6868298,228.49098096310692,27.146437,0.1,260.50613,1638995701000
Fix,GT,34.1507508,-118.6871199,228.2119717982873,26.912575,0.099,263.61545,1638995702000
Fix,GT,34.1507301,-118.6874092,227.93598170510168,26.700117,0.1,266.27335,1638995703000
Fix,GT,34.1507207,-118.687697,227.6539852024516,26.48637,0.1,268.9231,1638995704000
Fix,GT,34.1507219,-118.687983,227.33097274115167,26.29093,0.1,271.29105,1638995705000
Fix,GT,34.1507333,-118.6882666,226.9499725933279,26.119156,0.1,273.98987,1638995706000
Fix,GT,34.1507556,-118.6885475,226.51997321572333,26.014303,0.1,276.64905,1638995707000
Fix,GT,34.1507891,-118.6888281,226.0319688531337,26.424221,0.1,279.29413,1638995708000
Fix,GT,34.1508326,-118.6891107,225.47996734502183,26.533764,0.1,281.4637,1638995709000
Fix,GT,34.1508848,-118.6893908,224.9909712705992,26.42163,0.1,283.3494,1638995710000
Fix,GT,34.1509434,-118.6896675,224.64898271357896,26.266289,0.1,284.89514,1638995711000
Fix,GT,34.1510057,-118.6899415,224.24796353536485,26.123596,0.1,285.44965,1638995712000
Fix,GT,34.1510683,-118.6902148,223.76498080467505,26.195107,0.1,285.13507,1638995713000
Fix,GT,34.1511299,-118.6904893,223.30195967763908,26.261414,0.1,285.10968,1638995714000
Fix,GT,34.1511912,-118.6907646,222.68596418670893,26.322237,0.1,284.65155,1638995715000
Fix,GT,34.1512479,-118.6910443,222.0009486974336,26.801102,0.099,282.6947,1638995716000
Fix,GT,34.1512957,-118.6913302,221.09092549594288,26.917612,0.1,280.07336,1638995717000
Fix,GT,34.1513323,-118.6916192,219.9989428651447,26.960072,0.1,277.374,1638995718000
Fix,GT,34.1513575,-118.69191,218.95895921897272,26.956964,0.1,274.59717,1638995719000
Fix,GT,34.1513719,-118.6922021,217.92294095042044,26.969402,0.1,272.1322,1638995720000
Fix,GT,34.1513749,-118.6924947,216.895941485648,26.97296,0.1,269.18848,1638995721000
Fix,GT,34.1513652,-118.6927873,215.964954083191,27.056316,0.1,266.29565,1638995722000
Fix,GT,34.1513435,-118.6930817,215.11496319128256,27.441494,0.1,263.58435,1638995723000
Fix,GT,34.1513096,-118.6933781,214.39298039917048,27.662624,0.1,260.6556,1638995724000
Fix,GT,34.1512634,-118.6936732,213.94097470592592,27.729671,0.1,257.9599,1638995725000
Fix,GT,34.1512052,-118.6939672,213.3909682074357,28.005892,0.1,255.01662,1638995726000
Fix,GT,34.1511335,-118.6942598,212.82196634122496,28.181694,0.099,252.36948,1638995727000
Fix,GT,34.1510513,-118.6945487,212.3709754412982,28.071453,0.1,249.72983,1638995728000
Fix,GT,34.1509578,-118.6948307,211.9419798557631,27.887617,0.1,246.71664,1638995729000
Fix,GT,34.1508527,-118.6951043,211.5049870830728,27.682533,0.1,243.57858,1638995730000
Fix,GT,34.1507368,-118.6953693,211.10897891183944,27.52356,0.1,240.91705,1638995731000
Fix,GT,34.1506111,-118.6956256,210.68398157214315,27.346588,0.1,237.9191,1638995732000
Fix,GT,34.1504756,-118.6958727,210.24397837830568,27.26034,0.1,235.42767,1638995733000
Fix,GT,34.1503314,-118.6961138,209.79597417550184,27.534029,0.1,233.048,1638995734000
Fix,GT,34.1501765,-118.6963497,209.3799816928592,27.8577,0.1,230.09863,1638995735000
Fix,GT,34.15001,-118.6965755,208.96998869881656,27.75873,0.1,226.656,1638995736000
Fix,GT,34.1498332,-118.6967901,208.5149757817045,27.859657,0.099,223.87927,1638995737000
Fix,GT,34.1496484,-118.6969943,207.9609741470285,27.845444,0.1,221.2267,1638995738000
Fix,GT,34.1494552,-118.6971915,207.0049521084493,28.413641,0.1,219.32056,1638995739000
Fix,GT,34.1492528,-118.6973885,205.77095586613305,29.289663,0.1,218.33783,1638995740000
Fix,GT,34.1490442,-118.697587,204.5139524851853,29.64701,0.1,217.98564,1638995741000
Fix,GT,34.1488345,-118.6977864,203.5499702859277,29.621504,0.1,218.2437,1638995742000
Fix,GT,34.1486256,-118.6979855,203.02498347510289,29.584042,0.1,218.19203,1638995743000
Fix,GT,34.1484171,-118.6981847,202.6379950961896,29.564898,0.1,218.25703,1638995744000
Fix,GT,34.1482068,-118.6983843,202.4219905763115,29.790241,0.1,218.06567,1638995745000
Fix,GT,34.1479953,-118.6985866,202.10799292500863,30.248709,0.1,218.44003,1638995746000
Fix,GT,34.1477804,-118.6987939,201.75898249759203,30.86553,0.099,218.60141,1638995747000
Fix,GT,34.1475622,-118.6990052,201.4029822978143,31.18135,0.1,218.57011,1638995748000
Fix,GT,34.1473425,-118.6992153,201.04398862193705,31.035206,0.1,218.2181,1638995749000
Fix,GT,34.1471241,-118.6994234,200.71499159077536,30.772516,0.1,217.98749,1638995750000
Fix,GT,34.1469067,-118.6996283,200.3499895460845,30.542635,0.1,217.95149,1638995751000
Fix,GT,34.146692,-118.6998342,199.77498241780688,30.423141,0.1,219.15019,1638995752000
Fix,GT,34.1464838,-118.7000507,199.17498203207228,30.782837,0.1,222.15253,1638995753000
Fix,GT,34.146279,-118.7002825,198.7429862316267,31.64273,0.1,223.9342,1638995754000
Fix,GT,34.1460737,-118.7005267,198.3639886736952,32.34875,0.1,224.81503,1638995755000
Fix,GT,34.1458684,-118.7007785,198.1079962257972,32.645954,0.1,226.04344,1638995756000
Fix,GT,34.1456703,-118.7010391,197.95499032864385,32.44198,0.099,228.91823,1638995757000
Fix,GT,34.1454834,-118.7013066,197.87599604841787,32.10431,0.1,230.67596,1638995758000
Fix,GT,34.1453035,-118.7015799,198.02600323787223,32.278214,0.1,232.2699,1638995759000
Fix,GT,34.1451288,-118.7018619,198.24001108461152,32.675148,0.1,234.117,1638995760000
Fix,GT,34.1449577,-118.7021533,198.7350127846329,33.090347,0.1,234.86594,1638995761000
Fix,GT,34.1447878,-118.7024493,199.27101587937307,33.228634,0.1,235.35191,1638995762000
Fix,GT,34.1446184,-118.7027461,199.8430194996551,33.15609,0.1,235.13911,1638995763000
Fix,GT,34.1444485,-118.7030421,200.51101404766644,33.08634,0.099,235.21939,1638995764000
Fix,GT,34.1442813,-118.7033354,201.2340144364624,32.48747,0.099,235.54984,1638995765000
Fix,GT,34.1441179,-118.7036235,201.9250118190616,31.825865,0.1,235.42398,1638995766000
Fix,GT,34.143959,-118.7039037,202.8360198762291,30.748373,0.1,235.48767,1638995767000
Fix,GT,34.143806,-118.7041744,203.67802148630963,29.645212,0.1,235.80151,1638995768000
Fix,GT,34.1436604,-118.7044368,204.44801697046844,28.591152,0.1,236.3464,1638995769000
Fix,GT,34.1435193,-118.7046928,205.1670198970031,28.163176,0.1,236.49956,1638995770000
Fix,GT,34.1433852,-118.7049487,205.8850177012309,27.638872,0.1,238.70676,1638995771000
Fix,GT,34.1432612,-118.7052049,206.6080164772753,27.029142,0.1,240.22833,1638995772000
Fix,GT,34.1431427,-118.7054568,207.5020214687438,26.340536,0.1,240.21199,1638995773000
Fix,GT,34.1430266,-118.7057014,208.5620193679524,25.575409,0.1,239.99376,1638995774000
Fix,GT,34.1429151,-118.7059385,209.8640225950938,24.667212,0.1,240.51184,1638995775000
Fix,GT,34.1428098,-118.7061657,211.23802678082512,23.0207,0.1,240.71902,1638995776000
Fix,GT,34.142715,-118.7063727,212.6640310521433,20.641447,0.1,241.07637,1638995777000
Fix,GT,34.1426321,-118.7065636,214.05503035829344,19.322832,0.1,243.61406,1638995778000
Fix,GT,34.1425634,-118.7067499,215.41901775559785,18.334396,0.099,247.45584,1638995779000
Fix,GT,34.1425105,-118.7069321,216.76802260661057,17.416407,0.1,253.43689,1638995780000
Fix,GT,34.1424792,-118.7071132,218.12102396880272,16.890121,0.1,261.46255,1638995781000
Fix,GT,34.1424696,-118.707291,219.3430109620084,16.100945,0.099,269.4256,1638995782000
Fix,GT,34.1424803,-118.7074622,220.37501148101185,15.851809,0.1,277.45508,1638995783000
Fix,GT,34.1425115,-118.7076316,221.08200435241108,16.426537,0.1,285.1658,1638995784000
Fix,GT,34.1425596,-118.7078033,221.69800655811264,16.955196,0.1,290.32886,1638995785000
Fix,GT,34.14262,-118.7079733,222.1460052624576,17.196844,0.1,294.64832,1638995786000
Fix,GT,34.1426927,-118.7081383,222.57300548523608,17.264524,0.1,300.12106,1638995787000
Fix,GT,34.1427775,-118.7082925,222.86500314829232,16.93017,0.1,305.38977,1638995788000
Fix,GT,34.1428684,-118.7084364,222.89800120596863,16.34792,0.1,307.61884,1638995789000
Fix,GT,34.1429574,-118.7085727,222.75400062122435,15.550374,0.1,307.9302,1638995790000
Fix,GT,34.1430408,-118.7087009,222.54700188497816,14.621873,0.1,307.91492,1638995791000
Fix,GT,34.1431201,-118.7088216,222.2460026223333,13.607724,0.1,308.45172,1638995792000
Fix,GT,34.1431929,-118.7089314,222.1219938746584,12.37962,0.1,308.46942,1638995793000
Fix,GT,34.1432576,-118.7090306,222.10999640025312,10.658795,0.1,307.99646,1638995794000
Fix,GT,34.143314,-118.7091159,222.21999527778465,9.573345,0.099,309.07504,1638995795000
Fix,GT,34.1433625,-118.7091926,222.408996064168,8.116331,0.099,305.61447,1638995796000
Fix,GT,34.1433938,-118.7092707,222.5949947432524,7.7625146,0.1,291.1026,1638995797000
Fix,GT,34.1434,-118.7093578,222.63899751266663,8.097466,0.1,268.46042,1638995798000
Fix,GT,34.1433765,-118.7094477,222.5909983589713,9.2191925,0.1,246.73126,1638995799000
Fix,GT,34.143323,-118.7095368,222.3799992431477,10.819025,0.1,228.3594,1638995800000
Fix,GT,34.1432415,-118.7096173,221.9920001456626,12.518806,0.1,214.7453,1638995801000
Fix,GT,34.1431361,-118.7096902,221.4050014191727,14.357031,0.1,206.6204,1638995802000
Fix,GT,34.1430116,-118.7097573,220.6510002281666,15.831896,0.1,202.63898,1638995802999
Fix,GT,34.1428738,-118.7098212,219.7310009727478,16.820713,0.1,199.78342,1638995803999
Fix,GT,34.1427265,-118.7098787,218.73700150251383,17.474007,0.1,196.33894,1638995804999
Fix,GT,34.1425724,-118.7099299,217.68600252729647,17.93908,0.1,194.42467,1638995805999
Fix,GT,34.1424129,-118.7099727,216.7610026083589,18.251244,0.1,190.6002,1638995806999
Fix,GT,34.1422481,-118.7100004,215.97300261110067,18.511992,0.1,185.69582,1638995807999
Fix,GT,34.1420812,-118.7100137,215.35900218451025,18.641375,0.1,182.65271,1638995808999
Fix,GT,34.1419129,-118.7100199,215.0050009098053,18.619587,0.1,180.35234,1638995809999
Fix,GT,34.141746,-118.7100159,214.9290004013777,18.349018,0.1,177.46887,1638995810999
Fix,GT,34.1415827,-118.7100015,215.0809983936548,17.845423,0.1,173.66663,1638995811999
Fix,GT,34.141429,-118.7099739,215.419997297883,16.531208,0.1,169.7533,1638995812999
Fix,GT,34.14129,-118.7099389,215.8339964164496,14.996344,0.1,166.4928,1638995813999
Fix,GT,34.1411625,-118.7098957,216.1969982188344,14.56115,0.1,162.46582,1638995814999
Fix,GT,34.1410362,-118.7098435,216.409998349905,15.06965,0.1,160.32245,1638995815999
Fix,GT,34.140909,-118.7097867,216.5149993098974,14.9429655,0.1,159.0083,1638995816999
Fix,GT,34.1407881,-118.7097287,216.52600031614304,13.705946,0.1,157.84277,1638995817999
Fix,GT,34.1406817,-118.7096749,216.445001234591,11.660701,0.1,156.64032,1638995818999
Fix,GT,34.1405971,-118.7096197,216.30600131064656,9.727433,0.1,146.64136,1638995819999
Fix,GT,34.1405401,-118.7095435,216.07200403022765,9.170428,0.1,124.39679,1638995820999
Fix,GT,34.1405152,-118.709445,215.6790059759617,9.719136,0.1,98.304565,1638995821999
Fix,GT,34.140527,-118.7093304,215.17100600254537,11.478462,0.1,76.00818,1638995822999
Fix,GT,34.1405685,-118.7092024,214.67600395572185,13.718111,0.1,65.04556,1638995823999
Fix,GT,34.140633,-118.7090611,214.0990087382793,15.91827,0.1,58.347412,1638995824999
Fix,GT,34.1407151,-118.7089063,213.51000768756867,17.75927,0.1,56.912292,1638995825999
Fix,GT,34.1408051,-118.7087373,213.12800450932977,19.224035,0.1,56.97635,1638995826999
Fix,GT,34.1409024,-118.7085558,212.974001390934,20.698788,0.1,56.784668,1638995827999
Fix,GT,34.141008,-118.7083606,213.1229956626892,22.250973,0.1,56.47644,1638995828999
Fix,GT,34.141122,-118.7081549,213.4229951230288,23.226404,0.1,55.770416,1638995829999
Fix,GT,34.1412415,-118.7079438,213.66699514073133,23.8266,0.1,55.36963,1638995830999
Fix,GT,34.1413642,-118.7077282,213.7959971820116,24.369404,0.1,55.745728,1638995831999
Fix,GT,34.1414871,-118.7075051,213.8089995837212,25.051218,0.1,56.483948,1638995832999
Fix,GT,34.1416117,-118.7072741,213.7120032240152,25.736647,0.1,56.99588,1638995833999
Fix,GT,34.1417373,-118.7070369,213.50300953948496,26.039011,0.1,57.507874,1638995834999
Fix,GT,34.1418633,-118.7067991,213.12900983422995,25.988205,0.1,56.71875,1638995835999
Fix,GT,34.1419941,-118.7065622,212.5640155428648,26.541426,0.1,55.522766,1638995836999
Fix,GT,34.1421358,-118.7063203,211.78702302914857,28.072027,0.1,53.68112,1638995837999
Fix,GT,34.1422898,-118.7060702,210.7810264222622,29.215855,0.1,52.972473,1638995838999
Fix,GT,34.1424467,-118.7058138,209.7930238137245,29.42711,0.1,53.812256,1638995839999
Fix,GT,34.1426017,-118.7055535,208.83102208995817,29.711473,0.1,54.453186,1638995840999
Fix,GT,34.1427586,-118.7052881,207.9140232002735,30.43261,0.1,53.588745,1638995841999
Fix,GT,34.1429225,-118.705022,207.1120204702616,30.569637,0.1,53.148865,1638995842999
Fix,GT,34.1430846,-118.7047563,206.29902098190783,30.091036,0.1,53.762115,1638995843999
Fix,GT,34.1432403,-118.7044955,205.55502236032487,29.080965,0.1,54.42581,1638995844999
Fix,GT,34.1433886,-118.70424,204.8050222891569,28.406199,0.1,55.18579,1638995845999
Fix,GT,34.143532,-118.7039871,204.0400231118202,28.178686,0.1,55.541992,1638995846999
Fix,GT,34.1436746,-118.7037337,203.25002456092835,28.321482,0.1,55.726746,1638995847999
Fix,GT,34.1438174,-118.7034778,202.26103050422668,28.552132,0.1,55.885956,1638995848999
Fix,GT,34.1439632,-118.7032198,201.568016233325,29.013578,0.1,55.10678,1638995849999
Fix,GT,34.1441138,-118.7029581,201.1140155786872,29.665165,0.1,55.183197,1638995850999
Fix,GT,34.1442656,-118.7026928,200.60401826906207,29.66511,0.1,55.324646,1638995851999
Fix,GT,34.1444166,-118.7024296,200.17701276910304,29.324774,0.1,54.95224,1638995852999
Fix,GT,34.1445674,-118.7021709,199.8570077445507,29.008516,0.1,54.968414,1638995853999
Fix,GT,34.1447154,-118.7019119,199.64000753521915,28.972918,0.1,55.41806,1638995854999
Fix,GT,34.1448644,-118.7016549,199.4090106045604,28.828966,0.1,54.38391,1638995855999
Fix,GT,34.1450195,-118.701401,199.2530033522248,29.357773,0.1,52.50049,1638995856999
Fix,GT,34.1451847,-118.7011507,199.2080018969178,29.408712,0.1,50.277252,1638995857999
Fix,GT,34.1453567,-118.7009098,199.171001544714,29.161514,0.1,48.534027,1638995858999
Fix,GT,34.1455325,-118.7006732,199.2339941045046,29.302803,0.1,47.319,1638995859999
Fix,GT,34.145713,-118.7004432,199.4369912011624,28.918362,0.1,45.653168,1638995860999
Fix,GT,34.1458963,-118.7002232,199.66599186515808,28.546366,0.1,43.784363,1638995861999
Fix,GT,34.1460834,-118.7000132,199.92898966008423,28.192411,0.1,41.898315,1638995862999
Fix,GT,34.1462738,-118.6998132,200.2189890682697,27.873104,0.1,40.099426,1638995863999
Fix,GT,34.1464663,-118.6996215,200.4089927358032,27.553875,0.1,38.836487,1638995864999
Fix,GT,34.1466591,-118.6994351,200.56099218511585,27.388195,0.1,38.339874,1638995865999
Fix,GT,34.1468521,-118.6992507,200.69699382662773,27.227486,0.1,38.241394,1638995866999
Fix,GT,34.1470429,-118.6990675,200.90399059474467,26.937645,0.1,38.44391,1638995867999
Fix,GT,34.1472314,-118.6988862,201.1639877240657,26.620333,0.1,38.24533,1638995868999
Fix,GT,34.1474196,-118.6987075,201.4469912311435,26.515623,0.1,37.849518,1638995869999
Fix,GT,34.1476072,-118.6985309,201.77498548227547,26.379328,0.1,37.769073,1638995870999
Fix,GT,34.1477943,-118.6983544,202.0989852679372,26.304445,0.1,37.97696,1638995871999
Fix,GT,34.1479793,-118.6981785,202.31499662542345,26.004684,0.1,38.170258,1638995872999
Fix,GT,34.1481616,-118.698004,202.5219858225584,25.748222,0.1,38.342804,1638995873999
Fix,GT,34.1483436,-118.6978297,202.80298661524057,25.94099,0.1,38.277313,1638995874999
Fix,GT,34.1485275,-118.6976543,203.14598291003705,26.031963,0.1,38.0943,1638995875999
Fix,GT,34.1487112,-118.6974799,203.67397198075057,25.845478,0.1,37.94214,1638995876999
Fix,GT,34.1488941,-118.6973071,204.32196231043332,25.79503,0.1,37.850555,1638995877999
Fix,GT,34.1490776,-118.6971341,205.0109701838493,25.944498,0.1,38.052094,1638995878999
Fix,GT,34.1492606,-118.6969576,205.48597879981992,26.051767,0.1,38.912415,1638995879999
Fix,GT,34.1494402,-118.6967759,205.8879758440256,26.059513,0.1,40.733826,1638995880999
Fix,GT,34.1496135,-118.6965847,206.34997172999385,26.221521,0.1,43.76877,1638995881999
Fix,GT,34.1497796,-118.6963814,206.8519730250836,26.39033,0.1,46.67627,1638995882999
Fix,GT,34.1499377,-118.6961683,207.26098049229384,26.290953,0.1,49.124664,1638995883999
Fix,GT,34.1500869,-118.6959485,207.6089768670797,26.040596,0.1,51.84073,1638995884999
Fix,GT,34.1502253,-118.6957235,208.04997316241264,25.62279,0.1,54.697723,1638995885999
Fix,GT,34.1503511,-118.6954947,208.4749739933014,24.976858,0.1,57.61676,1638995886999
Fix,GT,34.1504658,-118.6952649,208.90897544169425,24.51778,0.1,59.820526,1638995887999
Fix,GT,34.1505702,-118.6950334,209.33197574538,24.09741,0.1,62.753784,1638995888999
Fix,GT,34.1506631,-118.6947999,209.70297665888071,23.750443,0.1,65.34509,1638995889999
Fix,GT,34.1507467,-118.6945634,210.0769733674526,23.736559,0.1,68.02319,1638995890999
Fix,GT,34.1508218,-118.6943211,210.4899742901325,24.071196,0.1,70.436584,1638995891999
Fix,GT,34.1508896,-118.6940709,210.9969721479416,24.456558,0.1,72.99713,1638995892999
Fix,GT,34.1509479,-118.6938142,211.4189737143517,24.604805,0.1,75.82599,1638995893999
Fix,GT,34.150997,-118.6935543,211.83897026574613,24.55981,0.1,78.14691,1638995894999
Fix,GT,34.1510357,-118.6932935,212.3479654670954,24.304195,0.1,81.026825,1638995895999
Fix,GT,34.1510641,-118.6930332,213.0219314929247,24.18909,0.1,83.43445,1638995896999
Fix,GT,34.1510846,-118.692773,213.7769451305866,24.010344,0.1,85.63855,1638995897999
Fix,GT,34.1510937,-118.6925158,214.6549399397969,23.517952,0.1,88.75641,1638995898999
Fix,GT,34.1510936,-118.6922625,215.5799399828911,23.310446,0.1,90.839325,1638995899999
Fix,GT,34.151085,-118.692011,216.50692925405505,23.127926,0.1,93.47214,1638995900999
Fix,GT,34.1510667,-118.6917621,217.47393466568,23.053005,0.1,96.098724,1638995901999
Fix,GT,34.1510381,-118.6915142,218.3659381375313,23.17598,0.1,98.98663,1638995902999
Fix,GT,34.1510001,-118.6912656,219.29993474376204,23.498404,0.1,101.27438,1638995903999
Fix,GT,34.1509531,-118.6910135,220.32492358988523,24.205338,0.1,103.55295,1638995904999
Fix,GT,34.150898,-118.6907557,221.48192000454665,24.931866,0.1,104.83911,1638995905999
Fix,GT,34.1508379,-118.6904911,222.568924954474,25.66874,0.1,105.21811,1638995906999
Fix,GT,34.1507763,-118.6902183,223.58592134845256,26.470228,0.1,104.87863,1638995907999
Fix,GT,34.1507145,-118.6899374,224.71591987288,27.02515,0.1,104.80017,1638995908999
Fix,GT,34.150652,-118.6896526,225.70992500114443,27.387503,0.1,104.33392,1638995909999
Fix,GT,34.1505929,-118.6893613,226.6119391496181,28.00631,0.1,102.793274,1638995910999
Fix,GT,34.1505411,-118.6890594,227.34495581299063,28.778824,0.1,100.36084,1638995911999
Fix,GT,34.1504994,-118.6887483,227.90296145182847,29.286383,0.1,97.99667,1638995912999
Fix,GT,34.1504688,-118.6884319,228.4269641558528,29.287817,0.1,95.04974,1638995913999
Fix,GT,34.1504512,-118.6881167,228.86596691423657,29.019749,0.1,92.55771,1638995914999
Fix,GT,34.1504445,-118.6878019,229.23297205352785,29.066021,0.1,90.15369,1638995915999
Fix,GT,34.1504497,-118.6874866,229.54397572249167,28.965729,0.1,87.44092,1638995916999
Fix,GT,34.1504678,-118.6871751,229.8219794615507,28.660612,0.1,84.3421,1638995917999
Fix,GT,34.1504991,-118.6868654,230.03398884487152,28.98643,0.1,81.68713,1638995918999
Fix,GT,34.1505427,-118.6865539,230.26298151743413,29.109182,0.1,79.02783,1638995919999
Fix,GT,34.150597,-118.6862449,230.31899351596832,29.164232,0.1,77.112,1638995920999
Fix,GT,34.1506571,-118.6859375,230.3360032691956,29.002966,0.1,76.35321,1638995921999
Fix,GT,34.1507179,-118.685633,230.3599901101589,28.770319,0.1,76.41937,1638995922999
Fix,GT,34.150777,-118.6853307,230.4949833810329,28.508339,0.1,76.76547,1638995923999
Fix,GT,34.150834,-118.6850309,230.64898575633765,28.222544,0.1,77.00241,1638995924999
Fix,GT,34.1508897,-118.6847331,230.92697043699025,28.069527,0.1,77.34662,1638995925999
Fix,GT,34.1509402,-118.6844365,231.36495402157308,27.864616,0.1,79.373566,1638995926999
Fix,GT,34.1509794,-118.6841398,232.0399424934387,27.543682,0.1,82.27252,1638995927999
Fix,GT,34.1510057,-118.683845,232.7589359824657,27.280426,0.1,84.82324,1638995928999
Fix,GT,34.151021,-118.6835499,233.58492413461207,27.318022,0.1,87.60599,1638995929999
Fix,GT,34.1510257,-118.6832542,234.4409235434532,27.263475,0.1,89.58844,1638995930999
Fix,GT,34.151026,-118.6829582,235.29592914676667,27.400978,0.1,89.85077,1638995931999
Fix,GT,34.1510262,-118.6826596,236.0939348503948,27.70303,0.1,89.75409,1638995932999
Fix,GT,34.1510261,-118.6823577,236.8189343456626,27.949217,0.1,90.12552,1638995933999
Fix,GT,34.1510246,-118.6820536,237.54793112659456,28.132572,0.1,90.20886,1638995934999
Fix,GT,34.1510229,-118.6817488,238.30793790626527,28.084726,0.1,90.27011,1638995935999
Fix,GT,34.1510209,-118.6814445,239.0859218052626,27.998087,0.1,90.3107,1638995936999
Fix,GT,34.1510185,-118.6811426,239.9189202958345,27.624395,0.1,90.452515,1638995937999
Fix,GT,34.1510165,-118.6808443,240.77491877788307,27.482773,0.1,90.21033,1638995938999
Fix,GT,34.1510147,-118.6805457,241.64091911685463,27.565073,0.1,90.402435,1638995939999
Fix,GT,34.1510101,-118.6802474,242.56190621173383,27.465635,0.1,91.502106,1638995940999
Fix,GT,34.1509973,-118.6799508,243.65388263940807,27.407253,0.1,94.303894,1638995941999
Fix,GT,34.1509712,-118.6796538,244.88387794470785,27.70117,0.1,97.354126,1638995942999
Fix,GT,34.1509328,-118.6793574,246.1748780496121,27.672081,0.1,99.94415,1638995943999
Fix,GT,34.1508835,-118.6790625,247.48887523651123,27.919224,0.1,102.36868,1638995944999
Fix,GT,34.1508239,-118.6787672,248.8468684617281,28.069921,0.1,104.63071,1638995945999
Fix,GT,34.1507542,-118.6784764,250.2688626090884,27.77327,0.1,107.58707,1638995946999
Fix,GT,34.1506729,-118.6781951,251.70386862325668,27.166954,0.1,110.349945,1638995947999
Fix,GT,34.1505847,-118.6779249,253.20985670351985,26.378216,0.1,112.07593,1638995948999
Fix,GT,34.150494,-118.6776631,254.687848651886,26.09722,0.1,112.68033,1638995949999
Fix,GT,34.1504024,-118.6774019,256.2258405128121,26.20687,0.1,112.82034,1638995950999
Fix,GT,34.15031,-118.677138,257.7888384233713,26.476831,0.1,112.58847,1638995951999
Fix,GT,34.1502187,-118.6768759,259.33684351730346,25.86513,0.1,112.61212,1638995952999
Fix,GT,34.15013,-118.6766211,260.8438383300304,25.07746,0.1,112.68671,1638995953999
Fix,GT,34.1500435,-118.6763745,262.29385290873046,24.308197,0.1,112.80719,1638995954999
Fix,GT,34.1499593,-118.6761357,263.69085300064086,23.547306,0.1,112.86337,1638995955999
Fix,GT,34.1498775,-118.6759039,265.0578583741188,23.03654,0.1,112.88797,1638995956999
Fix,GT,34.1497961,-118.6756731,266.45584363543986,23.422808,0.1,112.73755,1638995957999
Fix,GT,34.1497147,-118.6754402,267.99583406335114,22.836264,0.1,112.95184,1638995958999
Fix,GT,34.1496357,-118.6752183,269.4718545491696,21.746006,0.1,113.21442,1638995959999
Fix,GT,34.1495605,-118.6750051,270.7698547080755,20.97954,0.1,112.54227,1638995960999
Fix,GT,34.1494903,-118.6747974,272.0528614274263,20.466986,0.1,111.73834,1638995961999
Fix,GT,34.1494231,-118.6745886,273.3438594665528,20.942358,0.1,110.6022,1638995962999
Fix,GT,34.1493594,-118.6743718,274.6408563796282,21.40018,0.1,108.46655,1638995963999
Fix,GT,34.1493014,-118.6741481,275.9208543691039,21.756783,0.1,106.31348,1638995964999
Fix,GT,34.1492495,-118.6739188,277.1578635452986,22.10551,0.1,104.242645,1638995965999
Fix,GT,34.149203,-118.6736827,278.4848379516601,22.562098,0.1,102.44385,1638995966999
Fix,GT,34.1491617,-118.673439,279.9238335767984,23.375158,0.1,100.473694,1638995967999
Fix,GT,34.1491275,-118.6731835,281.31684167277814,24.317593,0.1,97.87802,1638995968999
Fix,GT,34.149102,-118.6729186,282.73583842819926,24.648678,0.1,95.52521,1638995969999
Fix,GT,34.1490841,-118.6726532,284.17183977550275,24.42278,0.1,93.75748,1638995970999
Fix,GT,34.1490736,-118.6723892,285.5728318567872,24.403257,0.1,91.640045,1638995971999
Fix,GT,34.1490716,-118.6721239,286.92884835982323,24.476318,0.1,89.40344,1638995972999
Fix,GT,34.1490779,-118.6718562,288.1678509962559,24.858355,0.1,87.27106,1638995973999
Fix,GT,34.1490905,-118.6715861,289.40984775781635,25.127121,0.1,86.36102,1638995974999
Fix,GT,34.1491044,-118.6713126,290.662839759469,25.43071,0.1,86.37421,1638995975999
Fix,GT,34.1491184,-118.6710353,292.04782331442834,25.709646,0.1,86.330444,1638995976999
Fix,GT,34.1491331,-118.6707561,293.5278271112442,25.912647,0.1,86.09534,1638995977999
Fix,GT,34.1491494,-118.6704732,295.06181404030326,26.385506,0.1,85.84067,1638995978999
Fix,GT,34.1491663,-118.670185,296.60781298470494,26.848986,0.1,85.79297,1638995979999
Fix,GT,34.1491837,-118.669893,298.1837984856368,27.138767,0.1,85.69055,1638995980999
Fix,GT,34.1492,-118.6695987,299.7768145577908,27.33907,0.1,86.45242,1638995981999
Fix,GT,34.1492141,-118.6693021,301.24383082020285,27.424261,0.1,86.68225,1638995982999
Fix,GT,34.1492283,-118.6690054,302.54683857333663,27.431665,0.1,86.3887,1638995983999
Fix,GT,34.149243,-118.6687059,303.71486141222715,27.970219,0.1,86.55182,1638995984999
Fix,GT,34.1492582,-118.6684015,304.74488198745246,28.163593,0.1,86.285126,1638995985999
Fix,GT,34.149274,-118.6680981,305.63789144670966,27.858929,0.1,86.34302,1638995986999
Fix,GT,34.1492905,-118.6677954,306.4099124319553,28.135784,0.1,85.92224,1638995987999
Fix,GT,34.1493077,-118.6674884,307.0259336533547,28.8127,0.1,86.05557,1638995988999
Fix,GT,34.1493259,-118.6671737,307.46696536409854,29.26768,0.1,86.04532,1638995989999
Fix,GT,34.1493437,-118.6668554,307.68898710334304,29.439335,0.1,85.79169,1638995990999
Fix,GT,34.1493655,-118.666539,307.764,29.127214,0.1,84.6615,1638995991999
Fix,GT,34.1493917,-118.6662261,307.6950117303729,28.8924,0.1,83.74094,1638995992999
Fix,GT,34.1494212,-118.6659149,307.496030133903,28.860537,0.1,83.06976,1638995993999
Fix,GT,34.149454,-118.6656051,307.14905663204195,28.786285,0.1,81.88623,1638995994999
Fix,GT,34.1494941,-118.6652953,306.6450834006071,28.987648,0.1,80.32019,1638995995999
Fix,GT,34.1495397,-118.6649853,305.7861117815971,29.040394,0.1,79.37378,1638995996999
Fix,GT,34.14959,-118.6646761,304.9291123523712,29.058514,0.1,78.13806,1638995997999
Fix,GT,34.1496459,-118.6643682,304.0861209944487,29.022793,0.1,77.09546,1638995998999
Fix,GT,34.149706,-118.6640647,303.2531067430377,28.392681,0.1,75.955505,1638995999999
Fix,GT,34.1497688,-118.6637705,302.4411059311628,27.69699,0.1,75.03253,1638996000999
Fix,GT,34.1498344,-118.6634834,301.6631064658165,27.20229,0.1,73.97269,1638996001999
Fix,GT,34.149904,-118.6632011,300.913106995821,27.147367,0.1,72.913605,1638996002999
Fix,GT,34.1499759,-118.6629186,300.127110282898,27.427275,0.1,73.209656,1638996003999
Fix,GT,34.1500473,-118.6626285,299.28311914873126,28.505173,0.1,73.275055,1638996004999
Fix,GT,34.1501236,-118.6623252,298.3061378322839,29.937168,0.1,72.69281,1638996005999
Fix,GT,34.1502065,-118.662008,297.2831413090825,31.370375,0.1,72.04779,1638996006999
Fix,GT,34.1502955,-118.6616781,296.3211293423176,32.547028,0.1,71.62036,1638996007999
Fix,GT,34.1503895,-118.6613399,295.36213845527175,33.149998,0.1,71.06653,1638996008999
Fix,GT,34.1504873,-118.6609976,294.3991334483624,33.59046,0.1,70.69769,1638996009999
Fix,GT,34.1505875,-118.6606525,293.3901440722943,33.802963,0.1,70.63248,1638996010999
Fix,GT,34.150687,-118.6603063,292.3751361703873,33.744167,0.1,70.86084,1638996011999
Fix,GT,34.1507855,-118.6599606,291.37014833724504,33.66401,0.1,70.95303,1638996012999
