MessageType,Provider,LatitudeDegrees,LongitudeDegrees,AltitudeMeters,SpeedMps,AccuracyMeters,BearingDegrees,UnixTimeMillis
Fix,GT,37.4840151,-122.1740686,-30.00599922713876,0.0014140479,0.1,17.796387,1615927204000
Fix,GT,37.4840151,-122.1740686,-30.005999347652715,0.001,0.1,17.79663,1615927205000
Fix,GT,37.4840151,-122.1740686,-30.00599943760153,0.001,0.1,17.7966,1615927206000
Fix,GT,37.4840151,-122.1740686,-30.005999557242205,0.0010001656,0.1,17.796814,1615927207000
Fix,GT,37.4840151,-122.1740686,-30.00599961749918,0.0014140479,0.1,17.797272,1615927208000
Fix,GT,37.4840151,-122.1740686,-30.00599967775616,0.0010001657,0.1,17.797638,1615927209000
Fix,GT,37.4840151,-122.1740686,-30.005999707448005,0.001414542,0.1,17.797485,1615927210000
Fix,GT,37.4840151,-122.1740686,-30.00599979739683,0.002235574,0.1,17.797363,1615927211000
Fix,GT,37.4840151,-122.1740686,-30.00600114672364,0.0010001657,0.1,17.797394,1615927212000
Fix,GT,37.4840151,-122.1740686,-30.009000836975204,0.0014158008,0.1,17.797638,1615927213000
Fix,GT,37.4840151,-122.1740686,-30.010996929817544,0.0055598617,0.1,17.76416,1615927214000
Fix,GT,37.4840137,-122.1740694,-30.002996559750525,0.44273078,0.1,17.265076,1615927215000
Fix,GT,37.4840066,-122.1740713,-29.993993882106967,1.1677428,0.1,19.536926,1615927216000
Fix,GT,37.4839929,-122.1740732,-29.977994371496813,1.6672333,0.1,32.40689,1615927217000
Fix,GT,37.4839776,-122.1740789,-29.96299003450043,1.5902693,0.1,52.82245,1615927218000
Fix,GT,37.4839659,-122.1740896,-29.936996609121795,1.3222616,0.1,71.742096,1615927219000
Fix,GT,37.4839622,-122.1740953,-29.9270058924373,0.079913095,0.1,78.74042,1615927220000
Fix,GT,37.4839626,-122.1740937,-29.940009580144544,0.5990854,0.1,78.49112,1615927221000
Fix,GT,37.4839617,-122.1740779,-29.962003117532817,2.0325441,0.099,86.970856,1615927222000
Fix,GT,37.4839515,-122.174049,-29.971992414954265,3.1812088,0.099,107.62958,1615927223000
Fix,GT,37.4839428,-122.1740119,-29.954987308461856,3.6541348,0.1,104.16333,1615927224000
Fix,GT,37.4839487,-122.1739673,-29.92501934808533,4.29661,0.1,80.048035,1615927225000
Fix,GT,37.4839717,-122.173927,-29.975059012271814,4.4749837,0.1,53.43051,1615927226000
Fix,GT,37.4840044,-122.1738998,-30.12402392202197,4.1585402,0.1,33.084015,1615927227000
Fix,GT,37.4840384,-122.1738842,-30.184936066310385,3.8266597,0.1,20.727875,1615927228000
Fix,GT,37.4840713,-122.1738817,-30.02607690287879,3.79526,0.1,3.1844177,1615927229000
Fix,GT,37.4841075,-122.1738989,-30.21892945015809,4.8875093,0.1,339.1864,1615927230000
Fix,GT,37.4841434,-122.1739418,-30.043003097567908,6.2614074,0.1,312.66452,1615927231000
Fix,GT,37.484172,-122.1740135,-30.051004416700103,8.026107,0.1,292.7085,1615927232000
Fix,GT,37.4841937,-122.1741065,-30.06200407732767,8.9863405,0.1,285.50656,1615927233000
Fix,GT,37.4842161,-122.1742039,-30.07200136911281,8.885208,0.1,286.4806,1615927234000
Fix,GT,37.484241,-122.1742977,-30.0750178203476,8.489393,0.1,288.93243,1615927235000
Fix,GT,37.4842713,-122.1743823,-30.11903350248502,7.8785367,0.1,297.77246,1615927236000
Fix,GT,37.4843188,-122.1744459,-30.202016803310222,7.580127,0.1,319.58865,1615927237000
Fix,GT,37.4843823,-122.1744749,-30.24298291292705,7.4580784,0.1,346.9699,1615927238000
Fix,GT,37.4844546,-122.1744636,-30.198975436438573,8.847215,0.1,13.994873,1615927239000
Fix,GT,37.4845371,-122.1744272,-30.135988039747343,10.559767,0.1,19.189667,1615927240000
Fix,GT,37.4846326,-122.1743854,-30.10397277122858,11.668379,0.099,19.137146,1615927241000
Fix,GT,37.4847323,-122.174343,-30.0379792597692,11.615797,0.099,18.316162,1615927242000
Fix,GT,37.4848271,-122.1743044,-29.98797295473784,10.3281355,0.099,17.801483,1615927243000
Fix,GT,37.4849081,-122.1742714,-29.921989067628747,8.534595,0.099,18.2771,1615927244000
Fix,GT,37.4849699,-122.1742436,-29.895977533531266,6.193283,0.099,20.290771,1615927245000
Fix,GT,37.4850134,-122.1742222,-29.840983250595865,4.1216903,0.099,21.563202,1615927246000
Fix,GT,37.485039,-122.1742093,-29.79999647536129,2.0404205,0.099,22.151062,1615927247000
Fix,GT,37.4850489,-122.1742042,-29.792002131859075,0.4879992,0.1,22.007599,1615927248000
Fix,GT,37.4850498,-122.1742037,-29.798000652215904,0.0019996003,0.1,21.967712,1615927249000
Fix,GT,37.4850498,-122.1742037,-29.799999941891294,0.0009996003,0.1,21.966125,1615927250000
Fix,GT,37.4850498,-122.1742037,-29.800000000867296,3.99828e-07,0.1,21.966736,1615927251000
Fix,GT,37.4850498,-122.1742037,-29.80000009106589,0.0009996003,0.1,21.965271,1615927252000
Fix,GT,37.4850498,-122.1742037,-29.800000609720183,3.9983502e-07,0.1,21.96576,1615927253000
Fix,GT,37.4850498,-122.1742037,-29.801001869085564,0.0010445424,0.1,21.965393,1615927254000
Fix,GT,37.4850499,-122.1742037,-29.80500395768008,0.11310062,0.1,21.960907,1615927255000
Fix,GT,37.4850564,-122.1742005,-29.81398522510333,1.8630848,0.1,21.87738,1615927256000
Fix,GT,37.4850839,-122.1741872,-29.775948157463105,4.6421003,0.1,20.9375,1615927257000
Fix,GT,37.4851325,-122.1741677,-29.644921482829,6.4139442,0.1,16.72107,1615927258000
Fix,GT,37.4851947,-122.1741547,-29.446915627058186,7.496567,0.1,6.4820557,1615927259000
Fix,GT,37.4852638,-122.1741626,-29.23393635786069,8.035903,0.1,350.42212,1615927260000
Fix,GT,37.4853326,-122.1741978,-29.07696923779761,8.592283,0.1,332.93628,1615927261000
Fix,GT,37.4853937,-122.1742623,-29.002023366504407,9.305008,0.1,314.0132,1615927262000
Fix,GT,37.4854397,-122.1743561,-29.06200982818008,10.403851,0.1,296.56516,1615927263000
Fix,GT,37.4854751,-122.174474,-29.08801431352747,11.925034,0.1,288.94147,1615927264000
Fix,GT,37.4855094,-122.1746111,-29.12500237528653,13.52015,0.1,286.6879,1615927265000
Fix,GT,37.4855461,-122.1747661,-29.13200526166655,15.06892,0.1,286.29996,1615927266000
Fix,GT,37.4855857,-122.1749373,-29.146000179332333,16.470737,0.1,286.12784,1615927267000
Fix,GT,37.4856288,-122.1751238,-29.147002695696777,17.844488,0.1,286.02045,1615927268000
Fix,GT,37.4856744,-122.1753239,-29.153991586251447,18.938662,0.1,285.75327,1615927269000
Fix,GT,37.4857218,-122.1755343,-29.133008839103947,19.739046,0.1,285.68057,1615927270000
Fix,GT,37.4857711,-122.1757535,-29.155000158673648,20.510761,0.1,285.6458,1615927271000
Fix,GT,37.4858218,-122.1759796,-29.154998217746616,20.981682,0.1,285.7151,1615927272000
Fix,GT,37.4858738,-122.1762088,-29.15001233038201,21.112356,0.1,285.9347,1615927273000
Fix,GT,37.4859267,-122.1764368,-29.18000239185844,20.85499,0.1,286.20584,1615927274000
Fix,GT,37.485978,-122.1766615,-29.18499845066457,20.482155,0.1,285.69482,1615927275000
Fix,GT,37.4860269,-122.1768823,-29.18001373532281,20.073711,0.1,285.21112,1615927276000
Fix,GT,37.4860735,-122.1770996,-29.212997056322056,19.724052,0.1,284.79514,1615927277000
Fix,GT,37.4861183,-122.1773132,-29.203998343376792,19.326603,0.1,284.6368,1615927278000
Fix,GT,37.486163,-122.1775207,-29.1979984018465,18.624004,0.1,285.73218,1615927279000
Fix,GT,37.4862109,-122.1777186,-29.19201199879206,18.063547,0.1,287.59842,1615927280000
Fix,GT,37.4862614,-122.1779109,-29.22002077242499,17.74171,0.1,288.37372,1615927281000
Fix,GT,37.4863117,-122.1780983,-29.27400483295904,17.11066,0.1,288.34607,1615927282000
Fix,GT,37.4863572,-122.1782767,-29.28800332073518,15.886746,0.1,287.041,1615927283000
Fix,GT,37.4863952,-122.1784404,-29.29801420638888,14.455943,0.1,285.4591,1615927284000
Fix,GT,37.4864277,-122.1785927,-29.33499589691113,13.463613,0.1,284.7401,1615927285000
Fix,GT,37.4864569,-122.1787328,-29.32599155668699,12.084297,0.1,283.9052,1615927286000
Fix,GT,37.4864728,-122.1788614,-29.305983246145715,11.169852,0.1,273.8865,1615927287000
Fix,GT,37.4864609,-122.1789833,-29.265004901929583,10.759402,0.1,256.52737,1615927288000
Fix,GT,37.48642,-122.1790908,-29.278077007966697,10.563409,0.1,237.48688,1615927289000
Fix,GT,37.4863521,-122.1791761,-29.471015904268395,11.042051,0.1,218.45111,1615927290000
Fix,GT,37.4862611,-122.1792407,-29.51100353594776,12.337857,0.1,205.33888,1615927291000
Fix,GT,37.4861523,-122.1792965,-29.51998765570714,13.725026,0.1,201.18167,1615927292000
Fix,GT,37.4860319,-122.1793542,-29.48896931706043,14.852682,0.1,200.97397,1615927293000
Fix,GT,37.4859033,-122.1794176,-29.41197183345983,15.7165365,0.1,201.56004,1615927294000
Fix,GT,37.4857693,-122.1794853,-29.34097589125298,16.377916,0.1,202.1047,1615927295000
Fix,GT,37.4856302,-122.1795572,-29.27996157968251,16.970173,0.1,202.36768,1615927296000
Fix,GT,37.485487,-122.1796324,-29.18286690294469,17.480923,0.1,202.87833,1615927297000
Fix,GT,37.4853409,-122.179713,-28.848860555133,17.894169,0.1,204.95515,1615927298000
Fix,GT,37.4851976,-122.1798092,-28.49888340324652,18.233532,0.1,210.43724,1615927299000
Fix,GT,37.485059,-122.1799261,-28.205841111405142,18.783916,0.1,216.50938,1615927300000
Fix,GT,37.48493,-122.1800664,-27.80695432178047,19.112589,0.1,224.44795,1615927301000
Fix,GT,37.484817,-122.1802332,-27.690999170553987,19.673845,0.1,233.34317,1615927302000
Fix,GT,37.4847195,-122.1804242,-27.686979632297646,20.47904,0.1,239.6906,1615927303000
Fix,GT,37.4846296,-122.1806318,-27.63810365475691,21.216867,0.1,242.66718,1615927304000
Fix,GT,37.4845443,-122.1808505,-27.89916452959855,21.810196,0.1,244.69785,1615927305000
Fix,GT,37.4844629,-122.1810752,-28.31218180528469,21.79953,0.1,246.1019,1615927306000
Fix,GT,37.4843864,-122.1813013,-28.768043887212496,21.613855,0.1,247.5003,1615927307000
Fix,GT,37.4843167,-122.1815276,-28.878969887275748,21.313295,0.1,250.07715,1615927308000
Fix,GT,37.4842613,-122.1817588,-28.804867976761887,21.444628,0.1,256.1676,1615927309000
Fix,GT,37.4842282,-122.1820002,-28.47586972251395,21.94057,0.1,263.76486,1615927310000
Fix,GT,37.4842207,-122.1822507,-28.15086098159325,22.38287,0.1,271.28925,1615927311000
Fix,GT,37.4842388,-122.1825063,-27.80390663954284,23.017405,0.1,278.081,1615927312000
Fix,GT,37.4842782,-122.1827669,-27.57097235070757,23.916658,0.1,282.98996,1615927313000
Fix,GT,37.4843338,-122.1830338,-27.50202195144954,24.882214,0.1,285.95038,1615927314000
Fix,GT,37.4843996,-122.1833089,-27.557026006871368,25.933119,0.1,286.81885,1615927315000
Fix,GT,37.4844689,-122.1835953,-27.622039290213724,26.998854,0.1,286.8115,1615927316000
Fix,GT,37.48454,-122.1838927,-27.72004377406317,27.871546,0.1,286.41864,1615927317000
Fix,GT,37.4846109,-122.1841985,-27.829032285644526,28.459648,0.1,286.0899,1615927318000
Fix,GT,37.4846824,-122.1845117,-27.90902034209843,29.131496,0.1,285.66513,1615927319000
Fix,GT,37.4847521,-122.1848335,-27.95902117128056,29.858978,0.1,284.56433,1615927320000
Fix,GT,37.4848193,-122.1851645,-28.01101448345464,30.546423,0.1,284.24683,1615927321000
Fix,GT,37.4848895,-122.1855011,-28.04601976858691,30.859354,0.1,284.81177,1615927322000
Fix,GT,37.4849618,-122.1858366,-28.094010681053625,30.613966,0.1,285.29315,1615927323000
Fix,GT,37.4850337,-122.1861689,-28.11901519507955,30.309702,0.1,284.8896,1615927324000
Fix,GT,37.4851026,-122.1864986,-28.15501360243509,29.952173,0.099,284.43402,1615927325000
Fix,GT,37.485169,-122.1868249,-28.19101291387697,29.638802,0.099,283.9754,1615927326000
Fix,GT,37.4852317,-122.187149,-28.225011426361164,29.357218,0.099,283.11963,1615927327000
Fix,GT,37.4852903,-122.1874729,-28.255005081782727,29.461082,0.1,282.2901,1615927328000
Fix,GT,37.4853457,-122.1877991,-28.26900753779933,29.54743,0.1,281.7392,1615927329000
Fix,GT,37.4853994,-122.1881278,-28.289016767481343,29.866135,0.1,281.26883,1615927330000
Fix,GT,37.4854515,-122.188462,-28.3320104221286,30.331081,0.1,280.77432,1615927331000
Fix,GT,37.4855015,-122.1887982,-28.35900219153913,30.117857,0.1,280.3382,1615927332000
Fix,GT,37.485549,-122.1891314,-28.365020279332995,29.758894,0.1,279.82846,1615927333000
Fix,GT,37.4855935,-122.1894615,-28.416014306334315,29.475689,0.1,279.30148,1615927334000
Fix,GT,37.4856355,-122.189789,-28.45202753651416,29.213198,0.1,278.88168,1615927335000
Fix,GT,37.4856757,-122.1901141,-28.521040853420505,28.961779,0.1,278.6509,1615927336000
Fix,GT,37.485715,-122.1904364,-28.62301936423217,28.703691,0.1,278.58008,1615927337000
Fix,GT,37.4857538,-122.1907558,-28.67101867969471,28.44421,0.1,278.6103,1615927338000
Fix,GT,37.4857927,-122.1910721,-28.71701913713955,28.203987,0.1,278.78867,1615927339000
Fix,GT,37.4858317,-122.1913877,-28.76401519474259,28.30967,0.1,278.6884,1615927340000
Fix,GT,37.4858707,-122.1917045,-28.801016053322005,28.392519,0.1,278.70233,1615927341000
Fix,GT,37.4859096,-122.1920212,-28.8400157689926,28.241182,0.1,278.7146,1615927342000
Fix,GT,37.485948,-122.1923355,-28.87801868650422,27.988132,0.1,278.5761,1615927343000
Fix,GT,37.4859857,-122.192647,-28.92301443153224,27.74484,0.1,278.5362,1615927344000
Fix,GT,37.4860231,-122.1929557,-28.957019165461062,27.484818,0.099,278.59903,1615927345000
Fix,GT,37.4860607,-122.1932614,-29.007010048815925,27.242697,0.099,278.825,1615927346000
Fix,GT,37.486099,-122.1935643,-29.03402419726434,26.997606,0.099,278.96643,1615927347000
Fix,GT,37.4861368,-122.1938644,-29.096019853340344,26.74995,0.099,278.78833,1615927348000
Fix,GT,37.4861737,-122.1941626,-29.147013879644973,26.719835,0.099,278.7406,1615927349000
Fix,GT,37.4862106,-122.1944634,-29.18299516137049,27.158007,0.099,278.5774,1615927350000
Fix,GT,37.486248,-122.1947687,-29.17200525180088,27.430096,0.099,278.77213,1615927351000
Fix,GT,37.4862863,-122.1950766,-29.18599973752786,27.659807,0.099,278.75525,1615927352000
Fix,GT,37.4863245,-122.1953852,-29.18600022598801,27.523373,0.099,278.7701,1615927353000
Fix,GT,37.4863625,-122.1956914,-29.18700474372518,27.314537,0.1,278.7515,1615927354000
Fix,GT,37.4864003,-122.1959964,-29.199000342337413,27.34109,0.1,278.81598,1615927355000
Fix,GT,37.4864389,-122.1963035,-29.199994799211705,27.69554,0.1,278.9444,1615927356000
Fix,GT,37.4864782,-122.1966155,-29.186998175176853,28.12212,0.1,278.87537,1615927357000
Fix,GT,37.4865177,-122.1969302,-29.18200143481104,28.215149,0.1,278.8219,1615927358000
Fix,GT,37.4865572,-122.1972453,-29.184999521646795,28.19719,0.1,278.9089,1615927359000
Fix,GT,37.4865971,-122.19756,-29.18299797881974,28.161974,0.1,278.9604,1615927360000
Fix,GT,37.4866366,-122.1978737,-29.176998037321844,27.978815,0.1,278.76678,1615927361000
Fix,GT,37.4866747,-122.1981849,-29.170992181037555,27.696825,0.1,278.61755,1615927362000
Fix,GT,37.4867125,-122.1984936,-29.150001442517155,27.657137,0.1,278.6531,1615927363000
Fix,GT,37.4867505,-122.1988036,-29.15200032950297,27.814636,0.1,278.6777,1615927364000
Fix,GT,37.4867889,-122.1991149,-29.150987532647733,27.888361,0.1,278.74487,1615927365000
Fix,GT,37.4868274,-122.1994257,-29.122006457873272,27.704626,0.1,278.8234,1615927366000
Fix,GT,37.4868661,-122.1997336,-29.140001342700565,27.446428,0.1,278.93402,1615927367000
Fix,GT,37.4869049,-122.2000408,-29.145000200630605,27.652214,0.1,278.86078,1615927368000
Fix,GT,37.4869435,-122.2003528,-29.14699702810528,28.163813,0.1,278.6698,1615927369000
Fix,GT,37.4869821,-122.2006697,-29.140998687402693,28.55317,0.1,278.63007,1615927370000
Fix,GT,37.4870216,-122.2009903,-29.13900037546569,28.900936,0.1,278.77283,1615927371000
Fix,GT,37.4870622,-122.2013156,-29.14099325966631,29.289429,0.1,278.92627,1615927372000
Fix,GT,37.4871041,-122.2016435,-29.125002922531536,29.339317,0.1,279.0821,1615927373000
Fix,GT,37.4871457,-122.2019695,-29.132996206767626,29.037628,0.1,278.94232,1615927374000
Fix,GT,37.4871862,-122.202292,-29.124006298654827,28.716883,0.1,278.7515,1615927375000
Fix,GT,37.4872256,-122.2026112,-29.14000152525236,28.419079,0.1,278.75378,1615927376000
Fix,GT,37.4872652,-122.2029286,-29.14399440927093,28.495378,0.1,278.7992,1615927377000
Fix,GT,37.4873047,-122.2032492,-29.130002071306954,28.827389,0.1,278.5899,1615927378000
Fix,GT,37.4873438,-122.2035716,-29.13500092926692,28.8445,0.1,278.47864,1615927379000
Fix,GT,37.4873819,-122.2038949,-29.13699418367981,28.937157,0.1,278.4049,1615927380000
Fix,GT,37.4874208,-122.2042174,-29.12200347532233,28.711828,0.1,278.50964,1615927381000
Fix,GT,37.48746,-122.2045368,-29.12999950311845,28.506145,0.1,278.7799,1615927382000
Fix,GT,37.4874994,-122.2048562,-29.12799555960728,28.708662,0.1,278.69565,1615927383000
Fix,GT,37.4875394,-122.2051787,-29.11596688968641,28.978107,0.1,278.83072,1615927384000
Fix,GT,37.4875803,-122.2055011,-29.03196060117707,28.702581,0.1,279.04565,1615927385000
Fix,GT,37.4876206,-122.2058195,-28.93200390814489,28.31918,0.1,278.83612,1615927386000
Fix,GT,37.4876602,-122.206134,-28.940002365624533,28.076372,0.1,279.06134,1615927387000
Fix,GT,37.487701,-122.2064471,-28.943979640251985,27.967999,0.1,279.26437,1615927388000
Fix,GT,37.4877417,-122.2067577,-28.8910035590147,27.691355,0.1,279.2438,1615927389000
Fix,GT,37.4877826,-122.207065,-28.90196722543729,27.485058,0.1,279.64294,1615927390000
Fix,GT,37.4878259,-122.2073726,-28.821987725014186,27.811255,0.1,280.21387,1615927391000
Fix,GT,37.4878728,-122.2076822,-28.793003792409785,27.819439,0.1,281.13315,1615927392000
Fix,GT,37.4879225,-122.2079889,-28.80399384439172,27.532618,0.1,281.7047,1615927393000
Fix,GT,37.487974,-122.2082915,-28.789992730234864,27.262856,0.1,282.21548,1615927394000
Fix,GT,37.488027,-122.2085939,-28.77298921462361,27.62463,0.1,282.39392,1615927395000
Fix,GT,37.4880817,-122.2089031,-28.7469868712388,28.275236,0.1,282.50708,1615927396000
Fix,GT,37.4881385,-122.2092147,-28.714993732373696,28.214518,0.1,283.2533,1615927397000
Fix,GT,37.4881983,-122.2095235,-28.699991016827585,27.978579,0.1,283.9717,1615927398000
Fix,GT,37.4882608,-122.2098282,-28.677990245673925,27.651983,0.1,284.72046,1615927399000
Fix,GT,37.4883255,-122.2101281,-28.65398066834453,27.304546,0.1,285.451,1615927400000
Fix,GT,37.4883922,-122.2104232,-28.60589630267062,26.94381,0.1,286.03345,1615927401000
Fix,GT,37.4884601,-122.210713,-28.346801501081902,26.472721,0.1,286.60477,1615927402000
Fix,GT,37.4885287,-122.2109969,-27.85072307933547,26.061579,0.1,287.00812,1615927403000
Fix,GT,37.4885984,-122.2112788,-27.158689110071688,26.374624,0.1,287.2656,1615927404000
Fix,GT,37.4886723,-122.2115664,-26.38167877731327,27.14372,0.1,288.20367,1615927405000
Fix,GT,37.4887522,-122.2118632,-25.57869040369789,28.245335,0.1,288.8457,1615927406000
Fix,GT,37.4888372,-122.2121709,-24.80469009392021,29.349197,0.1,289.161,1615927407000
Fix,GT,37.4889258,-122.212487,-24.029664091004527,29.85286,0.1,289.5443,1615927408000
Fix,GT,37.4890177,-122.2128065,-23.1897982122314,30.264233,0.1,290.11676,1615927409000
Fix,GT,37.4891148,-122.2131294,-22.68484470174741,30.748426,0.1,291.1717,1615927410000
Fix,GT,37.4892184,-122.2134535,-22.29592439154844,30.973232,0.1,292.38965,1615927411000
Fix,GT,37.4893262,-122.2137779,-22.10597170690832,31.236197,0.1,292.7297,1615927412000
Fix,GT,37.4894355,-122.214104,-22.034002214149805,31.27031,0.1,292.78076,1615927413000
Fix,GT,37.4895462,-122.2144275,-22.03803937071562,31.015837,0.099,293.72223,1615927414000
Fix,GT,37.4896601,-122.2147468,-22.13821235448966,30.895552,0.1,294.3916,1615927415000
Fix,GT,37.4897772,-122.2150641,-22.670237181162463,30.968033,0.1,295.13895,1615927416000
Fix,GT,37.4898969,-122.2153798,-23.26430888784365,30.837921,0.1,295.6505,1615927417000
Fix,GT,37.4900187,-122.2156921,-24.03733934163593,30.679497,0.1,296.28677,1615927418000
Fix,GT,37.4901428,-122.2160012,-24.88633219597305,30.520655,0.1,297.02115,1615927419000
Fix,GT,37.4902693,-122.2163067,-25.717344216105936,30.405373,0.1,297.72778,1615927420000
Fix,GT,37.4903982,-122.2166095,-26.57833230229304,30.288761,0.1,298.37952,1615927421000
Fix,GT,37.4905286,-122.2169094,-27.40927836511197,30.13023,0.1,298.62677,1615927422000
Fix,GT,37.4906589,-122.217207,-28.105153523851623,29.944935,0.1,298.79355,1615927423000
Fix,GT,37.4907894,-122.2175019,-28.489052702791028,29.694307,0.1,299.09598,1615927424000
Fix,GT,37.4909195,-122.2177934,-28.62100749743171,29.38247,0.1,299.1951,1615927425000
Fix,GT,37.4910482,-122.2180812,-28.63999874741194,28.927277,0.1,299.1661,1615927426000
Fix,GT,37.491174,-122.2183641,-28.63700286549097,28.380568,0.1,299.07086,1615927427000
Fix,GT,37.4912974,-122.2186401,-28.644014960693514,27.506155,0.1,299.43292,1615927428000
Fix,GT,37.4914179,-122.2189057,-28.681010243218044,26.630468,0.1,299.75027,1615927429000
Fix,GT,37.4915383,-122.2191635,-28.70599671880601,26.195087,0.1,300.9818,1615927430000
Fix,GT,37.4916604,-122.2194148,-28.69701676294225,25.890087,0.1,301.39627,1615927431000
Fix,GT,37.4917813,-122.2196638,-28.738004897846,25.744312,0.1,301.00195,1615927432000
Fix,GT,37.4919003,-122.2199151,-28.749046189162296,26.073992,0.1,300.26685,1615927433000
Fix,GT,37.4920196,-122.220175,-28.86302700442605,27.13651,0.1,299.3031,1615927434000
Fix,GT,37.4921401,-122.2204472,-28.92901462518808,27.850992,0.1,298.72064,1615927435000
Fix,GT,37.4922627,-122.2207255,-28.963976652162383,28.361694,0.1,298.95914,1615927436000
Fix,GT,37.4923893,-122.2210064,-28.903949544041183,28.722654,0.1,299.70282,1615927437000
Fix,GT,37.4925199,-122.2212882,-28.77600164067227,28.836563,0.1,300.57,1615927438000
Fix,GT,37.4926538,-122.2215671,-28.777955975468096,28.776577,0.099,301.17474,1615927439000
Fix,GT,37.4927884,-122.2218472,-28.6699571794369,29.1478,0.099,300.67722,1615927440000
Fix,GT,37.4929232,-122.2221347,-28.5649456577666,29.758097,0.099,300.06937,1615927441000
Fix,GT,37.4930554,-122.2224263,-28.43096936609794,29.51823,0.099,299.1713,1615927442000
Fix,GT,37.4931839,-122.222716,-28.35602384247081,29.136572,0.099,299.05017,1615927443000
Fix,GT,37.4933103,-122.2230031,-28.41702069564676,28.98344,0.099,298.65784,1615927444000
Fix,GT,37.4934353,-122.2232929,-28.47001154394645,29.29641,0.099,297.90097,1615927445000
Fix,GT,37.4935577,-122.2235872,-28.499942024021408,29.43876,0.1,297.1127,1615927446000
Fix,GT,37.4936776,-122.2238838,-28.35596653195049,29.271465,0.1,296.69046,1615927447000
Fix,GT,37.4937944,-122.2241782,-28.27287173207401,28.873663,0.1,296.11707,1615927448000
Fix,GT,37.4939074,-122.2244698,-27.95282540268125,28.578506,0.1,295.5375,1615927449000
Fix,GT,37.4940176,-122.2247626,-27.516888314980022,28.744135,0.1,294.8816,1615927450000
Fix,GT,37.4941258,-122.2250581,-27.23790158027364,28.73601,0.1,294.37234,1615927451000
Fix,GT,37.4942319,-122.2253536,-26.99200855859928,28.568647,0.1,294.0688,1615927452000
Fix,GT,37.4943349,-122.2256476,-27.01298376325204,28.226765,0.1,293.27805,1615927453000
Fix,GT,37.4944337,-122.2259399,-26.971995000046068,27.906214,0.1,292.60678,1615927454000
Fix,GT,37.4945276,-122.2262291,-26.959001860417366,27.241894,0.1,291.71533,1615927455000
Fix,GT,37.4946146,-122.2265087,-26.96301355222764,25.78967,0.1,291.07895,1615927456000
Fix,GT,37.4946957,-122.2267748,-26.99598315066224,24.7495,0.1,290.84888,1615927457000
Fix,GT,37.4947731,-122.2270326,-26.95304043168755,23.989634,0.1,290.4298,1615927458000
Fix,GT,37.4948462,-122.2272816,-27.05307209003717,22.656813,0.1,290.02512,1615927459000
Fix,GT,37.4949135,-122.227514,-27.232137437427703,21.399378,0.1,289.89282,1615927460000
Fix,GT,37.4949787,-122.2277405,-27.574165954877216,21.220633,0.1,289.77774,1615927461000
Fix,GT,37.495044,-122.2279664,-27.98716919582128,21.374966,0.1,290.00107,1615927462000
Fix,GT,37.4951106,-122.2281955,-28.40812759351657,21.778852,0.1,289.55978,1615927463000
Fix,GT,37.4951761,-122.2284299,-28.725061995358207,22.105728,0.1,288.99527,1615927464000
Fix,GT,37.4952412,-122.2286655,-28.87799519126862,21.96327,0.1,289.07727,1615927465000
Fix,GT,37.4953066,-122.2288983,-28.86400199464109,21.697927,0.1,289.70193,1615927466000
Fix,GT,37.4953741,-122.2291267,-28.8710144647753,21.304892,0.1,290.74628,1615927467000
Fix,GT,37.4954437,-122.2293483,-28.909048613375983,20.873606,0.1,292.2568,1615927468000
Fix,GT,37.4955185,-122.2295608,-29.03202864901724,20.004564,0.1,294.37283,1615927469000
Fix,GT,37.4955903,-122.2297605,-29.105011487845186,18.695364,0.1,293.9001,1615927470000
Fix,GT,37.4956568,-122.2299486,-29.13500957268756,17.810947,0.1,293.72577,1615927471000
Fix,GT,37.4957218,-122.23013,-29.159988067226543,17.376873,0.1,294.2989,1615927472000
Fix,GT,37.4957853,-122.2303063,-29.130989327232207,16.795128,0.1,294.19025,1615927473000
Fix,GT,37.4958467,-122.2304766,-29.105028997424583,16.32959,0.1,294.1918,1615927474000
Fix,GT,37.4959055,-122.2306434,-29.178053050804447,15.962949,0.1,293.49664,1615927475000
Fix,GT,37.4959627,-122.2308084,-29.31101349655696,15.874691,0.1,293.26587,1615927476000
Fix,GT,37.4960205,-122.2309717,-29.34500317434635,15.6533165,0.1,294.13684,1615927477000
Fix,GT,37.4960796,-122.231128,-29.35299124957339,14.8025465,0.1,296.6238,1615927478000
Fix,GT,37.4961469,-122.2312676,-29.33091963092313,14.172886,0.1,304.61243,1615927479000
Fix,GT,37.4962283,-122.2313874,-29.129940911005832,13.677813,0.1,314.46533,1615927480000
Fix,GT,37.4963219,-122.2314842,-28.9819578147399,13.244824,0.1,324.02094,1615927481000
Fix,GT,37.4964247,-122.2315618,-28.87589225766628,13.439628,0.1,331.7061,1615927482000
Fix,GT,37.4965361,-122.231622,-28.605908299713164,13.3404455,0.1,339.93378,1615927483000
Fix,GT,37.4966505,-122.2316609,-28.375918792332524,12.91586,0.1,347.48294,1615927484000
Fix,GT,37.496761,-122.2316882,-28.17195651444053,11.966199,0.1,349.07535,1615927485000
Fix,GT,37.4968646,-122.2317148,-28.06199541163596,11.58086,0.1,347.78955,1615927486000
Fix,GT,37.4969634,-122.231751,-28.04898785913855,11.259525,0.1,340.74405,1615927487000
Fix,GT,37.497051,-122.2318043,-28.016991173568705,10.258812,0.1,330.48703,1615927488000
Fix,GT,37.4971211,-122.2318685,-27.9930172196214,9.171523,0.1,321.2206,1615927489000
Fix,GT,37.4971793,-122.2319392,-28.037996879160403,8.913814,0.1,313.94684,1615927490000
Fix,GT,37.497229,-122.2320158,-28.03196607170469,8.458155,0.1,306.99524,1615927491000
Fix,GT,37.4972668,-122.2320887,-27.94898660928046,6.7541075,0.1,301.91348,1615927492000
Fix,GT,37.4972909,-122.2321449,-27.91699227244765,4.587029,0.1,297.27057,1615927493000
Fix,GT,37.4973043,-122.2321848,-27.8989947031675,3.0008402,0.1,292.82898,1615927494000
Fix,GT,37.4973116,-122.2322098,-27.88699235654832,2.0598104,0.1,290.9745,1615927495000
Fix,GT,37.4973175,-122.2322297,-27.8689967895475,1.4791459,0.1,290.57623,1615927496000
Fix,GT,37.4973201,-122.2322384,-27.86200165123926,0.22018474,0.1,290.5298,1615927497000
Fix,GT,37.4973202,-122.2322387,-27.86699973235797,0.0010007323,0.1,290.5275,1615927498000
Fix,GT,37.4973202,-122.2322387,-27.86699935945822,0.0028278606,0.1,290.52692,1615927499000
Fix,GT,37.4973202,-122.2322387,-27.86600184586554,0.001451661,0.1,290.52557,1615927500000
Fix,GT,37.4973202,-122.2322387,-27.87100270277704,0.095522776,0.1,290.52423,1615927501000
Fix,GT,37.4973222,-122.2322459,-27.87798673946914,1.5984048,0.1,290.48297,1615927502000
Fix,GT,37.4973315,-122.2322752,-27.84497160446364,3.8666582,0.1,291.0944,1615927503000
Fix,GT,37.4973452,-122.2323199,-27.7739820169746,4.3125563,0.1,290.93176,1615927504000
Fix,GT,37.4973589,-122.2323629,-27.728992540007862,3.9363656,0.1,291.57245,1615927505000
Fix,GT,37.4973729,-122.2324047,-27.709968993887305,4.3462586,0.1,292.6575,1615927506000
Fix,GT,37.4973892,-122.2324539,-27.63193343177808,4.9653873,0.1,292.12952,1615927507000
Fix,GT,37.4974022,-122.2325085,-27.46493674350745,4.951684,0.1,285.1339,1615927508000
Fix,GT,37.4974071,-122.2325617,-27.30595804904401,4.540125,0.1,275.5086,1615927509000
Fix,GT,37.4974036,-122.2326121,-27.199967313095723,4.671131,0.1,263.79965,1615927510000
Fix,GT,37.4973868,-122.2326629,-27.11697380055417,5.0764794,0.1,245.10332,1615927511000
Fix,GT,37.4973533,-122.232706,-27.049942293610425,5.764304,0.1,222.70923,1615927512000
Fix,GT,37.4973039,-122.2327388,-26.903882664286648,6.6711264,0.1,206.11763,1615927513000
Fix,GT,37.497245,-122.232769,-26.612847506199905,7.357363,0.1,201.6098,1615927514000
Fix,GT,37.4971838,-122.232798,-26.233862361641368,7.095977,0.1,200.48668,1615927515000
Fix,GT,37.4971263,-122.2328244,-25.891868428625923,6.4861183,0.1,199.86671,1615927516000
Fix,GT,37.4970717,-122.2328491,-25.56484127631324,6.713359,0.1,199.6685,1615927517000
Fix,GT,37.4970104,-122.2328764,-25.169849369812148,7.686845,0.1,199.33554,1615927518000
Fix,GT,37.496941,-122.2329079,-24.794860639374708,8.5964155,0.1,200.00052,1615927519000
Fix,GT,37.4968665,-122.2329425,-24.44788272220525,8.890403,0.1,200.19106,1615927520000
Fix,GT,37.4967929,-122.2329767,-24.1559072064388,8.506571,0.1,200.22643,1615927521000
Fix,GT,37.4967228,-122.2330094,-23.9249117093964,8.094685,0.1,200.30142,1615927522000
Fix,GT,37.4966561,-122.2330406,-23.704903747385977,7.73713,0.1,200.3947,1615927523000
Fix,GT,37.4965893,-122.2330719,-23.46491939263884,8.263751,0.1,200.36336,1615927524000
Fix,GT,37.4965146,-122.2331066,-23.26394667658944,9.568086,0.1,200.22768,1615927525000
Fix,GT,37.496428,-122.2331463,-23.130972357819964,10.759546,0.1,199.82861,1615927526000
Fix,GT,37.4963341,-122.2331884,-23.062017310775875,11.211535,0.1,199.3943,1615927527000
Fix,GT,37.4962397,-122.2332304,-23.105049047438545,10.879616,0.1,199.43771,1615927528000
Fix,GT,37.4961486,-122.2332721,-23.227111580865923,10.693505,0.1,200.54062,1615927529000
Fix,GT,37.4960585,-122.233316,-23.50511525988253,10.743374,0.1,201.27635,1615927530000
Fix,GT,37.4959684,-122.2333609,-23.792180226286817,10.817754,0.1,201.71068,1615927531000
Fix,GT,37.4958774,-122.2334072,-24.241214330635646,10.97403,0.1,202.19405,1615927532000
Fix,GT,37.4957873,-122.2334586,-24.775282887229693,10.981867,0.1,205.80736,1615927533000
Fix,GT,37.4957014,-122.23352,-25.48035908721693,11.047613,0.1,211.82755,1615927534000
Fix,GT,37.4956221,-122.2335996,-26.37539366536308,11.480396,0.1,222.36028,1615927535000
Fix,GT,37.4955551,-122.2337021,-27.35633681069152,11.945938,0.1,234.89973,1615927536000
Fix,GT,37.4955039,-122.2338237,-28.195205503846346,12.261565,0.1,245.98724,1615927537000
Fix,GT,37.4954751,-122.2339578,-28.70613817207964,12.235204,0.099,260.33002,1615927538000
Fix,GT,37.4954756,-122.2340954,-29.053110150924187,12.092871,0.099,275.91553,1615927539000
Fix,GT,37.4955052,-122.2342268,-29.33005689676612,12.172019,0.099,291.18985,1615927540000
Fix,GT,37.495562,-122.2343455,-29.474000470025203,12.225033,0.099,306.37833,1615927541000
Fix,GT,37.49564,-122.2344413,-29.477006909244228,11.964825,0.099,320.79898,1615927542000
Fix,GT,37.4957323,-122.2345073,-29.49599257631655,11.614372,0.1,335.38422,1615927543000
Fix,GT,37.4958317,-122.2345426,-29.4789890297215,11.275518,0.1,348.8127,1615927544000
Fix,GT,37.4959331,-122.2345468,-29.452996299853258,11.379743,0.1,2.7711792,1615927545000
Fix,GT,37.4960351,-122.2345193,-29.44501078027029,11.652843,0.1,17.175903,1615927546000
Fix,GT,37.496132,-122.2344598,-29.47300365765248,12.277634,0.1,30.795288,1615927547000
Fix,GT,37.4962189,-122.2343693,-29.482991386695883,12.725364,0.1,44.940125,1615927548000
Fix,GT,37.4962867,-122.2342496,-29.46201551103432,13.227041,0.1,60.628143,1615927549000
Fix,GT,37.4963253,-122.2341052,-29.500972216212656,13.757149,0.1,78.55365,1615927550000
Fix,GT,37.4963269,-122.2339459,-29.43195270497933,14.550125,0.1,95.74313,1615927551000
Fix,GT,37.4962983,-122.2337773,-29.3139672143762,15.970388,0.1,104.161316,1615927552000
Fix,GT,37.4962567,-122.2335954,-29.23199170976272,17.510511,0.1,106.21936,1615927553000
Fix,GT,37.496209,-122.2333969,-29.21098055039183,19.170897,0.1,106.935974,1615927554000
Fix,GT,37.4961552,-122.2331813,-29.16199053648126,20.705553,0.1,107.37921,1615927555000
Fix,GT,37.4960973,-122.232953,-29.137983354204334,21.70587,0.1,107.380066,1615927556000
Fix,GT,37.4960377,-122.2327139,-29.09597065101948,22.554522,0.1,107.23169,1615927557000
Fix,GT,37.4959757,-122.2324668,-29.021971566921856,23.239012,0.1,107.518005,1615927558000
Fix,GT,37.495911,-122.2322132,-28.949964012132146,23.744448,0.1,107.68631,1615927559000
Fix,GT,37.495845,-122.2319584,-28.85898369885984,23.579084,0.1,108.11511,1615927560000
Fix,GT,37.4957793,-122.2317065,-28.81699462970312,23.289503,0.1,108.01279,1615927561000
Fix,GT,37.4957152,-122.2314562,-28.801985931150263,23.36603,0.1,107.42856,1615927562000
Fix,GT,37.4956508,-122.2312012,-28.765017121396784,23.945162,0.1,107.6445,1615927563000
Fix,GT,37.4955826,-122.2309395,-28.8059770596881,24.681015,0.1,108.31952,1615927564000
Fix,GT,37.4955103,-122.2306741,-28.74700395801512,24.762306,0.1,109.28522,1615927565000
Fix,GT,37.4954356,-122.2304127,-28.754991194956705,24.371033,0.1,109.83899,1615927566000
Fix,GT,37.4953617,-122.2301544,-28.73100041422144,24.22161,0.099,109.38745,1615927567000
Fix,GT,37.4952899,-122.2298937,-28.73400888522511,24.555357,0.099,108.72247,1615927568000
Fix,GT,37.4952209,-122.2296289,-28.75798853825434,24.833143,0.099,107.46414,1615927569000
Fix,GT,37.4951527,-122.2293566,-28.730987050732715,25.654837,0.099,107.34418,1615927570000
Fix,GT,37.4950809,-122.2290787,-28.69997952495178,25.999758,0.099,108.5083,1615927571000
Fix,GT,37.495004,-122.228799,-28.64995076465746,26.350466,0.099,109.13312,1615927572000
Fix,GT,37.4949256,-122.2285172,-28.527907925450474,26.322369,0.099,109.215576,1615927573000
Fix,GT,37.4948472,-122.2282383,-28.298843506912554,25.965961,0.099,109.40021,1615927574000
Fix,GT,37.4947695,-122.2279636,-27.90885601305368,25.667028,0.099,109.48743,1615927575000
Fix,GT,37.4946916,-122.2276885,-27.54991021264816,26.06494,0.1,109.45737,1615927576000
Fix,GT,37.4946117,-122.2274072,-27.32596280893477,26.72593,0.1,109.62433,1615927577000
Fix,GT,37.4945277,-122.2271182,-27.23298452612385,27.65014,0.1,110.26483,1615927578000
Fix,GT,37.494438,-122.2268184,-27.1939973741846,29.017307,0.1,110.639984,1615927579000
Fix,GT,37.4943418,-122.2265045,-27.18700747241584,30.465036,0.1,111.35181,1615927580000
Fix,GT,37.4942372,-122.2261779,-27.205010759594384,31.66217,0.1,112.22775,1615927581000
Fix,GT,37.4941251,-122.2258434,-27.23099561586572,32.500633,0.1,113.16174,1615927582000
Fix,GT,37.4940073,-122.2255018,-27.21921767450584,33.298317,0.1,113.38843,1615927583000
Fix,GT,37.4938845,-122.2251532,-27.761131995245204,34.13041,0.1,114.36624,1615927584000
Fix,GT,37.4937538,-122.2247985,-28.089155269785053,34.91525,0.1,115.142456,1615927585000
Fix,GT,37.4936168,-122.2244397,-28.4751129210963,35.443638,0.1,115.95163,1615927586000
Fix,GT,37.4934741,-122.2240791,-28.75503170355409,35.658924,0.1,116.89752,1615927587000
Fix,GT,37.4933268,-122.2237204,-28.831996358544654,35.6471,0.1,117.50583,1615927588000
Fix,GT,37.4931774,-122.2233657,-28.82497724019573,35.301147,0.1,118.12622,1615927589000
Fix,GT,37.4930262,-122.2230155,-28.76998557006754,35.20113,0.1,118.69568,1615927590000
Fix,GT,37.4928723,-122.2226669,-28.735966337708465,35.296543,0.1,119.10791,1615927591000
Fix,GT,37.4927177,-122.2223183,-28.65402575723175,35.244373,0.1,118.91699,1615927592000
Fix,GT,37.4925637,-122.2219709,-28.72001018615233,35.00569,0.1,119.20557,1615927593000
Fix,GT,37.4924099,-122.2216279,-28.747034628257182,34.600445,0.1,119.31955,1615927594000
Fix,GT,37.4922576,-122.2212891,-28.83500142613426,34.212116,0.1,119.35336,1615927595000
Fix,GT,37.4921071,-122.2209537,-28.840024781993097,33.866936,0.1,119.19208,1615927596000
Fix,GT,37.4919592,-122.2206212,-28.90296553436748,33.49347,0.1,118.93347,1615927597000
Fix,GT,37.4918137,-122.220292,-28.81797521030062,33.089397,0.1,118.95416,1615927598000
Fix,GT,37.4916698,-122.2199671,-28.756977271384883,32.65371,0.1,119.00873,1615927599000
Fix,GT,37.491528,-122.2196477,-28.700984571520035,32.028885,0.1,119.05939,1615927600000
Fix,GT,37.4913888,-122.219335,-28.662997050663925,31.253534,0.1,119.08783,1615927601000
Fix,GT,37.4912526,-122.219029,-28.656003978020102,30.80224,0.1,119.08905,1615927602000
Fix,GT,37.4911178,-122.2187267,-28.66599364514765,30.462936,0.1,119.162445,1615927603000
Fix,GT,37.4909843,-122.2184278,-28.64997647139916,30.150902,0.1,119.18756,1615927604000
Fix,GT,37.4908518,-122.2181311,-28.59097853127044,30.106018,0.1,119.12283,1615927605000
Fix,GT,37.490719,-122.2178317,-28.536921283756616,30.510225,0.1,118.95215,1615927606000
Fix,GT,37.4905842,-122.2175264,-28.33980755837806,31.226498,0.1,118.88245,1615927607000
Fix,GT,37.4904465,-122.2172144,-27.858663797684656,31.791348,0.1,119.009094,1615927608000
Fix,GT,37.4903078,-122.2169006,-27.018665841385488,31.537733,0.1,118.928345,1615927609000
Fix,GT,37.4901724,-122.2165894,-26.183663422783635,31.286964,0.1,118.26364,1615927610000
Fix,GT,37.4900412,-122.2162791,-25.34265626860759,30.77795,0.1,117.53653,1615927611000
Fix,GT,37.4899158,-122.2159725,-24.483686803039863,30.21164,0.1,116.71756,1615927612000
Fix,GT,37.4897959,-122.2156691,-23.700709294907806,29.729696,0.1,116.00751,1615927613000
Fix,GT,37.4896802,-122.2153661,-22.973759413846302,29.825554,0.1,115.22867,1615927614000
Fix,GT,37.4895651,-122.2150579,-22.37184667241643,30.30138,0.1,115.00604,1615927615000
Fix,GT,37.4894504,-122.2147474,-21.99092966142073,30.163736,0.1,114.68164,1615927616000
Fix,GT,37.4893379,-122.2144376,-21.817011062525506,30.147968,0.1,114.09961,1615927617000
Fix,GT,37.4892288,-122.2141229,-21.846017496176703,30.52046,0.1,112.882935,1615927618000
Fix,GT,37.4891226,-122.2138027,-21.891066831837,30.832075,0.1,112.20648,1615927619000
Fix,GT,37.489019,-122.2134785,-22.0591690889693,30.936192,0.1,111.41992,1615927620000
Fix,GT,37.4889181,-122.2131511,-22.48222202750371,31.142622,0.1,110.76788,1615927621000
Fix,GT,37.4888193,-122.2128208,-23.0373274429453,31.168139,0.1,110.25098,1615927622000
Fix,GT,37.4887232,-122.2124906,-23.855336671384286,30.989927,0.1,109.61182,1615927623000
Fix,GT,37.4886302,-122.2121607,-24.6963443241152,30.948448,0.1,109.24176,1615927624000
Fix,GT,37.4885393,-122.2118302,-25.55636961318972,30.880228,0.1,108.665344,1615927625000
Fix,GT,37.4884517,-122.2114987,-26.479351595661807,30.939426,0.1,107.91785,1615927626000
Fix,GT,37.4883675,-122.2111644,-27.357279932427684,31.071974,0.1,107.01553,1615927627000
Fix,GT,37.4882874,-122.2108274,-28.05615099123641,31.126646,0.1,106.10779,1615927628000
Fix,GT,37.4882098,-122.2104882,-28.433048848819688,31.342363,0.1,105.82117,1615927629000
Fix,GT,37.4881333,-122.2101451,-28.55502840884077,31.608822,0.1,105.26489,1615927630000
Fix,GT,37.4880598,-122.209799,-28.626011633508927,31.783075,0.1,104.53787,1615927631000
Fix,GT,37.4879896,-122.2094509,-28.65502815169108,31.671934,0.1,103.81406,1615927632000
Fix,GT,37.4879235,-122.2091044,-28.72501421066584,31.382362,0.1,103.0275,1615927633000
Fix,GT,37.4878611,-122.2087575,-28.7600379438767,31.632807,0.1,102.34235,1615927634000
Fix,GT,37.4878011,-122.2084068,-28.854019595010847,31.810461,0.1,101.815216,1615927635000
Fix,GT,37.4877427,-122.2080533,-28.902013241004784,31.99003,0.1,101.504364,1615927636000
Fix,GT,37.4876868,-122.2076979,-28.934016534688126,32.099712,0.1,100.700775,1615927637000
Fix,GT,37.4876346,-122.2073408,-28.974018626368256,32.12997,0.1,100.0242,1615927638000
Fix,GT,37.4875854,-122.2069809,-29.01902186246868,32.43083,0.1,99.35925,1615927639000
Fix,GT,37.4875389,-122.2066187,-29.072009869148225,32.44041,0.1,98.92493,1615927640000
Fix,GT,37.4874937,-122.2062577,-29.09499870472151,32.144264,0.1,98.765656,1615927641000
Fix,GT,37.4874495,-122.2059008,-29.090021981033264,31.760696,0.1,98.70203,1615927642000
Fix,GT,37.4874061,-122.2055466,-29.1430284531028,31.678701,0.1,98.591125,1615927643000
Fix,GT,37.4873632,-122.2051924,-29.21200964674674,31.71885,0.1,98.459015,1615927644000
Fix,GT,37.4873206,-122.2048375,-29.23399754167657,31.762154,0.1,98.46152,1615927645000
Fix,GT,37.4872777,-122.2044823,-29.230000005368144,31.738699,0.1,98.6207,1615927646000
Fix,GT,37.4872337,-122.2041285,-29.23197403984374,31.61732,0.1,98.85919,1615927647000
Fix,GT,37.4871893,-122.2037762,-29.168991363881567,31.515402,0.1,98.88992,1615927648000
Fix,GT,37.4871449,-122.2034251,-29.148999096954245,31.354965,0.1,98.87402,1615927649000
Fix,GT,37.487101,-122.2030752,-29.1479927711132,31.313148,0.1,98.71384,1615927650000
Fix,GT,37.4870581,-122.2027256,-29.13097920163441,31.205557,0.1,98.66327,1615927651000
Fix,GT,37.487015,-122.2023781,-29.07999446252297,31.005268,0.1,98.762024,1615927652000
Fix,GT,37.4869718,-122.2020325,-29.06699572351025,30.926022,0.1,98.85144,1615927653000
Fix,GT,37.4869286,-122.2016865,-29.057004971504384,31.040787,0.1,98.71643,1615927654000
Fix,GT,37.4868859,-122.2013382,-29.070002165566315,31.278599,0.1,98.53012,1615927655000
Fix,GT,37.4868437,-122.2009875,-29.07599941807328,31.456043,0.1,98.52823,1615927656000
Fix,GT,37.4868005,-122.200635,-29.07500351361453,31.527786,0.1,98.788086,1615927657000
Fix,GT,37.4867568,-122.2002847,-29.084003914423462,31.178093,0.1,98.78162,1615927658000
Fix,GT,37.4867139,-122.1999385,-29.094008782916937,30.818947,0.1,98.72818,1615927659000
Fix,GT,37.4866716,-122.1995952,-29.116006836345942,30.56997,0.1,98.61682,1615927660000
Fix,GT,37.4866303,-122.1992554,-29.1330064940528,30.215929,0.1,98.503235,1615927661000
Fix,GT,37.4865897,-122.1989186,-29.148992493382018,30.071312,0.1,98.541565,1615927662000
Fix,GT,37.4865489,-122.1985833,-29.129994584816508,29.944206,0.1,98.70993,1615927663000
Fix,GT,37.4865079,-122.1982501,-29.116006267813468,29.658232,0.1,98.695526,1615927664000
Fix,GT,37.4864672,-122.1979208,-29.13100712817884,29.306345,0.1,98.74448,1615927665000
Fix,GT,37.4864269,-122.1975952,-29.14801360059422,29.01512,0.1,98.80557,1615927666000
Fix,GT,37.4863865,-122.1972707,-29.181004869736263,29.124918,0.1,98.76459,1615927667000
Fix,GT,37.4863461,-122.1969441,-29.19201855690993,29.310486,0.1,98.74823,1615927668000
Fix,GT,37.4863054,-122.1966175,-29.237005359156203,29.110853,0.1,98.8772,1615927669000
Fix,GT,37.4862647,-122.1962942,-29.24899857369915,28.765594,0.1,98.90848,1615927670000
Fix,GT,37.4862244,-122.1959749,-29.24398981333093,28.40518,0.1,98.89261,1615927671000
Fix,GT,37.4861848,-122.1956597,-29.21700393055597,28.080875,0.1,98.89331,1615927672000
Fix,GT,37.4861454,-122.1953471,-29.22500407709039,27.868265,0.1,98.927734,1615927673000
Fix,GT,37.4861063,-122.1950375,-29.232990797215376,27.544308,0.099,98.927765,1615927674000
Fix,GT,37.4860678,-122.1947319,-29.21199406255753,27.186846,0.099,98.86102,1615927675000
Fix,GT,37.48603,-122.1944302,-29.19900457407511,26.840359,0.099,98.806915,1615927676000
Fix,GT,37.4859928,-122.1941322,-29.21198659198475,26.505043,0.099,98.78656,1615927677000
Fix,GT,37.4859556,-122.1938381,-29.18000068205889,26.155464,0.099,99.19519,1615927678000
Fix,GT,37.485916,-122.1935483,-29.182993152662124,25.872295,0.099,100.079346,1615927679000
Fix,GT,37.4858737,-122.1932599,-29.166998393276245,26.152925,0.1,100.41766,1615927680000
Fix,GT,37.4858307,-122.1929673,-29.16398963231998,26.31015,0.1,100.38071,1615927681000
Fix,GT,37.4857886,-122.192675,-29.138986512755043,26.203,0.1,99.84241,1615927682000
Fix,GT,37.4857489,-122.1923846,-29.10599215516393,25.902515,0.1,99.43588,1615927683000
Fix,GT,37.4857109,-122.1920972,-29.08698339315021,25.747494,0.1,99.21484,1615927684000
Fix,GT,37.4856738,-122.1918072,-29.04598548482812,26.302094,0.1,98.8302,1615927685000
Fix,GT,37.4856373,-122.19151,-29.00999232972784,26.79667,0.1,98.463165,1615927686000
Fix,GT,37.4856007,-122.1912091,-28.99100160782269,27.046125,0.1,98.81412,1615927687000
Fix,GT,37.4855631,-122.1909062,-28.99500049288536,27.137793,0.1,98.65552,1615927688000
Fix,GT,37.485526,-122.1906028,-28.99599931886693,27.21572,0.1,98.76239,1615927689000
Fix,GT,37.4854882,-122.1902978,-28.993970912681544,27.379244,0.1,98.90939,1615927690000
Fix,GT,37.4854486,-122.1899923,-28.921005819773125,27.279104,0.1,99.3642,1615927691000
Fix,GT,37.4854079,-122.1896898,-28.93500229845464,26.991934,0.1,99.54855,1615927692000
Fix,GT,37.4853671,-122.1893902,-28.93999436699378,26.788527,0.1,99.558014,1615927693000
Fix,GT,37.4853264,-122.1890919,-28.924990415692445,26.749556,0.1,99.69354,1615927694000
Fix,GT,37.4852842,-122.1887943,-28.89999694516434,26.71202,0.1,100.41559,1615927695000
Fix,GT,37.4852391,-122.1884977,-28.890980536650776,26.720251,0.1,100.837006,1615927696000
Fix,GT,37.4851928,-122.1882012,-28.84099992337544,26.642876,0.1,101.21365,1615927697000
Fix,GT,37.4851449,-122.1879076,-28.83898517623544,26.365564,0.1,101.74957,1615927698000
Fix,GT,37.4850951,-122.1876181,-28.799989585355856,26.013765,0.1,102.454926,1615927699000
Fix,GT,37.485043,-122.1873332,-28.771990787354063,25.701578,0.1,103.24213,1615927700000
Fix,GT,37.4849888,-122.1870511,-28.746993970478943,25.655369,0.1,103.70462,1615927701000
Fix,GT,37.4849328,-122.1867688,-28.733990076005696,25.892744,0.1,103.96872,1615927702000
Fix,GT,37.4848752,-122.186483,-28.71098254472492,26.199377,0.1,104.33652,1615927703000
Fix,GT,37.4848149,-122.1861956,-28.66899182475661,26.374413,0.1,104.87811,1615927704000
Fix,GT,37.4847524,-122.1859063,-28.649991882621745,26.686127,0.1,105.32956,1615927705000
Fix,GT,37.4846865,-122.1856143,-28.63098913296292,26.941898,0.1,106.05603,1615927706000
Fix,GT,37.4846177,-122.1853213,-28.60499279927905,27.076317,0.1,106.63965,1615927707000
Fix,GT,37.4845464,-122.1850296,-28.58798964929083,26.844473,0.1,107.21472,1615927708000
Fix,GT,37.4844741,-122.184742,-28.56296765375093,26.494238,0.1,107.68024,1615927709000
Fix,GT,37.4844002,-122.1844593,-28.48296811249853,26.124811,0.1,108.726746,1615927710000
Fix,GT,37.4843209,-122.1841836,-28.403969028763647,25.697233,0.1,111.00534,1615927711000
Fix,GT,37.4842343,-122.1839174,-28.326979108911303,25.099957,0.1,113.203,1615927712000
Fix,GT,37.4841431,-122.1836618,-28.27497360885772,24.412704,0.1,114.48932,1615927713000
Fix,GT,37.4840534,-122.1834169,-28.20898649526492,23.111334,0.1,114.70572,1615927714000
Fix,GT,37.4839683,-122.18319,-28.17498454678734,21.186817,0.1,115.97714,1615927715000
Fix,GT,37.4838815,-122.182984,-28.135937661895063,20.174295,0.1,119.872986,1615927716000
Fix,GT,37.4837849,-122.1827979,-27.97989561393089,19.065561,0.1,126.07727,1615927717000
Fix,GT,37.4836771,-122.1826412,-27.71894135010417,17.589334,0.1,135.07712,1615927718000
Fix,GT,37.483559,-122.1825199,-27.571944610610807,16.252985,0.1,144.96747,1615927719000
Fix,GT,37.4834381,-122.1824333,-27.43297315998137,14.537698,0.1,153.93823,1615927720000
Fix,GT,37.4833252,-122.1823759,-27.36496236035105,12.361343,0.1,159.85071,1615927721000
Fix,GT,37.4832292,-122.1823361,-27.2699355477558,10.2877445,0.1,162.67151,1615927722000
Fix,GT,37.4831497,-122.182307,-27.10794602358132,8.004292,0.1,163.97034,1615927723000
Fix,GT,37.4830914,-122.1822862,-26.971940113793945,5.639576,0.1,164.1333,1615927724000
Fix,GT,37.4830472,-122.182269,-26.820939815435125,4.81159,0.1,162.40295,1615927725000
Fix,GT,37.4830118,-122.182253,-26.668966370428564,3.2810967,0.1,160.11865,1615927726000
Fix,GT,37.4829911,-122.1822425,-26.586966051188064,2.10805,0.1,158.44293,1615927727000
Fix,GT,37.4829738,-122.1822331,-26.503949238348813,2.2402143,0.1,157.36115,1615927728000
Fix,GT,37.4829501,-122.182221,-26.378900371557336,3.71394,0.1,157.63922,1615927729000
Fix,GT,37.4829098,-122.1821998,-26.131859552500973,5.8472147,0.1,156.86285,1615927730000
Fix,GT,37.4828571,-122.1821671,-25.782845575124785,7.099826,0.1,152.41168,1615927731000
Fix,GT,37.4827999,-122.1821232,-25.39887009321328,7.7007008,0.1,147.42444,1615927732000
Fix,GT,37.4827424,-122.1820758,-25.075921100291424,7.475303,0.1,146.38397,1615927733000
Fix,GT,37.4826885,-122.18203,-24.87995403504331,7.03281,0.1,144.97076,1615927734000
Fix,GT,37.4826418,-122.1819798,-24.76594446068804,6.646853,0.1,136.34842,1615927735000
Fix,GT,37.482611,-122.1819199,-24.627920474314944,6.0769043,0.1,118.69861,1615927736000
Fix,GT,37.4825978,-122.1818497,-24.4298700203934,6.8510833,0.1,98.92877,1615927737000
Fix,GT,37.4826064,-122.1817692,-24.10581354838217,7.6695213,0.1,77.10272,1615927738000
Fix,GT,37.482637,-122.1816842,-23.640767900673204,8.920256,0.1,63.041656,1615927739000
Fix,GT,37.4826798,-122.1815913,-23.06177351271757,9.998685,0.1,59.291595,1615927740000
Fix,GT,37.4827301,-122.1814894,-22.496780393685768,11.170737,0.1,57.64862,1615927741000
Fix,GT,37.4827865,-122.1813846,-21.94881051002676,11.020638,0.1,55.15695,1615927742000
Fix,GT,37.4828435,-122.1812864,-21.475828994778684,10.482561,0.1,53.58908,1615927743000
Fix,GT,37.4829007,-122.1811915,-21.04884747903643,10.716113,0.1,52.40457,1615927744000
Fix,GT,37.4829621,-122.1810965,-20.66787518625729,10.894889,0.1,50.177948,1615927745000
Fix,GT,37.4830253,-122.1810053,-20.355907304217343,10.360555,0.1,48.74347,1615927746000
Fix,GT,37.4830851,-122.1809205,-20.12391981245158,9.802309,0.1,48.26947,1615927747000
Fix,GT,37.4831469,-122.1808353,-19.92292504130112,10.926628,0.1,47.412506,1615927748000
Fix,GT,37.4832199,-122.1807426,-19.734949921753635,12.086819,0.1,44.075165,1615927749000
Fix,GT,37.4833043,-122.1806481,-19.608978832657773,12.927718,0.1,40.71112,1615927750000
Fix,GT,37.4833966,-122.1805557,-19.55502661447972,13.16142,0.1,37.16281,1615927751000
Fix,GT,37.4834931,-122.1804711,-19.62005079219048,12.993673,0.1,33.73999,1615927752000
Fix,GT,37.4835918,-122.1803935,-19.7481009801091,12.874815,0.1,31.477142,1615927753000
Fix,GT,37.4836906,-122.18032,-20.00111547267577,12.564838,0.1,30.387024,1615927754000
Fix,GT,37.4837847,-122.1802462,-20.29016285330543,12.039103,0.1,34.306366,1615927755000
Fix,GT,37.4838649,-122.1801583,-20.69726157071919,11.724372,0.1,46.17758,1615927756000
Fix,GT,37.4839226,-122.1800474,-21.35037107300852,11.782795,0.1,63.24066,1615927757000
Fix,GT,37.4839497,-122.1799168,-22.27643522982346,12.225284,0.1,82.20285,1615927758000
Fix,GT,37.4839417,-122.1797754,-23.362468903352504,12.798199,0.1,101.257416,1615927759000
Fix,GT,37.4838947,-122.1796409,-24.532512227500032,13.203931,0.1,121.51022,1615927760000
Fix,GT,37.4838107,-122.1795328,-25.810405981429383,13.567143,0.1,141.974,1615927761000
Fix,GT,37.4836992,-122.1794664,-26.82330982334481,13.801053,0.1,162.73132,1615927762000
Fix,GT,37.4835754,-122.1794542,-27.59615268107038,13.809329,0.1,183.69168,1615927763000
Fix,GT,37.4834574,-122.179499,-27.977053613771687,13.553119,0.1,205.7103,1615927764000
Fix,GT,37.4833652,-122.1795952,-28.110991101855323,13.129575,0.1,228.91843,1615927765000
Fix,GT,37.4833109,-122.179726,-28.08896021898411,13.22819,0.1,251.00507,1615927766000
Fix,GT,37.4832962,-122.1798802,-27.98989925554136,14.367009,0.1,270.6042,1615927767000
Fix,GT,37.483319,-122.1800472,-27.738928991253605,15.86761,0.1,284.91943,1615927768000
Fix,GT,37.4833732,-122.1802265,-27.561994795585868,18.065659,0.1,293.5152,1615927769000
Fix,GT,37.4834429,-122.1804255,-27.549002443367904,20.416866,0.1,293.7294,1615927770000
Fix,GT,37.483521,-122.1806489,-27.554970302509897,22.675165,0.1,293.4953,1615927771000
Fix,GT,37.4836037,-122.1808965,-27.480998460455947,24.84563,0.1,291.59903,1615927772000
Fix,GT,37.4836877,-122.1811706,-27.476972098311585,27.127974,0.1,290.74078,1615927773000
Fix,GT,37.4837787,-122.1814661,-27.40701025612536,28.862953,0.1,291.46332,1615927774000
Fix,GT,37.483877,-122.1817786,-27.43201595391595,30.5294,0.1,291.1952,1615927775000
Fix,GT,37.4839755,-122.1821101,-27.471011998673085,32.083958,0.1,289.67697,1615927776000
Fix,GT,37.4840735,-122.18246,-27.50002611994441,33.48251,0.1,289.16336,1615927777000
Fix,GT,37.4841759,-122.1828243,-27.564014142729,34.83629,0.1,289.31384,1615927778000
Fix,GT,37.4842796,-122.1832038,-27.59804548464185,36.08896,0.1,288.2899,1615927779000
Fix,GT,37.4843814,-122.1835971,-27.710051932066857,37.074867,0.1,287.70782,1615927780000
Fix,GT,37.484484,-122.1840004,-27.83804603054308,37.7442,0.1,287.73782,1615927781000
Fix,GT,37.4845884,-122.1844101,-27.95101763886673,38.329456,0.1,287.45837,1615927782000
Fix,GT,37.484691,-122.1848257,-27.993013220073305,38.554317,0.099,286.8246,1615927783000
Fix,GT,37.4847906,-122.1852444,-28.028013675699945,38.72834,0.099,286.3183,1615927784000
Fix,GT,37.4848875,-122.1856659,-28.064026566795537,38.869026,0.099,285.82797,1615927785000
Fix,GT,37.4849818,-122.1860889,-28.13200897260371,38.773705,0.1,285.33456,1615927786000
Fix,GT,37.4850726,-122.18651,-28.15601748001972,38.339165,0.1,284.76157,1615927787000
Fix,GT,37.4851584,-122.1869268,-28.201016360415057,37.811707,0.1,284.07895,1615927788000
Fix,GT,37.4852369,-122.1873397,-28.243006845445137,37.287834,0.1,282.53333,1615927789000
Fix,GT,37.485308,-122.1877489,-28.26101452342706,36.807083,0.1,281.93454,1615927790000
Fix,GT,37.4853745,-122.1881536,-28.29802463622484,36.23915,0.1,281.2453,1615927791000
Fix,GT,37.4854367,-122.1885532,-28.36001105426636,35.795288,0.1,280.8562,1615927792000
Fix,GT,37.4854964,-122.1889485,-28.38801913385536,35.37709,0.1,280.19098,1615927793000
Fix,GT,37.4855491,-122.1893396,-28.43601641107168,34.73145,0.1,279.08875,1615927794000
Fix,GT,37.4855973,-122.1897243,-28.4770152930856,34.212982,0.1,278.8013,1615927795000
Fix,GT,37.4856437,-122.1901044,-28.515030593925594,33.771366,0.1,278.4547,1615927796000
Fix,GT,37.4856876,-122.1904785,-28.59101383201336,33.09386,0.1,278.16626,1615927797000
Fix,GT,37.4857311,-122.1908443,-28.625017127345927,32.253555,0.1,278.6375,1615927798000
Fix,GT,37.4857749,-122.1911984,-28.667019563063835,31.140383,0.1,278.91736,1615927799000
Fix,GT,37.4858185,-122.1915406,-28.715022457872983,30.246817,0.1,279.0731,1615927800000
Fix,GT,37.4858612,-122.191875,-28.770019708428823,29.675234,0.1,279.04593,1615927801000
Fix,GT,37.4859033,-122.1922038,-28.81802099919005,29.266113,0.1,279.0088,1615927802000
Fix,GT,37.4859442,-122.1925288,-28.86901506942426,28.950686,0.1,278.8284,1615927803000
Fix,GT,37.4859843,-122.1928505,-28.905017906978845,28.630108,0.1,278.79187,1615927804000
Fix,GT,37.486024,-122.1931693,-28.948017937487457,28.522253,0.1,278.78378,1615927805000
Fix,GT,37.4860634,-122.1934887,-28.99102120528859,28.630123,0.1,278.71423,1615927806000
Fix,GT,37.4861027,-122.1938093,-29.042015277139143,28.714369,0.1,278.61636,1615927807000
Fix,GT,37.4861416,-122.1941303,-29.078008387398903,28.792,0.099,278.556,1615927808000
Fix,GT,37.4861815,-122.1944535,-29.10100202646863,29.056774,0.099,278.8546,1615927809000
Fix,GT,37.4862228,-122.1947791,-29.10800409061834,29.2096,0.099,278.97412,1615927810000
Fix,GT,37.4862638,-122.1951053,-29.120002142094133,29.209463,0.099,278.79556,1615927811000
Fix,GT,37.4863043,-122.1954313,-29.126996985125903,29.132,0.099,278.75482,1615927812000
Fix,GT,37.4863446,-122.195757,-29.120998706914573,29.221334,0.099,278.75732,1615927813000
Fix,GT,37.4863854,-122.1960845,-29.11899919541716,29.292501,0.099,278.89444,1615927814000
Fix,GT,37.486427,-122.1964098,-29.118000113905023,28.966002,0.099,279.0901,1615927815000
Fix,GT,37.4864682,-122.1967308,-29.119004526974138,28.563238,0.099,279.00946,1615927816000
Fix,GT,37.4865085,-122.1970494,-29.13099297964969,28.602571,0.1,278.84875,1615927817000
Fix,GT,37.4865483,-122.1973708,-29.11399988730525,28.916555,0.1,278.6997,1615927818000
Fix,GT,37.4865881,-122.1976959,-29.113999084915267,29.244936,0.1,278.52338,1615927819000
Fix,GT,37.4866276,-122.1980241,-29.111990317046644,29.395224,0.1,278.49182,1615927820000
Fix,GT,37.4866675,-122.1983511,-29.088006393770687,29.096836,0.1,278.75348,1615927821000
Fix,GT,37.4867077,-122.198674,-29.103993672247977,28.713186,0.1,278.9147,1615927822000
Fix,GT,37.486748,-122.1989928,-29.088002957424614,28.469656,0.1,278.94232,1615927823000
Fix,GT,37.4867875,-122.1993118,-29.0950006086661,28.649963,0.1,278.6417,1615927824000
Fix,GT,37.4868267,-122.1996334,-29.096003475560806,28.916578,0.1,278.5628,1615927825000
Fix,GT,37.4868663,-122.1999581,-29.10399149779527,29.21864,0.1,278.69983,1615927826000
Fix,GT,37.4869067,-122.2002853,-29.08199516596945,29.248934,0.1,278.7097,1615927827000
Fix,GT,37.4869465,-122.2006106,-29.069002445999995,28.928076,0.1,278.67062,1615927828000
Fix,GT,37.4869857,-122.2009319,-29.07400812149517,28.629086,0.1,278.56335,1615927829000
Fix,GT,37.4870245,-122.2012532,-29.092998893852727,28.927803,0.1,278.6156,1615927830000
Fix,GT,37.4870648,-122.2015789,-29.08899774853757,29.40431,0.1,278.92212,1615927831000
Fix,GT,37.4871068,-122.2019092,-29.081997033119467,29.66245,0.1,279.02954,1615927832000
Fix,GT,37.487149,-122.2022403,-29.07300514452532,29.560951,0.1,278.96548,1615927833000
Fix,GT,37.4871903,-122.2025689,-29.084006004834663,29.285597,0.1,278.87076,1615927834000
Fix,GT,37.4872306,-122.2028944,-29.09699596195616,28.94804,0.1,278.6596,1615927835000
Fix,GT,37.4872697,-122.2032159,-29.088997997115364,28.575022,0.1,278.58643,1615927836000
Fix,GT,37.4873086,-122.2035333,-29.08600172511977,28.286705,0.1,278.7852,1615927837000
Fix,GT,37.4873475,-122.2038504,-29.091998171432817,28.51893,0.1,278.5693,1615927838000
Fix,GT,37.487386,-122.2041712,-29.08899900360126,28.849009,0.1,278.60287,1615927839000
Fix,GT,37.487426,-122.204495,-29.087995048786777,29.064375,0.1,278.8988,1615927840000
Fix,GT,37.487467,-122.2048197,-29.07699590984336,29.097301,0.1,278.86346,1615927841000
Fix,GT,37.4875077,-122.2051442,-29.067972323647,28.936094,0.1,278.96945,1615927842000
Fix,GT,37.4875487,-122.2054655,-28.999950314078426,28.629242,0.1,278.98297,1615927843000
Fix,GT,37.4875893,-122.2057853,-28.87700411117263,28.758644,0.1,278.91852,1615927844000
Fix,GT,37.4876301,-122.206106,-28.88799935409133,28.622007,0.1,278.99237,1615927845000
Fix,GT,37.487671,-122.2064254,-28.8869817570193,28.65237,0.1,279.0196,1615927846000
Fix,GT,37.4877122,-122.206746,-28.842003912659944,28.847889,0.1,279.08853,1615927847000
Fix,GT,37.4877543,-122.2070699,-28.8519666536827,29.239128,0.1,279.39743,1615927848000
Fix,GT,37.4877994,-122.2073976,-28.76898514005728,29.498201,0.1,280.14673,1615927849000
Fix,GT,37.4878491,-122.2077253,-28.73200563267769,29.407879,0.1,281.34546,1615927850000
Fix,GT,37.4879035,-122.2080488,-28.74599442670064,29.04927,0.1,282.11984,1615927851000
Fix,GT,37.4879589,-122.2083693,-28.731986086243648,29.08937,0.1,282.14905,1615927852000
Fix,GT,37.4880148,-122.2086937,-28.69699098719673,29.560827,0.1,282.11224,1615927853000
Fix,GT,37.4880723,-122.2090188,-28.67398943865349,29.300602,0.1,282.87225,1615927854000
Fix,GT,37.4881327,-122.2093393,-28.64698949587019,28.931824,0.1,283.57166,1615927855000
Fix,GT,37.488195,-122.2096545,-28.619994797820983,28.519056,0.1,284.22183,1615927856000
Fix,GT,37.4882598,-122.2099646,-28.605994453760097,28.256693,0.1,284.97897,1615927857000
Fix,GT,37.4883272,-122.2102746,-28.590932742362668,28.691624,0.1,285.27744,1615927858000
Fix,GT,37.488397,-122.2105897,-28.421819606345235,29.123127,0.1,285.90698,1615927859000
Fix,GT,37.4884723,-122.2109076,-27.97070852527124,29.442638,0.1,287.0889,1615927860000
Fix,GT,37.4885521,-122.2112263,-27.24264994704941,29.611889,0.1,287.52042,1615927861000
Fix,GT,37.488633,-122.2115429,-26.36867132149509,29.175936,0.1,287.97125,1615927862000
Fix,GT,37.4887148,-122.2118535,-25.54768268989917,28.738214,0.1,288.44363,1615927863000
Fix,GT,37.4887985,-122.2121614,-24.75869840911921,28.871267,0.1,289.102,1615927864000
Fix,GT,37.4888862,-122.2124712,-24.00867760730305,29.275589,0.1,289.8285,1615927865000
Fix,GT,37.4889773,-122.2127848,-23.206788451221712,29.763693,0.1,289.96735,1615927866000
Fix,GT,37.489072,-122.2131026,-22.68084428697551,30.377964,0.1,291.1869,1615927867000
Fix,GT,37.4891737,-122.2134259,-22.293903351181072,30.928497,0.1,291.93335,1615927868000
Fix,GT,37.4892797,-122.2137501,-22.053971219151308,30.940804,0.1,292.64636,1615927869000
Fix,GT,37.4893877,-122.2140698,-21.9829965240394,30.448412,0.1,293.21222,1615927870000
Fix,GT,37.4894953,-122.2143829,-21.97501545150904,29.838587,0.1,293.34866,1615927871000
Fix,GT,37.4896034,-122.2146881,-22.01415515166931,29.294397,0.1,294.30334,1615927872000
Fix,GT,37.4897128,-122.2149873,-22.40123909186956,28.954746,0.1,294.8078,1615927873000
Fix,GT,37.4898233,-122.2152823,-22.99723953813576,28.696968,0.1,295.3439,1615927874000
Fix,GT,37.4899349,-122.2155735,-23.59432024969277,28.469515,0.1,295.98416,1615927875000
Fix,GT,37.490049,-122.2158616,-24.39231104494538,28.5258,0.1,296.76053,1615927876000
Fix,GT,37.4901679,-122.216151,-25.167331939977245,28.959307,0.1,297.7166,1615927877000
Fix,GT,37.4902907,-122.2164402,-25.99434285768773,29.054092,0.1,298.14575,1615927878000
Fix,GT,37.4904162,-122.2167313,-26.84829960172344,29.435122,0.1,298.7405,1615927879000
Fix,GT,37.4905488,-122.2170229,-27.594267931663403,29.992737,0.1,300.42044,1615927880000
Fix,GT,37.4906896,-122.2173178,-28.261122312450865,30.871317,0.1,301.03723,1615927881000
Fix,GT,37.4908348,-122.2176208,-28.565030096786128,31.550575,0.1,300.68503,1615927882000
Fix,GT,37.49098,-122.2179293,-28.63901212381501,31.796469,0.1,300.36554,1615927883000
Fix,GT,37.4911243,-122.218239,-28.66799652895669,31.578068,0.1,300.0927,1615927884000
