MessageType,Provider,LatitudeDegrees,LongitudeDegrees,AltitudeMeters,SpeedMps,AccuracyMeters,BearingDegrees,UnixTimeMillis
Fix,GT,37.3795017,-122.0719457,,0.001,0.1,44.50876,1609883560999
Fix,GT,37.3795017,-122.0719457,,1.9031764e-07,0.1,44.50894,1609883561999
Fix,GT,37.3795017,-122.0719457,,0.0009998097,0.1,44.50894,1609883562999
Fix,GT,37.3795017,-122.0719457,,1.9031764e-07,0.1,44.50891,1609883563999
Fix,GT,37.3795017,-122.0719457,,0.0022356424,0.1,44.510162,1609883564999
Fix,GT,37.3795017,-122.0719457,,0.0010002354,0.1,44.509216,1609883565999
Fix,GT,37.3795018,-122.0719457,,0.001,0.1,44.492065,1609883566999
Fix,GT,37.3795018,-122.0719457,,0.001,0.1,44.49414,1609883567999
Fix,GT,37.3795019,-122.0719457,,0.12308646,0.1,44.403717,1609883568999
Fix,GT,37.379506,-122.071942,,0.87526524,0.1,42.093445,1609883569999
Fix,GT,37.3795143,-122.071935,,1.2119429,0.1,38.8143,1609883570999
Fix,GT,37.3795228,-122.0719245,,1.4092648,0.1,41.77069,1609883571999
Fix,GT,37.3795305,-122.0719122,,1.4375513,0.1,47.193024,1609883572999
Fix,GT,37.3795353,-122.0718983,,1.295827,0.1,56.844025,1609883573999
Fix,GT,37.3795368,-122.0718841,,1.2133063,0.1,68.75375,1609883574999
Fix,GT,37.3795358,-122.0718711,,1.0029204,0.1,80.46362,1609883575999
Fix,GT,37.3795334,-122.0718634,,0.41774884,0.1,89.60391,1609883576999
Fix,GT,37.3795318,-122.0718596,,0.36445493,0.1,94.16327,1609883577999
Fix,GT,37.3795302,-122.0718552,,0.66621643,0.1,98.05353,1609883578999
Fix,GT,37.3795274,-122.0718438,,1.6746958,0.1,101.60889,1609883579999
Fix,GT,37.379525,-122.0718183,,2.7487125,0.1,97.630066,1609883580999
Fix,GT,37.3795287,-122.0717806,,3.7042425,0.1,83.19928,1609883581999
Fix,GT,37.3795454,-122.0717414,,3.9254181,0.1,62.311768,1609883582999
Fix,GT,37.3795701,-122.0717092,,3.6498425,0.1,47.108,1609883583999
Fix,GT,37.3795897,-122.0716875,,2.0624366,0.1,42.760345,1609883584999
Fix,GT,37.379599,-122.0716777,,0.76498574,0.1,41.563538,1609883585999
Fix,GT,37.3796045,-122.0716722,,0.989699,0.1,40.60266,1609883586999
Fix,GT,37.3796132,-122.0716634,,1.5326561,0.1,39.999847,1609883587999
Fix,GT,37.3796248,-122.0716481,,2.044571,0.1,44.07715,1609883588999
Fix,GT,37.3796333,-122.0716261,,2.76638,0.1,58.97818,1609883589999
Fix,GT,37.3796346,-122.0715833,,4.642026,0.1,86.39261,1609883590999
Fix,GT,37.3796193,-122.0715271,,6.026748,0.1,110.35962,1609883591999
Fix,GT,37.3795911,-122.0714601,,7.4364486,0.1,118.1142,1609883592999
Fix,GT,37.3795549,-122.0713804,,8.7365465,0.1,119.54324,1609883593999
Fix,GT,37.3795133,-122.0712879,,10.184382,0.1,119.10443,1609883594999
Fix,GT,37.3794656,-122.0711801,,11.474654,0.1,118.74335,1609883595999
Fix,GT,37.3794137,-122.0710602,,12.430519,0.1,118.22067,1609883596999
Fix,GT,37.379362,-122.0709404,,11.397178,0.1,118.33856,1609883597999
Fix,GT,37.3793164,-122.0708347,,9.932547,0.1,118.29138,1609883598999
Fix,GT,37.3792767,-122.0707426,,8.637569,0.1,118.28998,1609883599999
Fix,GT,37.3792419,-122.0706622,,7.8212013,0.1,118.3522,1609883600999
Fix,GT,37.3792087,-122.0705858,,7.8248425,0.1,118.60141,1609883601999
Fix,GT,37.3791722,-122.070502,,8.979138,0.1,118.47156,1609883602999
Fix,GT,37.3791333,-122.070411,,9.358166,0.1,118.00964,1609883603999
Fix,GT,37.3790927,-122.0703147,,9.995559,0.1,117.56445,1609883604999
Fix,GT,37.3790501,-122.0702105,,10.741509,0.1,117.01996,1609883605999
Fix,GT,37.379005,-122.0700989,,11.445051,0.1,116.84903,1609883606999
Fix,GT,37.3789555,-122.069978,,12.5875,0.1,117.169525,1609883607999
Fix,GT,37.3789016,-122.0698471,,13.628217,0.1,117.38684,1609883608999
Fix,GT,37.3788429,-122.0697058,,14.506999,0.1,117.451416,1609883609999
Fix,GT,37.3787811,-122.0695564,,15.073775,0.1,117.38922,1609883610999
Fix,GT,37.3787186,-122.0694073,,14.724341,0.1,118.09924,1609883611999
Fix,GT,37.3786557,-122.0692641,,14.217374,0.1,119.11307,1609883612999
Fix,GT,37.3785942,-122.069129,,13.232572,0.1,119.854095,1609883613999
Fix,GT,37.3785389,-122.0690064,,11.687903,0.1,119.046265,1609883614999
Fix,GT,37.3784907,-122.0689012,,9.600086,0.1,120.86725,1609883615999
Fix,GT,37.378445,-122.0688258,,7.5707335,0.1,131.44476,1609883616999
Fix,GT,37.3783923,-122.0687853,,6.632021,0.1,155.67249,1609883617999
Fix,GT,37.3783354,-122.0687842,,6.3850026,0.1,184.96698,1609883618999
Fix,GT,37.3782838,-122.0688146,,6.6388435,0.1,208.20651,1609883619999
Fix,GT,37.3782292,-122.0688591,,8.110859,0.1,212.7653,1609883620999
Fix,GT,37.3781599,-122.0689125,,9.687515,0.1,210.3455,1609883621999
Fix,GT,37.3780771,-122.068964,,10.799322,0.1,204.09654,1609883622999
Fix,GT,37.3779796,-122.0690025,,11.740655,0.1,193.56398,1609883623999
Fix,GT,37.3778716,-122.0690174,,12.307815,0.1,182.49066,1609883624999
Fix,GT,37.3777579,-122.069007,,12.846795,0.1,172.13954,1609883625999
Fix,GT,37.3776429,-122.0689706,,13.511649,0.1,162.06335,1609883626999
Fix,GT,37.3775278,-122.0689052,,14.448612,0.1,151.88226,1609883627999
Fix,GT,37.3774158,-122.0688132,,15.186315,0.1,144.04333,1609883628999
Fix,GT,37.3773066,-122.0687023,,15.980234,0.1,139.22208,1609883629999
Fix,GT,37.3771967,-122.0685804,,16.532099,0.1,138.10901,1609883630999
Fix,GT,37.3770835,-122.0684568,,16.76165,0.1,139.44128,1609883631999
Fix,GT,37.3769663,-122.0683369,,16.905865,0.1,141.72174,1609883632999
Fix,GT,37.3768392,-122.0682287,,17.250673,0.1,148.85364,1609883633999
Fix,GT,37.3766997,-122.068144,,17.265114,0.1,157.74097,1609883634999
Fix,GT,37.3765511,-122.0680867,,17.373552,0.1,166.4209,1609883635999
Fix,GT,37.3763966,-122.0680549,,17.459526,0.1,173.64777,1609883636999
Fix,GT,37.3762397,-122.0680454,,17.522459,0.1,179.44696,1609883637999
Fix,GT,37.3760813,-122.0680498,,17.660725,0.1,182.28424,1609883638999
Fix,GT,37.3759222,-122.0680607,,17.723316,0.1,183.51915,1609883639999
Fix,GT,37.3757622,-122.0680719,,17.853724,0.1,182.81491,1609883640999
Fix,GT,37.3756009,-122.0680801,,17.982542,0.1,181.76157,1609883641999
Fix,GT,37.3754385,-122.0680849,,17.99309,0.1,181.55934,1609883642999
Fix,GT,37.3752766,-122.0680908,,18.068336,0.1,181.58038,1609883643999
Fix,GT,37.3751119,-122.0680947,,18.528559,0.1,180.71288,1609883644999
Fix,GT,37.3749416,-122.0680945,,19.176779,0.1,179.22037,1609883645999
Fix,GT,37.3747662,-122.068088,,19.84501,0.1,177.67236,1609883646999
Fix,GT,37.3745851,-122.0680753,,20.36257,0.1,176.23071,1609883647999
Fix,GT,37.3743996,-122.0680566,,21.007885,0.1,174.771,1609883648999
Fix,GT,37.3742077,-122.0680303,,21.863739,0.1,172.85205,1609883649999
Fix,GT,37.3740088,-122.0679941,,22.686945,0.1,170.84131,1609883650999
Fix,GT,37.3738047,-122.0679474,,23.29437,0.1,168.57245,1609883651999
Fix,GT,37.3735969,-122.0678891,,23.938236,0.1,166.37488,1609883652999
Fix,GT,37.3733864,-122.0678198,,24.347055,0.1,164.3551,1609883653999
Fix,GT,37.3731738,-122.0677397,,24.845959,0.1,162.27374,1609883654999
Fix,GT,37.3729605,-122.0676478,,25.21934,0.1,159.95013,1609883655999
Fix,GT,37.3727475,-122.0675429,,25.532633,0.1,157.1955,1609883656999
Fix,GT,37.372536,-122.0674255,,25.788801,0.1,155.25958,1609883657999
Fix,GT,37.3723251,-122.0673001,,26.005098,0.1,154.07422,1609883658999
Fix,GT,37.372114,-122.0671714,,26.086748,0.1,154.02356,1609883659999
Fix,GT,37.3719022,-122.0670422,,26.190905,0.1,153.9375,1609883660999
Fix,GT,37.3716897,-122.0669131,,26.240543,0.1,154.14648,1609883661999
Fix,GT,37.3714766,-122.0667844,,26.265831,0.1,154.20422,1609883662999
Fix,GT,37.3712633,-122.0666559,,26.284876,0.1,154.23718,1609883663999
Fix,GT,37.3710496,-122.0665267,,26.37277,0.1,154.01453,1609883664999
Fix,GT,37.3708358,-122.066396,,26.4283,0.1,153.87256,1609883665999
Fix,GT,37.3706214,-122.0662644,,26.556099,0.1,153.87244,1609883666999
Fix,GT,37.3704057,-122.0661332,,26.684967,0.1,154.13129,1609883667999
Fix,GT,37.3701879,-122.0660009,,27.05183,0.1,153.91046,1609883668999
Fix,GT,37.3699682,-122.065867,,27.16891,0.1,154.09766,1609883669999
Fix,GT,37.3697476,-122.0657338,,27.204319,0.1,154.25513,1609883670999
Fix,GT,37.3695264,-122.0656008,,27.241531,0.1,154.30151,1609883671999
Fix,GT,37.3693054,-122.0654669,,27.222986,0.1,153.90881,1609883672999
Fix,GT,37.3690852,-122.0653325,,27.196098,0.1,154.0249,1609883673999
Fix,GT,37.3688643,-122.0651981,,27.380657,0.1,153.99646,1609883674999
Fix,GT,37.3686418,-122.0650625,,27.546564,0.1,153.95984,1609883675999
Fix,GT,37.3684176,-122.0649258,,27.782679,0.1,153.9906,1609883676999
Fix,GT,37.3681923,-122.0647881,,27.857208,0.1,153.93475,1609883677999
Fix,GT,37.3679663,-122.0646501,,27.940023,0.1,153.87976,1609883678999
Fix,GT,37.36774,-122.064512,,27.942917,0.1,154.11804,1609883679999
Fix,GT,37.3675133,-122.0643752,,27.899286,0.1,154.22821,1609883680999
Fix,GT,37.3672873,-122.0642388,,27.753136,0.1,154.25757,1609883681999
Fix,GT,37.3670629,-122.0641041,,27.475536,0.1,154.44385,1609883682999
Fix,GT,37.3668402,-122.063971,,27.344187,0.1,154.52612,1609883683999
Fix,GT,37.3666172,-122.0638406,,27.253939,0.1,155.38239,1609883684999
Fix,GT,37.3663926,-122.0637181,,27.195288,0.1,157.36182,1609883685999
Fix,GT,37.3661643,-122.0636053,,27.305267,0.1,159.29376,1609883686999
Fix,GT,37.3659321,-122.0635009,,27.466536,0.1,160.97748,1609883687999
Fix,GT,37.3656963,-122.0634066,,27.50637,0.1,163.31708,1609883688999
Fix,GT,37.3654575,-122.063323,,27.607977,0.1,165.2248,1609883689999
Fix,GT,37.3652143,-122.0632492,,27.974676,0.1,167.29608,1609883690999
Fix,GT,37.3649657,-122.0631851,,28.334066,0.1,169.23523,1609883691999
Fix,GT,37.3647132,-122.0631317,,28.555614,0.1,171.39648,1609883692999
Fix,GT,37.3644571,-122.0630913,,28.726269,0.1,173.98694,1609883693999
Fix,GT,37.3641991,-122.0630638,,28.786957,0.1,176.14795,1609883694999
Fix,GT,37.36394,-122.063049,,28.778034,0.1,178.30939,1609883695999
Fix,GT,37.3636816,-122.0630448,,28.590067,0.1,179.95172,1609883696999
Fix,GT,37.3634254,-122.0630477,,28.282763,0.1,180.77771,1609883697999
Fix,GT,37.3631716,-122.0630529,,28.147705,0.1,180.86089,1609883698999
Fix,GT,37.3629183,-122.0630582,,28.062103,0.1,180.93532,1609883699999
Fix,GT,37.362666,-122.0630638,,27.933699,0.1,180.96532,1609883700999
Fix,GT,37.3624145,-122.0630697,,27.999292,0.1,181.04286,1609883701999
Fix,GT,37.3621613,-122.0630762,,28.14107,0.1,181.22812,1609883702999
Fix,GT,37.3619077,-122.0630834,,28.192461,0.1,181.11893,1609883703999
Fix,GT,37.3616529,-122.0630895,,28.3645,0.1,180.94608,1609883704999
Fix,GT,37.361397,-122.0630948,,28.426472,0.1,180.8443,1609883705999
Fix,GT,37.361141,-122.0631002,,28.367151,0.1,180.9861,1609883706999
Fix,GT,37.3608862,-122.0631068,,28.205606,0.1,181.12067,1609883707999
Fix,GT,37.3606326,-122.0631134,,28.150602,0.1,181.01033,1609883708999
Fix,GT,37.3603791,-122.0631189,,28.112656,0.1,180.86427,1609883709999
Fix,GT,37.3601264,-122.0631234,,27.976068,0.1,180.61053,1609883710999
Fix,GT,37.3598746,-122.0631264,,27.890778,0.1,180.3489,1609883711999
Fix,GT,37.3596237,-122.0631271,,27.832022,0.1,179.88773,1609883712999
Fix,GT,37.3593731,-122.0631244,,27.759975,0.1,178.93842,1609883713999
Fix,GT,37.3591237,-122.0631157,,27.62081,0.1,177.81433,1609883714999
Fix,GT,37.3588756,-122.0631006,,27.501083,0.1,176.55615,1609883715999
Fix,GT,37.358629,-122.0630793,,27.34847,0.1,175.51855,1609883716999
Fix,GT,37.3583836,-122.0630524,,27.323278,0.1,174.43152,1609883717999
Fix,GT,37.358139,-122.0630197,,27.245079,0.1,173.42438,1609883718999
Fix,GT,37.3578958,-122.0629825,,27.111616,0.1,172.64697,1609883719999
Fix,GT,37.3576545,-122.0629414,,26.994974,0.1,171.83325,1609883720999
Fix,GT,37.3574137,-122.0628955,,27.02577,0.1,170.85132,1609883721999
Fix,GT,37.3571741,-122.0628445,,26.909187,0.1,169.83618,1609883722999
Fix,GT,37.3569364,-122.0627881,,26.746641,0.1,168.70435,1609883723999
Fix,GT,37.3567012,-122.0627267,,26.586382,0.1,167.69312,1609883724999
Fix,GT,37.3564683,-122.0626604,,26.409939,0.1,166.65198,1609883725999
Fix,GT,37.3562379,-122.0625891,,26.31393,0.1,165.62067,1609883726999
Fix,GT,37.3560086,-122.0625124,,26.320158,0.1,164.46619,1609883727999
Fix,GT,37.3557807,-122.0624313,,26.245445,0.1,163.86896,1609883728999
Fix,GT,37.3555547,-122.0623494,,25.954031,0.1,163.7409,1609883729999
Fix,GT,37.3553313,-122.0622666,,25.782633,0.1,163.2478,1609883730999
Fix,GT,37.3551098,-122.0621823,,25.593237,0.1,162.96558,1609883731999
Fix,GT,37.3548915,-122.062098,,25.04997,0.1,162.79993,1609883732999
Fix,GT,37.3546782,-122.0620163,,24.400566,0.1,163.00037,1609883733999
Fix,GT,37.3544736,-122.0619392,,23.01645,0.1,163.28339,1609883734999
Fix,GT,37.3542783,-122.0618661,,22.227755,0.1,163.10596,1609883735999
Fix,GT,37.3540907,-122.061795,,21.287899,0.1,163.13684,1609883736999
Fix,GT,37.3539121,-122.0617271,,20.097212,0.1,162.83893,1609883737999
Fix,GT,37.3537448,-122.061662,,18.763323,0.1,162.59497,1609883738999
Fix,GT,37.353589,-122.0616004,,17.545868,0.1,162.41089,1609883739999
Fix,GT,37.3534433,-122.0615434,,16.191088,0.1,162.84552,1609883740999
Fix,GT,37.353313,-122.0614939,,14.138317,0.1,163.10217,1609883741999
Fix,GT,37.3531965,-122.0614502,,12.903129,0.1,163.42316,1609883742999
Fix,GT,37.3530896,-122.0614114,,11.834514,0.1,164.03223,1609883743999
Fix,GT,37.3529927,-122.0613789,,10.373071,0.1,165.32843,1609883744999
Fix,GT,37.3529077,-122.0613527,,9.043268,0.1,166.2937,1609883745999
Fix,GT,37.3528356,-122.0613316,,7.379693,0.1,166.93268,1609883746999
Fix,GT,37.352777,-122.0613153,,6.011412,0.1,167.51324,1609883747999
Fix,GT,37.3527287,-122.0613024,,5.103745,0.1,167.97937,1609883748999
Fix,GT,37.3526862,-122.0612916,,4.4461713,0.1,168.32446,1609883749999
Fix,GT,37.3526502,-122.0612827,,3.8145888,0.1,168.55951,1609883750999
Fix,GT,37.3526171,-122.0612745,,3.6734786,0.1,168.64014,1609883751999
Fix,GT,37.3525859,-122.0612669,,3.3677928,0.1,168.90271,1609883752999
Fix,GT,37.3525589,-122.0612605,,2.6567826,0.1,169.15387,1609883753999
Fix,GT,37.3525391,-122.0612559,,1.8380265,0.1,169.35632,1609883754999
Fix,GT,37.3525269,-122.0612531,,0.8878422,0.1,169.47632,1609883755999
Fix,GT,37.352523,-122.0612521,,0.041393455,0.1,169.50946,1609883756999
Fix,GT,37.352523,-122.0612521,,0.0014218531,0.1,169.52057,1609883757999
Fix,GT,37.352523,-122.0612521,,0.0019998876,0.1,169.5188,1609883758999
Fix,GT,37.352523,-122.0612521,,0.0014143259,0.1,169.51868,1609883759999
Fix,GT,37.352523,-122.0612521,,0.0014142136,0.1,169.51868,1609883760999
Fix,GT,37.352523,-122.0612521,,0.0014142136,0.1,169.51868,1609883761999
Fix,GT,37.352523,-122.0612521,,2.713414e-07,0.1,169.51855,1609883762999
Fix,GT,37.352523,-122.0612521,,0.0,0.1,169.51862,1609883763999
Fix,GT,37.352523,-122.0612521,,0.0009998081,0.1,169.51825,1609883764999
Fix,GT,37.352523,-122.0612521,,0.001,0.1,169.51831,1609883765999
Fix,GT,37.352523,-122.0612521,,0.001,0.1,169.51843,1609883766999
Fix,GT,37.352523,-122.0612521,,0.001,0.1,169.51868,1609883767999
Fix,GT,37.3525209,-122.0612516,,0.65325445,0.1,169.54205,1609883768999
Fix,GT,37.3525118,-122.0612496,,1.3637851,0.1,169.56555,1609883769999
Fix,GT,37.3524975,-122.0612464,,1.7931588,0.1,169.5697,1609883770999
Fix,GT,37.3524806,-122.0612425,,2.1933346,0.1,169.65356,1609883771999
Fix,GT,37.3524563,-122.061237,,3.325535,0.1,169.68066,1609883772999
Fix,GT,37.3524206,-122.061229,,4.7152433,0.1,169.80554,1609883773999
Fix,GT,37.3523721,-122.0612183,,6.155668,0.1,170.03632,1609883774999
Fix,GT,37.3523148,-122.0612048,,6.595992,0.1,169.11761,1609883775999
Fix,GT,37.3522571,-122.0611828,,6.7674074,0.1,160.4862,1609883776999
Fix,GT,37.3522019,-122.0611435,,7.198831,0.1,146.72568,1609883777999
Fix,GT,37.3521543,-122.0610821,,7.8927174,0.1,129.94391,1609883778999
Fix,GT,37.3521177,-122.0609983,,8.920453,0.1,114.14581,1609883779999
Fix,GT,37.3520988,-122.0608942,,9.792568,0.1,97.934814,1609883780999
Fix,GT,37.3520966,-122.0607808,,10.098942,0.1,89.671936,1609883781999
Fix,GT,37.3520986,-122.0606671,,10.016053,0.1,88.76373,1609883782999
Fix,GT,37.3520995,-122.0605573,,9.294338,0.1,89.65997,1609883783999
Fix,GT,37.3520996,-122.0604613,,7.5783296,0.1,90.02701,1609883784999
Fix,GT,37.3520996,-122.0603873,,5.5044074,0.1,89.81079,1609883785999
Fix,GT,37.3520999,-122.0603386,,3.12548,0.1,89.49695,1609883786999
Fix,GT,37.3521002,-122.0603157,,1.0994784,0.1,89.353516,1609883787999
Fix,GT,37.3521002,-122.0603094,,0.047297742,0.1,89.30731,1609883788999
Fix,GT,37.3521002,-122.0603095,,0.0010088553,0.1,89.3114,1609883789999
Fix,GT,37.3521002,-122.0603095,,0.001,0.1,89.31033,1609883790999
Fix,GT,37.3521001,-122.0603095,,0.001,0.1,89.30994,1609883791999
Fix,GT,37.3521001,-122.0603095,,1.9210577e-07,0.1,89.31,1609883792999
Fix,GT,37.3521001,-122.0603095,,0.000999808,0.1,89.309875,1609883793999
Fix,GT,37.3521001,-122.0603095,,1.9210577e-07,0.1,89.309906,1609883794999
Fix,GT,37.3521001,-122.0603095,,0.000999808,0.1,89.309814,1609883795999
Fix,GT,37.3521001,-122.0603095,,0.001,0.1,89.30969,1609883796999
Fix,GT,37.3521001,-122.0603095,,1.9216539e-07,0.1,89.309814,1609883797999
Fix,GT,37.3521002,-122.0603095,,0.0009998078,0.1,89.311035,1609883798999
Fix,GT,37.3521003,-122.0603095,,0.001,0.1,89.310425,1609883799999
Fix,GT,37.3521003,-122.0603095,,1.9216539e-07,0.1,89.31036,1609883800999
Fix,GT,37.3521003,-122.0603095,,0.0,0.1,89.31036,1609883801999
Fix,GT,37.3521003,-122.0603095,,0.0009998078,0.1,89.3103,1609883802999
Fix,GT,37.3521003,-122.0603095,,1.9216539e-07,0.1,89.31033,1609883803999
Fix,GT,37.3521003,-122.0603095,,0.0,0.1,89.31036,1609883804999
Fix,GT,37.3521003,-122.0603095,,0.0,0.1,89.31036,1609883805999
Fix,GT,37.3521003,-122.0603095,,0.0,0.1,89.31033,1609883806999
Fix,GT,37.3521003,-122.0603095,,0.0,0.1,89.31021,1609883807999
Fix,GT,37.3521003,-122.0603095,,0.0009998077,0.1,89.310455,1609883808999
Fix,GT,37.3521003,-122.0603095,,0.001,0.1,89.310425,1609883809999
Fix,GT,37.3521003,-122.0603095,,0.001,0.1,89.310486,1609883810999
Fix,GT,37.3521003,-122.0603095,,0.001,0.1,89.310486,1609883811999
Fix,GT,37.3521003,-122.0603095,,1.923442e-07,0.1,89.31033,1609883812999
Fix,GT,37.3521003,-122.0603095,,0.0,0.1,89.31033,1609883813999
Fix,GT,37.3521003,-122.0603095,,0.0,0.1,89.31027,1609883814999
Fix,GT,37.3521003,-122.0603095,,0.0,0.1,89.3103,1609883815999
Fix,GT,37.3521003,-122.0603089,,0.25796783,0.1,89.30322,1609883816999
Fix,GT,37.3521005,-122.0603021,,0.94687593,0.1,88.66669,1609883817999
Fix,GT,37.3521025,-122.0602844,,2.2161162,0.1,84.93085,1609883818999
Fix,GT,37.3521103,-122.0602514,,3.7073023,0.1,74.5397,1609883819999
Fix,GT,37.3521331,-122.0602096,,5.0138335,0.1,54.06726,1609883820999
Fix,GT,37.3521778,-122.0601741,,6.3947625,0.1,28.184296,1609883821999
Fix,GT,37.3522417,-122.0601604,,7.83128,0.1,4.617859,1609883822999
Fix,GT,37.3523174,-122.0601774,,9.118538,0.1,344.82867,1609883823999
Fix,GT,37.3524013,-122.0602202,,10.94813,0.1,336.0091,1609883824999
Fix,GT,37.3524975,-122.0602765,,12.524177,0.1,334.9069,1609883825999
Fix,GT,37.3526065,-122.0603398,,14.099486,0.1,334.9753,1609883826999
Fix,GT,37.352727,-122.0604104,,15.370771,0.1,334.88977,1609883827999
Fix,GT,37.3528567,-122.060485,,16.30288,0.1,335.47284,1609883828999
Fix,GT,37.3529947,-122.0605623,,17.177866,0.1,336.0884,1609883829999
Fix,GT,37.3531397,-122.0606426,,18.073803,0.1,336.09995,1609883830999
Fix,GT,37.3532917,-122.0607276,,18.749168,0.1,335.71536,1609883831999
Fix,GT,37.3534465,-122.0608173,,19.082108,0.1,334.4281,1609883832999
Fix,GT,37.3536018,-122.060913,,19.346416,0.1,333.41888,1609883833999
Fix,GT,37.353759,-122.0610132,,19.757511,0.1,332.89667,1609883834999
Fix,GT,37.353918,-122.0611155,,19.897568,0.1,332.7135,1609883835999
Fix,GT,37.3540792,-122.0612188,,20.366968,0.1,332.80978,1609883836999
Fix,GT,37.3542455,-122.0613245,,20.981869,0.1,333.2842,1609883837999
Fix,GT,37.3544181,-122.061432,,21.85309,0.1,333.56326,1609883838999
Fix,GT,37.354598,-122.0615415,,22.539524,0.1,334.4999,1609883839999
Fix,GT,37.3547856,-122.0616495,,23.305517,0.1,335.7968,1609883840999
Fix,GT,37.3549801,-122.0617564,,23.814554,0.1,336.7617,1609883841999
Fix,GT,37.3551805,-122.0618595,,24.352081,0.1,338.48398,1609883842999
Fix,GT,37.355388,-122.0619571,,24.837887,0.1,339.89902,1609883843999
Fix,GT,37.3556011,-122.0620492,,25.25838,0.1,341.7112,1609883844999
Fix,GT,37.3558214,-122.062136,,26.019493,0.1,343.20026,1609883845999
Fix,GT,37.3560491,-122.0622184,,26.600641,0.1,344.28406,1609883846999
Fix,GT,37.3562832,-122.0622968,,27.166758,0.1,345.5828,1609883847999
Fix,GT,37.3565234,-122.0623713,,27.829514,0.1,346.42102,1609883848999
Fix,GT,37.3567698,-122.0624422,,28.301958,0.1,347.48392,1609883849999
Fix,GT,37.3570224,-122.0625092,,29.001457,0.1,348.41245,1609883850999
Fix,GT,37.3572808,-122.0625715,,29.38934,0.1,349.61502,1609883851999
Fix,GT,37.3575431,-122.0626275,,29.69355,0.1,350.86472,1609883852999
Fix,GT,37.3578086,-122.0626765,,29.8726,0.1,352.23312,1609883853999
Fix,GT,37.3580762,-122.0627185,,30.002237,0.1,353.29016,1609883854999
Fix,GT,37.3583461,-122.0627552,,30.297924,0.1,354.14908,1609883855999
Fix,GT,37.3586187,-122.0627867,,30.470268,0.1,355.22354,1609883856999
Fix,GT,37.3588929,-122.0628111,,30.572979,0.1,356.5638,1609883857999
Fix,GT,37.3591686,-122.0628265,,30.697422,0.1,358.09384,1609883858999
Fix,GT,37.3594466,-122.0628346,,30.992817,0.1,359.13492,1609883859999
Fix,GT,37.3597264,-122.0628363,,31.172037,0.1,0.05984497,1609883860999
Fix,GT,37.3600079,-122.0628336,,31.295343,0.1,0.60131836,1609883861999
Fix,GT,37.3602903,-122.062828,,31.429495,0.1,1.0158691,1609883862999
Fix,GT,37.3605738,-122.0628214,,31.486118,0.1,0.87835693,1609883863999
Fix,GT,37.3608575,-122.0628155,,31.487123,0.1,0.92214966,1609883864999
Fix,GT,37.3611412,-122.062809,,31.50517,0.1,0.940094,1609883865999
Fix,GT,37.3614251,-122.0628029,,31.521639,0.1,0.9100342,1609883866999
Fix,GT,37.3617092,-122.0627967,,31.531303,0.1,0.92214966,1609883867999
Fix,GT,37.3619931,-122.0627904,,31.463888,0.1,1.0108948,1609883868999
Fix,GT,37.3622759,-122.0627833,,31.314198,0.1,1.122345,1609883869999
Fix,GT,37.3625572,-122.0627755,,31.154192,0.1,1.2689514,1609883870999
Fix,GT,37.3628374,-122.0627678,,31.121817,0.1,1.1184387,1609883871999
Fix,GT,37.3631184,-122.0627602,,31.225515,0.1,1.1612244,1609883872999
Fix,GT,37.3633997,-122.0627542,,31.22894,0.1,0.5506897,1609883873999
Fix,GT,37.3636807,-122.0627543,,31.098267,0.1,359.3907,1609883874999
Fix,GT,37.3639597,-122.062762,,30.860544,0.1,358.05078,1609883875999
Fix,GT,37.364237,-122.0627786,,30.744253,0.1,356.34573,1609883876999
Fix,GT,37.3645125,-122.0628078,,30.587444,0.1,353.82803,1609883877999
Fix,GT,37.3647857,-122.0628518,,30.565851,0.1,351.60544,1609883878999
Fix,GT,37.3650574,-122.0629083,,30.538254,0.1,349.47348,1609883879999
Fix,GT,37.3653268,-122.0629775,,30.507696,0.1,347.25397,1609883880999
Fix,GT,37.3655935,-122.0630606,,30.453506,0.1,344.7989,1609883881999
Fix,GT,37.3658564,-122.0631576,,30.3494,0.1,342.34152,1609883882999
Fix,GT,37.3661151,-122.0632674,,30.241037,0.1,340.07748,1609883883999
Fix,GT,37.3663691,-122.0633897,,30.134897,0.1,337.87527,1609883884999
Fix,GT,37.3666181,-122.0635235,,30.018532,0.1,335.78757,1609883885999
Fix,GT,37.3668629,-122.0636665,,29.922457,0.1,334.39362,1609883886999
Fix,GT,37.3671055,-122.0638131,,29.863245,0.1,334.08856,1609883887999
Fix,GT,37.3673481,-122.0639599,,29.92527,0.1,334.15082,1609883888999
Fix,GT,37.3675904,-122.0641069,,29.820545,0.1,334.1021,1609883889999
Fix,GT,37.367832,-122.064253,,29.747225,0.1,334.1687,1609883890999
Fix,GT,37.3680733,-122.0643991,,29.740685,0.1,334.04935,1609883891999
Fix,GT,37.3683144,-122.0645455,,29.714676,0.1,334.0541,1609883892999
Fix,GT,37.3685553,-122.0646918,,29.672915,0.1,334.08603,1609883893999
Fix,GT,37.3687955,-122.0648373,,29.544123,0.1,334.07095,1609883894999
Fix,GT,37.3690348,-122.0649824,,29.467428,0.1,334.0732,1609883895999
Fix,GT,37.369273,-122.0651276,,29.2948,0.1,333.86288,1609883896999
Fix,GT,37.3695095,-122.0652719,,29.0964,0.1,333.9646,1609883897999
Fix,GT,37.3697444,-122.0654149,,28.887894,0.1,334.05817,1609883898999
Fix,GT,37.3699777,-122.0655565,,28.632011,0.1,333.96323,1609883899999
Fix,GT,37.3702086,-122.0656972,,28.349218,0.1,333.97623,1609883900999
Fix,GT,37.3704371,-122.0658364,,28.073061,0.1,334.03558,1609883901999
Fix,GT,37.3706639,-122.0659744,,27.875893,0.1,333.99088,1609883902999
Fix,GT,37.3708889,-122.0661112,,27.651495,0.1,334.0764,1609883903999
Fix,GT,37.3711123,-122.0662464,,27.429903,0.1,334.2297,1609883904999
Fix,GT,37.3713342,-122.0663798,,27.18663,0.1,334.30472,1609883905999
Fix,GT,37.371554,-122.0665123,,26.962032,0.1,334.14215,1609883906999
Fix,GT,37.3717722,-122.0666441,,26.794926,0.1,334.26962,1609883907999
Fix,GT,37.371989,-122.0667745,,26.591475,0.1,334.23303,1609883908999
Fix,GT,37.3722038,-122.066904,,26.305742,0.1,334.25742,1609883909999
Fix,GT,37.3724163,-122.0670317,,26.047373,0.1,334.34198,1609883910999
Fix,GT,37.3726297,-122.0671571,,26.410995,0.1,335.31415,1609883911999
Fix,GT,37.3728507,-122.0672782,,27.056181,0.1,337.20316,1609883912999
Fix,GT,37.3730782,-122.0673896,,27.116331,0.1,339.8732,1609883913999
Fix,GT,37.3733085,-122.0674874,,26.866457,0.1,342.40448,1609883914999
Fix,GT,37.3735397,-122.0675707,,26.543192,0.1,345.14957,1609883915999
Fix,GT,37.3737707,-122.06764,,26.271229,0.1,347.64078,1609883916999
Fix,GT,37.3740029,-122.0676962,,26.259165,0.1,350.16876,1609883917999
Fix,GT,37.374237,-122.0677395,,26.273762,0.1,352.802,1609883918999
Fix,GT,37.3744721,-122.0677685,,26.200123,0.1,355.54044,1609883919999
Fix,GT,37.3747068,-122.0677846,,26.025948,0.1,357.90482,1609883920999
Fix,GT,37.3749418,-122.0677896,,26.26007,0.1,359.95044,1609883921999
Fix,GT,37.3751816,-122.0677819,,27.061731,0.1,2.6817932,1609883922999
Fix,GT,37.3754266,-122.0677605,,27.337692,0.1,4.865509,1609883923999
Fix,GT,37.3756721,-122.0677312,,27.48171,0.1,5.786377,1609883924999
Fix,GT,37.3759195,-122.0676979,,27.672337,0.1,6.2778015,1609883925999
Fix,GT,37.3761674,-122.0676639,,27.732872,0.1,5.861511,1609883926999
Fix,GT,37.3764169,-122.0676322,,27.903505,0.1,5.662323,1609883927999
Fix,GT,37.3766676,-122.0676005,,28.049707,0.1,5.7664185,1609883928999
Fix,GT,37.3769185,-122.0675704,,27.835356,0.1,5.0472717,1609883929999
Fix,GT,37.3771675,-122.0675457,,27.585552,0.1,4.0646667,1609883930999
Fix,GT,37.3774143,-122.0675263,,27.324034,0.1,3.0585022,1609883931999
Fix,GT,37.3776586,-122.0675148,,26.866926,0.1,1.4384155,1609883932999
Fix,GT,37.3778935,-122.0675095,,24.965029,0.1,0.5972595,1609883933999
Fix,GT,37.3781059,-122.067509,,22.01659,0.1,359.8456,1609883934999
Fix,GT,37.3782889,-122.0675082,,18.701385,0.1,0.4892578,1609883935999
Fix,GT,37.3784486,-122.0675011,,16.95439,0.1,4.242737,1609883936999
Fix,GT,37.3785901,-122.0674705,,15.180052,0.1,14.753265,1609883937999
Fix,GT,37.3787121,-122.0674066,,14.5045395,0.1,28.212646,1609883938999
Fix,GT,37.3788109,-122.0673071,,13.9013195,0.1,46.341248,1609883939999
Fix,GT,37.3788737,-122.0671776,,13.3040495,0.1,66.251434,1609883940999
Fix,GT,37.3788993,-122.0670331,,13.319736,0.1,84.01282,1609883941999
Fix,GT,37.378889,-122.0668815,,13.86793,0.1,101.81665,1609883942999
Fix,GT,37.3788408,-122.0667366,,14.144872,0.1,119.44293,1609883943999
Fix,GT,37.3787583,-122.0666187,,13.950703,0.1,139.12354,1609883944999
Fix,GT,37.3786513,-122.066542,,13.745361,0.1,157.09131,1609883945999
Fix,GT,37.378531,-122.0665095,,13.891288,0.1,174.75513,1609883946999
Fix,GT,37.3784072,-122.0665256,,14.003287,0.1,193.39624,1609883947999
Fix,GT,37.3782929,-122.0665908,,14.173331,0.1,211.97229,1609883948999
Fix,GT,37.378202,-122.0666978,,13.7914915,0.1,230.68295,1609883949999
Fix,GT,37.3781444,-122.0668325,,13.609578,0.1,249.04443,1609883950999
Fix,GT,37.3781206,-122.0669812,,13.509014,0.1,265.49988,1609883951999
Fix,GT,37.3781338,-122.0671296,,13.250835,0.1,283.36328,1609883952999
Fix,GT,37.3781761,-122.0672701,,13.599975,0.1,292.99377,1609883953999
Fix,GT,37.3782298,-122.0674135,,14.567076,0.1,296.02585,1609883954999
Fix,GT,37.3782893,-122.0675658,,15.514637,0.1,295.74234,1609883955999
Fix,GT,37.3783513,-122.0677301,,16.597078,0.1,294.93774,1609883956999
Fix,GT,37.3784154,-122.0679042,,17.311457,0.1,294.59464,1609883957999
Fix,GT,37.3784811,-122.0680817,,17.312534,0.1,295.08658,1609883958999
Fix,GT,37.3785475,-122.0682574,,17.053436,0.1,294.9701,1609883959999
Fix,GT,37.3786086,-122.0684243,,15.308339,0.1,294.22473,1609883960999
Fix,GT,37.378663,-122.068573,,13.817468,0.1,294.9585,1609883961999
Fix,GT,37.3787151,-122.0687042,,12.126033,0.1,298.01047,1609883962999
Fix,GT,37.3787705,-122.0688102,,10.559166,0.1,307.04562,1609883963999
Fix,GT,37.3788376,-122.0688883,,10.193973,0.1,322.22693,1609883964999
Fix,GT,37.3789192,-122.068941,,10.426111,0.1,337.34805,1609883965999
Fix,GT,37.3790113,-122.068969,,10.741861,0.1,350.41733,1609883966999
Fix,GT,37.3791084,-122.0689698,,10.991265,0.1,3.9967346,1609883967999
Fix,GT,37.3792072,-122.0689396,,11.854772,0.1,18.83603,1609883968999
Fix,GT,37.3793027,-122.0688729,,12.646473,0.1,34.798615,1609883969999
Fix,GT,37.3793822,-122.0687696,,12.906023,0.1,52.634857,1609883970999
Fix,GT,37.3794348,-122.0686408,,12.989783,0.1,69.09625,1609883971999
Fix,GT,37.3794551,-122.068497,,13.135292,0.1,86.52576,1609883972999
Fix,GT,37.3794403,-122.0683507,,13.227886,0.1,104.26221,1609883973999
Fix,GT,37.3793908,-122.0682168,,13.181736,0.1,121.62616,1609883974999
Fix,GT,37.3793116,-122.0681073,,13.282572,0.1,138.98965,1609883975999
Fix,GT,37.3792088,-122.0680305,,13.565763,0.1,155.59717,1609883976999
Fix,GT,37.3790909,-122.0679868,,13.910583,0.1,167.2323,1609883977999
Fix,GT,37.3789646,-122.0679609,,14.67755,0.1,171.96643,1609883978999
Fix,GT,37.3788312,-122.0679382,,15.2629595,0.1,171.82349,1609883979999
Fix,GT,37.3786904,-122.0679124,,16.36487,0.1,171.55896,1609883980999
Fix,GT,37.3785395,-122.0678865,,17.469864,0.1,172.4295,1609883981999
Fix,GT,37.3783784,-122.0678589,,18.67249,0.1,171.78589,1609883982999
Fix,GT,37.3782071,-122.0678332,,19.44361,0.1,174.48425,1609883983999
Fix,GT,37.3780301,-122.0678137,,20.11484,0.1,174.685,1609883984999
Fix,GT,37.377846,-122.0677926,,21.000689,0.1,174.888,1609883985999
Fix,GT,37.3776518,-122.0677793,,22.193546,0.1,178.22156,1609883986999
Fix,GT,37.3774465,-122.0677773,,23.429407,0.1,180.5058,1609883987999
Fix,GT,37.3772299,-122.0677855,,24.684143,0.1,182.78362,1609883988999
Fix,GT,37.3770041,-122.0678053,,25.558573,0.1,184.79411,1609883989999
Fix,GT,37.3767708,-122.0678324,,26.400425,0.1,185.42703,1609883990999
Fix,GT,37.3765321,-122.067862,,26.845251,0.1,185.76286,1609883991999
Fix,GT,37.3762904,-122.0678936,,27.04476,0.1,185.97841,1609883992999
Fix,GT,37.3760466,-122.0679263,,27.415977,0.1,186.05444,1609883993999
Fix,GT,37.3757997,-122.0679592,,27.738127,0.1,185.86716,1609883994999
Fix,GT,37.3755501,-122.0679891,,27.815048,0.1,185.05283,1609883995999
Fix,GT,37.3752996,-122.0680139,,27.976341,0.1,184.01797,1609883996999
Fix,GT,37.3750477,-122.0680303,,28.022554,0.1,181.77531,1609883997999
Fix,GT,37.3747948,-122.0680323,,28.091879,0.1,179.16174,1609883998999
Fix,GT,37.3745417,-122.0680202,,28.088684,0.1,176.46558,1609883999999
Fix,GT,37.3742898,-122.067993,,28.012407,0.1,173.68726,1609884000999
Fix,GT,37.3740401,-122.0679504,,27.901213,0.1,170.83716,1609884001999
Fix,GT,37.3737929,-122.0678938,,27.86537,0.1,168.46625,1609884002999
Fix,GT,37.3735484,-122.067824,,27.770416,0.1,165.90228,1609884003999
Fix,GT,37.373307,-122.0677407,,27.81908,0.1,163.50305,1609884004999
Fix,GT,37.3730678,-122.0676446,,27.899073,0.1,160.8645,1609884005999
Fix,GT,37.3728314,-122.067534,,28.098778,0.1,158.23773,1609884006999
Fix,GT,37.3725972,-122.0674093,,28.368591,0.1,155.91791,1609884007999
Fix,GT,37.3723644,-122.0672737,,28.587626,0.1,154.34235,1609884008999
Fix,GT,37.3721312,-122.0671318,,28.883709,0.1,153.97852,1609884009999
Fix,GT,37.3718965,-122.0669894,,28.99234,0.1,154.15314,1609884010999
Fix,GT,37.3716607,-122.0668471,,29.09386,0.1,154.28851,1609884011999
Fix,GT,37.3714237,-122.0667046,,29.236656,0.1,154.26917,1609884012999
Fix,GT,37.3711864,-122.0665605,,29.299335,0.1,153.86975,1609884013999
Fix,GT,37.3709486,-122.0664149,,29.421627,0.1,153.88287,1609884014999
Fix,GT,37.3707107,-122.0662693,,29.341232,0.1,153.93683,1609884015999
Fix,GT,37.3704735,-122.0661244,,29.217543,0.1,153.93622,1609884016999
Fix,GT,37.370237,-122.0659804,,29.210913,0.1,154.03949,1609884017999
Fix,GT,37.3699999,-122.0658365,,29.255024,0.1,154.07727,1609884018999
Fix,GT,37.3697629,-122.0656924,,29.248358,0.1,154.00146,1609884019999
Fix,GT,37.369525,-122.0655477,,29.512684,0.1,154.03955,1609884020999
Fix,GT,37.3692841,-122.065401,,29.95806,0.1,154.02972,1609884021999
Fix,GT,37.3690394,-122.0652524,,30.36842,0.1,154.13281,1609884022999
Fix,GT,37.3687915,-122.0651029,,30.714314,0.1,154.20068,1609884023999
Fix,GT,37.368541,-122.0649514,,31.002243,0.1,154.17639,1609884024999
Fix,GT,37.3682891,-122.0647985,,31.086735,0.1,154.03119,1609884025999
Fix,GT,37.368038,-122.0646461,,30.823189,0.1,154.08716,1609884026999
Fix,GT,37.3677894,-122.064495,,30.51701,0.1,154.10303,1609884027999
Fix,GT,37.3675432,-122.0643456,,30.21652,0.1,153.95612,1609884028999
Fix,GT,37.3672995,-122.0641962,,30.053337,0.1,153.90369,1609884029999
Fix,GT,37.3670562,-122.0640493,,29.871738,0.1,154.48975,1609884030999
Fix,GT,37.366814,-122.0639062,,29.57232,0.1,154.82971,1609884031999
Fix,GT,37.3665735,-122.0637664,,29.29615,0.1,155.45734,1609884032999
Fix,GT,37.3663327,-122.0636354,,28.999369,0.1,157.42761,1609884033999
Fix,GT,37.3660903,-122.0635167,,28.83203,0.1,159.72418,1609884034999
Fix,GT,37.3658448,-122.0634113,,28.838737,0.1,162.2674,1609884035999
Fix,GT,37.3655954,-122.0633183,,28.960188,0.1,164.31982,1609884036999
Fix,GT,37.3653422,-122.0632362,,29.081858,0.1,166.37823,1609884037999
Fix,GT,37.3650862,-122.0631651,,29.159573,0.1,168.53516,1609884038999
Fix,GT,37.3648266,-122.063106,,29.515799,0.1,170.68414,1609884039999
Fix,GT,37.3645617,-122.0630579,,29.82435,0.1,172.69214,1609884040999
Fix,GT,37.3642932,-122.0630233,,30.190914,0.1,175.66724,1609884041999
Fix,GT,37.3640196,-122.0630051,,30.657244,0.1,177.92175,1609884042999
Fix,GT,37.3637416,-122.0629981,,31.08402,0.1,179.66632,1609884043999
Fix,GT,37.3634597,-122.0630001,,31.491463,0.1,180.72815,1609884044999
Fix,GT,37.3631749,-122.063006,,31.679092,0.1,180.96033,1609884045999
Fix,GT,37.3628898,-122.0630124,,31.564169,0.1,180.97298,1609884046999
Fix,GT,37.3626065,-122.0630183,,31.332365,0.1,180.75882,1609884047999
Fix,GT,37.3623253,-122.0630235,,31.094828,0.1,180.8578,1609884048999
Fix,GT,37.3620462,-122.0630291,,30.836071,0.1,180.77618,1609884049999
Fix,GT,37.3617695,-122.0630348,,30.61813,0.1,180.95842,1609884050999
Fix,GT,37.3614947,-122.0630412,,30.394407,0.1,181.0743,1609884051999
Fix,GT,37.3612218,-122.0630487,,30.175505,0.1,181.16101,1609884052999
Fix,GT,37.360951,-122.0630553,,29.92792,0.1,180.99132,1609884053999
Fix,GT,37.3606828,-122.0630613,,29.600807,0.1,180.96661,1609884054999
Fix,GT,37.3604177,-122.0630674,,29.299782,0.1,180.96822,1609884055999
Fix,GT,37.3601551,-122.0630725,,28.996307,0.1,180.64618,1609884056999
Fix,GT,37.359895,-122.0630752,,28.744423,0.1,180.28491,1609884057999
Fix,GT,37.3596372,-122.063076,,28.517048,0.1,179.88947,1609884058999
Fix,GT,37.3593802,-122.0630734,,28.49946,0.1,178.94586,1609884059999
Fix,GT,37.3591235,-122.0630645,,28.467001,0.1,177.84589,1609884060999
Fix,GT,37.3588677,-122.0630507,,28.428701,0.1,177.37177,1609884061999
Fix,GT,37.358611,-122.0630363,,28.62555,0.1,177.40112,1609884062999
Fix,GT,37.358352,-122.0630199,,28.87728,0.1,176.49231,1609884063999
Fix,GT,37.3580918,-122.0629959,,29.084896,0.1,175.00098,1609884064999
Fix,GT,37.3578298,-122.0629623,,29.29095,0.1,173.30402,1609884065999
Fix,GT,37.357568,-122.0629187,,29.37392,0.1,171.5116,1609884066999
Fix,GT,37.3573055,-122.0628657,,29.61816,0.1,170.1383,1609884067999
Fix,GT,37.3570422,-122.0628052,,29.745895,0.1,168.96124,1609884068999
Fix,GT,37.3567791,-122.0627387,,29.780703,0.1,168.09009,1609884069999
Fix,GT,37.3565182,-122.062666,,29.463013,0.1,166.73529,1609884070999
Fix,GT,37.3562623,-122.0625871,,28.989094,0.1,165.66858,1609884071999
Fix,GT,37.3560119,-122.0625049,,28.45682,0.1,164.95679,1609884072999
Fix,GT,37.355767,-122.0624209,,27.907974,0.1,164.3855,1609884073999
Fix,GT,37.3555277,-122.0623356,,27.311514,0.1,163.84326,1609884074999
Fix,GT,37.3552942,-122.0622498,,26.675879,0.1,163.43347,1609884075999
Fix,GT,37.3550668,-122.0621644,,26.018042,0.1,163.32397,1609884076999
Fix,GT,37.3548452,-122.0620806,,25.356115,0.1,163.10602,1609884077999
Fix,GT,37.3546295,-122.0619987,,24.683702,0.1,163.01361,1609884078999
Fix,GT,37.3544193,-122.061919,,24.083319,0.1,163.16998,1609884079999
Fix,GT,37.3542142,-122.0618411,,23.503355,0.1,162.95654,1609884080999
Fix,GT,37.3540155,-122.0617656,,22.29259,0.1,163.13556,1609884081999
Fix,GT,37.3538318,-122.061696,,20.295643,0.1,162.9602,1609884082999
Fix,GT,37.3536647,-122.061631,,18.741974,0.1,162.42535,1609884083999
Fix,GT,37.3535088,-122.0615693,,17.537077,0.1,162.40405,1609884084999
Fix,GT,37.3533641,-122.0615128,,16.069733,0.1,162.82904,1609884085999
Fix,GT,37.3532317,-122.0614631,,14.63953,0.1,163.4873,1609884086999
Fix,GT,37.3531109,-122.0614194,,13.278226,0.1,163.99854,1609884087999
Fix,GT,37.3530029,-122.0613825,,11.3847475,0.1,165.19257,1609884088999
Fix,GT,37.3529117,-122.0613543,,9.559476,0.1,166.22565,1609884089999
Fix,GT,37.3528368,-122.0613319,,7.491892,0.1,166.47339,1609884090999
Fix,GT,37.3527799,-122.0613153,,5.578405,0.1,166.8515,1609884091999
Fix,GT,37.3527382,-122.0613038,,4.0095334,0.1,167.6983,1609884092999
Fix,GT,37.3527074,-122.0612961,,2.9925833,0.1,168.3963,1609884093999
Fix,GT,37.3526851,-122.0612905,,2.0125713,0.1,168.43427,1609884094999
Fix,GT,37.352673,-122.0612874,,0.6870605,0.1,168.45331,1609884095999
Fix,GT,37.3526709,-122.0612869,,0.022151968,0.1,168.46521,1609884096999
Fix,GT,37.3526709,-122.0612869,,0.0044755493,0.1,168.47266,1609884097999
Fix,GT,37.3526709,-122.0612869,,0.0031625323,0.1,168.47021,1609884098999
Fix,GT,37.3526709,-122.0612869,,0.0030000317,0.1,168.46997,1609884099999
Fix,GT,37.3526709,-122.0612869,,0.0020001945,0.1,168.46997,1609884100999
Fix,GT,37.3526709,-122.0612869,,0.0022360221,0.1,168.46991,1609884101999
Fix,GT,37.3526709,-122.0612869,,0.002000046,0.1,168.4701,1609884102999
Fix,GT,37.3526709,-122.0612869,,0.0010001945,0.1,168.47021,1609884103999
Fix,GT,37.3526709,-122.0612869,,0.001,0.1,168.47023,1609884104999
Fix,GT,37.3526709,-122.0612869,,0.001,0.1,168.47021,1609884105999
Fix,GT,37.3526709,-122.0612869,,0.001,0.1,168.47003,1609884106999
Fix,GT,37.3526709,-122.0612869,,0.001,0.1,168.46997,1609884107999
Fix,GT,37.3526709,-122.0612869,,0.001414133,0.1,168.46997,1609884108999
Fix,GT,37.3526709,-122.0612869,,0.0010000806,0.1,168.46991,1609884109999
Fix,GT,37.3526709,-122.0612868,,1.9454957e-07,0.1,168.46979,1609884110999
Fix,GT,37.3526709,-122.0612868,,0.0,0.1,168.46979,1609884111999
Fix,GT,37.3526709,-122.0612868,,0.0009998055,0.1,168.46997,1609884112999
Fix,GT,37.3526709,-122.0612868,,0.001,0.1,168.46973,1609884113999
Fix,GT,37.3526707,-122.0612868,,0.12549071,0.1,168.47632,1609884114999
Fix,GT,37.3526656,-122.0612855,,0.9784555,0.1,168.53131,1609884115999
Fix,GT,37.3526555,-122.0612831,,1.1892152,0.1,168.60382,1609884116999
Fix,GT,37.3526455,-122.0612807,,1.0361248,0.1,168.61548,1609884117999
Fix,GT,37.3526346,-122.061278,,1.5245458,0.1,168.68073,1609884118999
Fix,GT,37.3526193,-122.0612742,,1.9279528,0.1,168.76428,1609884119999
Fix,GT,37.3525995,-122.0612695,,2.6169133,0.1,168.8913,1609884120999
Fix,GT,37.3525721,-122.061263,,3.5940764,0.1,169.08923,1609884121999
Fix,GT,37.352535,-122.0612544,,4.7321925,0.1,169.51074,1609884122999
Fix,GT,37.3524883,-122.0612443,,5.683677,0.1,170.12292,1609884123999
Fix,GT,37.3524359,-122.0612334,,6.081689,0.1,170.68213,1609884124999
Fix,GT,37.3523807,-122.0612221,,6.2987537,0.1,170.5232,1609884125999
Fix,GT,37.3523236,-122.0612086,,6.5749927,0.1,169.02191,1609884126999
Fix,GT,37.3522654,-122.061186,,6.866546,0.1,159.94128,1609884127999
Fix,GT,37.3522095,-122.0611438,,7.5191708,0.1,145.44855,1609884128999
Fix,GT,37.3521595,-122.0610789,,8.379894,0.1,129.83957,1609884129999
Fix,GT,37.3521196,-122.0609911,,9.385926,0.1,114.99811,1609884130999
Fix,GT,37.3520987,-122.0608823,,10.295152,0.1,97.954254,1609884131999
Fix,GT,37.3520975,-122.0607635,,10.588065,0.1,88.77368,1609884132999
Fix,GT,37.3521002,-122.0606446,,10.324876,0.1,88.35074,1609884133999
Fix,GT,37.3521014,-122.0605344,,9.014684,0.1,89.43649,1609884134999
Fix,GT,37.3521014,-122.0604455,,6.8254557,0.1,90.18631,1609884135999
Fix,GT,37.3521011,-122.060379,,4.856401,0.1,90.21243,1609884136999
Fix,GT,37.3521011,-122.0603363,,2.7294364,0.1,90.05133,1609884137999
Fix,GT,37.3521011,-122.0603151,,1.1233146,0.1,89.92279,1609884138999
Fix,GT,37.3521012,-122.0603096,,0.027287446,0.1,89.85318,1609884139999
Fix,GT,37.3521011,-122.0603097,,0.0014192119,0.1,89.85541,1609884140999
Fix,GT,37.3521012,-122.0603096,,0.0022359078,0.1,89.85455,1609884141999
Fix,GT,37.3521012,-122.0603096,,0.0020000462,0.1,89.852875,1609884142999
Fix,GT,37.3521012,-122.0603096,,0.0014143276,0.1,89.85364,1609884143999
Fix,GT,37.3521012,-122.0603096,,0.0022359078,0.1,89.85364,1609884144999
Fix,GT,37.3521012,-122.0603096,,0.0014143737,0.1,89.853455,1609884145999
Fix,GT,37.3521012,-122.0603096,,0.0022359078,0.1,89.85339,1609884146999
Fix,GT,37.3521012,-122.0603096,,0.0014143737,0.1,89.85327,1609884147999
Fix,GT,37.3521012,-122.0603096,,0.0010000808,0.1,89.85327,1609884148999
Fix,GT,37.3521012,-122.0603096,,0.0014141328,0.1,89.85309,1609884149999
Fix,GT,37.3521012,-122.0603096,,0.0010000808,0.1,89.85321,1609884150999
Fix,GT,37.3521012,-122.0603096,,0.001,0.1,89.85297,1609884151999
Fix,GT,37.3521012,-122.0603096,,0.001,0.1,89.85318,1609884152999
Fix,GT,37.3521012,-122.0603096,,0.001,0.1,89.85315,1609884153999
Fix,GT,37.3521012,-122.0603096,,0.0014141329,0.1,89.85324,1609884154999
Fix,GT,37.3521012,-122.0603096,,0.0010000807,0.1,89.85318,1609884155999
Fix,GT,37.3521012,-122.0603096,,0.001,0.1,89.8533,1609884156999
Fix,GT,37.3521012,-122.0603096,,0.001,0.1,89.85339,1609884157999
Fix,GT,37.3521012,-122.0603096,,0.001,0.1,89.85327,1609884158999
Fix,GT,37.3521012,-122.0603096,,0.0014141329,0.1,89.85339,1609884159999
Fix,GT,37.3521012,-122.0603096,,0.0022359078,0.1,89.85312,1609884160999
Fix,GT,37.3521012,-122.0603096,,0.0010002411,0.1,89.85361,1609884161999
Fix,GT,37.3521012,-122.0603096,,0.002235827,0.1,89.85321,1609884162999
Fix,GT,37.3521012,-122.0603096,,4.3609228e-07,0.1,89.852905,1609884163999
Fix,GT,37.3521012,-122.0603096,,0.0014139378,0.1,89.85297,1609884164999
Fix,GT,37.3521012,-122.0603096,,0.0014142136,0.1,89.85275,1609884165999
Fix,GT,37.3521012,-122.0603096,,0.0010000808,0.1,89.85272,1609884166999
Fix,GT,37.3521012,-122.0603096,,0.001,0.1,89.85297,1609884167999
Fix,GT,37.3521012,-122.0603096,,0.0014141328,0.1,89.85266,1609884168999
Fix,GT,37.3521012,-122.0603096,,0.0014142136,0.1,89.85257,1609884169999
Fix,GT,37.3521012,-122.0603096,,0.0014142136,0.1,89.852875,1609884170999
Fix,GT,37.3521012,-122.0603096,,0.0010000808,0.1,89.852936,1609884171999
Fix,GT,37.3521012,-122.0603093,,0.18296449,0.1,89.84842,1609884172999
Fix,GT,37.3521013,-122.0603022,,1.2148052,0.1,89.59796,1609884173999
Fix,GT,37.3521028,-122.0602818,,2.4119663,0.1,86.36212,1609884174999
Fix,GT,37.3521098,-122.0602488,,3.4904969,0.1,75.86716,1609884175999
Fix,GT,37.3521316,-122.0602101,,4.6051006,0.1,53.89264,1609884176999
Fix,GT,37.3521738,-122.0601783,,6.060307,0.1,28.004028,1609884177999
Fix,GT,37.3522347,-122.0601647,,7.4752584,0.1,5.9716797,1609884178999
Fix,GT,37.3523081,-122.0601766,,8.823901,0.1,348.08807,1609884179999
Fix,GT,37.3523896,-122.060214,,10.315315,0.1,337.11227,1609884180999
Fix,GT,37.3524792,-122.0602654,,11.538212,0.1,335.00815,1609884181999
Fix,GT,37.3525789,-122.0603236,,12.822845,0.1,334.80267,1609884182999
Fix,GT,37.352688,-122.0603877,,13.983586,0.1,335.03104,1609884183999
Fix,GT,37.3528068,-122.0604547,,14.823504,0.1,336.1245,1609884184999
Fix,GT,37.3529335,-122.060524,,15.8470335,0.1,336.2527,1609884185999
Fix,GT,37.3530676,-122.0605988,,16.777403,0.1,335.78375,1609884186999
Fix,GT,37.3532086,-122.060679,,17.557024,0.1,335.54434,1609884187999
Fix,GT,37.3533551,-122.0607637,,18.227602,0.1,334.81174,1609884188999
Fix,GT,37.3535054,-122.0608547,,18.808016,0.1,333.75677,1609884189999
Fix,GT,37.3536591,-122.0609509,,19.316881,0.1,333.16745,1609884190999
Fix,GT,37.3538163,-122.0610515,,19.830847,0.1,332.64752,1609884191999
Fix,GT,37.3539765,-122.0611549,,20.146114,0.1,332.7029,1609884192999
Fix,GT,37.3541397,-122.0612591,,20.61588,0.1,332.99747,1609884193999
Fix,GT,37.3543079,-122.061365,,21.181715,0.1,333.41333,1609884194999
Fix,GT,37.3544816,-122.0614723,,21.830595,0.1,333.8977,1609884195999
Fix,GT,37.3546608,-122.0615796,,22.287676,0.1,334.98737,1609884196999
Fix,GT,37.354846,-122.0616845,,22.800415,0.1,335.9398,1609884197999
Fix,GT,37.3550363,-122.0617876,,23.201143,0.1,337.1108,1609884198999
Fix,GT,37.3552312,-122.061887,,23.524982,0.1,338.55515,1609884199999
Fix,GT,37.3554311,-122.0619836,,24.119028,0.1,338.5892,1609884200999
Fix,GT,37.3556368,-122.0620859,,25.021132,0.1,338.6119,1609884201999
Fix,GT,37.3558524,-122.0621838,,25.899506,0.1,341.26538,1609884202999
Fix,GT,37.3560788,-122.062272,,26.766844,0.1,344.01978,1609884203999
Fix,GT,37.3563155,-122.0623519,,27.644285,0.1,345.45605,1609884204999
Fix,GT,37.3565609,-122.0624279,,28.474348,0.1,346.57858,1609884205999
Fix,GT,37.3568145,-122.0625001,,29.265057,0.1,347.77182,1609884206999
Fix,GT,37.3570747,-122.0625665,,29.668365,0.1,348.90396,1609884207999
Fix,GT,37.3573394,-122.0626284,,30.139708,0.1,349.87988,1609884208999
Fix,GT,37.3576096,-122.0626848,,30.637457,0.1,351.00537,1609884209999
Fix,GT,37.357885,-122.0627351,,31.191498,0.1,352.30377,1609884210999
Fix,GT,37.3581661,-122.0627787,,31.645527,0.1,353.5242,1609884211999
Fix,GT,37.3584511,-122.0628149,,31.896275,0.1,354.80246,1609884212999
Fix,GT,37.3587382,-122.0628434,,32.07038,0.1,356.1066,1609884213999
Fix,GT,37.3590273,-122.0628638,,32.190025,0.1,357.3656,1609884214999
Fix,GT,37.3593174,-122.062876,,32.24862,0.1,358.668,1609884215999
Fix,GT,37.3596081,-122.0628804,,32.295227,0.1,359.77582,1609884216999
Fix,GT,37.3598992,-122.0628795,,32.317764,0.1,0.3538208,1609884217999
Fix,GT,37.3601908,-122.0628752,,32.480145,0.1,0.8617859,1609884218999
Fix,GT,37.3604846,-122.0628683,,32.7069,0.1,1.1485596,1609884219999
Fix,GT,37.3607798,-122.0628607,,32.79059,0.1,1.0475464,1609884220999
Fix,GT,37.3610749,-122.0628534,,32.709217,0.1,1.0150146,1609884221999
Fix,GT,37.361369,-122.0628469,,32.590664,0.1,0.8708801,1609884222999
Fix,GT,37.3616628,-122.0628412,,32.64616,0.1,0.7336731,1609884223999
Fix,GT,37.3619574,-122.0628364,,32.717854,0.1,0.70181274,1609884224999
Fix,GT,37.3622516,-122.0628308,,32.610657,0.1,0.89126587,1609884225999
Fix,GT,37.3625454,-122.0628241,,32.582024,0.1,1.0519104,1609884226999
Fix,GT,37.3628383,-122.0628162,,32.442352,0.1,1.2019653,1609884227999
Fix,GT,37.3631297,-122.0628084,,32.278618,0.1,1.1286926,1609884228999
Fix,GT,37.36342,-122.0628017,,32.178497,0.1,0.789978,1609884229999
Fix,GT,37.3637094,-122.0628003,,32.04539,0.1,359.70828,1609884230999
Fix,GT,37.3639976,-122.0628068,,31.91571,0.1,357.98764,1609884231999
Fix,GT,37.3642837,-122.0628254,,31.639898,0.1,355.84277,1609884232999
Fix,GT,37.3645663,-122.0628597,,31.341734,0.1,353.0126,1609884233999
Fix,GT,37.3648446,-122.0629091,,31.055658,0.1,350.99548,1609884234999
Fix,GT,37.3651189,-122.0629695,,30.743967,0.1,348.83478,1609884235999
Fix,GT,37.3653878,-122.0630445,,30.374586,0.1,346.16693,1609884236999
Fix,GT,37.3656508,-122.0631317,,29.983154,0.1,344.15018,1609884237999
Fix,GT,37.3659072,-122.0632292,,29.459307,0.1,342.11615,1609884238999
Fix,GT,37.366156,-122.0633367,,28.921148,0.1,339.93152,1609884239999
Fix,GT,37.366396,-122.0634532,,28.176079,0.1,337.70618,1609884240999
Fix,GT,37.3666256,-122.0635772,,27.30826,0.1,335.7909,1609884241999
Fix,GT,37.3668471,-122.0637057,,26.852385,0.1,334.5825,1609884242999
Fix,GT,37.3670633,-122.0638354,,26.371845,0.1,334.2557,1609884243999
Fix,GT,37.3672754,-122.0639635,,25.95714,0.1,334.16107,1609884244999
Fix,GT,37.3674849,-122.0640905,,25.70116,0.1,334.00235,1609884245999
Fix,GT,37.3676922,-122.0642166,,25.454699,0.1,334.10995,1609884246999
Fix,GT,37.3678979,-122.0643417,,25.332394,0.1,333.78766,1609884247999
Fix,GT,37.3681023,-122.0644677,,25.231205,0.1,333.81717,1609884248999
Fix,GT,37.3683072,-122.0645931,,25.395832,0.1,333.9525,1609884249999
Fix,GT,37.3685135,-122.0647189,,25.526247,0.1,334.01242,1609884250999
Fix,GT,37.3687204,-122.0648447,,25.492695,0.1,334.02115,1609884251999
Fix,GT,37.368927,-122.0649702,,25.508423,0.1,334.0916,1609884252999
Fix,GT,37.3691347,-122.0650962,,25.672047,0.1,334.1157,1609884253999
Fix,GT,37.3693424,-122.0652215,,25.49349,0.1,334.31915,1609884254999
Fix,GT,37.3695487,-122.0653454,,25.29444,0.1,334.29587,1609884255999
Fix,GT,37.3697535,-122.0654686,,25.178349,0.1,334.23068,1609884256999
Fix,GT,37.3699584,-122.0655925,,25.355652,0.1,334.07092,1609884257999
Fix,GT,37.3701646,-122.0657183,,25.445871,0.1,333.93082,1609884258999
Fix,GT,37.3703704,-122.0658441,,25.457335,0.1,333.87143,1609884259999
Fix,GT,37.370578,-122.0659713,,25.86216,0.1,333.91992,1609884260999
Fix,GT,37.3707888,-122.0660985,,26.134102,0.1,334.2476,1609884261999
Fix,GT,37.371003,-122.066228,,26.659487,0.1,334.15555,1609884262999
Fix,GT,37.3712212,-122.0663603,,27.118,0.1,333.98,1609884263999
Fix,GT,37.3714427,-122.0664954,,27.608496,0.1,333.90152,1609884264999
Fix,GT,37.3716671,-122.0666329,,27.74155,0.1,334.08032,1609884265999
Fix,GT,37.3718922,-122.0667689,,27.73374,0.1,334.28235,1609884266999
Fix,GT,37.372117,-122.0669042,,27.610222,0.1,334.21478,1609884267999
Fix,GT,37.3723406,-122.0670391,,27.457573,0.1,334.32913,1609884268999
Fix,GT,37.3725647,-122.0671704,,27.551212,0.1,335.38196,1609884269999
Fix,GT,37.3727922,-122.0672964,,27.627916,0.1,336.76703,1609884270999
Fix,GT,37.3730229,-122.0674142,,27.618153,0.1,338.7856,1609884271999
Fix,GT,37.3732564,-122.0675183,,27.46751,0.1,342.09454,1609884272999
Fix,GT,37.3734947,-122.067606,,27.783613,0.1,344.81516,1609884273999
Fix,GT,37.3737402,-122.0676803,,28.416582,0.1,347.65558,1609884274999
Fix,GT,37.3739935,-122.0677421,,28.75928,0.1,350.22034,1609884275999
Fix,GT,37.3742495,-122.067789,,28.694828,0.1,353.00586,1609884276999
Fix,GT,37.3745065,-122.0678204,,28.714756,0.1,355.62762,1609884277999
Fix,GT,37.3747661,-122.0678369,,29.040514,0.1,358.34854,1609884278999
Fix,GT,37.3750294,-122.0678372,,29.398033,0.1,1.351593,1609884279999
Fix,GT,37.3752945,-122.0678206,,29.526682,0.1,4.2249756,1609884280999
Fix,GT,37.3755598,-122.0677896,,29.64629,0.1,6.0509644,1609884281999
Fix,GT,37.3758257,-122.0677529,,29.717495,0.1,6.0934753,1609884282999
Fix,GT,37.3760923,-122.0677161,,29.788467,0.1,6.6306763,1609884283999
Fix,GT,37.3763589,-122.0676723,,29.96752,0.1,7.819824,1609884284999
Fix,GT,37.3766268,-122.0676255,,29.964548,0.1,7.779999,1609884285999
Fix,GT,37.3768926,-122.0675823,,29.426792,0.1,6.7136536,1609884286999
Fix,GT,37.3771531,-122.0675504,,28.640858,0.1,4.3547974,1609884287999
Fix,GT,37.3774068,-122.0675318,,27.768246,0.1,2.5907288,1609884288999
Fix,GT,37.3776521,-122.0675206,,26.614492,0.1,1.7103882,1609884289999
Fix,GT,37.3778846,-122.0675141,,24.808365,0.1,1.0351562,1609884290999
Fix,GT,37.3780966,-122.0675114,,22.15766,0.1,0.16262817,1609884291999
Fix,GT,37.3782826,-122.0675094,,19.123817,0.1,1.0027161,1609884292999
Fix,GT,37.3784403,-122.0675002,,16.061565,0.1,4.8094788,1609884293999
Fix,GT,37.3785728,-122.0674719,,14.177915,0.1,13.768616,1609884294999
Fix,GT,37.3786882,-122.0674171,,13.409008,0.1,25.56723,1609884295999
Fix,GT,37.3787838,-122.0673331,,12.771676,0.1,41.072144,1609884296999
Fix,GT,37.3788521,-122.0672233,,12.158085,0.1,58.48166,1609884297999
Fix,GT,37.378889,-122.0670977,,11.963608,0.1,76.17087,1609884298999
Fix,GT,37.3788956,-122.0669618,,12.351266,0.1,92.02539,1609884299999
Fix,GT,37.3788715,-122.0668258,,12.554956,0.1,108.67078,1609884300999
Fix,GT,37.3788174,-122.0667021,,12.656606,0.1,124.52286,1609884301999
Fix,GT,37.3787375,-122.0666022,,12.6164,0.1,141.5069,1609884302999
Fix,GT,37.3786382,-122.0665374,,12.545406,0.1,158.74841,1609884303999
Fix,GT,37.3785275,-122.0665109,,12.748684,0.1,175.3233,1609884304999
Fix,GT,37.3784135,-122.0665258,,12.921964,0.1,192.48767,1609884305999
Fix,GT,37.378307,-122.0665827,,12.998791,0.1,209.62393,1609884306999
Fix,GT,37.3782195,-122.0666762,,12.712199,0.1,227.51793,1609884307999
Fix,GT,37.3781595,-122.0667962,,12.693808,0.1,244.24889,1609884308999
Fix,GT,37.378128,-122.0669327,,12.706226,0.1,259.7611,1609884309999
Fix,GT,37.3781275,-122.0670739,,12.531348,0.1,276.2285,1609884310999
Fix,GT,37.3781581,-122.0672101,,12.84777,0.1,290.53693,1609884311999
Fix,GT,37.3782061,-122.0673458,,13.532921,0.1,294.96478,1609884312999
Fix,GT,37.3782604,-122.0674879,,14.35856,0.1,295.48465,1609884313999
Fix,GT,37.3783176,-122.0676405,,15.452024,0.1,294.83463,1609884314999
Fix,GT,37.3783775,-122.0678042,,16.52477,0.1,294.3703,1609884315999
Fix,GT,37.378441,-122.0679802,,17.53913,0.1,294.37753,1609884316999
Fix,GT,37.3785068,-122.0681583,,16.823975,0.1,294.8838,1609884317999
Fix,GT,37.3785674,-122.06832,,14.739865,0.1,295.00555,1609884318999
Fix,GT,37.3786214,-122.0684637,,13.496582,0.1,295.19672,1609884319999
Fix,GT,37.3786715,-122.0685948,,12.266656,0.1,295.78708,1609884320999
Fix,GT,37.3787193,-122.0687108,,10.84746,0.1,298.43832,1609884321999
Fix,GT,37.3787684,-122.0688054,,9.196094,0.1,305.9718,1609884322999
Fix,GT,37.3788237,-122.0688732,,8.485089,0.1,319.78693,1609884323999
Fix,GT,37.3788904,-122.0689222,,8.828622,0.1,332.26498,1609884324999
Fix,GT,37.378967,-122.0689576,,9.583157,0.1,342.42688,1609884325999
Fix,GT,37.3790553,-122.0689744,,10.285734,0.1,355.8323,1609884326999
Fix,GT,37.3791486,-122.0689621,,10.798501,0.1,10.6427,1609884327999
Fix,GT,37.3792418,-122.068919,,11.381015,0.1,24.929626,1609884328999
Fix,GT,37.3793273,-122.0688455,,11.78673,0.1,39.545135,1609884329999
Fix,GT,37.3793961,-122.0687437,,12.052369,0.1,55.39279,1609884330999
Fix,GT,37.3794402,-122.0686197,,12.220567,0.1,71.83685,1609884331999
Fix,GT,37.3794543,-122.0684837,,12.279764,0.1,88.861206,1609884332999
Fix,GT,37.3794372,-122.0683481,,12.248708,0.1,104.91858,1609884333999
Fix,GT,37.3793914,-122.0682238,,12.319073,0.1,120.63226,1609884334999
Fix,GT,37.3793192,-122.0681184,,12.510968,0.1,136.83661,1609884335999
Fix,GT,37.3792247,-122.068042,,12.714522,0.1,153.25043,1609884336999
Fix,GT,37.379115,-122.0679966,,13.126405,0.1,165.80365,1609884337999
Fix,GT,37.3789963,-122.0679671,,13.860128,0.1,169.54932,1609884338999
Fix,GT,37.3788676,-122.0679376,,15.280592,0.1,169.4256,1609884339999
Fix,GT,37.3787262,-122.0679067,,16.405127,0.1,171.00928,1609884340999
Fix,GT,37.3785761,-122.0678827,,17.196924,0.1,173.59912,1609884341999
Fix,GT,37.3784197,-122.0678633,,17.568811,0.1,174.57556,1609884342999
Fix,GT,37.3782624,-122.0678466,,17.506567,0.1,175.38098,1609884343999
Fix,GT,37.3781056,-122.0678324,,17.383595,0.1,175.91461,1609884344999
Fix,GT,37.3779499,-122.0678206,,17.241966,0.1,176.85767,1609884345999
Fix,GT,37.3777954,-122.067812,,17.106035,0.1,177.76349,1609884346999
Fix,GT,37.3776415,-122.0678065,,17.059769,0.1,178.64777,1609884347999
Fix,GT,37.3774882,-122.0678061,,17.005411,0.1,181.15027,1609884348999
Fix,GT,37.3773351,-122.0678139,,17.074661,0.1,182.76985,1609884349999
Fix,GT,37.3771806,-122.0678252,,17.342731,0.1,183.48935,1609884350999
Fix,GT,37.377022,-122.0678364,,17.954493,0.1,182.50772,1609884351999
Fix,GT,37.3768573,-122.0678445,,18.717398,0.1,182.13237,1609884352999
Fix,GT,37.3766856,-122.067854,,19.337032,0.1,183.1536,1609884353999
Fix,GT,37.3765108,-122.0678701,,19.493595,0.1,184.66628,1609884354999
Fix,GT,37.376336,-122.0678902,,19.533573,0.1,185.67722,1609884355999
Fix,GT,37.3761607,-122.0679136,,19.578518,0.1,186.2497,1609884356999
Fix,GT,37.375985,-122.0679376,,19.701084,0.1,186.0006,1609884357999
Fix,GT,37.3758077,-122.0679609,,19.86668,0.1,186.01132,1609884358999
Fix,GT,37.3756285,-122.0679834,,20.123331,0.1,185.53192,1609884359999
Fix,GT,37.375447,-122.0680041,,20.35484,0.1,184.94017,1609884360999
Fix,GT,37.3752622,-122.0680181,,20.84466,0.1,181.62265,1609884361999
Fix,GT,37.3750702,-122.0680177,,21.734524,0.1,178.75438,1609884362999
Fix,GT,37.3748702,-122.0680083,,22.68954,0.1,177.23438,1609884363999
Fix,GT,37.3746627,-122.0679918,,23.405678,0.1,175.76947,1609884364999
Fix,GT,37.3744494,-122.0679693,,24.090431,0.1,174.72852,1609884365999
Fix,GT,37.3742307,-122.0679402,,24.682425,0.1,173.13477,1609884366999
Fix,GT,37.3740084,-122.0679011,,25.150179,0.1,170.99207,1609884367999
Fix,GT,37.3737838,-122.067849,,25.472448,0.1,168.19598,1609884368999
Fix,GT,37.3735587,-122.0677832,,25.871695,0.1,165.77881,1609884369999
Fix,GT,37.373332,-122.0677046,,26.269325,0.1,163.3916,1609884370999
Fix,GT,37.3731053,-122.0676128,,26.602755,0.1,161.00647,1609884371999
Fix,GT,37.3728786,-122.067508,,26.97434,0.1,158.68127,1609884372999
Fix,GT,37.3726531,-122.0673903,,27.263878,0.1,156.33728,1609884373999
Fix,GT,37.3724278,-122.0672618,,27.642378,0.1,154.88086,1609884374999
Fix,GT,37.3722018,-122.0671259,,28.047695,0.1,153.98798,1609884375999
Fix,GT,37.3719729,-122.0669865,,28.401064,0.1,154.21954,1609884376999
Fix,GT,37.3717407,-122.0668467,,28.796806,0.1,154.26843,1609884377999
Fix,GT,37.3715058,-122.0667046,,29.073025,0.1,154.0097,1609884378999
Fix,GT,37.3712698,-122.0665604,,29.21909,0.1,153.90588,1609884379999
Fix,GT,37.3710321,-122.0664155,,29.460878,0.1,154.03308,1609884380999
Fix,GT,37.3707927,-122.06627,,29.601044,0.1,154.15143,1609884381999
Fix,GT,37.3705517,-122.0661241,,29.805714,0.1,154.13556,1609884382999
Fix,GT,37.3703094,-122.0659769,,30.032324,0.1,153.9906,1609884383999
Fix,GT,37.3700653,-122.0658281,,30.20209,0.1,154.0249,1609884384999
Fix,GT,37.3698194,-122.0656787,,30.466274,0.1,154.10791,1609884385999
Fix,GT,37.3695717,-122.0655289,,30.554087,0.1,154.23706,1609884386999
Fix,GT,37.369323,-122.065379,,30.78762,0.1,154.21289,1609884387999
Fix,GT,37.3690718,-122.0652271,,31.09425,0.1,154.12653,1609884388999
Fix,GT,37.3688188,-122.0650738,,31.26001,0.1,154.15466,1609884389999
Fix,GT,37.3685647,-122.0649202,,31.351913,0.1,154.18457,1609884390999
Fix,GT,37.3683103,-122.0647665,,31.335348,0.1,154.17444,1609884391999
Fix,GT,37.3680563,-122.0646128,,31.222805,0.1,154.14563,1609884392999
Fix,GT,37.3678041,-122.0644595,,30.987192,0.1,153.96045,1609884393999
Fix,GT,37.3675546,-122.0643066,,30.656872,0.1,153.8883,1609884394999
Fix,GT,37.3673074,-122.0641565,,30.321243,0.1,154.19562,1609884395999
Fix,GT,37.3670627,-122.0640086,,29.976828,0.1,154.13745,1609884396999
Fix,GT,37.3668205,-122.0638637,,29.619108,0.1,154.82068,1609884397999
Fix,GT,37.3665794,-122.0637256,,29.246105,0.1,156.05627,1609884398999
Fix,GT,37.366338,-122.063597,,29.058378,0.1,157.74023,1609884399999
Fix,GT,37.3660937,-122.063478,,29.154593,0.1,159.61731,1609884400999
Fix,GT,37.365846,-122.0633692,,29.145136,0.1,161.76117,1609884401999
Fix,GT,37.3655951,-122.0632734,,29.072128,0.1,164.30585,1609884402999
Fix,GT,37.3653422,-122.0631914,,28.9328,0.1,166.52954,1609884403999
Fix,GT,37.3650885,-122.0631224,,28.706556,0.1,168.9151,1609884404999
Fix,GT,37.3648347,-122.0630662,,28.578596,0.1,170.89911,1609884405999
Fix,GT,37.3645796,-122.0630219,,28.649857,0.1,173.1341,1609884406999
Fix,GT,37.3643225,-122.0629899,,28.695122,0.1,175.33441,1609884407999
Fix,GT,37.3640646,-122.0629705,,28.686813,0.1,177.63043,1609884408999
Fix,GT,37.3638064,-122.0629636,,28.67187,0.1,179.63959,1609884409999
Fix,GT,37.3635479,-122.0629652,,28.703331,0.1,180.54004,1609884410999
Fix,GT,37.3632893,-122.0629689,,28.698921,0.1,180.5748,1609884411999
Fix,GT,37.3630306,-122.0629723,,28.747578,0.1,180.5418,1609884412999
Fix,GT,37.362771,-122.0629758,,28.877916,0.1,180.68164,1609884413999
Fix,GT,37.3625108,-122.0629811,,28.863379,0.1,181.10205,1609884414999
Fix,GT,37.3622511,-122.0629883,,28.76752,0.1,181.24034,1609884415999
Fix,GT,37.361993,-122.0629955,,28.518618,0.1,181.17844,1609884416999
Fix,GT,37.3617372,-122.063002,,28.2793,0.1,181.01137,1609884417999
Fix,GT,37.3614838,-122.0630075,,27.9519,0.1,180.89566,1609884418999
Fix,GT,37.3612334,-122.0630129,,27.647402,0.1,180.94247,1609884419999
Fix,GT,37.3609856,-122.0630178,,27.365278,0.1,180.82971,1609884420999
Fix,GT,37.3607403,-122.0630224,,27.058645,0.1,180.7013,1609884421999
