MessageType,Provider,LatitudeDegrees,LongitudeDegrees,AltitudeMeters,SpeedMps,AccuracyMeters,BearingDegrees,UnixTimeMillis
Fix,GT,37.5240082,-122.3499203,147.275,0.0014142136,0.1,83.47638,1626295841999
Fix,GT,37.5240082,-122.3499203,147.275,0.0014142136,0.1,83.4765,1626295842999
Fix,GT,37.5240082,-122.3499203,147.275,0.001,0.1,83.47644,1626295843999
Fix,GT,37.5240082,-122.3499203,147.275,0.001,0.1,83.4765,1626295844999
Fix,GT,37.5240082,-122.3499203,147.275,0.001412779,0.1,83.47653,1626295845999
Fix,GT,37.5240082,-122.3499203,147.275,0.000996533,0.1,83.47638,1626295846999
Fix,GT,37.5240082,-122.3499203,147.275,0.0010034707,0.1,83.47659,1626295847999
Fix,GT,37.5240082,-122.3499203,147.275,4.9135638e-06,0.1,83.476776,1626295848999
Fix,GT,37.5240082,-122.3499203,147.275,0.0014142136,0.1,83.47662,1626295849999
Fix,GT,37.5240082,-122.3499203,147.275,0.001,0.1,83.476166,1626295850999
Fix,GT,37.5240082,-122.3499203,147.275,0.002,0.1,83.47583,1626295851999
Fix,GT,37.5240082,-122.3499203,147.275,0.001,0.1,83.476776,1626295852999
Fix,GT,37.5240082,-122.3499203,147.275,0.0014127669,0.1,83.4762,1626295853999
Fix,GT,37.5240082,-122.3499203,147.275,0.0014170872,0.1,83.475525,1626295854999
Fix,GT,37.5240082,-122.3499203,147.275,0.001,0.1,83.47568,1626295855999
Fix,GT,37.5240082,-122.3499203,147.275,0.0010014513,0.1,83.47565,1626295856999
Fix,GT,37.5240082,-122.3499203,147.275,0.0014142136,0.1,83.475586,1626295857999
Fix,GT,37.5240082,-122.3499203,147.275,0.0014142136,0.1,83.475525,1626295858999
Fix,GT,37.5240082,-122.3499203,147.275,0.001,0.1,83.475494,1626295859999
Fix,GT,37.5240082,-122.3499203,147.275,0.002231719,0.1,83.4754,1626295860999
Fix,GT,37.5240082,-122.3499203,147.275,3.5220983e-06,0.1,83.4754,1626295861999
Fix,GT,37.5240082,-122.3499203,147.275,3.5257342e-06,0.1,83.47519,1626295862999
Fix,GT,37.5240082,-122.3499203,147.275,0.0009964706,0.1,83.474945,1626295863999
Fix,GT,37.5240082,-122.3499203,147.275,0.001,0.1,83.47507,1626295864999
Fix,GT,37.5240082,-122.3499203,147.275,0.0014092118,0.1,83.47513,1626295865999
Fix,GT,37.5240082,-122.3499203,147.275,0.001,0.1,83.47504,1626295866999
Fix,GT,37.5240082,-122.3499203,147.274,0.0010035442,0.1,83.47528,1626295867999
Fix,GT,37.5240083,-122.3499203,147.27200354784725,0.023298591,0.1,83.47623,1626295868999
Fix,GT,37.5240086,-122.3499156,147.25501065462825,0.91760486,0.1,83.59943,1626295869999
Fix,GT,37.5240086,-122.3498998,147.2110248858333,1.8932273,0.1,87.023315,1626295870999
Fix,GT,37.5240045,-122.3498743,147.1820142352581,2.7705936,0.1,97.69064,1626295871999
Fix,GT,37.523993,-122.3498414,147.13101424980164,3.6848843,0.1,111.28418,1626295872999
Fix,GT,37.5239725,-122.3498016,147.03906062448024,4.754025,0.1,122.618256,1626295873999
Fix,GT,37.5239414,-122.3497591,147.01797858095168,5.51698,0.1,133.56378,1626295874999
Fix,GT,37.5239019,-122.3497168,147.1249606910944,5.976025,0.1,141.09357,1626295875999
Fix,GT,37.5238566,-122.3496831,147.2089821141362,5.7983136,0.1,150.88507,1626295876999
Fix,GT,37.5238089,-122.3496596,147.14302148485183,5.664191,0.1,159.46039,1626295877999
Fix,GT,37.5237615,-122.3496409,147.18394981610774,5.3173056,0.1,161.92133,1626295878999
Fix,GT,37.5237194,-122.3496181,147.3529390016198,4.7386045,0.1,155.41382,1626295879999
Fix,GT,37.5236869,-122.3495931,147.53393534696102,3.6216981,0.1,148.21796,1626295880999
Fix,GT,37.5236634,-122.3495711,147.7369173027873,2.8462458,0.1,143.77704,1626295881999
Fix,GT,37.5236446,-122.3495528,147.93289562243223,2.443431,0.1,142.62036,1626295882999
Fix,GT,37.5236252,-122.3495408,147.94197117710115,2.4573286,0.1,152.36969,1626295883999
Fix,GT,37.523604,-122.3495426,147.81395672130583,2.3810167,0.1,175.34668,1626295884999
Fix,GT,37.5235837,-122.3495567,147.89196028721332,2.8087466,0.1,200.61473,1626295885999
Fix,GT,37.5235638,-122.3495823,147.91701084184646,3.6551049,0.1,221.85944,1626295886999
Fix,GT,37.5235404,-122.349619,147.84104702860117,4.7056775,0.1,229.683,1626295887999
Fix,GT,37.5235107,-122.3496647,147.6900651830435,5.7321978,0.1,230.83388,1626295888999
Fix,GT,37.5234765,-122.3497176,147.4680942493677,6.1921306,0.1,230.65959,1626295889999
Fix,GT,37.5234407,-122.349772,147.21208708667754,6.1997986,0.1,230.14699,1626295890999
Fix,GT,37.5234058,-122.3498239,146.9600835430622,5.7190437,0.1,229.66092,1626295891999
Fix,GT,37.5233757,-122.3498684,146.75506908404824,4.4461045,0.1,229.39613,1626295892999
Fix,GT,37.5233548,-122.3498988,146.62802547705172,2.6275928,0.1,229.32007,1626295893999
Fix,GT,37.5233442,-122.3499143,146.5690109298229,1.0466398,0.1,229.29214,1626295894999
Fix,GT,37.5233373,-122.3499245,146.52201823484896,1.5869629,0.1,229.28796,1626295895999
Fix,GT,37.5233239,-122.3499443,146.4650219039917,3.038135,0.1,229.43767,1626295896999
Fix,GT,37.5233025,-122.3499767,146.41800730860234,4.3119206,0.1,230.04907,1626295897999
Fix,GT,37.5232777,-122.3500143,146.40199268400667,4.2353005,0.1,230.31741,1626295898999
Fix,GT,37.5232544,-122.3500501,146.460974368155,3.9234366,0.1,230.66,1626295899999
Fix,GT,37.5232331,-122.3500831,146.53098167306186,3.5632174,0.1,231.02814,1626295900999
Fix,GT,37.5232143,-122.3501129,146.62998899292944,3.1628184,0.1,231.32951,1626295901999
Fix,GT,37.5231977,-122.3501392,146.73596327280998,2.8172088,0.1,231.4892,1626295902999
Fix,GT,37.5231827,-122.3501631,146.8339595594406,2.5777633,0.1,231.43123,1626295903999
Fix,GT,37.5231687,-122.3501851,146.9399595194459,2.4034274,0.1,231.36618,1626295904999
Fix,GT,37.5231556,-122.3502058,147.04995947879553,2.277686,0.1,231.30498,1626295905999
Fix,GT,37.5231428,-122.3502259,147.14596681302783,2.42872,0.1,231.21375,1626295906999
Fix,GT,37.5231267,-122.3502505,147.26894094181063,3.209646,0.1,230.56592,1626295907999
Fix,GT,37.5231053,-122.350283,147.45392240977287,4.3135676,0.1,230.28969,1626295908999
Fix,GT,37.5230766,-122.3503258,147.69590014135835,5.5653486,0.1,229.62334,1626295909999
Fix,GT,37.5230406,-122.3503784,147.96285931777953,6.651631,0.1,229.18082,1626295910999
Fix,GT,37.5229992,-122.3504386,148.3398406480551,7.1476264,0.1,229.13716,1626295911999
Fix,GT,37.5229585,-122.3504983,148.69186645817757,6.702521,0.1,229.3394,1626295912999
Fix,GT,37.5229233,-122.3505504,148.97888860428336,5.1081223,0.1,229.72148,1626295913999
Fix,GT,37.5228999,-122.3505855,149.1769516804814,2.997852,0.1,230.00252,1626295914999
Fix,GT,37.5228862,-122.3506066,149.26297395592928,2.2797606,0.1,230.63606,1626295915999
Fix,GT,37.522873,-122.35063,149.34895903360842,2.8460097,0.1,234.15906,1626295916999
Fix,GT,37.5228627,-122.3506622,149.43697017669678,3.2977395,0.1,247.1036,1626295917999
Fix,GT,37.5228634,-122.350699,149.42102238965035,3.3400054,0.1,268.91638,1626295918999
Fix,GT,37.5228769,-122.3507358,149.40797011756894,4.063724,0.1,292.78384,1626295919999
Fix,GT,37.522904,-122.3507758,149.41100747787954,5.448765,0.1,309.93716,1626295920999
Fix,GT,37.5229441,-122.3508254,149.39501122790574,7.0900054,0.1,315.8362,1626295921999
Fix,GT,37.5229977,-122.3508863,149.29604495453833,8.928625,0.1,318.12582,1626295922999
Fix,GT,37.5230637,-122.3509583,149.06215000104905,10.600695,0.1,319.33572,1626295923999
Fix,GT,37.5231418,-122.3510422,148.53125524902345,11.955206,0.1,319.12415,1626295924999
Fix,GT,37.5232254,-122.3511315,147.82929683125022,12.399082,0.1,319.6226,1626295925999
Fix,GT,37.5233127,-122.351224,147.048308406353,12.937205,0.1,319.86005,1626295926999
Fix,GT,37.5234035,-122.3513208,146.18432753312587,13.516057,0.1,319.7334,1626295927999
Fix,GT,37.5234988,-122.3514211,145.31032784944773,14.077488,0.1,319.7636,1626295928999
Fix,GT,37.5235965,-122.3515253,144.51626404559613,14.333728,0.1,319.54437,1626295929999
Fix,GT,37.5236955,-122.3516304,143.90316990989444,14.418356,0.1,319.89026,1626295930999
Fix,GT,37.5237952,-122.351735,143.40715873527526,14.425662,0.1,320.07355,1626295931999
Fix,GT,37.5238948,-122.3518396,142.9331891553402,14.421453,0.1,319.99954,1626295932999
Fix,GT,37.5239945,-122.3519444,142.43918934011458,14.42728,0.1,319.91013,1626295933999
Fix,GT,37.524094,-122.3520495,141.90519331538675,14.448567,0.1,319.7996,1626295934999
Fix,GT,37.5241935,-122.3521551,141.40918211841583,14.466939,0.1,319.5519,1626295935999
Fix,GT,37.5242921,-122.3522598,140.93712912619114,13.9935255,0.1,319.79962,1626295936999
Fix,GT,37.524383,-122.3523552,140.5051862747073,12.189534,0.1,320.12463,1626295937999
Fix,GT,37.5244599,-122.3524364,140.06116362446548,10.069793,0.1,319.6731,1626295938999
Fix,GT,37.5245211,-122.3525021,139.76009522140026,7.748627,0.1,319.29892,1626295939999
Fix,GT,37.5245664,-122.3525503,139.51706862592695,5.4861846,0.1,319.74646,1626295940999
Fix,GT,37.5245972,-122.3525833,139.35006487721205,3.5285432,0.1,319.61664,1626295941999
Fix,GT,37.5246154,-122.3526028,139.2609961799979,1.8611027,0.1,319.4948,1626295942999
Fix,GT,37.5246261,-122.3526142,139.21901911848784,1.687729,0.1,319.40515,1626295943999
Fix,GT,37.5246403,-122.3526309,139.15504210066794,2.7129238,0.1,317.48602,1626295944999
Fix,GT,37.5246582,-122.3526606,139.0760306482315,3.7037845,0.1,307.44446,1626295945999
Fix,GT,37.5246701,-122.3527041,139.01200766944885,4.034587,0.1,288.41708,1626295946999
Fix,GT,37.5246663,-122.3527519,138.87304606103896,4.288017,0.1,263.18896,1626295947999
Fix,GT,37.5246457,-122.3527988,138.71006531494857,4.896146,0.1,239.86984,1626295948999
Fix,GT,37.5246158,-122.3528461,138.52807306927443,5.7050486,0.1,231.60608,1626295949999
Fix,GT,37.5245788,-122.3528998,138.2881077845097,6.8720264,0.1,229.09056,1626295950999
Fix,GT,37.5245349,-122.352963,137.95314641940595,7.802571,0.1,228.85919,1626295951999
Fix,GT,37.5244851,-122.3530338,137.52317741179468,8.932268,0.1,228.21492,1626295952999
Fix,GT,37.5244263,-122.3531116,137.02720074462889,9.90979,0.1,225.34732,1626295953999
Fix,GT,37.5243597,-122.3531918,136.5242048009634,10.545466,0.1,223.53299,1626295954999
Fix,GT,37.5242888,-122.3532765,135.9692166004181,11.1983,0.1,223.58032,1626295955999
Fix,GT,37.5242142,-122.3533653,135.31526713353395,11.573776,0.1,223.39507,1626295956999
Fix,GT,37.5241368,-122.3534558,134.57330226528646,11.822743,0.1,222.54156,1626295957999
Fix,GT,37.5240565,-122.3535432,133.7143607369065,11.734911,0.1,219.5121,1626295958999
Fix,GT,37.5239722,-122.3536226,132.77039214128254,11.668649,0.1,215.4449,1626295959999
Fix,GT,37.5238826,-122.3536943,131.7493963947296,11.872905,0.1,210.60092,1626295960999
Fix,GT,37.5237868,-122.3537563,130.66743567752837,11.998351,0.1,204.95712,1626295961999
Fix,GT,37.5236863,-122.3538079,129.5394516661167,12.137091,0.1,201.19844,1626295962999
Fix,GT,37.5235819,-122.3538577,128.4434404026866,12.61203,0.1,200.51688,1626295963999
Fix,GT,37.5234773,-122.3539116,127.33542911708356,12.429264,0.1,204.24968,1626295964999
Fix,GT,37.5233823,-122.3539812,126.17644513583184,12.190741,0.1,214.14456,1626295965999
Fix,GT,37.5233018,-122.3540725,125.03443383193016,12.051545,0.1,226.21497,1626295966999
Fix,GT,37.5232388,-122.3541808,123.89943033003809,11.76358,0.1,238.08527,1626295967999
Fix,GT,37.5231966,-122.3543004,122.86439941632749,11.591991,0.1,250.05241,1626295968999
Fix,GT,37.5231743,-122.3544278,121.84441939097644,11.79279,0.1,261.76074,1626295969999
Fix,GT,37.5231733,-122.3545628,120.72933739328384,12.234304,0.1,273.5844,1626295970999
Fix,GT,37.5231942,-122.3546996,119.7254437366724,12.573775,0.1,284.8814,1626295971999
Fix,GT,37.5232322,-122.354839,118.67444022369384,13.619719,0.1,291.0008,1626295972999
Fix,GT,37.5232857,-122.3549836,117.52047211170196,14.504806,0.1,297.18912,1626295973999
Fix,GT,37.5233547,-122.3551293,116.0326064366102,15.674258,0.1,302.93433,1626295974999
Fix,GT,37.5234409,-122.355279,114.53960306411982,17.03605,0.1,307.5639,1626295975999
Fix,GT,37.5235432,-122.3554327,113.07656812191009,18.423944,0.1,311.46332,1626295976999
Fix,GT,37.5236598,-122.3555909,111.62358050978185,19.717035,0.1,313.06113,1626295977999
Fix,GT,37.5237849,-122.3557584,110.25556919479372,20.895067,0.1,313.0509,1626295978999
Fix,GT,37.5239174,-122.3559355,108.9765143290758,22.08605,0.1,313.33856,1626295979999
Fix,GT,37.5240598,-122.3561191,107.62455441021918,23.229038,0.1,314.85193,1626295980999
Fix,GT,37.524213,-122.3563073,106.21351528990267,24.348831,0.1,316.1523,1626295981999
Fix,GT,37.5243764,-122.3564989,104.944503875494,25.259577,0.1,317.90274,1626295982999
Fix,GT,37.5245485,-122.3566915,103.94932166874408,25.868464,0.1,318.7311,1626295983999
Fix,GT,37.5247277,-122.3568819,103.22929016441108,26.266926,0.1,320.90692,1626295984999
Fix,GT,37.5249154,-122.3570664,102.42533021968605,26.701864,0.1,322.52032,1626295985999
Fix,GT,37.5251099,-122.3572513,101.58033450865744,27.524572,0.1,323.0821,1626295986999
Fix,GT,37.5253128,-122.3574425,100.57339460819958,28.808208,0.1,322.72714,1626295987999
Fix,GT,37.5255207,-122.3576422,99.5274268847704,29.099182,0.1,322.35117,1626295988999
Fix,GT,37.5257287,-122.3578433,98.30348318600652,29.144398,0.1,322.26816,1626295989999
Fix,GT,37.525937,-122.358043,97.12551161193848,29.031487,0.1,323.13254,1626295990999
Fix,GT,37.5261481,-122.3582357,95.90850008296968,28.955147,0.1,324.71948,1626295991999
Fix,GT,37.526364,-122.3584205,94.65150454175472,29.130863,0.1,326.53473,1626295992999
Fix,GT,37.5265872,-122.3585976,93.45242886185645,29.48527,0.1,328.7113,1626295993999
Fix,GT,37.5268186,-122.3587646,92.43138512802123,29.807142,0.1,331.2545,1626295994999
Fix,GT,37.5270581,-122.3589205,91.6153051738739,30.09232,0.1,333.94266,1626295995999
Fix,GT,37.5273052,-122.3590636,91.02218889963628,30.328184,0.1,336.2472,1626295996999
Fix,GT,37.5275579,-122.3591958,90.64910056942702,30.458302,0.1,338.40662,1626295997999
Fix,GT,37.5278152,-122.3593159,90.65791141760349,30.459274,0.1,340.76492,1626295998999
Fix,GT,37.5280748,-122.3594263,90.9728750629425,30.402498,0.1,341.4546,1626295999999
Fix,GT,37.5283347,-122.3595337,91.26891932153704,30.323786,0.1,342.03223,1626296000999
Fix,GT,37.5285942,-122.3596398,91.74879004383088,30.217228,0.1,341.74515,1626296001999
Fix,GT,37.5288519,-122.3597468,92.40267265838384,30.0392,0.1,341.3163,1626296002999
Fix,GT,37.529107,-122.3598568,93.24062381964922,29.831398,0.1,340.92612,1626296003999
Fix,GT,37.5293605,-122.3599656,94.16761537867784,29.631786,0.1,341.16077,1626296004999
Fix,GT,37.5296127,-122.3600717,95.06862718462943,29.407053,0.1,341.34225,1626296005999
Fix,GT,37.5298629,-122.360177,95.91062685012818,29.158863,0.1,341.32916,1626296006999
Fix,GT,37.5301113,-122.3602821,96.67169958424569,29.040724,0.1,340.98172,1626296007999
Fix,GT,37.5303582,-122.3603883,97.6785733463764,28.928692,0.1,341.026,1626296008999
Fix,GT,37.5306043,-122.3604948,98.55766649591922,28.85035,0.1,340.84525,1626296009999
Fix,GT,37.53085,-122.3606016,99.29972725516558,28.8526,0.1,340.894,1626296010999
Fix,GT,37.5310954,-122.3607079,100.25958033120634,28.781261,0.1,340.86044,1626296011999
Fix,GT,37.5313406,-122.360813,101.13960441946983,28.734789,0.1,341.31604,1626296012999
Fix,GT,37.531586,-122.3609159,101.98264487946034,28.69768,0.1,341.35748,1626296013999
Fix,GT,37.5318309,-122.3610192,102.83163638156653,28.678423,0.1,341.3179,1626296014999
Fix,GT,37.5320758,-122.3611231,103.7036115168929,28.681978,0.1,341.10208,1626296015999
Fix,GT,37.5323201,-122.361228,104.55663982200625,28.627203,0.1,340.98785,1626296016999
Fix,GT,37.5325639,-122.3613334,105.44764769005776,28.623041,0.1,340.94296,1626296017999
Fix,GT,37.5328079,-122.3614384,106.30569247579574,28.632774,0.1,340.9594,1626296018999
Fix,GT,37.5330517,-122.3615433,107.2175978062153,28.588411,0.1,341.0502,1626296019999
Fix,GT,37.5332952,-122.3616477,108.25656458866597,28.520796,0.1,341.16556,1626296020999
Fix,GT,37.5335381,-122.3617513,109.34350252670048,28.414478,0.1,341.06818,1626296021999
Fix,GT,37.5337796,-122.3618572,110.44553911495208,28.345963,0.1,340.64612,1626296022999
Fix,GT,37.5340203,-122.3619624,111.55155105078222,28.23557,0.1,340.8324,1626296023999
Fix,GT,37.5342603,-122.3620664,112.6895176680088,28.120281,0.1,341.13943,1626296024999
Fix,GT,37.5344988,-122.3621702,113.81254199939968,27.907349,0.1,340.48935,1626296025999
Fix,GT,37.5347341,-122.362277,114.92854571902753,27.540838,0.1,339.80017,1626296026999
Fix,GT,37.5349637,-122.3623851,116.02054531252384,26.909885,0.1,339.12787,1626296027999
Fix,GT,37.5351881,-122.3624929,117.09656559211014,26.415106,0.1,338.91684,1626296028999
Fix,GT,37.5354079,-122.3626007,118.15455692863463,25.973173,0.1,337.96518,1626296029999
Fix,GT,37.5356224,-122.3627137,119.17755653321744,25.708666,0.1,336.71484,1626296030999
Fix,GT,37.5358346,-122.3628297,120.18558102726938,25.68849,0.1,336.10562,1626296031999
Fix,GT,37.5360456,-122.362949,121.19256819200515,25.681885,0.1,335.45395,1626296032999
Fix,GT,37.5362564,-122.3630693,122.21657196336984,25.703896,0.1,335.46368,1626296033999
Fix,GT,37.5364667,-122.3631916,123.22060486352444,25.732985,0.1,334.75912,1626296034999
Fix,GT,37.5366756,-122.3633147,124.13862949061394,25.379248,0.1,334.91388,1626296035999
Fix,GT,37.5368803,-122.3634348,125.0066374951601,24.768581,0.1,334.70758,1626296036999
Fix,GT,37.5370801,-122.3635541,125.84765385037662,24.389572,0.1,334.45874,1626296037999
Fix,GT,37.5372776,-122.3636719,126.73262432444096,24.191137,0.1,334.4991,1626296038999
Fix,GT,37.5374751,-122.3637894,127.68758221316338,24.360874,0.1,334.65942,1626296039999
Fix,GT,37.5376747,-122.3639082,128.66459021258353,24.711727,0.1,334.46494,1626296040999
Fix,GT,37.5378774,-122.3640291,129.66559403562545,25.085445,0.1,334.4476,1626296041999
Fix,GT,37.5380828,-122.3641523,130.66757692158222,25.4393,0.1,334.3276,1626296042999
Fix,GT,37.5382911,-122.364277,131.70155978423355,25.79038,0.1,334.34445,1626296043999
Fix,GT,37.538502,-122.3644038,132.73456359243394,26.124569,0.1,334.3919,1626296044999
Fix,GT,37.5387158,-122.3645314,133.79155900818108,26.43058,0.1,334.48325,1626296045999
Fix,GT,37.5389321,-122.3646605,134.85154600286484,26.717087,0.1,334.49567,1626296046999
Fix,GT,37.5391508,-122.3647906,135.9325245668888,26.995478,0.1,334.62573,1626296047999
Fix,GT,37.5393716,-122.3649221,137.01954520463946,27.261707,0.1,334.4675,1626296048999
Fix,GT,37.5395945,-122.3650556,138.10354059726004,27.534483,0.1,334.32144,1626296049999
Fix,GT,37.5398192,-122.3651912,139.21453597605228,27.805912,0.1,334.20862,1626296050999
Fix,GT,37.540046,-122.3653271,140.3535017927885,27.983278,0.1,334.47,1626296051999
Fix,GT,37.5402743,-122.3654642,141.61041684913636,28.178606,0.1,334.3225,1626296052999
Fix,GT,37.5405039,-122.365603,142.9514332408905,28.371273,0.1,334.20566,1626296053999
Fix,GT,37.540735,-122.3657429,144.28546661913396,28.570627,0.1,334.18857,1626296054999
Fix,GT,37.5409669,-122.3658863,145.47050004851818,28.801395,0.1,333.19278,1626296055999
Fix,GT,37.5411981,-122.3660357,146.6215080935955,28.87748,0.1,332.24982,1626296056999
Fix,GT,37.5414277,-122.3661904,147.76351615345482,28.934452,0.1,331.14792,1626296057999
Fix,GT,37.5416554,-122.3663511,148.90750722932816,29.023972,0.1,330.05362,1626296058999
Fix,GT,37.5418813,-122.3665177,150.04051956254244,29.142365,0.1,328.89655,1626296059999
Fix,GT,37.5421055,-122.366691,151.07158297526837,29.274265,0.1,327.91562,1626296060999
Fix,GT,37.5423275,-122.3668686,151.99063372170926,29.147802,0.1,326.9691,1626296061999
Fix,GT,37.5425467,-122.3670509,152.80767603135106,29.25483,0.1,325.93958,1626296062999
Fix,GT,37.5427648,-122.3672388,153.53168855416777,29.437653,0.1,324.99344,1626296063999
Fix,GT,37.5429818,-122.3674325,154.1467523320913,29.654697,0.1,324.0062,1626296064999
Fix,GT,37.543197,-122.3676319,154.65082904672624,29.614145,0.1,323.03485,1626296065999
Fix,GT,37.5434083,-122.3678346,155.00989306181668,29.431799,0.1,322.0082,1626296066999
Fix,GT,37.5436161,-122.3680409,155.0979785938859,29.355106,0.1,321.1752,1626296067999
Fix,GT,37.5438207,-122.3682486,155.09101285493375,29.015984,0.1,320.60983,1626296068999
Fix,GT,37.5440214,-122.368456,155.14094853663445,28.635252,0.1,320.41098,1626296069999
Fix,GT,37.5442193,-122.3686607,155.2979441999793,28.334549,0.1,320.37283,1626296070999
Fix,GT,37.5444157,-122.3688644,155.44894415193795,28.236778,0.1,320.398,1626296071999
Fix,GT,37.5446112,-122.3690667,155.61990970629455,27.966171,0.1,320.46762,1626296072999
Fix,GT,37.544805,-122.3692659,155.7999311466217,27.61745,0.1,320.75345,1626296073999
Fix,GT,37.5449962,-122.3694625,155.97391385817525,27.246777,0.1,320.51593,1626296074999
Fix,GT,37.5451857,-122.3696553,156.11393964898588,26.888058,0.1,321.64215,1626296075999
Fix,GT,37.5453764,-122.3698394,156.2569309682846,26.536184,0.1,323.435,1626296076999
Fix,GT,37.5455688,-122.3700143,156.385,26.170097,0.1,324.5309,1626296077999
Fix,GT,37.5457611,-122.3701822,156.54691788554192,25.81178,0.1,325.4977,1626296078999
Fix,GT,37.5459519,-122.3703454,156.78585293269157,25.416603,0.1,325.5068,1626296079999
Fix,GT,37.5461389,-122.3705064,157.19279219532012,24.92947,0.1,325.6369,1626296080999
Fix,GT,37.5463229,-122.3706637,157.6737400224209,24.468866,0.1,325.5589,1626296081999
Fix,GT,37.546504,-122.3708177,157.95292627686263,24.099451,0.1,325.76157,1626296082999
Fix,GT,37.546682,-122.3709708,158.03201302087308,23.805925,0.1,325.16763,1626296083999
Fix,GT,37.5468574,-122.3711238,157.87109556770326,23.553936,0.1,325.12097,1626296084999
Fix,GT,37.5470283,-122.3712725,157.691056519866,22.334513,0.1,325.35532,1626296085999
Fix,GT,37.5471864,-122.3714094,157.50108702754974,20.22404,0.1,325.28265,1626296086999
Fix,GT,37.5473276,-122.3715315,157.32104790514708,17.637169,0.1,325.58374,1626296087999
Fix,GT,37.5474482,-122.3716343,157.17906102192404,14.706785,0.1,325.8518,1626296088999
Fix,GT,37.5475464,-122.3717172,157.03998691260816,11.56298,0.1,325.89417,1626296089999
Fix,GT,37.5476183,-122.3717793,157.0269781692028,7.6328473,0.1,325.3289,1626296090999
Fix,GT,37.5476607,-122.3718165,157.11297378087045,3.9663868,0.1,325.09894,1626296091999
Fix,GT,37.5476788,-122.3718322,157.1520043734908,1.1249075,0.1,325.17554,1626296092999
Fix,GT,37.5476836,-122.3718365,157.14800437718628,0.6561307,0.1,325.01526,1626296093999
Fix,GT,37.5476932,-122.3718463,157.1519912381172,2.4414527,0.1,322.9712,1626296094999
Fix,GT,37.5477154,-122.3718786,157.25495176899432,4.7656465,0.1,310.13992,1626296095999
Fix,GT,37.5477287,-122.3719372,157.3759605050087,5.5995045,0.1,280.67682,1626296096999
Fix,GT,37.5477121,-122.3720062,157.41999560797214,6.8273826,0.1,247.022,1626296097999
Fix,GT,37.5476697,-122.3720743,157.43500879132748,8.366941,0.1,230.18121,1626296098999
Fix,GT,37.5476143,-122.3721552,157.43597800320387,10.433276,0.1,229.25696,1626296099999
Fix,GT,37.5475484,-122.3722521,157.51597358131406,11.963059,0.1,229.53139,1626296100999
Fix,GT,37.5474775,-122.3723576,157.56998237276076,12.184744,0.1,229.83606,1626296101999
Fix,GT,37.5474075,-122.3724619,157.65597794747353,11.919437,0.1,229.6159,1626296102999
Fix,GT,37.5473387,-122.372563,157.71695585858822,11.534146,0.1,229.22214,1626296103999
Fix,GT,37.5472741,-122.3726576,157.84092047894,10.274495,0.1,229.44348,1626296104999
Fix,GT,37.5472194,-122.3727382,157.980942520082,8.435546,0.1,229.33974,1626296105999
Fix,GT,37.547173,-122.372802,158.1639070702195,7.0508847,0.1,225.48099,1626296106999
Fix,GT,37.5471202,-122.3728427,158.36990256500243,6.7031403,0.1,206.46278,1626296107999
Fix,GT,37.5470569,-122.3728565,158.51497783720492,7.571738,0.1,184.79572,1626296108999
Fix,GT,37.5469827,-122.3728351,158.4129778187275,9.088667,0.1,160.03302,1626296109999
Fix,GT,37.546907,-122.3727783,158.48002220004798,10.560921,0.1,145.17792,1626296110999
Fix,GT,37.5468279,-122.3726938,158.57095556294917,12.401808,0.1,138.31781,1626296111999
Fix,GT,37.5467383,-122.3725926,158.66293328988556,14.385527,0.1,137.97318,1626296112999
Fix,GT,37.5466353,-122.3724758,158.75596439170835,16.424227,0.1,137.66614,1626296113999
Fix,GT,37.5465194,-122.3723436,158.8199688168764,18.330784,0.1,137.75906,1626296114999
Fix,GT,37.5463907,-122.3721978,158.90894204044343,20.142181,0.1,137.84888,1626296115999
Fix,GT,37.5462508,-122.372039,158.96798215174675,21.714006,0.1,137.87125,1626296116999
Fix,GT,37.5461,-122.3718682,158.9250312603116,23.409018,0.1,137.80359,1626296117999
Fix,GT,37.5459379,-122.371684,158.64416983926296,25.102934,0.1,137.76172,1626296118999
Fix,GT,37.5457646,-122.3714894,158.11825496953725,26.455978,0.1,138.71246,1626296119999
Fix,GT,37.5455785,-122.3712907,157.3733670964241,27.75631,0.1,140.57916,1626296120999
Fix,GT,37.5453789,-122.3710901,156.52138532650469,28.957052,0.1,141.74341,1626296121999
Fix,GT,37.5451692,-122.3708841,155.6603990970254,30.10897,0.1,141.8736,1626296122999
Fix,GT,37.5449539,-122.3706714,154.79541737765072,30.60963,0.1,141.5791,1626296123999
Fix,GT,37.5447376,-122.3704555,153.94636831831932,30.630013,0.1,141.68646,1626296124999
Fix,GT,37.5445215,-122.3702415,153.05236412596702,30.478264,0.1,141.50754,1626296125999
Fix,GT,37.5443052,-122.3700289,152.20543640476467,30.560373,0.1,142.20953,1626296126999
Fix,GT,37.5440863,-122.3698164,151.38040074151752,30.861008,0.1,142.24963,1626296127999
Fix,GT,37.5438646,-122.3696028,150.65130643582344,31.134615,0.1,142.68457,1626296128999
Fix,GT,37.5436399,-122.3693902,149.93432472753523,31.310595,0.1,143.1499,1626296129999
Fix,GT,37.543414,-122.3691776,149.3802617969513,31.357437,0.1,143.27496,1626296130999
Fix,GT,37.5431868,-122.368966,148.76727556359768,31.43635,0.1,143.40103,1626296131999
Fix,GT,37.5429587,-122.368754,148.1672712714672,31.53575,0.1,143.5299,1626296132999
Fix,GT,37.5427297,-122.3685423,147.57226244342326,31.602978,0.1,143.81244,1626296133999
Fix,GT,37.5424986,-122.3683327,146.96827171492575,31.70632,0.1,144.32108,1626296134999
Fix,GT,37.5422646,-122.3681257,146.3542809975147,31.826956,0.1,145.24176,1626296135999
Fix,GT,37.5420274,-122.3679221,145.7432630829811,31.951944,0.1,145.9986,1626296136999
Fix,GT,37.5417871,-122.3677218,145.1302723765373,32.087116,0.1,146.71863,1626296137999
Fix,GT,37.5415442,-122.3675244,144.51227259826658,32.129807,0.1,147.3598,1626296138999
Fix,GT,37.5412994,-122.3673302,143.89828191030026,32.17112,0.1,148.0411,1626296139999
Fix,GT,37.5410515,-122.3671407,143.29127758878468,32.281483,0.1,149.18182,1626296140999
Fix,GT,37.5407997,-122.3669551,142.67230514419077,32.53831,0.1,149.8407,1626296141999
Fix,GT,37.5405445,-122.3667713,142.0582506947517,32.789482,0.1,150.44293,1626296142999
Fix,GT,37.5402856,-122.3665905,141.4193102011681,32.93338,0.1,151.3371,1626296143999
Fix,GT,37.5400244,-122.3664128,140.69834697175028,33.021435,0.1,151.578,1626296144999
Fix,GT,37.5397627,-122.3662354,139.87737923640012,32.93587,0.1,151.63605,1626296145999
Fix,GT,37.5395022,-122.3660593,138.94144356244803,32.729126,0.1,151.5545,1626296146999
Fix,GT,37.5392437,-122.3658836,137.9244759626389,32.50567,0.1,151.40302,1626296147999
Fix,GT,37.538987,-122.365709,136.79053131008146,32.32974,0.1,151.71002,1626296148999
Fix,GT,37.5387307,-122.3655369,135.57264174532892,32.188065,0.1,151.74243,1626296149999
Fix,GT,37.5384757,-122.3653644,134.30159179919957,32.07064,0.1,151.49182,1626296150999
Fix,GT,37.5382219,-122.3651922,132.99958768463134,31.9656,0.1,151.49652,1626296151999
Fix,GT,37.537969,-122.3650204,131.6995743727088,31.865105,0.1,151.49396,1626296152999
Fix,GT,37.5377171,-122.364849,130.42059782028196,31.75683,0.1,151.6759,1626296153999
Fix,GT,37.5374646,-122.3646788,129.13453387522696,31.911474,0.1,151.73267,1626296154999
Fix,GT,37.5372105,-122.3645066,127.8665757585168,32.166718,0.1,151.48138,1626296155999
Fix,GT,37.5369549,-122.3643323,126.56463153761624,32.40094,0.1,151.47638,1626296156999
Fix,GT,37.5366973,-122.3641575,125.2725766823888,32.538822,0.1,151.73431,1626296157999
Fix,GT,37.5364387,-122.3639843,123.96461407363414,32.489983,0.1,151.76797,1626296158999
Fix,GT,37.5361815,-122.3638102,122.6735775988102,32.382473,0.1,151.56177,1626296159999
Fix,GT,37.5359251,-122.3636363,121.37360580766202,32.315903,0.1,151.56128,1626296160999
Fix,GT,37.5356692,-122.3634623,120.0825877790451,32.280678,0.1,151.48816,1626296161999
Fix,GT,37.5354134,-122.3632891,118.80259750443696,32.247078,0.1,151.70471,1626296162999
Fix,GT,37.5351574,-122.3631166,117.51158871769904,32.23852,0.1,151.57297,1626296163999
Fix,GT,37.5349014,-122.3629443,116.16766341531276,32.23465,0.1,152.1308,1626296164999
Fix,GT,37.5346435,-122.3627769,114.85060822820664,32.20413,0.1,153.16504,1626296165999
Fix,GT,37.5343833,-122.3626169,113.55061335897445,32.14856,0.1,154.50952,1626296166999
Fix,GT,37.5341204,-122.3624653,112.2446045383215,32.085293,0.1,156.0,1626296167999
Fix,GT,37.5338553,-122.3623217,110.9666096727252,32.015095,0.1,157.05426,1626296168999
Fix,GT,37.5335889,-122.3621839,109.75556823766232,31.950027,0.1,158.32593,1626296169999
Fix,GT,37.5333207,-122.3620541,108.63451275193692,31.871393,0.1,159.52374,1626296170999
Fix,GT,37.5330508,-122.3619329,107.59944318795203,31.751076,0.1,160.93896,1626296171999
Fix,GT,37.5327804,-122.3618184,106.67744353336096,31.625998,0.1,161.45618,1626296172999
Fix,GT,37.5325107,-122.3617051,105.71850929898024,31.492975,0.1,161.44507,1626296173999
Fix,GT,37.532242,-122.3615916,104.76647229248286,31.41335,0.1,161.26526,1626296174999
Fix,GT,37.5319746,-122.3614776,103.83040246784688,31.260225,0.1,161.01288,1626296175999
Fix,GT,37.5317089,-122.3613631,102.87346366596222,31.086514,0.1,160.97198,1626296176999
Fix,GT,37.5314449,-122.3612498,101.96544997024536,30.859526,0.1,161.10663,1626296177999
Fix,GT,37.5311828,-122.3611375,101.06141279792786,30.621796,0.1,161.08325,1626296178999
Fix,GT,37.5309225,-122.361026,100.12345538014172,30.44356,0.1,161.22021,1626296179999
Fix,GT,37.5306633,-122.3609157,99.13440875524284,30.279757,0.1,161.14056,1626296180999
Fix,GT,37.530406,-122.3608051,98.32945138931274,30.04831,0.1,160.96753,1626296181999
Fix,GT,37.5301512,-122.3606954,97.4014329214096,29.688105,0.1,161.17194,1626296182999
Fix,GT,37.5299007,-122.3605899,96.49632494604587,28.967934,0.1,161.67047,1626296183999
Fix,GT,37.5296565,-122.3604869,95.69133934020996,28.18721,0.1,161.06482,1626296184999
Fix,GT,37.5294194,-122.3603849,94.8703773355484,27.506401,0.1,161.18677,1626296185999
Fix,GT,37.5291868,-122.3602853,94.04338236123324,27.067125,0.1,160.91357,1626296186999
Fix,GT,37.5289575,-122.3601864,93.21637793159483,26.7682,0.1,160.92493,1626296187999
Fix,GT,37.5287302,-122.3600885,92.47933094882966,26.591776,0.1,161.17407,1626296188999
Fix,GT,37.5285035,-122.3599934,91.86922238218784,26.474106,0.1,161.65942,1626296189999
Fix,GT,37.5282773,-122.3599013,91.4301894068718,26.323856,0.1,162.50208,1626296190999
Fix,GT,37.5280507,-122.3598153,91.10617059922218,26.239897,0.1,163.61963,1626296191999
Fix,GT,37.5278239,-122.359735,91.08089092105628,26.073397,0.1,164.71967,1626296192999
Fix,GT,37.527598,-122.3596582,91.38576743042468,25.856924,0.1,165.05853,1626296193999
Fix,GT,37.527374,-122.3595821,91.88875774931908,25.661713,0.1,164.6029,1626296194999
Fix,GT,37.5271523,-122.3595022,92.30782886648178,25.543026,0.1,163.44177,1626296195999
Fix,GT,37.5269337,-122.3594183,92.69584300762416,25.17215,0.1,162.65259,1626296196999
Fix,GT,37.5267198,-122.3593325,93.18677623111007,24.649733,0.1,161.96454,1626296197999
Fix,GT,37.5265123,-122.3592439,93.60281894004343,23.936321,0.1,159.98572,1626296198999
Fix,GT,37.5263157,-122.3591482,93.9588426437378,22.748804,0.1,157.55981,1626296199999
Fix,GT,37.5261333,-122.3590498,94.1579331893921,21.33131,0.1,156.08618,1626296200999
Fix,GT,37.5259634,-122.3589554,94.30093313848973,19.899454,0.1,155.84137,1626296201999
Fix,GT,37.5258068,-122.3588684,94.33689963012934,17.834066,0.1,156.53296,1626296202999
Fix,GT,37.5256698,-122.3587932,94.31901434963942,15.387351,0.1,155.92749,1626296203999
Fix,GT,37.5255524,-122.3587279,94.2740718036294,13.101965,0.1,156.17664,1626296204999
Fix,GT,37.5254536,-122.358674,94.17603353381158,10.816178,0.1,156.20544,1626296205999
Fix,GT,37.5253736,-122.3586297,94.10009109055994,8.58694,0.1,156.08063,1626296206999
Fix,GT,37.5253121,-122.358596,93.99703838396071,6.329969,0.1,156.2948,1626296207999
Fix,GT,37.5252693,-122.3585726,93.92702881014348,4.3471828,0.1,156.20178,1626296208999
Fix,GT,37.5252363,-122.3585536,93.858,3.8873372,0.1,154.97949,1626296209999
Fix,GT,37.5252054,-122.358535,93.8490384721756,3.735021,0.1,154.36816,1626296210999
Fix,GT,37.5251751,-122.358517,93.78901443815232,3.7152538,0.1,154.59686,1626296211999
Fix,GT,37.5251436,-122.3584987,93.79104334771633,3.9144917,0.1,154.66565,1626296212999
Fix,GT,37.5251152,-122.3584826,93.75801928043364,2.6571062,0.1,155.43451,1626296213999
Fix,GT,37.5250991,-122.3584737,93.70202411872148,1.6000097,0.1,155.64459,1626296214999
Fix,GT,37.5250836,-122.3584646,93.67003379249572,2.42998,0.1,155.16656,1626296215999
Fix,GT,37.5250579,-122.3584461,93.65103381836414,4.124632,0.1,149.75287,1626296216999
Fix,GT,37.5250222,-122.35841,93.54303384423255,5.8953624,0.1,139.72037,1626296217999
Fix,GT,37.5249818,-122.3583537,93.42105806303024,7.3667636,0.1,129.74524,1626296218999
Fix,GT,37.52494,-122.3582797,93.50390315556528,8.532927,0.1,123.79938,1626296219999
Fix,GT,37.5248963,-122.3581918,93.77684008473156,9.717765,0.1,121.85333,1626296220999
Fix,GT,37.5248473,-122.3580938,94.3406653767228,10.71837,0.1,122.08621,1626296221999
Fix,GT,37.52479,-122.3579881,95.019650557518,11.891451,0.1,125.19501,1626296222999
Fix,GT,37.5247222,-122.3578776,95.64472314739228,12.791951,0.1,129.09836,1626296223999
Fix,GT,37.524645,-122.3577654,96.39065489035846,13.403807,0.1,131.4465,1626296224999
Fix,GT,37.524562,-122.3576565,96.97981515300276,13.16885,0.1,134.7652,1626296225999
Fix,GT,37.5244768,-122.3575593,97.64163489323856,12.4184065,0.1,139.55762,1626296226999
Fix,GT,37.5243873,-122.3574767,98.30558589822051,12.421985,0.1,145.73547,1626296227999
Fix,GT,37.5242888,-122.3574043,99.17356607687474,13.017388,0.1,151.71436,1626296228999
Fix,GT,37.5241806,-122.357343,99.98361454504727,13.215695,0.1,158.11224,1626296229999
Fix,GT,37.524069,-122.3572963,100.90353612715003,12.837435,0.1,163.12122,1626296230999
Fix,GT,37.523961,-122.3572589,101.75661884772778,12.040485,0.1,164.94324,1626296231999
Fix,GT,37.5238603,-122.3572223,102.52261855947972,11.265185,0.1,162.22717,1626296232999
Fix,GT,37.5237642,-122.3571812,103.23863785147668,11.384283,0.1,161.23169,1626296233999
Fix,GT,37.5236644,-122.3571418,103.9066963454485,11.8642,0.1,163.19672,1626296234999
Fix,GT,37.5235617,-122.3571063,104.4737451298237,11.660113,0.1,165.13257,1626296235999
Fix,GT,37.5234623,-122.3570749,104.93979889315366,11.080802,0.1,165.883,1626296236999
Fix,GT,37.5233689,-122.3570461,105.30585273778438,10.09426,0.1,166.1789,1626296237999
Fix,GT,37.5232895,-122.3570213,105.46296070098876,7.9508624,0.1,165.89587,1626296238999
Fix,GT,37.5232323,-122.357003,105.52896558749676,5.141163,0.1,165.59064,1626296239999
Fix,GT,37.5231997,-122.3569924,105.53701967906952,2.48819,0.1,165.36389,1626296240999
Fix,GT,37.5231854,-122.3569876,105.52400492346288,0.85834473,0.1,165.23376,1626296241999
Fix,GT,37.5231827,-122.3569867,105.51301970887184,0.009267834,0.1,165.21088,1626296242999
Fix,GT,37.5231827,-122.3569867,105.513,0.0029921806,0.1,165.21216,1626296243999
Fix,GT,37.5231827,-122.3569867,105.513,0.0041183643,0.1,165.2085,1626296244999
Fix,GT,37.5231818,-122.3569865,105.507,0.37266627,0.1,165.20245,1626296245999
Fix,GT,37.5231752,-122.3569843,105.504,1.1091217,0.1,165.13586,1626296246999
Fix,GT,37.5231629,-122.35698,105.4940098911524,1.7311724,0.1,164.82281,1626296247999
Fix,GT,37.5231436,-122.3569705,105.47900989854335,2.8874598,0.1,159.76367,1626296248999
Fix,GT,37.5231174,-122.3569449,105.45600495302678,4.296534,0.1,142.25128,1626296249999
Fix,GT,37.5230939,-122.356894,105.41702974033356,5.8650255,0.1,117.5,1626296250999
Fix,GT,37.5230837,-122.3568193,105.32994543540478,7.26241,0.1,96.32541,1626296251999
Fix,GT,37.5230828,-122.3567314,105.63477661758662,8.095714,0.1,89.98523,1626296252999
Fix,GT,37.5230842,-122.3566359,106.27662245106696,8.799886,0.1,88.77411,1626296253999
Fix,GT,37.5230863,-122.3565332,107.16353268420696,9.411389,0.1,88.571045,1626296254999
Fix,GT,37.5230881,-122.3564218,108.1566169142127,10.257485,0.1,89.12897,1626296255999
Fix,GT,37.5230899,-122.3563022,109.08143240594865,10.912287,0.1,88.63785,1626296256999
Fix,GT,37.5230923,-122.3561752,110.16242700892688,11.535277,0.1,88.58862,1626296257999
Fix,GT,37.5230947,-122.3560431,111.3024565013051,11.540805,0.1,88.78577,1626296258999
Fix,GT,37.5230968,-122.3559179,112.38150100779534,10.586036,0.1,88.71887,1626296259999
Fix,GT,37.5230988,-122.355804,113.3375555680394,9.542526,0.1,88.82843,1626296260999
Fix,GT,37.5231005,-122.3557026,114.100665184021,8.311725,0.1,88.69629,1626296261999
Fix,GT,37.5231024,-122.3556163,114.66474994659424,7.014875,0.1,88.22943,1626296262999
Fix,GT,37.5231058,-122.3555426,115.07980982124803,6.0665865,0.1,85.60611,1626296263999
Fix,GT,37.5231168,-122.3554796,115.43013579446963,5.3441586,0.1,74.92142,1626296265000
Fix,GT,37.5231441,-122.3554246,115.6360454295734,5.9718647,0.1,54.53473,1626296266000
Fix,GT,37.5231914,-122.3553807,115.7440260528964,6.9032054,0.1,31.528656,1626296267000
Fix,GT,37.5232566,-122.355362,115.71885621183738,7.563044,0.1,6.554596,1626296268000
Fix,GT,37.5233268,-122.3553815,115.26666168427374,8.514427,0.1,341.56097,1626296269000
Fix,GT,37.5234018,-122.3554349,114.54954590099352,10.587091,0.099,326.6707,1626296270000
Fix,GT,37.5234851,-122.3555182,113.51336798630888,12.9493475,0.1,319.51285,1626296271000
Fix,GT,37.5235811,-122.3556239,112.24037787506172,15.381982,0.1,318.41217,1626296272000
Fix,GT,37.5236924,-122.3557491,110.94537401052006,17.686686,0.1,317.95502,1626296273000
Fix,GT,37.5238177,-122.3558899,109.72839876587317,19.672821,0.1,318.16333,1626296274000
Fix,GT,37.5239571,-122.3560438,108.47633542289816,21.60613,0.1,318.83347,1626296275000
Fix,GT,37.5241096,-122.356211,107.096306818509,23.283531,0.1,318.7695,1626296276000
Fix,GT,37.5242721,-122.3563901,105.70637822039424,24.676155,0.1,318.64957,1626296277000
Fix,GT,37.5244425,-122.3565781,104.50554131954814,25.59493,0.1,318.8636,1626296278000
Fix,GT,37.5246202,-122.3567684,103.67257473841543,26.224764,0.1,320.40744,1626296279000
Fix,GT,37.5248063,-122.3569586,102.9506013208106,27.101017,0.1,321.47235,1626296280000
Fix,GT,37.5250027,-122.3571499,102.07657652056636,28.060774,0.1,322.6009,1626296281000
Fix,GT,37.5252046,-122.3573427,101.16153693115524,28.199162,0.1,322.41187,1626296282000
Fix,GT,37.5254034,-122.3575414,100.13547278437716,28.19473,0.1,321.0399,1626296283000
Fix,GT,37.5256001,-122.3577432,99.06343339660484,28.162128,0.1,320.2915,1626296284000
Fix,GT,37.5257948,-122.3579473,97.9505513973385,28.13437,0.1,320.00412,1626296285000
Fix,GT,37.5259918,-122.358148,96.868433359785,28.304531,0.099,322.11685,1626296286000
Fix,GT,37.5261991,-122.35834,95.68641376186162,28.975075,0.1,324.94537,1626296287000
Fix,GT,37.5264197,-122.3585234,94.48339998933672,29.787834,0.1,327.80444,1626296288000
Fix,GT,37.5266531,-122.3586991,93.30847942465728,30.627542,0.1,330.13107,1626296289000
Fix,GT,37.5268982,-122.3588663,92.32355778316594,31.301598,0.1,332.77762,1626296290000
Fix,GT,37.5271539,-122.3590233,91.56368992124727,31.882862,0.1,334.95862,1626296291000
Fix,GT,37.527419,-122.3591685,91.03581692656547,32.36441,0.1,337.6944,1626296292000
Fix,GT,37.527693,-122.359301,90.79600332373334,32.814922,0.099,339.87473,1626296293000
Fix,GT,37.5279733,-122.3594245,91.00912988696808,33.13369,0.1,341.31177,1626296294000
Fix,GT,37.5282575,-122.3595452,91.33714981338755,33.470783,0.099,341.31714,1626296295000
Fix,GT,37.5285445,-122.3596659,91.7952711890121,33.68815,0.1,341.45465,1626296296000
Fix,GT,37.5288328,-122.3597872,92.5094119051639,33.787613,0.099,341.2586,1626296297000
Fix,GT,37.5291214,-122.3599097,93.44652383318542,33.795834,0.1,341.23236,1626296298000
Fix,GT,37.5294091,-122.3600314,94.50749496059912,33.60054,0.1,341.27832,1626296299000
Fix,GT,37.5296951,-122.3601527,95.50846981284162,33.423553,0.1,341.23676,1626296300000
Fix,GT,37.5299791,-122.3602721,96.44445931485016,32.946846,0.1,341.27478,1626296301000
Fix,GT,37.5302571,-122.360391,97.46048275999723,32.21032,0.099,340.92694,1626296302000
Fix,GT,37.5305286,-122.3605072,98.45944895529746,31.470608,0.1,341.22495,1626296303000
Fix,GT,37.5307945,-122.3606198,99.29731724918727,30.88654,0.099,341.20093,1626296304000
Fix,GT,37.5310562,-122.3607311,100.25050644635688,30.503672,0.1,341.0908,1626296305000
Fix,GT,37.5313152,-122.3608427,101.18848240395636,30.27233,0.1,340.84872,1626296306000
Fix,GT,37.5315721,-122.3609538,102.07943801725284,30.043596,0.1,341.0432,1626296307000
Fix,GT,37.5318269,-122.361062,102.9633985216897,29.583431,0.1,341.34836,1626296308000
Fix,GT,37.5320769,-122.3611663,103.85638327002523,28.912825,0.099,341.6194,1626296309000
Fix,GT,37.5323217,-122.3612696,104.70841765407752,28.436478,0.1,340.9316,1626296310000
Fix,GT,37.5325628,-122.3613734,105.5804024018734,28.165401,0.1,340.8397,1626296311000
Fix,GT,37.5328016,-122.3614774,106.40638825390025,27.920717,0.1,340.84323,1626296312000
Fix,GT,37.5330381,-122.3615799,107.2894303285475,27.62602,0.099,340.8795,1626296313000
Fix,GT,37.5332722,-122.3616827,108.24348777285962,27.448921,0.1,340.73532,1626296314000
Fix,GT,37.5335056,-122.361783,109.25552643191256,27.334341,0.1,341.14014,1626296315000
Fix,GT,37.533738,-122.3618835,110.30050201420438,27.24167,0.1,340.62067,1626296316000
Fix,GT,37.53397,-122.3619847,111.35152028274722,27.279497,0.1,340.94812,1626296317000
Fix,GT,37.5342031,-122.3620844,112.44853562153176,27.424128,0.1,341.1671,1626296318000
Fix,GT,37.5344377,-122.3621861,113.55552911056112,27.661442,0.1,340.52792,1626296319000
Fix,GT,37.5346732,-122.3622922,114.67252334998456,27.850126,0.099,339.86566,1626296320000
Fix,GT,37.5349089,-122.3624034,115.79155324964972,28.033354,0.1,338.88843,1626296321000
Fix,GT,37.5351445,-122.3625193,116.92053219635784,28.138393,0.099,338.31616,1626296322000
Fix,GT,37.5353797,-122.3626384,118.05855256886127,28.11934,0.1,337.73715,1626296323000
Fix,GT,37.5356149,-122.3627609,119.18653729824722,28.429327,0.1,337.12268,1626296324000
Fix,GT,37.5358518,-122.3628886,120.31256019785162,28.78866,0.1,336.44305,1626296325000
Fix,GT,37.5360907,-122.3630209,121.46754017247632,29.158073,0.1,335.6741,1626296326000
Fix,GT,37.5363301,-122.3631585,122.63055478317013,29.220543,0.1,335.0297,1626296327000
Fix,GT,37.5365683,-122.3632982,123.74249193547432,29.126297,0.1,334.7915,1626296328000
Fix,GT,37.5368055,-122.3634387,124.7815065328018,29.08406,0.1,334.5146,1626296329000
Fix,GT,37.5370419,-122.36358,125.82648780166356,29.032745,0.1,334.57446,1626296330000
Fix,GT,37.5372781,-122.3637201,126.89952332654782,28.973734,0.1,334.64117,1626296331000
Fix,GT,37.537514,-122.3638598,128.04654257524663,28.919374,0.1,334.72046,1626296332000
Fix,GT,37.5377492,-122.364,129.19555574217625,28.903248,0.1,334.3992,1626296333000
Fix,GT,37.5379843,-122.3641404,130.35855302359815,28.838058,0.1,334.5223,1626296334000
Fix,GT,37.538219,-122.3642802,131.5075549280299,28.884407,0.1,334.4769,1626296335000
Fix,GT,37.5384544,-122.3644208,132.6675504734367,28.980843,0.099,334.44394,1626296336000
Fix,GT,37.5386905,-122.3645617,133.82854000385802,29.028101,0.1,334.54352,1626296337000
Fix,GT,37.5389269,-122.3647023,134.99053551936152,29.010721,0.1,334.56418,1626296338000
Fix,GT,37.5391625,-122.3648421,136.1545547081232,28.831749,0.1,334.60675,1626296339000
Fix,GT,37.5393962,-122.364982,137.30354559399373,28.625103,0.1,334.08322,1626296340000
Fix,GT,37.5396276,-122.3651225,138.44054922024625,28.440823,0.099,334.19455,1626296341000
Fix,GT,37.539858,-122.3652615,139.56952131047842,28.300783,0.1,334.15863,1626296342000
Fix,GT,37.5400873,-122.3653995,140.73856871093716,28.197014,0.1,334.42178,1626296343000
Fix,GT,37.5403168,-122.3655366,141.99559725230748,28.183119,0.1,334.55435,1626296344000
Fix,GT,37.540546,-122.3656737,143.27759142283534,28.1651,0.1,334.31824,1626296345000
Fix,GT,37.5407738,-122.3658134,144.5295621277699,28.075253,0.1,333.4762,1626296346000
Fix,GT,37.5409991,-122.3659566,145.66052029450702,27.986721,0.1,332.7199,1626296347000
Fix,GT,37.5412223,-122.366103,146.7705113342954,27.904543,0.1,331.9754,1626296348000
Fix,GT,37.5414433,-122.3662527,147.8755085294866,27.830248,0.1,331.17007,1626296349000
Fix,GT,37.5416626,-122.3664076,148.97952769556875,28.050848,0.1,330.03323,1626296350000
Fix,GT,37.5418815,-122.366569,150.07447987236085,28.303434,0.1,328.96298,1626296351000
Fix,GT,37.5421002,-122.3667371,151.07244300020395,28.59879,0.1,327.9217,1626296352000
Fix,GT,37.5423185,-122.3669126,151.97340646966595,28.937359,0.1,326.78326,1626296353000
Fix,GT,37.5425375,-122.3670947,152.78336322700417,29.46362,0.1,325.9994,1626296354000
Fix,GT,37.5427582,-122.3672842,153.5193156572366,29.614513,0.1,325.226,1626296355000
Fix,GT,37.5429751,-122.3674745,154.13527438739544,29.098589,0.1,324.69867,1626296356000
Fix,GT,37.5431866,-122.3676643,154.62519904059965,28.60824,0.1,324.29324,1626296357000
Fix,GT,37.543395,-122.3678524,154.98710215353967,28.428188,0.1,323.96658,1626296358000
Fix,GT,37.5436016,-122.3680442,155.10601939322655,28.648138,0.1,322.8879,1626296359000
Fix,GT,37.543807,-122.3682423,155.11197224678236,28.711885,0.1,321.8045,1626296360000
Fix,GT,37.5440084,-122.3684433,155.1470519577763,28.382463,0.099,320.9987,1626296361000
Fix,GT,37.5442055,-122.3686449,155.29805741087674,28.063837,0.1,320.43732,1626296362000
Fix,GT,37.5443995,-122.368846,155.44905663616677,27.747355,0.099,320.29324,1626296363000
Fix,GT,37.5445908,-122.3690445,155.6040882403292,27.315233,0.1,320.4369,1626296364000
Fix,GT,37.5447793,-122.3692394,155.78206904133222,26.891129,0.1,320.38736,1626296365000
Fix,GT,37.5449647,-122.3694315,155.94109596977572,26.4631,0.1,320.27216,1626296366000
Fix,GT,37.5451476,-122.36962,156.087061445035,26.052097,0.1,321.1615,1626296367000
Fix,GT,37.5453318,-122.3697986,156.22402839359455,25.654783,0.1,323.45596,1626296368000
Fix,GT,37.5455179,-122.3699672,156.35506149707734,25.257895,0.1,324.49744,1626296369000
Fix,GT,37.5457027,-122.3701298,156.47506992882117,24.860743,0.1,325.09595,1626296370000
Fix,GT,37.5458857,-122.3702885,156.68010294971614,24.511469,0.1,325.4146,1626296371000
Fix,GT,37.5460663,-122.3704443,157.01419567465783,24.110603,0.1,325.47662,1626296372000
Fix,GT,37.546244,-122.3705969,157.40723314633223,23.679531,0.1,325.60147,1626296373000
Fix,GT,37.5464187,-122.3707463,157.81012364629098,23.256115,0.1,325.64587,1626296374000
Fix,GT,37.5465904,-122.3708938,157.9860249362625,22.924675,0.1,325.39474,1626296375000
Fix,GT,37.5467596,-122.37104,157.956879115697,22.678013,0.1,325.2542,1626296376000
Fix,GT,37.546927,-122.3711852,157.7679075622037,22.47626,0.1,325.29105,1626296377000
Fix,GT,37.5470902,-122.3713266,157.5988582022786,21.246958,0.1,325.38684,1626296378000
Fix,GT,37.5472382,-122.371454,157.40392318225094,18.45895,0.1,325.55032,1626296379000
Fix,GT,37.5473644,-122.3715615,157.2449605834689,15.39716,0.1,326.09558,1626296380000
Fix,GT,37.547468,-122.3716478,157.12496908305772,12.182213,0.1,326.4609,1626296381000
Fix,GT,37.5475477,-122.3717146,156.99997910407836,9.164023,0.1,325.59,1626296382000
Fix,GT,37.5476059,-122.3717666,156.9610362020396,6.7536454,0.1,324.08133,1626296383000
Fix,GT,37.5476466,-122.3718045,157.0270367999021,4.5271816,0.1,323.48145,1626296384000
Fix,GT,37.5476714,-122.3718277,157.09801643749327,2.219675,0.099,323.2288,1626296385000
Fix,GT,37.5476796,-122.3718354,157.10799751259017,0.17884742,0.1,323.2057,1626296386000
Fix,GT,37.5476796,-122.3718354,157.09799384969193,0.0010098187,0.1,323.21194,1626296387000
Fix,GT,37.5476796,-122.3718354,157.09600241406636,0.0014179426,0.1,323.21063,1626296388000
Fix,GT,37.5476796,-122.3718354,157.09499546451028,0.001,0.099,323.21057,1626296389000
Fix,GT,37.5476796,-122.3718354,157.09599181245363,0.007864785,0.1,323.21017,1626296390000
Fix,GT,37.5476804,-122.3718361,157.08899423025548,0.4588355,0.1,323.1785,1626296391000
Fix,GT,37.5476901,-122.3718464,157.10400101093205,2.3987637,0.1,321.41647,1626296392000
Fix,GT,37.5477105,-122.371875,157.19205159034578,4.199033,0.1,311.81876,1626296393000
Fix,GT,37.5477252,-122.3719277,157.2990584766865,5.3102922,0.1,286.0944,1626296394000
Fix,GT,37.5477156,-122.3719942,157.37099453592953,6.30852,0.1,253.57613,1626296395000
Fix,GT,37.5476776,-122.3720594,157.38699541899095,7.798948,0.1,230.78996,1626296396000
Fix,GT,37.5476262,-122.3721349,157.3790188222588,9.717824,0.1,229.7684,1626296397000
Fix,GT,37.5475655,-122.3722258,157.44802868834233,11.250524,0.1,229.82442,1626296398000
Fix,GT,37.5474975,-122.3723266,157.50203242993402,11.819581,0.1,229.78691,1626296399000
Fix,GT,37.5474294,-122.3724279,157.5820405269116,11.608841,0.099,229.40375,1626296400000
Fix,GT,37.5473622,-122.3725268,157.64699955953938,11.364507,0.1,229.54536,1626296401000
Fix,GT,37.5472974,-122.372623,157.7420379416831,10.692677,0.1,229.82054,1626296402000
Fix,GT,37.5472399,-122.3727091,157.86709412306686,9.162779,0.1,229.96758,1626296403000
Fix,GT,37.5471901,-122.3727816,158.04007810651322,8.018844,0.099,227.60213,1626296404000
Fix,GT,37.5471327,-122.3728327,158.25611024298985,7.547464,0.1,208.52968,1626296405000
Fix,GT,37.5470629,-122.3728487,158.43202161664422,8.113513,0.1,183.92885,1626296406000
Fix,GT,37.546986,-122.3728289,158.3270479160752,9.15381,0.1,162.55798,1626296407000
Fix,GT,37.5469077,-122.3727789,158.4210085946694,10.331867,0.1,148.4809,1626296408000
Fix,GT,37.5468295,-122.3727,158.49702388060794,11.816075,0.1,138.38358,1626296409000
Fix,GT,37.5467455,-122.3726024,158.58207984165472,13.616608,0.1,137.56232,1626296410000
Fix,GT,37.5466482,-122.3724922,158.67703768875262,15.474678,0.1,138.00122,1626296411000
Fix,GT,37.546539,-122.3723673,158.7390296494849,17.229734,0.1,137.3974,1626296412000
Fix,GT,37.5464187,-122.3722304,158.81604385153392,18.730782,0.1,137.92361,1626296413000
Fix,GT,37.5462884,-122.3720828,158.8899983722437,20.24228,0.1,137.64685,1626296414000
Fix,GT,37.5461478,-122.3719232,158.86896982349828,21.862066,0.1,137.92578,1626296415000
Fix,GT,37.5459963,-122.371751,158.70584650768012,23.477901,0.1,137.61267,1626296416000
Fix,GT,37.5458342,-122.3715671,158.27078837452177,25.026188,0.1,138.33514,1626296417000
Fix,GT,37.5456589,-122.3713766,157.62468754144106,26.487263,0.1,139.87833,1626296418000
Fix,GT,37.5454691,-122.3711809,156.84164886391255,28.035736,0.1,141.02277,1626296419000
Fix,GT,37.5452658,-122.3709791,156.02463675901575,29.479876,0.1,141.98993,1626296420000
Fix,GT,37.5450525,-122.3707689,155.1346981416745,30.570387,0.1,141.48016,1626296421000
Fix,GT,37.5448377,-122.3705526,154.29857420218548,30.487692,0.1,141.21014,1626296422000
Fix,GT,37.5446242,-122.3703365,153.45260335468407,30.356838,0.1,140.8891,1626296423000
Fix,GT,37.5444122,-122.3701214,152.5877042592056,30.161871,0.1,141.0357,1626296424000
Fix,GT,37.5442008,-122.3699087,151.78866988633712,29.957058,0.099,141.19223,1626296425000
Fix,GT,37.5439906,-122.3696961,151.0216754229222,30.01321,0.1,140.97552,1626296426000
Fix,GT,37.5437781,-122.3694818,150.35672048266514,30.530039,0.1,141.69339,1626296427000
Fix,GT,37.5435581,-122.3692684,149.7337390524503,31.181236,0.099,142.53232,1626296428000
Fix,GT,37.5433325,-122.3690539,149.1447284803549,31.590736,0.1,143.09863,1626296429000
Fix,GT,37.5431031,-122.3688396,148.54172946834564,31.870914,0.1,143.30713,1626296430000
Fix,GT,37.5428715,-122.3686238,147.9247495484208,32.160404,0.1,143.6748,1626296431000
Fix,GT,37.542636,-122.368409,147.3196994801834,32.456486,0.099,144.18304,1626296432000
Fix,GT,37.5423974,-122.3681943,146.69572528939136,32.700043,0.1,144.578,1626296433000
Fix,GT,37.5421546,-122.3679824,146.06970887961612,32.947655,0.099,145.6789,1626296434000
Fix,GT,37.5419075,-122.3677741,145.43573027863542,33.121887,0.1,146.43658,1626296435000
Fix,GT,37.5416573,-122.3675682,144.79671824758873,33.27096,0.1,147.08716,1626296436000
Fix,GT,37.5414038,-122.367365,144.16872365759684,33.51568,0.1,147.94153,1626296437000
Fix,GT,37.5411449,-122.3671657,143.5187334062308,33.90285,0.1,148.77875,1626296438000
Fix,GT,37.5408811,-122.3669687,142.88172713274648,34.24002,0.1,149.77243,1626296439000
Fix,GT,37.5406127,-122.3667757,142.2267165084863,34.37429,0.1,150.5191,1626296440000
Fix,GT,37.5403423,-122.3665854,141.56470884404237,34.464287,0.1,151.09747,1626296441000
Fix,GT,37.5400694,-122.3663981,140.8316537471907,34.55457,0.1,151.45386,1626296442000
Fix,GT,37.5397959,-122.3662128,139.97959416029323,34.407707,0.1,151.59872,1626296443000
Fix,GT,37.5395241,-122.366028,139.01855335011894,34.212666,0.1,151.3872,1626296444000
Fix,GT,37.5392539,-122.3658437,137.95448527255843,34.052906,0.1,151.56372,1626296445000
Fix,GT,37.5389844,-122.365661,136.75944457658937,33.956013,0.1,151.68536,1626296446000
Fix,GT,37.538715,-122.3654795,135.46541555003822,33.902195,0.1,151.65063,1626296447000
Fix,GT,37.5384465,-122.3652976,134.12242735124704,33.830513,0.1,151.52707,1626296448000
Fix,GT,37.5381787,-122.3651152,132.73839706567304,33.76997,0.099,151.318,1626296449000
Fix,GT,37.5379117,-122.3649334,131.38141127460173,33.683437,0.1,151.67963,1626296450000
Fix,GT,37.5376447,-122.3647528,130.02839531165313,33.611504,0.1,151.50946,1626296451000
Fix,GT,37.5373783,-122.3645726,128.68941377288755,33.553307,0.1,151.66495,1626296452000
Fix,GT,37.5371123,-122.3643925,127.3523891548896,33.51511,0.1,151.47278,1626296453000
Fix,GT,37.5368472,-122.364212,126.0024161523981,33.42263,0.1,151.57007,1626296454000
Fix,GT,37.5365821,-122.3640333,124.67242714784342,33.41261,0.1,151.7313,1626296455000
Fix,GT,37.5363163,-122.3638542,123.32642402300613,33.537205,0.1,151.66931,1626296456000
Fix,GT,37.5360501,-122.3636732,121.98343373898835,33.62621,0.1,151.2981,1626296457000
Fix,GT,37.5357842,-122.3634915,120.63942339713404,33.57598,0.099,151.48279,1626296458000
Fix,GT,37.5355185,-122.363311,119.30742886904116,33.523697,0.1,151.47873,1626296459000
Fix,GT,37.5352526,-122.3631314,117.98241290504671,33.479668,0.099,151.76581,1626296460000
Fix,GT,37.5349867,-122.3629531,116.62038420751784,33.42348,0.1,151.92328,1626296461000
Fix,GT,37.5347205,-122.3627783,115.24144313842385,33.30654,0.1,153.00739,1626296462000
Fix,GT,37.5344516,-122.3626121,113.907443072218,33.232628,0.1,154.45862,1626296463000
Fix,GT,37.5341802,-122.3624545,112.56342288530058,33.152084,0.1,155.84119,1626296464000
Fix,GT,37.5339067,-122.3623048,111.23843986204778,33.061302,0.1,156.95776,1626296465000
Fix,GT,37.533632,-122.3621622,109.98147919536336,32.917236,0.1,158.0777,1626296466000
Fix,GT,37.5333563,-122.3620286,108.82352269637164,32.707893,0.1,159.5307,1626296467000
Fix,GT,37.5330796,-122.3619033,107.74358308169666,32.659,0.1,160.55634,1626296468000
Fix,GT,37.5328011,-122.3617828,106.78258184047417,32.722595,0.1,161.29828,1626296469000
Fix,GT,37.5325212,-122.3616651,105.79552353138476,32.773415,0.1,161.27246,1626296470000
Fix,GT,37.5322418,-122.3615461,104.80755519241607,32.696247,0.1,161.1272,1626296471000
Fix,GT,37.5319639,-122.3614269,103.83058152982036,32.462368,0.1,160.96484,1626296472000
Fix,GT,37.5316869,-122.3613086,102.83158669304382,32.56127,0.1,161.22437,1626296473000
Fix,GT,37.5314085,-122.3611898,101.87461715869232,32.690033,0.1,161.05286,1626296474000
Fix,GT,37.5311296,-122.3610695,100.91659795120452,32.78514,0.1,161.06067,1626296475000
Fix,GT,37.5308494,-122.3609505,99.88853487978176,32.89829,0.1,161.41614,1626296476000
Fix,GT,37.5305684,-122.3608331,98.93957276962604,32.752876,0.099,161.61023,1626296477000
Fix,GT,37.5302889,-122.3607199,97.9525946918861,32.449398,0.1,162.60461,1626296478000
Fix,GT,37.5300109,-122.3606122,96.8365484414734,32.118626,0.1,162.89557,1626296479000
Fix,GT,37.5297359,-122.3605049,95.97058717177808,31.795542,0.1,162.35016,1626296480000
Fix,GT,37.5294641,-122.3603955,95.03959642262755,31.548117,0.1,162.04718,1626296481000
Fix,GT,37.5291946,-122.360286,94.08156797803052,31.314375,0.1,161.7644,1626296482000
Fix,GT,37.5289277,-122.3601747,93.1236358723971,31.129171,0.1,161.33533,1626296483000
Fix,GT,37.5286628,-122.3600625,92.28069108924318,30.909367,0.1,161.34283,1626296484000
Fix,GT,37.5284021,-122.3599542,91.66777452151013,29.908026,0.1,162.00104,1626296485000
Fix,GT,37.5281501,-122.3598553,91.22691627199808,28.681803,0.1,163.10095,1626296486000
Fix,GT,37.5279061,-122.3597659,91.01502532921498,27.808819,0.1,164.22913,1626296487000
Fix,GT,37.5276684,-122.3596843,91.28408740866418,26.8779,0.1,165.0216,1626296488000
Fix,GT,37.5274387,-122.3596069,91.77812442785503,25.922785,0.099,164.67639,1626296489000
Fix,GT,37.5272178,-122.359528,92.21609982105343,25.14189,0.1,163.67053,1626296490000
Fix,GT,37.5270029,-122.3594467,92.58215940085611,24.661562,0.1,162.78711,1626296491000
Fix,GT,37.5267935,-122.3593628,93.01220963055546,24.04065,0.1,161.87177,1626296492000
Fix,GT,37.5265935,-122.3592789,93.42818918361888,22.608238,0.1,161.19476,1626296493000
Fix,GT,37.5264093,-122.359196,93.81708445003255,20.813038,0.1,158.99036,1626296494000
Fix,GT,37.5262441,-122.3591119,94.02507338409453,18.691038,0.099,156.78796,1626296495000
Fix,GT,37.5260976,-122.3590315,94.17498278667544,16.681211,0.1,156.04688,1626296496000
Fix,GT,37.5259694,-122.3589604,94.2830421422692,14.513077,0.1,156.03949,1626296497000
Fix,GT,37.5258578,-122.3588976,94.30495494872612,12.673061,0.1,155.5824,1626296498000
Fix,GT,37.5257605,-122.3588437,94.3249884950407,10.973791,0.1,156.07709,1626296499000
Fix,GT,37.5256758,-122.3587963,94.30696428820492,9.669046,0.1,155.91205,1626296500000
Fix,GT,37.5255985,-122.3587529,94.2869936909955,9.200581,0.1,155.63666,1626296501000
Fix,GT,37.5255266,-122.3587123,94.2379767916426,8.273141,0.1,155.69873,1626296502000
Fix,GT,37.5254632,-122.3586767,94.17497322598844,7.1002426,0.1,155.75568,1626296503000
Fix,GT,37.5254098,-122.3586468,94.11698610454518,5.8356137,0.1,155.72534,1626296504000
Fix,GT,37.5253675,-122.3586229,94.07599389146267,4.7371273,0.1,155.77844,1626296505000
Fix,GT,37.5253295,-122.3586018,94.00698621868528,4.38811,0.1,155.95026,1626296506000
Fix,GT,37.5252987,-122.3585846,93.95696940152811,3.0134892,0.1,155.98932,1626296507000
Fix,GT,37.525278,-122.3585729,93.92697760261969,2.2525353,0.099,155.80347,1626296508000
Fix,GT,37.5252604,-122.3585632,93.90299855700928,2.0012736,0.1,155.61328,1626296509000
Fix,GT,37.5252457,-122.3585548,93.8729796076622,1.5353215,0.1,155.46155,1626296510000
Fix,GT,37.5252332,-122.3585476,93.86300052450038,1.6613712,0.1,155.42981,1626296511000
Fix,GT,37.5252181,-122.3585388,93.85598472960294,2.06433,0.1,155.34961,1626296512000
Fix,GT,37.5251974,-122.358527,93.8329761986346,2.8690703,0.1,155.40631,1626296513000
Fix,GT,37.5251715,-122.3585124,93.79300928044972,3.398813,0.1,155.46832,1626296514000
Fix,GT,37.5251416,-122.3584956,93.77197317805792,3.8294184,0.1,155.54224,1626296515000
Fix,GT,37.5251143,-122.3584801,93.73692088128344,2.4283338,0.1,155.39081,1626296516000
Fix,GT,37.5250984,-122.3584712,93.68699458209704,1.8568484,0.1,155.46326,1626296517000
Fix,GT,37.5250808,-122.358461,93.6560178897404,2.6320875,0.1,155.13513,1626296518000
Fix,GT,37.5250545,-122.3584429,93.622957585447,4.016998,0.099,150.6531,1626296519000
Fix,GT,37.5250206,-122.3584079,93.51592483034358,5.610548,0.1,139.3771,1626296520000
Fix,GT,37.5249824,-122.3583545,93.39998111708834,6.9062576,0.099,130.07751,1626296521000
Fix,GT,37.5249422,-122.3582858,93.45706251043732,8.009016,0.1,124.895966,1626296522000
Fix,GT,37.5249018,-122.3582048,93.69011947480962,8.906198,0.1,121.301544,1626296523000
Fix,GT,37.5248566,-122.3581124,94.17926112469472,10.260232,0.099,121.49991,1626296524000
Fix,GT,37.5248034,-122.3580096,94.84329273294658,11.424017,0.1,123.94766,1626296525000
Fix,GT,37.5247393,-122.3579002,95.51520835081162,12.58832,0.1,127.34091,1626296526000
Fix,GT,37.524665,-122.3577872,96.21436966603528,13.1574745,0.1,130.59772,1626296527000
Fix,GT,37.5245853,-122.35768,96.86821305464532,12.79936,0.1,134.02905,1626296528000
Fix,GT,37.524503,-122.3575832,97.41929179227353,12.403786,0.1,138.54968,1626296529000
Fix,GT,37.5244126,-122.357496,98.09126392186386,13.059101,0.1,144.62439,1626296530000
Fix,GT,37.5243099,-122.3574173,98.9743654791289,13.716371,0.1,150.81915,1626296531000
Fix,GT,37.5241968,-122.3573504,99.83931661110093,14.07652,0.1,157.30194,1626296532000
Fix,GT,37.5240773,-122.3572995,100.79141293886396,13.95056,0.1,163.2992,1626296533000
Fix,GT,37.5239566,-122.3572566,101.75034513098652,13.947157,0.1,164.31128,1626296534000
