MessageType,Provider,LatitudeDegrees,LongitudeDegrees,AltitudeMeters,SpeedMps,AccuracyMeters,BearingDegrees,UnixTimeMillis
Fix,GT,37.4843898,-122.1771755,-30.411,0.002,0.1,203.06697,1627415397439
Fix,GT,37.4843898,-122.1771755,-30.41199909365177,0.0016430976,0.1,203.06491,1627415398439
Fix,GT,37.4843898,-122.1771755,-30.412,0.0011618454,0.1,203.03395,1627415399439
Fix,GT,37.4843898,-122.1771755,-30.414781458973884,0.04827207,0.1,203.01578,1627415400439
Fix,GT,37.4843861,-122.177177,-30.425390729486946,0.8141489,0.1,201.9654,1627415401439
Fix,GT,37.4843763,-122.1771803,-30.43539072936773,1.427439,0.1,199.08827,1627415402439
Fix,GT,37.4843616,-122.1771841,-30.444609270632267,1.873622,0.1,194.869,1627415403439
Fix,GT,37.4843436,-122.1771872,-30.4731721881032,2.2536964,0.1,190.14275,1627415404439
Fix,GT,37.4843167,-122.1771897,-30.46939072936773,3.6937308,0.1,185.48528,1627415405439
Fix,GT,37.4842779,-122.1771933,-30.54334437584877,4.916647,0.1,184.0064,1627415406439
Fix,GT,37.484232,-122.177202,-30.53031124830246,4.9142017,0.1,190.94293,1627415407439
Fix,GT,37.4841984,-122.1772271,-30.488999091356995,3.9285889,0.1,213.77426,1627415408439
Fix,GT,37.4841843,-122.1772674,-30.48882690349221,3.8374119,0.1,245.90018,1627415409439
Fix,GT,37.4841893,-122.177314,-30.384092707514764,4.3211565,0.1,277.5654,1627415410439
Fix,GT,37.4842132,-122.1773565,-30.319654720664023,4.747778,0.1,306.5654,1627415411439
Fix,GT,37.4842521,-122.177383,-30.24092051821947,5.04513,0.1,334.29773,1627415412439
Fix,GT,37.4843002,-122.1773836,-30.2512648948431,5.6657534,0.1,2.4856873,1627415413439
Fix,GT,37.4843514,-122.1773605,-30.15345030707121,6.4620104,0.1,21.438019,1627415414439
Fix,GT,37.484408,-122.1773274,-30.07048343461752,7.4080987,0.1,25.011261,1627415415439
Fix,GT,37.484472,-122.1772897,-30.212755012512208,8.156004,0.1,25.12201,1627415416439
Fix,GT,37.4845397,-122.1772517,-30.19982691174745,8.034758,0.1,23.485748,1627415417439
Fix,GT,37.484602,-122.1772186,-30.11943708276749,6.828274,0.1,23.592804,1627415418439
Fix,GT,37.4846474,-122.1771826,-29.96413906216621,5.192193,0.1,36.785736,1627415419439
Fix,GT,37.484668,-122.177136,-29.79309182038903,4.336386,0.1,64.354004,1627415420439
Fix,GT,37.4846687,-122.1770899,-29.63396687567234,3.7219691,0.1,88.524445,1627415421439
Fix,GT,37.4846622,-122.1770518,-29.444966876745227,3.1684206,0.1,99.085266,1627415422439
Fix,GT,37.4846621,-122.1770153,-29.250013230025765,3.3598156,0.1,89.94229,1627415423439
Fix,GT,37.4846763,-122.1769774,-29.11812583208084,4.1243644,0.1,66.55609,1627415424439
Fix,GT,37.4847059,-122.1769413,-29.381800468444823,4.7560463,0.1,43.35901,1627415425439
Fix,GT,37.4847399,-122.1769171,-29.766112593770025,3.6543684,0.1,30.343262,1627415426439
Fix,GT,37.4847652,-122.1768994,-30.078363357812165,3.2767856,0.1,30.238129,1627415427439
Fix,GT,37.4847854,-122.1768715,-30.23250241720676,3.377324,0.1,47.562164,1627415428439
Fix,GT,37.4847946,-122.1768317,-30.13426400190592,3.7791798,0.1,72.1355,1627415429439
Fix,GT,37.4847906,-122.1767852,-30.075655629515648,4.419539,0.1,95.43915,1627415430439
Fix,GT,37.4847795,-122.1767326,-30.02943708634377,5.2094297,0.1,104.03848,1627415431439
Fix,GT,37.484767,-122.1766713,-30.00521764910221,5.974413,0.1,104.2059,1627415432439
Fix,GT,37.4847531,-122.1766018,-29.9894834458828,6.690729,0.1,104.07037,1627415433439
Fix,GT,37.4847374,-122.1765247,-29.95486003232002,7.373162,0.1,104.97095,1627415434439
Fix,GT,37.4847157,-122.1764417,-29.955000892728567,8.058773,0.1,108.05499,1627415435439
Fix,GT,37.4846921,-122.1763521,-29.93478145599365,8.611118,0.1,108.24228,1627415436439
Fix,GT,37.4846669,-122.1762572,-29.93138983595371,9.069786,0.1,108.08493,1627415437439
Fix,GT,37.484644,-122.1761564,-29.921217652320863,9.473337,0.1,104.96768,1627415438439
Fix,GT,37.4846218,-122.1760507,-29.903171292752027,9.833,0.1,104.5733,1627415439439
Fix,GT,37.4845994,-122.1759412,-29.886390727996822,10.158411,0.1,104.2742,1627415440439
Fix,GT,37.4845765,-122.175828,-29.875124934434893,10.475073,0.1,103.963165,1627415441439
Fix,GT,37.4845535,-122.1757116,-29.85761016181111,10.746384,0.1,103.85181,1627415442439
Fix,GT,37.4845299,-122.1755919,-29.88482692506909,11.039045,0.1,103.92407,1627415443439
Fix,GT,37.4845041,-122.1754697,-29.8990339974761,11.303355,0.1,105.15549,1627415444439
Fix,GT,37.4844754,-122.175346,-29.87478056585789,11.451591,0.1,106.57962,1627415445439
Fix,GT,37.4844451,-122.1752227,-29.91634436798096,11.356074,0.1,107.24921,1627415446439
Fix,GT,37.4844153,-122.1751009,-29.97217129033804,11.160906,0.1,106.41519,1627415447439
Fix,GT,37.4843875,-122.1749822,-30.01273420056701,10.494198,0.1,106.26425,1627415448439
Fix,GT,37.4843623,-122.1748757,-30.032345261693003,8.786784,0.1,106.49243,1627415449439
Fix,GT,37.4843439,-122.1747982,-30.105171286016702,5.501316,0.1,106.64789,1627415450439
Fix,GT,37.4843338,-122.1747563,-30.1423907276392,2.3846035,0.1,106.618225,1627415451439
Fix,GT,37.4843301,-122.1747408,-30.15139162611961,0.62583333,0.1,106.64029,1627415452439
Fix,GT,37.4843297,-122.1747394,-30.15838982883096,0.006753129,0.1,106.64734,1627415453439
Fix,GT,37.4843297,-122.1747394,-30.15900089880824,0.001914947,0.1,106.64981,1627415454439
Fix,GT,37.4843297,-122.1747394,-30.15899910119176,0.0029588717,0.1,106.64719,1627415455439
Fix,GT,37.4843297,-122.1747394,-30.15900089880824,0.0021438298,0.1,106.647125,1627415456439
Fix,GT,37.4843297,-122.1747394,-30.15860837370157,0.002236068,0.1,106.64703,1627415457439
Fix,GT,37.4843298,-122.1747394,-30.14761017104984,0.002236068,0.1,106.64694,1627415458439
Fix,GT,37.4843298,-122.1747394,-30.145,0.002236068,0.1,106.64685,1627415459439
Fix,GT,37.4843298,-122.1747394,-30.144999101608988,0.0017353345,0.1,106.64661,1627415460439
Fix,GT,37.4843298,-122.1747394,-30.145,0.002236068,0.1,106.646484,1627415461439
Fix,GT,37.4843298,-122.1747394,-30.144999101608988,0.002236068,0.1,106.64667,1627415462439
Fix,GT,37.4843298,-122.1747394,-30.145000898391007,0.0025969762,0.1,106.64676,1627415463439
Fix,GT,37.4843298,-122.1747394,-30.14599910157919,0.002236068,0.1,106.64661,1627415464439
Fix,GT,37.4843298,-122.1747394,-30.146,0.002467519,0.1,106.646545,1627415465439
Fix,GT,37.4843298,-122.1747394,-30.1459991015792,0.0022360678,0.1,106.64673,1627415466439
Fix,GT,37.4843298,-122.1747394,-30.14600089842081,0.002236068,0.1,106.6467,1627415467439
Fix,GT,37.4843298,-122.1747394,-30.1459991015792,0.0022360678,0.1,106.64642,1627415468439
Fix,GT,37.4843298,-122.1747394,-30.145610171228647,0.002236068,0.1,106.64642,1627415469439
Fix,GT,37.4843298,-122.1747394,-30.145,0.002,0.1,106.646484,1627415470439
Fix,GT,37.4843298,-122.1747394,-30.145000000000003,0.0021438298,0.1,106.64664,1627415471439
Fix,GT,37.4843298,-122.1747394,-30.1429991016686,0.002,0.1,106.646545,1627415472439
Fix,GT,37.4843298,-122.1747394,-30.141,0.002236068,0.1,106.646454,1627415473439
Fix,GT,37.4843297,-122.1747386,-30.14399910163879,0.32539254,0.1,106.65256,1627415474439
Fix,GT,37.4843272,-122.1747286,-30.15139072704315,1.5974183,0.1,106.45557,1627415475439
Fix,GT,37.4843225,-122.1747042,-30.16639162608981,2.8539038,0.1,104.37521,1627415476439
Fix,GT,37.4843197,-122.1746655,-30.14365473878384,3.991694,0.1,95.322754,1627415477439
Fix,GT,37.4843265,-122.1746155,-30.061312171161173,4.957898,0.1,79.456116,1627415478439
Fix,GT,37.4843515,-122.1745628,-30.044781454086305,5.882781,0.1,55.72281,1627415479439
Fix,GT,37.4843986,-122.1745224,-30.12507945156097,6.8058434,0.1,30.031158,1627415480439
Fix,GT,37.484459,-122.17449,-30.19917218112945,7.7465277,0.1,22.305756,1627415481439
Fix,GT,37.4845276,-122.1744575,-30.152436192810534,8.535706,0.1,20.607605,1627415482439
Fix,GT,37.4846027,-122.1744215,-30.11704546672106,9.214115,0.1,21.016418,1627415483439
Fix,GT,37.4846794,-122.1743835,-30.08282781851292,9.057654,0.1,21.637726,1627415484439
Fix,GT,37.4847537,-122.1743459,-30.049952740758656,8.672589,0.1,22.021576,1627415485439
Fix,GT,37.4848226,-122.1743111,-30.007092727184293,7.7353654,0.1,21.76947,1627415486439
Fix,GT,37.4848824,-122.1742812,-29.93756380140781,6.5454044,0.1,21.671417,1627415487439
Fix,GT,37.4849321,-122.1742562,-29.92721854519844,5.3215823,0.1,21.89624,1627415488439
Fix,GT,37.4849713,-122.1742363,-29.89326401659846,4.1023703,0.1,21.967163,1627415489439
Fix,GT,37.4850001,-122.1742218,-29.8564834523201,2.677659,0.1,21.948486,1627415490439
Fix,GT,37.4850157,-122.1742138,-29.829609272480013,1.1156317,0.1,21.947052,1627415491439
Fix,GT,37.4850197,-122.1742119,-29.82838983866572,0.023051564,0.1,21.955292,1627415492439
Fix,GT,37.4850197,-122.1742119,-29.83438983848692,0.001,0.1,21.957794,1627415493439
Fix,GT,37.4850197,-122.1742119,-29.836,0.0006092724,0.1,21.956055,1627415494439
Fix,GT,37.4850197,-122.1742119,-29.83500088915229,0.0013907277,0.1,21.956635,1627415495439
Fix,GT,37.4850197,-122.1742119,-29.83599911081791,0.001,0.1,21.956696,1627415496439
Fix,GT,37.4850197,-122.1742119,-29.836,0.001,0.1,21.956604,1627415497439
Fix,GT,37.4850197,-122.1742119,-29.83599911081791,0.001,0.1,21.956757,1627415498439
Fix,GT,37.4850197,-122.1742119,-29.83600088918209,0.0014142136,0.1,21.956848,1627415499439
Fix,GT,37.4850197,-122.1742119,-29.83600088918209,0.0003907278,0.1,21.957,1627415500439
Fix,GT,37.4850197,-122.1742119,-29.83599911081791,0.0,0.1,21.95691,1627415501439
Fix,GT,37.4850197,-122.1742119,-29.83600088918209,0.0006092723,0.1,21.956818,1627415502439
Fix,GT,37.4850197,-122.1742119,-29.83599911081791,0.0,0.1,21.956696,1627415503439
Fix,GT,37.4850197,-122.1742119,-29.83600088918209,0.001,0.1,21.956635,1627415504439
Fix,GT,37.4850197,-122.1742119,-29.83600088918209,0.0003907278,0.1,21.956451,1627415505439
Fix,GT,37.4850197,-122.1742119,-29.83599911081791,0.001,0.1,21.95639,1627415506439
Fix,GT,37.4850197,-122.1742119,-29.837,0.0014142136,0.1,21.95636,1627415507439
Fix,GT,37.4850197,-122.1742119,-29.83800088924169,0.0014142136,0.1,21.956451,1627415508439
Fix,GT,37.4850197,-122.1742119,-29.8389991107285,0.0039441497,0.1,21.956665,1627415509439
Fix,GT,37.4850218,-122.1742109,-29.84578234478831,0.76221085,0.1,21.94461,1627415510439
Fix,GT,37.4850354,-122.1742042,-29.825219433546067,2.4247897,0.1,21.546692,1627415511439
Fix,GT,37.4850619,-122.1741924,-29.7874362013042,3.7882714,0.1,19.623322,1627415512439
Fix,GT,37.4851003,-122.1741788,-29.71943620333076,5.097087,0.1,15.513336,1627415513439
Fix,GT,37.4851522,-122.1741667,-29.590312149971723,6.5649843,0.1,9.482483,1627415514439
Fix,GT,37.4852166,-122.1741627,-29.394841956943274,7.628273,0.1,0.35980225,1627415515439
Fix,GT,37.4852864,-122.1741766,-29.19253068113327,8.115881,0.1,347.0013,1627415516439
Fix,GT,37.4853543,-122.174217,-29.04465563344956,8.587845,0.1,328.92178,1627415517439
Fix,GT,37.4854103,-122.174288,-29.01951568695903,9.217161,0.1,309.03503,1627415518439
Fix,GT,37.4854517,-122.1743853,-29.07321767759323,10.360216,0.1,293.94318,1627415519439
Fix,GT,37.4854838,-122.1745022,-29.09995450732112,11.558278,0.1,287.5924,1627415520439
Fix,GT,37.4855168,-122.1746338,-29.12978058806062,12.814646,0.1,287.4705,1627415521439
Fix,GT,37.4855562,-122.1747766,-29.143782324820755,13.898306,0.1,289.94867,1627415522439
Fix,GT,37.485601,-122.1749299,-29.182516554653645,14.986433,0.1,289.95157,1627415523439
Fix,GT,37.4856471,-122.1750953,-29.20117218524217,15.997229,0.1,288.49258,1627415524439
Fix,GT,37.4856922,-122.1752728,-29.219826943457125,16.899372,0.1,286.92453,1627415525439
Fix,GT,37.4857365,-122.1754604,-29.20760840085149,17.709953,0.1,286.33545,1627415526439
Fix,GT,37.4857822,-122.1756555,-29.23717131510377,18.14795,0.1,286.29907,1627415527439
Fix,GT,37.4858282,-122.1758533,-29.24199912852049,18.262135,0.1,286.04468,1627415528439
Fix,GT,37.4858736,-122.1760522,-29.242343502819537,18.33535,0.1,285.89902,1627415529439
Fix,GT,37.4859194,-122.1762519,-29.264000000000003,18.433556,0.1,286.13782,1627415530439
Fix,GT,37.4859658,-122.1764527,-29.2771721881032,18.531155,0.1,286.01984,1627415531439
Fix,GT,37.4860118,-122.1766547,-29.27582693892717,18.641724,0.1,285.6235,1627415532439
Fix,GT,37.4860569,-122.1768584,-29.281344377994536,18.745691,0.1,285.24658,1627415533439
Fix,GT,37.4861012,-122.1770635,-29.30334525284171,18.849388,0.1,284.95682,1627415534439
Fix,GT,37.4861449,-122.1772695,-29.303171317070724,18.749863,0.1,284.6958,1627415535439
Fix,GT,37.4861875,-122.1774729,-29.29499912694097,18.43445,0.1,284.64514,1627415536439
Fix,GT,37.4862292,-122.1776724,-29.278092694401742,18.051847,0.1,284.61957,1627415537439
Fix,GT,37.48627,-122.1778678,-29.26878058940172,17.680573,0.1,284.562,1627415538439
Fix,GT,37.4863098,-122.1780593,-29.307390731036666,17.342194,0.1,284.5897,1627415539439
Fix,GT,37.4863496,-122.1782456,-29.298,16.640043,0.1,285.1929,1627415540439
Fix,GT,37.4863881,-122.1784195,-29.287781463027,15.176348,0.1,285.6422,1627415541439
Fix,GT,37.4864222,-122.1785752,-29.31442390215397,13.359114,0.1,284.7445,1627415542439
Fix,GT,37.4864501,-122.178712,-29.3141721957922,11.613501,0.1,284.03595,1627415543439
Fix,GT,37.4864719,-122.1788317,-29.31882867720723,10.236824,0.1,281.39917,1627415544439
Fix,GT,37.4864785,-122.1789427,-29.28204633796215,9.616563,0.1,268.66232,1627415545439
Fix,GT,37.4864572,-122.1790457,-29.29460926735401,9.333295,0.1,248.48157,1627415546439
Fix,GT,37.4864084,-122.1791331,-29.337860993266105,9.70561,0.1,228.77664,1627415547439
Fix,GT,37.4863359,-122.1791999,-29.43813900494576,10.364473,0.1,210.2064,1627415548439
Fix,GT,37.4862461,-122.1792502,-29.52734527954459,11.511628,0.1,202.57281,1627415549439
Fix,GT,37.4861445,-122.1793004,-29.500437066078185,12.701582,0.1,200.86743,1627415550439
Fix,GT,37.4860333,-122.1793532,-29.47682779920101,13.65365,0.1,200.92921,1627415551439
Fix,GT,37.4859157,-122.1794118,-29.41187412929535,14.3587475,0.1,201.93138,1627415552439
Fix,GT,37.4857939,-122.1794744,-29.3639213334322,14.857707,0.1,202.34117,1627415553439
Fix,GT,37.4856681,-122.1795399,-29.312530596256256,15.347854,0.1,202.59683,1627415554439
Fix,GT,37.4855389,-122.1796083,-29.204702794015407,15.741308,0.1,202.83449,1627415555439
Fix,GT,37.4854092,-122.1796778,-28.99562237215042,15.482735,0.1,203.50291,1627415556439
Fix,GT,37.4852838,-122.1797509,-28.709966776967047,15.248389,0.1,206.21951,1627415557439
Fix,GT,37.4851653,-122.1798356,-28.42266784450412,15.076757,0.1,211.78197,1627415558439
Fix,GT,37.4850545,-122.1799338,-28.18497986620665,15.0714035,0.1,217.41554,1627415559439
Fix,GT,37.4849526,-122.1800468,-27.90584088921547,15.149771,0.1,223.94743,1627415560439
Fix,GT,37.4848602,-122.1801745,-27.809185295820235,15.389427,0.1,230.05374,1627415561439
Fix,GT,37.4847776,-122.180317,-27.767483381509784,15.797689,0.1,236.68738,1627415562439
Fix,GT,37.4847066,-122.1804744,-27.761264850616456,16.19699,0.1,242.74678,1627415563439
Fix,GT,37.4846433,-122.1806399,-27.741907357454306,16.183186,0.1,244.86673,1627415564439
Fix,GT,37.4845829,-122.1808052,-27.896769228458403,15.982189,0.1,245.5548,1627415565439
Fix,GT,37.4845239,-122.1809688,-28.13589345228672,15.791336,0.1,245.43602,1627415566439
Fix,GT,37.4844639,-122.1811317,-28.49350270935893,16.019043,0.1,244.9697,1627415567439
Fix,GT,37.4844016,-122.1812985,-28.852940622568127,16.608204,0.1,244.75076,1627415568439
Fix,GT,37.4843392,-122.1814726,-28.940827790081503,17.119976,0.1,246.5973,1627415569439
Fix,GT,37.4842854,-122.1816562,-28.89709349402785,17.51496,0.1,252.03351,1627415570439
Fix,GT,37.4842463,-122.1818498,-28.707967590361832,17.819307,0.1,258.5578,1627415571439
Fix,GT,37.4842249,-122.1820518,-28.388277042806145,18.268734,0.1,265.12625,1627415572439
Fix,GT,37.4842214,-122.182261,-28.138370515346526,18.772491,0.1,271.3341,1627415573439
Fix,GT,37.484235,-122.182476,-27.874901022255425,19.387857,0.1,276.93076,1627415574439
Fix,GT,37.4842656,-122.1826957,-27.62440377688408,20.061617,0.1,282.18835,1627415575439
Fix,GT,37.4843111,-122.1829193,-27.53361008301377,20.802414,0.1,285.58762,1627415576439
Fix,GT,37.4843644,-122.1831484,-27.518516638338568,21.345682,0.1,286.62115,1627415577439
Fix,GT,37.4844205,-122.1833809,-27.57278147542477,21.561092,0.1,287.00952,1627415578439
Fix,GT,37.484478,-122.1836142,-27.62973516398668,21.662203,0.1,287.32166,1627415579439
Fix,GT,37.4845359,-122.1838497,-27.70895368915797,21.951416,0.1,286.52057,1627415580439
Fix,GT,37.4845895,-122.1840906,-27.80151664048433,22.287117,0.1,285.00616,1627415581439
Fix,GT,37.4846428,-122.1843359,-27.85917221367359,22.693348,0.1,285.97623,1627415582439
Fix,GT,37.4847016,-122.1845839,-27.9243907378912,23.049149,0.1,286.79633,1627415583439
Fix,GT,37.4847627,-122.1848346,-27.957609262108804,23.352474,0.1,287.04355,1627415584439
Fix,GT,37.4848244,-122.1850902,-27.989781475663182,23.911104,0.1,286.45224,1627415585439
Fix,GT,37.4848854,-122.1853533,-28.02556295132637,24.530571,0.1,285.9441,1627415586439
Fix,GT,37.4849464,-122.1856232,-28.043173049479723,25.11869,0.1,285.71124,1627415587439
Fix,GT,37.4850081,-122.1859004,-28.09117221349478,25.787952,0.1,285.41208,1627415588439
Fix,GT,37.48507,-122.1861851,-28.110827786505222,26.399872,0.1,284.98526,1627415589439
Fix,GT,37.4851309,-122.1864766,-28.132410991430284,26.86385,0.1,284.33237,1627415590439
Fix,GT,37.4851904,-122.1867731,-28.16295368945599,27.248734,0.1,283.8913,1627415591439
Fix,GT,37.4852491,-122.1870746,-28.19717305371166,27.673,0.1,283.37982,1627415592439
Fix,GT,37.485306,-122.1873817,-28.22056295156479,28.048643,0.1,282.69223,1627415593439
Fix,GT,37.4853606,-122.1876927,-28.23017221349477,28.268572,0.1,282.11966,1627415594439
Fix,GT,37.4854133,-122.1880067,-28.257563793301586,28.503714,0.1,281.49335,1627415595439
Fix,GT,37.4854631,-122.1883241,-28.28804715409875,28.704243,0.1,280.80222,1627415596439
Fix,GT,37.4855108,-122.188644,-28.3363907378912,28.832087,0.1,280.38684,1627415597439
Fix,GT,37.4855571,-122.1889651,-28.347,28.881351,0.1,279.993,1627415598439
Fix,GT,37.485601,-122.1892867,-28.37729896533489,28.793953,0.1,279.4313,1627415599439
Fix,GT,37.4856428,-122.1896066,-28.4180008469224,28.540543,0.1,278.99722,1627415600439
Fix,GT,37.4856827,-122.1899242,-28.483907383084293,28.342184,0.1,278.91888,1627415601439
Fix,GT,37.4857227,-122.19024,-28.61290738427639,28.252417,0.1,278.87427,1627415602439
Fix,GT,37.4857625,-122.1905552,-28.742782333612443,28.195816,0.1,278.91403,1627415603439
Fix,GT,37.4858019,-122.1908697,-28.77078147745132,28.11316,0.1,278.76215,1627415604439
Fix,GT,37.4858406,-122.1911833,-28.81356295537949,28.03955,0.1,278.47818,1627415605439
Fix,GT,37.4858777,-122.1914968,-28.860391599088903,28.016193,0.1,278.38596,1627415606439
Fix,GT,37.4859154,-122.1918098,-28.898562095969915,27.975014,0.1,278.5178,1627415607439
Fix,GT,37.485953,-122.1921225,-28.937735176086427,27.958946,0.1,278.51147,1627415608439
Fix,GT,37.4859912,-122.192435,-28.96634443807602,27.981014,0.1,278.7291,1627415609439
Fix,GT,37.48603,-122.192748,-29.007046300411226,28.048462,0.1,278.7255,1627415610439
Fix,GT,37.4860688,-122.1930617,-29.05868801707029,28.097431,0.1,278.79144,1627415611439
Fix,GT,37.4861081,-122.1933758,-29.098264816820624,28.146343,0.1,278.87982,1627415612439
Fix,GT,37.4861475,-122.1936905,-29.13095283550024,28.20641,0.1,278.8813,1627415613439
Fix,GT,37.4861871,-122.1940058,-29.17034444594384,28.260107,0.1,278.83612,1627415614439
Fix,GT,37.4862265,-122.1943216,-29.211515800327064,28.280472,0.1,278.78198,1627415615439
Fix,GT,37.4862657,-122.1946372,-29.22178148305416,28.172203,0.1,278.787,1627415616439
Fix,GT,37.4863049,-122.1949512,-29.2262185163498,28.045444,0.1,278.8596,1627415617439
Fix,GT,37.4863441,-122.1952637,-29.235999128699305,27.920017,0.1,278.90942,1627415618439
Fix,GT,37.4863835,-122.1955749,-29.22678148496151,27.82342,0.1,278.92035,1627415619439
Fix,GT,37.4864224,-122.1958853,-29.251826899945737,27.752754,0.1,278.7257,1627415620439
Fix,GT,37.4864603,-122.1961951,-29.248171357691287,27.704742,0.1,278.57916,1627415621439
Fix,GT,37.486498,-122.1965046,-29.237390743494032,27.677353,0.1,278.62286,1627415622439
Fix,GT,37.4865357,-122.1968141,-29.21939074379205,27.725834,0.1,278.59955,1627415623439
Fix,GT,37.4865738,-122.1971245,-29.22578148841858,27.813013,0.1,278.74042,1627415624439
Fix,GT,37.4866125,-122.1974357,-29.225781489372253,27.904999,0.1,278.88293,1627415625439
Fix,GT,37.486652,-122.1977478,-29.202952855408192,27.98769,0.1,278.98874,1627415626439
Fix,GT,37.486692,-122.1980607,-29.206218508958816,28.0798,0.1,279.0467,1627415627439
Fix,GT,37.4867322,-122.1983747,-29.188391615778208,28.17098,0.1,279.02026,1627415628439
Fix,GT,37.486772,-122.1986898,-29.201390746355056,28.276047,0.1,278.73572,1627415629439
Fix,GT,37.4868105,-122.1990065,-29.195562117636204,28.398392,0.1,278.58292,1627415630439
Fix,GT,37.4868494,-122.1993247,-29.1806083830595,28.543667,0.1,278.67368,1627415631439
Fix,GT,37.4868887,-122.1996446,-29.19760925221443,28.728987,0.1,278.68542,1627415632439
Fix,GT,37.4869285,-122.1999667,-29.194000870049,28.920086,0.1,278.7152,1627415633439
Fix,GT,37.4869684,-122.2002909,-29.189390748560427,29.096561,0.1,278.63928,1627415634439
Fix,GT,37.4870079,-122.200617,-29.173173117131,29.23579,0.1,278.547,1627415635439
Fix,GT,37.4870471,-122.2009444,-29.179781499624248,29.352005,0.1,278.64255,1627415636439
Fix,GT,37.4870887,-122.2012733,-29.185609249770643,29.507347,0.1,279.21057,1627415637439
Fix,GT,37.4871322,-122.2016027,-29.192609249293803,29.54528,0.1,279.26584,1627415638439
Fix,GT,37.4871744,-122.2019326,-29.191217627584933,29.568415,0.1,278.78656,1627415639439
Fix,GT,37.4872152,-122.2022631,-29.182217626899483,29.600586,0.1,278.63226,1627415640439
Fix,GT,37.4872557,-122.2025942,-29.19978063413501,29.638607,0.1,278.72113,1627415641439
Fix,GT,37.4872967,-122.2029257,-29.20117138805985,29.685724,0.1,278.7646,1627415642439
Fix,GT,37.4873376,-122.2032576,-29.18443698763847,29.704554,0.1,278.6031,1627415643439
Fix,GT,37.4873783,-122.2035884,-29.19521849298477,29.45692,0.1,278.76672,1627415644439
Fix,GT,37.4874191,-122.2039158,-29.19260924613476,29.183113,0.1,278.8743,1627415645439
Fix,GT,37.48746,-122.2042407,-29.18799913012981,29.00879,0.1,278.7225,1627415646439
Fix,GT,37.4874994,-122.2045647,-29.19943785133957,28.98156,0.1,278.548,1627415647439
Fix,GT,37.4875387,-122.204889,-29.19304535418749,29.048859,0.1,278.6575,1627415648439
Fix,GT,37.4875787,-122.205214,-29.17704622262716,29.121384,0.1,278.67807,1627415649439
Fix,GT,37.487619,-122.2055398,-29.1003109292984,29.19395,0.1,278.8564,1627415650439
Fix,GT,37.4876604,-122.2058663,-29.039954646199945,29.280647,0.1,279.00397,1627415651439
Fix,GT,37.4877024,-122.2061936,-29.02143697404861,29.3589,0.1,279.02814,1627415652439
Fix,GT,37.4877444,-122.2065219,-29.03031178280711,29.43899,0.1,279.0118,1627415653439
Fix,GT,37.4877869,-122.2068508,-28.98021762171388,29.488068,0.1,279.29156,1627415654439
Fix,GT,37.4878318,-122.2071797,-28.97082772731781,29.553986,0.1,280.06494,1627415655439
Fix,GT,37.4878805,-122.2075086,-28.90460924220085,29.62391,0.1,280.77777,1627415656439
Fix,GT,37.487932,-122.2078377,-28.87199913954735,29.682884,0.1,281.28076,1627415657439
Fix,GT,37.4879857,-122.2081667,-28.879562173306944,29.722555,0.1,281.76898,1627415658439
Fix,GT,37.4880424,-122.2084956,-28.861172276258472,29.804493,0.1,282.4791,1627415659439
Fix,GT,37.4881023,-122.2088248,-28.834827722847457,29.923615,0.1,283.04132,1627415660439
Fix,GT,37.4881647,-122.2091546,-28.78439075922966,30.04764,0.1,283.46216,1627415661439
Fix,GT,37.4882293,-122.2094854,-28.78260924053192,30.174805,0.1,283.8952,1627415662439
Fix,GT,37.488296,-122.2098167,-28.755,30.284145,0.1,284.2348,1627415663439
Fix,GT,37.4883644,-122.2101487,-28.70921762430668,30.377636,0.1,284.8603,1627415664439
Fix,GT,37.488438,-122.2104801,-28.61096716690064,30.461678,0.1,286.13245,1627415665439
Fix,GT,37.4885162,-122.2108104,-28.243116562336684,30.473309,0.1,286.7914,1627415666439
Fix,GT,37.4885976,-122.2111392,-27.555096187055103,30.38638,0.1,287.53326,1627415667439
Fix,GT,37.4886816,-122.2114654,-26.6489583697021,30.270224,0.1,288.22028,1627415668439
Fix,GT,37.4887687,-122.2117891,-25.78861296749115,30.157915,0.1,288.95435,1627415669439
Fix,GT,37.4888587,-122.2121103,-24.9500836097002,30.075008,0.1,289.57874,1627415670439
Fix,GT,37.4889503,-122.2124297,-24.18113050463796,29.928598,0.1,289.9405,1627415671439
Fix,GT,37.4890427,-122.2127442,-23.347693501889704,29.320663,0.1,290.37607,1627415672439
Fix,GT,37.4891353,-122.2130512,-22.810024908185007,28.755234,0.1,290.75824,1627415673439
Fix,GT,37.4892281,-122.2133518,-22.451714720934632,28.306898,0.1,291.5096,1627415674439
Fix,GT,37.4893229,-122.2136478,-22.197621672630312,28.150818,0.1,292.09906,1627415675439
Fix,GT,37.4894196,-122.213942,-22.07148312401772,28.149475,0.1,292.61606,1627415676439
Fix,GT,37.4895185,-122.2142353,-22.08421847128868,28.200054,0.1,293.19434,1627415677439
Fix,GT,37.4896201,-122.2145278,-22.12101240885258,28.138062,0.1,293.89978,1627415678439
Fix,GT,37.4897237,-122.2148164,-22.30441213798523,27.890388,0.1,294.46832,1627415679439
Fix,GT,37.4898287,-122.2151016,-22.83263062191009,27.692734,0.1,295.13818,1627415680439
Fix,GT,37.489936,-122.2153831,-23.33244595432281,27.495712,0.1,295.7791,1627415681439
Fix,GT,37.490045,-122.2156613,-24.05682437109948,27.364098,0.1,296.4254,1627415682439
Fix,GT,37.4901561,-122.2159368,-24.80830823725462,27.249386,0.1,297.10208,1627415683439
Fix,GT,37.4902689,-122.2162097,-25.56430676907301,27.116188,0.1,297.6045,1627415684439
Fix,GT,37.4903834,-122.2164798,-26.33652681043744,26.998878,0.1,298.25546,1627415685439
Fix,GT,37.4905012,-122.2167464,-27.11330839535594,26.91412,0.1,299.72464,1627415686439
Fix,GT,37.4906238,-122.217008,-27.81439993494749,26.777016,0.1,300.98343,1627415687439
Fix,GT,37.490749,-122.2172658,-28.383630743503574,26.604752,0.1,301.19772,1627415688439
Fix,GT,37.4908716,-122.2175232,-28.702815380096435,26.469994,0.1,300.3755,1627415689439
Fix,GT,37.4909917,-122.2177815,-28.806563936024908,26.399206,0.1,299.89423,1627415690439
Fix,GT,37.4911091,-122.2180405,-28.817860690265896,26.346481,0.1,299.23914,1627415691439
Fix,GT,37.4912257,-122.2183005,-28.81065623733401,26.411947,0.1,299.21463,1627415692439
Fix,GT,37.491342,-122.2185619,-28.814126164913176,26.553505,0.1,299.0156,1627415693439
Fix,GT,37.4914584,-122.2188251,-28.85470151799917,26.698229,0.1,298.87784,1627415694439
Fix,GT,37.4915752,-122.21909,-28.860217596679924,26.837757,0.1,298.8548,1627415695439
Fix,GT,37.4916931,-122.2193558,-28.852655367732048,26.94855,0.1,299.15103,1627415696439
Fix,GT,37.4918121,-122.2196217,-28.853080902129413,27.015526,0.1,299.24463,1627415697439
Fix,GT,37.4919318,-122.2198884,-28.85182682102919,27.13123,0.1,299.27475,1627415698439
Fix,GT,37.4920518,-122.2201569,-28.94781547069549,27.324644,0.1,299.0995,1627415699439
Fix,GT,37.4921723,-122.2204277,-29.058058327674864,27.537033,0.1,299.06573,1627415700439
Fix,GT,37.4922938,-122.2207002,-29.04429851871729,27.687096,0.1,299.20654,1627415701439
Fix,GT,37.4924162,-122.2209741,-29.018402953386307,27.850555,0.1,299.10654,1627415702439
Fix,GT,37.4925387,-122.2212503,-28.87882853463292,28.068836,0.1,298.91113,1627415703439
Fix,GT,37.4926614,-122.2215293,-28.82904526132345,28.305206,0.1,298.74857,1627415704439
Fix,GT,37.4927848,-122.2218108,-28.693700606018304,28.50591,0.1,298.8176,1627415705439
Fix,GT,37.4929101,-122.2220936,-28.592919903755188,28.726078,0.1,299.21835,1627415706439
Fix,GT,37.4930372,-122.222378,-28.46822972127796,28.95161,0.1,299.2644,1627415707439
Fix,GT,37.493165,-122.2226647,-28.36843688964844,29.142574,0.1,298.90952,1627415708439
Fix,GT,37.493291,-122.2229552,-28.41256226542592,29.343918,0.1,298.10144,1627415709439
Fix,GT,37.4934148,-122.2232493,-28.486,29.49451,0.1,297.55032,1627415710439
Fix,GT,37.4935375,-122.2235461,-28.487815574407577,29.64693,0.1,297.2901,1627415711439
Fix,GT,37.4936597,-122.223845,-28.39113746708632,29.732498,0.1,296.92285,1627415712439
Fix,GT,37.4937799,-122.2241459,-28.29987292078137,29.815899,0.1,296.26776,1627415713439
Fix,GT,37.4938978,-122.2244494,-28.002679447650905,29.89269,0.1,295.60175,1627415714439
Fix,GT,37.4940133,-122.224755,-27.53340283405781,29.933552,0.1,295.0429,1627415715439
Fix,GT,37.4941267,-122.2250629,-27.24662126493454,30.03468,0.1,294.43597,1627415716439
Fix,GT,37.4942382,-122.2253727,-27.00087375307083,30.126202,0.1,294.11182,1627415717439
Fix,GT,37.4943482,-122.2256849,-27.015137475907803,30.223637,0.1,293.3721,1627415718439
Fix,GT,37.4944551,-122.2259988,-26.98465450677276,30.092976,0.1,292.81848,1627415719439
Fix,GT,37.494558,-122.2263114,-26.974,29.72754,0.1,292.0564,1627415720439
Fix,GT,37.4946574,-122.2266214,-26.96495471310616,29.36243,0.1,291.71732,1627415721439
Fix,GT,37.4947534,-122.2269285,-26.98108016753197,28.969896,0.1,291.10583,1627415722439
Fix,GT,37.4948456,-122.2272326,-27.030205623537302,28.566204,0.1,290.218,1627415723439
Fix,GT,37.4949318,-122.2275346,-27.25906736037135,28.186138,0.1,289.4718,1627415724439
Fix,GT,37.4950166,-122.227833,-27.75341204610467,27.841843,0.1,289.7893,1627415725439
Fix,GT,37.4951013,-122.2281276,-28.30205534261465,27.559052,0.1,289.5993,1627415726439
Fix,GT,37.4951845,-122.2284195,-28.75733185151219,27.271126,0.1,289.67657,1627415727439
Fix,GT,37.4952669,-122.2287086,-28.942563132762903,27.08326,0.1,289.26755,1627415728439
Fix,GT,37.4953497,-122.2289974,-28.955034100651744,27.378273,0.1,290.19348,1627415729439
Fix,GT,37.4954373,-122.2292905,-28.93542402473092,28.04131,0.1,290.7113,1627415730439
Fix,GT,37.4955312,-122.2295835,-29.063252539634703,27.607128,0.1,293.2145,1627415731439
Fix,GT,37.4956295,-122.2298624,-29.12564332640171,26.128986,0.1,293.73755,1627415732439
Fix,GT,37.4957214,-122.2301225,-29.15417235225439,24.190956,0.1,294.01187,1627415733439
Fix,GT,37.495806,-122.2303621,-29.10921756374836,22.138918,0.1,293.5318,1627415734439
Fix,GT,37.4958821,-122.2305807,-29.10507933089137,20.087223,0.1,293.75635,1627415735439
Fix,GT,37.4959526,-122.2307803,-29.30773549193144,18.609982,0.1,293.62167,1627415736439
Fix,GT,37.4960184,-122.2309663,-29.324782443225384,17.296976,0.1,294.26782,1627415737439
Fix,GT,37.4960845,-122.2311335,-29.349906972527503,15.762799,0.1,298.43982,1627415738439
Fix,GT,37.4961587,-122.2312777,-29.32631058239937,14.725804,0.1,306.38907,1627415739439
Fix,GT,37.4962452,-122.2313998,-29.11223124566674,14.17207,0.1,315.20755,1627415740439
Fix,GT,37.4963423,-122.231499,-28.973482071876525,13.691208,0.1,324.4065,1627415741439
Fix,GT,37.4964465,-122.2315766,-28.79983958899975,13.203005,0.1,332.25595,1627415742439
Fix,GT,37.4965537,-122.2316343,-28.538402729153635,12.704288,0.1,339.56766,1627415743439
Fix,GT,37.4966618,-122.2316719,-28.33126450389624,12.1913805,0.1,347.5958,1627415744439
Fix,GT,37.4967678,-122.2316936,-28.151357489973307,11.528978,0.1,351.9094,1627415745439
Fix,GT,37.4968656,-122.2317142,-28.05243602269888,10.670353,0.1,349.00555,1627415746439
Fix,GT,37.4969561,-122.2317449,-28.0319991645813,10.171295,0.1,342.71118,1627415747439
Fix,GT,37.4970379,-122.2317896,-27.987389951348305,9.619896,0.1,332.59888,1627415748439
Fix,GT,37.4971055,-122.231852,-27.98017235618829,9.103825,0.1,319.6506,1627415749439
Fix,GT,37.4971619,-122.2319255,-28.039563141584395,8.9637375,0.1,313.35187,1627415750439
Fix,GT,37.4972151,-122.2320004,-28.061482930362224,8.758107,0.1,310.3778,1627415751439
Fix,GT,37.4972601,-122.2320782,-27.96670135802031,8.141146,0.1,303.55627,1627415752439
Fix,GT,37.4972918,-122.2321534,-27.89860921424627,6.841774,0.1,295.71432,1627415753439
Fix,GT,37.4973123,-122.2322163,-27.84482764220237,4.939327,0.1,291.96957,1627415754439
Fix,GT,37.4973245,-122.2322564,-27.80782847052813,2.7411518,0.1,290.81778,1627415755439
Fix,GT,37.4973308,-122.2322778,-27.78760921376944,1.4507821,0.1,290.4237,1627415756439
Fix,GT,37.4973343,-122.2322899,-27.773,0.9235424,0.1,290.34607,1627415757439
Fix,GT,37.4973376,-122.2323009,-27.762610040843487,1.1889453,0.1,290.28717,1627415758439
Fix,GT,37.4973416,-122.2323148,-27.74661004012823,1.4527218,0.1,290.21426,1627415759439
Fix,GT,37.4973472,-122.2323335,-27.7396100396812,2.2775638,0.1,290.1705,1627415760439
Fix,GT,37.497357,-122.2323669,-27.700436025559902,4.0905175,0.1,290.0702,1627415761439
Fix,GT,37.4973724,-122.23242,-27.64909212636948,5.8394814,0.1,289.9342,1627415762439
Fix,GT,37.4973919,-122.2324887,-27.46327637195587,6.8061705,0.1,288.90494,1627415763439
Fix,GT,37.4974024,-122.2325645,-27.24135660672188,6.6764984,0.1,275.06293,1627415764439
Fix,GT,37.4973904,-122.2326367,-27.08170133244991,6.5896816,0.1,252.93567,1627415765439
Fix,GT,37.4973532,-122.2326988,-27.002138178825376,7.1942225,0.1,226.95613,1627415766439
Fix,GT,37.4972943,-122.2327423,-26.840185035586355,8.056489,0.1,206.99213,1627415767439
Fix,GT,37.4972218,-122.2327791,-26.4470245192945,9.302395,0.1,200.83348,1627415768439
Fix,GT,37.4971391,-122.2328174,-25.94419531458616,10.195156,0.1,200.01128,1627415769439
Fix,GT,37.4970495,-122.2328582,-25.37759873229265,10.978973,0.1,199.74126,1627415770439
Fix,GT,37.4969528,-122.232902,-24.814460554361343,11.851892,0.1,199.7681,1627415771439
Fix,GT,37.4968488,-122.2329502,-24.340242126464844,12.7787285,0.1,200.22195,1627415772439
Fix,GT,37.496737,-122.2330024,-23.95219606137276,13.6531,0.1,200.36768,1627415773439
Fix,GT,37.4966187,-122.2330579,-23.53341447210312,14.20199,0.1,200.51443,1627415774439
Fix,GT,37.4964999,-122.2331138,-23.18101114812493,13.95756,0.1,200.27986,1627415775439
Fix,GT,37.4963829,-122.2331675,-23.03948220473528,13.666155,0.1,199.87027,1627415776439
Fix,GT,37.4962691,-122.2332192,-23.03995394992828,13.204751,0.1,199.83601,1627415777439
Fix,GT,37.4961587,-122.23327,-23.17381649547816,12.918599,0.1,200.16174,1627415778439
Fix,GT,37.4960515,-122.2333234,-23.49472371208668,12.670744,0.1,202.16536,1627415779439
Fix,GT,37.4959488,-122.2333771,-23.86171190398932,11.963705,0.1,202.60292,1627415780439
Fix,GT,37.4958534,-122.2334277,-24.359977110028268,10.901087,0.1,202.8261,1627415781439
Fix,GT,37.4957685,-122.2334747,-24.89705742254853,9.733111,0.1,204.45427,1627415782439
Fix,GT,37.4956923,-122.2335259,-25.52731011834741,9.674956,0.1,210.4371,1627415783439
Fix,GT,37.4956219,-122.2335941,-26.28609174218774,10.10764,0.1,220.99696,1627415784439
Fix,GT,37.4955614,-122.2336831,-27.115344455838205,10.616262,0.1,233.24184,1627415785439
Fix,GT,37.4955148,-122.2337915,-27.9531370420456,11.143113,0.1,245.6887,1627415786439
Fix,GT,37.4954874,-122.233914,-28.59088523247837,11.372368,0.1,258.7325,1627415787439
Fix,GT,37.4954835,-122.2340429,-29.03624179172516,11.466337,0.1,272.5357,1627415788439
Fix,GT,37.495505,-122.2341695,-29.41137991386652,11.47905,0.1,286.99368,1627415789439
Fix,GT,37.49555,-122.2342858,-29.625251813799142,11.387738,0.1,300.56702,1627415790439
Fix,GT,37.4956143,-122.2343842,-29.68638990917802,11.162529,0.1,314.01022,1627415791439
Fix,GT,37.4956935,-122.2344592,-29.67978158831596,10.894224,0.1,327.44827,1627415792439
Fix,GT,37.4957821,-122.2345078,-29.6708276168108,10.601894,0.1,340.7321,1627415793439
Fix,GT,37.495875,-122.2345297,-29.6506552311182,10.4995575,0.1,353.38608,1627415794439
Fix,GT,37.4959711,-122.2345253,-29.594827614665032,10.946764,0.1,6.2446594,1627415795439
Fix,GT,37.4960685,-122.2344925,-29.536309575766325,11.485336,0.1,19.666077,1627415796439
Fix,GT,37.4961608,-122.2344279,-29.51343593814969,11.97435,0.1,34.317932,1627415797439
Fix,GT,37.4962385,-122.2343333,-29.487781591653825,12.01479,0.1,49.75708,1627415798439
Fix,GT,37.4962928,-122.234216,-29.48290708300471,12.12751,0.1,65.3873,1627415799439
Fix,GT,37.496321,-122.2340813,-29.5384376950264,12.628686,0.1,80.85297,1627415800439
Fix,GT,37.4963202,-122.233934,-29.43235645979643,13.605868,0.1,95.88818,1627415801439
Fix,GT,37.4962932,-122.2337763,-29.3137003633082,14.970063,0.1,104.69406,1627415802439
Fix,GT,37.4962541,-122.2336058,-29.22687449663877,16.411861,0.1,106.19006,1627415803439
Fix,GT,37.4962094,-122.23342,-29.199781593918804,18.170162,0.1,106.759766,1627415804439
Fix,GT,37.4961594,-122.2332117,-29.141389928638937,20.27506,0.1,106.40854,1627415805439
Fix,GT,37.4961042,-122.2329836,-29.114999132305385,21.820698,0.1,107.24597,1627415806439
Fix,GT,37.4960411,-122.2327406,-29.087263550788165,23.381784,0.1,108.291504,1627415807439
Fix,GT,37.4959723,-122.2324837,-29.0451849129498,24.507408,0.1,108.366425,1627415808439
Fix,GT,37.4959001,-122.2322164,-28.976483683794736,25.340439,0.1,108.814545,1627415809439
Fix,GT,37.495824,-122.2319436,-28.884265275716785,25.77819,0.1,109.34122,1627415810439
Fix,GT,37.4957463,-122.231667,-28.85087447589636,26.015484,0.1,109.302765,1627415811439
Fix,GT,37.4956696,-122.2313903,-28.84265521109104,25.766544,0.1,108.89618,1627415812439
Fix,GT,37.4955945,-122.2311167,-28.84495399135351,25.428268,0.1,108.94458,1627415813439
Fix,GT,37.4955201,-122.2308466,-28.84421926268935,25.111298,0.1,109.01865,1627415814439
Fix,GT,37.495446,-122.2305801,-28.82378159713745,24.804667,0.1,109.33093,1627415815439
Fix,GT,37.4953714,-122.2303175,-28.819437664061788,24.49057,0.1,109.76184,1627415816439
Fix,GT,37.4952963,-122.230059,-28.80078245598078,24.227013,0.1,110.07147,1627415817439
Fix,GT,37.4952211,-122.2298023,-28.830609200954434,24.159733,0.1,110.03516,1627415818439
Fix,GT,37.4951464,-122.2295452,-28.843826742589474,24.286366,0.1,109.93265,1627415819439
Fix,GT,37.4950712,-122.2292852,-28.867046863198283,24.675186,0.1,109.73938,1627415820439
Fix,GT,37.4949954,-122.2290202,-28.84517325863242,25.131855,0.1,109.56711,1627415821439
Fix,GT,37.4949186,-122.2287496,-28.81192045998573,25.67796,0.1,109.43448,1627415822439
Fix,GT,37.4948408,-122.2284728,-28.677137143850324,26.204597,0.1,109.22098,1627415823439
Fix,GT,37.4947622,-122.2281915,-28.39436714023352,26.460417,0.1,109.23941,1627415824439
Fix,GT,37.4946829,-122.2279085,-27.972058419793846,26.590252,0.1,109.30899,1627415825439
Fix,GT,37.4946025,-122.2276247,-27.65588517785072,26.696508,0.1,109.581116,1627415826439
Fix,GT,37.4945208,-122.22734,-27.429264392912387,26.78496,0.1,109.914246,1627415827439
Fix,GT,37.4944376,-122.2270569,-27.338528780817988,26.60032,0.1,110.42859,1627415828439
Fix,GT,37.4943523,-122.2267758,-27.33743597868085,26.64788,0.1,111.07709,1627415829439
Fix,GT,37.4942647,-122.2264943,-27.32878160381317,26.798445,0.1,111.42819,1627415830439
Fix,GT,37.494175,-122.2262118,-27.34490883776545,26.97393,0.1,112.00433,1627415831439
Fix,GT,37.4940812,-122.2259297,-27.36926438206434,27.108063,0.1,113.10855,1627415832439
Fix,GT,37.4939842,-122.2256481,-27.37990802800656,27.15128,0.1,113.56128,1627415833439
Fix,GT,37.4938848,-122.2253672,-27.579150174647573,27.240383,0.1,114.13693,1627415834439
Fix,GT,37.4937833,-122.2250858,-28.06902377408744,27.37647,0.1,114.32831,1627415835439
Fix,GT,37.4936797,-122.2248046,-28.3083792886734,27.41143,0.1,115.13983,1627415836439
Fix,GT,37.4935727,-122.2245249,-28.612459747731684,27.468166,0.1,115.91376,1627415837439
Fix,GT,37.4934638,-122.2242455,-28.911862063467503,27.560947,0.1,115.525116,1627415838439
Fix,GT,37.4933571,-122.2239625,-29.00321839094162,27.815636,0.1,114.972595,1627415839439
Fix,GT,37.4932495,-122.2236771,-28.955873560905456,28.026802,0.1,115.6846,1627415840439
Fix,GT,37.4931365,-122.2233922,-28.938702005863192,28.256538,0.1,117.02112,1627415841439
Fix,GT,37.4930187,-122.2231075,-28.89396550130844,28.478556,0.1,117.61035,1627415842439
Fix,GT,37.492898,-122.222822,-28.86621838831901,28.676891,0.1,118.07645,1627415843439
Fix,GT,37.4927744,-122.2225362,-28.801907203435896,28.775423,0.1,118.708374,1627415844439
Fix,GT,37.4926493,-122.2222539,-28.7882537612319,28.306664,0.1,119.15808,1627415845439
Fix,GT,37.4925262,-122.2219777,-28.82243677282333,27.602951,0.1,119.09888,1627415846439
Fix,GT,37.4924066,-122.2217096,-28.8507816144228,26.88692,0.1,119.09094,1627415847439
Fix,GT,37.4922892,-122.221446,-28.90134484505653,26.548168,0.1,119.11902,1627415848439
Fix,GT,37.4921729,-122.2211854,-28.936389945477245,26.303036,0.1,119.17435,1627415849439
Fix,GT,37.4920574,-122.2209265,-28.97329888916016,26.111446,0.1,119.05975,1627415850439
Fix,GT,37.4919444,-122.2206707,-28.96887439548969,25.6131,0.1,118.95337,1627415851439
Fix,GT,37.4918331,-122.2204202,-28.878172426640987,25.14823,0.1,119.045044,1627415852439
Fix,GT,37.4917235,-122.2201736,-28.82948357641697,24.785583,0.1,119.03775,1627415853439
Fix,GT,37.4916152,-122.2199293,-28.81804509297013,24.776325,0.1,118.924194,1627415854439
Fix,GT,37.4915063,-122.2196828,-28.76104595023393,25.063503,0.1,118.77347,1627415855439
Fix,GT,37.4913969,-122.2194329,-28.743,25.374239,0.1,118.77588,1627415856439
Fix,GT,37.4912849,-122.2191804,-28.691655135989187,25.739658,0.1,119.15839,1627415857439
Fix,GT,37.4911707,-122.2189246,-28.707218377947804,26.137787,0.1,119.139465,1627415858439
Fix,GT,37.4910546,-122.2186648,-28.683999145150185,26.555618,0.1,119.23889,1627415859439
Fix,GT,37.4909362,-122.2184014,-28.67299914547801,26.933182,0.1,119.43796,1627415860439
Fix,GT,37.4908152,-122.2181336,-28.620780771315097,27.545176,0.1,119.40857,1627415861439
Fix,GT,37.4906915,-122.2178598,-28.54896622949839,28.13552,0.1,119.523865,1627415862439
Fix,GT,37.4905654,-122.2175803,-28.37414827492833,28.635017,0.1,119.26068,1627415863439
Fix,GT,37.4904388,-122.2172959,-27.9172860866487,28.939812,0.1,118.9411,1627415864439
Fix,GT,37.4903129,-122.2170088,-27.20699925923348,29.030788,0.1,118.590546,1627415865439
Fix,GT,37.4901884,-122.2167197,-26.365734927177428,29.111172,0.1,118.06067,1627415866439
Fix,GT,37.4900658,-122.2164278,-25.573516535401343,29.220753,0.1,117.445465,1627415867439
Fix,GT,37.4899454,-122.2161335,-24.77078007784485,29.324017,0.1,116.90683,1627415868439
Fix,GT,37.4898264,-122.2158366,-23.945734860420224,29.465225,0.1,116.421844,1627415869439
Fix,GT,37.4897096,-122.2155364,-23.20590728479624,29.628284,0.1,115.65961,1627415870439
Fix,GT,37.489595,-122.2152327,-22.51015962859988,29.80669,0.1,115.107056,1627415871439
Fix,GT,37.4894817,-122.2149263,-21.940149026989936,29.92871,0.1,114.65906,1627415872439
Fix,GT,37.4893697,-122.2146175,-21.834575160473584,30.084738,0.1,114.21857,1627415873439
Fix,GT,37.4892595,-122.2143058,-21.665780985265968,30.237928,0.1,113.559265,1627415874439
Fix,GT,37.4891515,-122.2139909,-21.756436737775804,30.399086,0.1,112.93512,1627415875439
Fix,GT,37.4890463,-122.2136729,-21.80781631350517,30.436087,0.1,112.09723,1627415876439
Fix,GT,37.4889447,-122.2133547,-22.06897752928733,30.188713,0.1,111.595276,1627415877439
Fix,GT,37.4888461,-122.2130382,-22.49866799801588,29.90559,0.1,110.95712,1627415878439
Fix,GT,37.4887511,-122.2127227,-23.227127540111542,29.819767,0.1,110.2771,1627415879439
Fix,GT,37.4886596,-122.2124058,-24.01187449014187,29.829887,0.1,109.700745,1627415880439
Fix,GT,37.4885707,-122.2120869,-24.794047689318656,29.949669,0.1,108.7887,1627415881439
Fix,GT,37.4884853,-122.2117646,-25.678518390655515,30.109154,0.1,107.90845,1627415882439
Fix,GT,37.4884029,-122.2114392,-26.57300184541941,30.298092,0.1,107.24237,1627415883439
Fix,GT,37.4883225,-122.2111106,-27.40853044512868,30.497307,0.1,106.84241,1627415884439
Fix,GT,37.4882435,-122.2107795,-28.05385104095936,30.643799,0.1,106.4267,1627415885439
Fix,GT,37.4881663,-122.2104462,-28.373472282826903,30.716778,0.1,105.93161,1627415886439
Fix,GT,37.4880915,-122.2101116,-28.484045914769176,30.736553,0.1,105.383484,1627415887439
Fix,GT,37.4880192,-122.2097778,-28.53721751499176,30.428741,0.1,104.895996,1627415888439
Fix,GT,37.4879508,-122.2094468,-28.565518205970527,30.03932,0.1,104.06024,1627415889439
Fix,GT,37.4878875,-122.2091189,-28.62138996428252,29.648632,0.1,103.12967,1627415890439
Fix,GT,37.4878285,-122.2087942,-28.660735720992086,29.258099,0.1,102.46399,1627415891439
Fix,GT,37.4877728,-122.2084729,-28.745344903707505,28.886736,0.1,102.02826,1627415892439
Fix,GT,37.4877194,-122.2081555,-28.80351821413636,28.50891,0.1,101.712585,1627415893439
Fix,GT,37.4876685,-122.2078417,-28.82956327009201,28.119225,0.1,101.18002,1627415894439
Fix,GT,37.4876209,-122.2075316,-28.87451821839809,27.747208,0.1,100.552155,1627415895439
Fix,GT,37.4875769,-122.2072248,-28.93373658591509,27.39054,0.1,99.6214,1627415896439
Fix,GT,37.4875374,-122.206921,-28.990954088807104,27.067001,0.1,98.86032,1627415897439
Fix,GT,37.4875002,-122.2066202,-29.07190904539824,26.822737,0.1,98.68091,1627415898439
Fix,GT,37.487464,-122.2063204,-29.11643759566545,26.82901,0.1,98.33057,1627415899439
Fix,GT,37.4874292,-122.2060198,-29.138562404483555,26.887274,0.1,98.12042,1627415900439
Fix,GT,37.4873948,-122.2057184,-29.19351736521721,26.984974,0.1,98.056915,1627415901439
Fix,GT,37.48736,-122.2054145,-29.246,27.363335,0.1,98.12561,1627415902439
Fix,GT,37.4873238,-122.2051059,-29.314391692250965,27.803732,0.1,98.591034,1627415903439
Fix,GT,37.4872851,-122.204793,-29.305090938478703,28.201912,0.1,98.85855,1627415904439
Fix,GT,37.4872449,-122.2044757,-29.33690818953514,28.636456,0.1,99.003845,1627415905439
Fix,GT,37.4872041,-122.2041532,-29.34282754260302,29.11508,0.1,98.83823,1627415906439
Fix,GT,37.4871635,-122.2038266,-29.274390819370744,29.207085,0.1,98.81558,1627415907439
Fix,GT,37.4871226,-122.2035021,-29.26721836090088,28.902428,0.1,98.965515,1627415908439
Fix,GT,37.4870818,-122.2031802,-29.250827540814875,28.789116,0.1,98.9057,1627415909439
Fix,GT,37.4870419,-122.2028585,-29.24304590076208,28.807106,0.1,98.563354,1627415910439
Fix,GT,37.4870031,-122.202536,-29.211263389378782,28.895966,0.1,98.39557,1627415911439
Fix,GT,37.4869643,-122.2022121,-29.167609179794788,29.041864,0.1,98.613525,1627415912439
Fix,GT,37.4869243,-122.2018867,-29.171608310252427,29.201462,0.1,98.714935,1627415913439
Fix,GT,37.4868837,-122.2015591,-29.14317333045601,29.440935,0.1,98.84973,1627415914439
Fix,GT,37.4868424,-122.2012286,-29.16148261278868,29.715914,0.1,98.790344,1627415915439
Fix,GT,37.4868009,-122.2008956,-29.177,29.89707,0.1,98.92688,1627415916439
Fix,GT,37.4867585,-122.2005605,-29.18756241494417,30.14061,0.1,98.914734,1627415917439
Fix,GT,37.4867161,-122.200223,-29.1882174872458,30.240906,0.1,98.894135,1627415918439
Fix,GT,37.4866737,-122.1998856,-29.21512570273876,30.129051,0.1,98.83728,1627415919439
Fix,GT,37.4866319,-122.1995509,-29.21104589033127,29.794815,0.1,98.82416,1627415920439
Fix,GT,37.4865907,-122.1992201,-29.24668986749649,29.419807,0.1,98.78937,1627415921439
Fix,GT,37.4865507,-122.1988934,-29.230264242291447,29.051367,0.1,98.41223,1627415922439
Fix,GT,37.4865121,-122.1985709,-29.22000087082386,28.633345,0.1,98.47681,1627415923439
Fix,GT,37.486474,-122.1982526,-29.20856416258216,28.292097,0.1,98.45102,1627415924439
Fix,GT,37.4864362,-122.1979383,-29.22021922430396,27.93655,0.1,98.54892,1627415925439
Fix,GT,37.4863982,-122.197628,-29.24443670558929,27.598366,0.1,98.727234,1627415926439
Fix,GT,37.4863603,-122.1973225,-29.260782519757747,26.911356,0.1,98.791626,1627415927439
Fix,GT,37.4863239,-122.1970294,-29.27565505480766,25.567139,0.1,98.78015,1627415928439
Fix,GT,37.486289,-122.19675,-29.30234582072497,24.47609,0.1,98.91788,1627415929439
Fix,GT,37.4862542,-122.1964817,-29.316000000000003,23.635551,0.1,99.46341,1627415930439
Fix,GT,37.4862168,-122.1962213,-29.33621834897995,23.24224,0.1,100.84134,1627415931439
Fix,GT,37.4861762,-122.1959648,-29.35817160260677,23.085764,0.1,101.36072,1627415932439
Fix,GT,37.486135,-122.195707,-29.369781652331355,23.483212,0.1,100.76285,1627415933439
Fix,GT,37.486097,-122.1954434,-29.38100087562204,23.911755,0.1,99.82428,1627415934439
Fix,GT,37.4860603,-122.1951751,-29.382435817122456,24.123398,0.1,99.47983,1627415935439
Fix,GT,37.4860245,-122.1949072,-29.37517160567641,23.925621,0.1,99.42624,1627415936439
Fix,GT,37.4859895,-122.1946417,-29.36939170259237,23.647863,0.1,99.073395,1627415937439
Fix,GT,37.485956,-122.1943793,-29.361610047489407,23.388956,0.1,98.90628,1627415938439
Fix,GT,37.4859235,-122.1941177,-29.37226508080959,23.501095,0.1,98.50488,1627415939439
Fix,GT,37.4858916,-122.193853,-29.34048254734278,23.87293,0.1,98.58804,1627415940439
Fix,GT,37.4858588,-122.1935838,-29.33765590399504,24.281109,0.1,98.61832,1627415941439
Fix,GT,37.4858254,-122.1933101,-29.30604673084617,24.691713,0.1,98.48773,1627415942439
Fix,GT,37.4857919,-122.1930318,-29.269045856654643,25.09403,0.1,98.426056,1627415943439
Fix,GT,37.4857583,-122.1927495,-29.22887424015999,25.379887,0.1,98.37683,1627415944439
Fix,GT,37.485724,-122.192464,-29.211609170913697,25.710363,0.1,98.592285,1627415945439
Fix,GT,37.4856882,-122.1921746,-29.16091922032833,26.067234,0.1,98.716095,1627415946439
Fix,GT,37.4856522,-122.1918819,-29.122654155522586,26.323606,0.1,98.77704,1627415947439
Fix,GT,37.4856152,-122.1915866,-29.079390829563145,26.553053,0.1,98.91785,1627415948439
Fix,GT,37.4855772,-122.191289,-29.0562183406353,26.76939,0.1,99.08557,1627415949439
Fix,GT,37.4855386,-122.1909891,-29.04343754628301,26.888474,0.1,99.0517,1627415950439
Fix,GT,37.4855001,-122.1906904,-29.008529245376582,26.631866,0.1,99.03674,1627415951439
Fix,GT,37.4854626,-122.1903947,-29.063654152989383,26.324455,0.1,98.78366,1627415952439
Fix,GT,37.4854266,-122.1901022,-29.024355020582675,26.050556,0.1,98.57117,1627415953439
Fix,GT,37.485391,-122.1898113,-28.938874220073224,26.085123,0.1,98.691925,1627415954439
Fix,GT,37.4853547,-122.1895183,-28.983389966607096,26.367245,0.1,98.77252,1627415955439
Fix,GT,37.485317,-122.1892217,-28.986828372627496,26.747532,0.1,99.20856,1627415956439
Fix,GT,37.485276,-122.1889218,-28.941609169483183,27.064186,0.1,100.14496,1627415957439
Fix,GT,37.485231,-122.1886201,-28.92956418430805,27.186066,0.1,100.882996,1627415958439
Fix,GT,37.485183,-122.1883199,-28.89526504740119,26.955238,0.1,101.650604,1627415959439
Fix,GT,37.4851325,-122.1880234,-28.88656418350339,26.655981,0.1,102.333374,1627415960439
Fix,GT,37.48508,-122.1877311,-28.878701723456384,26.355993,0.1,102.83057,1627415961439
Fix,GT,37.4850266,-122.1874434,-28.84826332509518,25.739689,0.1,103.17169,1627415962439
Fix,GT,37.4849742,-122.1871651,-28.84278166162968,24.861431,0.1,103.29108,1627415963439
Fix,GT,37.4849218,-122.186896,-28.81834498488903,24.1861,0.1,103.863495,1627415964439
Fix,GT,37.484869,-122.1866327,-28.798827507555487,23.88256,0.1,104.09241,1627415965439
Fix,GT,37.4848158,-122.186372,-28.784826649576427,23.750782,0.1,104.41211,1627415966439
Fix,GT,37.4847616,-122.186111,-28.75087335300445,24.01017,0.1,104.63513,1627415967439
Fix,GT,37.4847054,-122.1858469,-28.7018266516924,24.275047,0.1,105.15216,1627415968439
Fix,GT,37.4846466,-122.1855836,-28.67182665258646,24.073624,0.1,105.95187,1627415969439
Fix,GT,37.4845862,-122.1853243,-28.641609168946744,23.645054,0.1,106.47598,1627415970439
Fix,GT,37.4845249,-122.1850708,-28.641218337893484,23.263302,0.1,107.15167,1627415971439
Fix,GT,37.4844624,-122.1848214,-28.60521833777428,22.973305,0.1,107.601746,1627415972439
Fix,GT,37.4843992,-122.1845758,-28.575436675310137,22.658028,0.1,108.01581,1627415973439
Fix,GT,37.484334,-122.1843358,-28.498655013322832,22.24776,0.1,109.90704,1627415974439
Fix,GT,37.484262,-122.1841031,-28.41987250331044,21.821808,0.1,112.121216,1627415975439
Fix,GT,37.484187,-122.1838809,-28.37878081667423,20.806526,0.1,113.42709,1627415976439
Fix,GT,37.4841126,-122.1836716,-28.30687335014344,19.765596,0.1,114.359436,1627415977439
Fix,GT,37.4840396,-122.1834735,-28.27378166258335,18.824314,0.1,114.9931,1627415978439
Fix,GT,37.4839688,-122.1832861,-28.26782666319609,17.885622,0.1,115.71051,1627415979439
Fix,GT,37.4838977,-122.1831113,-28.26,16.840397,0.1,118.37607,1627415980439
Fix,GT,37.4838199,-122.1829509,-28.203710886031388,16.424507,0.1,124.022644,1627415981439
Fix,GT,37.4837297,-122.1828061,-28.031792535364627,16.152998,0.1,130.7976,1627415982439
Fix,GT,37.4836279,-122.1826759,-27.902309186726807,16.225971,0.1,137.0033,1627415983439
Fix,GT,37.4835141,-122.1825598,-27.78187334537506,16.23447,0.1,143.79541,1627415984439
Fix,GT,37.4833904,-122.182466,-27.610528352737425,15.87969,0.1,152.72253,1627415985439
Fix,GT,37.4832605,-122.1823975,-27.35362003040313,15.379999,0.1,159.93506,1627415986439
Fix,GT,37.4831335,-122.1823449,-27.0442283898294,14.290793,0.1,162.0794,1627415987439
Fix,GT,37.4830174,-122.1822957,-26.64924005222321,12.823849,0.1,160.40063,1627415988439
Fix,GT,37.4829178,-122.1822458,-26.161113394260404,11.245764,0.1,156.7359,1627415989439
Fix,GT,37.4828296,-122.1821915,-25.66384998100996,10.57675,0.1,151.66937,1627415990439
Fix,GT,37.4827505,-122.1821315,-25.244975873053072,9.950947,0.1,147.34,1627415991439
Fix,GT,37.4826786,-122.18207,-25.00140168535709,9.369635,0.1,144.7594,1627415992439
Fix,GT,37.4826156,-122.1820082,-24.85291917771101,8.3282585,0.1,139.37543,1627415993439
Fix,GT,37.4825699,-122.1819389,-24.6942649088502,7.733181,0.1,124.47308,1627415994439
Fix,GT,37.4825466,-122.1818567,-24.54552907732129,7.881592,0.1,103.34897,1627415995439
Fix,GT,37.4825514,-122.1817662,-24.270665857970712,8.229375,0.1,79.160065,1627415996439
Fix,GT,37.4825833,-122.1816788,-23.81267671084404,8.84204,0.1,61.859283,1627415997439
Fix,GT,37.4826274,-122.1815906,-23.24755073913932,9.587607,0.1,56.505188,1627415998439
Fix,GT,37.4826781,-122.1814981,-22.64145836389065,10.221039,0.1,55.338257,1627415999439
Fix,GT,37.4827318,-122.1814021,-22.076550036668777,10.484801,0.1,54.694366,1627416000439
Fix,GT,37.4827876,-122.1813054,-21.53028522187472,10.567987,0.1,53.93576,1627416001439
Fix,GT,37.4828439,-122.1812108,-21.04141315108538,10.243566,0.1,52.83783,1627416002439
Fix,GT,37.4828995,-122.181122,-20.64832085055113,9.716073,0.1,51.17221,1627416003439
Fix,GT,37.482954,-122.1810423,-20.34013750559092,8.659906,0.1,48.43335,1627416004439
Fix,GT,37.4830036,-122.1809773,-20.12896500670909,7.4403543,0.1,45.728638,1627416005439
Fix,GT,37.4830502,-122.1809196,-19.971919171512127,7.097804,0.1,44.371277,1627416006439
Fix,GT,37.4830968,-122.1808642,-19.83731000447273,7.2640896,0.1,43.251526,1627416007439
Fix,GT,37.4831459,-122.1808081,-19.715309416413305,7.4001055,0.1,42.044495,1627416008439
Fix,GT,37.483196,-122.1807537,-19.629045249402523,7.2650256,0.1,40.561554,1627416009439
Fix,GT,37.4832459,-122.1807021,-19.57326416760683,7.1450796,0.1,39.21701,1627416010439
Fix,GT,37.4832979,-122.1806505,-19.5364366672039,7.6588907,0.1,38.05902,1627416011439
Fix,GT,37.4833539,-122.1805972,-19.496608585715293,7.9085417,0.1,36.9281,1627416012439
Fix,GT,37.4834122,-122.180544,-19.5101730812788,7.986451,0.1,35.786285,1627416013439
Fix,GT,37.4834711,-122.1804925,-19.55334558311105,8.034513,0.1,34.64096,1627416014439
Fix,GT,37.4835334,-122.1804402,-19.631344415098432,8.713391,0.1,33.46701,1627416015439
Fix,GT,37.4836028,-122.1803842,-19.73142524579168,9.5269,0.1,32.52292,1627416016439
Fix,GT,37.4836762,-122.180326,-19.89903500187397,9.645469,0.1,32.682434,1627416017439
Fix,GT,37.4837481,-122.1802647,-20.06681726834178,9.6628685,0.1,35.018097,1627416018439
Fix,GT,37.4838183,-122.1801989,-20.377851675152776,9.798617,0.1,37.791473,1627416019439
Fix,GT,37.4838808,-122.1801201,-20.779622521579263,9.889385,0.1,50.058228,1627416020439
Fix,GT,37.4839246,-122.1800221,-21.467830043792723,10.110582,0.1,65.6084,1627416021439
Fix,GT,37.4839464,-122.1799088,-22.27561171150208,10.530299,0.1,81.63226,1627416022439
Fix,GT,37.4839419,-122.1797869,-23.2082565805614,11.065851,0.1,98.08597,1627416023439
Fix,GT,37.4839088,-122.1796681,-24.200255899310115,11.260765,0.1,115.2825,1627416024439
Fix,GT,37.4838473,-122.1795672,-25.21847498476505,11.340242,0.1,133.8305,1627416025439
Fix,GT,37.483762,-122.1794955,-26.23822167128324,11.570958,0.1,152.51794,1627416026439
Fix,GT,37.483661,-122.1794601,-27.05314004611969,11.775328,0.1,170.62823,1627416027439
Fix,GT,37.483555,-122.179463,-27.68776003074646,11.797045,0.1,187.14862,1627416028439
Fix,GT,37.4834551,-122.1795053,-27.958080841660497,11.648607,0.1,205.21097,1627416029439
Fix,GT,37.4833723,-122.1795844,-28.049345004558567,11.59291,0.1,224.2961,1627416030439
Fix,GT,37.4833165,-122.1796935,-28.00365583062172,11.429243,0.1,244.63214,1627416031439
Fix,GT,37.4832929,-122.1798186,-27.959700824975968,11.528089,0.1,262.7318,1627416032439
Fix,GT,37.4832969,-122.1799521,-27.80279331475496,12.255383,0.1,276.82977,1627416033439
Fix,GT,37.4833247,-122.1800925,-27.594091659665107,13.451504,0.1,288.0758,1627416034439
Fix,GT,37.4833732,-122.1802402,-27.49804582983256,14.802067,0.1,294.6015,1627416035439
Fix,GT,37.4834337,-122.1803966,-27.51417332196236,16.411806,0.1,295.89185,1627416036439
Fix,GT,37.4835034,-122.1805803,-27.50812667131424,19.3595,0.1,294.93356,1627416037439
Fix,GT,37.4835793,-122.1807917,-27.48148249477148,21.601742,0.1,293.7024,1627416038439
Fix,GT,37.4836606,-122.1810279,-27.45356333565712,23.890745,0.1,292.89014,1627416039439
Fix,GT,37.4837468,-122.1812888,-27.47252832520008,25.846674,0.1,291.78162,1627416040439
Fix,GT,37.483832,-122.1815664,-27.40439083391428,26.638638,0.1,290.39197,1627416041439
Fix,GT,37.4839153,-122.1818505,-27.41078248488904,26.719578,0.1,290.20572,1627416042439
Fix,GT,37.4839983,-122.1821328,-27.44695498794317,26.508877,0.1,290.08572,1627416043439
Fix,GT,37.484078,-122.1824141,-27.489999999999995,26.309929,0.1,288.99017,1627416044439
Fix,GT,37.4841536,-122.1826964,-27.55973583865165,26.47192,0.1,288.25452,1627416045439
Fix,GT,37.4842309,-122.1829827,-27.573736660540103,26.936335,0.1,289.31583,1627416046439
Fix,GT,37.484313,-122.1832716,-27.64395417106152,27.344242,0.1,289.65628,1627416047439
Fix,GT,37.4843958,-122.1835656,-27.70834500598908,27.829554,0.1,289.14917,1627416048439
Fix,GT,37.4844777,-122.1838656,-27.802345835387708,28.249731,0.1,288.4298,1627416049439
Fix,GT,37.4845576,-122.1841713,-27.89290834569931,28.634632,0.1,287.86865,1627416050439
Fix,GT,37.484637,-122.1844814,-27.96078166937828,28.959162,0.1,287.68372,1627416051439
Fix,GT,37.4847161,-122.1847953,-27.996564173191786,29.271746,0.1,287.3111,1627416052439
Fix,GT,37.4847939,-122.185113,-28.02739166998863,29.470554,0.1,286.8107,1627416053439
Fix,GT,37.4848698,-122.1854325,-28.05595501086116,29.512348,0.1,286.28085,1627416054439
Fix,GT,37.4849435,-122.1857535,-28.091126679897307,29.59292,0.1,285.7533,1627416055439
Fix,GT,37.4850151,-122.1860767,-28.135781670093536,29.738659,0.1,285.22214,1627416056439
Fix,GT,37.4850843,-122.1864024,-28.18002158510685,29.86628,0.1,284.53052,1627416057439
Fix,GT,37.4851508,-122.18673,-28.202735846996305,29.934914,0.1,283.97113,1627416058439
Fix,GT,37.4852149,-122.1870589,-28.2391716645658,29.97071,0.1,283.36267,1627416059439
Fix,GT,37.4852757,-122.1873891,-28.259781671047207,29.955574,0.1,282.57336,1627416060439
Fix,GT,37.4853332,-122.1877196,-28.271953335553405,29.862259,0.1,281.92096,1627416061439
Fix,GT,37.4853875,-122.1880497,-28.303999156475065,29.765476,0.1,281.4047,1627416062439
Fix,GT,37.48544,-122.1883796,-28.324954179406166,29.773264,0.1,281.0801,1627416063439
Fix,GT,37.4854907,-122.1887107,-28.36395418000221,29.866508,0.1,280.61755,1627416064439
Fix,GT,37.485539,-122.1890435,-28.39521917396784,29.964226,0.1,279.91415,1627416065439
Fix,GT,37.4855844,-122.1893778,-28.43417335617542,30.021595,0.1,279.32855,1627416066439
Fix,GT,37.4856273,-122.1897133,-28.469344171017404,30.0901,0.1,278.82382,1627416067439
Fix,GT,37.4856685,-122.1900504,-28.542735007077457,30.276882,0.1,278.5235,1627416068439
Fix,GT,37.4857094,-122.1903903,-28.642516679883,30.519539,0.1,278.4997,1627416069439
Fix,GT,37.4857508,-122.1907327,-28.69973586034775,30.719242,0.1,278.62442,1627416070439
Fix,GT,37.4857932,-122.1910773,-28.75117251229286,30.956821,0.1,278.73376,1627416071439
Fix,GT,37.4858361,-122.1914244,-28.790218324661254,31.166433,0.1,278.69766,1627416072439
Fix,GT,37.4858788,-122.1917734,-28.83699914059043,31.273663,0.1,278.5377,1627416073439
Fix,GT,37.485921,-122.1921226,-28.878954191327097,31.111492,0.1,278.71234,1627416074439
Fix,GT,37.4859645,-122.1924686,-28.91212757077813,30.893867,0.1,279.0692,1627416075439
Fix,GT,37.4860086,-122.1928127,-28.952344170212744,30.751072,0.1,279.01764,1627416076439
Fix,GT,37.4860521,-122.1931551,-29.00582834708691,30.565876,0.1,278.96997,1627416077439
Fix,GT,37.4860954,-122.1934947,-29.05095506256819,30.242025,0.1,279.0041,1627416078439
Fix,GT,37.4861373,-122.1938306,-29.096610027432444,29.903671,0.1,278.58917,1627416079439
Fix,GT,37.4861773,-122.1941629,-29.139173388272525,29.551132,0.1,278.6226,1627416080439
Fix,GT,37.4862179,-122.1944917,-29.171218319535257,29.320019,0.1,278.9108,1627416081439
