MessageType,Provider,LatitudeDegrees,LongitudeDegrees,AltitudeMeters,SpeedMps,AccuracyMeters,BearingDegrees,UnixTimeMillis
Fix,GT,37.3713141,-122.0479799,9.097,0.001,0.1,195.18973,1615417983662
Fix,GT,37.3713141,-122.0479799,9.097,0.001,0.1,195.1898,1615417984645
Fix,GT,37.3713141,-122.0479799,9.097,0.0006419899,0.1,195.18977,1615417985664
Fix,GT,37.3713141,-122.0479799,9.097,0.0012470629,0.1,195.18988,1615417986659
Fix,GT,37.3713141,-122.0479799,9.097,0.0015105697,0.1,195.18999,1615417987651
Fix,GT,37.3713141,-122.0479799,9.097,0.0011475283,0.1,195.19002,1615417988657
Fix,GT,37.3713141,-122.0479799,9.097,0.0005386664,0.1,195.19008,1615417989646
Fix,GT,37.3713141,-122.0479799,9.097,0.0011401826,0.1,195.19014,1615417990666
Fix,GT,37.3713141,-122.0479799,9.097,0.00041769506,0.1,195.19006,1615417991658
Fix,GT,37.3713141,-122.0479799,9.097,0.0045538675,0.1,195.1911,1615417992650
Fix,GT,37.3713121,-122.0479804,9.091,0.56416184,0.1,194.86377,1615417993660
Fix,GT,37.3713045,-122.0479817,9.0964530056417,1.1127322,0.1,192.44846,1615417994645
Fix,GT,37.3712927,-122.0479831,9.108434437990187,1.5005382,0.1,188.9738,1615417995643
Fix,GT,37.3712777,-122.0479849,9.126696890771388,1.7793983,0.1,187.14249,1615417996656
Fix,GT,37.371261,-122.047989,9.152452612698076,1.9525149,0.1,190.11102,1615417997648
Fix,GT,37.3712471,-122.0480009,9.2040170327425,1.5559022,0.1,205.84969,1615417998660
Fix,GT,37.37124,-122.0480171,9.238092710494996,1.5719804,0.1,225.26193,1615417999654
Fix,GT,37.3712373,-122.0480382,9.26627499485016,1.8848338,0.1,247.44604,1615418000663
Fix,GT,37.3712393,-122.0480622,9.276500129997729,2.2817683,0.1,265.96234,1615418001650
Fix,GT,37.3712433,-122.0480898,9.305957040160894,2.6316233,0.1,276.10364,1615418002647
Fix,GT,37.371249,-122.0481219,9.348363505125045,3.1559632,0.1,281.302,1615418003659
Fix,GT,37.3712559,-122.0481584,9.41218571949005,3.416322,0.1,282.80133,1615418004652
Fix,GT,37.3712629,-122.0481963,9.475872065722942,3.4275422,0.1,282.92224,1615418005648
Fix,GT,37.3712696,-122.048233,9.474497295081616,3.2928886,0.1,282.84314,1615418006650
Fix,GT,37.3712762,-122.0482696,9.460982769966126,3.3346057,0.1,283.0786,1615418007650
Fix,GT,37.3712838,-122.0483066,9.437100276470185,3.3773804,0.1,284.49432,1615418008663
Fix,GT,37.3712922,-122.0483429,9.35955825471878,3.3445277,0.1,286.08807,1615418009655
Fix,GT,37.3713003,-122.0483781,9.372020223021506,2.9655275,0.1,285.899,1615418010667
Fix,GT,37.371306,-122.0484058,9.396915105223655,2.122653,0.1,284.4306,1615418011658
Fix,GT,37.3713092,-122.0484225,9.42243522399664,0.9292983,0.1,283.878,1615418012643
Fix,GT,37.3713101,-122.0484272,9.422,0.17980817,0.1,283.77673,1615418013654
Fix,GT,37.3713105,-122.0484297,9.421,0.35667744,0.1,283.71643,1615418014648
Fix,GT,37.3713118,-122.0484358,9.424463360488414,0.7988337,0.1,283.5773,1615418015646
Fix,GT,37.3713142,-122.0484491,9.445173471689223,1.6245754,0.1,283.2757,1615418016658
Fix,GT,37.371318,-122.0484707,9.486998007535934,2.2419095,0.1,282.73157,1615418017649
Fix,GT,37.3713223,-122.048495,9.506510036528107,2.1279597,0.1,282.1779,1615418018650
Fix,GT,37.3713267,-122.0485174,9.546223109424115,2.0390553,0.1,283.3291,1615418019646
Fix,GT,37.3713354,-122.0485363,9.48924413907528,1.6759417,0.1,295.10025,1615418020637
Fix,GT,37.37135,-122.0485471,9.27550623703003,1.999888,0.1,316.2568,1615418021655
Fix,GT,37.3713711,-122.0485518,9.35982141828537,2.5909657,0.1,339.28577,1615418022641
Fix,GT,37.3713993,-122.0485487,9.450032668828964,3.6408677,0.1,0.70266724,1615418023651
Fix,GT,37.3714378,-122.0485379,9.476097209215164,5.195739,0.1,12.460205,1615418024645
Fix,GT,37.3714873,-122.0485194,9.440633580327033,6.0665708,0.1,16.602325,1615418025639
Fix,GT,37.3715396,-122.0484967,9.379295703649522,5.9971547,0.1,19.326141,1615418026656
Fix,GT,37.3715882,-122.0484713,9.311536972284316,5.70198,0.1,23.325134,1615418027648
Fix,GT,37.3716298,-122.0484415,9.24106591784954,4.7791634,0.1,31.114075,1615418028658
Fix,GT,37.3716605,-122.0484091,9.204481575369837,4.349098,0.1,41.15265,1615418029651
Fix,GT,37.3716851,-122.0483712,9.183599585324526,4.554289,0.1,51.00299,1615418030640
Fix,GT,37.3717074,-122.048324,9.199344807207584,5.128566,0.1,60.370117,1615418031644
Fix,GT,37.3717249,-122.0482662,9.227154749035837,5.8808374,0.1,70.62924,1615418032643
Fix,GT,37.371735,-122.0481948,9.26121833229065,6.7618513,0.1,82.37402,1615418033660
Fix,GT,37.3717315,-122.0481142,9.25649774301052,7.7145357,0.1,96.13428,1615418034650
Fix,GT,37.3717152,-122.048024,9.236567150861024,8.746849,0.1,103.81381,1615418035647
Fix,GT,37.3716935,-122.047922,9.2143564530015,9.800699,0.1,104.93463,1615418036654
Fix,GT,37.3716703,-122.0478109,9.20002124619484,10.581977,0.1,104.2785,1615418037649
Fix,GT,37.371646,-122.0476912,9.167962906718254,11.045383,0.1,104.260345,1615418038660
Fix,GT,37.371621,-122.0475691,9.119207362532617,11.608612,0.1,104.379486,1615418039646
Fix,GT,37.3715944,-122.0474396,9.075529050827026,12.144325,0.1,104.240326,1615418040643
Fix,GT,37.3715667,-122.0473036,9.012241965055466,12.404887,0.1,104.427826,1615418041653
Fix,GT,37.3715381,-122.0471682,8.962661564946174,12.596935,0.1,104.864044,1615418042647
Fix,GT,37.371508,-122.0470278,8.892115004122257,12.970415,0.1,104.97775,1615418043655
Fix,GT,37.3714779,-122.0468857,8.821489108622075,13.194052,0.1,104.60101,1615418044650
Fix,GT,37.3714474,-122.0467384,8.743472051739692,13.39172,0.1,104.53293,1615418045664
Fix,GT,37.371417,-122.0465919,8.68049305176735,13.572036,0.1,104.54724,1615418046658
Fix,GT,37.3713856,-122.0464436,8.587864374160766,13.801397,0.1,104.85895,1615418047650
Fix,GT,37.371353,-122.0462898,8.479224337100984,14.012884,0.1,104.75311,1615418048664
Fix,GT,37.3713211,-122.0461382,8.417596639037132,14.198547,0.1,104.78876,1615418049649
Fix,GT,37.3712883,-122.0459836,8.344761495441197,14.3237915,0.1,104.72644,1615418050641
Fix,GT,37.3712553,-122.0458259,8.281043890237807,14.309788,0.1,104.6633,1615418051648
Fix,GT,37.3712226,-122.0456704,8.249001243114472,14.143644,0.1,104.71655,1615418052650
Fix,GT,37.3711899,-122.0455148,8.245272626399995,13.996046,0.1,104.677124,1615418053663
Fix,GT,37.3711581,-122.0453642,8.27613792848587,13.885742,0.1,104.93347,1615418054653
Fix,GT,37.3711253,-122.0452144,8.284928822577,13.83047,0.1,105.4299,1615418055646
Fix,GT,37.3710912,-122.0450629,8.307723804950713,13.732384,0.1,105.65283,1615418056657
Fix,GT,37.3710578,-122.0449152,8.306,13.675758,0.1,105.82248,1615418057650
Fix,GT,37.3710244,-122.0447691,8.267736651778222,13.610138,0.1,105.91562,1615418058636
Fix,GT,37.3709901,-122.0446196,8.230850974321365,13.527931,0.1,105.967285,1615418059652
Fix,GT,37.3709567,-122.0444737,8.157659759342671,13.488676,0.1,105.94205,1615418060648
Fix,GT,37.3709227,-122.0443268,8.098306279599665,13.33552,0.1,106.20419,1615418061656
Fix,GT,37.3708886,-122.0441843,8.000792814254762,13.187212,0.1,106.902374,1615418062652
Fix,GT,37.3708531,-122.0440408,7.888573987722397,13.206091,0.1,107.188965,1615418063660
Fix,GT,37.3708182,-122.0438997,7.782558879733085,13.105753,0.1,107.30194,1615418064654
Fix,GT,37.3707831,-122.0437598,7.687646091967821,13.050543,0.1,107.46469,1615418065648
Fix,GT,37.370747,-122.0436183,7.594828103959561,13.03298,0.1,107.74701,1615418066657
Fix,GT,37.3707113,-122.0434789,7.497370859026908,13.026606,0.1,107.630585,1615418067651
Fix,GT,37.3706754,-122.0433377,7.42141659271717,13.030201,0.1,107.60559,1615418068659
Fix,GT,37.3706399,-122.0431983,7.330884292840958,13.093452,0.1,107.673096,1615418069652
Fix,GT,37.3706032,-122.0430549,7.23701778614521,13.245977,0.1,107.76367,1615418070666
Fix,GT,37.3705628,-122.0428983,7.165794090867042,13.401783,0.1,107.92844,1615418071760
Fix,GT,37.370537,-122.0427988,7.1035053832829,13.488943,0.1,107.8613,1615418072449
Fix,GT,37.3704921,-122.0426233,7.027510663986206,13.437453,0.1,107.76355,1615418073660
Fix,GT,37.3704556,-122.0424807,6.940902296662331,13.333996,0.1,107.58835,1615418074650
Fix,GT,37.3704198,-122.0423388,6.872171732544899,13.11116,0.1,107.46478,1615418075647
Fix,GT,37.370384,-122.0421986,6.807898688316345,12.854292,0.1,107.81613,1615418076651
Fix,GT,37.3703484,-122.0420626,6.735202926009894,12.61194,0.1,108.12686,1615418077647
Fix,GT,37.3703128,-122.0419264,6.6767807975411415,12.347758,0.1,108.01819,1615418078664
Fix,GT,37.3702793,-122.0417975,6.63157685226202,12.092377,0.1,108.04791,1615418079647
Fix,GT,37.3702455,-122.0416695,6.581143414974212,11.887104,0.1,108.31424,1615418080642
Fix,GT,37.3702121,-122.0415444,6.552492687404156,11.196474,0.1,108.52457,1615418081650
Fix,GT,37.3701811,-122.041431,6.530224306344986,10.029726,0.1,108.956024,1615418082646
Fix,GT,37.3701533,-122.0413314,6.511783139467239,8.283658,0.1,109.37604,1615418083660
Fix,GT,37.3701316,-122.0412548,6.497993256807327,6.331995,0.1,109.22534,1615418084650
Fix,GT,37.370116,-122.0411972,6.485,4.4147654,0.1,108.78125,1615418085647
Fix,GT,37.3701061,-122.0411604,6.470424376547337,2.3859177,0.1,108.61609,1615418086657
Fix,GT,37.3701019,-122.0411453,6.467,0.49081755,0.1,108.65726,1615418087644
Fix,GT,37.3701017,-122.0411447,6.457509161770345,0.0038595868,0.1,108.665924,1615418088650
Fix,GT,37.3701017,-122.0411447,6.457000192433595,0.0018537308,0.1,108.664825,1615418089646
Fix,GT,37.3701017,-122.0411447,6.456999807566405,0.0,0.1,108.664185,1615418090646
Fix,GT,37.3701017,-122.0411447,6.457,0.000474095,0.1,108.6644,1615418091752
Fix,GT,37.3701017,-122.0411447,6.457000192433595,0.0,0.1,108.664276,1615418092542
Fix,GT,37.3701017,-122.0411447,6.457,0.0,0.1,108.664215,1615418093553
Fix,GT,37.3701017,-122.0411447,6.457,0.0,0.1,108.66431,1615418094453
Fix,GT,37.3701017,-122.0411447,6.456999807566405,0.0,0.1,108.6644,1615418095636
Fix,GT,37.3701017,-122.0411447,6.457,0.0,0.1,108.66454,1615418096650
Fix,GT,37.3701017,-122.0411447,6.456999807566405,0.0,0.1,108.66449,1615418097641
Fix,GT,37.3701017,-122.0411447,6.457000000000001,0.0,0.1,108.66437,1615418098635
Fix,GT,37.3701017,-122.0411447,6.457,0.0,0.1,108.66437,1615418099654
Fix,GT,37.3701017,-122.0411447,6.457,0.0,0.1,108.66437,1615418100665
Fix,GT,37.3701017,-122.0411447,6.457,0.0,0.1,108.66449,1615418101656
Fix,GT,37.3701017,-122.0411447,6.457,0.0,0.1,108.66431,1615418102644
Fix,GT,37.3701017,-122.0411447,6.456999999999999,0.0,0.1,108.66467,1615418103635
Fix,GT,37.3701017,-122.0411447,6.457,0.00058880734,0.1,108.66467,1615418104641
Fix,GT,37.3701017,-122.0411447,6.457,0.00041892138,0.1,108.664734,1615418105641
Fix,GT,37.3701017,-122.0411447,6.457,0.001,0.1,108.66467,1615418106656
Fix,GT,37.3701017,-122.0411447,6.457,0.0012008578,0.1,108.66464,1615418107651
Fix,GT,37.3701017,-122.0411447,6.457,0.0011988722,0.1,108.66449,1615418108651
Fix,GT,37.3701017,-122.0411447,6.457000192433595,0.00044007425,0.1,108.66461,1615418109644
Fix,GT,37.3701017,-122.0411447,6.457,0.001,0.1,108.66467,1615418110747
Fix,GT,37.3701017,-122.0411447,6.457,0.001,0.1,108.66467,1615418111560
Fix,GT,37.3701017,-122.0411447,6.457,0.001,0.1,108.66461,1615418112449
Fix,GT,37.3701017,-122.0411447,6.456,0.004422013,0.1,108.6647,1615418113663
Fix,GT,37.3701013,-122.0411429,6.447078708171844,0.56858236,0.1,108.67111,1615418114646
Fix,GT,37.3700963,-122.0411248,6.4365502210855485,2.5927968,0.1,108.74991,1615418115744
Fix,GT,37.3700895,-122.0410996,6.427809097528457,4.005036,0.1,108.808655,1615418116459
Fix,GT,37.3700718,-122.0410353,6.399998318195343,6.192919,0.1,108.90292,1615418117650
Fix,GT,37.3700512,-122.0409597,6.386520999193191,7.6926937,0.1,108.842285,1615418118661
Fix,GT,37.3700274,-122.0408732,6.366078066259624,8.77508,0.1,108.874054,1615418119646
Fix,GT,37.3700003,-122.0407734,6.353459644258022,9.899619,0.1,108.66104,1615418120645
Fix,GT,37.3699699,-122.0406598,6.3450108503103255,11.020172,0.1,108.36542,1615418121659
Fix,GT,37.3699377,-122.0405365,6.326456520318985,12.08751,0.1,107.9093,1615418122654
Fix,GT,37.369904,-122.0404052,6.304990118443966,12.839864,0.1,107.64017,1615418123633
Fix,GT,37.3698673,-122.0402609,6.278516435533762,13.566683,0.1,107.69055,1615418124649
Fix,GT,37.3698298,-122.0401134,6.25110687327385,13.793938,0.1,107.569305,1615418125647
Fix,GT,37.3697915,-122.039964,6.210029699683189,13.760363,0.1,107.82318,1615418126656
Fix,GT,37.3697535,-122.039817,6.161843264102936,13.744511,0.1,107.889465,1615418127651
Fix,GT,37.3697151,-122.0396677,6.0892489070892335,13.750221,0.1,107.84354,1615418128662
Fix,GT,37.3696774,-122.0395211,6.061800830364227,13.740652,0.1,107.769165,1615418129654
Fix,GT,37.3696386,-122.0393712,6.0836788301467895,13.946493,0.1,107.89792,1615418130666
Fix,GT,37.3695997,-122.0392199,6.083736159205436,14.452541,0.1,107.74725,1615418131657
Fix,GT,37.3695597,-122.0390641,6.081,14.654142,0.1,107.65814,1615418132649
Fix,GT,37.3695192,-122.0389057,6.054146211624145,14.419777,0.1,107.71759,1615418133661
Fix,GT,37.3694804,-122.0387539,6.030030980944634,14.135109,0.1,107.79373,1615418134651
Fix,GT,37.3694417,-122.0386053,5.986772990137339,13.856314,0.1,107.92743,1615418135640
Fix,GT,37.369403,-122.0384557,5.964708771884442,13.558692,0.1,107.84766,1615418136656
Fix,GT,37.3693659,-122.0383121,5.956852676868438,13.272999,0.1,107.88321,1615418137653
Fix,GT,37.3693293,-122.0381698,5.928767018198967,12.989065,0.1,107.78244,1615418138661
Fix,GT,37.369294,-122.038032,5.912674208879471,12.974369,0.1,107.62576,1615418139653
Fix,GT,37.3692585,-122.0378923,5.904447245359421,13.217272,0.1,107.63165,1615418140644
Fix,GT,37.3692219,-122.0377483,5.887413933634758,13.281439,0.1,107.65234,1615418141652
Fix,GT,37.369186,-122.0376063,5.859587348222733,13.256026,0.1,107.53778,1615418142648
Fix,GT,37.3691498,-122.0374613,5.839455600261688,13.5082035,0.1,107.0354,1615418143654
Fix,GT,37.3691147,-122.0373112,5.814849400162697,13.698198,0.1,105.75397,1615418144671
Fix,GT,37.3690822,-122.0371621,5.806367355823516,13.920974,0.1,105.06149,1615418145665
Fix,GT,37.3690501,-122.0370102,5.7679882683753965,14.37183,0.1,104.50699,1615418146650
Fix,GT,37.3690176,-122.0368469,5.68948704200983,14.837191,0.1,103.52124,1615418147670
Fix,GT,37.3689868,-122.0366833,5.660826496899128,15.228024,0.1,102.977264,1615418148660
Fix,GT,37.3689557,-122.0365135,5.577818661808967,15.3876,0.1,102.95166,1615418149669
Fix,GT,37.3689245,-122.0363438,5.542187723517418,15.960619,0.1,102.74982,1615418150656
Fix,GT,37.3688923,-122.0361651,5.505926726937294,16.553867,0.1,102.58957,1615418151653
Fix,GT,37.3688587,-122.0359775,5.488356032848358,17.092852,0.1,102.66556,1615418152666
Fix,GT,37.3688242,-122.0357887,5.470950936913491,17.350666,0.1,102.96594,1615418153660
Fix,GT,37.3687884,-122.0355947,5.439271781265736,17.506628,0.1,103.039185,1615418154672
Fix,GT,37.3687526,-122.0354037,5.402900541484356,17.606314,0.1,103.15405,1615418155661
Fix,GT,37.3687168,-122.0352117,5.373660544633865,17.567884,0.1,102.88037,1615418156655
Fix,GT,37.3686809,-122.0350164,5.350041572570801,17.568892,0.1,103.10544,1615418157665
Fix,GT,37.3686439,-122.0348255,5.33212418794632,17.51421,0.1,104.0603,1615418158657
Fix,GT,37.3686037,-122.0346362,5.307941120266914,17.307861,0.1,105.53143,1615418159652
Fix,GT,37.3685602,-122.0344514,5.2531050459146496,17.169834,0.1,106.92746,1615418160644
Fix,GT,37.3685118,-122.0342652,5.242130137801171,17.112123,0.1,108.89484,1615418161656
Fix,GT,37.3684596,-122.0340863,5.203344574928284,17.020905,0.1,110.81531,1615418162645
Fix,GT,37.3684018,-122.0339059,5.179599736094475,16.920656,0.1,112.46988,1615418163659
Fix,GT,37.3683424,-122.0337327,5.128488827347756,16.768082,0.1,113.6268,1615418164650
Fix,GT,37.3682805,-122.0335624,5.112704629898071,16.491526,0.1,115.170654,1615418165647
Fix,GT,37.3682145,-122.0333953,5.054406946659089,16.210651,0.1,117.05835,1615418166657
Fix,GT,37.368147,-122.0332366,5.014423724889755,15.820419,0.1,118.55664,1615418167651
Fix,GT,37.3680783,-122.0330832,5.010416004359723,14.974326,0.1,119.706726,1615418168658
Fix,GT,37.3680069,-122.0329316,5.038039534330368,13.515564,0.1,121.057434,1615418169751
Fix,GT,37.3679642,-122.032845,5.024670360505581,12.559601,0.1,121.97034,1615418170444
Fix,GT,37.3678949,-122.0327103,5.01,10.875275,0.1,123.32065,1615418171657
Fix,GT,37.3678441,-122.0326164,5.005487998127937,9.281347,0.1,124.503235,1615418172648
Fix,GT,37.3678005,-122.0325392,4.992413327515125,7.2568235,0.1,125.50098,1615418173658
Fix,GT,37.3677679,-122.0324828,4.980509930670261,5.1543455,0.1,125.92755,1615418174649
Fix,GT,37.3677459,-122.0324451,4.968000148057937,3.2713747,0.1,126.12451,1615418175648
Fix,GT,37.3677321,-122.0324218,4.953896402001382,1.9395661,0.1,126.20334,1615418176655
Fix,GT,37.3677251,-122.0324096,4.948,0.70873,0.1,126.13696,1615418177650
Fix,GT,37.367723,-122.0324059,4.943,0.10426664,0.1,126.116455,1615418178658
Fix,GT,37.3677229,-122.0324059,4.937489144563675,0.0020576664,0.1,126.11743,1615418179651
Fix,GT,37.3677229,-122.0324059,4.937,0.0014142136,0.1,126.115875,1615418180658
Fix,GT,37.3677229,-122.0324059,4.937,0.0014766711,0.1,126.11578,1615418181652
Fix,GT,37.367723,-122.0324059,4.937,0.002,0.1,126.115814,1615418182669
Fix,GT,37.367723,-122.0324059,4.937,0.001,0.1,126.11578,1615418183658
Fix,GT,37.367723,-122.0324059,4.937,0.0006947385,0.1,126.11542,1615418184669
Fix,GT,37.367723,-122.0324059,4.937,0.0003470937,0.1,126.11563,1615418185665
Fix,GT,37.3677229,-122.0324059,4.936999852865935,0.0008048972,0.1,126.1156,1615418186643
Fix,GT,37.3677229,-122.0324059,4.937,0.0,0.1,126.11566,1615418187660
Fix,GT,37.3677229,-122.0324059,4.937,0.0,0.1,126.11578,1615418188655
Fix,GT,37.3677229,-122.0324059,4.937,0.0,0.1,126.11542,1615418189668
Fix,GT,37.3677229,-122.0324059,4.937,0.0014142136,0.1,126.115265,1615418190664
Fix,GT,37.3677229,-122.0324059,4.937,0.001,0.1,126.11536,1615418191679
Fix,GT,37.3677229,-122.0324059,4.936999852865935,0.0012159455,0.1,126.11554,1615418192647
Fix,GT,37.3677229,-122.0324059,4.937,0.0,0.1,126.1156,1615418193665
Fix,GT,37.3677229,-122.0324059,4.937,0.00041404495,0.1,126.11557,1615418194658
Fix,GT,37.3677229,-122.0324059,4.937,0.0,0.1,126.11557,1615418195666
Fix,GT,37.3677229,-122.0324059,4.937,0.0,0.1,126.11551,1615418196658
Fix,GT,37.3677229,-122.0324059,4.936999852865935,0.001,0.1,126.11554,1615418197644
Fix,GT,37.3677229,-122.0324059,4.937,0.0,0.1,126.11578,1615418198663
Fix,GT,37.3677229,-122.0324059,4.937,0.0,0.1,126.115814,1615418199655
Fix,GT,37.3677229,-122.0324059,4.937,0.0006662399,0.1,126.115875,1615418200666
Fix,GT,37.3677229,-122.0324059,4.937,0.00040454097,0.1,126.115814,1615418201659
Fix,GT,37.3677229,-122.0324059,4.937,0.00047701463,0.1,126.11597,1615418202652
Fix,GT,37.3677229,-122.0324059,4.937,0.00035427423,0.1,126.11609,1615418203635
Fix,GT,37.3677229,-122.0324059,4.937,0.0,0.1,126.11597,1615418204750
Fix,GT,37.3677229,-122.0324059,4.937,0.0016914124,0.1,126.11597,1615418205447
Fix,GT,37.3677229,-122.0324059,4.937,0.00040618356,0.1,126.115814,1615418206659
Fix,GT,37.3677229,-122.0324059,4.937,0.00048620036,0.1,126.1156,1615418207651
Fix,GT,37.3677229,-122.0324059,4.937,0.00057596137,0.1,126.11572,1615418208657
Fix,GT,37.3677229,-122.0324059,4.937,0.000698186,0.1,126.11569,1615418209669
Fix,GT,37.3677229,-122.0324059,4.937,0.001,0.1,126.11566,1615418210668
Fix,GT,37.3677229,-122.0324059,4.937,0.0017925046,0.1,126.11578,1615418211679
Fix,GT,37.3677229,-122.0324059,4.937,0.0021613447,0.1,126.11578,1615418212668
Fix,GT,37.367723,-122.0324059,4.937,0.002,0.1,126.11578,1615418213652
Fix,GT,37.367723,-122.0324059,4.936,0.0034477175,0.1,126.11542,1615418214664
Fix,GT,37.3677222,-122.0324045,4.929341641783714,0.48629206,0.1,126.10477,1615418215665
Fix,GT,37.3677166,-122.0323949,4.92523430365324,1.6459372,0.1,126.01352,1615418216676
Fix,GT,37.3677042,-122.0323734,4.918,3.1654277,0.1,125.8436,1615418217668
Fix,GT,37.367683,-122.0323371,4.915,4.842341,0.1,126.04819,1615418218659
Fix,GT,37.367652,-122.0322842,4.911875396251679,6.8398204,0.1,126.41431,1615418219656
Fix,GT,37.3676091,-122.0322134,4.912966979622841,8.635688,0.1,127.27554,1615418220667
Fix,GT,37.3675585,-122.0321324,4.901405029535294,9.746749,0.1,128.37161,1615418221659
Fix,GT,37.3674998,-122.0320424,4.882357724308967,11.042419,0.1,129.49762,1615418222652
Fix,GT,37.367431,-122.0319406,4.8697784243822095,12.268713,0.1,130.57419,1615418223664
Fix,GT,37.3673563,-122.031835,4.8566730396151545,13.149909,0.1,132.1134,1615418224646
Fix,GT,37.367273,-122.0317239,4.803,13.791754,0.1,133.77881,1615418225646
Fix,GT,37.3671821,-122.0316092,4.799626582145691,14.514294,0.1,135.37646,1615418226659
Fix,GT,37.3670866,-122.0314929,4.77196303653717,15.295453,0.1,135.68268,1615418227650
Fix,GT,37.3669856,-122.031369,4.78483092200756,15.765863,0.1,135.54669,1615418228658
Fix,GT,37.3668841,-122.0312455,4.762614044666291,16.022516,0.1,136.06259,1615418229646
Fix,GT,37.3667795,-122.0311197,4.729,16.278091,0.1,136.10394,1615418230643
Fix,GT,37.3666714,-122.0309894,4.696840796589852,16.49495,0.1,136.03192,1615418231657
Fix,GT,37.3665643,-122.0308609,4.701521062076091,16.622337,0.1,136.2633,1615418232652
Fix,GT,37.3664549,-122.0307296,4.682623263835907,16.759333,0.1,136.10233,1615418233659
Fix,GT,37.3663472,-122.0305993,4.635947020083666,16.895893,0.1,135.86264,1615418234646
Fix,GT,37.3662385,-122.0304673,4.58984703180194,16.824451,0.1,135.71445,1615418235642
Fix,GT,37.3661286,-122.030334,4.557098903536797,16.634296,0.1,135.94077,1615418236655
Fix,GT,37.3660222,-122.0302056,4.479174660861492,16.473877,0.1,136.07544,1615418237648
Fix,GT,37.3659135,-122.0300745,4.448759956479073,16.485031,0.1,135.87329,1615418238664
Fix,GT,37.3658088,-122.0299472,4.427653823673725,16.583471,0.1,135.76816,1615418239644
Fix,GT,37.3657026,-122.0298172,4.399269362568855,16.690517,0.1,135.47202,1615418240634
Fix,GT,37.3655909,-122.02968,4.375186350882053,16.6324,0.1,135.71332,1615418241676
Fix,GT,37.3654841,-122.0295507,4.35689396417141,16.54651,0.1,135.97314,1615418242670
Fix,GT,37.3653782,-122.029423,4.357412287890911,16.440434,0.1,136.1098,1615418243658
Fix,GT,37.3652709,-122.0292947,4.337,16.325706,0.1,136.34619,1615418244663
Fix,GT,37.3651646,-122.0291678,4.294682242870331,16.177822,0.1,136.26294,1615418245665
Fix,GT,37.365061,-122.0290431,4.289391576766968,16.006853,0.1,136.02704,1615418246656
Fix,GT,37.3649563,-122.0289169,4.304311710000038,15.869875,0.1,136.02899,1615418247668
Fix,GT,37.3648545,-122.0287941,4.2868297916650775,15.839733,0.1,136.13275,1615418248658
Fix,GT,37.3647499,-122.0286684,4.217729847192764,15.870478,0.1,135.84149,1615418249672
Fix,GT,37.3646481,-122.0285438,4.214293299913406,15.886419,0.1,135.5297,1615418250667
Fix,GT,37.3645472,-122.0284206,4.18103323149681,15.914591,0.1,135.73804,1615418251651
Fix,GT,37.3644446,-122.0282959,4.160053152322769,15.938643,0.1,135.84894,1615418252647
Fix,GT,37.3643396,-122.0281686,4.1420845431685445,15.964291,0.1,135.93207,1615418253663
Fix,GT,37.3642371,-122.0280447,4.124393952608109,15.996708,0.1,136.01941,1615418254653
Fix,GT,37.3641318,-122.0279177,4.115671459317207,16.030499,0.1,135.98047,1615418255666
Fix,GT,37.3640286,-122.0277932,4.092578936040401,16.048847,0.1,136.08191,1615418256657
Fix,GT,37.3639251,-122.0276681,4.054847787380218,16.084555,0.1,135.96295,1615418257651
Fix,GT,37.3638199,-122.0275411,4.0294168578982354,16.13332,0.1,135.95538,1615418258658
Fix,GT,37.3637158,-122.0274151,4.039653874456882,16.124609,0.1,135.99756,1615418259653
Fix,GT,37.3636097,-122.0272878,4.048985723435879,16.032524,0.1,136.22137,1615418260667
Fix,GT,37.3635074,-122.0271649,4.043470152914524,15.947821,0.1,135.95093,1615418261650
Fix,GT,37.3634025,-122.0270376,4.038594162881374,15.915187,0.1,135.83777,1615418262668
Fix,GT,37.3632207,-122.0268176,3.9710889112651344,15.850845,0.099,136.04034,1615418264430
Fix,GT,37.3631185,-122.0266946,3.940177941083908,15.597913,0.1,136.0003,1615418265430
Fix,GT,37.3630181,-122.0265735,3.890392802029848,15.323062,0.1,136.06873,1615418266430
Fix,GT,37.3629199,-122.0264542,3.88473291349411,15.03747,0.1,135.59314,1615418267430
Fix,GT,37.3628239,-122.0263367,3.877214743852616,14.743173,0.1,135.53223,1615418268430
Fix,GT,37.3627297,-122.0262217,3.873607314348221,14.449844,0.1,135.823,1615418269430
Fix,GT,37.362637,-122.0261097,3.88730365729332,14.146776,0.1,135.98984,1615418270430
Fix,GT,37.362547,-122.0260012,3.919518286764622,13.37874,0.1,135.9852,1615418271430
Fix,GT,37.362465,-122.025902,3.9552146294116977,11.831463,0.1,135.98474,1615418272430
Fix,GT,37.3623943,-122.0258165,3.992910853177309,9.9632225,0.1,135.91187,1615418273430
Fix,GT,37.3623368,-122.0257469,4.034,7.7300353,0.1,135.92032,1615418274430
Fix,GT,37.3622941,-122.0256954,4.0546073150634765,5.4344306,0.1,136.08075,1615418275430
Fix,GT,37.3622651,-122.0256607,4.069303657650948,3.5441597,0.1,136.17804,1615418276430
Fix,GT,37.3622474,-122.0256395,4.076,2.0275314,0.1,136.24127,1615418277430
Fix,GT,37.3622364,-122.0256264,4.079,1.4619492,0.1,136.25244,1615418278430
Fix,GT,37.3622273,-122.0256154,4.080303657889367,1.4845802,0.1,136.23846,1615418279430
Fix,GT,37.362216,-122.0256018,4.08730377972126,2.0997458,0.1,136.19528,1615418280430
Fix,GT,37.3621991,-122.0255814,4.099910973846912,3.1946733,0.1,136.15076,1615418281430
Fix,GT,37.3621734,-122.0255505,4.116214632034302,4.794076,0.1,136.068,1615418282430
Fix,GT,37.3621372,-122.0255069,4.151821948409081,6.258836,0.1,135.92249,1615418283430
Fix,GT,37.3620926,-122.0254529,4.195911099493504,7.5213537,0.1,135.99518,1615418284430
Fix,GT,37.3620399,-122.0253902,4.231214632511139,8.597787,0.1,136.52704,1615418285430
Fix,GT,37.3619802,-122.0253198,4.26891097420454,9.565068,0.1,136.52985,1615418286430
Fix,GT,37.3619149,-122.0252416,4.315607316136361,10.476112,0.1,136.01117,1615418287430
Fix,GT,37.3618444,-122.0251556,4.328518419146538,11.376869,0.1,135.63461,1615418288430
Fix,GT,37.3617679,-122.0250631,4.41060731625557,12.173794,0.1,136.06586,1615418289430
Fix,GT,37.3616866,-122.0249654,4.477429131418466,12.838012,0.1,136.11206,1615418290430
Fix,GT,37.361601,-122.0248626,4.551125471115112,13.461717,0.1,136.07068,1615418291430
Fix,GT,37.3615116,-122.024756,4.6077329226136206,13.872854,0.1,136.52582,1615418292430
Fix,GT,37.36142,-122.0246477,4.689822087943554,14.085276,0.1,136.61765,1615418293430
Fix,GT,37.3613276,-122.0245376,4.74121477341652,14.234034,0.1,136.36493,1615418294430
Fix,GT,37.3612339,-122.0244263,4.807125749468804,14.46212,0.1,136.2583,1615418295430
Fix,GT,37.3611391,-122.0243113,4.866518435180187,14.8322735,0.1,135.76001,1615418296430
Fix,GT,37.3610421,-122.0241929,4.95482209584117,15.228218,0.1,135.62097,1615418297430
Fix,GT,37.3609433,-122.0240713,5.002910825222731,15.516798,0.1,135.37567,1615418298430
Fix,GT,37.3608429,-122.0239476,5.088125606894494,15.702545,0.1,135.36224,1615418299430
Fix,GT,37.3607417,-122.0238228,5.155821948409081,15.831157,0.1,135.40933,1615418300430
Fix,GT,37.3606397,-122.0236968,5.242036736518144,15.933221,0.1,135.30884,1615418301430
Fix,GT,37.3605367,-122.0235703,5.286518447697163,16.077763,0.1,135.57202,1615418302430
Fix,GT,37.3604327,-122.0234429,5.36834023809433,16.210367,0.1,135.5434,1615418303430
Fix,GT,37.3603279,-122.023315,5.437644058406353,16.26926,0.1,135.89075,1615418304430
Fix,GT,37.360222,-122.0231878,5.488607316017151,16.283268,0.1,136.22443,1615418305430
Fix,GT,37.3601164,-122.0230605,5.563036580085754,16.252155,0.1,136.13797,1615418306430
Fix,GT,37.3600108,-122.0229337,5.617733088612557,16.19566,0.1,136.13104,1615418307430
Fix,GT,37.359906,-122.0228072,5.674340236783028,16.09769,0.1,135.8609,1615418308430
Fix,GT,37.3598022,-122.0226812,5.7950365788936615,15.994516,0.1,135.80731,1615418309430
Fix,GT,37.3596985,-122.0225562,5.855518289446831,15.937553,0.1,136.18848,1615418310430
Fix,GT,37.359595,-122.022432,5.904643718451261,15.873366,0.099,136.15424,1615418311430
Fix,GT,37.3594918,-122.0223079,5.998214631319047,15.906822,0.1,136.03107,1615418312430
Fix,GT,37.3593883,-122.0221832,6.052340236783028,15.969393,0.1,136.05765,1615418313430
Fix,GT,37.3592844,-122.022058,6.109518289744853,16.014477,0.1,136.04108,1615418314430
Fix,GT,37.3591807,-122.0219331,6.183518473833799,15.911449,0.1,135.97638,1615418315430
Fix,GT,37.3590777,-122.0218084,6.247518475741148,15.89612,0.1,135.93173,1615418316430
Fix,GT,37.3589744,-122.0216838,6.2985182897448535,15.978755,0.1,136.01233,1615418317430
Fix,GT,37.3588701,-122.0215577,6.38021463227272,16.174374,0.1,135.81534,1615418318430
Fix,GT,37.3587648,-122.0214302,6.449214440226555,16.363186,0.1,135.94733,1615418319430
Fix,GT,37.358658,-122.0213014,6.502732924759388,16.523201,0.1,136.02661,1615418320430
Fix,GT,37.3585503,-122.0211717,6.558303658425808,16.620506,0.1,136.03934,1615418321430
Fix,GT,37.3584424,-122.0210417,6.595643901824952,16.581318,0.1,136.02481,1615418322430
Fix,GT,37.3583356,-122.0209127,6.663214833080769,16.311424,0.1,135.93152,1615418323430
Fix,GT,37.358231,-122.0207861,6.727518493622542,15.974541,0.1,135.87332,1615418324430
Fix,GT,37.3581279,-122.0206613,6.762214634895325,15.905865,0.1,136.0,1615418325430
Fix,GT,37.358025,-122.0205373,6.811214635133743,15.777351,0.1,135.97601,1615418326430
Fix,GT,37.3579231,-122.0204139,6.853518089860677,15.672337,0.1,135.84729,1615418327430
Fix,GT,37.357822,-122.0202908,6.85330365884304,15.635958,0.1,135.64893,1615418328430
Fix,GT,37.3577212,-122.0201673,6.84069634103775,15.669422,0.1,135.64734,1615418329430
Fix,GT,37.3575964,-122.0200158,6.8052468068003655,15.744698,0.1,135.8327,1615418330658
Fix,GT,37.3574951,-122.0198929,6.770558098524809,15.857309,0.1,135.9119,1615418331649
Fix,GT,37.3573911,-122.0197673,6.702314932823182,15.951761,0.1,136.04868,1615418332656
Fix,GT,37.3572886,-122.0196435,6.597523562848568,16.007706,0.1,136.01132,1615418333646
Fix,GT,37.3571821,-122.0195154,6.479597685396672,16.069475,0.1,136.16779,1615418334667
Fix,GT,37.357078,-122.0193908,6.36340774166584,16.105246,0.1,136.19629,1615418335659
Fix,GT,37.3569742,-122.0192663,6.27743423062563,16.126226,0.1,136.21393,1615418336650
Fix,GT,37.3568676,-122.0191389,6.176172847867012,16.173578,0.1,136.30817,1615418337663
Fix,GT,37.3567627,-122.0190134,6.066138676166535,16.207726,0.1,136.1394,1615418338657
Fix,GT,37.3566563,-122.0188847,5.959497244358063,16.248781,0.1,135.67612,1615418339668
Fix,GT,37.356553,-122.018758,5.862463418662548,16.234486,0.1,135.57904,1615418340656
Fix,GT,37.356449,-122.0186309,5.73644542735815,16.204975,0.1,135.68246,1615418341650
Fix,GT,37.356343,-122.018502,5.638836396217346,16.107704,0.1,135.80057,1615418342664
Fix,GT,37.3562401,-122.0183775,5.5525601041316985,16.012564,0.1,136.08215,1615418343653
Fix,GT,37.356138,-122.0182548,5.452335748016834,15.884493,0.1,136.0387,1615418344638
Fix,GT,37.3560335,-122.0181287,5.352679793894291,15.632002,0.1,135.96829,1615418345659
Fix,GT,37.3559335,-122.0180082,5.272471150398254,15.362508,0.1,136.05975,1615418346652
Fix,GT,37.3558332,-122.0178876,5.244065091609955,15.192406,0.1,136.14682,1615418347664
Fix,GT,37.3557356,-122.0177704,5.232644407987594,15.113649,0.1,136.1004,1615418348654
Fix,GT,37.3556394,-122.0176543,5.225999844253064,14.99366,0.1,135.84506,1615418349638
Fix,GT,37.3555411,-122.0175346,5.206579796671868,14.878373,0.1,135.62451,1615418350657
Fix,GT,37.3554458,-122.0174179,5.255226816534996,14.824684,0.1,135.47153,1615418351653
Fix,GT,37.35535,-122.0173008,5.323233521461487,14.666061,0.1,135.89948,1615418352660
Fix,GT,37.355256,-122.0171883,5.36648717173934,14.517038,0.1,136.30365,1615418353649
Fix,GT,37.355163,-122.0170776,5.409061112403869,14.255083,0.1,136.29498,1615418354638
Fix,GT,37.355069,-122.0169654,5.446841173529625,14.085243,0.1,136.33691,1615418355658
Fix,GT,37.3549776,-122.0168562,5.480540167868137,14.187916,0.1,136.23907,1615418356650
Fix,GT,37.3548841,-122.0167439,5.547613655447959,14.300457,0.1,136.02051,1615418357660
Fix,GT,37.3547921,-122.0166322,5.575696439921856,14.238195,0.1,135.6362,1615418358653
Fix,GT,37.354703,-122.0165221,5.620915348470211,13.963016,0.1,135.3775,1615418359638
Fix,GT,37.3546119,-122.0164109,5.665016240000725,13.687666,0.1,135.80225,1615418360660
Fix,GT,37.3545241,-122.0163048,5.710169457674026,13.577663,0.1,136.07993,1615418361654
Fix,GT,37.3544353,-122.0161986,5.749824998617173,13.480936,0.1,136.30658,1615418362660
Fix,GT,37.3543483,-122.0160948,5.797616937160492,13.391722,0.1,136.37418,1615418363653
Fix,GT,37.3542622,-122.0159921,5.846808820724487,13.362991,0.1,136.27002,1615418364640
Fix,GT,37.3541741,-122.0158863,5.894762270271778,13.342905,0.1,136.11554,1615418365655
Fix,GT,37.3540882,-122.0157825,5.968994132041932,13.321421,0.1,135.74966,1615418366649
Fix,GT,37.3540017,-122.0156751,5.990897689819336,13.362328,0.1,134.76764,1615418367661
Fix,GT,37.3539189,-122.0155673,6.031644227206707,13.342678,0.1,133.37778,1615418368654
Fix,GT,37.3538372,-122.0154548,6.08161667060852,13.328149,0.1,131.72925,1615418369665
Fix,GT,37.3537595,-122.015342,6.114306353569031,13.264008,0.1,130.15762,1615418370657
Fix,GT,37.3536842,-122.0152274,6.165510055005551,13.21946,0.1,128.9867,1615418371651
Fix,GT,37.3536097,-122.0151098,6.196742082953453,13.204513,0.1,128.0535,1615418372658
Fix,GT,37.3535369,-122.0149913,6.210564620137215,13.394173,0.1,127.227936,1615418373656
Fix,GT,37.3534644,-122.0148704,6.248323481142521,13.66822,0.1,126.7103,1615418374646
Fix,GT,37.3533898,-122.0147439,6.289121332764626,13.879618,0.1,126.21518,1615418375656
Fix,GT,37.3533165,-122.0146174,6.296498713254929,13.985826,0.1,125.779724,1615418376650
Fix,GT,37.3532419,-122.0144874,6.353465224742889,14.047043,0.1,125.59531,1615418377661
Fix,GT,37.3531689,-122.0143592,6.4196532441377645,14.08058,0.1,125.328186,1615418378653
Fix,GT,37.3530956,-122.0142272,6.474312125682831,14.0816765,0.1,124.39691,1615418379665
Fix,GT,37.3530248,-122.0140962,6.495,14.14049,0.1,123.8013,1615418380658
Fix,GT,37.352956,-122.0139628,6.536606239318847,14.196838,0.1,121.9238,1615418381652
Fix,GT,37.352891,-122.013823,6.562,14.221879,0.1,119.20642,1615418382660
Fix,GT,37.352832,-122.0136818,6.586121292710304,14.271555,0.1,116.53821,1615418383652
Fix,GT,37.3527765,-122.0135378,6.630164477825165,14.359932,0.1,115.24426,1615418384641
Fix,GT,37.3527219,-122.0133882,6.621298685908318,14.302179,0.1,114.00711,1615418385656
Fix,GT,37.3526713,-122.0132422,6.645524312436581,14.043964,0.1,113.08249,1615418386650
Fix,GT,37.3526228,-122.0130968,6.67,13.744011,0.1,112.3681,1615418387655
Fix,GT,37.3525772,-122.0129548,6.697693142771721,13.454932,0.1,111.45505,1615418388652
Fix,GT,37.352535,-122.0128153,6.6989156825542455,13.1681,0.1,110.289,1615418389645
Fix,GT,37.3524951,-122.0126753,6.693297724068165,12.893924,0.1,109.09155,1615418390656
Fix,GT,37.3524593,-122.0125395,6.668987536430359,12.635416,0.1,107.80029,1615418391650
Fix,GT,37.3524272,-122.0124027,6.643,12.374842,0.1,105.11005,1615418392660
Fix,GT,37.352401,-122.0122693,6.595838911533356,12.127165,0.1,103.09485,1615418393654
Fix,GT,37.3523778,-122.0121353,6.546801398098468,11.956392,0.1,101.88263,1615418394663
Fix,GT,37.3523563,-122.0120058,6.483969547986984,11.782533,0.1,101.82587,1615418395650
Fix,GT,37.3523344,-122.0118741,6.422594159901143,11.654806,0.1,101.48419,1615418396668
Fix,GT,37.352314,-122.0117467,6.333394907951355,11.5853405,0.1,101.18909,1615418397660
Fix,GT,37.3522934,-122.0116165,6.208774953126907,11.7655735,0.1,101.18945,1615418398668
Fix,GT,37.3522733,-122.0114855,6.098375160276889,11.984469,0.1,100.58746,1615418399664
Fix,GT,37.3522539,-122.0113523,5.964815283894539,12.188869,0.1,100.01013,1615418400656
Fix,GT,37.3522354,-122.0112141,5.840175789237023,12.355207,0.1,99.14267,1615418401667
Fix,GT,37.3522187,-122.0110764,5.689960882902145,12.638891,0.1,98.258026,1615418402656
Fix,GT,37.3522031,-122.0109312,5.507592771828175,13.108398,0.1,97.21213,1615418403664
Fix,GT,37.3521902,-122.0107856,5.375113400220871,13.4774,0.1,95.67337,1615418404640
Fix,GT,37.3521798,-122.01063,5.2054429932236665,13.797056,0.1,94.21814,1615418405655
Fix,GT,37.3521724,-122.010474,5.023512742996216,14.030943,0.1,92.67441,1615418406649
Fix,GT,37.3521679,-122.0103135,4.845624346256256,13.994192,0.1,91.57898,1615418407664
Fix,GT,37.3521656,-122.0101583,4.689157961249352,13.822226,0.1,90.725006,1615418408653
Fix,GT,37.3521645,-122.0100025,4.490140420228244,13.992138,0.1,90.29837,1615418409646
Fix,GT,37.3521641,-122.0098419,4.338411708235741,14.228531,0.1,90.08099,1615418410655
Fix,GT,37.3521642,-122.0096808,4.161970915198326,14.44207,0.1,89.72888,1615418411650
Fix,GT,37.3521649,-122.0095162,4.013237916946411,14.340526,0.1,89.651,1615418412662
Fix,GT,37.3521654,-122.0093569,3.90515212070942,14.128938,0.1,89.6785,1615418413653
Fix,GT,37.3521657,-122.0091995,3.821603503704071,13.90234,0.1,89.92038,1615418414648
Fix,GT,37.3521656,-122.0090447,3.7525976686477662,13.206112,0.1,89.977905,1615418415654
Fix,GT,37.3521654,-122.0089033,3.6774052236676216,11.889402,0.1,90.053955,1615418416650
Fix,GT,37.3521649,-122.0087757,3.614853677213192,10.533581,0.1,90.292755,1615418417659
Fix,GT,37.3521641,-122.0086658,3.5678771471977235,8.993215,0.1,90.42264,1615418418651
Fix,GT,37.3521634,-122.0085733,3.508695859193802,7.1904507,0.1,90.47394,1615418419665
Fix,GT,37.352163,-122.0085015,3.466292771995068,5.6183395,0.1,90.21878,1615418420656
Fix,GT,37.3521626,-122.0084458,3.429965708255768,3.415927,0.1,90.411255,1615418421750
Fix,GT,37.3521625,-122.0084238,3.413179512321949,2.0983744,0.1,90.54349,1615418422460
Fix,GT,37.3521624,-122.0084072,3.3934722855091097,0.44963694,0.1,90.61603,1615418423652
Fix,GT,37.3521624,-122.0084063,3.383578953921795,0.0024854785,0.1,90.62396,1615418424642
Fix,GT,37.3521624,-122.0084063,3.382,0.002096483,0.1,90.62393,1615418425759
Fix,GT,37.3521624,-122.0084063,3.3820001007914544,0.0010000002,0.1,90.6239,1615418426449
Fix,GT,37.3521624,-122.0084063,3.382,0.001,0.1,90.62393,1615418427655
Fix,GT,37.3521624,-122.0084063,3.3820001007914544,0.001,0.1,90.62372,1615418428648
Fix,GT,37.3521624,-122.0084063,3.3819998992085463,0.0019317962,0.1,90.62402,1615418429637
Fix,GT,37.3521624,-122.0084063,3.382,0.0014142136,0.1,90.62384,1615418430655
Fix,GT,37.3521624,-122.0084063,3.382,0.0009288313,0.1,90.62433,1615418431646
Fix,GT,37.3521624,-122.0084063,3.382,0.0017503012,0.1,90.62439,1615418432658
Fix,GT,37.3521624,-122.0084063,3.382,0.0010375114,0.1,90.62463,1615418433646
Fix,GT,37.3521624,-122.0084063,3.381999899208546,0.0008763985,0.1,90.624695,1615418434643
Fix,GT,37.3521624,-122.0084063,3.382,0.0005706352,0.1,90.62506,1615418435657
Fix,GT,37.3521622,-122.0084049,3.374999899417162,0.4541424,0.1,90.629395,1615418436642
Fix,GT,37.3521622,-122.0083928,3.367,1.7156428,0.1,90.574036,1615418437652
Fix,GT,37.352162,-122.0083658,3.3489097571372985,3.135954,0.1,90.401825,1615418438654
Fix,GT,37.3521618,-122.0083227,3.3266366652846333,4.6108418,0.1,90.2724,1615418439636
Fix,GT,37.3521617,-122.0082596,3.288446391761303,6.4302645,0.1,89.99475,1615418440651
Fix,GT,37.3521617,-122.00817,3.255,7.985878,0.1,89.89392,1615418441749
Fix,GT,37.3521615,-122.008103,3.2244334792494778,8.817251,0.1,89.94714,1615418442456
Fix,GT,37.3521619,-122.007973,3.1766803539991377,10.394872,0.1,89.58951,1615418443655
Fix,GT,37.3521629,-122.0078467,3.122885782122612,11.671928,0.1,89.31232,1615418444668
Fix,GT,37.3521638,-122.0077101,3.0337026629447936,12.691729,0.1,89.50275,1615418445657
Fix,GT,37.3521641,-122.0075665,2.9455051860809327,12.783848,0.1,89.82034,1615418446654
Fix,GT,37.3521642,-122.0074219,2.8510131163597103,12.618758,0.1,89.94449,1615418447662
Fix,GT,37.352164,-122.0072802,2.732138530254364,12.63858,0.1,89.949036,1615418448657
Fix,GT,37.352164,-122.007136,2.620399475216866,12.70928,0.1,89.90491,1615418449666
Fix,GT,37.3521639,-122.0069931,2.51661123675108,12.739128,0.1,90.0845,1615418450658
Fix,GT,37.3521633,-122.0068368,2.3655305169224743,12.700164,0.1,90.180176,1615418451749
Fix,GT,37.352163,-122.0067347,2.269914656639099,12.689104,0.1,90.11264,1615418452460
Fix,GT,37.3521625,-122.0065656,2.120039601802826,12.489639,0.1,89.97336,1615418453649
Fix,GT,37.3521629,-122.0064265,2.021916486442089,12.248402,0.1,89.61536,1615418454645
Fix,GT,37.3521635,-122.006288,1.9183594994544984,12.008736,0.1,89.63031,1615418455658
Fix,GT,37.3521636,-122.0061547,1.846315906584263,11.747431,0.1,89.99295,1615418456652
Fix,GT,37.352163,-122.006022,1.7954388773441314,11.483522,0.1,90.17465,1615418457664
Fix,GT,37.3521628,-122.0058948,1.748432139456272,11.179024,0.1,90.069885,1615418458656
Fix,GT,37.3521623,-122.0057717,1.7056781221628188,10.355374,0.1,90.26407,1615418459666
Fix,GT,37.3521617,-122.005662,1.6738548114299774,9.245177,0.1,90.30539,1615418460653
Fix,GT,37.3521615,-122.0055574,1.654497128903866,7.619067,0.1,90.01941,1615418461750
Fix,GT,37.3521616,-122.0055008,1.6462288277745247,6.5402756,0.1,89.80069,1615418462459
Fix,GT,37.3521617,-122.0054195,1.624,4.677928,0.1,89.98181,1615418463753
Fix,GT,37.3521616,-122.0053824,1.6172302787303925,3.6779902,0.1,90.11218,1615418464538
Fix,GT,37.3521615,-122.0053508,1.6095101829469205,2.4432535,0.1,90.065125,1615418465448
Fix,GT,37.3521615,-122.005328,1.601482750594616,0.9028038,0.1,90.02927,1615418466651
Fix,GT,37.3521616,-122.0053242,1.5921418408751489,0.018623991,0.1,90.021484,1615418467661
Fix,GT,37.3521616,-122.0053242,1.591,0.002124813,0.1,90.023865,1615418468655
Fix,GT,37.3521616,-122.0053242,1.590999952584505,0.0022360678,0.1,90.022095,1615418469638
Fix,GT,37.3521616,-122.0053242,1.59,0.0014892686,0.1,90.02234,1615418470648
Fix,GT,37.3521616,-122.0053242,1.59,0.002,0.1,90.022156,1615418471651
Fix,GT,37.3521616,-122.0053242,1.59,0.0013684174,0.1,90.022095,1615418472663
Fix,GT,37.3521616,-122.0053242,1.59,0.002,0.1,90.02197,1615418473657
Fix,GT,37.3521616,-122.0053242,1.59,0.002,0.1,90.02185,1615418474638
Fix,GT,37.3521616,-122.0053242,1.59,0.001,0.1,90.02179,1615418475653
Fix,GT,37.3521616,-122.0053242,1.59,0.001,0.1,90.02185,1615418476652
Fix,GT,37.3521616,-122.0053242,1.59,0.001,0.1,90.02194,1615418477660
Fix,GT,37.3521616,-122.0053242,1.59,0.001,0.1,90.02191,1615418478653
Fix,GT,37.3521616,-122.0053242,1.59,0.0011566281,0.1,90.02182,1615418479637
Fix,GT,37.3521616,-122.0053242,1.59,0.001,0.1,90.02179,1615418480654
Fix,GT,37.3521616,-122.0053242,1.5900000473856926,0.001,0.1,90.02185,1615418481647
Fix,GT,37.3521616,-122.0053242,1.59,0.001,0.1,90.02176,1615418482661
Fix,GT,37.3521616,-122.0053242,1.59,0.001,0.1,90.02173,1615418483657
Fix,GT,37.3521616,-122.0053242,1.5899999526143076,0.0015396429,0.1,90.02161,1615418484646
Fix,GT,37.3521616,-122.0053242,1.59,0.002,0.1,90.02167,1615418485657
Fix,GT,37.3521616,-122.0053242,1.5900000473856926,0.0021382484,0.1,90.02197,1615418486641
Fix,GT,37.3521616,-122.0053242,1.59,0.002,0.1,90.022095,1615418487662
Fix,GT,37.3521616,-122.0053242,1.59,0.001,0.1,90.022156,1615418488658
Fix,GT,37.3521616,-122.0053242,1.59,0.0013428014,0.1,90.02228,1615418489665
Fix,GT,37.3521616,-122.0053242,1.59,0.0004105453,0.1,90.021484,1615418490658
Fix,GT,37.3521616,-122.0053242,1.59,0.0030779648,0.1,90.022,1615418491651
Fix,GT,37.3521616,-122.0053242,1.59,0.0014142136,0.1,90.02203,1615418492652
Fix,GT,37.3521616,-122.0053242,1.59,0.001,0.1,90.02228,1615418493656
Fix,GT,37.3521616,-122.0053242,1.59,0.002257727,0.1,90.02173,1615418494667
Fix,GT,37.3521616,-122.0053242,1.59,0.0018050803,0.1,90.022095,1615418495659
Fix,GT,37.3521616,-122.0053242,1.59,0.0017110436,0.1,90.02188,1615418496650
Fix,GT,37.3521616,-122.0053242,1.591,0.001759737,0.1,90.02167,1615418497657
Fix,GT,37.3521616,-122.0053242,1.591,0.002236068,0.1,90.02173,1615418498654
Fix,GT,37.3521616,-122.0053242,1.59,0.0014142136,0.1,90.02173,1615418499669
Fix,GT,37.3521616,-122.0053242,1.589,0.002236068,0.1,90.0217,1615418500658
Fix,GT,37.3521616,-122.0053227,1.5794931771755218,0.45669842,0.1,90.017,1615418501650
Fix,GT,37.3521616,-122.0053095,1.5648131886720658,1.9727633,0.1,89.98407,1615418502659
Fix,GT,37.3521617,-122.0052737,1.5514989144802094,3.856195,0.1,89.77673,1615418503750
Fix,GT,37.352162,-122.0052332,1.5485500851869582,5.1975718,0.1,89.53458,1615418504544
Fix,GT,37.3521625,-122.0051715,1.5269100333452226,6.7932262,0.1,89.3262,1615418505454
Fix,GT,37.3521636,-122.0050671,1.512013888835907,8.497427,0.1,89.0603,1615418506650
Fix,GT,37.3521649,-122.0049636,1.4852544016838074,9.677458,0.1,89.065,1615418507662
Fix,GT,37.3521665,-122.0048358,1.4504458748102187,11.067904,0.1,88.805145,1615418508751
Fix,GT,37.3521682,-122.0047324,1.4495890525579451,11.960281,0.1,88.74246,1615418509547
Fix,GT,37.3521699,-122.004606,1.427000042527914,12.792143,0.1,88.98102,1615418510449
Fix,GT,37.3521721,-122.004427,1.4074531223177909,13.607178,0.1,88.99768,1615418511651
Fix,GT,37.352175,-122.0042526,1.3642615907788276,14.297562,0.1,88.63577,1615418512757
Fix,GT,37.352177,-122.0041391,1.34289257144928,14.677816,0.1,88.67972,1615418513452
Fix,GT,37.3521799,-122.0039382,1.295375873684883,15.169405,0.1,89.03247,1615418514643
Fix,GT,37.3521822,-122.0037626,1.244,15.512257,0.1,88.90439,1615418515658
Fix,GT,37.3521849,-122.0035872,1.1525210939645767,15.805584,0.1,88.72748,1615418516649
Fix,GT,37.3521881,-122.0034059,1.0697832785844803,15.943863,0.1,88.583984,1615418517660
Fix,GT,37.3521911,-122.0032278,1.0030026632547375,15.968958,0.1,88.74603,1615418518649
Fix,GT,37.3521944,-122.0030452,0.9071285097002983,15.9874,0.1,88.58096,1615418519662
Fix,GT,37.3521979,-122.0028474,0.8363174910545348,15.997105,0.1,88.71814,1615418520758
Fix,GT,37.3522003,-122.0027046,0.7880931179523469,16.009676,0.1,88.67221,1615418521549
Fix,GT,37.352203,-122.0025397,0.7368230770826341,16.017048,0.1,88.74463,1615418522461
Fix,GT,37.352207,-122.0023239,0.6156051034927368,16.045193,0.1,88.52185,1615418523654
Fix,GT,37.3522102,-122.0021412,0.5471308851242066,16.026962,0.1,88.738556,1615418524663
Fix,GT,37.352213,-122.0019623,0.4402929220199585,15.830373,0.1,88.90311,1615418525658
Fix,GT,37.352215,-122.0017868,0.3371458764076233,15.594653,0.1,89.22656,1615418526648
Fix,GT,37.3522155,-122.00161,0.1777472467422485,15.366762,0.1,90.10626,1615418527660
Fix,GT,37.352214,-122.0014384,0.0763824372291565,15.126738,0.1,90.78873,1615418528657
Fix,GT,37.3522126,-122.0012504,-0.0837830896377563,14.8885765,0.1,90.03534,1615418529767
Fix,GT,37.352213,-122.0011351,-0.1677326453328133,14.721687,0.1,89.443695,1615418530457
Fix,GT,37.3522148,-122.0009391,-0.2909634320735931,14.43412,0.1,89.1488,1615418531649
Fix,GT,37.3522169,-122.0007757,-0.4102428299188614,14.205269,0.1,88.86844,1615418532660
Fix,GT,37.3522192,-122.0006182,-0.5036315726041793,13.96224,0.1,88.8721,1615418533651
Fix,GT,37.3522214,-122.0004596,-0.6116316106915474,13.737501,0.1,88.834045,1615418534666
Fix,GT,37.3522237,-122.0003066,-0.6958001659512519,13.506278,0.1,88.76312,1615418535661
Fix,GT,37.3522264,-122.0001582,-0.793622224509716,13.016283,0.1,88.634186,1615418536651
Fix,GT,37.3522289,-122.0000147,-0.8905337749123574,12.14815,0.1,88.596375,1615418537659
Fix,GT,37.3522308,-121.9998843,-0.9654891448020936,10.864997,0.1,89.05603,1615418538658
Fix,GT,37.352232,-121.9997702,-1.0569389408826828,9.205501,0.1,89.29016,1615418539665
Fix,GT,37.3522328,-121.9996683,-1.1176038521528244,7.2880554,0.1,89.361145,1615418540760
Fix,GT,37.3522331,-121.9996165,-1.149940063714981,5.995847,0.1,89.3985,1615418541448
Fix,GT,37.3522335,-121.9995553,-1.1901803950071337,3.1019683,0.1,89.50409,1615418542659
Fix,GT,37.3522336,-121.9995288,-1.2135264592170716,1.7248738,0.1,89.499664,1615418543652
Fix,GT,37.3522337,-121.999517,-1.2216674107909202,0.37225598,0.1,89.47217,1615418544666
Fix,GT,37.3522337,-121.9995164,-1.229,0.0031699694,0.1,89.47504,1615418545660
Fix,GT,37.3522337,-121.9995163,-1.229,0.0018297178,0.1,89.47339,1615418546650
Fix,GT,37.3522337,-121.9995163,-1.229,0.001,0.1,89.47174,1615418547663
Fix,GT,37.3522337,-121.9995163,-1.2290000366270544,0.00053419045,0.1,89.471954,1615418548746
Fix,GT,37.3522337,-121.9995163,-1.229,0.0,0.1,89.472046,1615418549440
Fix,GT,37.3522337,-121.9995163,-1.2289999633729458,0.0005648362,0.1,89.47208,1615418550643
Fix,GT,37.3522337,-121.9995163,-1.2290000366270544,0.0010000002,0.1,89.472046,1615418551648
Fix,GT,37.3522337,-121.9995163,-1.229,0.001,0.1,89.47186,1615418552663
Fix,GT,37.3522337,-121.9995163,-1.2289999633729458,0.001,0.1,89.471985,1615418553445
Fix,GT,37.3522337,-121.9995163,-1.2289999633729458,0.001,0.1,89.471985,1615418554445
Fix,GT,37.3522337,-121.9995163,-1.2290000366270544,0.001,0.1,89.47211,1615418555445
Fix,GT,37.3522337,-121.9995163,-1.229,0.0014551298,0.1,89.47223,1615418556445
Fix,GT,37.3522337,-121.9995163,-1.229,0.0014142136,0.1,89.472206,1615418557445
Fix,GT,37.3522337,-121.9995163,-1.229,0.0014142136,0.1,89.47217,1615418558445
Fix,GT,37.3522337,-121.9995163,-1.2290000366270544,0.0018620179,0.1,89.47223,1615418559445
Fix,GT,37.3522337,-121.9995163,-1.229,0.0018620179,0.1,89.47226,1615418560445
Fix,GT,37.3522337,-121.9995163,-1.2290000366270544,0.0014142136,0.1,89.47235,1615418561445
Fix,GT,37.3522337,-121.9995163,-1.2290000366270544,0.0022360682,0.1,89.47235,1615418562445
Fix,GT,37.3522337,-121.9995163,-1.229,0.002236068,0.1,89.47229,1615418563445
Fix,GT,37.3522337,-121.9995163,-1.2289999633729458,0.002184777,0.1,89.47241,1615418564445
Fix,GT,37.3522337,-121.9995163,-1.229,0.001862018,0.1,89.47247,1615418565445
Fix,GT,37.3522337,-121.9995163,-1.229,0.0014142136,0.1,89.47238,1615418566445
Fix,GT,37.3522337,-121.9995163,-1.229,0.0014142136,0.1,89.47244,1615418567445
Fix,GT,37.3522337,-121.9995163,-1.229,0.0014142136,0.1,89.47235,1615418568445
Fix,GT,37.3522337,-121.9995163,-1.229,0.0014142136,0.1,89.47229,1615418569445
Fix,GT,37.3522337,-121.9995163,-1.2289999633729458,0.0011885207,0.1,89.47235,1615418570445
Fix,GT,37.3522337,-121.9995163,-1.2289999633729458,0.0009999999,0.1,89.47241,1615418571445
Fix,GT,37.3522337,-121.9995163,-1.229,0.001,0.1,89.472626,1615418572445
Fix,GT,37.3522337,-121.9995163,-1.229,0.001,0.1,89.472534,1615418573445
Fix,GT,37.3522337,-121.9995163,-1.2289999633729458,0.00045512913,0.1,89.472534,1615418574445
Fix,GT,37.3522337,-121.9995163,-1.2289999633729458,0.0012256929,0.1,89.472565,1615418575445
Fix,GT,37.3522337,-121.9995163,-1.229,0.0014142136,0.1,89.472534,1615418576445
Fix,GT,37.3522337,-121.9995163,-1.229,0.0018620181,0.1,89.472565,1615418577445
Fix,GT,37.3522337,-121.9995163,-1.229,0.0017882634,0.1,89.47266,1615418578445
Fix,GT,37.3522337,-121.9995163,-1.2289999633729458,0.0014142136,0.1,89.47275,1615418579445
Fix,GT,37.3522337,-121.9995163,-1.229,0.0014142136,0.1,89.47278,1615418580445
Fix,GT,37.3522337,-121.9995163,-1.229,0.0028284271,0.1,89.47272,1615418581445
Fix,GT,37.3522337,-121.9995163,-1.229,0.0028284271,0.1,89.47278,1615418582445
Fix,GT,37.3522337,-121.9995163,-1.229,0.0021847775,0.1,89.4729,1615418583445
Fix,GT,37.3522337,-121.9995163,-1.229,0.0025588274,0.1,89.47296,1615418584445
Fix,GT,37.3522337,-121.9995163,-1.229,0.002236068,0.1,89.4729,1615418585445
Fix,GT,37.3522337,-121.9995163,-1.229,0.0014142136,0.1,89.47302,1615418586445
Fix,GT,37.3522337,-121.9995163,-1.229,0.0014142136,0.1,89.47309,1615418587445
Fix,GT,37.3522337,-121.9995163,-1.229,0.0014142136,0.1,89.47308,1615418588445
Fix,GT,37.3522337,-121.9995163,-1.229,0.001,0.1,89.47308,1615418589445
Fix,GT,37.3522337,-121.9995163,-1.229,0.001,0.1,89.47302,1615418590445
Fix,GT,37.3522338,-121.9995163,-1.229,0.001455129,0.1,89.473114,1615418591445
Fix,GT,37.3522338,-121.9995163,-1.2294551289081574,0.001,0.1,89.473114,1615418592445
Fix,GT,37.3522338,-121.9995163,-1.23,0.0011885206,0.1,89.47299,1615418593445
Fix,GT,37.3522338,-121.9995163,-1.23,0.0031821188,0.1,89.4729,1615418594445
Fix,GT,37.3522338,-121.999514,-1.239910257935524,0.6440489,0.1,89.46564,1615418595445
Fix,GT,37.352234,-121.9994967,-1.2594551290273666,2.585989,0.1,89.368225,1615418596445
Fix,GT,37.3522344,-121.9994552,-1.282455128967762,4.6591463,0.1,89.2095,1615418597445
Fix,GT,37.3522352,-121.999391,-1.3228205161094664,6.8220716,0.1,88.97824,1615418598445
Fix,GT,37.3522367,-121.9993037,-1.3847307741641997,8.512907,0.1,88.57245,1615418599445
Fix,GT,37.3522391,-121.9992009,-1.4512756018042563,9.749235,0.1,88.30954,1615418600445
Fix,GT,37.3522416,-121.9990834,-1.5023653870821,11.043196,0.1,88.3378,1615418601445
Fix,GT,37.352245,-121.9989239,-1.597409403026104,12.40374,0.1,88.57501,1615418602648
Fix,GT,37.3522467,-121.9987798,-1.6733811008334158,13.160361,0.1,89.35977,1615418603648
Fix,GT,37.3522474,-121.998625,-1.7366816476583482,13.924202,0.1,89.692505,1615418604661
Fix,GT,37.352248,-121.9984646,-1.7895555599331856,14.592365,0.1,89.64447,1615418605655
Fix,GT,37.3522481,-121.9982958,-1.8439339287877083,15.039354,0.1,90.097015,1615418606665
Fix,GT,37.3522464,-121.9981254,-1.900404290139675,15.491163,0.1,90.86304,1615418607654
Fix,GT,37.3522435,-121.9979322,-1.971965854644776,15.733034,0.1,91.10208,1615418608749
Fix,GT,37.3522411,-121.9978059,-2.0339212296009066,15.818901,0.1,91.242676,1615418609458
Fix,GT,37.3522372,-121.9975919,-2.119537899017334,15.764826,0.1,91.01651,1615418610656
Fix,GT,37.3522348,-121.9974133,-2.1987479169368744,15.584743,0.1,90.754486,1615418611667
Fix,GT,37.3522335,-121.9972203,-2.278189536809921,15.732922,0.1,90.14862,1615418612759
Fix,GT,37.3522333,-121.9970976,-2.345906307220459,15.858389,0.1,90.022156,1615418613448
Fix,GT,37.3522341,-121.9968606,-2.475789232194424,16.014984,0.1,89.54498,1615418614764
Fix,GT,37.3522347,-121.9967354,-2.5321355612277987,16.011854,0.1,89.45386,1615418615457
Fix,GT,37.3522368,-121.9965041,-2.622733940124512,15.7279215,0.1,89.05426,1615418616746
Fix,GT,37.3522407,-121.9962078,-2.618205106019974,15.207544,0.1,89.13962,1615418618444
Fix,GT,37.3522442,-121.9960379,-2.672087069511414,14.91316,0.1,87.367065,1615418619444
Fix,GT,37.3522549,-121.9958711,-2.717441102206707,14.807106,0.1,83.98526,1615418620444
Fix,GT,37.3522704,-121.9957047,-2.7641180396974088,14.830322,0.1,83.04578,1615418621444
Fix,GT,37.3522861,-121.9955391,-2.819441021442413,14.80673,0.1,83.16611,1615418622444
Fix,GT,37.3523019,-121.9953709,-2.864235828459263,15.231832,0.1,83.32672,1615418623444
Fix,GT,37.3523154,-121.9951986,-2.8319691940546035,15.293779,0.1,85.20746,1615418624444
Fix,GT,37.3523229,-121.9950277,-2.8348821276426315,15.01685,0.1,87.93042,1615418625444
Fix,GT,37.3523246,-121.9948601,-2.854558978319168,14.7000885,0.1,89.69473,1615418626444
Fix,GT,37.3523243,-121.9946959,-2.876646044969559,14.390472,0.1,90.222626,1615418627444
Fix,GT,37.3523235,-121.9945353,-2.89088212954998,14.089115,0.1,90.147064,1615418628444
Fix,GT,37.3523235,-121.9943778,-2.9898821327388285,13.815153,0.1,89.79266,1615418629444
Fix,GT,37.352324,-121.9942234,-3.062528175354004,13.537928,0.1,89.57736,1615418630444
Fix,GT,37.3523249,-121.9940723,-3.079205202043056,13.23473,0.1,89.44318,1615418631444
Fix,GT,37.3523258,-121.9939246,-3.106677026063204,12.947172,0.1,89.55145,1615418632444
Fix,GT,37.3523261,-121.9937801,-3.132881951153278,12.656822,0.1,89.81421,1615418633444
Fix,GT,37.3523264,-121.9936402,-3.185764089584351,12.015907,0.1,89.77725,1615418634444
Fix,GT,37.3523265,-121.99351,-3.217882045030594,10.990436,0.1,89.83258,1615418635444
Fix,GT,37.3523264,-121.9933933,-3.2488820452690126,9.65008,0.1,90.078674,1615418636444
Fix,GT,37.3523261,-121.9932931,-3.274528084307909,8.050196,0.1,90.054565,1615418637444
Fix,GT,37.352326,-121.9932125,-3.313764091491699,6.230735,0.1,89.97693,1615418638444
Fix,GT,37.3523259,-121.993153,-3.3398820458650587,4.314944,0.1,90.14993,1615418639444
Fix,GT,37.3523257,-121.9931126,-3.365558976948261,2.8562002,0.1,90.36957,1615418640444
Fix,GT,37.3523255,-121.9930887,-3.3744410231113435,1.4418244,0.1,90.46393,1615418641444
Fix,GT,37.3523254,-121.9930797,-3.3784410231709483,0.16431545,0.1,90.50067,1615418642444
Fix,GT,37.3523255,-121.9930796,-3.384999899119139,0.0021041115,0.1,90.50537,1615418643444
Fix,GT,37.3523255,-121.9930796,-3.386,0.0,0.1,90.50406,1615418644444
Fix,GT,37.3523255,-121.9930795,-3.3859998990893363,0.0012315357,0.1,90.50482,1615418645444
Fix,GT,37.3523255,-121.9930795,-3.3859998990893363,0.001,0.1,90.505005,1615418646444
Fix,GT,37.3523255,-121.9930795,-3.3859998990893363,0.001,0.1,90.50491,1615418647444
Fix,GT,37.3523255,-121.9930795,-3.386,0.0017766708,0.1,90.505005,1615418648444
Fix,GT,37.3523255,-121.9930795,-3.386,0.0014142136,0.1,90.505035,1615418649444
Fix,GT,37.3523255,-121.9930795,-3.386,0.0018736108,0.1,90.5051,1615418650444
Fix,GT,37.3523255,-121.9930795,-3.386,0.002,0.1,90.50516,1615418651444
Fix,GT,37.3523255,-121.9930795,-3.386,0.002,0.1,90.50488,1615418652444
Fix,GT,37.3523255,-121.9930795,-3.386,0.001776671,0.1,90.504944,1615418653444
Fix,GT,37.3523255,-121.9930795,-3.386,0.002,0.1,90.50516,1615418654444
Fix,GT,37.3523255,-121.9930795,-3.386,0.002,0.1,90.50526,1615418655444
Fix,GT,37.3523255,-121.9930795,-3.386,0.0021319564,0.1,90.50531,1615418656444
Fix,GT,37.3523255,-121.9930795,-3.3859998990893363,0.002,0.1,90.50531,1615418657444
Fix,GT,37.3523255,-121.9930795,-3.386,0.002,0.1,90.50528,1615418658664
Fix,GT,37.3523255,-121.9930795,-3.386,0.002,0.1,90.5053,1615418659653
Fix,GT,37.3523255,-121.9930795,-3.386,0.002,0.1,90.50537,1615418660669
Fix,GT,37.3523255,-121.9930795,-3.386,0.0017889563,0.1,90.50537,1615418661654
Fix,GT,37.3523255,-121.9930795,-3.386000100910664,0.0012354292,0.1,90.50519,1615418662643
Fix,GT,37.3523255,-121.9930795,-3.386,0.001,0.1,90.50531,1615418663661
Fix,GT,37.3523255,-121.9930795,-3.386,0.001,0.1,90.50523,1615418664650
Fix,GT,37.3523255,-121.9930795,-3.385,0.001,0.1,90.50537,1615418665668
Fix,GT,37.3523255,-121.9930795,-3.385,0.0012492675,0.1,90.50519,1615418666760
Fix,GT,37.3523255,-121.9930792,-3.391953563421964,0.22960699,0.1,90.5101,1615418667447
Fix,GT,37.3523254,-121.9930644,-3.404,2.359491,0.1,90.481995,1615418668634
Fix,GT,37.3523252,-121.993025,-3.42258863145113,4.4452457,0.1,90.26901,1615418669652
Fix,GT,37.3523251,-121.9929621,-3.460677772581577,6.6913376,0.1,90.073,1615418670667
Fix,GT,37.3523249,-121.9928745,-3.4972328513860704,8.906998,0.1,89.97815,1615418671660
Fix,GT,37.3523249,-121.9927644,-3.5319786982536314,10.646706,0.1,89.88226,1615418672651
Fix,GT,37.3523248,-121.9926327,-3.545677527308464,12.222443,0.1,89.93631,1615418673666
Fix,GT,37.3523249,-121.992492,-3.5791463795900347,13.000718,0.1,89.87915,1615418674652
Fix,GT,37.352325,-121.9923388,-3.634790750741959,13.677768,0.1,89.87225,1615418675669
Fix,GT,37.352325,-121.9921837,-3.6889740712642674,14.145251,0.1,89.89609,1615418676656
Fix,GT,37.3523253,-121.9920222,-3.762158034324646,14.6287155,0.1,89.63721,1615418677651
Fix,GT,37.3523261,-121.9918516,-3.821311913311481,15.186325,0.1,89.596436,1615418678666
Fix,GT,37.3523267,-121.9916784,-3.9056385059356686,15.901663,0.1,89.62912,1615418679653
Fix,GT,37.3523273,-121.9914935,-3.992265274047852,16.41214,0.1,89.70941,1615418680665
Fix,GT,37.3523281,-121.9913079,-4.033792014956474,16.589806,0.1,89.654724,1615418681659
Fix,GT,37.3523287,-121.9911235,-4.068017063617706,16.365063,0.1,89.60712,1615418682650
Fix,GT,37.3523293,-121.990938,-4.123848689556122,16.068825,0.1,89.770386,1615418683664
Fix,GT,37.3523298,-121.9907606,-4.2054780986309055,15.887572,0.1,89.73361,1615418684649
Fix,GT,37.3523302,-121.9905792,-4.266813230335712,15.916908,0.1,89.74805,1615418685660
Fix,GT,37.3523308,-121.9903997,-4.328084448039531,15.955381,0.1,89.690704,1615418686658
Fix,GT,37.3523312,-121.9902211,-4.385419661045074,15.989509,0.1,89.700745,1615418687648
Fix,GT,37.3523322,-121.9900385,-4.439798149108887,16.021877,0.1,89.53018,1615418688659
Fix,GT,37.3523331,-121.9898588,-4.524573888063431,16.056482,0.1,89.607544,1615418689652
Fix,GT,37.3523339,-121.9896799,-4.583685635268688,15.938355,0.1,89.53284,1615418690642
Fix,GT,37.352335,-121.9894985,-4.615932112514973,15.661741,0.1,89.50278,1615418691658
Fix,GT,37.3523358,-121.989325,-4.684978885829448,15.441795,0.1,89.634705,1615418692648
Fix,GT,37.3523365,-121.9891494,-4.725,15.28027,0.1,89.59039,1615418693661
Fix,GT,37.3523374,-121.9889798,-4.758060109376908,15.006954,0.1,89.5358,1615418694653
Fix,GT,37.3523385,-121.9888093,-4.805398226857186,14.7022915,0.1,89.46997,1615418695669
Fix,GT,37.3523391,-121.988647,-4.835732627093791,14.396271,0.1,89.84967,1615418696657
Fix,GT,37.3523395,-121.9884875,-4.8095224037170405,14.075558,0.1,89.75931,1615418697650
Fix,GT,37.3523397,-121.988329,-4.744574417352677,13.718311,0.1,89.85858,1615418698661
Fix,GT,37.3523396,-121.9881771,-4.769026851773262,13.544217,0.1,90.05417,1615418699651
