MessageType,Provider,LatitudeDegrees,LongitudeDegrees,AltitudeMeters,SpeedMps,AccuracyMeters,BearingDegrees,UnixTimeMillis
Fix,GT,37.3958181,-122.1029152,-4.488,0.001,0.1,118.0217,1619735724999
Fix,GT,37.3958181,-122.1029152,-4.488,0.0014134363,0.1,118.020386,1619735725999
Fix,GT,37.3958181,-122.1029152,-4.488,0.0019988997,0.1,118.01929,1619735726999
Fix,GT,37.3958181,-122.1029152,-4.488,0.0022337441,0.1,118.01761,1619735727999
Fix,GT,37.3958181,-122.1029152,-4.488,0.001,0.1,118.01596,1619735728999
Fix,GT,37.3958181,-122.1029152,-4.488,0.001,0.1,118.01483,1619735729999
Fix,GT,37.3958181,-122.1029152,-4.488,0.0014134328,0.1,118.01367,1619735730999
Fix,GT,37.3958181,-122.1029152,-4.488,0.001,0.1,118.012115,1619735731999
Fix,GT,37.3958181,-122.1029152,-4.488,0.001,0.1,118.0108,1619735732999
Fix,GT,37.3958181,-122.1029152,-4.488,0.001,0.1,118.00949,1619735733999
Fix,GT,37.3958181,-122.1029152,-4.488,0.001,0.1,118.00821,1619735734999
Fix,GT,37.3958181,-122.1029152,-4.488,0.0010007843,0.1,118.006714,1619735735999
Fix,GT,37.3958181,-122.1029152,-4.488,0.001,0.1,118.00534,1619735736999
Fix,GT,37.3958181,-122.1029152,-4.488,0.0010007857,0.1,118.003845,1619735737999
Fix,GT,37.3958181,-122.1029152,-4.488,0.0014134272,0.1,118.0025,1619735738999
Fix,GT,37.3958181,-122.1029152,-4.488,0.001,0.1,118.00125,1619735739999
Fix,GT,37.3958181,-122.1029152,-4.488,0.001,0.1,118.00003,1619735740999
Fix,GT,37.3958181,-122.1029152,-4.488,0.001,0.1,117.99893,1619735741999
Fix,GT,37.3958181,-122.1029152,-4.488,0.001,0.1,117.997406,1619735742999
Fix,GT,37.3958181,-122.1029152,-4.488,0.001,0.1,117.99603,1619735743999
Fix,GT,37.3958181,-122.1029152,-4.488,0.001,0.1,117.99451,1619735744999
Fix,GT,37.3958181,-122.1029152,-4.488,0.001,0.1,117.993286,1619735745999
Fix,GT,37.3958181,-122.1029152,-4.488,2.704226e-06,0.1,117.99219,1619735746999
Fix,GT,37.3958181,-122.1029152,-4.488,0.0014134209,0.1,117.99072,1619735747999
Fix,GT,37.3958181,-122.1029152,-4.488,0.0009980845,0.1,117.98932,1619735748999
Fix,GT,37.3958181,-122.1029152,-4.488,0.001,0.1,117.987854,1619735749999
Fix,GT,37.3958181,-122.1029152,-4.488,0.001,0.1,117.98645,1619735750999
Fix,GT,37.3958181,-122.1029152,-4.488,0.0,0.1,117.98526,1619735751999
Fix,GT,37.3958181,-122.1029152,-4.488,1.9224287e-06,0.1,117.98407,1619735752999
Fix,GT,37.3958181,-122.1029152,-4.488,0.0014114924,0.1,117.982666,1619735753999
Fix,GT,37.3958181,-122.1029152,-4.488,1.9258262e-06,0.1,117.98123,1619735754999
Fix,GT,37.3958181,-122.1029152,-4.488,0.0,0.1,117.98004,1619735755999
Fix,GT,37.3958181,-122.1029152,-4.488,0.0009980708,0.1,117.97882,1619735756999
Fix,GT,37.3958181,-122.1029152,-4.488,0.001,0.1,117.97748,1619735757999
Fix,GT,37.3958181,-122.1029152,-4.488,0.0022344794,0.1,117.976135,1619735758999
Fix,GT,37.3958181,-122.1029152,-4.488,0.0,0.1,117.974915,1619735759999
Fix,GT,37.3958181,-122.1029152,-4.488,0.0,0.1,117.97345,1619735760999
Fix,GT,37.3958181,-122.1029152,-4.488,0.0,0.1,117.972046,1619735761999
Fix,GT,37.3958181,-122.1029152,-4.488,0.0,0.1,117.970764,1619735762999
Fix,GT,37.3958181,-122.1029152,-4.488,0.0,0.1,117.969666,1619735763999
Fix,GT,37.3958181,-122.1029152,-4.488,1.943052e-06,0.1,117.968445,1619735764999
Fix,GT,37.3958181,-122.1029152,-4.488,0.0009980552,0.1,117.96738,1619735765999
Fix,GT,37.3958181,-122.1029152,-4.488,1.946509e-06,0.1,117.966125,1619735766999
Fix,GT,37.3958181,-122.1029152,-4.488,0.001,0.1,117.96466,1619735767999
Fix,GT,37.3958181,-122.1029152,-4.488,0.0,0.1,117.96307,1619735768999
Fix,GT,37.3958181,-122.1029152,-4.488,0.0,0.1,117.96188,1619735769999
Fix,GT,37.3958181,-122.1029151,-4.488,0.0009980467,0.1,117.96063,1619735770999
Fix,GT,37.3958181,-122.1029151,-4.488,0.001,0.1,117.95947,1619735771999
Fix,GT,37.3958181,-122.1029151,-4.488,0.0010008105,0.1,117.95801,1619735772999
Fix,GT,37.3958181,-122.1029151,-4.488,0.001,0.1,117.95679,1619735773999
Fix,GT,37.3958181,-122.1029151,-4.488,0.001002423,0.1,117.95584,1619735774999
Fix,GT,37.3958181,-122.1029151,-4.488,0.000998038,0.1,117.95453,1619735775999
Fix,GT,37.3958181,-122.1029151,-4.488,1.963675e-06,0.1,117.953125,1619735776999
Fix,GT,37.3958181,-122.1029151,-4.488,0.001,0.1,117.95184,1619735777999
Fix,GT,37.3958181,-122.1029151,-4.488,0.0,0.1,117.95041,1619735778999
Fix,GT,37.3958181,-122.1029151,-4.488,2.7843894e-06,0.1,117.94919,1619735779999
Fix,GT,37.3958181,-122.1029151,-4.488,1.9706488e-06,0.1,117.947815,1619735780999
Fix,GT,37.3958181,-122.1029151,-4.488,0.0019980278,0.1,117.94632,1619735781999
Fix,GT,37.3958181,-122.1029151,-4.488,2.7918072e-06,0.1,117.94571,1619735782999
Fix,GT,37.3958181,-122.1029151,-4.488,0.0010008184,0.1,117.94446,1619735783999
Fix,GT,37.3958181,-122.1029151,-4.488,0.001,0.1,117.94327,1619735784999
Fix,GT,37.3958181,-122.1029151,-4.488,0.001,0.1,117.94208,1619735785999
Fix,GT,37.3958181,-122.1029151,-4.488,0.001,0.1,117.94092,1619735786999
Fix,GT,37.3958182,-122.1029151,-4.488,0.001,0.1,117.939514,1619735787999
Fix,GT,37.3958182,-122.1029151,-4.488,0.001,0.1,117.93823,1619735788999
Fix,GT,37.3958182,-122.1029151,-4.488,0.001,0.1,117.93695,1619735789999
Fix,GT,37.3958182,-122.1029151,-4.488,0.001,0.1,117.93573,1619735790999
Fix,GT,37.3958182,-122.1029151,-4.488,0.001,0.1,117.93445,1619735791999
Fix,GT,37.3958182,-122.1029151,-4.488,0.001,0.1,117.93317,1619735792999
Fix,GT,37.3958182,-122.1029151,-4.488,0.001,0.1,117.93201,1619735793999
Fix,GT,37.3958182,-122.1029151,-4.488,0.001,0.1,117.93088,1619735794999
Fix,GT,37.3958182,-122.1029151,-4.488,0.0014133865,0.1,117.92938,1619735795999
Fix,GT,37.3958182,-122.1029151,-4.488,0.0019980017,0.1,117.92822,1619735796999
Fix,GT,37.3958182,-122.1029151,-4.488,0.0010008285,0.1,117.92728,1619735797999
Fix,GT,37.3958182,-122.1029151,-4.488,0.0022344228,0.1,117.92587,1619735798999
Fix,GT,37.3958182,-122.1029151,-4.488,0.0014142136,0.1,117.92456,1619735799999
Fix,GT,37.3958182,-122.1029151,-4.488,0.003603993,0.1,117.923584,1619735800999
Fix,GT,37.3958182,-122.1029151,-4.488,0.003160419,0.1,117.92224,1619735801999
Fix,GT,37.3958182,-122.1029151,-4.488,0.003000326,0.1,117.92102,1619735802999
Fix,GT,37.3958182,-122.1029151,-4.488,0.0030020103,0.1,117.91989,1619735803999
Fix,GT,37.3958182,-122.1029151,-4.488,0.004122858,0.1,117.9187,1619735804999
Fix,GT,37.3958182,-122.1029151,-4.488,0.0041231057,0.1,117.91748,1619735805999
Fix,GT,37.3958182,-122.1029151,-4.488,0.004472136,0.1,117.91626,1619735806999
Fix,GT,37.3958182,-122.1029151,-4.488,0.004241355,0.1,117.9151,1619735807999
Fix,GT,37.3958183,-122.1029152,-4.488997980952262,0.0031604078,0.1,117.914,1619735808999
Fix,GT,37.3958183,-122.1029153,-4.489,0.0041211643,0.1,117.91272,1619735809999
Fix,GT,37.3958183,-122.1029153,-4.489,0.006400286,0.1,117.91138,1619735810999
Fix,GT,37.3958183,-122.1029153,-4.489,0.008062257,0.1,117.90997,1619735811999
Fix,GT,37.3958183,-122.1029153,-4.489,0.0117047,0.1,117.90863,1619735812999
Fix,GT,37.3958183,-122.1029153,-4.489,0.017260682,0.1,117.9079,1619735813999
Fix,GT,37.395818,-122.1029154,-4.495997970640659,0.23315507,0.1,117.88312,1619735814999
Fix,GT,37.3958131,-122.1029185,-4.496,1.1693193,0.1,116.36609,1619735815999
Fix,GT,37.3958031,-122.1029238,-4.481004065752029,1.947165,0.1,108.89462,1619735816999
Fix,GT,37.3957872,-122.1029285,-4.454008138179779,2.686151,0.1,98.33002,1619735817999
Fix,GT,37.3957603,-122.1029323,-4.389012217998505,3.4555066,0.1,97.27966,1619735818999
Fix,GT,37.3957217,-122.1029414,-4.306010190308094,4.57407,0.1,105.27121,1619735819999
Fix,GT,37.3956733,-122.1029633,-4.248,5.910516,0.1,114.44528,1619735820999
Fix,GT,37.3956192,-122.1029978,-4.1680142906308175,7.073713,0.1,119.31296,1619735821999
Fix,GT,37.3955595,-122.1030426,-4.070014303147793,7.869336,0.1,122.65619,1619735822999
Fix,GT,37.3954994,-122.103091,-4.02200818014145,7.9148855,0.1,121.88815,1619735823999
Fix,GT,37.3954424,-122.1031294,-3.968016374588013,7.349105,0.1,111.762146,1619735824999
Fix,GT,37.3953912,-122.1031435,-3.870018436431885,6.616859,0.1,88.75879,1619735825999
Fix,GT,37.3953478,-122.1031295,-3.8140041004419327,6.1774197,0.1,61.51367,1619735826999
Fix,GT,37.3953144,-122.1030935,-3.791,5.9340096,0.1,39.31668,1619735827999
Fix,GT,37.3952902,-122.1030421,-3.916960978984832,5.991874,0.1,26.645538,1619735828999
Fix,GT,37.3952664,-122.1029795,-4.095958889484406,6.4229918,0.1,26.965912,1619735829999
Fix,GT,37.3952392,-122.1029119,-4.300956797659397,6.86811,0.1,28.147858,1619735830999
Fix,GT,37.3952099,-122.1028428,-4.473958819150925,6.919427,0.1,29.066132,1619735831999
Fix,GT,37.3951801,-122.1027745,-4.6549505414962775,6.895879,0.1,29.167816,1619735832999
Fix,GT,37.3951505,-122.1027061,-4.904944312512875,7.1207747,0.1,28.540253,1619735833999
Fix,GT,37.3951192,-122.1026324,-5.039987614631653,7.661565,0.1,28.404144,1619735834999
Fix,GT,37.3950859,-122.1025541,-5.016,8.113579,0.1,27.986084,1619735835999
Fix,GT,37.395051,-122.1024705,-5.032989661276341,8.649399,0.1,27.790283,1619735836999
Fix,GT,37.3950135,-122.1023807,-5.087991721868515,9.352817,0.1,27.790924,1619735837999
Fix,GT,37.3949732,-122.102285,-5.09301656961441,9.613286,0.1,28.199646,1619735838999
Fix,GT,37.3949326,-122.1021909,-4.95303938794136,9.228307,0.1,29.129333,1619735839999
Fix,GT,37.3948934,-122.1021037,-4.794020747184753,8.343345,0.1,29.978699,1619735840999
Fix,GT,37.3948603,-122.1020304,-4.671037377119065,6.7860055,0.1,28.475067,1619735841999
Fix,GT,37.3948396,-122.1019745,-4.5130249388217925,5.2232566,0.1,19.393585,1619735842999
Fix,GT,37.3948335,-122.1019329,-4.414016639232635,4.631462,0.1,358.87445,1619735843999
Fix,GT,37.3948418,-122.1018993,-4.383004163384437,4.7958093,0.1,330.82233,1619735844999
Fix,GT,37.3948677,-122.101864,-4.385997916579247,5.7961683,0.1,310.30563,1619735845999
Fix,GT,37.3949125,-122.1018246,-4.394002085149288,7.0140452,0.1,303.60846,1619735846999
Fix,GT,37.3949701,-122.1017818,-4.420995826244354,8.12498,0.1,299.60016,1619735847999
Fix,GT,37.3950368,-122.101737,-4.453989556670188,8.549242,0.1,298.56277,1619735848999
Fix,GT,37.3951043,-122.1016921,-4.535977005660534,8.44088,0.1,298.18866,1619735849999
Fix,GT,37.3951706,-122.1016481,-4.597985354721546,8.075353,0.1,298.6822,1619735850999
Fix,GT,37.395231,-122.1016067,-4.642993718445301,6.897533,0.1,299.36554,1619735851999
Fix,GT,37.3952777,-122.1015738,-4.643997904419899,4.992213,0.1,300.05435,1619735852999
Fix,GT,37.3953124,-122.1015487,-4.658972734212875,3.8191104,0.1,300.2625,1619735853999
Fix,GT,37.3953368,-122.101531,-4.711989504516125,2.4596438,0.1,300.30035,1619735854999
Fix,GT,37.3953514,-122.1015204,-4.747989495575428,1.3607118,0.1,300.28397,1619735855999
Fix,GT,37.3953607,-122.1015136,-4.773008410453796,0.86486304,0.1,300.3276,1619735856999
Fix,GT,37.3953642,-122.101511,-4.781,0.16331494,0.1,300.35226,1619735857999
Fix,GT,37.3953646,-122.1015108,-4.785,0.03230288,0.1,300.34918,1619735858999
Fix,GT,37.3953646,-122.1015108,-4.783002107858659,0.0060804803,0.1,300.34927,1619735859999
Fix,GT,37.3953646,-122.1015108,-4.783,0.0036055513,0.1,300.3485,1619735860999
Fix,GT,37.3953646,-122.1015108,-4.783,0.002236068,0.1,300.34793,1619735861999
Fix,GT,37.3953646,-122.1015108,-4.783,0.0014159502,0.1,300.3474,1619735862999
Fix,GT,37.3953646,-122.1015108,-4.783,0.0010008761,0.1,300.34665,1619735863999
Fix,GT,37.3953646,-122.1015108,-4.783,0.0,0.1,300.3463,1619735864999
Fix,GT,37.3953646,-122.1015108,-4.783,2.1183491e-06,0.1,300.34595,1619735865999
Fix,GT,37.3953646,-122.1015108,-4.783,0.00099788,0.1,300.34552,1619735866999
Fix,GT,37.3953646,-122.1015108,-4.783,0.001,0.1,300.3442,1619735867999
Fix,GT,37.3953646,-122.1015108,-4.783,0.0,0.1,300.34372,1619735868999
Fix,GT,37.3953646,-122.1015108,-4.783,0.0,0.1,300.34308,1619735869999
Fix,GT,37.3953646,-122.1015108,-4.783,2.1270514e-06,0.1,300.34253,1619735870999
Fix,GT,37.3953646,-122.1015108,-4.783,0.0,0.1,300.34204,1619735871999
Fix,GT,37.3953646,-122.1015108,-4.783,0.0,0.1,300.34137,1619735872999
Fix,GT,37.3953646,-122.1015108,-4.783,0.0,0.1,300.34085,1619735873999
Fix,GT,37.3953646,-122.1015108,-4.783,0.0,0.1,300.34018,1619735874999
Fix,GT,37.3953646,-122.1015108,-4.783,0.001,0.1,300.33963,1619735875999
Fix,GT,37.3953646,-122.1015108,-4.783,0.0009978625,0.1,300.33914,1619735876999
Fix,GT,37.3953646,-122.1015108,-4.783,2.1392705e-06,0.1,300.3385,1619735877999
Fix,GT,37.3953646,-122.1015108,-4.783,0.001,0.1,300.3381,1619735878999
Fix,GT,37.3953646,-122.1015108,-4.783,2.142787e-06,0.1,300.3374,1619735879999
Fix,GT,37.3953646,-122.1015108,-4.783,2.1445753e-06,0.1,300.33737,1619735880999
Fix,GT,37.3953646,-122.1015108,-4.783,0.0009978537,0.1,300.3377,1619735881999
Fix,GT,37.3953646,-122.1015108,-4.783,0.0010008898,0.1,300.33597,1619735882999
Fix,GT,37.3953646,-122.1015108,-4.783,0.0009978502,0.1,300.33514,1619735883999
Fix,GT,37.3953646,-122.1015108,-4.783,0.0014142136,0.1,300.33466,1619735884999
Fix,GT,37.3953646,-122.1015108,-4.783,0.0014142136,0.1,300.33414,1619735885999
Fix,GT,37.3953646,-122.1015108,-4.783,0.0014159848,0.1,300.3336,1619735886999
Fix,GT,37.3953646,-122.1015108,-4.783,0.002236068,0.1,300.33307,1619735887999
Fix,GT,37.3953646,-122.1015108,-4.783,0.0036038738,0.1,300.33298,1619735888999
Fix,GT,37.3953646,-122.1015108,-4.783,0.0036055513,0.1,300.33264,1619735889999
Fix,GT,37.3953646,-122.1015108,-4.783,0.0042426405,0.1,300.3323,1619735890999
Fix,GT,37.3953646,-122.1015108,-4.783,0.005,0.1,300.33176,1619735891999
Fix,GT,37.3953646,-122.1015108,-4.783,0.004474113,0.1,300.33115,1619735892999
Fix,GT,37.3953646,-122.1015108,-4.783,0.0044750813,0.1,300.33084,1619735893999
Fix,GT,37.3953646,-122.1015109,-4.784,0.004471379,0.1,300.33038,1619735894999
Fix,GT,37.3953647,-122.1015109,-4.786,0.0020025233,0.1,300.3299,1619735895999
Fix,GT,37.3953647,-122.101511,-4.788,0.0010021728,0.1,300.3295,1619735896999
Fix,GT,37.3953647,-122.101511,-4.788,0.006400073,0.1,300.32895,1619735897999
Fix,GT,37.3953645,-122.1015109,-4.790997823774815,0.012041595,0.1,300.32852,1619735898999
Fix,GT,37.3953643,-122.1015107,-4.792997821986676,0.020613858,0.1,300.3281,1619735899999
Fix,GT,37.395364,-122.1015104,-4.795,0.03201256,0.1,300.32745,1619735900999
Fix,GT,37.3953651,-122.1015089,-4.802002181529998,0.52528936,0.1,300.32874,1619735901999
Fix,GT,37.3953696,-122.1015046,-4.807,0.7521214,0.1,300.27972,1619735902999
Fix,GT,37.3953771,-122.1014978,-4.817989075064658,1.2487639,0.1,300.80255,1619735903999
Fix,GT,37.3953901,-122.101486,-4.898960638046265,1.6065768,0.1,306.06583,1619735904999
Fix,GT,37.3954079,-122.1014638,-5.087940908789634,2.552142,0.1,323.89868,1619735905999
Fix,GT,37.3954242,-122.1014198,-4.946021902918815,4.2622495,0.1,345.01907,1619735906999
Fix,GT,37.3954281,-122.1013503,-4.882010960102082,6.3328767,0.1,6.8614807,1619735907999
Fix,GT,37.3954092,-122.1012605,-4.826013162493705,8.716972,0.1,21.519379,1619735908999
Fix,GT,37.3953712,-122.1011605,-4.831010977685452,10.203436,0.1,27.751892,1619735909999
Fix,GT,37.3953236,-122.1010508,-4.839997802734374,11.814416,0.1,28.675537,1619735910999
Fix,GT,37.3952687,-122.1009268,-4.847995601892471,13.215294,0.1,28.689789,1619735911999
Fix,GT,37.3952092,-122.1007921,-4.849991196870803,13.821817,0.1,28.827484,1619735912999
Fix,GT,37.3951483,-122.1006548,-4.917966961443424,14.012612,0.1,28.928284,1619735913999
Fix,GT,37.395087,-122.1005154,-4.953008817195893,14.208541,0.1,28.487091,1619735914999
Fix,GT,37.3950255,-122.1003734,-4.937004412174225,14.4381485,0.1,28.39624,1619735915999
Fix,GT,37.3949626,-122.1002286,-4.905002207756042,14.708719,0.1,28.752563,1619735916999
Fix,GT,37.3948986,-122.1000818,-4.870004419088364,14.943264,0.1,28.49173,1619735917999
Fix,GT,37.3948343,-122.0999325,-4.829008845090866,15.146392,0.1,28.25412,1619735918999
Fix,GT,37.3947692,-122.0997806,-4.797,15.388748,0.1,28.29187,1619735919999
Fix,GT,37.3947024,-122.0996262,-4.835015503525733,15.688879,0.1,28.75113,1619735920999
Fix,GT,37.3946336,-122.0994694,-4.831982267379761,15.98769,0.1,28.926392,1619735921999
Fix,GT,37.3945632,-122.0993098,-4.86500887298584,16.298897,0.1,28.928375,1619735922999
Fix,GT,37.3944919,-122.0991479,-4.841006659924984,16.378475,0.1,28.877838,1619735923999
Fix,GT,37.3944214,-122.0989874,-4.801004443526268,16.088741,0.1,28.659088,1619735924999
Fix,GT,37.3943532,-122.0988293,-4.7939911060333245,15.721598,0.1,28.323029,1619735925999
Fix,GT,37.3942865,-122.0986748,-4.777008901119232,15.333353,0.1,28.677063,1619735926999
Fix,GT,37.3942213,-122.0985259,-4.732006681203843,14.681787,0.1,28.688934,1619735927999
Fix,GT,37.39416,-122.0983845,-4.703017830371857,13.790271,0.1,28.378876,1619735928999
Fix,GT,37.3941029,-122.0982524,-4.637008922338485,12.795425,0.1,28.717316,1619735929999
Fix,GT,37.3940492,-122.0981308,-4.567022323131562,11.79587,0.1,29.102386,1619735930999
Fix,GT,37.393999,-122.0980191,-4.520002234101295,10.851652,0.1,29.592163,1619735931999
Fix,GT,37.3939517,-122.0979169,-4.50700670748949,9.903681,0.1,30.58603,1619735932999
Fix,GT,37.3939083,-122.0978265,-4.480020137488842,8.67209,0.1,31.540955,1619735933999
Fix,GT,37.3938695,-122.0977493,-4.456004478573799,7.3601933,0.1,32.75238,1619735934999
Fix,GT,37.3938363,-122.0976857,-4.442002241015435,6.0246825,0.1,33.403778,1619735935999
Fix,GT,37.3938098,-122.0976357,-4.43,4.5560837,0.1,33.688507,1619735936999
Fix,GT,37.3937895,-122.0975978,-4.411997755467891,3.5708368,0.1,33.932648,1619735937999
Fix,GT,37.3937737,-122.0975684,-4.400997753679752,2.7728467,0.1,34.125427,1619735938999
Fix,GT,37.3937597,-122.0975428,-4.387002248108386,2.7183247,0.1,33.970947,1619735939999
Fix,GT,37.393746,-122.0975172,-4.384008999347687,2.8028004,0.1,33.81241,1619735940999
Fix,GT,37.3937315,-122.0974903,-4.369002251625061,2.9548864,0.1,33.951538,1619735941999
Fix,GT,37.3937158,-122.0974612,-4.3560045068264,3.2516305,0.1,34.34659,1619735942999
Fix,GT,37.3936977,-122.0974283,-4.344009020805359,3.8229184,0.1,34.8143,1619735943999
Fix,GT,37.3936753,-122.0973885,-4.330006770968438,4.8092823,0.1,35.513367,1619735944999
Fix,GT,37.3936464,-122.0973388,-4.319011293590069,6.005576,0.1,36.500427,1619735945999
Fix,GT,37.3936104,-122.0972792,-4.292990958452225,7.1257205,0.1,37.490814,1619735946999
Fix,GT,37.3935687,-122.0972124,-4.277997737765312,7.637638,0.1,38.4151,1619735947999
Fix,GT,37.3935256,-122.0971452,-4.240997735977173,7.5507126,0.1,38.876923,1619735948999
Fix,GT,37.3934824,-122.097079,-4.220006797254086,7.5619755,0.1,39.51709,1619735949999
Fix,GT,37.3934382,-122.0970129,-4.191009070158005,7.6778193,0.1,40.096313,1619735950999
Fix,GT,37.3933925,-122.0969461,-4.164002269268035,7.8191385,0.1,40.73172,1619735951999
Fix,GT,37.3933458,-122.0968793,-4.127011355280876,7.8766847,0.1,41.2034,1619735952999
Fix,GT,37.3932983,-122.0968122,-4.07301136392355,7.949287,0.1,41.93448,1619735953999
Fix,GT,37.393249,-122.0967447,-3.988018196582794,8.25593,0.1,42.490814,1619735954999
Fix,GT,37.3931967,-122.0966747,-3.919015934109688,8.5891285,0.1,43.39688,1619735955999
Fix,GT,37.393142,-122.0966037,-3.8450068342685695,8.771156,0.1,44.610596,1619735956999
Fix,GT,37.3930847,-122.0965329,-3.7760113990902897,8.984548,0.1,45.878876,1619735957999
Fix,GT,37.3930249,-122.0964619,-3.712018252849579,9.208132,0.1,46.597412,1619735958999
Fix,GT,37.3929645,-122.0963908,-3.6340274000167847,9.102321,0.1,46.746094,1619735959999
Fix,GT,37.392905,-122.0963216,-3.5340251363515853,8.837501,0.1,47.507416,1619735960999
Fix,GT,37.3928464,-122.0962556,-3.428020581662655,8.578331,0.1,48.360443,1619735961999
Fix,GT,37.3927889,-122.0961925,-3.331020597755909,8.320549,0.1,48.979004,1619735962999
Fix,GT,37.3927325,-122.0961321,-3.246018323421478,8.0724,0.1,49.741302,1619735963999
Fix,GT,37.3926772,-122.0960746,-3.1330320901870725,7.7988887,0.1,50.643646,1619735964999
Fix,GT,37.3926227,-122.0960194,-3.038022939443588,7.8681097,0.1,51.36325,1619735965999
Fix,GT,37.3925638,-122.0959614,-2.9620068871974947,8.584661,0.1,52.066956,1619735966999
Fix,GT,37.392501,-122.0959009,-2.8840252720713613,9.0355425,0.1,52.635986,1619735967999
Fix,GT,37.3924346,-122.0958382,-2.797013795137405,9.258386,0.1,53.108,1619735968999
Fix,GT,37.3923676,-122.095776,-2.7250161068439485,9.188665,0.1,53.452393,1619735969999
Fix,GT,37.3923002,-122.095714,-2.6450276324749,9.364058,0.1,53.81601,1619735970999
Fix,GT,37.3922294,-122.0956496,-2.5690253494381903,10.082696,0.1,54.09079,1619735971999
Fix,GT,37.3921531,-122.095581,-2.5000115311145783,10.659708,0.1,54.266388,1619735972999
Fix,GT,37.3920729,-122.0955093,-2.446020772099495,11.234769,0.1,54.457,1619735973999
Fix,GT,37.3919885,-122.0954345,-2.349020787656308,11.530114,0.1,54.72641,1619735974999
Fix,GT,37.3919035,-122.0953602,-2.275,11.393333,0.1,55.28241,1619735975999
Fix,GT,37.3918179,-122.0952865,-2.184025445818901,11.771139,0.1,55.1297,1619735976999
Fix,GT,37.3917298,-122.0952082,-2.0590254654884337,12.340942,0.1,53.878082,1619735977999
Fix,GT,37.3916403,-122.0951246,-1.9400301180481911,12.481532,0.1,52.20395,1619735978999
Fix,GT,37.391553,-122.0950372,-1.8290370969772336,12.507643,0.1,50.38681,1619735979999
Fix,GT,37.3914668,-122.0949463,-1.7730162424445153,12.606478,0.1,49.32022,1619735980999
Fix,GT,37.391381,-122.0948526,-1.6630046441555024,12.749325,0.1,48.211304,1619735981999
Fix,GT,37.3912957,-122.0947556,-1.573041829586029,12.939972,0.1,46.94574,1619735982999
Fix,GT,37.3912122,-122.0946562,-1.527023255944252,12.737951,0.1,45.426453,1619735983999
Fix,GT,37.3911331,-122.0945553,-1.3950232738256454,12.62374,0.1,43.41992,1619735984999
Fix,GT,37.3910545,-122.0944497,-1.3130256202220918,13.110416,0.1,42.277527,1619735985999
Fix,GT,37.3909746,-122.0943376,-1.218023308992386,13.551333,0.1,41.02719,1619735986999
Fix,GT,37.3908956,-122.0942221,-1.128011663138866,13.438703,0.1,39.91107,1619735987999
Fix,GT,37.3908192,-122.0941065,-1.052021009743214,13.218751,0.1,39.193115,1619735988999
Fix,GT,37.3907452,-122.0939915,-0.9820373783111572,13.099385,0.1,38.26941,1619735989999
Fix,GT,37.3906723,-122.0938745,-0.8970140275955201,13.298177,0.1,37.52011,1619735990999
Fix,GT,37.3905996,-122.0937539,-0.8240023396611214,13.578386,0.1,36.21875,1619735991999
Fix,GT,37.3905279,-122.0936288,-0.7200304388403892,13.747354,0.1,34.97058,1619735992999
Fix,GT,37.3904582,-122.0935022,-0.695,13.596046,0.1,34.01834,1619735993999
Fix,GT,37.3903907,-122.0933749,-0.6070304845571517,13.605642,0.1,32.7865,1619735994999
Fix,GT,37.3903254,-122.0932461,-0.5630093867778778,13.491091,0.1,31.992401,1619735995999
Fix,GT,37.3902615,-122.0931176,-0.5330070454478265,13.302739,0.1,31.759827,1619735996999
Fix,GT,37.3901988,-122.0929911,-0.5189929493665696,13.026618,0.1,31.927765,1619735997999
Fix,GT,37.3901372,-122.0928676,-0.481,12.824773,0.1,31.811035,1619735998999
Fix,GT,37.390076,-122.0927447,-0.4280376605987548,12.887845,0.1,31.788177,1619735999999
Fix,GT,37.3900147,-122.0926216,-0.3510047110319138,12.744412,0.1,31.886902,1619736000999
Fix,GT,37.389954,-122.0924998,-0.3000047146081924,12.7793865,0.1,32.04303,1619736001999
Fix,GT,37.3898921,-122.0923758,-0.2160117951631545,13.17398,0.1,31.802643,1619736002999
Fix,GT,37.3898289,-122.0922474,-0.1410306906700134,13.590462,0.1,31.337952,1619736003999
Fix,GT,37.3897638,-122.0921145,-0.0850189003944397,14.019246,0.1,31.494507,1619736004999
Fix,GT,37.3896969,-122.091978,-0.035023643374443,14.271759,0.1,31.51297,1619736005999
Fix,GT,37.3896298,-122.0918409,0.0439905357360839,14.212481,0.1,31.502472,1619736006999
Fix,GT,37.3895628,-122.0917045,0.1129739536046981,14.128884,0.1,31.53894,1619736007999
Fix,GT,37.3894964,-122.09157,0.1829928912520408,13.86752,0.1,31.805878,1619736008999
Fix,GT,37.3894307,-122.0914388,0.2100071141123771,13.556384,0.1,31.927734,1619736009999
Fix,GT,37.3893662,-122.0913102,0.2209952538013458,13.361882,0.1,31.931335,1619736010999
Fix,GT,37.3893029,-122.0911829,0.2319976251125335,13.2369375,0.1,31.620453,1619736011999
Fix,GT,37.3892406,-122.0910565,0.2219976233839989,13.036864,0.1,31.492126,1619736012999
Fix,GT,37.3891799,-122.0909326,0.2140023784041404,12.698003,0.1,31.485626,1619736013999
Fix,GT,37.389121,-122.0908124,0.238,12.309336,0.1,31.359985,1619736014999
Fix,GT,37.3890639,-122.0906955,0.2279785621762275,11.953506,0.1,31.486694,1619736015999
Fix,GT,37.3890077,-122.0905821,0.2390023837685584,11.631024,0.1,31.992859,1619736016999
Fix,GT,37.3889525,-122.0904722,0.2340095419883728,11.374678,0.1,32.183167,1619736017999
Fix,GT,37.3888981,-122.0903647,0.2179928381443023,11.160853,0.1,32.25287,1619736018999
Fix,GT,37.3888447,-122.0902592,0.2050047780275344,10.96343,0.1,32.296753,1619736019999
Fix,GT,37.3887921,-122.0901558,0.2189952183961868,10.743882,0.1,32.605865,1619736020999
Fix,GT,37.38874,-122.0900549,0.2419904298782348,10.522005,0.1,32.761963,1619736021999
Fix,GT,37.3886888,-122.0899561,0.2390023943185806,10.324811,0.1,33.055542,1619736022999
Fix,GT,37.3886383,-122.0898595,0.24199281167984,10.13299,0.1,32.997864,1619736023999
Fix,GT,37.3885888,-122.0897644,0.2339976021051407,9.969098,0.1,32.965454,1619736024999
Fix,GT,37.3885397,-122.089671,0.201,9.807287,0.1,33.142517,1619736025999
Fix,GT,37.3884916,-122.0895795,0.1969975985884666,9.620768,0.1,33.33908,1619736026999
Fix,GT,37.3884441,-122.08949,0.2139927904009819,9.368684,0.1,33.521576,1619736027999
Fix,GT,37.388398,-122.0894035,0.2349903800487518,9.027865,0.1,33.552856,1619736028999
Fix,GT,37.3883549,-122.0893213,0.2770048134326935,8.402525,0.1,32.40683,1619736029999
Fix,GT,37.3883176,-122.0892471,0.2499927744865417,7.1785765,0.1,31.390045,1619736030999
Fix,GT,37.3882874,-122.0891857,0.1979855386018753,5.474577,0.1,31.51056,1619736031999
Fix,GT,37.3882661,-122.0891424,0.1979975879788398,3.5278106,0.1,31.75473,1619736032999
Fix,GT,37.3882533,-122.0891169,0.196,1.9944623,0.1,31.88211,1619736033999
Fix,GT,37.3882462,-122.0891025,0.202,0.9922229,0.1,31.938354,1619736034999
Fix,GT,37.3882432,-122.0890965,0.205,0.31502357,0.1,31.962097,1619736035999
Fix,GT,37.3882429,-122.0890957,0.2029975808858871,0.004488364,0.1,31.963562,1619736036999
Fix,GT,37.3882429,-122.0890957,0.203,0.0031669664,0.1,31.964447,1619736037999
Fix,GT,37.3882429,-122.0890957,0.203,0.004120385,0.1,31.963654,1619736038999
Fix,GT,37.3882429,-122.0890957,0.204,0.0014184515,0.1,31.963196,1619736039999
Fix,GT,37.3882429,-122.0890957,0.204,0.003,0.1,31.960968,1619736040999
Fix,GT,37.3882429,-122.0890957,0.204,0.001002428,0.1,31.95993,1619736041999
Fix,GT,37.3882429,-122.0890957,0.204,0.0029975704,0.1,31.95871,1619736042999
Fix,GT,37.3882429,-122.0890957,0.204,0.0010044458,0.1,31.957062,1619736043999
Fix,GT,37.3882429,-122.0890957,0.204,0.003602219,0.1,31.95575,1619736044999
Fix,GT,37.3882429,-122.0890957,0.204,0.0014142136,0.1,31.9552,1619736045999
Fix,GT,37.3882429,-122.0890956,0.2139926895499229,0.002236068,0.1,31.95346,1619736046999
Fix,GT,37.3882429,-122.0890955,0.2289975614547729,0.0022375125,0.1,31.951965,1619736047999
Fix,GT,37.3882429,-122.0890954,0.2429926789999008,0.002236068,0.1,31.950836,1619736048999
Fix,GT,37.3882429,-122.0890953,0.251,0.0019975582,0.1,31.95044,1619736049999
Fix,GT,37.3882429,-122.0890953,0.251,0.0020005768,0.1,31.948639,1619736050999
Fix,GT,37.3882429,-122.0890953,0.251,0.0020024457,0.1,31.947388,1619736051999
Fix,GT,37.3882429,-122.0890953,0.251,0.0039975527,0.1,31.945923,1619736052999
Fix,GT,37.3882429,-122.0890953,0.251,0.003,0.1,31.944275,1619736053999
Fix,GT,37.3882429,-122.0890953,0.252,0.004,0.1,31.942688,1619736054999
Fix,GT,37.3882429,-122.0890953,0.252,0.004122804,0.1,31.941772,1619736055999
Fix,GT,37.3882429,-122.0890953,0.252,0.003997944,0.1,31.939636,1619736056999
Fix,GT,37.3882429,-122.0890953,0.252,0.0036055513,0.1,31.93811,1619736057999
Fix,GT,37.3882429,-122.0890953,0.2480024579763412,0.04877992,0.1,31.938263,1619736058999
Fix,GT,37.3882408,-122.0890911,0.241,0.78086346,0.1,31.911865,1619736059999
Fix,GT,37.3882351,-122.0890798,0.2380024616122245,1.6289734,0.1,31.88623,1619736060999
Fix,GT,37.3882244,-122.0890583,0.2419950733184814,2.9731762,0.1,31.904236,1619736061999
Fix,GT,37.3882067,-122.0890229,0.2409975348711013,4.3843837,0.1,31.802399,1619736062999
Fix,GT,37.3881825,-122.088974,0.2580049337148666,5.82777,0.1,31.722809,1619736063999
Fix,GT,37.3881515,-122.0889116,0.2750049372911453,7.2380114,0.1,31.392975,1619736064999
Fix,GT,37.3881149,-122.0888361,0.2730123518705368,8.377566,0.1,31.093689,1619736065999
Fix,GT,37.3880728,-122.0887495,0.2879925833344459,9.479022,0.1,31.271973,1619736066999
Fix,GT,37.3880262,-122.0886546,0.2880049480199814,10.254307,0.1,31.507996,1619736067999
Fix,GT,37.3879758,-122.0885525,0.304,10.924382,0.1,31.420532,1619736068999
Fix,GT,37.3879236,-122.0884457,0.3319900898933411,11.3191805,0.1,31.18106,1619736069999
Fix,GT,37.3878691,-122.0883337,0.3839776867032051,11.886841,0.1,31.149323,1619736070999
Fix,GT,37.3878127,-122.088217,0.4199875944852829,12.297278,0.1,30.746948,1619736071999
Fix,GT,37.3877551,-122.0880956,0.4789950342178344,12.748969,0.1,30.226807,1619736072999
Fix,GT,37.3876965,-122.08797,0.5259875769019127,13.027557,0.1,29.828857,1619736073999
Fix,GT,37.3876371,-122.0878412,0.541,13.302586,0.1,29.899261,1619736074999
Fix,GT,37.3875754,-122.0877099,0.5669776057004927,13.590911,0.1,30.644806,1619736075999
Fix,GT,37.3875113,-122.0875766,0.6739850600957871,13.939006,0.1,30.706818,1619736076999
Fix,GT,37.3874465,-122.0874405,0.7209925246834755,13.980114,0.1,30.75882,1619736077999
Fix,GT,37.3873813,-122.0873064,0.7739775574207306,13.856786,0.1,31.384155,1619736078999
Fix,GT,37.3873158,-122.0871723,0.809985027909279,14.054522,0.1,31.176758,1619736079999
Fix,GT,37.387249,-122.0870355,0.8549875143170357,14.3709545,0.1,31.158936,1619736080999
Fix,GT,37.3871807,-122.0868959,0.9309700136184692,14.494677,0.1,31.405396,1619736081999
Fix,GT,37.3871129,-122.086758,1.0149899971485137,14.214821,0.1,31.284637,1619736082999
Fix,GT,37.3870468,-122.0866229,1.0929799799919129,13.8670025,0.1,31.306732,1619736083999
Fix,GT,37.3869821,-122.086491,1.134987478852272,13.556179,0.1,31.65332,1619736084999
Fix,GT,37.3869169,-122.0863617,1.1539849635362625,13.493303,0.1,32.355408,1619736085999
Fix,GT,37.3868518,-122.0862337,1.171002507865429,13.41943,0.1,32.097717,1619736086999
Fix,GT,37.3867879,-122.0861065,1.1819924712181091,13.2628565,0.1,31.61267,1619736087999
Fix,GT,37.3867254,-122.0859802,1.223982419908047,13.086195,0.1,31.563965,1619736088999
Fix,GT,37.386664,-122.0858562,1.2759899473190308,12.794428,0.1,31.536713,1619736089999
Fix,GT,37.3866042,-122.0857352,1.305,12.480011,0.1,31.594543,1619736090999
Fix,GT,37.3865455,-122.0856173,1.3209874162673951,12.161434,0.1,31.816833,1619736091999
Fix,GT,37.3864878,-122.0855025,1.3129974814653396,11.924821,0.1,31.969238,1619736092999
Fix,GT,37.3864316,-122.0853906,1.3429924390316008,11.485476,0.1,31.845764,1619736093999
Fix,GT,37.3863793,-122.0852855,1.370992433845997,10.327536,0.1,31.485535,1619736094999
Fix,GT,37.3863342,-122.0851933,1.3859974761605265,8.812994,0.1,31.161835,1619736095999
Fix,GT,37.3862963,-122.0851148,1.4129949486255646,7.4333744,0.1,30.998596,1619736096999
Fix,GT,37.3862628,-122.0850458,1.4329924177527429,6.7437716,0.1,31.442657,1619736097999
Fix,GT,37.3862325,-122.0849845,1.460992412388325,5.8813415,0.1,31.837952,1619736098999
Fix,GT,37.3862071,-122.0849333,1.4659974690675734,4.781707,0.1,31.811157,1619736099999
Fix,GT,37.3861861,-122.0848911,1.4719974672198295,3.9901583,0.1,31.789948,1619736100999
Fix,GT,37.3861688,-122.0848563,1.4849974654316902,3.3587484,0.1,31.800415,1619736101999
Fix,GT,37.3861539,-122.0848268,1.4919974637031557,2.852922,0.1,31.919403,1619736102999
Fix,GT,37.3861427,-122.0848042,1.5009974618554114,1.8235893,0.1,31.99762,1619736103999
Fix,GT,37.3861364,-122.0847918,1.5149949201345445,0.781951,0.1,32.03308,1619736104999
Fix,GT,37.3861348,-122.0847887,1.524,0.041504603,0.1,32.031555,1619736105999
Fix,GT,37.3861349,-122.0847889,1.5299974564909935,0.01118733,0.1,32.03018,1619736106999
Fix,GT,37.3861349,-122.084789,1.529997454702854,0.0028284271,0.1,32.03067,1619736107999
Fix,GT,37.3861349,-122.0847901,1.53,0.0028269181,0.1,32.029846,1619736108999
Fix,GT,37.386135,-122.0847903,1.53,0.002237578,0.1,32.02841,1619736109999
Fix,GT,37.386135,-122.0847903,1.53,0.0028284271,0.1,32.027008,1619736110999
Fix,GT,37.386135,-122.0847903,1.53,0.0022339702,0.1,32.025787,1619736111999
Fix,GT,37.386135,-122.0847903,1.53,0.0022339688,0.1,32.02469,1619736112999
Fix,GT,37.386135,-122.0847903,1.53,0.0014163142,0.1,32.0235,1619736113999
Fix,GT,37.386135,-122.0847903,1.53,0.0010031618,0.1,32.022614,1619736114999
Fix,GT,37.386135,-122.0847903,1.53,0.0014178335,0.1,32.021088,1619736115999
Fix,GT,37.386135,-122.0847903,1.53,0.0022339628,0.1,32.02002,1619736116999
Fix,GT,37.386135,-122.0847903,1.53,0.002236068,0.1,32.0188,1619736117999
Fix,GT,37.386135,-122.0847903,1.53,0.00223396,0.1,32.01834,1619736118999
Fix,GT,37.386135,-122.0847903,1.53,0.0014142136,0.1,32.017242,1619736119999
Fix,GT,37.386135,-122.0847903,1.53,0.0014142136,0.1,32.016052,1619736120999
Fix,GT,37.386135,-122.0847903,1.53,0.0014142136,0.1,32.0148,1619736121999
Fix,GT,37.386135,-122.0847903,1.53,0.0022339541,0.1,32.013275,1619736122999
Fix,GT,37.386135,-122.0847903,1.53,0.002236068,0.1,32.01236,1619736123999
Fix,GT,37.386135,-122.0847903,1.53,0.0010031838,0.1,32.01117,1619736124999
Fix,GT,37.386135,-122.0847903,1.53,0.002236068,0.1,32.01004,1619736125999
Fix,GT,37.386135,-122.0847903,1.53,0.0010010684,0.1,32.00888,1619736126999
Fix,GT,37.386135,-122.0847903,1.53,0.0014142136,0.1,32.007812,1619736127999
Fix,GT,37.386135,-122.0847903,1.53,0.0022339453,0.1,32.00659,1619736128999
Fix,GT,37.386135,-122.0847903,1.53,0.0014142136,0.1,32.005585,1619736129999
Fix,GT,37.386135,-122.0847903,1.53,0.002236068,0.1,32.00461,1619736130999
Fix,GT,37.386135,-122.0847903,1.53,0.002236068,0.1,32.00348,1619736131999
Fix,GT,37.386135,-122.0847903,1.53,0.002236068,0.1,32.00238,1619736132999
Fix,GT,37.386135,-122.0847903,1.53,0.002236068,0.1,32.00113,1619736133999
Fix,GT,37.386135,-122.0847903,1.53,0.002236068,0.1,32.000122,1619736134999
Fix,GT,37.386135,-122.0847903,1.53,0.002236068,0.1,31.998932,1619736135999
Fix,GT,37.386135,-122.0847903,1.53,0.002,0.1,31.997864,1619736136999
Fix,GT,37.386135,-122.0847903,1.53,0.002236068,0.1,31.996796,1619736137999
Fix,GT,37.386135,-122.0847903,1.53,0.002236068,0.1,31.995636,1619736138999
Fix,GT,37.386135,-122.0847903,1.53,0.002,0.1,31.994598,1619736139999
Fix,GT,37.386135,-122.0847903,1.53,0.0020006148,0.1,31.993439,1619736140999
Fix,GT,37.386135,-122.0847903,1.53,0.0014157401,0.1,31.992462,1619736141999
Fix,GT,37.386135,-122.0847903,1.53,0.0014157413,0.1,31.99118,1619736142999
Fix,GT,37.386135,-122.0847903,1.53,0.002236068,0.1,31.98996,1619736143999
Fix,GT,37.386135,-122.0847903,1.53,0.00223284,0.1,31.988983,1619736144999
Fix,GT,37.386135,-122.0847903,1.53,0.0010026133,0.1,31.987701,1619736145999
Fix,GT,37.386135,-122.0847903,1.53,0.0010026151,0.1,31.986816,1619736146999
Fix,GT,37.386135,-122.0847903,1.53,0.002,0.1,31.985779,1619736147999
Fix,GT,37.386135,-122.0847903,1.53,0.0020006183,0.1,31.98462,1619736148999
Fix,GT,37.386135,-122.0847903,1.53,0.002236068,0.1,31.98346,1619736149999
Fix,GT,37.386135,-122.0847903,1.53,0.001,0.1,31.982605,1619736150999
Fix,GT,37.386135,-122.0847903,1.53,0.0010026242,0.1,31.981445,1619736151999
Fix,GT,37.386135,-122.0847903,1.53,0.0014142136,0.1,31.980286,1619736152999
Fix,GT,37.386135,-122.0847903,1.53,0.0014142136,0.1,31.978912,1619736153999
Fix,GT,37.386135,-122.0847903,1.53,0.0014142136,0.1,31.977936,1619736154999
Fix,GT,37.386135,-122.0847903,1.53,0.002236068,0.1,31.976685,1619736155999
Fix,GT,37.386135,-122.0847903,1.53,0.0022385067,0.1,31.975555,1619736156999
Fix,GT,37.386135,-122.0847902,1.53,0.004122781,0.1,31.974518,1619736157999
Fix,GT,37.3861349,-122.0847898,1.5220026366114616,0.0049973633,0.1,31.973297,1619736158999
Fix,GT,37.3861349,-122.0847897,1.52,0.006,0.1,31.972076,1619736159999
Fix,GT,37.3861349,-122.0847897,1.51900264018774,0.008,0.1,31.970886,1619736160999
Fix,GT,37.3861349,-122.0847896,1.5040052839517593,0.011,0.1,31.969696,1619736161999
Fix,GT,37.3861345,-122.0847892,1.4820132188200952,0.32033542,0.1,31.967346,1619736162999
Fix,GT,37.3861299,-122.0847803,1.4740026454925537,1.5485175,0.1,31.919037,1619736163999
Fix,GT,37.38612,-122.0847605,1.465,2.6301947,0.1,31.755829,1619736164999
Fix,GT,37.3861041,-122.0847286,1.450002649128437,4.091377,0.1,31.61966,1619736165999
Fix,GT,37.3860813,-122.0846828,1.4370053017139437,5.501295,0.1,31.537415,1619736166999
Fix,GT,37.3860513,-122.0846223,1.4370026526451112,6.960836,0.1,31.650665,1619736167999
Fix,GT,37.386016,-122.0845512,1.4430026543736458,7.8023915,0.1,31.44223,1619736168999
Fix,GT,37.3859774,-122.0844718,1.4400026562213897,8.674866,0.1,30.800964,1619736169999
Fix,GT,37.3859354,-122.084384,1.4479973419904708,9.5209675,0.1,30.81488,1619736170999
Fix,GT,37.3858879,-122.0842862,1.4490079792141914,10.695395,0.1,31.115204,1619736171999
Fix,GT,37.3858351,-122.084178,1.4410106463432313,11.655502,0.1,31.477722,1619736172999
Fix,GT,37.3857778,-122.0840631,1.4339840197563172,12.243498,0.1,31.81488,1619736173999
Fix,GT,37.3857186,-122.0839441,1.4239866744875909,12.526137,0.1,31.641846,1619736174999
Fix,GT,37.3856595,-122.083825,1.4270026668906213,12.306816,0.1,31.454407,1619736175999
Fix,GT,37.3856022,-122.0837085,1.4450053374767304,11.970377,0.1,31.20691,1619736176999
Fix,GT,37.3855456,-122.0835921,1.4640026705861091,12.326279,0.1,30.864899,1619736177999
Fix,GT,37.3854866,-122.0834704,1.4849946553707123,12.8618,0.1,31.381561,1619736178999
Fix,GT,37.3854237,-122.083344,1.5249812812805177,13.479929,0.1,31.79242,1619736179999
Fix,GT,37.3853581,-122.083213,1.5629866205453873,13.879868,0.1,31.584137,1619736180999
Fix,GT,37.385292,-122.0830784,1.5869839339256286,14.250723,0.1,30.55661,1619736181999
Fix,GT,37.3852274,-122.0829388,1.6489892818927765,14.400562,0.1,29.137817,1619736182999
Fix,GT,37.3851634,-122.0827953,1.6849892749786377,14.771512,0.1,28.608582,1619736183999
Fix,GT,37.3850994,-122.0826501,1.7149785356521603,14.5719,0.1,28.641174,1619736184999
Fix,GT,37.3850363,-122.082508,1.7769946304559707,14.179444,0.1,28.960938,1619736185999
Fix,GT,37.3849736,-122.0823705,1.8000026866197587,13.806298,0.1,30.003967,1619736186999
Fix,GT,37.3849105,-122.082238,1.8239892463684084,13.47529,0.1,30.875916,1619736187999
Fix,GT,37.3848474,-122.0821099,1.836997309744358,13.132831,0.1,31.661957,1619736188999
Fix,GT,37.3847849,-122.0819861,1.8490080759525296,12.804786,0.1,31.83014,1619736189999
Fix,GT,37.3847241,-122.0818659,1.8579865311384205,12.468811,0.1,31.778809,1619736190999
Fix,GT,37.3846643,-122.0817469,1.871,12.581786,0.1,31.509369,1619736191999
Fix,GT,37.3846037,-122.081625,1.935983815908432,12.919657,0.1,31.438324,1619736192999
Fix,GT,37.3845414,-122.0814998,1.981978406429291,13.284262,0.1,31.268555,1619736193999
Fix,GT,37.3844781,-122.0813713,2.021991897046566,13.33875,0.1,31.431213,1619736194999
Fix,GT,37.3844153,-122.0812442,2.0409864864349365,13.19465,0.1,31.350922,1619736195999
Fix,GT,37.3843526,-122.0811175,2.09398377263546,13.216681,0.1,31.372864,1619736196999
Fix,GT,37.3842898,-122.0809917,2.126994587302208,13.075317,0.1,31.663391,1619736197999
Fix,GT,37.3842273,-122.0808669,2.1829972918629648,13.114447,0.1,31.571991,1619736198999
Fix,GT,37.3841646,-122.0807401,2.2479783205986026,13.348292,0.1,31.22815,1619736199999
Fix,GT,37.3841007,-122.0806103,2.27395390188694,13.69684,0.1,31.345001,1619736200999
Fix,GT,37.3840349,-122.0804773,2.31300814050436,13.856949,0.1,31.546692,1619736201999
Fix,GT,37.3839686,-122.0803443,2.3479918541312217,14.071661,0.1,31.638184,1619736202999
Fix,GT,37.3839018,-122.0802094,2.346027171373368,13.965828,0.1,31.482208,1619736203999
Fix,GT,37.3838364,-122.0800767,2.397991843402385,13.64944,0.1,31.245728,1619736204999
Fix,GT,37.383773,-122.0799471,2.4380054413080217,13.290843,0.1,31.178223,1619736205999
Fix,GT,37.383711,-122.0798208,2.501,12.931683,0.1,31.381042,1619736206999
Fix,GT,37.3836504,-122.0796983,2.570970033466816,12.578909,0.1,31.539032,1619736207999
Fix,GT,37.3835912,-122.0795793,2.6559754652976992,12.273992,0.1,31.705048,1619736208999
Fix,GT,37.3835328,-122.0794628,2.7019918164014816,12.109885,0.1,31.843384,1619736209999
Fix,GT,37.3834755,-122.0793479,2.7669836224317548,11.900526,0.1,31.446075,1619736210999
Fix,GT,37.3834209,-122.0792371,2.8129918056726457,10.959637,0.1,31.313385,1619736211999
Fix,GT,37.3833729,-122.0791393,2.8739808678030965,9.313463,0.1,31.190247,1619736212999
Fix,GT,37.3833339,-122.0790595,2.91598905992508,7.039176,0.1,31.189514,1619736213999
Fix,GT,37.3833059,-122.0790022,2.942,4.7921796,0.1,31.303467,1619736214999
Fix,GT,37.3832876,-122.0789651,2.955,3.1394947,0.1,31.339172,1619736215999
Fix,GT,37.3832752,-122.0789402,2.9769780769348144,2.1289659,0.1,31.394623,1619736216999
Fix,GT,37.3832673,-122.0789241,2.971994515538216,1.2270144,0.1,31.377197,1619736217999
Fix,GT,37.3832637,-122.0789167,2.9690027440190314,0.37746733,0.1,31.372406,1619736218999
Fix,GT,37.3832631,-122.0789154,2.9620082376003265,0.015591608,0.1,31.373688,1619736219999
Fix,GT,37.383263,-122.0789154,2.9580027475953106,0.0041231057,0.1,31.372955,1619736220999
Fix,GT,37.383263,-122.0789154,2.959,0.0014164732,0.1,31.372223,1619736221999
Fix,GT,37.383263,-122.0789154,2.96,0.0010027513,0.1,31.37085,1619736222999
Fix,GT,37.383263,-122.0789154,2.96,0.000997247,0.1,31.369812,1619736223999
Fix,GT,37.383263,-122.0789154,2.96,0.0,0.1,31.368622,1619736224999
Fix,GT,37.383263,-122.0789154,2.96,0.0014130716,0.1,31.36731,1619736225999
Fix,GT,37.383263,-122.0789154,2.959,0.0014142136,0.1,31.365906,1619736226999
Fix,GT,37.383263,-122.0789154,2.959,0.0014142136,0.1,31.364624,1619736227999
Fix,GT,37.383263,-122.0789154,2.959,0.0014142136,0.1,31.363281,1619736228999
Fix,GT,37.383263,-122.0789154,2.959,0.0014142136,0.1,31.362122,1619736229999
Fix,GT,37.383263,-122.0789154,2.959,0.0014142136,0.1,31.360962,1619736230999
Fix,GT,37.383263,-122.0789154,2.959,0.0014142136,0.1,31.35968,1619736231999
Fix,GT,37.383263,-122.0789154,2.959,0.0014142136,0.1,31.358276,1619736232999
Fix,GT,37.383263,-122.0789154,2.959,2.77102e-06,0.1,31.3573,1619736233999
Fix,GT,37.383263,-122.0789154,2.959,0.0014142136,0.1,31.355835,1619736234999
Fix,GT,37.383263,-122.0789154,2.959,0.001,0.1,31.354584,1619736235999
Fix,GT,37.383263,-122.0789154,2.959,0.0009972235,0.1,31.353607,1619736236999
Fix,GT,37.383263,-122.0789154,2.959,0.001,0.1,31.352173,1619736237999
Fix,GT,37.383263,-122.0789154,2.959,0.0029972198,0.1,31.350891,1619736238999
Fix,GT,37.3832631,-122.0789153,2.958,0.0041231057,0.1,31.34961,1619736239999
Fix,GT,37.3832631,-122.0789153,2.958,0.0050990195,0.1,31.348389,1619736240999
Fix,GT,37.3832631,-122.0789153,2.957,0.00728011,0.1,31.347046,1619736241999
Fix,GT,37.3832631,-122.0789154,2.957,0.006407749,0.1,31.348267,1619736242999
Fix,GT,37.3832615,-122.0789121,2.952,0.7477286,0.1,31.350159,1619736243999
Fix,GT,37.3832561,-122.078901,2.959997209012508,1.5695106,0.1,31.31308,1619736244999
Fix,GT,37.3832464,-122.0788815,2.968997207283973,2.5542912,0.1,31.094269,1619736245999
Fix,GT,37.3832311,-122.0788496,2.988994410872459,4.1364355,0.1,29.918549,1619736246999
Fix,GT,37.3832102,-122.0788021,3.0199832222461698,6.027283,0.1,26.237701,1619736247999
Fix,GT,37.3831852,-122.0787347,3.1159720185995106,7.3282843,0.1,23.334625,1619736248999
Fix,GT,37.3831567,-122.0786534,3.17696640086174,8.281406,0.1,24.086304,1619736249999
Fix,GT,37.3831219,-122.0785626,3.2659691804647446,9.084774,0.1,27.235138,1619736250999
Fix,GT,37.3830813,-122.0784717,3.309994392991066,8.984377,0.1,30.573517,1619736251999
Fix,GT,37.3830395,-122.0783857,3.329983167886734,8.789364,0.1,31.227478,1619736252999
Fix,GT,37.3829983,-122.0783021,3.3709943856000897,8.58163,0.1,31.463074,1619736253999
Fix,GT,37.382958,-122.0782209,3.4299859550595286,8.303112,0.1,31.788696,1619736254999
Fix,GT,37.3829197,-122.0781449,3.476991567671299,7.542167,0.1,31.842834,1619736255999
Fix,GT,37.382886,-122.0780777,3.5139887495040893,6.479815,0.1,31.664825,1619736256999
Fix,GT,37.3828586,-122.0780228,3.544991556763649,4.8913608,0.1,31.424316,1619736257999
Fix,GT,37.3828403,-122.0779854,3.56699718374014,2.9359734,0.1,31.264526,1619736258999
Fix,GT,37.3828295,-122.0779637,3.577,1.6662982,0.1,31.520844,1619736259999
Fix,GT,37.3828243,-122.0779532,3.58700281983614,0.56063384,0.1,31.5542,1619736260999
Fix,GT,37.3828228,-122.0779502,3.585,0.06433949,0.1,31.554321,1619736261999
Fix,GT,37.3828228,-122.0779502,3.582,0.0042458666,0.1,31.554382,1619736262999
Fix,GT,37.3828228,-122.0779502,3.582,0.0036055513,0.1,31.553375,1619736263999
Fix,GT,37.3828228,-122.0779502,3.581,0.003164646,0.1,31.550385,1619736264999
Fix,GT,37.3828228,-122.0779502,3.581,0.0030004592,0.1,31.547546,1619736265999
Fix,GT,37.3828228,-122.0779502,3.581,0.0020006683,0.1,31.5448,1619736266999
Fix,GT,37.3828228,-122.0779502,3.581,0.0022353993,0.1,31.542175,1619736267999
Fix,GT,37.3828228,-122.0779502,3.581,0.001,0.1,31.53952,1619736268999
Fix,GT,37.3828228,-122.0779502,3.581,0.0010011749,0.1,31.537048,1619736269999
Fix,GT,37.3828228,-122.0779502,3.581,0.0010011756,0.1,31.534424,1619736270999
Fix,GT,37.3828228,-122.0779502,3.581,0.001,0.1,31.531342,1619736271999
Fix,GT,37.3828228,-122.0779502,3.581,0.0009971585,0.1,31.528412,1619736272999
Fix,GT,37.3828228,-122.0779502,3.581,0.0,0.1,31.525421,1619736273999
Fix,GT,37.3828228,-122.0779502,3.581,4.0238438e-06,0.1,31.522614,1619736274999
Fix,GT,37.3828228,-122.0779503,3.574005694031716,0.0014101872,0.1,31.520264,1619736275999
Fix,GT,37.3828227,-122.0779504,3.564,0.0,0.1,31.517883,1619736276999
Fix,GT,37.3828227,-122.0779504,3.564,2.8507116e-06,0.1,31.515015,1619736277999
Fix,GT,37.3828227,-122.0779504,3.564,0.001,0.1,31.511963,1619736278999
Fix,GT,37.3828227,-122.0779504,3.564,0.0,0.1,31.509369,1619736279999
Fix,GT,37.3828227,-122.0779504,3.564,0.001,0.1,31.50644,1619736280999
Fix,GT,37.3828227,-122.0779504,3.564,0.001997142,0.1,31.503845,1619736281999
Fix,GT,37.3828227,-122.0779504,3.564,0.0009971402,0.1,31.501312,1619736282999
Fix,GT,37.3828227,-122.0779504,3.564,0.001,0.1,31.498352,1619736283999
Fix,GT,37.3828227,-122.0779504,3.564,0.001,0.1,31.495422,1619736284999
Fix,GT,37.3828227,-122.0779504,3.564,0.0010011868,0.1,31.492859,1619736285999
Fix,GT,37.3828227,-122.0779504,3.564,0.0014165698,0.1,31.48996,1619736286999
Fix,GT,37.3828227,-122.0779504,3.564,0.0014130253,0.1,31.48761,1619736287999
Fix,GT,37.3828227,-122.0779504,3.564,0.0014101539,0.1,31.484802,1619736288999
Fix,GT,37.3828227,-122.0779504,3.564,2.8724075e-06,0.1,31.481995,1619736289999
Fix,GT,37.3828227,-122.0779504,3.564,0.0,0.1,31.479004,1619736290999
Fix,GT,37.3828227,-122.0779504,3.564,0.0014130224,0.1,31.476135,1619736291999
Fix,GT,37.3828227,-122.0779504,3.564,0.0014142136,0.1,31.473206,1619736292999
Fix,GT,37.3828227,-122.0779504,3.564,0.0014142136,0.1,31.470276,1619736293999
Fix,GT,37.3828227,-122.0779504,3.564,0.0014165816,0.1,31.467499,1619736294999
Fix,GT,37.3828227,-122.0779504,3.564,0.0014142136,0.1,31.464325,1619736295999
Fix,GT,37.3828227,-122.0779505,3.5510057699680333,0.001,0.1,31.461334,1619736296999
Fix,GT,37.3828227,-122.0779507,3.546,0.0022336955,0.1,31.458252,1619736297999
Fix,GT,37.3828227,-122.0779507,3.546,0.006400969,0.1,31.455383,1619736298999
Fix,GT,37.3828227,-122.0779507,3.546,0.012039491,0.1,31.452454,1619736299999
Fix,GT,37.3828227,-122.0779507,3.545002892315388,0.02193385,0.1,31.44928,1619736300999
Fix,GT,37.3828212,-122.0779476,3.534002894103527,1.0414178,0.1,31.462677,1619736301999
Fix,GT,37.3828112,-122.0779272,3.5489913123250005,3.1435924,0.1,31.58017,1619736302999
Fix,GT,37.3827923,-122.0778882,3.580991306781769,4.912729,0.1,31.135895,1619736303999
Fix,GT,37.3827691,-122.0778352,3.605985502362251,6.215784,0.1,23.95514,1619736304999
Fix,GT,37.3827534,-122.077772,3.656994197249413,6.920296,0.1,9.579742,1619736305999
Fix,GT,37.3827524,-122.0777,3.660031935453415,7.5452437,0.1,351.82278,1619736306999
Fix,GT,37.3827717,-122.0776257,3.5770580990314484,8.282168,0.1,332.2212,1619736307999
Fix,GT,37.3828141,-122.077556,3.298136619567871,9.160684,0.1,313.54022,1619736308999
Fix,GT,37.3828799,-122.077497,3.1840727161765097,10.104714,0.1,300.52905,1619736309999
Fix,GT,37.382962,-122.0774402,3.0700058207511898,10.8153925,0.1,298.99646,1619736310999
Fix,GT,37.3830502,-122.0773797,3.0200087370276454,11.380366,0.1,299.2881,1619736311999
Fix,GT,37.3831408,-122.0773159,2.9110524532794955,11.664695,0.1,299.82657,1619736312999
Fix,GT,37.3832343,-122.0772487,2.767064150214196,12.17921,0.1,300.1471,1619736313999
Fix,GT,37.3833311,-122.0771781,2.6130437664985657,12.481586,0.1,300.2427,1619736314999
Fix,GT,37.3834274,-122.0771079,2.50901167845726,12.175068,0.1,300.10275,1619736315999
Fix,GT,37.3835206,-122.0770397,2.443002921462059,11.747795,0.1,300.34,1619736316999
Fix,GT,37.3836106,-122.0769732,2.4000146159529683,11.391447,0.1,300.5958,1619736317999
Fix,GT,37.3836978,-122.0769079,2.3380146251916885,11.11145,0.1,301.00958,1619736318999
Fix,GT,37.3837842,-122.0768423,2.3040029268860813,11.280601,0.1,301.233,1619736319999
Fix,GT,37.3838709,-122.0767764,2.262008786201477,11.191451,0.1,301.5614,1619736320999
Fix,GT,37.3839567,-122.0767105,2.1830644727945328,11.209621,0.1,301.65884,1619736321999
Fix,GT,37.384043,-122.076645,2.020043986439705,11.251986,0.1,301.56796,1619736322999
Fix,GT,37.3841289,-122.0765784,1.8910410790443424,11.116178,0.1,301.86795,1619736323999
Fix,GT,37.384213,-122.0765134,1.795026424050331,10.906436,0.1,301.5544,1619736324999
Fix,GT,37.3842964,-122.0764493,1.718035254240036,10.808123,0.1,301.8631,1619736325999
Fix,GT,37.3843788,-122.0763848,1.645008819103241,10.751456,0.1,302.3034,1619736326999
Fix,GT,37.3844603,-122.0763206,1.5850352985858915,10.658208,0.1,302.04868,1619736327999
Fix,GT,37.3845418,-122.0762561,1.560982339978218,10.6845455,0.1,302.22565,1619736328999
Fix,GT,37.3846223,-122.076192,1.5290117807388306,10.417118,0.1,302.41513,1619736329999
Fix,GT,37.3846993,-122.0761306,1.4730265232920647,9.788241,0.1,302.062,1619736330999
Fix,GT,37.3847692,-122.0760759,1.4290117955207824,8.417844,0.1,301.34976,1619736331999
Fix,GT,37.3848272,-122.0760317,1.395005901455879,6.568163,0.1,300.87634,1619736332999
Fix,GT,37.3848692,-122.0760001,1.375008857369423,4.263676,0.1,300.62482,1619736333999
Fix,GT,37.3848946,-122.075981,1.337011817216873,2.6110804,0.1,300.4706,1619736334999
Fix,GT,37.3849134,-122.0759671,1.3080088684558868,2.3550415,0.1,300.4042,1619736335999
Fix,GT,37.3849338,-122.0759519,1.2700059159994126,3.0864592,0.1,300.52124,1619736336999
Fix,GT,37.3849598,-122.0759325,1.249011839389801,3.3779948,0.1,300.67645,1619736337999
Fix,GT,37.384982,-122.075916,1.2459911149144174,2.1088293,0.1,300.51385,1619736338999
Fix,GT,37.3849934,-122.0759078,1.214008890628815,1.1902769,0.1,300.39175,1619736339999
Fix,GT,37.3850052,-122.0758993,1.1930148263573648,2.2788093,0.1,297.79224,1619736340999
Fix,GT,37.3850267,-122.075888,1.1529970328211785,4.3403044,0.1,284.0536,1619736341999
Fix,GT,37.3850632,-122.0758851,1.1140148448348046,5.7973156,0.1,260.8062,1619736342999
Fix,GT,37.3851059,-122.0759065,1.035026737332344,6.969931,0.1,235.50278,1619736343999
Fix,GT,37.3851486,-122.0759609,0.9289881093502044,8.349502,0.1,216.79037,1619736344999
Fix,GT,37.3851919,-122.0760452,0.8640148722529412,9.8577175,0.1,211.9048,1619736345999
Fix,GT,37.3852395,-122.076146,0.8150357155799864,10.82233,0.1,211.11765,1619736346999
Fix,GT,37.3852897,-122.0762526,0.731026802778244,10.934345,0.1,211.45204,1619736347999
Fix,GT,37.3853398,-122.0763575,0.6420029799342156,10.667384,0.1,211.51154,1619736348999
Fix,GT,37.3853866,-122.0764556,0.6099910546541214,9.290576,0.1,211.69624,1619736349999
Fix,GT,37.385425,-122.0765354,0.5570417708158494,7.4022064,0.1,211.51576,1619736350999
Fix,GT,37.385457,-122.0766034,0.5098805832862855,6.829477,0.1,211.49753,1619736351999
Fix,GT,37.3854879,-122.076668,0.4870059744119644,6.555555,0.1,211.54196,1619736352999
Fix,GT,37.3855179,-122.0767323,0.4470149452686309,6.65613,0.1,209.41446,1619736353999
Fix,GT,37.3855401,-122.0767924,0.432,6.203226,0.1,197.01985,1619736354999
Fix,GT,37.3855437,-122.0768464,0.3840389041900635,5.9104776,0.1,171.82288,1619736355999
Fix,GT,37.3855281,-122.0768929,0.3570179672241211,6.0185814,0.1,142.71692,1619736356999
Fix,GT,37.3854898,-122.0769367,0.4319610469937324,6.9378943,0.1,128.33643,1619736357999
Fix,GT,37.3854361,-122.076983,0.4659880070686341,8.005024,0.1,123.72583,1619736358999
Fix,GT,37.3853711,-122.0770335,0.5199789998531341,9.163005,0.1,122.30252,1619736359999
Fix,GT,37.3852965,-122.07709,0.5929639775753022,10.251076,0.1,121.68475,1619736360999
Fix,GT,37.3852149,-122.0771508,0.6809789744019509,10.796277,0.1,121.52542,1619736361999
Fix,GT,37.38513,-122.0772145,0.7469849727749824,11.227594,0.1,121.69055,1619736362999
Fix,GT,37.3850423,-122.0772808,0.8229849635362624,11.558955,0.1,121.538635,1619736363999
Fix,GT,37.3849523,-122.0773475,0.900987963438034,11.76662,0.1,120.71539,1619736364999
Fix,GT,37.3848604,-122.077414,0.985981934785843,11.873578,0.1,120.09219,1619736365999
Fix,GT,37.3847672,-122.0774797,1.064984936416149,11.994569,0.1,119.31,1619736366999
Fix,GT,37.3846721,-122.0775447,1.152981912612915,12.1470785,0.1,118.721466,1619736367999
Fix,GT,37.3845752,-122.0776096,1.2389758696556092,12.292028,0.1,118.275604,1619736368999
Fix,GT,37.384477,-122.0776752,1.3309728367328644,12.36941,0.1,118.71329,1619736369999
Fix,GT,37.3843791,-122.0777424,1.4149547001719476,12.368273,0.1,119.32242,1619736370999
Fix,GT,37.3842823,-122.0778102,1.5099697822332383,12.234867,0.1,119.64133,1619736371999
Fix,GT,37.3841869,-122.0778776,1.5969909291267397,12.044943,0.1,119.42676,1619736372999
Fix,GT,37.3840935,-122.0779427,1.6719848729372024,11.739411,0.1,118.70825,1619736373999
Fix,GT,37.3840018,-122.0780043,1.744960645616055,11.377469,0.1,118.23981,1619736374999
Fix,GT,37.383913,-122.0780647,1.8299606215953828,11.00203,0.1,118.7052,1619736375999
Fix,GT,37.3838275,-122.0781242,1.884969691038132,10.635767,0.1,119.35333,1619736376999
Fix,GT,37.3837454,-122.0781831,1.9639848362803456,10.337505,0.1,119.84888,1619736377999
Fix,GT,37.3836657,-122.0782413,2.0410091034173963,10.091419,0.1,120.367035,1619736378999
Fix,GT,37.3835883,-122.0782995,2.0780030363202093,9.863605,0.1,121.03287,1619736379999
Fix,GT,37.3835139,-122.0783568,2.1409848091602326,9.380199,0.1,121.67752,1619736380999
Fix,GT,37.3834458,-122.0784109,2.22198783993721,8.303406,0.1,122.25824,1619736381999
Fix,GT,37.3833891,-122.0784574,2.295,6.467729,0.1,123.76062,1619736382999
Fix,GT,37.3833473,-122.0784952,2.363969563484192,4.7194333,0.1,126.725555,1619736383999
Fix,GT,37.3833204,-122.0785225,2.354003045499325,2.6731548,0.1,129.875,1619736384999
Fix,GT,37.3833063,-122.0785388,2.3879786685705184,1.724706,0.1,132.19366,1619736385999
Fix,GT,37.3832916,-122.0785584,2.409981705188751,2.5487387,0.1,140.32385,1619736386999
Fix,GT,37.383272,-122.0785989,2.494963388204575,4.3843265,0.1,156.53156,1619736387999
Fix,GT,37.383259,-122.0786694,2.601006105542183,6.4959164,0.1,177.09491,1619736388999
Fix,GT,37.3832689,-122.0787636,2.695957236170769,8.5414715,0.1,197.4525,1619736389999
Fix,GT,37.3833087,-122.0788724,2.713015282034874,11.563178,0.1,209.7348,1619736390999
Fix,GT,37.3833704,-122.0790008,2.6400091747641565,14.871893,0.1,211.1295,1619736391999
Fix,GT,37.3834484,-122.079159,2.582012240409851,18.047031,0.1,211.54807,1619736392999
Fix,GT,37.3835403,-122.079345,2.4870275570154194,20.014736,0.1,211.53575,1619736393999
Fix,GT,37.3836362,-122.0795376,2.415030637383461,20.092794,0.1,211.87595,1619736394999
Fix,GT,37.3837333,-122.0797319,2.291052114963532,20.433748,0.1,211.70032,1619736395999
Fix,GT,37.3838301,-122.0799267,2.2310337417721744,20.18485,0.1,211.7418,1619736396999
Fix,GT,37.3839258,-122.0801186,2.1399969307184223,19.867786,0.1,211.80238,1619736397999
Fix,GT,37.3840196,-122.0803072,2.0780061423778533,19.499643,0.1,211.70003,1619736398999
Fix,GT,37.3841116,-122.0804925,1.974987708091736,19.162035,0.1,211.77904,1619736399999
Fix,GT,37.3842025,-122.0806743,1.8950245990753167,18.828646,0.1,211.88898,1619736400999
Fix,GT,37.3842915,-122.0808531,1.7920430742502214,18.528996,0.1,211.59586,1619736401999
Fix,GT,37.3843796,-122.0810307,1.7260215500593186,18.5026,0.1,211.94826,1619736402999
Fix,GT,37.3844681,-122.0812076,1.6500246434211732,18.570747,0.1,211.72087,1619736403999
Fix,GT,37.3845575,-122.0813882,1.6110184940099717,19.137331,0.1,211.42184,1619736404999
Fix,GT,37.3846488,-122.0815746,1.5160400943756105,19.504635,0.1,211.48618,1619736405999
Fix,GT,37.3847413,-122.081762,1.3979845701456068,19.48992,0.1,211.67004,1619736406999
Fix,GT,37.3848336,-122.0819486,1.3710092634558677,19.42149,0.1,211.45822,1619736407999
Fix,GT,37.3849251,-122.0821338,1.3550278069972992,19.104643,0.1,211.5649,1619736408999
Fix,GT,37.3850141,-122.0823146,1.3470247321128843,18.49626,0.1,211.50432,1619736409999
Fix,GT,37.3851,-122.082489,1.3079907197356224,17.804173,0.1,211.57204,1619736410999
Fix,GT,37.3851825,-122.0826561,1.2520247621536256,16.972204,0.1,211.48186,1619736411999
Fix,GT,37.3852603,-122.0828144,1.2410030971169472,15.845402,0.1,211.55334,1619736412999
Fix,GT,37.3853325,-122.0829602,1.1850278912186625,14.475602,0.1,211.8844,1619736413999
Fix,GT,37.3853987,-122.0830926,1.1640124034881592,13.330091,0.1,212.00038,1619736414999
Fix,GT,37.3854599,-122.0832151,1.1150031027197838,12.280649,0.1,211.53014,1619736415999
Fix,GT,37.3855149,-122.0833271,1.0660093138813973,10.932572,0.1,211.50816,1619736416999
Fix,GT,37.385563,-122.0834254,1.0210217453241348,9.505016,0.1,211.53029,1619736417999
Fix,GT,37.3856048,-122.0835096,0.976015541613102,8.0053215,0.1,211.81485,1619736418999
Fix,GT,37.3856393,-122.0835784,0.9600186613798142,6.378007,0.1,211.88701,1619736419999
Fix,GT,37.3856657,-122.0836311,0.9480031120777128,4.6030765,0.1,211.8703,1619736420999
Fix,GT,37.3856837,-122.083667,0.94,2.8966746,0.1,212.24463,1619736421999
Fix,GT,37.3856945,-122.083688,0.937,1.6306156,0.1,212.38849,1619736422999
Fix,GT,37.3856999,-122.0836983,0.9310031176805496,0.5655593,0.1,212.3985,1619736423999
Fix,GT,37.3857008,-122.0836998,0.9220031195282936,0.035780735,0.1,212.39992,1619736424999
Fix,GT,37.3857009,-122.0836999,0.9210031213760376,0.0014210537,0.1,212.4018,1619736425999
Fix,GT,37.3857009,-122.0836997,0.9180031232237816,0.0014186305,0.1,212.4009,1619736426999
Fix,GT,37.3857009,-122.0836996,0.911,0.001,0.1,212.40028,1619736427999
Fix,GT,37.3857011,-122.0836993,0.8930031269788743,0.001003127,0.1,212.39983,1619736428999
Fix,GT,37.3857011,-122.0836993,0.892,0.0019968713,0.1,212.3994,1619736429999
Fix,GT,37.3857011,-122.0836993,0.892,0.002236068,0.1,212.39911,1619736430999
Fix,GT,37.3857011,-122.0836993,0.892,0.002236068,0.1,212.39877,1619736431999
Fix,GT,37.3857011,-122.0836993,0.892,0.002236068,0.1,212.39822,1619736432999
Fix,GT,37.3857011,-122.0836993,0.892,0.002236068,0.1,212.39774,1619736433999
Fix,GT,37.3857011,-122.0836993,0.892,0.002236068,0.1,212.39728,1619736434999
Fix,GT,37.3857011,-122.0836993,0.892,0.002236068,0.1,212.39679,1619736435999
Fix,GT,37.3857011,-122.0836993,0.892,0.002236068,0.1,212.39629,1619736436999
Fix,GT,37.3857011,-122.0836993,0.892,0.002236068,0.1,212.3958,1619736437999
Fix,GT,37.3857011,-122.0836993,0.892,0.002236068,0.1,212.3953,1619736438999
Fix,GT,37.3857011,-122.0836993,0.892,0.002236068,0.1,212.39484,1619736439999
Fix,GT,37.3857011,-122.0836993,0.892,0.002236068,0.1,212.39433,1619736440999
Fix,GT,37.3857011,-122.0836993,0.892,0.002236068,0.1,212.39389,1619736441999
Fix,GT,37.3857011,-122.0836993,0.892,0.0022321707,0.1,212.39317,1619736442999
Fix,GT,37.3857011,-122.0836993,0.892,0.0010038997,0.1,212.39293,1619736443999
Fix,GT,37.3857011,-122.0836993,0.892,0.0022334736,0.1,212.39188,1619736444999
Fix,GT,37.3857011,-122.0836993,0.892,0.0010039044,0.1,212.3921,1619736445999
Fix,GT,37.3857011,-122.0836993,0.892,0.0014142136,0.1,212.39136,1619736446999
Fix,GT,37.3857011,-122.0836993,0.892,0.0014142136,0.1,212.39072,1619736447999
Fix,GT,37.3857011,-122.0836993,0.892,0.0014129028,0.1,212.39024,1619736448999
Fix,GT,37.3857011,-122.0836993,0.892,0.0010013115,0.1,212.39012,1619736449999
Fix,GT,37.3857011,-122.0836993,0.892,0.0014097332,0.1,212.38968,1619736450999
Fix,GT,37.3857011,-122.0836993,0.892,0.0,0.1,212.3889,1619736451999
Fix,GT,37.3857011,-122.0836993,0.892,3.1718614e-06,0.1,212.38829,1619736452999
