MessageType,Provider,LatitudeDegrees,LongitudeDegrees,AltitudeMeters,SpeedMps,AccuracyMeters,BearingDegrees,UnixTimeMillis
Fix,GT,34.2725463,-118.615677,322.4510096097887,0.0016515341,0.1,263.6908,1638907813434
Fix,GT,34.2725463,-118.615677,322.45099039021136,0.0006515338,0.1,263.6909,1638907814434
Fix,GT,34.2725463,-118.615677,322.45099039021136,0.0003484665,0.1,263.69104,1638907815434
Fix,GT,34.2725463,-118.615677,322.45099039021136,0.0009999999,0.1,263.69116,1638907816434
Fix,GT,34.2725463,-118.615677,322.451,0.0,0.1,263.69125,1638907817434
Fix,GT,34.2725463,-118.615677,322.451,0.001,0.1,263.6914,1638907818434
Fix,GT,34.2725463,-118.615677,322.45099039021136,0.001,0.1,263.69156,1638907819434
Fix,GT,34.2725463,-118.615677,322.451,0.00114434,0.1,263.69162,1638907820434
Fix,GT,34.2725463,-118.615677,322.451,0.00034846773,0.1,263.69165,1638907821434
Fix,GT,34.2725463,-118.615677,322.451,0.00034846796,0.1,263.69174,1638907822434
Fix,GT,34.2725463,-118.615677,322.451,0.0014142136,0.1,263.69162,1638907823434
Fix,GT,34.2725463,-118.615677,322.4510096097887,0.00049280864,0.1,263.69168,1638907824434
Fix,GT,34.2725463,-118.615677,322.451,0.0014142136,0.1,263.69205,1638907825434
Fix,GT,34.2725463,-118.615677,322.45099039021136,0.001,0.1,263.6919,1638907826434
Fix,GT,34.2725463,-118.615677,322.45099039021136,0.001,0.099,263.69202,1638907827434
Fix,GT,34.2725463,-118.615677,322.4510096097887,0.0020822627,0.1,263.69202,1638907828434
Fix,GT,34.2725463,-118.615677,322.45099039021136,0.0017006046,0.1,263.6921,1638907829434
Fix,GT,34.2725463,-118.615677,322.452,0.0013484694,0.1,263.6922,1638907830434
Fix,GT,34.2725463,-118.615677,322.452,0.002045409,0.1,263.69223,1638907831434
Fix,GT,34.2725463,-118.615677,322.45235807970164,0.0050333906,0.1,263.6913,1638907832434
Fix,GT,34.2725463,-118.615677,322.4530096098482,0.005608606,0.1,263.69543,1638907833434
Fix,GT,34.2725463,-118.615677,322.4530096098482,0.0033945348,0.1,263.69366,1638907834434
Fix,GT,34.2725463,-118.615677,322.453,0.0022886824,0.1,263.69373,1638907835434
Fix,GT,34.2725463,-118.615677,322.4530096098482,0.002697593,0.1,263.6931,1638907836434
Fix,GT,34.2725463,-118.615677,322.4540096098781,0.002303058,0.1,263.6931,1638907837434
Fix,GT,34.2725463,-118.615677,322.4540096098781,0.0012698721,0.1,263.69373,1638907838434
Fix,GT,34.2725463,-118.615677,322.4553580813408,0.0019496751,0.1,263.69376,1638907839434
Fix,GT,34.2725463,-118.615677,322.4570096099675,0.002153805,0.1,263.69366,1638907840434
Fix,GT,34.2725464,-118.615677,322.45799039000275,0.0028936476,0.1,263.6937,1638907841434
Fix,GT,34.2725464,-118.615677,322.45900961002707,0.0050990195,0.1,263.6939,1638907842434
Fix,GT,34.2725463,-118.615677,322.46035808244346,0.0072801104,0.1,263.69394,1638907843434
Fix,GT,34.2725463,-118.615677,322.462,0.008804789,0.1,263.6938,1638907844434
Fix,GT,34.2725463,-118.6156771,322.46465152710675,0.010185931,0.1,263.70343,1638907845434
Fix,GT,34.2725462,-118.6156771,322.464,0.016231492,0.1,263.69122,1638907846434
Fix,GT,34.2725461,-118.6156772,322.465,0.020615527,0.1,263.69095,1638907847434
Fix,GT,34.2725459,-118.6156773,322.4639903898239,0.026200905,0.1,263.54633,1638907848434
Fix,GT,34.2725457,-118.6156774,322.4639903898239,0.030734818,0.1,263.51727,1638907849434
Fix,GT,34.2725454,-118.6156776,322.462,0.0590761,0.1,263.47552,1638907850434
Fix,GT,34.272543,-118.6156811,322.4897519829571,0.6172166,0.1,258.82294,1638907851434
Fix,GT,34.272538,-118.6156872,322.5297065614164,0.66917723,0.1,249.8393,1638907852434
Fix,GT,34.272533,-118.6156919,322.5513388620615,0.45602274,0.1,242.16168,1638907853434
Fix,GT,34.2725315,-118.615693,322.5476611375511,0.03605817,0.1,240.06941,1638907854434
Fix,GT,34.2725311,-118.615693,322.54066113710405,0.041071415,0.1,240.07207,1638907855434
Fix,GT,34.2725307,-118.615693,322.5326611366272,0.0416708,0.1,240.07465,1638907856434
Fix,GT,34.2725304,-118.6156928,322.5226611360908,0.047362667,0.1,240.07547,1638907857434
Fix,GT,34.27253,-118.6156925,322.5113126594424,0.05733923,0.1,240.0759,1638907858434
Fix,GT,34.2725296,-118.6156921,322.49866113489867,0.07090012,0.1,240.07736,1638907859434
Fix,GT,34.2725292,-118.6156914,322.4843126576841,0.08852278,0.1,240.07729,1638907860434
Fix,GT,34.272528,-118.6156911,322.465,0.32494268,0.1,238.84335,1638907861434
Fix,GT,34.2725218,-118.6156937,322.45765152299407,0.76021373,0.1,229.88658,1638907862434
Fix,GT,34.2725129,-118.6156958,322.43451522755623,1.0314974,0.1,217.83858,1638907863434
Fix,GT,34.2724996,-118.6156948,322.3401763539612,1.4731444,0.1,199.64273,1638907864434
Fix,GT,34.2724836,-118.6156866,322.371384303391,2.003449,0.1,177.27203,1638907865434
Fix,GT,34.2724677,-118.615667,322.3952934359908,2.603356,0.1,149.18051,1638907866434
Fix,GT,34.2724569,-118.6156337,322.32241474318505,3.650104,0.1,119.000854,1638907867434
Fix,GT,34.2724556,-118.6155872,322.09688452667,4.847623,0.099,93.79285,1638907868434
Fix,GT,34.2724593,-118.6155281,321.8208582766056,6.0426674,0.1,86.58978,1638907869434
Fix,GT,34.2724632,-118.6154557,321.5128032422066,7.323085,0.1,86.063995,1638907870434
Fix,GT,34.2724684,-118.6153706,321.1029603957832,8.361995,0.1,85.65497,1638907871434
Fix,GT,34.2724751,-118.6152742,320.69280322551725,9.419476,0.1,84.52515,1638907872434
Fix,GT,34.2724856,-118.6151679,320.2880153836608,10.321281,0.1,82.1781,1638907873434
Fix,GT,34.2724995,-118.6150525,319.7908790562153,11.060438,0.1,81.46295,1638907874434
Fix,GT,34.2725131,-118.6149314,319.2464396878481,11.383094,0.1,82.46045,1638907875434
Fix,GT,34.2725258,-118.6148073,318.6576972732544,11.640236,0.1,83.00488,1638907876434
Fix,GT,34.2725374,-118.6146804,318.0573278625011,11.881971,0.1,83.35925,1638907877434
Fix,GT,34.2725493,-118.6145532,317.45377866649625,11.564944,0.1,83.20618,1638907878434
Fix,GT,34.2725608,-118.614432,316.8260097145736,10.811704,0.1,82.9057,1638907879434
Fix,GT,34.2725708,-118.6143205,316.17877868375183,9.856924,0.1,83.592834,1638907880434
Fix,GT,34.2725767,-118.6142187,315.56353050071,9.140524,0.1,86.53357,1638907881434
Fix,GT,34.2725759,-118.6141185,314.92880906540154,9.275955,0.099,91.54932,1638907882434
Fix,GT,34.2725615,-118.6140183,314.17352476489543,9.477803,0.1,103.12421,1638907883434
Fix,GT,34.2725255,-118.6139231,313.3564244993925,9.6656065,0.1,118.04239,1638907884434
Fix,GT,34.2724728,-118.6138408,312.66453045332435,9.58497,0.1,129.76324,1638907885434
Fix,GT,34.2724094,-118.6137676,312.14792437261343,9.871891,0.1,137.95819,1638907886434
Fix,GT,34.2723359,-118.6137047,311.670530431211,10.122883,0.1,147.03339,1638907887434
Fix,GT,34.2722534,-118.6136538,311.1134849705696,10.426836,0.1,154.26764,1638907888434
Fix,GT,34.2721677,-118.6136039,310.5010910255909,10.71414,0.1,152.93085,1638907889434
Fix,GT,34.2720844,-118.6135467,309.9371911491752,10.451852,0.1,148.62738,1638907890434
Fix,GT,34.2720083,-118.6134813,309.4423729216754,10.425262,0.1,143.07257,1638907891434
Fix,GT,34.2719369,-118.6134069,308.96044867640734,10.577454,0.1,137.42126,1638907892434
Fix,GT,34.271871,-118.613322,308.38949409678577,10.866466,0.1,131.30737,1638907893434
Fix,GT,34.2718113,-118.6132244,307.83763042351603,11.516948,0.1,124.15588,1638907894434
Fix,GT,34.2717593,-118.6131125,307.38941827332974,12.14584,0.1,116.94647,1638907895434
Fix,GT,34.2717191,-118.6129891,307.0495363107324,12.118233,0.1,108.46924,1638907896434
Fix,GT,34.2716967,-118.6128648,306.82863636446,11.46649,0.1,99.230896,1638907897434
Fix,GT,34.2716906,-118.6127418,306.68385449427365,11.240896,0.1,90.711975,1638907898434
Fix,GT,34.271701,-118.6126214,306.6539545443058,11.259493,0.1,80.39334,1638907899434
Fix,GT,34.2717288,-118.6125004,306.6633848025203,11.972905,0.1,72.58469,1638907900434
Fix,GT,34.2717637,-118.6123728,306.66169697129726,12.759731,0.1,71.50128,1638907901434
Fix,GT,34.2717997,-118.6122368,306.67265151417257,13.5795965,0.1,72.42374,1638907902434
Fix,GT,34.271837,-118.6120899,306.63030302786825,14.715034,0.1,73.19794,1638907903434
Fix,GT,34.271874,-118.6119301,306.6138727608919,15.8433895,0.1,74.99371,1638907904434
Fix,GT,34.27191,-118.6117574,306.556403082341,16.862661,0.1,75.851105,1638907905434
Fix,GT,34.2719482,-118.611576,306.49695453983543,17.58121,0.1,75.17618,1638907906434
Fix,GT,34.2719897,-118.611389,306.4859545391202,18.027193,0.1,74.474976,1638907907434
Fix,GT,34.2720341,-118.6111986,306.4876423788369,18.461695,0.099,73.72461,1638907908434
Fix,GT,34.2720814,-118.6110042,306.35094540795683,18.73344,0.1,72.95273,1638907909434
Fix,GT,34.2721296,-118.6108107,306.5017424377799,18.467201,0.1,73.27399,1638907910434
Fix,GT,34.2721748,-118.6106194,306.49870610988137,18.179613,0.1,74.57364,1638907911434
Fix,GT,34.2722133,-118.6104277,306.4638636087775,18.172283,0.1,77.19354,1638907912434
Fix,GT,34.2722439,-118.6102334,306.4182212270796,18.271832,0.1,80.355804,1638907913434
Fix,GT,34.2722659,-118.6100357,306.21515139877795,18.436293,0.1,83.278595,1638907914434
Fix,GT,34.2722799,-118.6098363,305.8395301153064,18.391876,0.1,85.97351,1638907915434
Fix,GT,34.2722892,-118.6096391,305.22256033444404,17.934233,0.1,86.66629,1638907916434
Fix,GT,34.2722971,-118.6094468,304.3771056650877,17.596516,0.1,86.8797,1638907917434
Fix,GT,34.272305,-118.6092565,303.27334796619414,17.514954,0.1,86.682434,1638907918434
Fix,GT,34.2723136,-118.6090665,302.1284541233778,17.475304,0.1,86.40048,1638907919434
Fix,GT,34.272322,-118.6088792,301.0781056221128,17.074581,0.1,86.78198,1638907920434
Fix,GT,34.272329,-118.6086949,300.06955398103594,16.901361,0.1,87.26288,1638907921434
Fix,GT,34.2723337,-118.608512,299.0780601358414,16.853706,0.1,88.741516,1638907922434
Fix,GT,34.2723313,-118.6083296,298.0230690029264,16.744627,0.1,92.18375,1638907923434
Fix,GT,34.2723181,-118.6081483,296.93441744738817,16.75722,0.1,96.46747,1638907924434
Fix,GT,34.2722936,-118.6079683,295.9209932392538,16.848007,0.1,100.36844,1638907925434
Fix,GT,34.2722634,-118.6077888,295.05822054964307,16.8704,0.1,101.567505,1638907926434
Fix,GT,34.2722331,-118.6076101,294.44883954536914,16.756378,0.1,100.86978,1638907927434
Fix,GT,34.2722094,-118.6074306,293.9760149248838,16.714869,0.1,97.302734,1638907928434
Fix,GT,34.2721961,-118.6072502,293.63649107173086,16.681122,0.1,92.98755,1638907929434
Fix,GT,34.2721959,-118.6070696,293.4061211349964,16.57571,0.1,87.83417,1638907930434
Fix,GT,34.2722076,-118.6068913,293.2385303761959,16.345886,0.1,83.79245,1638907931434
Fix,GT,34.2722282,-118.6067177,293.41691559731964,15.951832,0.099,79.901276,1638907932434
Fix,GT,34.2722599,-118.6065518,293.7782793681324,15.406998,0.1,74.84772,1638907933434
Fix,GT,34.2722973,-118.6063964,294.31455219385026,14.423687,0.099,73.250916,1638907934434
Fix,GT,34.2723334,-118.6062501,294.9522946371436,13.701945,0.1,73.1734,1638907935434
Fix,GT,34.2723654,-118.606111,295.7096217563748,12.841694,0.1,75.025085,1638907936434
Fix,GT,34.2723898,-118.60598,296.6257581944466,11.865526,0.1,78.14142,1638907937434
Fix,GT,34.2724049,-118.6058576,297.5470157532096,10.927254,0.1,82.88196,1638907938434
Fix,GT,34.2724108,-118.605743,298.39291592398286,10.267656,0.099,87.33536,1638907939434
Fix,GT,34.2724109,-118.6056339,299.2048793525696,9.82254,0.1,90.25073,1638907940434
Fix,GT,34.272407,-118.6055299,299.9854764613211,9.404713,0.1,92.86905,1638907941434
Fix,GT,34.2723991,-118.6054291,300.7521279552877,9.213203,0.1,95.70648,1638907942434
Fix,GT,34.2723874,-118.6053334,301.50209144735334,8.506282,0.1,98.72266,1638907943434
Fix,GT,34.2723736,-118.6052472,302.1462580390572,7.648265,0.1,101.08588,1638907944434
Fix,GT,34.2723587,-118.6051738,302.66767314693334,6.1820774,0.1,103.75012,1638907945434
Fix,GT,34.2723457,-118.6051184,303.06679424229264,4.3835263,0.1,105.333405,1638907946434
Fix,GT,34.2723366,-118.605082,303.33597889772057,2.5897117,0.1,105.87616,1638907947434
Fix,GT,34.2723315,-118.6050624,303.4854939745665,1.2065308,0.1,106.28964,1638907948434
Fix,GT,34.2723298,-118.6050565,303.5290090458691,0.05576652,0.1,106.39307,1638907949434
Fix,GT,34.2723297,-118.6050566,303.526,0.009103365,0.1,106.40466,1638907950434
Fix,GT,34.2723297,-118.6050566,303.52835753908755,0.0044240784,0.1,106.40643,1638907951434
Fix,GT,34.2723297,-118.6050566,303.52999095410104,0.0017958574,0.1,106.40665,1638907952434
Fix,GT,34.2723297,-118.6050566,303.5319909540415,0.002236068,0.1,106.4068,1638907953434
Fix,GT,34.2723297,-118.6050566,303.531,0.00390755,0.1,106.40689,1638907954434
Fix,GT,34.2723297,-118.6050566,303.5320090459585,0.0052289097,0.1,106.40674,1638907955434
Fix,GT,34.2723297,-118.6050566,303.5320090459585,0.006203726,0.1,106.40692,1638907956434
Fix,GT,34.2723297,-118.6050566,303.5320090459585,0.006030351,0.1,106.40723,1638907957434
Fix,GT,34.2723297,-118.6050566,303.532,0.006403124,0.1,106.40723,1638907958434
Fix,GT,34.2723297,-118.6050566,303.5320090459585,0.006403125,0.1,106.407166,1638907959434
Fix,GT,34.2723297,-118.6050566,303.532,0.006708204,0.1,106.40735,1638907960434
Fix,GT,34.2723297,-118.6050566,303.532,0.005830952,0.1,106.40759,1638907961434
Fix,GT,34.2723297,-118.6050566,303.532,0.005289582,0.1,106.407684,1638907962434
Fix,GT,34.2723297,-118.6050566,303.5320090459585,0.0050669797,0.1,106.407745,1638907963434
Fix,GT,34.2723297,-118.6050566,303.532,0.004472136,0.1,106.407745,1638907964434
Fix,GT,34.2723297,-118.6050566,303.532,0.0043226182,0.1,106.40765,1638907965434
Fix,GT,34.2723297,-118.6050566,303.5320090459585,0.004170136,0.1,106.40784,1638907966434
Fix,GT,34.2723297,-118.6050566,303.532,0.0038275737,0.1,106.40796,1638907967434
Fix,GT,34.2723297,-118.6050566,303.5320090459585,0.0044721365,0.1,106.40814,1638907968434
Fix,GT,34.2723297,-118.6050566,303.532,0.0036055513,0.1,106.40809,1638907969434
Fix,GT,34.2723297,-118.6050566,303.532,0.0038275737,0.1,106.40802,1638907970434
Fix,GT,34.2723297,-118.6050566,303.5320090459585,0.0036055516,0.1,106.40802,1638907971434
Fix,GT,34.2723297,-118.6050566,303.532,0.0036055513,0.1,106.40802,1638907972434
Fix,GT,34.2723297,-118.6050566,303.5320090459585,0.0038275737,0.1,106.40799,1638907973434
Fix,GT,34.2723297,-118.6050566,303.532,0.004020618,0.1,106.40817,1638907974434
Fix,GT,34.2723297,-118.6050566,303.532,0.003605551,0.1,106.40845,1638907975434
Fix,GT,34.2723297,-118.6050566,303.532,0.0038275737,0.1,106.40845,1638907976434
Fix,GT,34.2723297,-118.6050566,303.5319909540415,0.003099251,0.1,106.40869,1638907977434
Fix,GT,34.2723297,-118.6050566,303.532,0.003538779,0.1,106.40839,1638907978434
Fix,GT,34.2723297,-118.6050566,303.5320090459585,0.0040915105,0.1,106.40845,1638907979434
Fix,GT,34.2723297,-118.6050566,303.5320090459585,0.0042009833,0.1,106.408356,1638907980434
Fix,GT,34.2723297,-118.6050566,303.5319909540415,0.0036055513,0.1,106.40851,1638907981434
Fix,GT,34.2723297,-118.6050566,303.5319909540415,0.003827574,0.1,106.40863,1638907982434
Fix,GT,34.2723297,-118.6050566,303.5320090459585,0.0030992515,0.1,106.40863,1638907983434
Fix,GT,34.2723297,-118.6050566,303.5320090459585,0.0030992515,0.1,106.4086,1638907984434
Fix,GT,34.2723297,-118.6050566,303.5320090459585,0.004020618,0.1,106.40848,1638907985434
Fix,GT,34.2723297,-118.6050566,303.532,0.004514041,0.1,106.40845,1638907986434
Fix,GT,34.2723297,-118.6050566,303.532,0.0038275742,0.1,106.40857,1638907987434
Fix,GT,34.2723297,-118.6050566,303.5319909540415,0.0047360635,0.1,106.40988,1638907988434
Fix,GT,34.2723297,-118.6050566,303.5320090459585,0.0043921582,0.1,106.410034,1638907989434
Fix,GT,34.2723297,-118.6050566,303.532,0.004506577,0.1,106.40982,1638907990434
Fix,GT,34.2723297,-118.6050566,303.5320090459585,0.0042426405,0.1,106.40979,1638907991434
Fix,GT,34.2723297,-118.6050566,303.5320090459585,0.0042426405,0.1,106.40988,1638907992434
Fix,GT,34.2723297,-118.6050566,303.5320090459585,0.004506577,0.1,106.40988,1638907993434
Fix,GT,34.2723297,-118.6050566,303.5320090459585,0.0042426405,0.1,106.40991,1638907994434
Fix,GT,34.2723297,-118.6050566,303.5320090459585,0.0030992513,0.1,106.40878,1638907995434
Fix,GT,34.2723297,-118.6050566,303.5319909540415,0.003099251,0.1,106.40869,1638907996434
Fix,GT,34.2723297,-118.6050566,303.5320090459585,0.0022360682,0.1,106.40863,1638907997434
Fix,GT,34.2723297,-118.6050566,303.532,0.002539724,0.1,106.40869,1638907998434
Fix,GT,34.2723297,-118.6050566,303.532,0.0026219927,0.1,106.40875,1638907999434
Fix,GT,34.2723297,-118.6050566,303.532,0.0024425024,0.1,106.40878,1638908000434
Fix,GT,34.2723297,-118.6050566,303.532,0.0014142136,0.1,106.40863,1638908001434
Fix,GT,34.2723297,-118.6050566,303.532,0.002236068,0.1,106.40875,1638908002434
Fix,GT,34.2723297,-118.6050566,303.532,0.003605551,0.1,106.40881,1638908003434
Fix,GT,34.2723297,-118.6050566,303.532,0.003907552,0.1,106.40875,1638908004434
Fix,GT,34.2723297,-118.6050566,303.533,0.0053851646,0.1,106.4086,1638908005434
Fix,GT,34.2723297,-118.6050566,303.533,0.00728011,0.1,106.40839,1638908006434
Fix,GT,34.2723297,-118.6050566,303.534,0.010440307,0.1,106.408264,1638908007434
Fix,GT,34.2723298,-118.6050566,303.53500904604795,0.015524175,0.1,106.40808,1638908008434
Fix,GT,34.2723298,-118.6050565,303.5370090461075,0.022982255,0.1,106.408264,1638908009434
Fix,GT,34.2723299,-118.6050565,303.538,0.033174586,0.1,106.4082,1638908010434
Fix,GT,34.27233,-118.6050558,303.54069699001315,0.27814695,0.1,106.417114,1638908011434
Fix,GT,34.2723282,-118.6050462,303.6088879786133,1.6486415,0.1,106.453766,1638908012434
Fix,GT,34.2723224,-118.6050199,303.80945485019686,3.4373512,0.1,106.166626,1638908013434
Fix,GT,34.2723146,-118.6049746,304.18259130525587,4.8420835,0.1,102.30249,1638908014434
Fix,GT,34.2723115,-118.6049149,304.6334247473478,6.2674637,0.1,92.82916,1638908015434
Fix,GT,34.2723222,-118.6048405,305.25744013112785,7.466778,0.1,77.41266,1638908016434
Fix,GT,34.2723544,-118.6047663,306.0432826929689,8.024355,0.1,58.57715,1638908017434
Fix,GT,34.27241,-118.6047009,306.8799705603123,9.402096,0.1,40.311523,1638908018434
Fix,GT,34.2724883,-118.6046447,307.7898040040731,10.8687525,0.1,27.84787,1638908019434
Fix,GT,34.2725848,-118.6045986,308.7661979776025,12.10479,0.1,19.14859,1638908020434
Fix,GT,34.2726951,-118.6045626,309.7599404454231,13.342449,0.1,14.06488,1638908021434
Fix,GT,34.2728187,-118.6045317,310.8423344179392,14.70919,0.1,10.465363,1638908022434
Fix,GT,34.2729552,-118.6045064,311.95847087740896,15.891931,0.1,7.949524,1638908023434
Fix,GT,34.2731024,-118.6044856,313.1304801975489,17.00043,0.1,5.5607605,1638908024434
Fix,GT,34.2732594,-118.6044739,314.3525257179737,17.780111,0.1,2.1385498,1638908025434
Fix,GT,34.2734222,-118.6044745,315.599395272255,18.35189,0.1,358.2358,1638908026434
Fix,GT,34.2735903,-118.6044872,316.9070012936592,19.092388,0.1,355.0323,1638908027434
Fix,GT,34.2737648,-118.6045097,318.24274375057223,19.779303,0.1,353.1777,1638908028434
Fix,GT,34.273943,-118.6045374,319.6083497724533,20.13656,0.1,352.10342,1638908029434
Fix,GT,34.2741221,-118.6045678,320.9594708419442,19.787865,0.1,351.66507,1638908030434
Fix,GT,34.2742951,-118.6045974,322.27439523983,18.946503,0.1,351.80713,1638908031434
Fix,GT,34.27446,-118.6046246,323.5992587901354,17.986431,0.1,352.1746,1638908032434
Fix,GT,34.2746161,-118.6046491,324.8719654480219,16.840874,0.1,352.4967,1638908033434
Fix,GT,34.2747591,-118.6046712,326.0690768366456,15.151756,0.1,352.43103,1638908034434
Fix,GT,34.2748877,-118.6046913,327.15089490586524,13.49245,0.1,352.31964,1638908035434
Fix,GT,34.2749984,-118.6047093,328.0515765269995,11.225713,0.1,352.12625,1638908036434
Fix,GT,34.2750883,-118.604724,328.79854084008934,8.928354,0.1,352.00256,1638908037434
Fix,GT,34.2751589,-118.6047353,329.39113151457906,6.8855267,0.1,352.11066,1638908038434
Fix,GT,34.2752124,-118.604744,329.8288942821622,5.1566434,0.1,352.11807,1638908039434
Fix,GT,34.2752531,-118.6047506,330.1708131560981,4.0324616,0.1,352.1082,1638908040434
Fix,GT,34.2752853,-118.6047557,330.4270252111554,3.232601,0.1,352.01315,1638908041434
Fix,GT,34.2753122,-118.6047602,330.63996987986565,2.93345,0.1,351.89206,1638908042434
Fix,GT,34.2753388,-118.6047647,330.86201536184547,3.0585365,0.1,351.755,1638908043434
Fix,GT,34.2753683,-118.6047696,331.10707071053986,3.6698976,0.1,351.78036,1638908044434
Fix,GT,34.275407,-118.6047763,331.42690415355565,5.0877047,0.1,351.74252,1638908045434
Fix,GT,34.2754584,-118.604785,331.852389105767,6.3372393,0.1,351.6514,1638908046434
Fix,GT,34.2755176,-118.6047952,332.35068222701545,6.7557144,0.1,351.60568,1638908047434
Fix,GT,34.2755768,-118.6048054,332.8370762027502,6.583221,0.1,351.67316,1638908048434
Fix,GT,34.2756359,-118.6048153,333.3240861375332,6.7062263,0.1,351.79144,1638908049434
Fix,GT,34.2756997,-118.6048261,333.86421265506743,7.5892153,0.1,351.8307,1638908050434
Fix,GT,34.2757688,-118.6048376,334.43756114560364,7.8663983,0.1,351.84323,1638908051434
Fix,GT,34.2758404,-118.6048493,335.0366066275835,8.195066,0.1,352.08115,1638908052434
Fix,GT,34.2759164,-118.6048612,335.66000060749053,8.923593,0.1,352.36276,1638908053434
Fix,GT,34.2759995,-118.6048736,336.32670762023326,9.630247,0.1,352.82358,1638908054434
Fix,GT,34.2760888,-118.6048859,337.0437885687351,10.280879,0.1,353.3538,1638908055434
Fix,GT,34.2761822,-118.6048974,337.7670006192923,10.434337,0.1,354.05838,1638908056434
Fix,GT,34.2762749,-118.6049072,338.43830363082884,10.312071,0.1,354.97034,1638908057434
Fix,GT,34.2763671,-118.6049147,339.05995514035226,9.967585,0.1,356.28537,1638908058434
Fix,GT,34.276451,-118.6049187,339.5696923639476,8.58957,0.1,357.90744,1638908059434
Fix,GT,34.2765241,-118.6049197,339.9735457966328,7.646807,0.1,359.2454,1638908060434
Fix,GT,34.2765895,-118.6049191,340.318500315547,6.94642,0.1,0.23239136,1638908061434
Fix,GT,34.2766501,-118.6049172,340.6291063361764,6.5962214,0.1,1.2136841,1638908062434
Fix,GT,34.2767099,-118.6049145,340.9254093490839,6.745981,0.1,1.8899536,1638908063434
Fix,GT,34.2767727,-118.6049106,341.19510633963347,7.2138124,0.1,2.5707703,1638908064434
Fix,GT,34.2768376,-118.6049056,341.482712361753,7.05918,0.1,3.473114,1638908065434
Fix,GT,34.2768991,-118.6048996,341.72331838387254,6.6039667,0.1,4.3984375,1638908066434
Fix,GT,34.2769556,-118.6048931,341.9386315869987,5.9994874,0.1,5.218292,1638908067434
Fix,GT,34.2770069,-118.6048862,342.09893460267784,5.4495506,0.1,5.7878113,1638908068434
Fix,GT,34.2770546,-118.6048792,342.24193460693954,5.2941675,0.1,6.3641357,1638908069434
Fix,GT,34.2771021,-118.6048708,342.3879244070053,5.3906717,0.1,8.230804,1638908070434
Fix,GT,34.2771502,-118.6048558,342.5131011749804,5.573063,0.1,15.235931,1638908071434
Fix,GT,34.2771962,-118.6048284,342.5159090321064,5.790592,0.1,27.770874,1638908072434
Fix,GT,34.2772344,-118.6047815,342.4488180634975,6.2376137,0.1,47.87033,1638908073434
Fix,GT,34.2772573,-118.6047163,342.24172709524635,6.697339,0.1,70.41141,1638908074434
Fix,GT,34.2772599,-118.6046391,342.15921204233166,7.53706,0.1,89.66348,1638908075434
Fix,GT,34.2772493,-118.6045513,342.1774394629598,8.9326725,0.1,99.24902,1638908076434
Fix,GT,34.2772272,-118.6044494,342.5139852750301,10.348864,0.1,104.81247,1638908077434
Fix,GT,34.2772001,-118.6043345,343.0187834569216,11.730064,0.1,105.12073,1638908078434
Fix,GT,34.2771694,-118.6042028,343.5310864826143,13.513959,0.1,105.325195,1638908079434
Fix,GT,34.2771332,-118.6040531,344.0735157136917,15.186676,0.1,105.772736,1638908080434
Fix,GT,34.2770934,-118.6038879,344.57477323925497,16.163973,0.1,105.97217,1638908081434
Fix,GT,34.2770517,-118.6037209,344.9855913006067,15.854504,0.1,106.59564,1638908082434
Fix,GT,34.2770104,-118.6035597,345.27240936195847,15.282619,0.1,106.973175,1638908083434
Fix,GT,34.2769697,-118.6034035,345.46518193864824,14.9669895,0.1,107.21857,1638908084434
Fix,GT,34.2769274,-118.6032463,345.56343946421146,15.709076,0.1,107.80563,1638908085434
Fix,GT,34.276881,-118.6030767,345.5733030102253,17.189249,0.1,107.89624,1638908086434
Fix,GT,34.2768306,-118.6028928,345.4518180613518,18.403673,0.1,108.176544,1638908087434
Fix,GT,34.276777,-118.6027024,345.2508635460139,18.564068,0.1,108.69983,1638908088434
Fix,GT,34.2767208,-118.602509,344.9188026789427,19.344292,0.1,109.252594,1638908089434
Fix,GT,34.2766592,-118.6023065,344.420044825852,20.211771,0.1,110.4187,1638908090434
Fix,GT,34.2765923,-118.6021012,343.78505507397654,20.355135,0.1,111.62787,1638908091434
Fix,GT,34.2765229,-118.6018966,343.14105505478386,20.375591,0.1,112.08539,1638908092434
Fix,GT,34.276453,-118.6016917,342.4944035302997,20.508976,0.1,112.012695,1638908093434
Fix,GT,34.2763819,-118.6014813,341.81491856217383,21.441616,0.1,111.631226,1638908094434
Fix,GT,34.2763074,-118.6012593,341.1323125209808,22.650276,0.1,111.88818,1638908095434
Fix,GT,34.276228,-118.6010272,340.4105700255334,23.600727,0.1,112.461365,1638908096434
Fix,GT,34.2761422,-118.6007863,339.6414234338999,24.67466,0.1,113.34195,1638908097434
Fix,GT,34.2760499,-118.6005363,338.84242343389985,25.66552,0.1,113.90491,1638908098434
Fix,GT,34.2759537,-118.6002795,338.0117264444828,26.061752,0.1,114.101135,1638908099434
Fix,GT,34.2758584,-118.6000203,337.17451440668106,26.223278,0.1,112.92966,1638908100434
Fix,GT,34.275766,-118.5997546,336.33738798695805,26.890667,0.1,112.20102,1638908101434
Fix,GT,34.2756727,-118.5994823,335.49603946733475,27.22554,0.1,112.13727,1638908102434
Fix,GT,34.2755785,-118.5992083,334.6410749540329,27.515886,0.1,112.35159,1638908103434
Fix,GT,34.2754813,-118.598932,333.77937797003983,27.706017,0.1,113.19037,1638908104434
Fix,GT,34.2753802,-118.5986545,332.8932870140672,28.134483,0.1,113.54947,1638908105434
Fix,GT,34.2752774,-118.598373,331.995645406276,28.427353,0.1,113.58679,1638908106434
Fix,GT,34.2751729,-118.5980909,331.0802870249152,28.452175,0.1,113.92334,1638908107434
Fix,GT,34.2750676,-118.5978088,330.158590041995,28.589151,0.1,113.94818,1638908108434
Fix,GT,34.2749615,-118.5975246,329.2422968516052,28.769283,0.1,114.038574,1638908109434
Fix,GT,34.2748542,-118.5972386,328.29759005862473,29.131351,0.1,114.08548,1638908110434
Fix,GT,34.2747452,-118.596948,327.363590064168,29.468777,0.1,114.126434,1638908111434
Fix,GT,34.2746353,-118.5966556,326.427696395874,29.73856,0.1,113.97742,1638908112434
Fix,GT,34.2745259,-118.5963573,325.7416565704048,30.297245,0.099,113.34805,1638908113434
Fix,GT,34.2744173,-118.5960558,325.3359033814967,30.186647,0.1,113.2052,1638908114434
Fix,GT,34.274311,-118.5957553,324.94531779176,29.990276,0.1,112.48465,1638908115434
Fix,GT,34.2742093,-118.5954527,324.47500511208176,30.226019,0.1,111.2218,1638908116434
Fix,GT,34.2741119,-118.5951427,324.0013178024888,30.870413,0.1,109.918884,1638908117434
Fix,GT,34.2740184,-118.5948239,323.5982063573003,31.296587,0.1,108.71536,1638908118434
Fix,GT,34.2739293,-118.5945007,323.3009391809702,31.375143,0.1,107.79935,1638908119434
Fix,GT,34.2738442,-118.5941768,323.0669846628308,31.229961,0.1,106.978516,1638908120434
Fix,GT,34.2737644,-118.5938512,322.8326265535057,31.31311,0.1,105.44241,1638908121434
Fix,GT,34.2736923,-118.5935229,322.58978222429755,31.240917,0.1,103.88248,1638908122434
Fix,GT,34.2736281,-118.5931925,322.3456265737414,31.21627,0.1,102.22504,1638908123434
Fix,GT,34.2735704,-118.5928609,322.0443992001116,31.264778,0.1,101.168335,1638908124434
Fix,GT,34.2735173,-118.5925262,321.7232723741531,31.50806,0.1,100.12637,1638908125434
Fix,GT,34.2734694,-118.5921882,321.414545237422,31.635485,0.1,98.75455,1638908126434
Fix,GT,34.2734299,-118.5918474,321.14459071850774,31.763191,0.1,96.84332,1638908127434
Fix,GT,34.2733984,-118.591505,320.90532361736894,31.630276,0.099,95.63153,1638908128434
Fix,GT,34.2733716,-118.5911644,320.6575356941819,31.403503,0.1,94.80975,1638908129434
Fix,GT,34.2733508,-118.5908245,320.4211665942669,31.414062,0.1,93.35181,1638908130434
Fix,GT,34.2733366,-118.5904831,320.11630835166574,31.564476,0.1,91.976074,1638908131434
Fix,GT,34.2733277,-118.5901397,319.67671186602115,31.639914,0.1,91.358246,1638908132434
Fix,GT,34.2733209,-118.5897971,319.203211669445,31.493547,0.1,90.913574,1638908133434
Fix,GT,34.273316,-118.5894557,318.6814543321133,31.376883,0.1,90.6384,1638908134434
Fix,GT,34.2733128,-118.5891163,318.42499420565366,31.129856,0.1,90.32507,1638908135434
Fix,GT,34.2733097,-118.5887796,318.1792877380848,30.891083,0.1,90.42862,1638908136434
Fix,GT,34.2733065,-118.5884455,317.9457271757126,30.64154,0.1,90.47717,1638908137434
Fix,GT,34.2733024,-118.5881142,317.765369217962,30.386866,0.1,90.66101,1638908138434
Fix,GT,34.2732983,-118.5877837,317.5920851366818,30.564365,0.1,90.53439,1638908139434
Fix,GT,34.2732946,-118.5874482,317.417075674057,31.324242,0.1,90.54291,1638908140434
Fix,GT,34.2732903,-118.5871033,317.27317607051134,32.209194,0.1,90.62842,1638908141434
Fix,GT,34.2732859,-118.5867517,317.1929185165465,32.391056,0.1,90.638916,1638908142434
Fix,GT,34.2732814,-118.5864023,317.108570025444,31.707317,0.1,90.61182,1638908143434
Fix,GT,34.2732773,-118.5860647,317.01494508442283,30.597702,0.1,90.59149,1638908144434
Fix,GT,34.2732741,-118.5857342,316.9449185113013,30.33316,0.1,90.303894,1638908145434
Fix,GT,34.2732713,-118.5854049,316.8579090664387,30.381668,0.1,90.315186,1638908146434
Fix,GT,34.2732685,-118.5850738,316.78521208953856,30.59438,0.1,90.4415,1638908147434
Fix,GT,34.2732649,-118.5847403,316.6978730399609,30.848606,0.1,90.610535,1638908148434
Fix,GT,34.2732605,-118.5844039,316.61687303754684,31.088726,0.1,90.78073,1638908149434
Fix,GT,34.273255,-118.5840673,316.51917605853083,30.951075,0.1,90.8988,1638908150434
Fix,GT,34.2732511,-118.5837302,316.4559185003042,31.235786,0.1,90.32446,1638908151434
Fix,GT,34.2732491,-118.5833884,316.38256058126683,31.772438,0.1,89.895294,1638908152434
Fix,GT,34.2732491,-118.5830391,316.29121209335324,32.576733,0.1,89.532715,1638908153434
Fix,GT,34.2732508,-118.5826805,316.1979090696573,33.453213,0.1,89.27072,1638908154434
Fix,GT,34.2732569,-118.5823146,316.14321209335327,33.73748,0.1,87.90448,1638908155434
Fix,GT,34.2732677,-118.5819497,316.0856060473919,33.50757,0.1,87.874756,1638908156434
Fix,GT,34.2732771,-118.5815876,316.0356060478687,33.262302,0.1,87.8389,1638908157434
Fix,GT,34.2732891,-118.5812256,315.95722151231763,33.51853,0.1,87.12564,1638908158434
Fix,GT,34.2733021,-118.5808625,315.9088636087775,33.375652,0.1,87.66843,1638908159434
Fix,GT,34.2733117,-118.5805005,315.8168730212152,33.406174,0.1,88.11667,1638908160434
Fix,GT,34.27332,-118.5801355,315.77025756132605,33.878685,0.1,88.24887,1638908161434
Fix,GT,34.2733275,-118.5797648,315.68556999471787,34.41136,0.1,88.4642,1638908162434
Fix,GT,34.2733343,-118.5793882,315.6214241991043,34.973602,0.1,88.45746,1638908163434
Fix,GT,34.2733414,-118.5790053,315.5245151256323,35.56403,0.1,88.4725,1638908164434
Fix,GT,34.2733487,-118.5786167,315.4352215015292,36.02968,0.1,88.524414,1638908165434
Fix,GT,34.2733561,-118.5782232,315.30960024046897,36.434425,0.1,88.47125,1638908166434
Fix,GT,34.2733641,-118.5778261,315.2008542211354,36.73099,0.1,88.15442,1638908167434
Fix,GT,34.273374,-118.5774265,315.13742420482635,36.872364,0.1,88.03262,1638908168434
Fix,GT,34.2733839,-118.5770256,315.02350574037433,37.029045,0.099,88.15518,1638908169434
Fix,GT,34.2733932,-118.5766225,314.93215725597736,37.225487,0.099,88.236084,1638908170434
Fix,GT,34.2734008,-118.5762179,314.8328181550503,37.29706,0.1,88.78058,1638908171434
Fix,GT,34.2734062,-118.5758133,314.7365245094895,37.209972,0.1,88.932465,1638908172434
Fix,GT,34.2734104,-118.5754094,314.6425245066881,37.171806,0.1,89.18964,1638908173434
Fix,GT,34.2734131,-118.5750064,314.5188577881455,37.102463,0.1,89.444214,1638908174434
Fix,GT,34.2734143,-118.5746032,314.43759668150545,37.164948,0.099,89.616425,1638908175434
Fix,GT,34.2734156,-118.5741988,314.33656996035575,37.31163,0.1,89.44119,1638908176434
Fix,GT,34.2734165,-118.5737938,314.1837330704034,37.214684,0.1,89.85513,1638908177434
Fix,GT,34.2734158,-118.573391,314.1448729821146,36.991817,0.1,89.89145,1638908178434
Fix,GT,34.2734146,-118.5729903,314.05686362057924,36.83036,0.1,90.171814,1638908179434
Fix,GT,34.2734108,-118.5725908,313.96180880492926,36.744385,0.1,90.69797,1638908180434
Fix,GT,34.2734047,-118.5721923,313.83103610631827,36.661438,0.1,90.89899,1638908181434
Fix,GT,34.2733979,-118.5717952,313.75524821794033,36.516212,0.1,90.87982,1638908182434
Fix,GT,34.2733915,-118.5713993,313.670202762574,36.392345,0.1,90.87903,1638908183434
Fix,GT,34.2733843,-118.5710059,313.58721211099623,36.072426,0.1,91.21686,1638908184434
Fix,GT,34.2733753,-118.5706162,313.50656059712173,35.717022,0.1,91.508575,1638908185434
Fix,GT,34.2733643,-118.5702304,313.4121666558981,35.3869,0.1,91.89105,1638908186434
Fix,GT,34.2733518,-118.5698482,313.3124603486061,35.100285,0.1,92.05139,1638908187434
Fix,GT,34.2733395,-118.5694668,313.1995606008768,35.31141,0.1,91.99133,1638908188434
Fix,GT,34.2733257,-118.5690813,313.11542423152923,35.72167,0.1,92.50192,1638908189434
Fix,GT,34.2733089,-118.568694,313.00589392137533,35.592518,0.1,93.00238,1638908190434
Fix,GT,34.2732913,-118.5683098,312.91594521838425,35.292747,0.1,92.80359,1638908191434
Fix,GT,34.2732737,-118.5679281,312.8203240025639,35.20916,0.099,93.0275,1638908192434
Fix,GT,34.273255,-118.5675457,312.69021211910245,35.292847,0.1,93.28522,1638908193434
Fix,GT,34.2732342,-118.567165,312.612696969986,34.954174,0.1,93.68567,1638908194434
Fix,GT,34.2732126,-118.5667884,312.5168543225825,34.57099,0.1,93.760864,1638908195434
Fix,GT,34.2731905,-118.5664143,312.4443123422563,34.628387,0.1,93.84537,1638908196434
Fix,GT,34.2731679,-118.5660369,312.36656060838703,35.039803,0.1,93.947174,1638908197434
Fix,GT,34.2731435,-118.5656575,312.2616422095001,34.93851,0.1,94.50052,1638908198434
Fix,GT,34.2731171,-118.5652814,312.19521212673186,34.5722,0.1,94.52948,1638908199434
Fix,GT,34.2730927,-118.5649087,312.122596761942,34.29445,0.1,94.12317,1638908200434
Fix,GT,34.2730691,-118.5645385,312.0153240554035,34.17468,0.1,94.2345,1638908201434
Fix,GT,34.2730446,-118.5641664,311.9468998005688,34.60535,0.1,94.41278,1638908202434
Fix,GT,34.2730179,-118.5637922,311.8912121305466,34.516796,0.1,94.95502,1638908203434
Fix,GT,34.2729877,-118.5634198,311.81591839134694,34.45107,0.1,95.686066,1638908204434
Fix,GT,34.2729547,-118.5630485,311.731854357779,34.26002,0.1,96.0647,1638908205434
Fix,GT,34.2729203,-118.5626801,311.6331305189133,34.074474,0.1,96.30658,1638908206434
Fix,GT,34.2728851,-118.562313,311.5371666821241,33.978004,0.1,96.21158,1638908207434
Fix,GT,34.2728504,-118.5619475,311.4455058839619,33.732044,0.1,96.41229,1638908208434
Fix,GT,34.2728139,-118.5615859,311.36050588649505,33.41216,0.1,96.85794,1638908209434
Fix,GT,34.272777,-118.5612259,311.25146043947336,33.428722,0.1,96.64014,1638908210434
Fix,GT,34.2727411,-118.5608664,311.0646456702053,33.221146,0.1,96.69974,1638908211434
Fix,GT,34.2727048,-118.56051,310.77954550027846,32.9215,0.1,96.81067,1638908212434
Fix,GT,34.2726681,-118.5601567,310.3973090007305,32.660778,0.099,96.96713,1638908213434
Fix,GT,34.2726316,-118.5598061,309.91423659172654,32.427536,0.1,96.79498,1638908214434
Fix,GT,34.2725964,-118.5594577,309.34879719921946,32.224754,0.1,96.6991,1638908215434
Fix,GT,34.2725612,-118.5591113,308.6953486033082,32.08127,0.1,96.78485,1638908216434
Fix,GT,34.2725262,-118.5587644,307.9484243967533,32.288277,0.1,96.57391,1638908217434
Fix,GT,34.2724923,-118.5584163,307.04955479559305,32.286564,0.1,96.398926,1638908218434
Fix,GT,34.2724591,-118.5580678,306.19096380740405,32.27767,0.1,96.37854,1638908219434
Fix,GT,34.2724254,-118.5577203,305.3460395734906,32.158123,0.1,96.53757,1638908220434
Fix,GT,34.2723912,-118.5573742,304.46646985507016,32.039448,0.1,96.6792,1638908221434
Fix,GT,34.2723566,-118.5570296,303.659424411416,31.918278,0.1,96.80957,1638908222434
Fix,GT,34.2723213,-118.5566864,302.9974030922949,31.761091,0.1,96.93149,1638908223434
Fix,GT,34.2722865,-118.5563448,302.4015304122568,31.606613,0.1,96.59311,1638908224434
Fix,GT,34.2722561,-118.5560037,301.91362130618097,31.670322,0.1,95.53998,1638908225434
Fix,GT,34.2722302,-118.5556601,301.53789399915934,31.832699,0.1,94.458984,1638908226434
Fix,GT,34.2722123,-118.5553158,301.2702424819469,31.738045,0.1,92.2865,1638908227434
Fix,GT,34.2722065,-118.5549716,301.06012124097344,31.663063,0.1,89.73724,1638908228434
Fix,GT,34.2722125,-118.5546289,300.94425758606195,31.569588,0.1,87.715546,1638908229434
Fix,GT,34.2722278,-118.5542847,300.932448348552,31.977856,0.1,85.955475,1638908230434
Fix,GT,34.272252,-118.5539364,301.07013634669784,32.342796,0.1,84.12323,1638908231434
Fix,GT,34.272286,-118.5535868,301.19587876069545,32.516464,0.1,82.27698,1638908232434
Fix,GT,34.2723298,-118.5532379,301.3517878632546,32.365425,0.1,80.35858,1638908233434
Fix,GT,34.2723814,-118.5528942,301.47187876152987,31.95915,0.1,78.769806,1638908234434
Fix,GT,34.2724415,-118.5525571,301.6289242114425,31.549295,0.1,76.6087,1638908235434
Fix,GT,34.2725125,-118.5522278,301.7815392741561,31.133484,0.1,74.11499,1638908236434
Fix,GT,34.2725922,-118.551906,301.89143938201664,30.741146,0.1,72.42697,1638908237434
Fix,GT,34.2726776,-118.5515905,301.95175141498447,30.368713,0.1,71.25107,1638908238434
Fix,GT,34.2727675,-118.5512813,301.99438493308423,29.793568,0.099,69.99042,1638908239434
Fix,GT,34.2728572,-118.5509845,302.03134848332405,28.453415,0.1,69.76486,1638908240434
Fix,GT,34.2729438,-118.5506993,302.06504545032976,27.437939,0.1,69.7738,1638908241434
Fix,GT,34.2730276,-118.5504228,302.1017059702575,26.804121,0.1,69.81497,1638908242434
Fix,GT,34.2731091,-118.5501518,302.1460818966031,26.347462,0.1,69.90076,1638908243434
Fix,GT,34.2731895,-118.5498843,302.2030999078453,26.033691,0.1,69.91266,1638908244434
Fix,GT,34.2732684,-118.5496198,302.2864848368168,25.761646,0.1,70.05298,1638908245434
Fix,GT,34.2733465,-118.5493566,302.36608189147705,25.765709,0.1,70.09314,1638908246434
Fix,GT,34.2734253,-118.5490928,302.4417968840301,25.889072,0.1,69.88556,1638908247434
Fix,GT,34.2735054,-118.5488274,302.5237968864739,26.167515,0.1,69.68863,1638908248434
Fix,GT,34.2735874,-118.5485579,302.6141818070412,26.68572,0.1,69.601166,1638908249434
Fix,GT,34.2736698,-118.5482833,302.7265757427216,27.162199,0.1,70.18417,1638908250434
Fix,GT,34.2737511,-118.5480016,302.8435302909612,27.741072,0.1,71.04376,1638908251434
Fix,GT,34.2738288,-118.5477128,303.0039332571924,28.089462,0.1,72.68555,1638908252434
Fix,GT,34.2738989,-118.5474187,303.17528174623845,28.331272,0.1,74.86023,1638908253434
Fix,GT,34.2739615,-118.5471178,303.3606666462422,28.887337,0.1,76.28882,1638908254434
Fix,GT,34.2740196,-118.5468098,303.6157939524651,29.173235,0.1,77.74512,1638908255434
Fix,GT,34.2740707,-118.5464986,303.9321514816284,29.2546,0.1,79.368164,1638908256434
Fix,GT,34.2741144,-118.5461848,304.2912878358364,29.348549,0.1,80.93463,1638908257434
Fix,GT,34.2741519,-118.5458686,304.74038782152536,29.472885,0.1,82.366974,1638908258434
Fix,GT,34.2741822,-118.545552,305.2317272224426,29.214567,0.1,83.98685,1638908259434
Fix,GT,34.2742049,-118.5452371,305.78152420693635,28.92826,0.1,85.6203,1638908260434
Fix,GT,34.2742204,-118.5449258,306.3508544523716,28.513298,0.1,86.88193,1638908261434
Fix,GT,34.2742328,-118.5446176,306.9258181316852,28.417807,0.1,86.80469,1638908262434
Fix,GT,34.2742466,-118.5443105,307.39952426183225,28.156801,0.1,86.661804,1638908263434
Fix,GT,34.2742602,-118.5440057,307.9129301842749,28.16058,0.1,86.50815,1638908264434
Fix,GT,34.2742749,-118.5436992,308.32664551931623,28.350231,0.1,86.5126,1638908265434
Fix,GT,34.2742884,-118.5433928,308.73819694554805,28.147362,0.1,86.95218,1638908266434
Fix,GT,34.2743011,-118.5430873,309.0808484613896,28.22749,0.1,86.854614,1638908267434
Fix,GT,34.2743143,-118.5427806,309.4011877281666,28.329014,0.1,86.83087,1638908268434
Fix,GT,34.2743276,-118.5424728,309.6729696855545,28.44487,0.1,86.87259,1638908269434
Fix,GT,34.2743398,-118.5421637,309.91472134360674,28.56277,0.1,87.23071,1638908270434
Fix,GT,34.2743514,-118.5418526,310.1255395383239,28.841549,0.1,87.1723,1638908271434
Fix,GT,34.2743644,-118.5415384,310.23953954172134,29.053734,0.1,86.7742,1638908272434
Fix,GT,34.2743783,-118.5412228,310.3250547012985,29.134533,0.1,86.818726,1638908273434
Fix,GT,34.274392,-118.5409066,310.3637971239388,29.198677,0.1,86.88324,1638908274434
Fix,GT,34.2744056,-118.5405896,310.4053577350974,29.26846,0.1,86.86597,1638908275434
Fix,GT,34.2744193,-118.5402715,310.3762937813103,29.398159,0.1,86.84744,1638908276434
Fix,GT,34.2744348,-118.5399517,310.2898543932438,29.702816,0.1,86.19156,1638908277434
Fix,GT,34.2744535,-118.5396266,310.17717591673136,30.307114,0.1,85.56683,1638908278434
Fix,GT,34.2744769,-118.539296,310.06386364150046,30.777061,0.1,84.317444,1638908279434
Fix,GT,34.2745066,-118.5389616,309.9434789427221,31.106709,0.1,83.20325,1638908280434
Fix,GT,34.2745415,-118.5386274,309.8161304547489,30.948017,0.1,82.08002,1638908281434
Fix,GT,34.2745831,-118.5382947,309.66877273762225,31.043297,0.1,80.490906,1638908282434
Fix,GT,34.2746314,-118.5379619,309.5221666742563,31.20406,0.1,79.39148,1638908283434
Fix,GT,34.2746854,-118.5376284,309.38015745422246,31.361217,0.099,78.16821,1638908284434
Fix,GT,34.2747457,-118.5372961,309.2484242534638,31.22744,0.1,76.903625,1638908285434
Fix,GT,34.2748115,-118.5369673,309.1008544308245,31.067738,0.099,75.70795,1638908286434
Fix,GT,34.2748821,-118.5366415,309.0343122418225,31.027222,0.1,74.65915,1638908287434
Fix,GT,34.2749582,-118.5363166,309.0354756314158,31.150928,0.099,73.50943,1638908288434
Fix,GT,34.27504,-118.5359925,309.1294756274223,31.211388,0.1,72.44568,1638908289434
Fix,GT,34.2751269,-118.5356713,309.28496046298744,30.95435,0.1,71.04901,1638908290434
Fix,GT,34.2752196,-118.5353565,309.5091514854431,30.559042,0.1,69.617035,1638908291434
Fix,GT,34.2753172,-118.5350489,309.82719693303113,30.10109,0.1,68.35837,1638908292434
Fix,GT,34.2754186,-118.5347488,310.1709301074445,29.468586,0.1,67.090454,1638908293434
Fix,GT,34.2755223,-118.5344586,310.55589389622213,28.842707,0.1,66.08807,1638908294434
Fix,GT,34.275628,-118.5341751,310.94824237537387,28.388489,0.1,65.322876,1638908295434
Fix,GT,34.275735,-118.5338974,311.2765092310309,28.078949,0.1,64.663055,1638908296434
Fix,GT,34.2758421,-118.5336223,311.60655468696353,27.83318,0.1,64.86102,1638908297434
Fix,GT,34.2759479,-118.5333502,311.9488391355574,27.548147,0.099,64.42438,1638908298434
Fix,GT,34.2760552,-118.5330802,312.24641835272314,27.592487,0.1,64.16907,1638908299434
Fix,GT,34.276163,-118.532809,312.56689387637374,27.843418,0.1,64.21582,1638908300434
Fix,GT,34.276272,-118.5325342,312.94228780651093,28.282099,0.1,64.27814,1638908301434
Fix,GT,34.276381,-118.5322564,313.31389386975764,28.28402,0.1,64.6716,1638908302434
Fix,GT,34.2764894,-118.5319781,313.68555473175644,28.342089,0.1,64.51758,1638908303434
Fix,GT,34.2765991,-118.5316996,314.0446001864076,28.445427,0.1,64.33856,1638908304434
Fix,GT,34.2767095,-118.5314201,314.3914544818401,28.56624,0.1,64.30585,1638908305434
Fix,GT,34.2768209,-118.5311386,314.7285093063712,28.88712,0.1,64.16312,1638908306434
Fix,GT,34.2769336,-118.5308553,315.06585779500006,28.976166,0.1,64.207855,1638908307434
Fix,GT,34.2770469,-118.5305702,315.38916083580256,29.22371,0.1,64.18158,1638908308434
Fix,GT,34.2771606,-118.5302831,315.67071205776926,29.350748,0.1,64.47974,1638908309434
Fix,GT,34.2772731,-118.5299943,315.9087214685976,29.384155,0.1,64.715454,1638908310434
Fix,GT,34.277385,-118.5297049,316.1350245082974,29.414433,0.1,64.87088,1638908311434
Fix,GT,34.2774935,-118.5294148,316.3609790665507,29.212307,0.1,66.27905,1638908312434
Fix,GT,34.2775943,-118.529122,316.58831811726094,29.085983,0.1,68.27249,1638908313434
Fix,GT,34.2776853,-118.5288279,316.80496963191035,28.702366,0.1,70.22601,1638908314434
Fix,GT,34.2777677,-118.5285346,316.9735208131671,28.362495,0.1,71.83429,1638908315434
Fix,GT,34.2778423,-118.5282405,317.077484813571,28.327293,0.1,73.680786,1638908316434
Fix,GT,34.2779095,-118.527943,317.1353124889732,28.447365,0.1,75.33386,1638908317434
Fix,GT,34.2779694,-118.527641,317.13030303800105,28.824953,0.1,77.112335,1638908318434
Fix,GT,34.2780224,-118.527332,317.06986367207764,29.206104,0.1,79.096375,1638908319434
Fix,GT,34.278067,-118.5270178,316.96235792693494,29.4907,0.1,81.0715,1638908320434
Fix,GT,34.2781028,-118.5266993,316.82073679116365,29.712954,0.1,82.881836,1638908321434
Fix,GT,34.2781311,-118.5263765,316.6299300721586,30.010895,0.1,84.718445,1638908322434
Fix,GT,34.2781503,-118.5260506,316.36618768149617,30.223412,0.099,86.58133,1638908323434
Fix,GT,34.2781612,-118.5257204,316.0350968138277,30.60876,0.1,88.39209,1638908324434
Fix,GT,34.2781634,-118.5253858,315.6563998693526,31.035717,0.1,90.12805,1638908325434
Fix,GT,34.2781598,-118.5250467,315.2436668832302,31.353706,0.1,90.70294,1638908326434
Fix,GT,34.278156,-118.5247068,314.79492448943853,31.221806,0.1,90.38391,1638908327434
Fix,GT,34.2781529,-118.5243688,314.25374273902173,31.025833,0.1,90.51529,1638908328434
Fix,GT,34.2781493,-118.5240319,313.61000035238266,31.084997,0.1,90.24225,1638908329434
Fix,GT,34.2781476,-118.5236939,312.89550624281173,31.099924,0.1,90.06964,1638908330434
Fix,GT,34.2781453,-118.5233569,312.1307731838822,30.967411,0.1,90.344666,1638908331434
Fix,GT,34.2781421,-118.5230213,311.3368186354637,30.889008,0.1,90.52362,1638908332434
Fix,GT,34.2781377,-118.5226851,310.556370038718,31.065346,0.1,90.90631,1638908333434
Fix,GT,34.2781297,-118.5223471,309.763763987571,31.210901,0.1,91.778595,1638908334434
Fix,GT,34.2781188,-118.5220075,308.9704155422151,31.324911,0.1,92.2359,1638908335434
Fix,GT,34.2781047,-118.5216681,308.16912171554566,31.25427,0.1,93.07507,1638908336434
Fix,GT,34.2780861,-118.5213299,307.37411256617304,31.157543,0.099,94.03589,1638908337434
Fix,GT,34.278064,-118.5209924,306.5734247779846,31.281843,0.1,94.54608,1638908338434
Fix,GT,34.2780394,-118.5206522,305.76915806761383,31.618847,0.1,94.92932,1638908339434
Fix,GT,34.2780129,-118.5203079,304.96207631945606,32.081512,0.1,95.25604,1638908340434
Fix,GT,34.2779844,-118.5199586,304.1384157448709,32.55744,0.1,95.48071,1638908341434
Fix,GT,34.2779555,-118.5196063,303.32578234282136,32.560097,0.1,95.27777,1638908342434
Fix,GT,34.2779276,-118.5192553,302.497782327801,32.371315,0.1,95.29974,1638908343434
Fix,GT,34.2778993,-118.5189067,301.674076368928,32.170197,0.1,95.38513,1638908344434
Fix,GT,34.2778719,-118.5185595,300.9102670736313,32.04522,0.1,95.13379,1638908345434
Fix,GT,34.2778455,-118.5182139,300.199009447217,31.892395,0.1,94.99127,1638908346434
Fix,GT,34.2778199,-118.5178709,299.5089640030861,31.413214,0.1,95.09082,1638908347434
Fix,GT,34.2777931,-118.5175346,298.8153035595417,30.834305,0.1,95.41385,1638908348434
Fix,GT,34.2777679,-118.5172023,298.1042215931415,30.67715,0.1,94.68225,1638908349434
Fix,GT,34.2777461,-118.51687,297.37286423349383,30.689121,0.1,94.173676,1638908350434
Fix,GT,34.2777262,-118.5165379,296.65060663461685,30.60619,0.1,93.68146,1638908351434
Fix,GT,34.2777097,-118.5162068,295.9653944551945,30.545547,0.1,92.98215,1638908352434
Fix,GT,34.2776961,-118.5158756,295.32569750976563,30.485134,0.1,92.38516,1638908353434
Fix,GT,34.2776856,-118.5155451,294.69574294990304,30.4987,0.1,91.75873,1638908354434
Fix,GT,34.2776776,-118.5152126,294.0903944810629,30.786509,0.1,91.19278,1638908355434
Fix,GT,34.2776729,-118.5148766,293.50478839588163,31.051243,0.1,90.46155,1638908356434
Fix,GT,34.2776711,-118.5145398,292.9027517033517,30.974716,0.1,90.00745,1638908357434
Fix,GT,34.2776714,-118.514204,292.3076975517273,30.900616,0.1,89.59189,1638908358434
Fix,GT,34.2776737,-118.5138672,291.7187516826093,31.167587,0.1,89.10602,1638908359434
Fix,GT,34.2776786,-118.5135276,291.0974031958878,31.324547,0.1,88.670135,1638908360434
Fix,GT,34.2776853,-118.5131875,290.4315980722308,31.395164,0.1,88.30017,1638908361434
Fix,GT,34.2776934,-118.5128451,289.7125526764095,31.70013,0.1,88.00156,1638908362434
Fix,GT,34.277703,-118.5124993,288.99090118169784,32.01155,0.1,87.71832,1638908363434
Fix,GT,34.2777131,-118.5121502,288.2665981617868,32.36533,0.1,88.04309,1638908364434
Fix,GT,34.277722,-118.5117968,287.6107061791718,32.64618,0.1,87.98422,1638908365434
Fix,GT,34.2777315,-118.511443,286.98768906491995,32.54307,0.1,87.85544,1638908366434
Fix,GT,34.2777418,-118.5110904,286.3850829889178,32.425133,0.099,87.737335,1638908367434
Fix,GT,34.2777523,-118.5107396,285.8268339056373,32.225967,0.1,87.76395,1638908368434
Fix,GT,34.2777624,-118.510391,285.25553936424853,32.02451,0.1,87.76129,1638908369434
Fix,GT,34.2777726,-118.5100441,284.72622782164814,31.97261,0.1,87.81482,1638908370434
Fix,GT,34.2777825,-118.5096959,284.19096173164246,32.150597,0.1,87.81473,1638908371434
Fix,GT,34.2777921,-118.5093473,283.70256785660985,32.059166,0.099,87.9393,1638908372434
Fix,GT,34.2778011,-118.5089994,283.1797125844956,32.127388,0.1,88.043335,1638908373434
Fix,GT,34.2778105,-118.5086495,282.71256790399553,32.357098,0.1,87.82361,1638908374434
Fix,GT,34.2778207,-118.5082969,282.2115309208632,32.608,0.1,87.75006,1638908375434
Fix,GT,34.2778307,-118.5079416,281.7510610795021,32.866394,0.1,87.88049,1638908376434
Fix,GT,34.2778408,-118.5075843,281.29227330684665,32.880978,0.1,87.76996,1638908377434
Fix,GT,34.2778518,-118.5072283,280.7739164760709,32.774746,0.1,87.641846,1638908378434
Fix,GT,34.2778629,-118.5068717,280.29996191889046,32.949104,0.1,87.69696,1638908379434
Fix,GT,34.2778729,-118.506513,279.8112195839286,33.165344,0.1,88.01965,1638908380434
Fix,GT,34.277882,-118.5061519,279.28717419612406,33.366966,0.099,88.03107,1638908381434
Fix,GT,34.2778918,-118.5057896,278.7952196385264,33.297302,0.099,87.779175,1638908382434
Fix,GT,34.2779019,-118.5054284,278.28727337837216,33.293922,0.1,87.826996,1638908383434
Fix,GT,34.2779123,-118.505068,277.7908877896369,33.095665,0.1,87.73956,1638908384434
Fix,GT,34.2779226,-118.5047101,277.2927209649682,32.879333,0.1,87.84,1638908385434
Fix,GT,34.2779326,-118.5043545,276.79722800707816,32.641922,0.1,87.81622,1638908386434
Fix,GT,34.2779422,-118.5040016,276.3030157834887,32.36858,0.1,87.93152,1638908387434
Fix,GT,34.2779519,-118.5036512,275.7961908397973,32.26725,0.1,87.77319,1638908388434
Fix,GT,34.2779629,-118.5033,275.30927345561986,32.47406,0.1,87.62033,1638908389434
Fix,GT,34.2779738,-118.5029462,274.8122280587554,32.7158,0.1,87.62964,1638908390434
Fix,GT,34.2779831,-118.5025898,274.22731226989623,32.95353,0.1,88.21161,1638908391434
Fix,GT,34.2779883,-118.5022312,273.59944848766924,32.99743,0.1,89.539734,1638908392434
Fix,GT,34.2779851,-118.5018734,273.04356843057275,32.98136,0.1,91.31268,1638908393434
Fix,GT,34.2779724,-118.5015145,272.5321827083826,33.198673,0.1,93.18582,1638908394434
Fix,GT,34.2779497,-118.501153,272.0242735328674,33.501022,0.1,94.92786,1638908395434
Fix,GT,34.2779178,-118.500792,271.51192507356404,33.325222,0.1,96.82028,1638908396434
Fix,GT,34.2778763,-118.5004346,271.0105231357813,33.164497,0.1,98.61182,1638908397434
Fix,GT,34.277826,-118.5000792,270.4878796916008,33.260216,0.1,100.278076,1638908398434
Fix,GT,34.2777664,-118.4997239,269.97152318570016,33.522984,0.1,102.044556,1638908399434
Fix,GT,34.2776972,-118.4993686,269.4498262796998,33.65442,0.1,103.85373,1638908400434
Fix,GT,34.2776185,-118.499014,268.95731097602845,33.989124,0.1,105.58832,1638908401434
Fix,GT,34.2775294,-118.498661,268.601197532475,33.89836,0.1,107.7569,1638908402434
Fix,GT,34.2774307,-118.4983128,268.3801214687824,33.88738,0.1,109.53168,1638908403434
Fix,GT,34.277323,-118.4979686,268.32139386510846,33.80641,0.1,111.334564,1638908404434
Fix,GT,34.2772072,-118.4976308,268.40553805786374,33.47666,0.1,113.104675,1638908405434
Fix,GT,34.2770838,-118.4973015,268.64105211037395,33.025536,0.1,114.98923,1638908406434
Fix,GT,34.2769535,-118.4969819,268.9833244780302,32.54561,0.1,116.769226,1638908407434
Fix,GT,34.2768173,-118.4966719,269.4688251721859,32.046295,0.1,118.43713,1638908408434
Fix,GT,34.2766754,-118.4963708,270.085392580986,31.773136,0.1,120.19562,1638908409434
Fix,GT,34.2765269,-118.4960761,270.76565024602417,31.769653,0.1,121.736084,1638908410434
Fix,GT,34.2763716,-118.4957858,271.4220067858994,31.769463,0.1,123.47229,1638908411434
Fix,GT,34.2762096,-118.4955033,272.0087344257832,31.478428,0.1,125.32361,1638908412434
Fix,GT,34.276041,-118.4952291,272.4629839858412,31.3714,0.1,127.103455,1638908413434
Fix,GT,34.2758665,-118.4949626,272.8401962633729,31.070038,0.1,129.01605,1638908414434
Fix,GT,34.2756869,-118.4947062,273.1310228236317,30.790136,0.1,130.86035,1638908415434
Fix,GT,34.2755014,-118.4944573,273.3925982589126,30.780308,0.1,132.27704,1638908416434
Fix,GT,34.2753128,-118.4942137,273.536,30.624262,0.1,133.36389,1638908417434
Fix,GT,34.2751213,-118.4939754,273.770159011811,30.387009,0.1,134.18024,1638908418434
Fix,GT,34.2749303,-118.4937418,273.99674232035875,29.998425,0.1,134.3241,1638908419434
Fix,GT,34.2747417,-118.4935113,274.01356075233224,29.643143,0.1,134.20288,1638908420434
Fix,GT,34.2745549,-118.4932816,273.8963030722141,29.687592,0.1,134.16638,1638908421434
Fix,GT,34.2743661,-118.4930504,273.6220160577297,29.955128,0.1,134.5729,1638908422434
Fix,GT,34.2741758,-118.4928203,273.2247211320996,29.827948,0.1,134.59262,1638908423434
Fix,GT,34.2739866,-118.4925896,272.845205761224,29.99482,0.1,134.15082,1638908424434
Fix,GT,34.2737964,-118.4923545,272.43493341085315,30.471972,0.1,133.95508,1638908425434
Fix,GT,34.273604,-118.4921171,272.0253272577524,30.64169,0.1,134.23065,1638908426434
Fix,GT,34.2734096,-118.4918792,271.50105490994457,30.871742,0.1,134.34106,1638908427434
Fix,GT,34.2732131,-118.4916382,270.8403045079708,31.363873,0.1,134.04309,1638908428434
Fix,GT,34.2730148,-118.4913917,270.18505488574505,31.84696,0.1,133.83063,1638908429434
Fix,GT,34.2728125,-118.491143,269.52538727387787,32.29268,0.1,134.40137,1638908430434
Fix,GT,34.2726068,-118.4908913,268.8002965267897,32.723145,0.1,134.18448,1638908431434
Fix,GT,34.2723993,-118.4906358,268.1862737989426,33.120552,0.1,134.11237,1638908432434
Fix,GT,34.2721895,-118.4903777,267.5038345678449,33.362488,0.1,134.27075,1638908433434
Fix,GT,34.2719783,-118.4901194,266.71964508342745,33.489525,0.1,134.2727,1638908434434
Fix,GT,34.271766,-118.4898593,266.1299107327461,33.60115,0.1,134.36618,1638908435434
Fix,GT,34.2715538,-118.4896002,265.5563192160129,33.41521,0.1,134.27423,1638908436434
Fix,GT,34.2713435,-118.4893424,265.0613646066189,33.161297,0.1,134.37195,1638908437434
Fix,GT,34.2711346,-118.489087,264.6851523026228,32.875923,0.1,134.3096,1638908438434
Fix,GT,34.2709275,-118.4888338,264.37841673517227,32.590996,0.1,134.37878,1638908439434
Fix,GT,34.2707217,-118.4885823,264.1300161551237,32.52631,0.1,134.27081,1638908440434
Fix,GT,34.2705161,-118.4883298,263.9250307710171,32.649853,0.1,134.20883,1638908441434
Fix,GT,34.2703089,-118.4880756,263.78512154054647,32.994484,0.1,134.29352,1638908442434
Fix,GT,34.2700995,-118.4878196,263.65951538670066,33.089237,0.1,134.264,1638908443434
Fix,GT,34.2698913,-118.4875642,263.524682313323,32.852753,0.1,134.34375,1638908444434
Fix,GT,34.2696833,-118.4873101,263.43512154304983,32.911858,0.1,134.27975,1638908445434
Fix,GT,34.2694748,-118.4870549,263.2881669273376,33.004257,0.1,134.33508,1638908446434
Fix,GT,34.2692665,-118.4868011,263.18381062293054,32.76483,0.1,134.58057,1638908447434
Fix,GT,34.269059,-118.4865489,263.0473030779362,32.564247,0.1,134.45184,1638908448434
Fix,GT,34.2688548,-118.4862977,263.153181532383,32.18384,0.1,134.05032,1638908449434
Fix,GT,34.2686534,-118.486048,263.23743922722343,32.077526,0.1,133.90399,1638908450434
Fix,GT,34.2684522,-118.4857962,263.2178638507128,32.268246,0.1,133.76212,1638908451434
Fix,GT,34.2682506,-118.4855423,263.180166928649,32.425896,0.1,133.32184,1638908452434
Fix,GT,34.2680522,-118.4852838,263.1010907661915,32.35026,0.1,131.74002,1638908453434
Fix,GT,34.2678619,-118.4850184,263.18446843469144,32.294937,0.1,129.7063,1638908454434
Fix,GT,34.2676785,-118.4847461,263.0576744765043,32.25168,0.1,127.9975,1638908455434
Fix,GT,34.2675038,-118.4844682,262.90948617887494,31.978794,0.1,126.0235,1638908456434
Fix,GT,34.2673396,-118.484185,262.6359321834147,31.693308,0.1,123.60474,1638908457434
Fix,GT,34.2671864,-118.4838964,262.53051538968083,31.388145,0.1,121.33389,1638908458434
Fix,GT,34.2670431,-118.4836042,262.4140307793617,31.201593,0.1,119.58649,1638908459434
Fix,GT,34.2669078,-118.483307,262.26411372974513,31.238428,0.1,117.72217,1638908460434
Fix,GT,34.2667797,-118.4830041,262.1971669293046,31.443768,0.1,115.95236,1638908461434
Fix,GT,34.2666586,-118.4826931,262.0898638512492,31.822575,0.1,114.12955,1638908462434
Fix,GT,34.2665448,-118.482374,262.0632576954365,32.171867,0.1,111.987915,1638908463434
Fix,GT,34.2664408,-118.482047,261.991515391469,32.298798,0.1,109.74313,1638908464434
Fix,GT,34.2663461,-118.4817144,261.768,32.49199,0.1,107.960205,1638908465434
Fix,GT,34.2662585,-118.4813762,261.68947001045944,32.803326,0.1,106.329926,1638908466434
Fix,GT,34.2661802,-118.4810311,261.59512155139447,32.99813,0.1,103.77893,1638908467434
Fix,GT,34.2661158,-118.4806829,261.46860615777973,32.709908,0.1,101.063446,1638908468434
Fix,GT,34.2660638,-118.4803353,261.5345008056164,32.344738,0.1,99.43021,1638908469434
Fix,GT,34.2660193,-118.4799901,261.45188785439734,32.05854,0.1,97.90875,1638908470434
Fix,GT,34.2659828,-118.479646,261.1158262592554,31.825314,0.1,96.02661,1638908471434
Fix,GT,34.2659584,-118.4793036,261.0398716387153,31.49133,0.1,93.582855,1638908472434
Fix,GT,34.2659445,-118.4789638,260.8556369581222,31.200218,0.1,91.892914,1638908473434
Fix,GT,34.2659372,-118.4786267,260.65398542094226,30.917233,0.1,90.82181,1638908474434
Fix,GT,34.2659342,-118.4782925,260.4933108435869,30.63595,0.1,90.25491,1638908475434
Fix,GT,34.2659322,-118.4779613,260.3513870217502,30.375631,0.1,90.311584,1638908476434
Fix,GT,34.2659292,-118.4776328,260.11537926304345,30.14206,0.1,90.44925,1638908477434
Fix,GT,34.2659266,-118.4773067,259.9662499532998,29.973576,0.1,90.39172,1638908478434
Fix,GT,34.2659239,-118.4769809,259.82929625001555,30.044117,0.1,90.32684,1638908479434
Fix,GT,34.2659215,-118.4766557,259.6217354620099,29.85595,0.1,90.263,1638908480434
Fix,GT,34.2659195,-118.476331,259.3683261541724,29.984715,0.1,90.16824,1638908481434
Fix,GT,34.2659188,-118.4760048,259.05080390560624,30.091835,0.1,89.9162,1638908482434
Fix,GT,34.2659174,-118.4756775,258.50073623976107,30.211584,0.1,90.27396,1638908483434
Fix,GT,34.2659158,-118.4753483,257.88613009783626,30.453384,0.1,90.02307,1638908484434
Fix,GT,34.2659146,-118.4750161,257.2788423686921,30.744642,0.1,90.17325,1638908485434
Fix,GT,34.2659118,-118.4746804,256.6309486077428,31.113438,0.1,90.45828,1638908486434
Fix,GT,34.2659085,-118.4743398,255.86312319374085,31.619972,0.1,90.411804,1638908487434
Fix,GT,34.2659062,-118.4739937,255.0179946408272,32.130653,0.1,90.12323,1638908488434
Fix,GT,34.2659048,-118.4736422,254.10964615353944,32.604736,0.1,90.10272,1638908489434
Fix,GT,34.2659028,-118.4732861,253.1813884168268,32.984875,0.1,90.29895,1638908490434
Fix,GT,34.2659001,-118.4729262,252.45096375221016,33.29038,0.1,90.29184,1638908491434
Fix,GT,34.2658976,-118.4725635,251.8860086901784,33.520714,0.1,90.26486,1638908492434
Fix,GT,34.2658951,-118.4721984,251.50219772094488,33.721935,0.1,90.21106,1638908493434
Fix,GT,34.2658932,-118.4718319,251.30490174660085,33.727142,0.1,90.08725,1638908494434
Fix,GT,34.2658917,-118.4714671,251.3164846073389,33.478687,0.1,90.1214,1638908495434
Fix,GT,34.2658899,-118.4711039,251.5198476690054,33.477055,0.1,90.171844,1638908496434
Fix,GT,34.2658876,-118.47074,251.9170745876432,33.59719,0.1,90.311005,1638908497434
Fix,GT,34.2658851,-118.4703744,252.5013847457469,33.725212,0.1,90.26547,1638908498434
Fix,GT,34.2658827,-118.4700077,253.289225348413,33.81473,0.1,90.381836,1638908499434
Fix,GT,34.2658788,-118.4696406,254.233588420868,33.817577,0.1,90.625305,1638908500434
Fix,GT,34.2658752,-118.4692736,255.1647553538084,33.783764,0.1,90.36807,1638908501434
Fix,GT,34.2658722,-118.4689075,256.0348692696392,33.609226,0.099,90.34857,1638908502434
Fix,GT,34.2658698,-118.4685442,256.89231614089016,33.31839,0.1,90.17139,1638908503434
Fix,GT,34.2658677,-118.4681845,257.6894753934443,32.90623,0.1,90.34921,1638908504434
Fix,GT,34.2658645,-118.4678294,258.4032707767487,32.56708,0.1,90.34827,1638908505434
Fix,GT,34.2658625,-118.4674776,259.1318930846453,32.1778,0.1,90.14197,1638908506434
Fix,GT,34.2658609,-118.4671308,259.6537261724472,31.745863,0.1,90.13046,1638908507434
