MessageType,Provider,LatitudeDegrees,LongitudeDegrees,AltitudeMeters,SpeedMps,AccuracyMeters,BearingDegrees,UnixTimeMillis
Fix,GT,37.4843893,-122.1771741,-30.411000906318428,0.002,0.1,203.06697,1627415397437
Fix,GT,37.4843893,-122.1771741,-30.412000906348226,0.0016313673,0.1,203.06497,1627415398437
Fix,GT,37.4843892,-122.1771741,-30.412000906348226,0.0011535508,0.1,203.03395,1627415399437
Fix,GT,37.4843892,-122.1771741,-30.414742315053942,0.047152124,0.1,203.01607,1627415400437
Fix,GT,37.4843856,-122.1771755,-30.425370704233647,0.8127477,0.1,201.96962,1627415401437
Fix,GT,37.4843759,-122.1771789,-30.43537161123752,1.426385,0.1,199.09544,1627415402437
Fix,GT,37.4843612,-122.1771827,-30.44463020312786,1.8729634,0.1,194.87854,1627415403437
Fix,GT,37.4843434,-122.1771857,-30.473113020747903,2.2512448,0.1,190.15295,1627415404437
Fix,GT,37.4843166,-122.1771882,-30.46937070417404,3.6910632,0.1,185.49034,1627415405437
Fix,GT,37.4842778,-122.1771916,-30.54322422504425,4.91439,0.1,184.00543,1627415406437
Fix,GT,37.4842318,-122.1772004,-30.5305515499115,4.916811,0.1,190.91188,1627415407437
Fix,GT,37.4841978,-122.1772257,-30.489,3.9295936,0.1,213.70934,1627415408437
Fix,GT,37.4841832,-122.1772667,-30.488888796061275,3.8367295,0.1,245.83649,1627415409437
Fix,GT,37.484188,-122.1773142,-30.384293864786628,4.320503,0.1,277.50558,1627415410437
Fix,GT,37.4842122,-122.1773575,-30.31977667915821,4.7470045,0.1,306.5114,1627415411437
Fix,GT,37.4842515,-122.1773844,-30.241180846512314,5.0441537,0.1,334.23917,1627415412437
Fix,GT,37.4843002,-122.1773852,-30.251405071198946,5.664443,0.1,2.437317,1627415413437
Fix,GT,37.4843519,-122.1773619,-30.15399188867212,6.4600983,0.1,21.418762,1627415414437
Fix,GT,37.4844086,-122.1773289,-30.07066366404296,7.406065,0.1,25.008972,1627415415437
Fix,GT,37.4844724,-122.1772911,-30.21179469591379,8.15484,0.1,25.123749,1627415416437
Fix,GT,37.4845401,-122.1772532,-30.199888787806035,8.036446,0.1,23.48999,1627415417437
Fix,GT,37.4846025,-122.1772201,-30.11951808133721,6.8314905,0.1,23.584259,1627415418437
Fix,GT,37.4846482,-122.1771839,-29.96443944007158,5.1947575,0.1,36.740295,1627415419437
Fix,GT,37.4846692,-122.1771366,-29.793293848365543,4.337626,0.1,64.29883,1627415420437
Fix,GT,37.48467,-122.17709,-29.63432732808589,3.7231474,0.1,88.48541,1627415421437
Fix,GT,37.4846634,-122.1770516,-29.445328206360344,3.1690726,0.1,99.08917,1627415422437
Fix,GT,37.4846633,-122.1770153,-29.25047468078137,3.3589664,0.1,89.97873,1627415423437
Fix,GT,37.4846774,-122.176978,-29.11796476355195,4.1218834,0.1,66.60318,1627415424437
Fix,GT,37.4847067,-122.1769425,-29.380939392805097,4.756256,0.1,43.402283,1627415425437
Fix,GT,37.4847405,-122.1769185,-29.765490930646656,3.6570559,0.1,30.351044,1627415426437
Fix,GT,37.4847659,-122.1769007,-30.07742218211293,3.2756782,0.1,30.224365,1627415427437
Fix,GT,37.4847863,-122.1768726,-30.23186252021789,3.375842,0.1,47.51245,1627415428437
Fix,GT,37.4847958,-122.1768321,-30.13440417534113,3.7781694,0.1,72.08334,1627415429437
Fix,GT,37.4847918,-122.176785,-30.075774881601333,4.4179926,0.1,95.40524,1627415430437
Fix,GT,37.4847807,-122.1767322,-30.029516290336844,5.207891,0.1,104.03558,1627415431437
Fix,GT,37.4847682,-122.176671,-30.00525769841672,5.972798,0.1,104.206604,1627415432437
Fix,GT,37.4847543,-122.1766015,-29.989662773132324,6.689416,0.1,104.07031,1627415433437
Fix,GT,37.4847386,-122.1765244,-29.954560554564,7.3716574,0.1,104.95679,1627415434437
Fix,GT,37.484717,-122.1764413,-29.95499910727143,8.057564,0.1,108.05432,1627415435437
Fix,GT,37.4846933,-122.1763517,-29.934741407036785,8.610231,0.1,108.242004,1627415436437
Fix,GT,37.4846681,-122.1762568,-29.93137070351839,9.068977,0.1,108.09085,1627415437437
Fix,GT,37.4846453,-122.1761561,-29.92125948476792,9.472464,0.1,104.96979,1627415438437
Fix,GT,37.4846231,-122.1760504,-29.903111219137905,9.832396,0.1,104.57373,1627415439437
Fix,GT,37.4846006,-122.1759409,-29.886371594041584,10.157823,0.1,104.27466,1627415440437
Fix,GT,37.4845778,-122.1758278,-29.874965627193447,10.474553,0.1,103.96329,1627415441437
Fix,GT,37.4845547,-122.1757113,-29.857628406852484,10.745732,0.1,103.85208,1627415442437
Fix,GT,37.4845311,-122.1755916,-29.88488789016008,11.0384245,0.1,103.92221,1627415443437
Fix,GT,37.4845054,-122.1754694,-29.898671766579152,11.302715,0.1,105.15265,1627415444437
Fix,GT,37.4844767,-122.1753456,-29.87474229681492,11.451692,0.1,106.57788,1627415445437
Fix,GT,37.4844464,-122.1752223,-29.91622332763672,11.356384,0.1,107.247986,1627415446437
Fix,GT,37.4844165,-122.1751005,-29.97211121636629,11.161279,0.1,106.416565,1627415447437
Fix,GT,37.4843887,-122.1749819,-30.0125940271318,10.496593,0.1,106.263855,1627415448437
Fix,GT,37.4843635,-122.1748753,-30.0322233234644,8.793129,0.1,106.49185,1627415449437
Fix,GT,37.484345,-122.1747978,-30.105111211687323,5.5080385,0.1,106.64807,1627415450437
Fix,GT,37.4843349,-122.1747558,-30.142369804650546,2.389769,0.1,106.61832,1627415451437
Fix,GT,37.4843312,-122.1747403,-30.151369804382327,0.6289338,0.1,106.64038,1627415452437
Fix,GT,37.4843308,-122.1747389,-30.15836980417371,0.006663282,0.1,106.64734,1627415453437
Fix,GT,37.4843308,-122.1747389,-30.15899910119176,0.001931404,0.1,106.64984,1627415454437
Fix,GT,37.4843308,-122.1747389,-30.159,0.0029521864,0.1,106.64719,1627415455437
Fix,GT,37.4843308,-122.1747389,-30.15900089880824,0.002148557,0.1,106.647095,1627415456437
Fix,GT,37.4843308,-122.1747389,-30.158629297077653,0.002236068,0.1,106.64703,1627415457437
Fix,GT,37.4843309,-122.1747389,-30.147630195587872,0.0022360682,0.1,106.64694,1627415458437
Fix,GT,37.4843309,-122.1747389,-30.145000898391007,0.0022360682,0.1,106.64682,1627415459437
Fix,GT,37.4843309,-122.1747389,-30.145000898391007,0.0017188775,0.1,106.64661,1627415460437
Fix,GT,37.4843309,-122.1747389,-30.145000898391007,0.0022360682,0.1,106.646484,1627415461437
Fix,GT,37.4843309,-122.1747389,-30.145000898391007,0.0022360682,0.1,106.64667,1627415462437
Fix,GT,37.4843309,-122.1747389,-30.144999101608988,0.0026088378,0.1,106.64676,1627415463437
Fix,GT,37.4843309,-122.1747389,-30.14600089842081,0.0022360682,0.1,106.64661,1627415464437
Fix,GT,37.4843309,-122.1747389,-30.14600089842081,0.0024556573,0.1,106.646545,1627415465437
Fix,GT,37.4843309,-122.1747389,-30.14600089842081,0.0022360682,0.1,106.64673,1627415466437
Fix,GT,37.4843309,-122.1747389,-30.14600089842081,0.0022360682,0.1,106.6467,1627415467437
Fix,GT,37.4843309,-122.1747389,-30.14600089842081,0.0022360682,0.1,106.64642,1627415468437
Fix,GT,37.4843309,-122.1747389,-30.14562839874625,0.002236068,0.1,106.64642,1627415469437
Fix,GT,37.4843309,-122.1747389,-30.144999101608988,0.002,0.1,106.646484,1627415470437
Fix,GT,37.4843309,-122.1747389,-30.145000000000003,0.002148557,0.1,106.64664,1627415471437
Fix,GT,37.4843309,-122.1747389,-30.143,0.002,0.1,106.646545,1627415472437
Fix,GT,37.4843309,-122.1747389,-30.141,0.002236068,0.1,106.646454,1627415473437
Fix,GT,37.4843308,-122.1747382,-30.143999101638794,0.32386008,0.1,106.65262,1627415474437
Fix,GT,37.4843285,-122.1747281,-30.15137070280313,1.5948386,0.1,106.45642,1627415475437
Fix,GT,37.4843236,-122.1747038,-30.16636980381608,2.8514493,0.1,104.386444,1627415476437
Fix,GT,37.484321,-122.1746653,-30.143774884581568,3.9895158,0.1,95.34946,1627415477437
Fix,GT,37.4843277,-122.1746158,-30.061551566362382,4.955932,0.1,79.4953,1627415478437
Fix,GT,37.4843525,-122.1745637,-30.04474230092764,5.880986,0.1,55.775757,1627415479437
Fix,GT,37.4843992,-122.1745238,-30.12482003369928,6.8038406,0.1,30.06549,1627415480437
Fix,GT,37.4844595,-122.1744915,-30.199112108409405,7.7448635,0.1,22.314789,1627415481437
Fix,GT,37.484528,-122.1744591,-30.15251808708906,8.533805,0.1,20.607727,1627415482437
Fix,GT,37.4846031,-122.1744229,-30.117145588219167,9.213855,0.1,21.015137,1627415483437
Fix,GT,37.4846797,-122.174385,-30.08288878789544,9.058038,0.1,21.636566,1627415484437
Fix,GT,37.4847542,-122.1743473,-30.049852619260548,8.673871,0.1,22.020844,1627415485437
Fix,GT,37.484823,-122.1743126,-30.007292969584466,7.737581,0.1,21.77002,1627415486437
Fix,GT,37.4848828,-122.1742827,-29.937483704209328,6.547682,0.1,21.670746,1627415487437
Fix,GT,37.4849325,-122.1742576,-29.9272594859004,5.3240323,0.1,21.89627,1627415488437
Fix,GT,37.4849718,-122.1742377,-29.89340507870912,4.1047134,0.1,21.967255,1627415489437
Fix,GT,37.4850005,-122.1742232,-29.856664561718706,2.6811776,0.1,21.948212,1627415490437
Fix,GT,37.4850162,-122.1742153,-29.82963018587232,1.1184502,0.1,21.947205,1627415491437
Fix,GT,37.4850202,-122.1742133,-29.82837159207463,0.023088371,0.1,21.955261,1627415492437
Fix,GT,37.4850202,-122.1742133,-29.83437070316076,0.001,0.1,21.957794,1627415493437
Fix,GT,37.4850202,-122.1742133,-29.83599911081791,0.0006292968,0.1,21.956055,1627415494437
Fix,GT,37.4850202,-122.1742133,-29.83500088915229,0.0013707035,0.1,21.956635,1627415495437
Fix,GT,37.4850202,-122.1742133,-29.836,0.001,0.1,21.956696,1627415496437
Fix,GT,37.4850202,-122.1742133,-29.83599911081791,0.001,0.1,21.956604,1627415497437
Fix,GT,37.4850202,-122.1742133,-29.836,0.001,0.1,21.956757,1627415498437
Fix,GT,37.4850202,-122.1742133,-29.83600088918209,0.0014142136,0.1,21.956848,1627415499437
Fix,GT,37.4850202,-122.1742133,-29.83599911081791,0.00037070343,0.1,21.957,1627415500437
Fix,GT,37.4850202,-122.1742133,-29.83600088918209,0.0,0.1,21.95691,1627415501437
Fix,GT,37.4850202,-122.1742133,-29.83600088918209,0.00062929647,0.1,21.956818,1627415502437
Fix,GT,37.4850202,-122.1742133,-29.83600088918209,0.0,0.1,21.956696,1627415503437
Fix,GT,37.4850202,-122.1742133,-29.83600088918209,0.0010000002,0.1,21.956635,1627415504437
Fix,GT,37.4850202,-122.1742133,-29.83599911081791,0.0003707037,0.1,21.956451,1627415505437
Fix,GT,37.4850202,-122.1742133,-29.836,0.001,0.1,21.95639,1627415506437
Fix,GT,37.4850202,-122.1742133,-29.837,0.0014142136,0.1,21.95636,1627415507437
Fix,GT,37.4850202,-122.1742133,-29.838,0.0014142136,0.1,21.956451,1627415508437
Fix,GT,37.4850202,-122.1742133,-29.8389991107285,0.003926798,0.1,21.956665,1627415509437
Fix,GT,37.4850223,-122.1742123,-29.84574051812292,0.7587602,0.1,21.944824,1627415510437
Fix,GT,37.4850359,-122.1742056,-29.82525770354271,2.4220788,0.1,21.548523,1627415511437
Fix,GT,37.4850623,-122.1741938,-29.78751629659533,3.7857568,0.1,19.629364,1627415512437
Fix,GT,37.4851006,-122.1741803,-29.71951629862189,5.094109,0.1,15.522369,1627415513437
Fix,GT,37.4851524,-122.1741682,-29.59055067113042,6.5624785,0.1,9.497559,1627415514437
Fix,GT,37.4852166,-122.1741643,-29.39536169612408,7.6274004,0.1,0.38186646,1627415515437
Fix,GT,37.485286,-122.1741782,-29.19281014406681,8.114721,0.1,347.03244,1627415516437
Fix,GT,37.4853536,-122.1742183,-29.04477664116025,8.586903,0.1,328.9651,1627415517437
Fix,GT,37.4854093,-122.1742889,-29.01933633756637,9.215353,0.1,309.06982,1627415518437
Fix,GT,37.4854505,-122.1743858,-29.07325945806503,10.3578415,0.1,293.96188,1627415519437
Fix,GT,37.4854826,-122.1745025,-29.099853521168228,11.555635,0.1,287.5935,1627415520437
Fix,GT,37.4855156,-122.1746341,-29.129741408586504,12.81224,0.1,287.46817,1627415521437
Fix,GT,37.485555,-122.174777,-29.14374140870571,13.896172,0.1,289.94763,1627415522437
Fix,GT,37.4855998,-122.1749303,-29.182336340248582,14.984379,0.1,289.9525,1627415523437
Fix,GT,37.4856458,-122.1750956,-29.20111298391223,15.995144,0.1,288.4958,1627415524437
Fix,GT,37.4856909,-122.175273,-29.21988788604736,16.897839,0.1,286.9277,1627415525437
Fix,GT,37.4857353,-122.1754606,-29.207629295289514,17.708435,0.1,286.33542,1627415526437
Fix,GT,37.4857809,-122.1756557,-29.23711211448908,18.147614,0.1,286.29926,1627415527437
Fix,GT,37.4858269,-122.1758534,-29.24200087147951,18.261908,0.1,286.04547,1627415528437
Fix,GT,37.4858723,-122.1760523,-29.24222423005104,18.335144,0.1,285.8983,1627415529437
Fix,GT,37.4859182,-122.176252,-29.264,18.433344,0.1,286.13788,1627415530437
Fix,GT,37.4859645,-122.1764528,-29.27711211556196,18.530937,0.1,286.02005,1627415531437
Fix,GT,37.4860106,-122.1766549,-29.27588875669241,18.641518,0.1,285.62463,1627415532437
Fix,GT,37.4860556,-122.1768585,-29.281224232912063,18.745525,0.1,285.24722,1627415533437
Fix,GT,37.4860999,-122.1770636,-29.30322423362732,18.849161,0.1,284.95712,1627415534437
Fix,GT,37.4861436,-122.1772696,-29.303112990528344,18.750353,0.1,284.69617,1627415535437
Fix,GT,37.4861863,-122.177473,-29.295,18.435177,0.1,284.64523,1627415536437
Fix,GT,37.486228,-122.1776725,-29.278292940378183,18.052608,0.1,284.61993,1627415537437
Fix,GT,37.4862687,-122.1778679,-29.268740540087222,17.681335,0.1,284.56216,1627415538437
Fix,GT,37.4863085,-122.1780594,-29.307371579647064,17.342873,0.1,284.58932,1627415539437
Fix,GT,37.4863483,-122.1782457,-29.29799912685156,16.641893,0.1,285.19135,1627415540437
Fix,GT,37.486387,-122.1784198,-29.287740540236232,15.179687,0.1,285.6421,1627415541437
Fix,GT,37.4864209,-122.1785754,-29.31404255288839,13.362579,0.1,284.74573,1627415542437
Fix,GT,37.4864489,-122.1787121,-29.314112120389936,11.616838,0.1,284.03708,1627415543437
Fix,GT,37.4864707,-122.1788319,-29.31888787925244,10.238747,0.1,281.41248,1627415544437
Fix,GT,37.4864773,-122.1789425,-29.28214559224248,9.617297,0.1,268.6985,1627415545437
Fix,GT,37.4864561,-122.179045,-29.29462841981649,9.333466,0.1,248.52275,1627415546437
Fix,GT,37.4864075,-122.1791321,-29.337560609102248,9.704177,0.1,228.81517,1627415547437
Fix,GT,37.4863353,-122.1791985,-29.43843938910961,10.362852,0.1,210.23866,1627415548437
Fix,GT,37.4862458,-122.1792487,-29.52722424542904,11.509047,0.1,202.57729,1627415549437
Fix,GT,37.4861442,-122.1792989,-29.50051716899872,12.699453,0.1,200.86884,1627415550437
Fix,GT,37.486033,-122.1793517,-29.47688787639141,13.652094,0.1,200.9273,1627415551437
Fix,GT,37.4859155,-122.1794103,-29.412034336090088,14.357575,0.1,201.92972,1627415552437
Fix,GT,37.4857936,-122.1794729,-29.364180793821816,14.8566,0.1,202.34067,1627415553437
Fix,GT,37.4856679,-122.1795384,-29.312810084819795,15.346926,0.1,202.59663,1627415554437
Fix,GT,37.4855385,-122.1796068,-29.204922208189963,15.741151,0.1,202.834,1627415555437
Fix,GT,37.4854089,-122.1796763,-28.99610213026404,15.483428,0.1,203.50008,1627415556437
Fix,GT,37.4852833,-122.1797493,-28.710326388031245,15.2488785,0.1,206.20682,1627415557437
Fix,GT,37.4851648,-122.1798341,-28.423249445855618,15.076664,0.1,211.77107,1627415558437
Fix,GT,37.4850539,-122.1799324,-28.18580093580484,15.07127,0.1,217.40425,1627415559437
Fix,GT,37.4849518,-122.1800455,-27.90636156594753,15.149235,0.1,223.93466,1627415560437
Fix,GT,37.4848594,-122.1801733,-27.809586647182705,15.388629,0.1,230.04208,1627415561437
Fix,GT,37.4847767,-122.1803159,-27.76766444474459,15.796867,0.1,236.67331,1627415562437
Fix,GT,37.4847057,-122.1804735,-27.761404207676648,16.196375,0.1,242.7371,1627415563437
Fix,GT,37.4846422,-122.180639,-27.741707921147345,16.18346,0.1,244.86475,1627415564437
Fix,GT,37.4845818,-122.1808044,-27.89626690661907,15.9826355,0.1,245.55415,1627415565437
Fix,GT,37.4845228,-122.1809678,-28.13523257958889,15.791242,0.1,245.43723,1627415566437
Fix,GT,37.4844629,-122.1811308,-28.49286355879903,16.018139,0.1,244.97012,1627415567437
Fix,GT,37.4844007,-122.1812977,-28.852379016697405,16.60703,0.1,244.7493,1627415568437
Fix,GT,37.4843382,-122.1814717,-28.940888732761145,17.119057,0.1,246.58972,1627415569437
Fix,GT,37.4842842,-122.1816555,-28.89729203882813,17.514225,0.1,252.02208,1627415570437
Fix,GT,37.4842451,-122.1818492,-28.7083280749619,17.818602,0.1,258.5436,1627415571437
Fix,GT,37.4842237,-122.1820513,-28.388879541456703,18.267813,0.1,265.11377,1627415572437
Fix,GT,37.4842202,-122.1822607,-28.13917158985138,18.771156,0.1,271.32275,1627415573437
Fix,GT,37.4842337,-122.1824759,-27.87598164308072,19.386482,0.1,276.9188,1627415574437
Fix,GT,37.4842644,-122.1826956,-27.624844371795653,20.060421,0.1,282.17853,1627415575437
Fix,GT,37.4843098,-122.1829194,-27.53362928956747,20.800793,0.1,285.58392,1627415576437
Fix,GT,37.4843632,-122.1831484,-27.518337213635448,21.34467,0.1,286.6206,1627415577437
Fix,GT,37.4844192,-122.183381,-27.572741420865057,21.560947,0.1,287.00867,1627415578437
Fix,GT,37.4844767,-122.1836144,-27.62959497344493,21.662022,0.1,287.32007,1627415579437
Fix,GT,37.4845346,-122.1838498,-27.708853552758693,21.95064,0.1,286.5246,1627415580437
Fix,GT,37.4845882,-122.1840906,-27.801337224215267,22.286417,0.1,285.00708,1627415581437
Fix,GT,37.4846415,-122.1843359,-27.859112132012843,22.692528,0.1,285.97235,1627415582437
Fix,GT,37.4847003,-122.1845839,-27.92437071073056,23.048584,0.1,286.79523,1627415583437
Fix,GT,37.4847614,-122.1848347,-27.95762928926945,23.351727,0.1,287.0437,1627415584437
Fix,GT,37.4848231,-122.1850903,-27.989742255657912,23.909857,0.1,286.45337,1627415585437
Fix,GT,37.4848841,-122.1853533,-28.025483678221704,24.52942,0.1,285.94513,1627415586437
Fix,GT,37.4849451,-122.1856233,-28.043112132370474,25.117413,0.1,285.7112,1627415587437
Fix,GT,37.4850068,-122.1859003,-28.09111296978593,25.786572,0.1,285.4129,1627415588437
Fix,GT,37.4850687,-122.186185,-28.1108887051642,26.398869,0.1,284.98633,1627415589437
Fix,GT,37.4851296,-122.1864765,-28.131569858193394,26.863194,0.1,284.33334,1627415590437
Fix,GT,37.4851892,-122.186773,-28.16285355484485,27.247883,0.1,283.89218,1627415591437
Fix,GT,37.4852478,-122.1870745,-28.197112133085728,27.672094,0.1,283.38104,1627415592437
Fix,GT,37.4853047,-122.1873816,-28.220482844352723,28.04805,0.1,282.69373,1627415593437
Fix,GT,37.4853593,-122.1876925,-28.23011213344336,28.268017,0.1,282.12082,1627415594437
Fix,GT,37.485412,-122.1880066,-28.25748368704319,28.503376,0.1,281.4948,1627415595437
Fix,GT,37.4854618,-122.1883238,-28.288147286325696,28.703886,0.1,280.8036,1627415596437
Fix,GT,37.4855095,-122.1886438,-28.33637071144581,28.831863,0.1,280.38742,1627415597437
Fix,GT,37.4855558,-122.1889648,-28.347,28.88134,0.1,279.9943,1627415598437
Fix,GT,37.4855998,-122.1892865,-28.37707867312432,28.794563,0.1,279.43207,1627415599437
Fix,GT,37.4856414,-122.1896063,-28.4179991530776,28.541016,0.1,278.99832,1627415600437
Fix,GT,37.4856814,-122.1899239,-28.483706270158287,28.342606,0.1,278.91895,1627415601437
Fix,GT,37.4857214,-122.1902397,-28.61270797213912,28.252483,0.1,278.8747,1627415602437
Fix,GT,37.4857612,-122.1905549,-28.742740567684173,28.195911,0.1,278.91467,1627415603437
Fix,GT,37.4858005,-122.1908694,-28.770742281794547,28.113394,0.1,278.76215,1627415604437
Fix,GT,37.4858392,-122.1911831,-28.81348284959793,28.039604,0.1,278.4792,1627415605437
Fix,GT,37.4858765,-122.1914966,-28.86037071251869,28.016205,0.1,278.38516,1627415606437
Fix,GT,37.485914,-122.1918096,-28.89848371186853,27.975105,0.1,278.51794,1627415607437
Fix,GT,37.4859517,-122.1921223,-28.937594127595425,27.95899,0.1,278.51086,1627415608437
Fix,GT,37.4859898,-122.1924348,-28.966225141346456,27.980896,0.1,278.72885,1627415609437
Fix,GT,37.4860286,-122.1927478,-29.007146434128288,28.048439,0.1,278.72528,1627415610437
Fix,GT,37.4860675,-122.1930613,-29.058448560237885,28.097366,0.1,278.79132,1627415611437
Fix,GT,37.4861068,-122.1933755,-29.098404137790205,28.146147,0.1,278.8798,1627415612437
Fix,GT,37.4861462,-122.1936902,-29.130853568851947,28.206348,0.1,278.88135,1627415613437
Fix,GT,37.4861858,-122.1940055,-29.17022428369522,28.260077,0.1,278.83636,1627415614437
Fix,GT,37.4862252,-122.1943214,-29.211335556954147,28.280457,0.1,278.78198,1627415615437
Fix,GT,37.4862644,-122.1946369,-29.221740557938816,28.172516,0.1,278.78674,1627415616437
Fix,GT,37.4863036,-122.1949508,-29.22625944164396,28.04564,0.1,278.85956,1627415617437
Fix,GT,37.4863428,-122.1952634,-29.2359991286993,27.920265,0.1,278.90918,1627415618437
Fix,GT,37.4863822,-122.1955746,-29.22674230134487,27.823586,0.1,278.92065,1627415619437
Fix,GT,37.486421,-122.195885,-29.251888725578784,27.752937,0.1,278.72598,1627415620437
Fix,GT,37.486459,-122.1961949,-29.24811214703321,27.704905,0.1,278.57907,1627415621437
Fix,GT,37.4864967,-122.1965044,-29.237369844615458,27.677382,0.1,278.62292,1627415622437
Fix,GT,37.4865344,-122.1968139,-29.219370716273783,27.725563,0.1,278.59937,1627415623437
Fix,GT,37.4865724,-122.1971242,-29.225741433262822,27.812796,0.1,278.74014,1627415624437
Fix,GT,37.4866112,-122.1974354,-29.22574143385887,27.90488,0.1,278.8828,1627415625437
Fix,GT,37.4866506,-122.1977475,-29.20285358643532,27.987482,0.1,278.98825,1627415626437
Fix,GT,37.4866907,-122.1980604,-29.206258564949035,28.079578,0.1,279.0467,1627415627437
Fix,GT,37.4867309,-122.1983743,-29.18836984798312,28.170774,0.1,279.0205,1627415628437
Fix,GT,37.4867706,-122.1986896,-29.20136984795332,28.275799,0.1,278.73682,1627415629437
Fix,GT,37.4868092,-122.1990063,-29.195482873916625,28.398096,0.1,278.5827,1627415630437
Fix,GT,37.4868481,-122.1993244,-29.180629281163213,28.543282,0.1,278.67374,1627415631437
Fix,GT,37.4868874,-122.1996444,-29.197628410667186,28.72871,0.1,278.6856,1627415632437
Fix,GT,37.4869271,-122.1999665,-29.193999129951003,28.919735,0.1,278.71515,1627415633437
Fix,GT,37.4869671,-122.2002906,-29.189370719850064,29.096462,0.1,278.64047,1627415634437
Fix,GT,37.4870066,-122.2006167,-29.173112160444266,29.235508,0.1,278.5473,1627415635437
Fix,GT,37.4870458,-122.2009442,-29.17974057158828,29.35181,0.1,278.64124,1627415636437
Fix,GT,37.4870873,-122.2012729,-29.18563014891744,29.50719,0.1,279.20984,1627415637437
Fix,GT,37.4871309,-122.2016023,-29.192630148768423,29.54541,0.1,279.26666,1627415638437
Fix,GT,37.4871731,-122.2019323,-29.1912594267726,29.568394,0.1,278.78708,1627415639437
Fix,GT,37.4872139,-122.2022629,-29.18225768646598,29.600605,0.1,278.6324,1627415640437
Fix,GT,37.4872543,-122.202594,-29.19974144458771,29.638474,0.1,278.72064,1627415641437
Fix,GT,37.4872954,-122.2029254,-29.201112168133257,29.68573,0.1,278.7648,1627415642437
Fix,GT,37.4873363,-122.2032573,-29.18451797765493,29.70478,0.1,278.60297,1627415643437
Fix,GT,37.487377,-122.2035881,-29.195258553147315,29.457506,0.1,278.7666,1627415644437
Fix,GT,37.4874178,-122.2039155,-29.19262840616703,29.183577,0.1,278.87408,1627415645437
Fix,GT,37.4874586,-122.2042404,-29.187999999999995,29.009018,0.1,278.7231,1627415646437
Fix,GT,37.4874981,-122.2045644,-29.19951623162628,28.981474,0.1,278.5479,1627415647437
Fix,GT,37.4875374,-122.2048887,-29.19314550548792,29.048567,0.1,278.6573,1627415648437
Fix,GT,37.4875774,-122.2052138,-29.17714637362957,29.121376,0.1,278.67828,1627415649437
Fix,GT,37.4876177,-122.2055395,-29.100551290988925,29.19389,0.1,278.85638,1627415650437
Fix,GT,37.487659,-122.2058659,-29.039853630840778,29.280504,0.1,279.0034,1627415651437
Fix,GT,37.4877012,-122.2061933,-29.021517093896865,29.358562,0.1,279.02847,1627415652437
Fix,GT,37.4877432,-122.2065216,-29.030551277399063,29.438938,0.1,279.01123,1627415653437
Fix,GT,37.4877856,-122.2068504,-28.98025768175721,29.487936,0.1,279.29077,1627415654437
Fix,GT,37.4878305,-122.2071794,-28.970886953681703,29.553871,0.1,280.06323,1627415655437
Fix,GT,37.4878792,-122.2075083,-28.904629272043707,29.623575,0.1,280.77637,1627415656437
Fix,GT,37.4879307,-122.2078374,-28.87200086045265,29.6828,0.1,281.2798,1627415657437
Fix,GT,37.4879844,-122.2081664,-28.87948377519846,29.722424,0.1,281.76733,1627415658437
Fix,GT,37.4880411,-122.2084954,-28.861113047093152,29.804346,0.1,282.4778,1627415659437
Fix,GT,37.488101,-122.2088245,-28.83488781219721,29.923431,0.1,283.04025,1627415660437
Fix,GT,37.4881633,-122.2091544,-28.784370729625223,30.04736,0.1,283.46167,1627415661437
Fix,GT,37.4882279,-122.2094852,-28.7826284121871,30.17462,0.1,283.8947,1627415662437
Fix,GT,37.4882946,-122.2098166,-28.75500085696578,30.283932,0.1,284.23438,1627415663437
Fix,GT,37.4883632,-122.2101486,-28.70925939428806,30.377449,0.1,284.85794,1627415664437
Fix,GT,37.4884368,-122.21048,-28.611326842069623,30.461632,0.1,286.13074,1627415665437
Fix,GT,37.4885149,-122.2108102,-28.24423820349574,30.473427,0.1,286.78998,1627415666437
Fix,GT,37.4885962,-122.2111391,-27.557038204550743,30.386599,0.1,287.5314,1627415667437
Fix,GT,37.4886803,-122.2114653,-26.65059997522831,30.27034,0.1,288.21872,1627415668437
Fix,GT,37.4887674,-122.211789,-25.790375551700592,30.158176,0.1,288.95288,1627415669437
Fix,GT,37.4888574,-122.2121103,-24.951565778374672,30.075085,0.1,289.57782,1627415670437
Fix,GT,37.488949,-122.2124298,-24.182712801009416,29.929695,0.1,289.94073,1627415671437
Fix,GT,37.4890414,-122.2127441,-23.34919498306513,29.322056,0.1,290.3751,1627415672437
Fix,GT,37.4891339,-122.2130513,-22.810946239829065,28.756119,0.1,290.75873,1627415673437
Fix,GT,37.4892268,-122.2133518,-22.452395032644272,28.307514,0.1,291.5078,1627415674437
Fix,GT,37.4893215,-122.2136479,-22.19810302850604,28.150906,0.1,292.09787,1627415675437
Fix,GT,37.4894183,-122.2139421,-22.07166338402033,28.14927,0.1,292.61487,1627415676437
Fix,GT,37.4895172,-122.2142355,-22.08425852894783,28.199879,0.1,293.1928,1627415677437
Fix,GT,37.4896187,-122.2145279,-22.12147307193279,28.138733,0.1,293.89807,1627415678437
Fix,GT,37.4897224,-122.2148166,-22.30357159262896,27.890858,0.1,294.46725,1627415679437
Fix,GT,37.4898274,-122.2151018,-22.8318301499188,27.693094,0.1,295.13663,1627415680437
Fix,GT,37.4899347,-122.2153833,-23.3312442317009,27.496132,0.1,295.77795,1627415681437
Fix,GT,37.4900437,-122.2156616,-24.055141959428788,27.364378,0.1,296.42416,1627415682437
Fix,GT,37.4901548,-122.2159372,-24.80680461150408,27.249638,0.1,297.10095,1627415683437
Fix,GT,37.4902677,-122.21621,-25.56280538350344,27.116476,0.1,297.6034,1627415684437
Fix,GT,37.4903821,-122.2164801,-26.33506315085292,26.998991,0.1,298.25406,1627415685437
Fix,GT,37.4904999,-122.2167467,-27.11180464115739,26.914309,0.1,299.72177,1627415686437
Fix,GT,37.4906225,-122.2170084,-27.81309891051054,26.777233,0.1,300.98105,1627415687437
Fix,GT,37.4907477,-122.2172662,-28.38283044886589,26.605131,0.1,301.19922,1627415688437
Fix,GT,37.4908704,-122.2175236,-28.7024148106575,26.47008,0.1,300.3758,1627415689437
Fix,GT,37.4909903,-122.2177818,-28.80648296356201,26.399454,0.1,299.89575,1627415690437
Fix,GT,37.4911079,-122.2180409,-28.81756197783352,26.34658,0.1,299.23993,1627415691437
Fix,GT,37.4912244,-122.2183008,-28.81077555000782,26.411749,0.1,299.21487,1627415692437
Fix,GT,37.4913407,-122.2185622,-28.813965936660765,26.553238,0.1,299.0158,1627415693437
Fix,GT,37.4914571,-122.2188255,-28.85492183315754,26.697922,0.1,298.87808,1627415694437
Fix,GT,37.4915738,-122.2190903,-28.860257654100657,26.83741,0.1,298.85486,1627415695437
Fix,GT,37.4916917,-122.2193561,-28.85277554035187,26.948433,0.1,299.15088,1627415696437
Fix,GT,37.4918108,-122.2196221,-28.85281880709529,27.015335,0.1,299.24487,1627415697437
Fix,GT,37.4919305,-122.2198888,-28.851887768208982,27.131,0.1,299.275,1627415698437
Fix,GT,37.4920505,-122.2201571,-28.94741488575936,27.324095,0.1,299.0994,1627415699437
Fix,GT,37.492171,-122.220428,-29.05861828610301,27.53674,0.1,299.06485,1627415700437
Fix,GT,37.4922925,-122.2207005,-29.044079060167075,27.686798,0.1,299.20673,1627415701437
Fix,GT,37.4924149,-122.2209744,-29.018844470411537,27.850098,0.1,299.1076,1627415702437
Fix,GT,37.4925375,-122.2212507,-28.87888862434029,28.068436,0.1,298.91125,1627415703437
Fix,GT,37.4926601,-122.2215297,-28.8291462714076,28.30476,0.1,298.74887,1627415704437
Fix,GT,37.4927835,-122.2218112,-28.69392093887925,28.505566,0.1,298.81683,1627415705437
Fix,GT,37.4929088,-122.2220939,-28.593180299460887,28.725517,0.1,299.21786,1627415706437
Fix,GT,37.4930359,-122.2223784,-28.468732188612226,28.951206,0.1,299.2645,1627415707437
Fix,GT,37.4931637,-122.222665,-28.368517858922484,29.142067,0.1,298.91083,1627415708437
Fix,GT,37.4932897,-122.2229554,-28.41248383423686,29.343561,0.1,298.103,1627415709437
Fix,GT,37.4934135,-122.2232496,-28.486,29.494167,0.1,297.5507,1627415710437
Fix,GT,37.4935362,-122.2235463,-28.487414945364,29.646648,0.1,297.29047,1627415711437
Fix,GT,37.4936583,-122.2238452,-28.391438788294792,29.732368,0.1,296.92422,1627415712437
Fix,GT,37.4937786,-122.2241461,-28.30003486272693,29.815739,0.1,296.2693,1627415713437
Fix,GT,37.4938965,-122.2244496,-28.00372111415863,29.892563,0.1,295.60297,1627415714437
Fix,GT,37.4940119,-122.2247552,-27.53384436583519,29.933445,0.1,295.04382,1627415715437
Fix,GT,37.4941254,-122.225063,-27.247101229667663,30.03455,0.1,294.43716,1627415716437
Fix,GT,37.4942369,-122.2253728,-27.00103401279449,30.12582,0.1,294.1129,1627415717437
Fix,GT,37.4943467,-122.2256849,-27.01543957704305,30.223427,0.1,293.37357,1627415718437
Fix,GT,37.4944538,-122.2259989,-26.98477631226182,30.093605,0.1,292.82043,1627415719437
Fix,GT,37.4945566,-122.2263115,-26.974000000000004,29.728165,0.1,292.05624,1627415720437
Fix,GT,37.4946561,-122.2266215,-26.964853744983674,29.363262,0.1,291.71893,1627415721437
Fix,GT,37.4947521,-122.2269286,-26.980819738507268,28.970753,0.1,291.106,1627415722437
Fix,GT,37.4948443,-122.2272326,-27.02978573393821,28.56715,0.1,290.22162,1627415723437
Fix,GT,37.4949305,-122.2275347,-27.258346976757046,28.186855,0.1,289.4716,1627415724437
Fix,GT,37.4950153,-122.227833,-27.7525706500113,27.842419,0.1,289.78882,1627415725437
Fix,GT,37.4951,-122.2281277,-28.30087338143587,27.55962,0.1,289.60028,1627415726437
Fix,GT,37.4951833,-122.2284196,-28.756750884085893,27.271744,0.1,289.67722,1627415727437
Fix,GT,37.4952655,-122.2287086,-28.94248299908638,27.083252,0.1,289.26846,1627415728437
Fix,GT,37.4953485,-122.2289975,-28.9546734969616,27.376392,0.1,290.19183,1627415729437
Fix,GT,37.495436,-122.2292906,-28.935044247925283,28.04,0.1,290.70816,1627415730437
Fix,GT,37.4955299,-122.2295836,-29.062931132763623,27.60884,0.1,293.2099,1627415731437
Fix,GT,37.4956282,-122.2298625,-29.12530275118351,26.132782,0.1,293.73798,1627415732437
Fix,GT,37.4957202,-122.2301228,-29.154112250745296,24.1949,0.1,294.011,1627415733437
Fix,GT,37.4958048,-122.2303624,-29.109258499383927,22.14323,0.1,293.53387,1627415734437
Fix,GT,37.4958808,-122.230581,-29.104819756329057,20.091022,0.1,293.75577,1627415735437
Fix,GT,37.4959512,-122.2307807,-29.307595253825184,18.612282,0.1,293.6228,1627415736437
Fix,GT,37.4960172,-122.2309666,-29.32474150133133,17.299969,0.1,294.26373,1627415737437
Fix,GT,37.4960834,-122.2311341,-29.34970838272572,15.765382,0.1,298.42786,1627415738437
Fix,GT,37.4961576,-122.2312785,-29.32655186292529,14.726978,0.1,306.37115,1627415739437
Fix,GT,37.4962441,-122.2314007,-29.11273035725951,14.173122,0.1,315.18982,1627415740437
Fix,GT,37.4963414,-122.2315002,-28.97366237640381,13.692057,0.1,324.3898,1627415741437
Fix,GT,37.4964458,-122.2315779,-28.80035960936546,13.204203,0.1,332.24048,1627415742437
Fix,GT,37.4965532,-122.2316357,-28.53884347093105,12.705284,0.1,339.55307,1627415743437
Fix,GT,37.4966614,-122.2316734,-28.331404739916326,12.1923065,0.1,347.58176,1627415744437
Fix,GT,37.4967675,-122.2316952,-28.15169722348452,11.531717,0.1,351.90884,1627415745437
Fix,GT,37.4968652,-122.2317158,-28.052516993284225,10.671385,0.1,349.01566,1627415746437
Fix,GT,37.4969558,-122.2317463,-28.0320008354187,10.172314,0.1,342.7258,1627415747437
Fix,GT,37.4970373,-122.2317909,-27.98737158596516,9.621136,0.1,332.62515,1627415748437
Fix,GT,37.4971046,-122.2318531,-27.980113089859486,9.104178,0.1,319.6758,1627415749437
Fix,GT,37.497161,-122.2319264,-28.03948217266798,8.963973,0.1,313.35495,1627415750437
Fix,GT,37.4972141,-122.2320013,-28.061662393927577,8.758677,0.1,310.38745,1627415751437
Fix,GT,37.4972592,-122.232079,-27.96692172366381,8.143169,0.1,303.57315,1627415752437
Fix,GT,37.4972907,-122.2321541,-27.898630078971387,6.84459,0.1,295.72922,1627415753437
Fix,GT,37.4973112,-122.2322169,-27.844888572067024,4.9442024,0.1,291.97302,1627415754437
Fix,GT,37.4973233,-122.232257,-27.80788857060671,2.7446527,0.1,290.81918,1627415755437
Fix,GT,37.4973296,-122.2322784,-27.78762924718857,1.4523997,0.1,290.42374,1627415756437
Fix,GT,37.4973332,-122.2322905,-27.773,0.9235568,0.1,290.34625,1627415757437
Fix,GT,37.4973363,-122.2323014,-27.762629247009755,1.1883268,0.1,290.2873,1627415758437
Fix,GT,37.4973405,-122.2323154,-27.746629246890546,1.4521754,0.1,290.21445,1627415759437
Fix,GT,37.4973461,-122.2323342,-27.73963007351756,2.2745433,0.1,290.17062,1627415760437
Fix,GT,37.4973558,-122.2323675,-27.700516987085344,4.0866375,0.1,290.07025,1627415761437
Fix,GT,37.4973713,-122.2324206,-27.64929246592521,5.8364096,0.1,289.93466,1627415762437
Fix,GT,37.4973907,-122.2324892,-27.46387739598751,6.805636,0.1,288.91525,1627415763437
Fix,GT,37.4974011,-122.2325647,-27.24169718903304,6.677557,0.1,275.1026,1627415764437
Fix,GT,37.4973892,-122.2326362,-27.08192251679301,6.588505,0.1,252.98604,1627415765437
Fix,GT,37.4973522,-122.2326977,-27.00243869441748,7.19283,0.1,227.0095,1627415766437
Fix,GT,37.4972938,-122.2327409,-26.84058492231369,8.054081,0.1,207.01335,1627415767437
Fix,GT,37.4972213,-122.2327776,-26.44794531583786,9.299993,0.1,200.83832,1627415768437
Fix,GT,37.4971387,-122.2328159,-25.945058345139024,10.193539,0.1,200.012,1627415769437
Fix,GT,37.4970492,-122.2328567,-25.378901729404927,10.977329,0.1,199.74185,1627415770437
Fix,GT,37.4969525,-122.2329004,-24.81546302056313,11.850099,0.1,199.76703,1627415771437
Fix,GT,37.4968485,-122.2329487,-24.341204509466888,12.776621,0.1,200.22176,1627415772437
Fix,GT,37.4967367,-122.2330008,-23.9530582652688,13.651396,0.1,200.36728,1627415773437
Fix,GT,37.4966185,-122.2330564,-23.534315331757067,14.202309,0.1,200.51411,1627415774437
Fix,GT,37.4964996,-122.2331123,-23.18147263598442,13.95805,0.1,200.28104,1627415775437
Fix,GT,37.4963826,-122.233166,-23.03966320431233,13.666942,0.1,199.87088,1627415776437
Fix,GT,37.4962688,-122.2332177,-23.039853775978088,13.2056465,0.1,199.83554,1627415777437
Fix,GT,37.4961585,-122.2332684,-23.17341510748864,12.919121,0.1,200.15991,1627415778437
Fix,GT,37.4960511,-122.2333219,-23.494122663021088,12.671986,0.1,202.1638,1627415779437
Fix,GT,37.4959485,-122.2333755,-23.86064933854341,11.964971,0.1,202.6026,1627415780437
Fix,GT,37.495853,-122.2334261,-24.35905403959751,10.903644,0.1,202.82489,1627415781437
Fix,GT,37.4957681,-122.2334732,-24.89587385568023,9.735059,0.1,204.44815,1627415782437
Fix,GT,37.4956918,-122.2335245,-25.525806702256205,9.674078,0.1,210.41905,1627415783437
Fix,GT,37.4956211,-122.2335927,-26.284547438710927,10.106734,0.1,220.97362,1627415784437
Fix,GT,37.4955604,-122.233682,-27.113480338513853,10.614954,0.1,233.21771,1627415785437
Fix,GT,37.4955137,-122.2337908,-27.951694464206696,11.142521,0.1,245.66342,1627415786437
Fix,GT,37.4954862,-122.2339136,-28.58976237106323,11.372166,0.1,258.7054,1627415787437
Fix,GT,37.4954823,-122.2340428,-29.03546038377285,11.4662,0.1,272.50775,1627415788437
Fix,GT,37.4955038,-122.2341699,-29.41089816904068,11.478986,0.1,286.9657,1627415789437
Fix,GT,37.4955489,-122.2342865,-29.624932114601137,11.388144,0.1,300.54028,1627415790437
Fix,GT,37.4956134,-122.2343852,-29.686370757281782,11.163009,0.1,313.9829,1627415791437
Fix,GT,37.4956927,-122.2344604,-29.6797415150404,10.894791,0.1,327.4216,1627415792437
Fix,GT,37.4957816,-122.2345092,-29.670887727081777,10.602511,0.1,340.70578,1627415793437
Fix,GT,37.4958748,-122.2345313,-29.65077633664012,10.49903,0.1,353.36096,1627415794437
Fix,GT,37.4959712,-122.2345269,-29.594886844247576,10.945753,0.1,6.2185974,1627415795437
Fix,GT,37.4960688,-122.2344939,-29.536550902605057,11.484234,0.1,19.638153,1627415796437
Fix,GT,37.4961614,-122.2344293,-29.513516087323428,11.973669,0.1,34.28781,1627415797437
Fix,GT,37.4962393,-122.2343344,-29.487742395669223,12.01536,0.1,49.725677,1627415798437
Fix,GT,37.4962939,-122.2342168,-29.48270758533478,12.126986,0.1,65.35565,1627415799437
Fix,GT,37.4963222,-122.2340817,-29.538517845630643,12.6274,0.1,80.82172,1627415800437
Fix,GT,37.4963215,-122.233934,-29.43269797772169,13.603523,0.1,95.86136,1627415801437
Fix,GT,37.4962945,-122.2337762,-29.3139225256145,14.967179,0.1,104.68439,1627415802437
Fix,GT,37.4962554,-122.2336057,-29.22703392791748,16.40945,0.1,106.18851,1627415803437
Fix,GT,37.4962107,-122.2334199,-29.19974151813984,18.165653,0.1,106.760376,1627415804437
Fix,GT,37.4961607,-122.2332115,-29.14137075918913,20.271233,0.1,106.40912,1627415805437
Fix,GT,37.4961055,-122.2329835,-29.114999999999995,21.817387,0.1,107.24353,1627415806437
Fix,GT,37.4960425,-122.2327405,-29.0874046844244,23.378891,0.1,108.289795,1627415807437
Fix,GT,37.4959735,-122.2324836,-29.04558567789197,24.505337,0.1,108.36694,1627415808437
Fix,GT,37.4959015,-122.2322163,-28.976663165152072,25.339447,0.1,108.81271,1627415809437
Fix,GT,37.4958252,-122.2319435,-28.884404683172704,25.777311,0.1,109.34195,1627415810437
Fix,GT,37.4957476,-122.231667,-28.851033923149107,26.015493,0.1,109.30261,1627415811437
Fix,GT,37.4956708,-122.2313903,-28.842775442004204,25.767246,0.1,108.895874,1627415812437
Fix,GT,37.4955958,-122.2311166,-28.84485465836525,25.42891,0.1,108.944855,1627415813437
Fix,GT,37.4955215,-122.2308465,-28.84425848031044,25.111868,0.1,109.017975,1627415814437
Fix,GT,37.4954472,-122.23058,-28.82374066087604,24.805347,0.1,109.3306,1627415815437
Fix,GT,37.4953727,-122.2303175,-28.819516960144043,24.491154,0.1,109.760956,1627415816437
Fix,GT,37.4952976,-122.2300588,-28.8007415201664,24.227402,0.1,110.07138,1627415817437
Fix,GT,37.4952225,-122.2298021,-28.83062838059664,24.159729,0.1,110.03519,1627415818437
Fix,GT,37.4951476,-122.229545,-28.84388771903515,24.285896,0.1,109.933105,1627415819437
Fix,GT,37.4950725,-122.2292851,-28.86714533758164,24.674175,0.1,109.73956,1627415820437
Fix,GT,37.4949967,-122.2290201,-28.84511142197252,25.130867,0.1,109.56778,1627415821437
Fix,GT,37.4949198,-122.2287494,-28.81218097114563,25.676788,0.1,109.434875,1627415822437
Fix,GT,37.4948421,-122.2284727,-28.6774394441843,26.203636,0.1,109.22122,1627415823437
Fix,GT,37.4947636,-122.2281914,-28.39517041355372,26.460102,0.1,109.23935,1627415824437
Fix,GT,37.4946843,-122.2279085,-27.97261785784364,26.589983,0.1,109.30887,1627415825437
Fix,GT,37.4946038,-122.2276246,-27.65650558051467,26.69635,0.1,109.58032,1627415826437
Fix,GT,37.494522,-122.22734,-27.42940467107296,26.785236,0.1,109.9137,1627415827437
Fix,GT,37.4944388,-122.2270568,-27.338809339642523,26.600237,0.1,110.42761,1627415828437
Fix,GT,37.4943537,-122.2267757,-27.33751613882184,26.647682,0.1,111.07623,1627415829437
Fix,GT,37.494266,-122.2264941,-27.328741523623464,26.798008,0.1,111.4274,1627415830437
Fix,GT,37.4941763,-122.2262117,-27.34470761990548,26.973713,0.1,112.00308,1627415831437
Fix,GT,37.4940826,-122.2259294,-27.369403848856685,27.107891,0.1,113.10632,1627415832437
Fix,GT,37.4939855,-122.2256479,-27.379706808507443,27.151094,0.1,113.55908,1627415833437
Fix,GT,37.4938861,-122.225367,-27.578167366743088,27.240139,0.1,114.136475,1627415834437
Fix,GT,37.4937846,-122.2250856,-28.068200438559057,27.376205,0.1,114.3277,1627415835437
Fix,GT,37.493681,-122.2248044,-28.307898312091822,27.411257,0.1,115.13791,1627415836437
Fix,GT,37.4935741,-122.2245247,-28.611719091147183,27.467936,0.1,115.911896,1627415837437
Fix,GT,37.4934651,-122.2242453,-28.91156231322884,27.560612,0.1,115.52673,1627415838437
Fix,GT,37.4933584,-122.2239622,-29.00325847280025,27.815228,0.1,114.97296,1627415839437
Fix,GT,37.4932509,-122.2236768,-28.956034752577544,28.026274,0.1,115.68213,1627415840437
Fix,GT,37.4931378,-122.2233919,-28.93892073357105,28.256073,0.1,117.019226,1627415841437
Fix,GT,37.49302,-122.2231071,-28.89432624447345,28.478199,0.1,117.60956,1627415842437
Fix,GT,37.4928994,-122.2228216,-28.866258471131324,28.676497,0.1,118.07559,1627415843437
Fix,GT,37.4927757,-122.2225359,-28.801708504676817,28.775787,0.1,118.70688,1627415844437
Fix,GT,37.4926506,-122.2222536,-28.78793223762512,28.307825,0.1,119.15817,1627415845437
Fix,GT,37.4925275,-122.2219775,-28.82251693987846,27.605186,0.1,119.09906,1627415846437
Fix,GT,37.4924079,-122.2217093,-28.850741530656816,26.887714,0.1,119.090576,1627415847437
Fix,GT,37.4922905,-122.2214457,-28.90122459304333,26.548746,0.1,119.11905,1627415848437
Fix,GT,37.4921741,-122.221185,-28.93637076568604,26.303421,0.1,119.174194,1627415849437
Fix,GT,37.4920588,-122.2209262,-28.973079288840296,26.11203,0.1,119.06052,1627415850437
Fix,GT,37.4919456,-122.2206703,-28.96903387069702,25.614399,0.1,118.953064,1627415851437
Fix,GT,37.4918344,-122.2204199,-28.878112298846244,25.148993,0.1,119.04437,1627415852437
Fix,GT,37.4917248,-122.2201733,-28.829663961410525,24.786331,0.1,119.037964,1627415853437
Fix,GT,37.4916164,-122.2199289,-28.81814616680145,24.775913,0.1,118.92459,1627415854437
Fix,GT,37.4915077,-122.2196824,-28.761145308554177,25.062935,0.1,118.77396,1627415855437
Fix,GT,37.4913982,-122.2194325,-28.742999143391845,25.373669,0.1,118.77472,1627415856437
Fix,GT,37.4912861,-122.21918,-28.691774542331693,25.738838,0.1,119.15784,1627415857437
Fix,GT,37.491172,-122.2189242,-28.707258465528486,26.13697,0.1,119.139404,1627415858437
Fix,GT,37.4910558,-122.2186644,-28.684,26.554825,0.1,119.238556,1627415859437
Fix,GT,37.4909375,-122.2184012,-28.673,26.932167,0.1,119.43762,1627415860437
Fix,GT,37.4908166,-122.2181334,-28.620741535186767,27.543884,0.1,119.408264,1627415861437
Fix,GT,37.4906928,-122.2178595,-28.549325330674648,28.134354,0.1,119.52374,1627415862437
Fix,GT,37.4905666,-122.21758,-28.374910822391502,28.634266,0.1,119.2616,1627415863437
Fix,GT,37.4904401,-122.2172956,-27.918348467558623,28.939648,0.1,118.9422,1627415864437
Fix,GT,37.4903142,-122.2170086,-27.208743183076383,29.030685,0.1,118.59155,1627415865437
Fix,GT,37.4901897,-122.2167193,-26.367337760537865,29.111004,0.1,118.06186,1627415866437
Fix,GT,37.4900672,-122.2164276,-25.57508007192612,29.220482,0.1,117.44684,1627415867437
Fix,GT,37.4899468,-122.2161333,-24.77248468363285,29.323769,0.1,116.90735,1627415868437
Fix,GT,37.4898278,-122.2158364,-23.94733851623535,29.464947,0.1,116.42328,1627415869437
Fix,GT,37.4897109,-122.2155362,-23.20745080810785,29.627968,0.1,115.66162,1627415870437
Fix,GT,37.4895964,-122.2152325,-22.511382427066565,29.806276,0.1,115.10745,1627415871437
Fix,GT,37.489483,-122.2149261,-21.940910779356955,29.928505,0.1,114.66,1627415872437
Fix,GT,37.489371,-122.2146173,-21.83495603892208,30.084478,0.1,114.21927,1627415873437
Fix,GT,37.4892609,-122.2143057,-21.66574153840542,30.237606,0.1,113.56058,1627415874437
Fix,GT,37.4891528,-122.2139908,-21.75651692271233,30.398746,0.1,112.93707,1627415875437
Fix,GT,37.4890477,-122.2136728,-21.80741473734379,30.436481,0.1,112.09894,1627415876437
Fix,GT,37.488946,-122.2133546,-22.068055394291875,30.189297,0.1,111.59589,1627415877437
Fix,GT,37.4888474,-122.2130382,-22.497503959476948,29.90612,0.1,110.95856,1627415878437
Fix,GT,37.4887525,-122.2127227,-23.225222419947382,29.819569,0.1,110.278625,1627415879437
Fix,GT,37.4886609,-122.2124058,-24.01029008293152,29.829807,0.1,109.701294,1627415880437
Fix,GT,37.488572,-122.2120868,-24.792402368426323,29.949402,0.1,108.790405,1627415881437
Fix,GT,37.4884866,-122.2117647,-25.67659465053677,30.108725,0.1,107.910126,1627415882437
Fix,GT,37.4884043,-122.2114393,-26.571256962120536,30.297665,0.1,107.243225,1627415883437
Fix,GT,37.4883237,-122.2111108,-27.407065372794865,30.497038,0.1,106.843414,1627415884437
Fix,GT,37.4882448,-122.2107796,-28.053090086847547,30.643595,0.1,106.42789,1627415885437
Fix,GT,37.4881677,-122.2104464,-28.3731899304986,30.71666,0.1,105.93271,1627415886437
Fix,GT,37.4880928,-122.2101118,-28.484145302504302,30.736797,0.1,105.384674,1627415887437
Fix,GT,37.4880206,-122.2097779,-28.53725931096077,30.429388,0.1,104.89746,1627415888437
Fix,GT,37.4879522,-122.209447,-28.56533777913452,30.040134,0.1,104.06204,1627415889437
Fix,GT,37.4878888,-122.2091191,-28.62137076979875,29.649448,0.1,103.131256,1627415890437
Fix,GT,37.4878298,-122.2087943,-28.66059538859129,29.258831,0.1,102.46484,1627415891437
Fix,GT,37.4877741,-122.2084732,-28.7452237623632,28.887377,0.1,102.029205,1627415892437
Fix,GT,37.4877207,-122.2081556,-28.80333607015013,28.50967,0.1,101.713165,1627415893437
Fix,GT,37.4876699,-122.2078419,-28.829483938694,28.119946,0.1,101.18121,1627415894437
Fix,GT,37.4876222,-122.2075318,-28.874336929261684,27.747963,0.1,100.55353,1627415895437
Fix,GT,37.4875781,-122.2072251,-28.933595389425754,27.391294,0.1,99.6236,1627415896437
Fix,GT,37.4875387,-122.2069213,-28.990854713976383,27.067654,0.1,98.86084,1627415897437
Fix,GT,37.4875014,-122.2066204,-29.07170770037174,26.822931,0.1,98.68146,1627415898437
Fix,GT,37.4874653,-122.2063206,-29.116516051948068,26.828966,0.1,98.33121,1627415899437
Fix,GT,37.4874305,-122.2060201,-29.13848221239448,26.887175,0.1,98.12039,1627415900437
Fix,GT,37.487396,-122.2057187,-29.19333606281877,26.984535,0.1,98.056915,1627415901437
Fix,GT,37.4873613,-122.2054148,-29.246,27.362385,0.1,98.12518,1627415902437
Fix,GT,37.4873251,-122.2051062,-29.314371644109485,27.80292,0.1,98.58966,1627415903437
Fix,GT,37.4872864,-122.2047933,-29.30529229426384,28.201283,0.1,98.85828,1627415904437
Fix,GT,37.4872463,-122.204476,-29.33670770633221,28.635471,0.1,99.00375,1627415905437
Fix,GT,37.4872054,-122.2041535,-29.34288856235147,29.114122,0.1,98.83862,1627415906437
Fix,GT,37.4871648,-122.2038269,-29.274371643275025,29.207615,0.1,98.81488,1627415907437
Fix,GT,37.487124,-122.2035024,-29.2672584580183,28.90289,0.1,98.965576,1627415908437
Fix,GT,37.4870831,-122.2031806,-29.25088855853677,28.789076,0.1,98.90637,1627415909437
Fix,GT,37.4870432,-122.2028588,-29.24314614444971,28.80687,0.1,98.5636,1627415910437
Fix,GT,37.4870044,-122.2025363,-29.21140460139513,28.895771,0.1,98.39606,1627415911437
Fix,GT,37.4869656,-122.2022123,-29.167630097955467,29.04153,0.1,98.612885,1627415912437
Fix,GT,37.4869257,-122.2018869,-29.17162922859192,29.20111,0.1,98.71445,1627415913437
Fix,GT,37.486885,-122.2015595,-29.14311231458187,29.440414,0.1,98.84943,1627415914437
Fix,GT,37.4868437,-122.2012289,-29.16166392409801,29.715393,0.1,98.79062,1627415915437
Fix,GT,37.4868021,-122.200896,-29.177,29.896603,0.1,98.92621,1627415916437
Fix,GT,37.4867598,-122.2005608,-29.187483087301256,30.14018,0.1,98.91492,1627415917437
Fix,GT,37.4867174,-122.2002234,-29.18825758615136,30.24102,0.1,98.894104,1627415918437
Fix,GT,37.4866749,-122.199886,-29.21496704685688,30.129642,0.1,98.83722,1627415919437
Fix,GT,37.4866331,-122.1995513,-29.21114613938332,29.795633,0.1,98.82437,1627415920437
Fix,GT,37.486592,-122.1992204,-29.246450137317183,29.420527,0.1,98.78909,1627415921437
Fix,GT,37.486552,-122.1988936,-29.230404594302176,29.052128,0.1,98.41281,1627415922437
Fix,GT,37.4865135,-122.1985711,-29.22000087082386,28.634111,0.1,98.47638,1627415923437
Fix,GT,37.4864753,-122.1982529,-29.208482218891383,28.292831,0.1,98.45117,1627415924437
Fix,GT,37.4864375,-122.1979385,-29.22025845527649,27.937183,0.1,98.54846,1627415925437
Fix,GT,37.4863996,-122.1976282,-29.24451778203249,27.598967,0.1,98.72702,1627415926437
Fix,GT,37.4863616,-122.1973227,-29.26074154472351,26.913744,0.1,98.7919,1627415927437
Fix,GT,37.4863252,-122.1970295,-29.27577623820305,25.56967,0.1,98.78046,1627415928437
Fix,GT,37.4862903,-122.1967503,-29.302225507557395,24.478012,0.1,98.91745,1627415929437
Fix,GT,37.4862556,-122.1964818,-29.316,23.63721,0.1,99.46127,1627415930437
Fix,GT,37.4862181,-122.1962214,-29.33625845527649,23.242851,0.1,100.83923,1627415931437
Fix,GT,37.4861774,-122.1959649,-29.358111442089083,23.085495,0.1,101.36047,1627415932437
Fix,GT,37.4861363,-122.1957071,-29.36974066939949,23.482391,0.1,100.766785,1627415933437
Fix,GT,37.4860982,-122.1954435,-29.380999124377965,23.910896,0.1,99.825165,1627415934437
Fix,GT,37.4860617,-122.1951752,-29.38251691102981,24.123646,0.1,99.47958,1627415935437
Fix,GT,37.4860258,-122.1949073,-29.37511231672764,23.926113,0.1,99.4267,1627415936437
Fix,GT,37.4859907,-122.1946419,-29.36936989694834,23.648434,0.1,99.07352,1627415937437
Fix,GT,37.4859573,-122.1943795,-29.361629227876666,23.3891,0.1,98.9064,1627415938437
Fix,GT,37.4859249,-122.1941178,-29.372404595971105,23.500511,0.1,98.50519,1627415939437
Fix,GT,37.4858929,-122.1938531,-29.340662177711728,23.87206,0.1,98.58807,1627415940437
Fix,GT,37.4858601,-122.193584,-29.33777624291181,24.280392,0.1,98.61856,1627415941437
Fix,GT,37.4858268,-122.1933103,-29.306147014468912,24.690746,0.1,98.48761,1627415942437
Fix,GT,37.4857932,-122.193032,-29.26914614146948,25.09336,0.1,98.42651,1627415943437
Fix,GT,37.4857596,-122.1927497,-29.22903382730484,25.379269,0.1,98.37622,1627415944437
Fix,GT,37.4857253,-122.1924642,-29.21162922847271,25.70953,0.1,98.591644,1627415945437
Fix,GT,37.4856896,-122.1921748,-29.16118084052205,26.066603,0.1,98.716064,1627415946437
Fix,GT,37.4856534,-122.1918821,-29.122775371909142,26.323145,0.1,98.77658,1627415947437
Fix,GT,37.4856164,-122.1915869,-29.079370771229264,26.552616,0.1,98.918,1627415948437
Fix,GT,37.4855785,-122.1912893,-29.056259323567154,26.768787,0.1,99.0853,1627415949437
Fix,GT,37.4855399,-122.1909894,-29.04351691579819,26.88882,0.1,99.05167,1627415950437
Fix,GT,37.4855014,-122.1906907,-29.008809206962585,26.632366,0.1,99.03717,1627415951437
Fix,GT,37.4854638,-122.1903949,-29.063776241898537,26.325138,0.1,98.783875,1627415952437
Fix,GT,37.4854279,-122.1901024,-29.02469689923525,26.050817,0.1,98.57037,1627415953437
Fix,GT,37.4853923,-122.1898115,-28.939034698665143,26.084557,0.1,98.691986,1627415954437
Fix,GT,37.4853559,-122.1895185,-28.983369906544688,26.366558,0.1,98.77243,1627415955437
Fix,GT,37.4853184,-122.189222,-28.98688682553172,26.746847,0.1,99.207245,1627415956437
Fix,GT,37.4852773,-122.188922,-28.941629229962825,27.063725,0.1,100.14337,1627415957437
Fix,GT,37.4852323,-122.1886203,-28.9294839411974,27.186275,0.1,100.881714,1627415958437
Fix,GT,37.4851843,-122.18832,-28.89540375164151,26.955788,0.1,101.64929,1627415959437
Fix,GT,37.4851338,-122.1880236,-28.88648221704364,26.6566,0.1,102.33215,1627415960437
Fix,GT,37.4850813,-122.1877311,-28.878920676350592,26.356586,0.1,102.829834,1627415961437
Fix,GT,37.4850279,-122.1874436,-28.84840375638008,25.741407,0.1,103.17175,1627415962437
Fix,GT,37.4849755,-122.1871652,-28.84274239742756,24.86314,0.1,103.28989,1627415963437
Fix,GT,37.4849231,-122.186896,-28.818223753750324,24.18711,0.1,103.862915,1627415964437
Fix,GT,37.4848703,-122.1866327,-28.798887694358825,23.883135,0.1,104.09201,1627415965437
Fix,GT,37.4848171,-122.1863721,-28.784887695074083,23.750593,0.1,104.41138,1627415966437
Fix,GT,37.4847628,-122.186111,-28.751032997787,24.009457,0.1,104.63464,1627415967437
Fix,GT,37.4847067,-122.185847,-28.70188769596815,24.27527,0.1,105.150604,1627415968437
Fix,GT,37.4846479,-122.1855836,-28.67188769650459,24.074003,0.1,105.95108,1627415969437
Fix,GT,37.4845875,-122.1853242,-28.641629232287407,23.646,0.1,106.47482,1627415970437
Fix,GT,37.4845261,-122.1850707,-28.64125846493244,23.263855,0.1,107.15057,1627415971437
Fix,GT,37.4844636,-122.1848213,-28.605258465170863,22.973888,0.1,107.60086,1627415972437
Fix,GT,37.4844006,-122.1845757,-28.57551778259873,22.658972,0.1,108.015015,1627415973437
Fix,GT,37.4843352,-122.1843355,-28.49877539730072,22.248383,0.1,109.90213,1627415974437
Fix,GT,37.4842633,-122.1841029,-28.42003301718831,21.823292,0.1,112.117584,1627415975437
Fix,GT,37.4841883,-122.1838806,-28.378740687966346,20.809052,0.1,113.42447,1627415976437
Fix,GT,37.4841139,-122.1836713,-28.307033865928645,19.76723,0.1,114.35809,1627415977437
Fix,GT,37.4840408,-122.183473,-28.273742375701666,18.826372,0.1,114.99243,1627415978437
Fix,GT,37.48397,-122.1832857,-28.26788854318857,17.88716,0.1,115.70816,1627415979437
Fix,GT,37.4838988,-122.1831108,-28.26000084221364,16.841835,0.1,118.368866,1627415980437
Fix,GT,37.4838211,-122.1829502,-28.20439479038119,16.425415,0.1,124.00952,1627415981437
Fix,GT,37.4837308,-122.1828052,-28.03221474811435,16.15329,0.1,130.78552,1627415982437
Fix,GT,37.4836289,-122.1826749,-27.90254997614026,16.225403,0.1,136.99042,1627415983437
Fix,GT,37.4835151,-122.1825587,-27.782033044785265,16.235092,0.1,143.78009,1627415984437
Fix,GT,37.4833911,-122.1824647,-27.61080927956105,15.880554,0.1,152.70471,1627415985437
Fix,GT,37.4832611,-122.1823961,-27.35410162353516,15.381594,0.1,159.92407,1627415986437
Fix,GT,37.4831341,-122.1823435,-27.04473086082936,14.293137,0.1,162.08008,1627415987437
Fix,GT,37.4830179,-122.1822942,-26.650203261375427,12.827908,0.1,160.40619,1627415988437
Fix,GT,37.4829184,-122.1822444,-26.16223792025447,11.247352,0.1,156.74408,1627415989437
Fix,GT,37.4828303,-122.1821902,-25.66483250182867,10.577946,0.1,151.68073,1627415990437
Fix,GT,37.4827513,-122.1821302,-25.24579862642288,9.952258,0.1,147.34686,1627415991437
Fix,GT,37.4826794,-122.1820688,-25.00184391272068,9.370806,0.1,144.76398,1627415992437
Fix,GT,37.4826164,-122.1820071,-24.853180795818567,8.330632,0.1,139.39651,1627415993437
Fix,GT,37.482571,-122.1819382,-24.694404645204543,7.733974,0.1,124.51077,1627415994437
Fix,GT,37.4825478,-122.1818564,-24.5458100233376,7.880749,0.1,103.39612,1627415995437
Fix,GT,37.4825526,-122.1817665,-24.271247821033,8.228767,0.1,79.207245,1627415996437
Fix,GT,37.4825845,-122.1816797,-23.8137202308178,8.840708,0.1,61.8761,1627415997437
Fix,GT,37.4826284,-122.1815915,-23.24875480780005,9.586286,0.1,56.51291,1627415998437
Fix,GT,37.4826791,-122.1814991,-22.64246176338196,10.2200985,0.1,55.339294,1627415999437
Fix,GT,37.4827328,-122.1814031,-22.07775411963463,10.484474,0.1,54.69583,1627416000437
Fix,GT,37.4827886,-122.1813065,-21.531349475502967,10.568172,0.1,53.937317,1627416001437
Fix,GT,37.4828448,-122.1812118,-21.04231559509039,10.2445755,0.1,52.840363,1627416002437
Fix,GT,37.4829004,-122.1811231,-20.64902385744453,9.717262,0.1,51.177094,1627416003437
Fix,GT,37.4829549,-122.1810435,-20.340438532590863,8.662732,0.1,48.440247,1627416004437
Fix,GT,37.4830045,-122.1809784,-20.12932624018192,7.4414816,0.1,45.732147,1627416005437
Fix,GT,37.483051,-122.1809207,-19.97218065810204,7.0981827,0.1,44.373627,1627416006437
Fix,GT,37.4830976,-122.1808654,-19.837550828218458,7.263432,0.1,43.253357,1627416007437
Fix,GT,37.4831467,-122.1808093,-19.715551416277883,7.399994,0.1,42.047638,1627416008437
Fix,GT,37.4831967,-122.1807549,-19.62914617842436,7.265359,0.1,40.564392,1627416009437
Fix,GT,37.4832467,-122.1807033,-19.573404067009687,7.1447954,0.1,39.21933,1627416010437
Fix,GT,37.4832987,-122.1806518,-19.53651636129618,7.6577864,0.1,38.06122,1627416011437
Fix,GT,37.4833546,-122.1805985,-19.49662923592329,7.907921,0.1,36.93036,1627416012437
Fix,GT,37.4834129,-122.1805453,-19.5101117105484,7.986641,0.1,35.788544,1627416013437
Fix,GT,37.4834717,-122.1804938,-19.5532251662314,8.0339,0.1,34.643127,1627416014437
Fix,GT,37.4835341,-122.1804415,-19.63122458302975,8.7115755,0.1,33.469574,1627416015437
Fix,GT,37.4836035,-122.1803855,-19.7310439234078,9.526021,0.1,32.52481,1627416016437
Fix,GT,37.4836768,-122.1803274,-19.89867374694348,9.645502,0.1,32.6799,1627416017437
Fix,GT,37.4837488,-122.180266,-20.066415871590376,9.662697,0.1,35.01407,1627416018437
Fix,GT,37.4838189,-122.1802002,-20.37708841106296,9.798308,0.1,37.78006,1627416019437
Fix,GT,37.4838817,-122.1801212,-20.77835749012232,9.889543,0.1,50.02655,1627416020437
Fix,GT,37.4839257,-122.1800228,-21.466144142389297,10.109712,0.1,65.57605,1627416021437
Fix,GT,37.4839476,-122.1799093,-22.27388566958904,10.529257,0.1,81.599976,1627416022437
Fix,GT,37.4839432,-122.1797869,-23.206187951117755,11.065302,0.1,98.052795,1627416023437
Fix,GT,37.48391,-122.1796676,-24.198187921553853,11.26061,0.1,115.24652,1627416024437
Fix,GT,37.4838483,-122.1795662,-25.21644785892964,11.339897,0.1,133.79358,1627416025437
Fix,GT,37.4837627,-122.1794942,-26.23651410728693,11.570287,0.1,152.48059,1627416026437
Fix,GT,37.4836613,-122.1794586,-27.051694962024687,11.774869,0.1,170.59454,1627416027437
Fix,GT,37.483555,-122.1794614,-27.6867958124578,11.797241,0.1,187.11339,1627416028437
Fix,GT,37.4834547,-122.1795038,-27.95782075482607,11.648861,0.1,205.17416,1627416029437
Fix,GT,37.4833714,-122.1795831,-28.04922457873821,11.5929785,0.1,224.2547,1627416030437
Fix,GT,37.4833154,-122.1796927,-28.00377542126179,11.42937,0.1,244.59143,1627416031437
Fix,GT,37.4832916,-122.1798183,-27.959920773237943,11.527172,0.1,262.69995,1627416032437
Fix,GT,37.4832955,-122.1799521,-27.803214806377888,12.253399,0.1,276.8055,1627416033437
Fix,GT,37.4833235,-122.1800928,-27.594293192744253,13.448874,0.1,288.05634,1627416034437
Fix,GT,37.483372,-122.1802407,-27.49814618557692,14.799882,0.1,294.59094,1627416035437
Fix,GT,37.4834325,-122.1803971,-27.51411228829622,16.40538,0.1,295.8924,1627416036437
Fix,GT,37.4835022,-122.1805807,-27.507965281695128,19.35482,0.1,294.93604,1627416037437
Fix,GT,37.483578,-122.1807919,-27.481663136184217,21.597057,0.1,293.70395,1627416038437
Fix,GT,37.4836593,-122.1810281,-27.4534830505848,23.886211,0.1,292.89124,1627416039437
Fix,GT,37.4837454,-122.1812889,-27.472809323787693,25.844395,0.1,291.78427,1627416040437
Fix,GT,37.4838307,-122.1815665,-27.40436994585395,26.637426,0.1,290.3938,1627416041437
Fix,GT,37.4839141,-122.1818505,-27.41074152505398,26.720108,0.1,290.20496,1627416042437
Fix,GT,37.4839971,-122.1821329,-27.44685381233693,26.509455,0.1,290.08765,1627416043437
Fix,GT,37.4840767,-122.1824141,-27.48999918073416,26.310228,0.1,288.99228,1627416044437
Fix,GT,37.4841523,-122.1826965,-27.559595337271688,26.47091,0.1,288.25403,1627416045437
Fix,GT,37.4842296,-122.1829827,-27.57359533727169,26.93566,0.1,289.3133,1627416046437
Fix,GT,37.4843118,-122.1832716,-27.643852988392112,27.343346,0.1,289.657,1627416047437
Fix,GT,37.4843946,-122.1835656,-27.708224574804305,27.828602,0.1,289.15042,1627416048437
Fix,GT,37.4844764,-122.1838656,-27.802224574804303,28.248787,0.1,288.43137,1627416049437
Fix,GT,37.4845563,-122.1841713,-27.89270762467384,28.633898,0.1,287.86905,1627416050437
Fix,GT,37.4846356,-122.1844814,-27.96074152481556,28.95853,0.1,287.68445,1627416051437
Fix,GT,37.4847147,-122.1847952,-27.996482214957474,29.271133,0.1,287.31213,1627416052437
Fix,GT,37.4847926,-122.1851128,-28.02736992704868,29.47034,0.1,286.812,1627416053437
Fix,GT,37.4848685,-122.1854325,-28.05585381144285,29.512379,0.1,286.28204,1627416054437
Fix,GT,37.4849421,-122.1857534,-28.09096609735489,29.592726,0.1,285.7541,1627416055437
Fix,GT,37.4850137,-122.1860765,-28.13574068567157,29.73841,0.1,285.22342,1627416056437
Fix,GT,37.4850829,-122.1864022,-28.180944103956225,29.86589,0.1,284.5316,1627416057437
Fix,GT,37.4851494,-122.1867298,-28.20259449413419,29.934902,0.1,283.9722,1627416058437
Fix,GT,37.4852135,-122.1870587,-28.23911144432426,29.970713,0.1,283.36438,1627416059437
Fix,GT,37.4852744,-122.1873889,-28.25974152374268,29.95567,0.1,282.5747,1627416060437
Fix,GT,37.4853319,-122.1877193,-28.271852966696024,29.862484,0.1,281.92212,1627416061437
Fix,GT,37.4853862,-122.1880494,-28.303999156475065,29.76564,0.1,281.4056,1627416062437
Fix,GT,37.4854387,-122.1883793,-28.324853808760643,29.773085,0.1,281.08075,1627416063437
Fix,GT,37.4854894,-122.1887104,-28.36385380846262,29.866327,0.1,280.61816,1627416064437
Fix,GT,37.4855377,-122.1890432,-28.39525847673416,29.964102,0.1,279.9155,1627416065437
Fix,GT,37.4855831,-122.1893774,-28.43411228489876,30.02145,0.1,279.32983,1627416066437
Fix,GT,37.4856261,-122.1897129,-28.46922372123599,30.08989,0.1,278.82483,1627416067437
Fix,GT,37.4856672,-122.1900501,-28.542595331013203,30.276327,0.1,278.52374,1627416068437
Fix,GT,37.485708,-122.19039,-28.64233685362339,30.51911,0.1,278.4995,1627416069437
Fix,GT,37.4857496,-122.1907324,-28.69959533059597,30.718803,0.1,278.62393,1627416070437
Fix,GT,37.4857919,-122.191077,-28.75111142763496,30.956303,0.1,278.7336,1627416071437
Fix,GT,37.4858348,-122.1914241,-28.79025847709179,31.166029,0.1,278.69772,1627416072437
Fix,GT,37.4858776,-122.1917731,-28.837,31.273537,0.1,278.538,1627416073437
Fix,GT,37.4859197,-122.1921223,-28.87885380756856,31.11218,0.1,278.71155,1627416074437
Fix,GT,37.4859632,-122.1924682,-28.91196523031592,30.89417,0.1,279.0689,1627416075437
Fix,GT,37.4860073,-122.1928123,-28.95222370612621,30.751427,0.1,279.0176,1627416076437
Fix,GT,37.4860507,-122.1931547,-29.00588685107231,30.56644,0.1,278.96988,1627416077437
Fix,GT,37.4860941,-122.1934943,-29.05085380756855,30.24267,0.1,279.00452,1627416078437
Fix,GT,37.486136,-122.1938303,-29.096629238426686,29.904213,0.1,278.59015,1627416079437
Fix,GT,37.486176,-122.1941627,-29.139112284719943,29.551815,0.1,278.62216,1627416080437
