MessageType,Provider,LatitudeDegrees,LongitudeDegrees,AltitudeMeters,SpeedMps,AccuracyMeters,BearingDegrees,UnixTimeMillis
Fix,GT,34.2725339,-118.6156623,323.381,0.001,0.1,263.18976,1638904972449
Fix,GT,34.2725339,-118.6156623,323.381,0.0007178641,0.1,263.18936,1638904973449
Fix,GT,34.2725339,-118.6156623,323.38099036249514,0.001,0.1,263.18936,1638904974449
Fix,GT,34.2725339,-118.6156623,323.3810096375048,0.001,0.1,263.18945,1638904975449
Fix,GT,34.2725339,-118.6156623,323.3810096375048,0.0005076075,0.1,263.18927,1638904976449
Fix,GT,34.2725339,-118.6156623,323.381,0.00050760777,0.1,263.18945,1638904977449
Fix,GT,34.2725339,-118.6156623,323.381,0.001,0.1,263.18924,1638904978449
Fix,GT,34.2725339,-118.6156623,323.38099036249514,0.0012039554,0.1,263.18964,1638904979449
Fix,GT,34.2725339,-118.6156623,323.381,0.0005076087,0.1,263.1895,1638904980449
Fix,GT,34.2725339,-118.6156623,323.381,0.0,0.1,263.1895,1638904981449
Fix,GT,34.2725339,-118.6156623,323.381,0.0018188871,0.1,263.1885,1638904982449
Fix,GT,34.2725339,-118.6156623,323.381,0.00069634523,0.1,263.1889,1638904983449
Fix,GT,34.2725339,-118.6156623,323.3810096375048,0.0012102589,0.1,263.18875,1638904984449
Fix,GT,34.2725339,-118.6156623,323.38099036249514,0.0007178691,0.1,263.18906,1638904985449
Fix,GT,34.2725339,-118.6156623,323.381,0.001,0.1,263.18884,1638904986449
Fix,GT,34.2725339,-118.6156623,323.38099036249514,0.0014923892,0.1,263.18915,1638904987449
Fix,GT,34.2725339,-118.6156623,323.381,0.0042575337,0.1,263.18915,1638904988449
Fix,GT,34.272534,-118.6156623,323.3810096375048,0.002301551,0.1,263.18848,1638904989449
Fix,GT,34.272534,-118.6156623,323.381,0.003596996,0.1,263.1837,1638904990449
Fix,GT,34.2725338,-118.6156626,323.38249238806964,0.1797526,0.1,262.71576,1638904991449
Fix,GT,34.2725323,-118.6156654,323.4039847755432,0.23089832,0.1,259.05212,1638904992449
Fix,GT,34.2725319,-118.6156661,323.40850202575325,0.008446712,0.1,258.08646,1638904993449
Fix,GT,34.272532,-118.6156661,323.4089903616607,0.01054004,0.1,258.08173,1638904994449
Fix,GT,34.272532,-118.6156661,323.40999036163095,0.012095226,0.1,258.0814,1638904995449
Fix,GT,34.2725321,-118.6156661,323.41100963839887,0.016015671,0.1,258.08295,1638904996449
Fix,GT,34.2725319,-118.6156667,323.4159847723246,0.22902697,0.1,257.0948,1638904997449
Fix,GT,34.2725305,-118.615669,323.4344827467501,0.27428478,0.1,253.65125,1638904998449
Fix,GT,34.2725273,-118.6156731,323.46096954202653,0.81754255,0.1,246.96368,1638904999449
Fix,GT,34.2725183,-118.615681,323.4860152295828,1.5754361,0.1,231.43382,1638905000449
Fix,GT,34.2725009,-118.6156858,323.4749142086506,2.1786842,0.1,205.72226,1638905001449
Fix,GT,34.2724779,-118.6156777,323.56743704953794,2.9140856,0.1,172.78674,1638905002449
Fix,GT,34.2724585,-118.6156478,323.57562946665286,3.831623,0.1,131.73636,1638905003449
Fix,GT,34.2724523,-118.6155983,323.32925334885715,5.340087,0.1,98.65399,1638905004449
Fix,GT,34.272456,-118.6155307,322.9962741861343,7.202497,0.1,86.20657,1638905005449
Fix,GT,34.2724629,-118.6154429,322.6243752129078,9.037152,0.1,83.902466,1638905006449
Fix,GT,34.2724734,-118.6153333,322.1348884607553,11.168617,0.1,83.0358,1638905007449
Fix,GT,34.2724875,-118.6152035,321.6418523605764,12.975235,0.1,82.486786,1638905008449
Fix,GT,34.2725033,-118.615054,321.02352755442257,14.756905,0.1,82.55966,1638905009449
Fix,GT,34.2725212,-118.6148879,320.27711703950166,15.982943,0.1,82.55786,1638905010449
Fix,GT,34.2725395,-118.6147136,319.4787560905516,16.24857,0.1,82.84854,1638905011449
Fix,GT,34.2725572,-118.6145412,318.67111708295346,15.5883045,0.1,82.65991,1638905012449
Fix,GT,34.2725737,-118.6143801,317.8036646752357,14.303686,0.1,82.85513,1638905013449
Fix,GT,34.2725847,-118.6142306,316.93103149798515,13.230212,0.1,87.32605,1638905014449
Fix,GT,34.2725774,-118.6140922,315.9918744049966,12.523304,0.1,97.82144,1638905015449
Fix,GT,34.2725444,-118.6139605,314.9338627547324,12.918352,0.1,112.08679,1638905016449
Fix,GT,34.2724798,-118.613838,313.9765884471536,13.8745575,0.1,128.8775,1638905017449
Fix,GT,34.2723816,-118.613737,313.2235697755516,14.77109,0.1,145.87946,1638905018449
Fix,GT,34.2722599,-118.6136617,312.40709268775583,15.499451,0.1,155.29639,1638905019449
Fix,GT,34.2721329,-118.6135881,311.5261172567606,15.67782,0.1,152.66278,1638905020449
Fix,GT,34.2720154,-118.6134958,310.79846322134136,15.627058,0.1,142.6807,1638905021449
Fix,GT,34.2719134,-118.6133779,309.9921477892399,15.897406,0.1,132.4859,1638905022449
Fix,GT,34.2718254,-118.6132394,309.13210208177566,16.239502,0.1,123.5741,1638905023449
Fix,GT,34.271756,-118.6130835,308.49985821175574,16.325134,0.1,114.3179,1638905024449
Fix,GT,34.2717119,-118.6129191,308.09073627471923,15.630186,0.1,103.21149,1638905025449
Fix,GT,34.2716981,-118.6127516,307.860568598032,15.592019,0.1,90.13309,1638905026449
Fix,GT,34.2717173,-118.6125822,307.83094509238003,16.081804,0.1,76.698364,1638905027449
Fix,GT,34.2717617,-118.6124126,307.82357467359304,16.697859,0.1,71.348145,1638905028449
Fix,GT,34.2718078,-118.6122368,307.8320244197548,17.281422,0.1,73.755005,1638905029449
Fix,GT,34.2718508,-118.6120507,307.79199392679334,18.380653,0.1,74.81076,1638905030449
Fix,GT,34.271893,-118.6118514,307.736599103868,19.431202,0.1,75.81711,1638905031449
Fix,GT,34.2719369,-118.6116423,307.6790549114943,20.220552,0.1,75.598694,1638905032449
Fix,GT,34.2719832,-118.6114284,307.6484313848019,20.361683,0.1,74.87961,1638905033449
Fix,GT,34.2720323,-118.6112169,307.65343138211966,20.090664,0.1,73.701324,1638905034449
Fix,GT,34.2720838,-118.611009,307.5190396627486,19.819223,0.1,72.93082,1638905035449
Fix,GT,34.2721361,-118.6108045,307.6834557965696,19.651646,0.1,72.902985,1638905036449
Fix,GT,34.2721853,-118.6106006,307.68157779434324,19.437914,0.1,74.69385,1638905037449
Fix,GT,34.2722256,-118.6103952,307.6424832063019,19.506355,0.1,78.20621,1638905038449
Fix,GT,34.2722558,-118.6101869,307.58110675728324,19.403843,0.1,81.43994,1638905039449
Fix,GT,34.2722766,-118.6099785,307.30278215307,19.236065,0.1,84.45441,1638905040449
Fix,GT,34.2722888,-118.6097706,306.8315338197947,19.157547,0.1,86.88632,1638905041449
Fix,GT,34.2722971,-118.6095626,306.0777230039537,19.204956,0.1,87.1637,1638905042449
Fix,GT,34.2723055,-118.6093533,305.01648383820054,19.401829,0.1,87.06885,1638905043449
Fix,GT,34.2723146,-118.6091413,303.722453361392,19.694471,0.1,86.83896,1638905044449
Fix,GT,34.272324,-118.6089264,302.51542912313346,19.8737,0.1,87.09393,1638905045449
Fix,GT,34.2723323,-118.6087134,301.3424076638818,19.352386,0.1,87.41028,1638905046449
Fix,GT,34.2723377,-118.6085039,300.19246871358155,19.377804,0.1,89.007385,1638905047449
Fix,GT,34.2723334,-118.6082921,298.9664445874989,19.627975,0.1,93.425446,1638905048449
Fix,GT,34.2723135,-118.608079,297.68847766673565,19.86226,0.1,98.69379,1638905049449
Fix,GT,34.2722792,-118.6078661,296.5757933702469,20.041443,0.1,101.90976,1638905050449
Fix,GT,34.2722429,-118.6076526,295.748509945333,20.055567,0.1,100.6528,1638905051449
Fix,GT,34.2722164,-118.6074406,295.1814207707048,19.481586,0.1,96.50632,1638905052449
Fix,GT,34.2722036,-118.6072311,294.7822353520989,19.257488,0.1,92.16876,1638905053449
Fix,GT,34.2722031,-118.6070232,294.53321362805366,19.04752,0.1,88.35065,1638905054449
Fix,GT,34.2722172,-118.6068192,294.5089172187745,18.689743,0.1,82.51837,1638905055449
Fix,GT,34.2722472,-118.6066223,294.7906642751694,18.193253,0.1,77.430786,1638905056449
Fix,GT,34.2722878,-118.6064345,295.3635052005351,17.49253,0.1,73.74164,1638905057449
Fix,GT,34.2723341,-118.6062588,296.0993983787298,16.485886,0.1,71.57416,1638905058449
Fix,GT,34.2723751,-118.6060926,297.04614535427095,15.507441,0.1,75.79596,1638905059449
Fix,GT,34.2723992,-118.6059303,298.2056224345565,14.932431,0.1,82.15155,1638905060449
Fix,GT,34.2724095,-118.6057704,299.37060714465383,14.5362835,0.1,87.42847,1638905061449
Fix,GT,34.2724087,-118.6056145,300.52416053712363,14.035488,0.1,92.11481,1638905062449
Fix,GT,34.2723982,-118.6054675,301.63319103777405,13.087793,0.1,96.44357,1638905063449
Fix,GT,34.2723808,-118.6053337,302.665267332077,11.710918,0.1,100.06622,1638905064449
Fix,GT,34.2723638,-118.6052252,303.46958786141874,8.621605,0.1,100.449005,1638905065449
Fix,GT,34.2723519,-118.6051492,304.03211695203186,5.7213273,0.1,100.78516,1638905066449
Fix,GT,34.2723435,-118.6051024,304.3808077456653,3.2102106,0.1,102.31232,1638905067449
Fix,GT,34.2723388,-118.6050806,304.5419298610091,1.1178203,0.1,103.69968,1638905068449
Fix,GT,34.272338,-118.6050765,304.56203053212164,0.028651707,0.1,103.849365,1638905069449
Fix,GT,34.272338,-118.6050765,304.563,0.0036055513,0.1,103.84943,1638905070449
Fix,GT,34.272338,-118.6050765,304.563,0.0031622776,0.1,103.84955,1638905071449
Fix,GT,34.272338,-118.6050765,304.563,0.002236068,0.1,103.84943,1638905072449
Fix,GT,34.272338,-118.6050765,304.563,0.0012039447,0.1,103.849335,1638905073449
Fix,GT,34.272338,-118.6050765,304.5629909233153,0.001,0.1,103.849335,1638905074449
Fix,GT,34.272338,-118.6050765,304.56200907665493,0.0010000002,0.1,103.849365,1638905075449
Fix,GT,34.272338,-118.6050765,304.562,0.0,0.1,103.84943,1638905076449
Fix,GT,34.272338,-118.6050765,304.562,0.0,0.1,103.849594,1638905077449
Fix,GT,34.272338,-118.6050765,304.562,0.001,0.1,103.84961,1638905078449
Fix,GT,34.272338,-118.6050765,304.562,0.001,0.1,103.84973,1638905079449
Fix,GT,34.272338,-118.6050765,304.5619909233451,0.0012102693,0.1,103.84961,1638905080449
Fix,GT,34.272338,-118.6050765,304.56200907665493,0.0012039442,0.1,103.84958,1638905081449
Fix,GT,34.272338,-118.6050765,304.562,0.001,0.1,103.84967,1638905082449
Fix,GT,34.272338,-118.6050765,304.56200907665493,0.0012039441,0.1,103.84949,1638905083449
Fix,GT,34.272338,-118.6050765,304.562,0.00050763565,0.1,103.84943,1638905084449
Fix,GT,34.272338,-118.6050765,304.562,0.0012102696,0.1,103.84979,1638905085449
Fix,GT,34.272338,-118.6050765,304.562,0.0,0.1,103.84979,1638905086449
Fix,GT,34.272338,-118.6050765,304.562,0.00049236405,0.1,103.84961,1638905087449
Fix,GT,34.272338,-118.6050765,304.562,0.0005076361,0.1,103.84946,1638905088449
Fix,GT,34.272338,-118.6050765,304.562,0.0006963076,0.1,103.84955,1638905089449
Fix,GT,34.272338,-118.6050765,304.562,0.00050763634,0.1,103.849365,1638905090449
Fix,GT,34.272338,-118.6050765,304.562,0.0,0.1,103.84955,1638905091449
Fix,GT,34.272338,-118.6050765,304.56200907665493,0.0,0.1,103.84955,1638905092449
Fix,GT,34.272338,-118.6050765,304.562,0.00050763675,0.1,103.849396,1638905093449
Fix,GT,34.272338,-118.6050765,304.562,0.001,0.1,103.84921,1638905094449
Fix,GT,34.272338,-118.6050765,304.562,0.001,0.1,103.849304,1638905095449
Fix,GT,34.272338,-118.6050765,304.56200907665493,0.0004923629,0.1,103.84946,1638905096449
Fix,GT,34.272338,-118.6050765,304.56200907665493,0.001,0.1,103.84955,1638905097449
Fix,GT,34.272338,-118.6050765,304.562,0.001,0.1,103.84949,1638905098449
Fix,GT,34.272338,-118.6050765,304.56200907665493,0.001,0.1,103.84943,1638905099449
Fix,GT,34.272338,-118.6050765,304.562,0.0012102704,0.1,103.84924,1638905100449
Fix,GT,34.272338,-118.6050765,304.5619909233451,0.0014142136,0.1,103.84918,1638905101449
Fix,GT,34.272338,-118.6050765,304.56200907665493,0.0012039432,0.1,103.849335,1638905102449
Fix,GT,34.272338,-118.6050765,304.5619909233451,0.0014142136,0.1,103.849365,1638905103449
Fix,GT,34.272338,-118.6050765,304.56200907665493,0.001,0.1,103.849304,1638905104449
Fix,GT,34.272338,-118.6050765,304.56200907665493,0.0004923621,0.1,103.849304,1638905105449
Fix,GT,34.272338,-118.6050765,304.562,0.000492362,0.1,103.84921,1638905106449
Fix,GT,34.272338,-118.6050765,304.5619909233451,0.00050763815,0.1,103.84918,1638905107449
Fix,GT,34.272338,-118.6050765,304.5619909233451,0.001,0.1,103.849304,1638905108449
Fix,GT,34.272338,-118.6050765,304.56200907665493,0.0010000002,0.1,103.849365,1638905109449
Fix,GT,34.272338,-118.6050765,304.5619909233451,0.00049236167,0.1,103.849396,1638905110449
Fix,GT,34.272338,-118.6050765,304.562,0.001,0.1,103.849365,1638905111449
Fix,GT,34.272338,-118.6050765,304.562,0.001,0.1,103.84924,1638905112449
Fix,GT,34.272338,-118.6050765,304.562,0.00049236143,0.1,103.84924,1638905113449
Fix,GT,34.272338,-118.6050765,304.562,0.0005076387,0.1,103.84906,1638905114449
Fix,GT,34.272338,-118.6050765,304.5619909233451,0.0,0.1,103.84912,1638905115449
Fix,GT,34.272338,-118.6050765,304.562,0.0,0.1,103.84921,1638905116449
Fix,GT,34.272338,-118.6050765,304.5619909233451,0.0,0.1,103.84918,1638905117449
Fix,GT,34.272338,-118.6050765,304.5619909233451,0.0,0.1,103.84903,1638905118449
Fix,GT,34.272338,-118.6050765,304.562,0.0,0.1,103.849,1638905119449
Fix,GT,34.272338,-118.6050765,304.562,0.00049236114,0.1,103.848816,1638905120449
Fix,GT,34.272338,-118.6050765,304.5619909233451,0.00050763896,0.1,103.84894,1638905121449
Fix,GT,34.272338,-118.6050765,304.5619909233451,0.0,0.1,103.849,1638905122449
Fix,GT,34.272338,-118.6050765,304.562,0.000492361,0.1,103.84903,1638905123449
Fix,GT,34.272338,-118.6050765,304.562,0.0012039426,0.1,103.84891,1638905124449
Fix,GT,34.272338,-118.6050765,304.5619909233451,0.0018188625,0.1,103.84885,1638905125449
Fix,GT,34.272338,-118.6050765,304.562,0.0018188625,0.1,103.848755,1638905126449
Fix,GT,34.272338,-118.6050765,304.562,0.0028284271,0.1,103.848755,1638905127449
Fix,GT,34.272338,-118.6050765,304.562,0.0032110526,0.1,103.84888,1638905128449
Fix,GT,34.272338,-118.6050765,304.5619909233451,0.005,0.1,103.848816,1638905129449
Fix,GT,34.272338,-118.6050765,304.5609909233749,0.006024288,0.1,103.84866,1638905130449
Fix,GT,34.272338,-118.6050765,304.5599909234047,0.006112667,0.1,103.84857,1638905131449
Fix,GT,34.2723377,-118.6050758,304.5574832842946,0.32570893,0.1,103.88565,1638905132449
Fix,GT,34.2723351,-118.605064,304.63587777233124,2.028315,0.1,104.1402,1638905133449
Fix,GT,34.2723284,-118.6050336,304.8712326269746,3.6841598,0.1,104.45276,1638905134449
Fix,GT,34.2723187,-118.6049873,305.24566387391087,5.2438374,0.1,103.526794,1638905135449
Fix,GT,34.2723141,-118.6049232,305.7351103993058,6.538714,0.1,91.88876,1638905136449
Fix,GT,34.2723262,-118.6048486,306.36841941404344,7.5713015,0.1,74.57504,1638905137449
Fix,GT,34.2723632,-118.6047747,307.18932774782184,8.486792,0.1,52.969482,1638905138449
Fix,GT,34.2724272,-118.6047142,308.05634911766646,9.798025,0.1,32.58319,1638905139449
Fix,GT,34.2725144,-118.6046695,308.9528048247099,11.305937,0.1,19.607117,1638905140449
Fix,GT,34.2726173,-118.6046328,309.8957437103987,12.44276,0.1,15.457794,1638905141449
Fix,GT,34.2727316,-118.6045983,310.9161962587536,13.725626,0.1,13.624512,1638905142449
Fix,GT,34.2728581,-118.6045642,312.0381198334694,15.052839,0.1,11.901001,1638905143449
Fix,GT,34.2729967,-118.6045309,313.2530586837828,16.240898,0.1,10.67865,1638905144449
Fix,GT,34.2731449,-118.6045029,314.47452982544894,17.088314,0.1,7.1925964,1638905145449
Fix,GT,34.2733008,-118.6044874,315.735529825449,17.636356,0.1,2.763214,1638905146449
Fix,GT,34.273462,-118.6044868,317.0110527429581,18.17494,0.1,358.11774,1638905147449
Fix,GT,34.2736252,-118.6045006,318.3055509086847,17.867996,0.1,354.63696,1638905148449
Fix,GT,34.2737813,-118.6045217,319.5070985920429,16.96623,0.1,352.99442,1638905149449
Fix,GT,34.2739286,-118.6045446,320.63317498898505,16.089684,0.1,352.5178,1638905150449
Fix,GT,34.2740725,-118.6045669,321.7151291550398,16.342552,0.1,352.48883,1638905151449
Fix,GT,34.2742217,-118.6045902,322.8395660661161,16.691761,0.1,352.31976,1638905152449
Fix,GT,34.2743675,-118.6046135,323.99862714314463,15.88299,0.1,352.17383,1638905153449
Fix,GT,34.274505,-118.604636,325.10468822175267,14.903772,0.1,352.1329,1638905154449
Fix,GT,34.2746337,-118.6046568,326.166211106956,13.902813,0.1,352.3077,1638905155449
Fix,GT,34.2747534,-118.6046756,327.1712361068726,12.892088,0.1,352.46118,1638905156449
Fix,GT,34.2748648,-118.604693,328.1023125015497,12.174902,0.1,352.3811,1638905157449
Fix,GT,34.2749738,-118.6047106,328.9883430621624,12.354988,0.1,352.24194,1638905158449
Fix,GT,34.2750849,-118.6047289,329.91662699371574,12.455973,0.1,351.9715,1638905159449
Fix,GT,34.2751949,-118.6047476,330.8282972457409,12.200956,0.1,351.90738,1638905160449
Fix,GT,34.2753032,-118.6047658,331.71631253373624,12.087725,0.1,351.9441,1638905161449
Fix,GT,34.2754101,-118.6047836,332.6233484556079,11.725158,0.1,352.1627,1638905162449
Fix,GT,34.2755116,-118.6047996,333.45443475878244,11.078896,0.1,352.4346,1638905163449
Fix,GT,34.2756104,-118.6048156,334.2683636932969,11.131941,0.1,352.14487,1638905164449
Fix,GT,34.2757106,-118.6048321,335.1128660231233,11.284666,0.1,352.0538,1638905165449
Fix,GT,34.2758108,-118.6048487,335.9568712909818,11.053174,0.1,352.12695,1638905166449
Fix,GT,34.2759081,-118.6048636,336.76237891474364,10.715597,0.1,352.76678,1638905167449
Fix,GT,34.2760013,-118.604877,337.5124552818537,10.05719,0.1,353.3001,1638905168449
Fix,GT,34.276088,-118.6048883,338.20899345880747,9.303242,0.1,353.80786,1638905169449
Fix,GT,34.2761695,-118.6048982,338.8380799210668,8.769822,0.1,354.27835,1638905170449
Fix,GT,34.2762438,-118.6049063,339.39113091090326,7.669717,0.1,354.71472,1638905171449
Fix,GT,34.2763079,-118.6049127,339.82819200456146,6.6715393,0.1,355.36377,1638905172449
Fix,GT,34.2763643,-118.604917,340.20769963541625,5.8922915,0.1,356.3653,1638905173449
Fix,GT,34.2764146,-118.6049194,340.5022530892492,5.515792,0.1,357.5936,1638905174449
Fix,GT,34.2764658,-118.6049209,340.80428363353013,5.730343,0.1,358.63828,1638905175449
Fix,GT,34.2765157,-118.6049215,341.08031923082467,5.4056683,0.1,359.24515,1638905176449
Fix,GT,34.2765677,-118.6049219,341.35373015943173,6.1777563,0.1,359.62955,1638905177449
Fix,GT,34.2766232,-118.6049215,341.6622785211206,6.014043,0.1,0.43167114,1638905178449
Fix,GT,34.2766787,-118.6049204,341.9282479762435,6.486581,0.1,0.9668274,1638905179449
Fix,GT,34.2767408,-118.6049184,342.235237778306,7.305707,0.1,1.4527893,1638905180449
Fix,GT,34.2768083,-118.6049147,342.5353345598877,7.734724,0.1,2.8694458,1638905181449
Fix,GT,34.2768806,-118.6049084,342.8347556228638,8.194336,0.1,4.6451416,1638905182449
Fix,GT,34.2769559,-118.6048987,343.1158014451265,8.549158,0.1,6.453705,1638905183449
Fix,GT,34.2770314,-118.6048869,343.35336513635514,8.26156,0.1,7.555908,1638905184449
Fix,GT,34.2771011,-118.6048739,343.54978617668155,7.3497925,0.1,9.697418,1638905185449
Fix,GT,34.2771626,-118.6048539,343.66896945428846,6.800707,0.1,17.96939,1638905186449
Fix,GT,34.2772136,-118.6048139,343.63353818184135,6.7122455,0.1,38.18283,1638905187449
Fix,GT,34.2772471,-118.6047498,343.48070617872474,7.195609,0.1,64.478485,1638905188449
Fix,GT,34.2772525,-118.6046685,343.30656872516875,7.8771095,0.1,91.55524,1638905189449
Fix,GT,34.2772353,-118.6045774,343.2583243717551,9.411149,0.1,104.35965,1638905190449
Fix,GT,34.2772115,-118.6044695,343.5885826273262,11.069639,0.1,105.00589,1638905191449
Fix,GT,34.2771829,-118.604346,344.1330800292492,12.428127,0.1,105.52905,1638905192449
Fix,GT,34.2771517,-118.6042129,344.6701208453178,12.843427,0.1,105.6257,1638905193449
Fix,GT,34.2771207,-118.6040809,345.1571972228885,12.378502,0.1,105.73419,1638905194449
Fix,GT,34.2770907,-118.6039533,345.5473243813515,12.228493,0.1,105.62573,1638905195449
Fix,GT,34.2770602,-118.603822,345.8937709357739,13.059805,0.1,105.5661,1638905196449
Fix,GT,34.2770257,-118.603676,346.1988014807701,14.833206,0.1,105.85742,1638905197449
Fix,GT,34.2769877,-118.6035168,346.50232933315635,15.362211,0.1,106.17914,1638905198449
Fix,GT,34.2769479,-118.6033575,346.65991331741213,15.224242,0.1,106.9686,1638905199449
Fix,GT,34.276907,-118.6032003,346.7379896664023,15.19938,0.1,107.391235,1638905200449
Fix,GT,34.2768653,-118.6030414,346.7215583809316,15.528267,0.1,107.41232,1638905201449
Fix,GT,34.2768224,-118.6028778,346.6045583833456,16.152224,0.1,107.52435,1638905202449
Fix,GT,34.2767775,-118.6027092,346.4310408634245,16.202442,0.1,107.98526,1638905203449
Fix,GT,34.2767316,-118.6025458,346.17473667383194,15.566328,0.1,109.21161,1638905204449
Fix,GT,34.2766839,-118.6023894,345.81332064986225,15.237604,0.1,110.587494,1638905205449
Fix,GT,34.2766342,-118.6022341,345.3628790626228,15.558937,0.1,111.32129,1638905206449
Fix,GT,34.2765808,-118.6020719,344.8383714378774,16.699474,0.1,111.39899,1638905207449
Fix,GT,34.276523,-118.6018957,344.29642751979827,18.345406,0.1,111.55359,1638905208449
Fix,GT,34.2764592,-118.6017019,343.70544780746104,19.908092,0.1,111.56561,1638905209449
Fix,GT,34.2763907,-118.6014951,343.0535241686701,21.0405,0.1,111.774475,1638905210449
Fix,GT,34.2763179,-118.6012775,342.38101148891445,22.26073,0.1,112.04373,1638905211449
Fix,GT,34.2762391,-118.6010479,341.6695089334547,23.36193,0.1,112.80151,1638905212449
Fix,GT,34.2761542,-118.6008114,340.9191030894518,24.090645,0.1,113.6593,1638905213449
Fix,GT,34.2760646,-118.6005688,340.13807768562435,24.79405,0.1,114.12726,1638905214449
Fix,GT,34.275972,-118.6003198,339.3331336256266,25.462406,0.1,113.84793,1638905215449
Fix,GT,34.275878,-118.6000632,338.5026311727762,26.175858,0.1,113.430084,1638905216449
Fix,GT,34.2757842,-118.599797,337.66816416180137,27.131489,0.1,112.42511,1638905217449
Fix,GT,34.2756899,-118.5995192,336.803677027762,28.175224,0.1,112.08569,1638905218449
Fix,GT,34.2755915,-118.5992336,335.9201541519165,28.568678,0.1,112.79581,1638905219449
Fix,GT,34.2754905,-118.5989481,335.0241588870585,28.58496,0.1,113.27811,1638905220449
Fix,GT,34.2753873,-118.5986637,334.12220997715,28.561497,0.1,113.70599,1638905221449
Fix,GT,34.2752838,-118.5983801,333.2136771454811,28.501385,0.1,113.71542,1638905222449
Fix,GT,34.2751799,-118.5980973,332.2966969872415,28.44558,0.1,113.87985,1638905223449
Fix,GT,34.2750756,-118.5978154,331.38070235395435,28.403442,0.1,113.940735,1638905224449
Fix,GT,34.2749716,-118.5975337,330.4721893092096,28.383923,0.1,113.96005,1638905225449
Fix,GT,34.2748672,-118.5972526,329.5471849106252,28.351372,0.1,114.16559,1638905226449
Fix,GT,34.2747619,-118.5969724,328.64218926528093,28.223488,0.1,114.491516,1638905227449
Fix,GT,34.2746565,-118.5966955,327.72864680299165,27.954224,0.1,114.53534,1638905228449
Fix,GT,34.2745531,-118.5964191,327.0449657130241,27.879066,0.1,113.92471,1638905229449
Fix,GT,34.2744522,-118.5961427,326.62674221330883,27.717201,0.1,113.60974,1638905230449
Fix,GT,34.2743542,-118.5958671,326.2886658783853,27.509172,0.1,112.78833,1638905231449
Fix,GT,34.27426,-118.5955919,325.88029568850993,27.332108,0.1,111.92404,1638905232449
Fix,GT,34.2741698,-118.5953159,325.4413609190583,27.407331,0.1,111.03903,1638905233449
Fix,GT,34.2740854,-118.5950332,325.0357921943962,27.977596,0.1,108.211914,1638905234449
Fix,GT,34.27401,-118.5947383,324.64826928088064,28.940771,0.1,106.407196,1638905235449
Fix,GT,34.2739368,-118.5944295,324.3466908898354,30.185585,0.1,105.602844,1638905236449
Fix,GT,34.2738616,-118.5941078,324.09373670893905,31.41084,0.1,105.47937,1638905237449
Fix,GT,34.2737871,-118.5937717,323.8202234568,32.574875,0.1,104.19403,1638905238449
Fix,GT,34.2737164,-118.5934244,323.5592290838957,33.320404,0.1,103.28525,1638905239449
Fix,GT,34.2736494,-118.5930675,323.28867563372853,34.09323,0.1,102.10867,1638905240449
Fix,GT,34.2735855,-118.5927006,322.9509047306776,34.94469,0.1,101.43762,1638905241449
Fix,GT,34.2735261,-118.5923237,322.57026925948264,35.67679,0.1,99.76764,1638905242449
Fix,GT,34.2734766,-118.5919379,322.2947158011496,36.26669,0.1,97.75015,1638905243449
Fix,GT,34.2734364,-118.5915452,322.0137271514535,36.542164,0.1,96.14911,1638905244449
Fix,GT,34.2734049,-118.5911499,321.7317577163577,36.605072,0.1,94.65378,1638905245449
Fix,GT,34.2733822,-118.5907539,321.4677367643714,36.4461,0.1,92.99103,1638905246449
Fix,GT,34.2733689,-118.5903599,321.0543971655369,36.20005,0.1,91.52423,1638905247449
Fix,GT,34.2733628,-118.5899682,320.6053971779346,35.95289,0.1,90.67554,1638905248449
Fix,GT,34.2733588,-118.5895775,320.03989528831835,36.149986,0.1,90.63248,1638905249449
Fix,GT,34.2733543,-118.5891826,319.7192444343567,36.53337,0.1,90.7218,1638905250449
Fix,GT,34.2733496,-118.5887851,319.44371200582384,36.63842,0.1,90.76083,1638905251449
Fix,GT,34.2733447,-118.5883874,319.1836451419591,36.604233,0.1,90.74951,1638905252449
Fix,GT,34.2733402,-118.587991,318.979660425067,36.370125,0.1,90.71765,1638905253449
Fix,GT,34.2733354,-118.5875975,318.77964515101905,36.14888,0.1,90.82797,1638905254449
Fix,GT,34.2733301,-118.5872051,318.5996145964861,36.169678,0.1,90.83734,1638905255449
Fix,GT,34.2733253,-118.5868118,318.4915993200541,36.279182,0.1,90.67569,1638905256449
Fix,GT,34.2733208,-118.5864171,318.39955348169804,36.426758,0.1,90.743805,1638905257449
Fix,GT,34.2733159,-118.5860209,318.30357825037834,36.539692,0.1,90.798584,1638905258449
Fix,GT,34.2733108,-118.5856243,318.2061011717319,36.48236,0.1,90.82269,1638905259449
Fix,GT,34.2733057,-118.5852289,318.1080669281781,36.349365,0.1,90.76257,1638905260449
Fix,GT,34.2733016,-118.5848352,318.0200363688171,36.1777,0.1,90.48099,1638905261449
Fix,GT,34.273298,-118.584444,317.9186088116169,35.852203,0.1,90.60443,1638905262449
Fix,GT,34.273294,-118.5840566,317.8120858869255,35.51245,0.1,90.6803,1638905263449
Fix,GT,34.2732897,-118.583673,317.72608588674666,35.16226,0.1,90.59747,1638905264449
Fix,GT,34.2732877,-118.5832925,317.6385993456244,34.97912,0.1,90.05319,1638905265449
Fix,GT,34.2732871,-118.582913,317.5505687793493,34.877163,0.1,89.97662,1638905266449
Fix,GT,34.2732868,-118.582535,317.4420858842433,34.770584,0.1,89.971375,1638905267449
Fix,GT,34.2732867,-118.5821581,317.3515534975529,34.59081,0.1,89.80719,1638905268449
Fix,GT,34.2732879,-118.5817842,317.2815076426864,34.281506,0.1,89.68375,1638905269449
Fix,GT,34.2732895,-118.5814137,317.20855350005627,33.954433,0.1,89.52942,1638905270449
Fix,GT,34.2732919,-118.581047,317.11308226528763,33.579773,0.1,89.38165,1638905271449
Fix,GT,34.2732952,-118.5806841,317.0211128419339,33.35469,0.1,89.29678,1638905272449
Fix,GT,34.2732986,-118.5803212,316.937,33.476097,0.1,89.26727,1638905273449
Fix,GT,34.273302,-118.5799574,316.8526088077426,33.536842,0.1,89.25314,1638905274449
Fix,GT,34.273306,-118.5795933,316.775045861125,33.49604,0.1,89.0632,1638905275449
Fix,GT,34.2733111,-118.5792306,316.69502113613487,33.323204,0.1,88.75018,1638905276449
Fix,GT,34.2733177,-118.5788705,316.61855350631475,32.998695,0.1,88.478516,1638905277449
Fix,GT,34.2733255,-118.5785143,316.537061150074,32.636124,0.1,88.34958,1638905278449
Fix,GT,34.2733325,-118.578162,316.40910701262953,32.265972,0.1,88.700745,1638905279449
Fix,GT,34.2733381,-118.5778131,316.315067011416,32.074425,0.1,88.77985,1638905280449
Fix,GT,34.2733454,-118.5774645,316.2645840826631,32.1613,0.1,88.282135,1638905281449
Fix,GT,34.2733537,-118.577115,316.1675535071492,32.205193,0.1,88.25275,1638905282449
Fix,GT,34.273362,-118.576769,316.0975629279018,31.275902,0.1,88.227356,1638905283449
Fix,GT,34.2733699,-118.5764386,316.0130705693066,29.653992,0.1,88.39639,1638905284449
Fix,GT,34.2733765,-118.576121,315.9280611519813,28.939182,0.1,88.62482,1638905285449
Fix,GT,34.2733816,-118.5758097,315.8550705655515,28.386307,0.1,89.01538,1638905286449
Fix,GT,34.2733843,-118.5755045,315.77156291902065,27.870361,0.1,89.57373,1638905287449
Fix,GT,34.273386,-118.5752036,315.7014676591456,27.55878,0.1,89.4158,1638905288449
Fix,GT,34.273387,-118.574906,315.60197530618314,27.243767,0.1,89.84955,1638905289449
Fix,GT,34.2733875,-118.5746119,315.5380211725235,26.943336,0.1,89.87155,1638905290449
Fix,GT,34.2733879,-118.5743207,315.463061152935,26.72701,0.1,89.99631,1638905291449
Fix,GT,34.2733885,-118.5740294,315.37763934972884,27.006128,0.1,89.31256,1638905292449
Fix,GT,34.2733936,-118.5737333,315.302024685055,27.636417,0.1,88.223236,1638905293449
Fix,GT,34.2734015,-118.5734291,315.2625135370195,28.361086,0.1,88.31555,1638905294449
Fix,GT,34.2734076,-118.5731186,315.2230305769444,28.83054,0.1,88.87991,1638905295449
Fix,GT,34.2734097,-118.5728048,315.1680364731252,28.904066,0.1,89.927185,1638905296449
Fix,GT,34.2734082,-118.572491,315.0731223096848,28.967937,0.1,90.4346,1638905297449
Fix,GT,34.2734059,-118.5721744,314.9974676790536,29.370872,0.1,90.400055,1638905298449
Fix,GT,34.273403,-118.5718533,314.9295229334235,29.75965,0.1,90.662415,1638905299449
Fix,GT,34.2733983,-118.571528,314.8615441282392,30.178078,0.1,91.08777,1638905300449
Fix,GT,34.273392,-118.5711982,314.796021197021,30.569551,0.1,91.334076,1638905301449
Fix,GT,34.2733845,-118.5708655,314.71856880295275,30.659456,0.1,91.63873,1638905302449
Fix,GT,34.2733755,-118.5705334,314.6495688034892,30.501972,0.1,91.96237,1638905303449
Fix,GT,34.2733664,-118.5702038,314.570544139415,30.223682,0.1,91.7247,1638905304449
Fix,GT,34.2733574,-118.5698773,314.493559432596,29.940495,0.1,91.908264,1638905305449
Fix,GT,34.2733479,-118.5695529,314.39404587078093,29.943851,0.1,91.91284,1638905306449
Fix,GT,34.2733375,-118.5692272,314.30698470938205,30.012833,0.1,92.427765,1638905307449
Fix,GT,34.2733252,-118.5689015,314.2340764536857,29.981527,0.1,92.73343,1638905308449
Fix,GT,34.2733101,-118.5685779,314.1745076454281,29.687653,0.1,93.455414,1638905309449
Fix,GT,34.2732933,-118.568258,314.09653822743894,29.353611,0.1,93.37488,1638905310449
Fix,GT,34.2732776,-118.5679414,314.0061529109478,29.068117,0.1,93.332275,1638905311449
Fix,GT,34.2732622,-118.5676278,313.898091747284,28.814247,0.1,93.23135,1638905312449
Fix,GT,34.2732466,-118.5673148,313.81553822803494,29.012547,0.1,93.42328,1638905313449
Fix,GT,34.2732294,-118.5669984,313.77256881099936,29.361168,0.1,93.76578,1638905314449
Fix,GT,34.2732115,-118.5666784,313.6335993936658,29.746037,0.1,93.8172,1638905315449
Fix,GT,34.2731929,-118.5663541,313.62556881099937,30.125261,0.1,93.95178,1638905316449
Fix,GT,34.273173,-118.5660256,313.55755351966616,30.531212,0.1,94.23004,1638905317449
Fix,GT,34.273151,-118.5656934,313.4615841023326,30.830175,0.1,94.70407,1638905318449
Fix,GT,34.2731269,-118.5653589,313.4040611658096,30.987518,0.1,94.84033,1638905319449
Fix,GT,34.2731041,-118.5650228,313.3220458739996,31.13411,0.1,94.364685,1638905320449
Fix,GT,34.2730824,-118.564685,313.24606712076064,31.260187,0.1,94.32129,1638905321449
Fix,GT,34.2730602,-118.5643461,313.1525535192489,31.339224,0.1,94.56464,1638905322449
Fix,GT,34.2730365,-118.564007,313.10356881046295,31.325481,0.1,94.90735,1638905323449
Fix,GT,34.2730112,-118.5636683,313.02855948054787,31.307762,0.1,95.31021,1638905324449
Fix,GT,34.2729833,-118.5633302,312.94806116390225,31.271685,0.1,95.88989,1638905325449
Fix,GT,34.272953,-118.5629928,312.86606116342546,31.222742,0.1,96.24176,1638905326449
Fix,GT,34.2729213,-118.5626559,312.77657477775216,31.265682,0.1,96.44949,1638905327449
Fix,GT,34.2728895,-118.5623177,312.69658409905435,31.411757,0.1,96.37317,1638905328449
Fix,GT,34.2728571,-118.561978,312.6120518465042,31.579754,0.1,96.63458,1638905329449
Fix,GT,34.2728232,-118.5616366,312.5340518488288,31.747189,0.1,96.75537,1638905330449
Fix,GT,34.272789,-118.5612938,312.4445900784135,31.843695,0.1,96.831604,1638905331449
Fix,GT,34.2727543,-118.5609501,312.28015290856365,31.932255,0.1,96.862854,1638905332449
Fix,GT,34.2727195,-118.5606053,312.0227217174172,32.01963,0.1,96.83075,1638905333449
Fix,GT,34.2726847,-118.5602599,311.6902752375603,32.075214,0.1,96.892365,1638905334449
Fix,GT,34.2726496,-118.5599139,311.2398440442681,32.125805,0.1,96.884094,1638905335449
Fix,GT,34.2726144,-118.5595674,310.70442814397813,32.171444,0.1,96.96271,1638905336449
Fix,GT,34.2725785,-118.5592208,310.0855259439349,32.127007,0.1,97.10736,1638905337449
Fix,GT,34.2725428,-118.5588752,309.36608870714906,32.04227,0.1,96.89673,1638905338449
Fix,GT,34.2725084,-118.5585288,308.5151040029526,32.197548,0.1,96.688354,1638905339449
Fix,GT,34.2724739,-118.558182,307.61312541905045,32.142227,0.1,96.90378,1638905340449
Fix,GT,34.2724411,-118.5578359,306.77221105253693,32.01616,0.1,96.19794,1638905341449
Fix,GT,34.2724082,-118.5574908,305.9101560626626,31.996304,0.1,96.94321,1638905342449
Fix,GT,34.2723727,-118.5571451,305.0666116676331,32.173477,0.1,96.98984,1638905343449
Fix,GT,34.2723373,-118.5567985,304.35644968110324,32.105026,0.1,96.95953,1638905344449
Fix,GT,34.2723027,-118.556453,303.73095735287666,32.027996,0.1,96.75073,1638905345449
Fix,GT,34.2722696,-118.5561072,303.20833017119764,32.048203,0.1,96.45593,1638905346449
Fix,GT,34.2722406,-118.5557617,302.8032509431243,32.005165,0.1,94.76526,1638905347449
Fix,GT,34.2722212,-118.5554134,302.5026758599281,32.307003,0.1,92.79056,1638905348449
Fix,GT,34.2722124,-118.555061,302.26414391380547,32.64725,0.1,90.71661,1638905349449
Fix,GT,34.2722141,-118.5547047,302.1380548815429,32.99568,0.1,88.434265,1638905350449
Fix,GT,34.2722271,-118.5543451,302.1179937114418,33.28576,0.1,86.463165,1638905351449
Fix,GT,34.2722506,-118.5539843,302.2493700145483,33.331272,0.1,84.475555,1638905352449
Fix,GT,34.272284,-118.5536247,302.3783853069544,33.337006,0.1,82.66278,1638905353449
Fix,GT,34.2723274,-118.5532665,302.5414096159936,33.333214,0.1,80.65723,1638905354449
Fix,GT,34.2723814,-118.5529108,302.6729019737244,33.293118,0.1,78.41461,1638905355449
Fix,GT,34.2724466,-118.5525592,302.8173762838543,33.027954,0.1,76.22809,1638905356449
Fix,GT,34.272523,-118.5522146,302.959908246994,32.72577,0.1,73.806366,1638905357449
Fix,GT,34.2726092,-118.5518747,303.06642215409875,32.766228,0.1,72.183105,1638905358449
Fix,GT,34.2727026,-118.5515367,303.1224770621061,32.887962,0.1,70.842224,1638905359449
Fix,GT,34.2728014,-118.5511989,303.1679631594121,33.0689,0.1,70.42267,1638905360449
Fix,GT,34.2729011,-118.5508604,303.216461770773,33.024532,0.1,70.450165,1638905361449
Fix,GT,34.2730011,-118.5505245,303.26846177077294,32.69874,0.1,69.972534,1638905362449
Fix,GT,34.2731012,-118.5501927,303.31344647908213,32.30892,0.1,69.78818,1638905363449
Fix,GT,34.2732008,-118.5498647,303.3829297925532,32.091305,0.1,70.015686,1638905364449
Fix,GT,34.2732987,-118.5495361,303.4894068521559,32.202766,0.1,70.19647,1638905365449
Fix,GT,34.2733969,-118.5492073,303.5824221408665,32.126137,0.1,70.05145,1638905366449
Fix,GT,34.2734946,-118.5488805,303.6834311890006,31.819275,0.1,70.05478,1638905367449
Fix,GT,34.2735918,-118.5485575,303.78340060710906,31.44558,0.1,69.98282,1638905368449
Fix,GT,34.2736867,-118.548238,303.9148929615021,31.084187,0.1,70.614624,1638905369449
Fix,GT,34.2737767,-118.5479187,304.03386861103775,31.07931,0.1,71.768555,1638905370449
Fix,GT,34.2738599,-118.5475964,304.2118470902443,31.073792,0.1,73.79059,1638905371449
Fix,GT,34.2739338,-118.5472699,304.3988470914364,31.266762,0.1,75.509155,1638905372449
Fix,GT,34.2740002,-118.5469392,304.64624770087005,31.381216,0.1,77.150696,1638905373449
Fix,GT,34.2740584,-118.5466054,304.9702233227491,31.413515,0.1,78.906494,1638905374449
Fix,GT,34.2741086,-118.5462696,305.34619273000953,31.429676,0.1,80.721375,1638905375449
Fix,GT,34.2741495,-118.5459318,305.80110097792743,31.450516,0.1,82.42941,1638905376449
Fix,GT,34.2741828,-118.5455931,306.3205871565342,31.310547,0.1,83.96832,1638905377449
Fix,GT,34.274208,-118.5452559,306.9040336434245,31.041458,0.1,85.55182,1638905378449
Fix,GT,34.2742259,-118.5449206,307.5205168361664,30.851814,0.1,86.75568,1638905379449
Fix,GT,34.2742404,-118.5445866,308.1415871629715,30.761425,0.1,86.82846,1638905380449
Fix,GT,34.2742552,-118.5442534,308.66056267973784,30.684193,0.1,86.91843,1638905381449
Fix,GT,34.2742694,-118.5439214,309.18314675945044,30.553585,0.1,87.04474,1638905382449
Fix,GT,34.2742832,-118.5435908,309.62114068448545,30.423958,0.1,87.0755,1638905383449
Fix,GT,34.2742968,-118.5432612,310.02969420194626,30.331749,0.1,87.03732,1638905384449
Fix,GT,34.2743111,-118.5429329,310.40919259771704,30.202778,0.1,86.865234,1638905385449
Fix,GT,34.274326,-118.5426063,310.72683181238176,30.045998,0.1,86.82419,1638905386449
Fix,GT,34.2743407,-118.5422815,310.9738165225982,29.855528,0.1,86.870544,1638905387449
Fix,GT,34.2743543,-118.5419589,311.22684710335733,29.662134,0.1,87.19525,1638905388449
Fix,GT,34.2743671,-118.5416374,311.3564372073412,29.635773,0.1,87.22464,1638905389449
Fix,GT,34.2743808,-118.5413158,311.44490826272965,29.680307,0.1,86.89548,1638905390449
Fix,GT,34.2743948,-118.5409935,311.49995413172246,29.770752,0.1,87.04767,1638905391449
Fix,GT,34.274408,-118.5406701,311.5499694213868,29.866058,0.1,87.16724,1638905392449
Fix,GT,34.2744213,-118.5403459,311.54258409118654,29.920853,0.1,87.105804,1638905393449
Fix,GT,34.2744355,-118.5400209,311.46607644653324,30.035988,0.1,86.74301,1638905394449
Fix,GT,34.2744531,-118.5396947,311.3525901001095,30.191729,0.1,85.52429,1638905395449
Fix,GT,34.2744766,-118.539367,311.23510702347755,30.404366,0.1,84.613556,1638905396449
Fix,GT,34.2745047,-118.5390376,311.1135840892196,30.590244,0.1,83.52246,1638905397449
Fix,GT,34.2745389,-118.5387072,310.9895901093781,30.724398,0.1,82.2009,1638905398449
Fix,GT,34.2745793,-118.5383769,310.8501468632519,30.776499,0.1,80.94827,1638905399449
Fix,GT,34.2746255,-118.5380468,310.7001315699816,30.88168,0.1,79.84781,1638905400449
Fix,GT,34.2746768,-118.5377177,310.56309776484966,30.739935,0.1,78.81525,1638905401449
Fix,GT,34.274733,-118.5373917,310.4240917308331,30.64489,0.1,77.4827,1638905402449
Fix,GT,34.2747959,-118.5370668,310.2830704014003,30.822311,0.1,76.198944,1638905403449
Fix,GT,34.274865,-118.5367419,310.18955350965257,30.935493,0.1,75.01257,1638905404449
Fix,GT,34.2749396,-118.5364192,310.18298471152787,30.734219,0.1,73.84631,1638905405449
Fix,GT,34.275019,-118.5360999,310.2494251603782,30.652786,0.1,72.75763,1638905406449
Fix,GT,34.2751034,-118.5357835,310.3843853364587,30.58735,0.1,71.4523,1638905407449
Fix,GT,34.2751939,-118.5354698,310.5718072807789,30.576874,0.1,70.13425,1638905408449
Fix,GT,34.2752895,-118.5351587,310.8802783136964,30.519943,0.1,69.20041,1638905409449
Fix,GT,34.2753898,-118.5348508,311.2217248032093,30.390036,0.1,67.808105,1638905410449
Fix,GT,34.2754959,-118.5345478,311.62419586673377,30.202074,0.1,66.38629,1638905411449
Fix,GT,34.2756061,-118.5342493,312.0267188119292,29.924648,0.1,65.64917,1638905412449
Fix,GT,34.2757183,-118.5339561,312.3832477362752,29.575928,0.1,64.83685,1638905413449
Fix,GT,34.2758318,-118.5336663,312.7272018701434,29.40226,0.1,64.539734,1638905414449
Fix,GT,34.2759451,-118.5333787,313.0902231183052,29.280613,0.1,64.52112,1638905415449
Fix,GT,34.2760583,-118.5330915,313.40977066934107,29.284412,0.1,64.54532,1638905416449
Fix,GT,34.2761715,-118.5328041,313.7581925165057,29.332039,0.1,64.51672,1638905417449
Fix,GT,34.2762846,-118.5325156,314.1581865765452,29.433258,0.1,64.68341,1638905418449
Fix,GT,34.2763975,-118.5322267,314.5411712850332,29.347176,0.1,64.69592,1638905419449
Fix,GT,34.2765099,-118.5319394,314.9281924769879,29.120098,0.1,64.67981,1638905420449
Fix,GT,34.2766214,-118.531655,315.2952324371338,28.859268,0.1,64.59375,1638905421449
Fix,GT,34.2767329,-118.5313722,315.63972479033475,28.766903,0.1,64.39853,1638905422449
Fix,GT,34.2768437,-118.5310918,315.98375536727906,28.413223,0.1,64.53552,1638905423449
Fix,GT,34.276953,-118.5308146,316.30474594017863,28.176687,0.1,64.430756,1638905424449
Fix,GT,34.2770628,-118.5305381,316.60729358792304,28.294788,0.1,64.2793,1638905425449
Fix,GT,34.2771727,-118.530261,316.87177649909256,28.163122,0.1,64.487854,1638905426449
Fix,GT,34.2772805,-118.5299861,317.1023088762164,27.835052,0.1,64.74963,1638905427449
Fix,GT,34.277386,-118.5297137,317.3133547447919,27.580482,0.1,65.10925,1638905428449
Fix,GT,34.2774884,-118.5294403,317.5248376365006,27.672926,0.1,66.23477,1638905429449
Fix,GT,34.2775847,-118.5291621,317.73683180844785,27.846985,0.1,68.24814,1638905430449
Fix,GT,34.2776739,-118.5288784,317.95085291171074,28.010876,0.1,70.00131,1638905431449
Fix,GT,34.2777565,-118.5285904,318.1283700307608,28.097288,0.1,71.63837,1638905432449
Fix,GT,34.2778328,-118.528299,318.2449082562923,28.165508,0.1,73.22626,1638905433449
Fix,GT,34.2779016,-118.528005,318.3239541277885,28.027943,0.1,75.124054,1638905434449
Fix,GT,34.2779616,-118.5277107,318.3375076454878,27.76849,0.1,76.98392,1638905435449
Fix,GT,34.2780135,-118.5274173,318.28355932393674,27.478573,0.1,78.72693,1638905436449
Fix,GT,34.2780576,-118.5271252,318.1906299763322,27.188148,0.1,80.569855,1638905437449
Fix,GT,34.2780928,-118.5268343,318.0701223306656,26.948647,0.1,82.52817,1638905438449
Fix,GT,34.278121,-118.5265448,317.8951070393324,26.726006,0.1,83.83807,1638905439449
Fix,GT,34.2781431,-118.5262559,317.71418349885937,26.780876,0.1,85.470184,1638905440449
Fix,GT,34.2781584,-118.525963,317.4467275610268,27.322392,0.1,87.115845,1638905441449
Fix,GT,34.2781664,-118.5256635,317.1422446708679,27.713247,0.1,89.06885,1638905442449
Fix,GT,34.2781663,-118.525363,316.7927829051018,27.684092,0.1,90.61063,1638905443449
Fix,GT,34.2781632,-118.52506,316.4138229235709,28.189516,0.1,90.457306,1638905444449
Fix,GT,34.2781613,-118.5247501,315.9983117236793,28.93459,0.1,90.229614,1638905445449
Fix,GT,34.2781598,-118.5244347,315.5159111388922,29.090057,0.1,90.35068,1638905446449
Fix,GT,34.2781577,-118.5241172,314.930464687258,29.29069,0.1,90.44333,1638905447449
Fix,GT,34.2781551,-118.5237992,314.27551995801923,29.27023,0.1,90.50366,1638905448449
Fix,GT,34.2781524,-118.5234818,313.56454460313915,29.185917,0.1,90.50235,1638905449449
Fix,GT,34.2781498,-118.5231647,312.8190794636011,29.325495,0.1,90.58383,1638905450449
Fix,GT,34.278146,-118.5228434,312.0650642018616,29.812687,0.1,90.81964,1638905451449
Fix,GT,34.2781398,-118.5225183,311.32058115673067,30.003567,0.1,91.74866,1638905452449
Fix,GT,34.2781297,-118.5221928,310.55458719626074,29.996021,0.1,92.33008,1638905453449
Fix,GT,34.2781174,-118.521866,309.7815903968513,30.291962,0.1,92.68921,1638905454449
Fix,GT,34.2781027,-118.5215371,309.01460254532094,30.312931,0.1,93.39249,1638905455449
Fix,GT,34.2780845,-118.5212092,308.2445811748505,30.214966,0.1,94.16165,1638905456449
Fix,GT,34.2780628,-118.5208826,307.4720979932845,30.112297,0.1,94.80194,1638905457449
Fix,GT,34.2780388,-118.5205575,306.7105873387158,30.016699,0.1,95.17926,1638905458449
Fix,GT,34.2780131,-118.520232,305.94109501823783,30.145226,0.1,95.50864,1638905459449
Fix,GT,34.2779872,-118.5199066,305.1756055905819,30.066435,0.1,95.26483,1638905460449
Fix,GT,34.2779617,-118.519582,304.4276117916108,29.973618,0.1,95.6062,1638905461449
Fix,GT,34.2779343,-118.5192587,303.6640888494253,29.888031,0.1,95.736206,1638905462449
Fix,GT,34.2779076,-118.5189362,302.9010978845954,29.813015,0.1,95.523895,1638905463449
Fix,GT,34.2778822,-118.5186141,302.181012383461,29.832565,0.1,95.127075,1638905464449
Fix,GT,34.2778578,-118.5182893,301.507012383461,30.291077,0.1,95.15781,1638905465449
Fix,GT,34.2778324,-118.517959,300.84253533434867,30.777111,0.1,95.315674,1638905466449
Fix,GT,34.2778064,-118.5176241,300.1505200431347,31.173372,0.1,95.18353,1638905467449
Fix,GT,34.2777811,-118.5172848,299.4365901519656,31.578728,0.1,94.907684,1638905468449
Fix,GT,34.2777583,-118.516941,298.6755748426318,31.886753,0.1,94.19144,1638905469449
Fix,GT,34.2777375,-118.5165949,297.91255064678194,32.049957,0.1,94.09473,1638905470449
Fix,GT,34.2777186,-118.5162464,297.1845506510735,32.258118,0.1,93.32977,1638905471449
Fix,GT,34.2777028,-118.5158959,296.4959971194268,32.404343,0.1,92.88568,1638905472449
Fix,GT,34.2776891,-118.5155434,295.8324741791487,32.54685,0.1,92.28775,1638905473449
Fix,GT,34.2776794,-118.5151909,295.1964982756376,32.448013,0.1,91.45947,1638905474449
Fix,GT,34.2776737,-118.514838,294.579498264879,32.55303,0.1,90.708435,1638905475449
Fix,GT,34.2776714,-118.5144842,293.9439971426725,32.595863,0.1,90.12738,1638905476449
Fix,GT,34.2776718,-118.5141308,293.3189905941189,32.464508,0.1,89.58771,1638905477449
Fix,GT,34.2776751,-118.5137783,292.6964895019531,32.550514,0.1,88.984314,1638905478449
Fix,GT,34.2776819,-118.5134227,292.0280430496931,32.974327,0.1,88.30231,1638905479449
Fix,GT,34.2776915,-118.5130631,291.3050670360327,33.193977,0.1,88.05618,1638905480449
Fix,GT,34.2777016,-118.5127032,290.552043058157,33.14198,0.1,87.8873,1638905481449
Fix,GT,34.2777117,-118.5123435,289.7980736619233,33.150368,0.1,88.14438,1638905482449
Fix,GT,34.2777205,-118.5119834,289.071489528656,33.22458,0.1,88.20297,1638905483449
Fix,GT,34.2777295,-118.511622,288.42100577604765,33.34388,0.1,88.211914,1638905484449
Fix,GT,34.2777394,-118.5112598,287.7864809643626,33.413544,0.1,87.72827,1638905485449
Fix,GT,34.2777508,-118.5108972,287.1869445614219,33.41285,0.1,87.84009,1638905486449
Fix,GT,34.2777616,-118.5105346,286.60646571615337,33.398582,0.1,87.888824,1638905487449
Fix,GT,34.2777721,-118.5101724,286.04543514251714,33.37697,0.1,87.90332,1638905488449
Fix,GT,34.2777827,-118.5098096,285.49141986683014,33.487404,0.1,87.8634,1638905489449
Fix,GT,34.2777935,-118.5094457,284.9643739911616,33.576614,0.1,87.86249,1638905490449
Fix,GT,34.2778041,-118.5090813,284.41543521183735,33.55027,0.1,87.96301,1638905491449
Fix,GT,34.2778143,-118.5087176,283.926866384089,33.471413,0.1,88.0788,1638905492449
Fix,GT,34.2778236,-118.5083547,283.4088748537898,33.423782,0.1,88.14905,1638905493449
Fix,GT,34.2778329,-118.507992,282.9233603428602,33.38804,0.1,88.00989,1638905494449
Fix,GT,34.2778434,-118.5076299,282.4522822971046,33.3564,0.1,87.841156,1638905495449
Fix,GT,34.2778543,-118.5072679,281.9323978288174,33.34594,0.1,87.82745,1638905496449
Fix,GT,34.2778656,-118.5069055,281.4423213332892,33.473827,0.1,87.76773,1638905497449
Fix,GT,34.2778764,-118.5065412,280.9483978536129,33.67743,0.1,88.05655,1638905498449
Fix,GT,34.2778861,-118.5061745,280.41742846775054,33.876167,0.1,88.0047,1638905499449
Fix,GT,34.2778969,-118.5058059,279.90939787530897,34.049004,0.1,87.937195,1638905500449
Fix,GT,34.2779075,-118.5054353,279.3878902360201,34.241867,0.1,87.99344,1638905501449
Fix,GT,34.2779181,-118.5050627,278.87041320395474,34.42034,0.1,87.87891,1638905502449
Fix,GT,34.2779293,-118.5046881,278.3523826081753,34.629566,0.1,87.876526,1638905503449
Fix,GT,34.27794,-118.5043111,277.81545211797953,34.827503,0.1,87.96466,1638905504449
Fix,GT,34.2779505,-118.5039326,277.28745088836547,34.90277,0.1,88.01468,1638905505449
Fix,GT,34.2779614,-118.5035534,276.73092915472387,34.9908,0.1,87.8479,1638905506449
Fix,GT,34.2779724,-118.5031731,276.2129444586039,35.080704,0.1,87.92029,1638905507449
Fix,GT,34.277983,-118.5027923,275.66048159277443,35.035446,0.1,88.13483,1638905508449
Fix,GT,34.277991,-118.5024131,274.97702808976175,34.79838,0.1,89.06653,1638905509449
Fix,GT,34.2779912,-118.5020364,274.35145209771395,34.639313,0.1,90.721375,1638905510449
Fix,GT,34.2779824,-118.5016602,273.80839800858496,34.6841,0.1,92.484985,1638905511449
Fix,GT,34.2779629,-118.5012849,273.279944432348,34.513306,0.1,94.46274,1638905512449
Fix,GT,34.2779339,-118.5009126,272.75192912137504,34.411736,0.1,96.147064,1638905513449
Fix,GT,34.2778954,-118.5005415,272.2253521119356,34.462402,0.1,98.10959,1638905514449
Fix,GT,34.2778461,-118.5001715,271.69639804577827,34.54957,0.1,99.96387,1638905515449
Fix,GT,34.2777865,-118.4998032,271.16342867136,34.552464,0.1,102.07156,1638905516449
Fix,GT,34.2777154,-118.4994378,270.61742143553494,34.582024,0.1,104.093414,1638905517449
Fix,GT,34.2776351,-118.4990745,270.09885174849626,34.631447,0.1,105.56171,1638905518449
Fix,GT,34.2775464,-118.4987139,269.7087373186946,34.63006,0.1,107.388916,1638905519449
Fix,GT,34.2774482,-118.4983572,269.473622114867,34.5884,0.1,109.25806,1638905520449
Fix,GT,34.2773396,-118.4980055,269.3964923442006,34.51487,0.1,111.46735,1638905521449
Fix,GT,34.2772213,-118.4976589,269.4703924412429,34.517845,0.1,113.1853,1638905522449
Fix,GT,34.277094,-118.4973169,269.7088009399176,34.47812,0.1,115.03992,1638905523449
Fix,GT,34.2769582,-118.4969808,270.072148201704,34.375683,0.1,116.74704,1638905524449
Fix,GT,34.2768139,-118.4966511,270.60054061627386,34.22548,0.1,118.67175,1638905525449
Fix,GT,34.2766617,-118.4963288,271.2849329840541,34.04927,0.1,120.680695,1638905526449
Fix,GT,34.2765007,-118.496015,272.0044559240341,33.9022,0.1,122.511475,1638905527449
Fix,GT,34.2763328,-118.4957083,272.6864793326855,33.749264,0.1,124.325806,1638905528449
Fix,GT,34.2761572,-118.49541,273.2706324644089,33.614754,0.1,126.25943,1638905529449
Fix,GT,34.2759743,-118.4951194,273.7386324586868,33.52488,0.1,127.962036,1638905530449
Fix,GT,34.2757843,-118.4948369,274.085770283103,33.459152,0.1,129.89215,1638905531449
Fix,GT,34.2755876,-118.4945617,274.37026976129414,33.404835,0.1,131.57285,1638905532449
Fix,GT,34.2753841,-118.4942948,274.6288999263346,33.354904,0.1,133.388,1638905533449
Fix,GT,34.2751751,-118.4940343,274.7751094599962,33.340054,0.1,134.30603,1638905534449
Fix,GT,34.2749646,-118.4937765,275.08332387274504,33.258797,0.1,134.54181,1638905535449
Fix,GT,34.2747546,-118.4935198,275.10241576391456,33.139137,0.1,134.48843,1638905536449
Fix,GT,34.2745455,-118.4932632,275.00604594767094,33.112247,0.1,134.38196,1638905537449
Fix,GT,34.274336,-118.4930058,274.64840534791347,33.276695,0.1,134.42383,1638905538449
Fix,GT,34.2741248,-118.4927473,274.21236758995053,33.55358,0.1,134.48798,1638905539449
Fix,GT,34.2739119,-118.4924863,273.80735227918626,33.79511,0.1,134.48242,1638905540449
Fix,GT,34.2736975,-118.4922247,273.31132165122034,33.824104,0.1,134.61456,1638905541449
Fix,GT,34.2734842,-118.491964,272.814482962817,33.611217,0.1,134.43127,1638905542449
Fix,GT,34.2732725,-118.4917036,272.1350437691211,33.578896,0.1,134.27298,1638905543449
Fix,GT,34.2730605,-118.491442,271.42403655615453,33.757355,0.1,134.25311,1638905544449
Fix,GT,34.2728476,-118.4911794,270.7280131582022,33.829025,0.1,134.25421,1638905545449
Fix,GT,34.2726338,-118.4909159,269.97243696665765,34.046494,0.1,134.34204,1638905546449
Fix,GT,34.2724178,-118.4906512,269.32731440815326,34.333744,0.1,134.43637,1638905547449
Fix,GT,34.2722004,-118.4903852,268.6324442645312,34.401806,0.1,134.534,1638905548449
Fix,GT,34.2719821,-118.4901186,267.8280438537597,34.616016,0.1,134.50616,1638905549449
Fix,GT,34.2717622,-118.4898497,267.2130745068192,34.886288,0.1,134.39532,1638905550449
Fix,GT,34.2715415,-118.4895782,266.6383449976444,35.09504,0.1,134.24738,1638905551449
Fix,GT,34.2713197,-118.4893053,266.1247987574935,35.238274,0.1,134.41656,1638905552449
Fix,GT,34.2710966,-118.4890319,265.73032174384593,35.393295,0.1,134.48889,1638905553449
Fix,GT,34.2708719,-118.4887576,265.43434498274326,35.596737,0.1,134.52695,1638905554449
Fix,GT,34.2706462,-118.4884814,265.16963023471834,35.726555,0.1,134.44348,1638905555449
Fix,GT,34.2704201,-118.4882051,264.98559169581534,35.746437,0.1,134.56815,1638905556449
Fix,GT,34.2701934,-118.4879289,264.8211146856248,35.79326,0.1,134.57501,1638905557449
Fix,GT,34.2699669,-118.4876517,264.6971304679215,35.83216,0.1,134.37762,1638905558449
Fix,GT,34.2697406,-118.4873743,264.5560380837619,35.795265,0.1,134.42755,1638905559449
Fix,GT,34.2695146,-118.4870968,264.4240844949186,35.809334,0.1,134.43442,1638905560449
Fix,GT,34.2692882,-118.4868199,264.3121379073858,35.778107,0.1,134.52896,1638905561449
Fix,GT,34.2690625,-118.4865441,264.1690153232813,35.5346,0.1,134.5033,1638905562449
Fix,GT,34.2688388,-118.4862691,264.28342359772324,35.373108,0.1,134.14929,1638905563449
Fix,GT,34.2686177,-118.4859935,264.35259960287806,35.240578,0.1,133.90436,1638905564449
Fix,GT,34.268398,-118.4857183,264.3010380942225,35.111687,0.1,133.89081,1638905565449
Fix,GT,34.2681797,-118.4854429,264.2719233812094,34.992916,0.1,133.0777,1638905566449
Fix,GT,34.2679687,-118.4851615,264.2666074807644,34.870506,0.1,130.84027,1638905567449
Fix,GT,34.2677678,-118.4848713,264.22105384594204,34.7388,0.1,128.83667,1638905568449
Fix,GT,34.2675755,-118.4845742,264.0795768274963,34.69011,0.1,126.92581,1638905569449
Fix,GT,34.2673937,-118.4842676,263.8132679680884,34.71689,0.1,124.12604,1638905570449
Fix,GT,34.2672227,-118.4839516,263.63627033364776,34.774765,0.1,121.76257,1638905571449
Fix,GT,34.2670618,-118.4836271,263.5426609019637,34.860245,0.1,120.063995,1638905572449
Fix,GT,34.2669089,-118.483296,263.387084095329,34.935608,0.1,117.88458,1638905573449
Fix,GT,34.2667671,-118.4829576,263.3155917595327,34.893776,0.1,115.60666,1638905574449
Fix,GT,34.2666356,-118.4826136,263.21151550635693,34.8677,0.1,113.69382,1638905575449
Fix,GT,34.2665142,-118.4822646,263.1700994259417,34.863163,0.1,111.77719,1638905576449
Fix,GT,34.2664037,-118.48191,263.0432758362293,34.92594,0.1,109.1203,1638905577449
Fix,GT,34.2663068,-118.4815491,262.8945917720795,34.94586,0.1,106.704926,1638905578449
Fix,GT,34.2662211,-118.4811842,262.7870612959862,34.92972,0.1,104.66556,1638905579449
Fix,GT,34.2661469,-118.4808159,262.65412259197234,34.890785,0.1,102.430756,1638905580449
Fix,GT,34.2660848,-118.4804452,262.6747776369751,34.745224,0.1,100.28485,1638905581449
Fix,GT,34.2660339,-118.4800741,262.62700782689456,34.570023,0.1,98.217896,1638905582449
Fix,GT,34.2659942,-118.4797023,262.2765383093953,34.489845,0.1,96.197754,1638905583449
Fix,GT,34.2659657,-118.4793296,262.2030612950325,34.50906,0.1,94.143585,1638905584449
Fix,GT,34.265948,-118.4789548,262.0151913990378,34.66165,0.1,92.19104,1638905585449
Fix,GT,34.2659412,-118.4785778,261.7866915439963,34.81582,0.1,90.344635,1638905586449
Fix,GT,34.2659391,-118.4781991,261.6645305103659,34.93023,0.1,90.427185,1638905587449
Fix,GT,34.2659363,-118.4778196,261.4177834807038,34.952232,0.1,90.49072,1638905588449
Fix,GT,34.2659331,-118.47744,261.19563778609034,34.986336,0.1,90.446045,1638905589449
Fix,GT,34.2659307,-118.47706,261.07876061242825,35.022797,0.1,90.30789,1638905590449
Fix,GT,34.2659284,-118.4766795,260.82766844069954,35.074593,0.1,90.29776,1638905591449
Fix,GT,34.2659262,-118.4762984,260.5411991964579,35.104668,0.1,90.317535,1638905592449
Fix,GT,34.2659243,-118.4759171,260.120936693132,35.166447,0.1,90.26022,1638905593449
Fix,GT,34.265922,-118.4755343,259.3886435377598,35.368183,0.1,90.394775,1638905594449
Fix,GT,34.265919,-118.4751492,258.6800592562556,35.551155,0.1,90.355835,1638905595449
Fix,GT,34.2659171,-118.4747625,257.9655592260361,35.669968,0.1,90.21936,1638905596449
Fix,GT,34.2659152,-118.4743746,257.1136971498728,35.788803,0.1,90.3212,1638905597449
Fix,GT,34.2659126,-118.4739855,256.1677660806179,35.894672,0.1,90.41812,1638905598449
Fix,GT,34.2659097,-118.4735952,255.1532737233639,36.008278,0.1,90.4122,1638905599449
Fix,GT,34.2659067,-118.4732032,254.15518179583552,36.221703,0.1,90.50778,1638905600449
Fix,GT,34.2659029,-118.4728093,253.41548250293727,36.316597,0.1,90.5954,1638905601449
Fix,GT,34.2658998,-118.472415,252.88183693766592,36.30003,0.1,90.372284,1638905602449
Fix,GT,34.2658972,-118.4720212,252.55616852986813,36.237213,0.1,90.393005,1638905603449
Fix,GT,34.2658948,-118.4716282,252.468961561203,36.171555,0.1,90.32669,1638905604449
Fix,GT,34.2658925,-118.4712358,252.60983899751307,36.087368,0.1,90.27075,1638905605449
Fix,GT,34.2658906,-118.4708446,252.9741399589181,35.971725,0.1,90.27023,1638905606449
Fix,GT,34.2658882,-118.4704548,253.55048664286733,35.809666,0.1,90.37274,1638905607449
Fix,GT,34.2658854,-118.4700671,254.35887950366737,35.60231,0.1,90.50421,1638905608449
Fix,GT,34.2658815,-118.469682,255.3142033195496,35.35055,0.1,90.73108,1638905609449
Fix,GT,34.2658775,-118.4692991,256.2897722630501,35.154793,0.1,90.416046,1638905610449
Fix,GT,34.2658748,-118.468919,257.1878641877174,34.8713,0.1,90.40259,1638905611449
Fix,GT,34.2658728,-118.4685417,258.0743105649948,34.635185,0.1,90.210205,1638905612449
Fix,GT,34.2658708,-118.4681666,258.8924024896622,34.455578,0.1,90.361145,1638905613449
Fix,GT,34.2658681,-118.4677934,259.6528182253837,34.283524,0.1,90.55734,1638905614449
Fix,GT,34.2658648,-118.4674222,260.35546377277376,34.096085,0.1,90.42813,1638905615449
Fix,GT,34.2658623,-118.4670526,260.8921093232036,33.97441,0.1,90.32068,1638905616449
Fix,GT,34.2658604,-118.4666842,261.2216935915947,33.877724,0.1,90.28223,1638905617449
Fix,GT,34.265859,-118.4663168,261.5992472150326,33.78627,0.1,90.138275,1638905618449
Fix,GT,34.2658577,-118.4659504,261.8114388613701,33.721466,0.1,90.2171,1638905619449
Fix,GT,34.2658556,-118.4655846,261.9767855174542,33.645664,0.1,90.40387,1638905620449
Fix,GT,34.2658528,-118.4652198,262.2528008407354,33.569054,0.1,90.45532,1638905621449
Fix,GT,34.2658502,-118.464856,262.4572778660059,33.370087,0.1,90.40729,1638905622449
Fix,GT,34.2658476,-118.4644959,262.71630850815774,32.957287,0.1,90.4866,1638905623449
Fix,GT,34.2658448,-118.4641398,262.927816169262,32.72321,0.1,90.37933,1638905624449
Fix,GT,34.2658431,-118.4637844,263.105877448082,32.756752,0.1,90.15167,1638905625449
Fix,GT,34.2658419,-118.4634285,263.31581617641444,32.800865,0.1,90.20715,1638905626449
Fix,GT,34.2658402,-118.4630722,263.5338087151945,32.834564,0.1,90.27179,1638905627449
Fix,GT,34.2658381,-118.4627155,263.7333238412142,32.86837,0.1,90.35895,1638905628449
Fix,GT,34.2658358,-118.4623589,263.9458315029144,32.794163,0.1,90.39407,1638905629449
Fix,GT,34.2658332,-118.4620037,264.2043317209482,32.619747,0.1,90.47244,1638905630449
Fix,GT,34.2658303,-118.4616516,264.40330853199964,32.156975,0.1,90.56253,1638905631449
Fix,GT,34.2658278,-118.4613053,264.61990066608786,31.692123,0.1,90.11557,1638905632449
Fix,GT,34.2658274,-118.4609633,264.80430853796,31.288828,0.1,90.08502,1638905633449
Fix,GT,34.265825,-118.4606249,265.02483893409374,31.141071,0.1,90.621826,1638905634449
Fix,GT,34.2658221,-118.4602828,265.23534708184,31.986181,0.1,90.32895,1638905635449
Fix,GT,34.2658193,-118.4599322,265.45224728190897,32.40232,0.1,90.65607,1638905636449
Fix,GT,34.2658148,-118.4595815,265.57494613713027,32.24199,0.1,90.94275,1638905637449
Fix,GT,34.2658095,-118.4592319,265.53134658643603,32.156338,0.1,91.106964,1638905638449
Fix,GT,34.265802,-118.458884,265.4935689204335,31.912933,0.1,91.870514,1638905639449
Fix,GT,34.2657916,-118.4585396,265.4246301810145,31.571167,0.1,91.943695,1638905640449
Fix,GT,34.2657828,-118.4581987,265.2631378376484,31.237623,0.1,91.34326,1638905641449
Fix,GT,34.2657767,-118.4578612,265.1066069605648,30.968348,0.1,91.05945,1638905642449
Fix,GT,34.2657719,-118.4575264,264.943137832284,30.698215,0.1,90.54697,1638905643449
Fix,GT,34.2657692,-118.4571935,264.7786301739216,30.708218,0.1,90.5213,1638905644449
Fix,GT,34.2657665,-118.4568567,264.63658422887323,31.097847,0.1,90.44391,1638905645449
Fix,GT,34.2657638,-118.4565204,264.4731378258467,30.820126,0.1,90.59158,1638905646449
Fix,GT,34.2657578,-118.456188,264.28809931918977,30.42918,0.1,91.878204,1638905647449
Fix,GT,34.2657467,-118.45586,264.1206222926378,30.032898,0.1,92.34149,1638905648449
Fix,GT,34.2657361,-118.455536,263.9536376087666,29.736008,0.1,92.02908,1638905649449
Fix,GT,34.2657273,-118.4552125,263.85292343604567,29.98074,0.1,91.41632,1638905650449
Fix,GT,34.2657217,-118.4548859,263.92542322832344,30.072403,0.1,90.93878,1638905651449
Fix,GT,34.2657172,-118.4545598,264.0978088125884,30.012741,0.1,90.82062,1638905652449
Fix,GT,34.2657125,-118.4542357,264.4037777523398,29.67437,0.1,91.29596,1638905653449
Fix,GT,34.2657031,-118.4539158,264.6064542949796,29.29687,0.1,92.55856,1638905654449
Fix,GT,34.265691,-118.4536001,264.8013160286844,28.910446,0.1,92.295685,1638905655449
Fix,GT,34.2656826,-118.4532887,265.04983158028125,28.446875,0.1,91.19165,1638905656449
Fix,GT,34.2656788,-118.4529849,265.2592705889642,27.387241,0.1,90.66107,1638905657449
Fix,GT,34.2656761,-118.4526951,265.5092399791181,25.956705,0.1,90.40051,1638905658449
Fix,GT,34.2656742,-118.4524219,265.75634663408994,24.48949,0.1,90.49066,1638905659449
Fix,GT,34.2656723,-118.452161,265.96133924824,23.611012,0.1,90.23007,1638905660449
Fix,GT,34.2656716,-118.4519102,266.16233925074334,22.774849,0.1,90.092804,1638905661449
Fix,GT,34.2656729,-118.4516639,266.36334719306234,22.75903,0.1,88.83423,1638905662449
Fix,GT,34.2656785,-118.4514141,266.56333925950526,23.366383,0.1,88.05682,1638905663449
Fix,GT,34.265686,-118.4511547,266.8148395598531,24.444555,0.1,88.10712,1638905664449
Fix,GT,34.2656913,-118.4508861,267.03782426387073,24.963074,0.1,88.90802,1638905665449
Fix,GT,34.2656949,-118.4506125,267.22136988788844,25.463398,0.1,88.99017,1638905666449
Fix,GT,34.2657023,-118.4503325,267.38641581177706,26.23767,0.1,87.04227,1638905667449
Fix,GT,34.2657181,-118.4500439,267.587147628963,26.857841,0.1,85.59268,1638905668449
Fix,GT,34.2657367,-118.4497523,267.77386957150696,26.98099,0.1,85.54956,1638905669449
Fix,GT,34.2657549,-118.4494587,267.8985455854237,27.346125,0.1,85.70181,1638905670449
