MessageType,Provider,LatitudeDegrees,LongitudeDegrees,AltitudeMeters,SpeedMps,AccuracyMeters,BearingDegrees,UnixTimeMillis
Fix,GT,37.3711984,-122.0477144,9.215000168424448,1.200031e-06,0.1,279.6924,1629837165000
Fix,GT,37.3711984,-122.0477144,9.215000109958636,0.0009991524,0.1,279.69232,1629837166000
Fix,GT,37.3711984,-122.0477144,9.215000052029207,0.0019995042,0.1,279.69226,1629837167000
Fix,GT,37.3711984,-122.0477144,9.215000085821377,0.0014138633,0.1,279.69247,1629837168000
Fix,GT,37.3711984,-122.0477144,9.214999935097586,8.4471003e-07,0.1,279.6923,1629837169000
Fix,GT,37.3711984,-122.0477144,9.214999877168156,0.0014138641,0.1,279.69257,1629837170000
Fix,GT,37.3711984,-122.0477144,9.214999999463616,0.0014138644,0.1,279.69263,1629837171000
Fix,GT,37.3711984,-122.0477144,9.214999848739826,0.0,0.099,279.69214,1629837172000
Fix,GT,37.3711984,-122.0477144,9.214999974789972,8.4084e-07,0.1,279.6922,1629837173000
Fix,GT,37.3711984,-122.0477144,9.214999916860542,0.0014138657,0.099,279.69296,1629837174000
Fix,GT,37.3711984,-122.0477144,9.21499995065271,0.0010003475,0.1,279.6926,1629837175000
Fix,GT,37.3711984,-122.0477144,9.214999892186896,0.001,0.099,279.69263,1629837176000
Fix,GT,37.3711984,-122.0477144,9.214999833721086,1.8716113e-06,0.1,279.69266,1629837177000
Fix,GT,37.3711984,-122.0477144,9.214999867513251,0.0,0.099,279.6924,1629837178000
Fix,GT,37.3711984,-122.0477144,9.215000266582646,0.000999165,0.1,279.6923,1629837179000
Fix,GT,37.3711984,-122.0477144,9.214999751118013,0.0,0.099,279.69244,1629837180000
Fix,GT,37.3711984,-122.0477144,9.214999784910177,0.0009991669,0.1,279.6925,1629837181000
Fix,GT,37.3711984,-122.0477144,9.21499972698075,0.001,0.099,279.69263,1629837182000
Fix,GT,37.3711984,-122.0477144,9.215000125513765,0.0,0.1,279.69244,1629837183000
Fix,GT,37.3711984,-122.0477144,9.215000251563907,0.0009991698,0.1,279.69266,1629837184000
Fix,GT,37.3711984,-122.0477144,9.214999736099273,1.6587401e-06,0.1,279.69257,1629837185000
Fix,GT,37.3711984,-122.0477144,9.215000135168664,8.2840006e-07,0.1,279.69238,1629837186000
Fix,GT,37.3711984,-122.0477144,9.215000076702854,0.0009991726,0.1,279.69217,1629837187000
Fix,GT,37.3711984,-122.0477144,9.21500011049502,0.0014142136,0.1,279.69223,1629837188000
Fix,GT,37.3711984,-122.0477144,9.21500005202921,0.0010003421,0.1,279.69238,1629837189000
Fix,GT,37.3711984,-122.0477144,9.21499999409978,0.001413872,0.1,279.6926,1629837190000
Fix,GT,37.3711984,-122.0477144,9.215000027891946,0.001,0.1,279.69254,1629837191000
Fix,GT,37.3711984,-122.0477144,9.214999969426136,8.2266e-07,0.1,279.6924,1629837192000
Fix,GT,37.3711984,-122.0477144,9.214999911496706,0.0,0.1,279.6922,1629837193000
Fix,GT,37.3711984,-122.0477144,9.214999760772915,0.0010008208,0.099,279.69183,1629837194000
Fix,GT,37.3711984,-122.0477144,9.215000251563906,0.0022353942,0.1,279.6923,1629837195000
Fix,GT,37.3711984,-122.0477144,9.214999916860542,0.0010003393,0.1,279.69214,1629837196000
Fix,GT,37.3711984,-122.0477144,9.214999766673136,8.178101e-07,0.099,279.69208,1629837197000
Fix,GT,37.3711984,-122.0477144,9.21499989272328,8.1687006e-07,0.1,279.6922,1629837198000
Fix,GT,37.3711984,-122.0477144,9.214999926515448,0.0014130597,0.099,279.69217,1629837199000
Fix,GT,37.3711984,-122.0477144,9.214999868049636,0.0,0.1,279.69202,1629837200000
Fix,GT,37.3711984,-122.0477144,9.21499999409978,1.1511981e-06,0.1,279.69202,1629837201000
Fix,GT,37.3711984,-122.0477144,9.21499993563397,8.1306e-07,0.1,279.69202,1629837202000
Fix,GT,37.3711984,-122.0477144,9.214999785446562,0.0,0.099,279.69214,1629837203000
Fix,GT,37.3711984,-122.0477144,9.215000183979573,8.1112e-07,0.1,279.69214,1629837204000
Fix,GT,37.3711984,-122.0477144,9.215000218308123,0.0,0.1,279.6922,1629837205000
Fix,GT,37.3711984,-122.0477144,9.215000067584333,0.0014138784,0.1,279.69214,1629837206000
Fix,GT,37.3711984,-122.0477144,9.21500000911852,0.0,0.1,279.69193,1629837207000
Fix,GT,37.3711984,-122.0477144,9.214999951189093,0.0,0.1,279.69193,1629837208000
Fix,GT,37.3711984,-122.0477144,9.21499989272328,0.0,0.1,279.6919,1629837209000
Fix,GT,37.3711984,-122.0477144,9.214999926515446,0.0009991947,0.1,279.69196,1629837210000
Fix,GT,37.3711984,-122.0477144,9.21499986858602,0.001,0.1,279.69214,1629837211000
Fix,GT,37.3711984,-122.0477144,9.214999810120208,8.0345006e-07,0.1,279.69214,1629837212000
Fix,GT,37.3711984,-122.0477144,9.214999751654396,8.0249004e-07,0.099,279.69208,1629837213000
Fix,GT,37.3711984,-122.0477144,9.21500015072379,0.001,0.1,279.69196,1629837214000
Fix,GT,37.3711984,-122.0477144,9.215000184515958,0.0,0.1,279.69208,1629837215000
Fix,GT,37.3711984,-122.0477144,9.215000033792167,7.996e-07,0.1,279.6922,1629837216000
Fix,GT,37.3711984,-122.0477144,9.21499997586274,7.9864003e-07,0.1,279.69232,1629837217000
Fix,GT,37.3711984,-122.0477144,9.214999917396929,0.0014130855,0.1,279.69214,1629837218000
Fix,GT,37.3711984,-122.0477144,9.21499976720952,0.001,0.1,279.69202,1629837219000
Fix,GT,37.3711984,-122.0477144,9.21500016574253,7.9574005e-07,0.1,279.6922,1629837220000
Fix,GT,37.3711984,-122.0477144,9.215,0.0,0.1,-80.30787,1629837221000
Fix,GT,37.3711984,-122.0477144,9.214999772573355,0.001,0.099,279.69202,1629837222000
Fix,GT,37.3711984,-122.0477144,9.2149998986235,0.0014142136,0.1,279.69183,1629837223000
Fix,GT,37.3711984,-122.0477144,9.214999932415669,0.001,0.1,279.69177,1629837224000
Fix,GT,37.3711984,-122.0477144,9.21499987448624,0.001,0.1,279.6919,1629837225000
Fix,GT,37.3711984,-122.0477144,9.21500018076127,0.001,0.1,279.69174,1629837226000
Fix,GT,37.3711984,-122.0477144,9.21500021508982,0.0010000002,0.1,279.69186,1629837227000
Fix,GT,37.3711984,-122.0477144,9.215000156624011,0.0014138871,0.1,279.6918,1629837228000
Fix,GT,37.3711984,-122.0477144,9.21500000590022,0.001,0.1,279.692,1629837229000
Fix,GT,37.3711984,-122.0477144,9.215000131950363,0.0009992139,0.1,279.692,1629837230000
Fix,GT,37.3711984,-122.0477144,9.21500016574253,1.1104263e-06,0.1,279.6918,1629837231000
Fix,GT,37.3711984,-122.0477144,9.215000015555123,0.0,0.1,279.69165,1629837232000
Fix,GT,37.3711984,-122.0477144,9.214999865367718,0.0,0.1,279.69193,1629837233000
Fix,GT,37.3711984,-122.0477144,9.214999806901906,0.0,0.1,279.69196,1629837234000
Fix,GT,37.3711984,-122.0477144,9.214999840694071,0.0009992187,0.1,279.69186,1629837235000
Fix,GT,37.3711984,-122.0477144,9.215000147505489,0.0,0.1,279.69165,1629837236000
Fix,GT,37.3711984,-122.0477144,9.214999996781698,7.7939e-07,0.1,279.69183,1629837237000
Fix,GT,37.3711984,-122.0477144,9.21499993885227,0.001,0.1,279.69196,1629837238000
Fix,GT,37.3711984,-122.0477144,9.214999880386458,0.0014142136,0.099,279.6918,1629837239000
Fix,GT,37.3711984,-122.0477144,9.214999729662669,0.0,0.1,279.69174,1629837240000
Fix,GT,37.3711984,-122.0477144,9.214999763991218,0.0,0.099,279.69183,1629837241000
Fix,GT,37.3711984,-122.0477144,9.215000162524229,0.0014138928,0.1,279.692,1629837242000
Fix,GT,37.3711984,-122.0477144,9.21500001233682,0.0022351118,0.1,279.692,1629837243000
Fix,GT,37.3711984,-122.0477144,9.214999953871011,0.0014148486,0.1,279.6919,1629837244000
Fix,GT,37.3711984,-122.0477144,9.2149998954052,0.0010016686,0.1,279.6927,1629837245000
Fix,GT,37.3711984,-122.0477144,9.215000202216617,0.0031609305,0.1,279.69238,1629837246000
Fix,GT,37.3711984,-122.0477144,9.216000913516384,0.0010003189,0.1,279.69113,1629837247000
Fix,GT,37.3711984,-122.0477144,9.215998728575183,0.04362735,0.1,279.69446,1629837248000
Fix,GT,37.3711991,-122.0477197,9.206998395882549,0.89082664,0.1,279.6735,1629837249000
Fix,GT,37.3712011,-122.0477333,9.190998523603602,1.4888946,0.1,280.03415,1629837250000
Fix,GT,37.371207,-122.0477495,9.167999141828911,1.6012096,0.1,288.78952,1629837251000
Fix,GT,37.3712192,-122.0477605,9.146995623217606,1.5879989,0.1,309.01813,1629837252000
Fix,GT,37.3712364,-122.0477656,9.107997862015036,2.1969824,0.1,332.8933,1629837253000
Fix,GT,37.3712604,-122.047763,9.054997043599782,3.015733,0.1,357.3002,1629837254000
Fix,GT,37.3712897,-122.0477511,8.997997572153048,3.810415,0.099,15.24292,1629837255000
Fix,GT,37.3713253,-122.0477339,8.991999040096767,4.6181855,0.1,19.970917,1629837256000
Fix,GT,37.3713661,-122.0477159,8.964002380270513,4.834593,0.1,19.233093,1629837257000
Fix,GT,37.3714068,-122.0476989,8.9529968283053,4.675083,0.1,18.103973,1629837258000
Fix,GT,37.3714444,-122.0476853,8.96800167848391,3.7767704,0.1,16.031158,1629837259000
Fix,GT,37.3714716,-122.0476762,8.986001440429362,2.5585744,0.1,15.245728,1629837260000
Fix,GT,37.3714908,-122.0476695,9.01000289340713,1.9472905,0.1,15.11853,1629837261000
Fix,GT,37.3715047,-122.0476649,9.048001679885434,1.1693995,0.1,15.035767,1629837262000
Fix,GT,37.3715099,-122.0476631,9.055999267959384,0.0098852115,0.1,15.025421,1629837263000
Fix,GT,37.37151,-122.0476631,9.051999874071916,0.0014142136,0.099,15.021179,1629837264000
Fix,GT,37.37151,-122.0476631,9.051999817167175,0.0041223825,0.1,15.018494,1629837265000
Fix,GT,37.37151,-122.0476631,9.053000118037687,0.002236068,0.1,15.01889,1629837266000
Fix,GT,37.37151,-122.0476631,9.053999879841228,0.0028384263,0.1,15.019226,1629837267000
Fix,GT,37.3715123,-122.0476622,9.047,0.7972077,0.1,15.076752,1629837268000
Fix,GT,37.3715274,-122.0476564,9.079991529696388,2.4874716,0.099,16.41333,1629837269000
Fix,GT,37.3715502,-122.0476408,8.732035185503307,3.3720891,0.1,27.69748,1629837270000
Fix,GT,37.3715723,-122.0476077,9.026007646133191,4.32816,0.1,49.49408,1629837271000
Fix,GT,37.3715869,-122.0475523,9.102999853757444,6.2013845,0.099,74.02557,1629837272000
Fix,GT,37.3715866,-122.0474711,9.119998485838993,8.316474,0.1,93.346375,1629837273000
Fix,GT,37.371572,-122.0473673,9.103999735038729,10.326471,0.099,101.40927,1629837274000
Fix,GT,37.3715486,-122.0472449,9.054997810282046,12.102709,0.1,103.8952,1629837275000
Fix,GT,37.3715193,-122.0471032,9.007993959133978,13.737743,0.1,104.628265,1629837276000
Fix,GT,37.3714869,-122.0469476,8.935995656827348,14.613852,0.1,104.44037,1629837277000
Fix,GT,37.3714537,-122.046787,8.863994126628153,14.678,0.1,104.50958,1629837278000
Fix,GT,37.37142,-122.0466252,8.78299537996191,15.067942,0.099,104.5155,1629837279000
Fix,GT,37.3713851,-122.0464571,8.691986002867925,15.7368555,0.1,104.64215,1629837280000
Fix,GT,37.3713479,-122.0462811,8.568998004975962,16.502638,0.1,104.808716,1629837281000
Fix,GT,37.371309,-122.046097,8.481994189323974,17.213203,0.1,104.68088,1629837282000
Fix,GT,37.371269,-122.0459075,8.418993573979126,17.461103,0.1,104.71683,1629837283000
Fix,GT,37.3712287,-122.0457162,8.353992142319562,17.595812,0.1,104.79779,1629837284000
Fix,GT,37.3711877,-122.0455237,8.350000720329174,17.633135,0.1,104.90753,1629837285000
Fix,GT,37.3711461,-122.0453322,8.375001645788492,17.567343,0.1,105.28067,1629837286000
Fix,GT,37.3711037,-122.045141,8.389002153442242,17.589075,0.1,105.449005,1629837287000
Fix,GT,37.3710607,-122.0449497,8.40299878256477,17.622862,0.1,105.67499,1629837288000
Fix,GT,37.3710173,-122.0447579,8.359994358787313,17.692478,0.1,105.78464,1629837289000
Fix,GT,37.3709735,-122.0445653,8.304994791403995,17.798374,0.1,105.77478,1629837290000
Fix,GT,37.3709294,-122.0443719,8.219990631363297,17.8441,0.1,106.230774,1629837291000
Fix,GT,37.3708832,-122.0441794,8.106990429750061,17.726097,0.1,106.90686,1629837292000
Fix,GT,37.3708364,-122.0439894,7.960988456589461,17.50865,0.1,107.177246,1629837293000
Fix,GT,37.3707895,-122.0438012,7.82299501263164,17.458906,0.1,107.37033,1629837294000
Fix,GT,37.370742,-122.0436132,7.702994246567658,17.472168,0.1,107.60394,1629837295000
Fix,GT,37.3706939,-122.0434251,7.573993332933576,17.511923,0.1,107.782776,1629837296000
Fix,GT,37.3706454,-122.0432369,7.469989989070222,17.515844,0.1,107.86688,1629837297000
Fix,GT,37.370597,-122.0430488,7.348991320718895,17.51294,0.1,107.6821,1629837298000
Fix,GT,37.3705489,-122.0428606,7.271987620227621,17.507612,0.1,107.65454,1629837299000
Fix,GT,37.3705009,-122.0426723,7.177991538422531,17.516733,0.1,107.53665,1629837300000
Fix,GT,37.3704532,-122.0424838,7.061990574484983,17.513348,0.1,107.43112,1629837301000
Fix,GT,37.3704058,-122.0422954,6.966993614440201,17.478603,0.1,107.54266,1629837302000
Fix,GT,37.3703578,-122.0421076,6.87399371390423,17.45711,0.1,107.719574,1629837303000
Fix,GT,37.3703092,-122.0419203,6.794995751861308,17.455263,0.1,108.15463,1629837304000
Fix,GT,37.3702593,-122.0417335,6.721991303047981,17.440935,0.099,108.46127,1629837305000
Fix,GT,37.3702088,-122.0415472,6.667997166292743,17.411266,0.1,108.87204,1629837306000
Fix,GT,37.3701572,-122.0413619,6.624999457202851,17.347982,0.1,109.28421,1629837307000
Fix,GT,37.3701053,-122.0411773,6.580992118644064,17.305435,0.1,109.00043,1629837308000
Fix,GT,37.3700546,-122.0409925,6.509000789271202,17.284527,0.1,108.70038,1629837309000
Fix,GT,37.3700049,-122.0408078,6.470999457781203,17.245823,0.1,108.42572,1629837310000
Fix,GT,37.3699563,-122.0406231,6.458999159583007,17.21599,0.1,107.94928,1629837311000
Fix,GT,37.3699092,-122.0404387,6.422999952518789,17.04878,0.1,107.5571,1629837312000
Fix,GT,37.369863,-122.0402568,6.39499708982621,16.778381,0.1,107.63815,1629837313000
Fix,GT,37.3698171,-122.0400778,6.351997819469194,16.51377,0.099,107.70758,1629837314000
Fix,GT,37.3697722,-122.0399017,6.309997329646838,16.252266,0.1,107.68356,1629837315000
Fix,GT,37.3697277,-122.0397285,6.237993780756719,16.002108,0.1,107.85748,1629837316000
Fix,GT,37.3696834,-122.0395581,6.171999477990321,15.740513,0.1,107.926575,1629837317000
Fix,GT,37.3696401,-122.039391,6.181008536236244,15.333206,0.1,107.799835,1629837318000
Fix,GT,37.3695983,-122.0392279,6.188002009564195,15.019974,0.1,107.59305,1629837319000
Fix,GT,37.3695577,-122.0390679,6.182998537618841,14.725627,0.1,107.465,1629837320000
Fix,GT,37.369518,-122.0389114,6.156997860769741,14.241678,0.099,107.59323,1629837321000
Fix,GT,37.3694804,-122.0387652,6.135001936345012,12.840211,0.1,107.76437,1629837322000
Fix,GT,37.3694472,-122.0386369,6.09899917492189,11.085452,0.1,107.92709,1629837323000
Fix,GT,37.3694183,-122.0385264,6.076999135733116,9.567189,0.099,108.08566,1629837324000
Fix,GT,37.3693935,-122.0384316,6.077000542071881,8.080915,0.1,107.94763,1629837325000
Fix,GT,37.3693729,-122.0383515,6.061000170400773,6.872084,0.1,107.810486,1629837326000
Fix,GT,37.369356,-122.0382857,6.049000819940003,5.300271,0.1,107.722015,1629837327000
Fix,GT,37.3693438,-122.0382381,6.04500053876976,3.6151564,0.099,107.72043,1629837328000
Fix,GT,37.3693352,-122.0382045,6.029998612361261,2.98441,0.1,107.72046,1629837329000
Fix,GT,37.3693266,-122.0381707,6.017000009806594,3.4333515,0.1,107.65466,1629837330000
Fix,GT,37.3693164,-122.0381306,6.016999222248794,3.878229,0.1,107.56439,1629837331000
Fix,GT,37.369306,-122.0380894,6.006999481124687,3.7638345,0.1,107.494965,1629837332000
Fix,GT,37.3692961,-122.0380498,6.002001197763019,3.5378041,0.1,107.39679,1629837333000
Fix,GT,37.3692874,-122.0380156,6.008998480919865,2.7913392,0.1,107.46912,1629837334000
Fix,GT,37.3692808,-122.0379899,6.011000165846083,1.9059887,0.1,107.69345,1629837335000
Fix,GT,37.3692773,-122.0379762,6.010999827506079,0.6327124,0.1,107.7962,1629837336000
Fix,GT,37.3692768,-122.0379743,6.003000588013558,0.009216739,0.1,107.81348,1629837337000
Fix,GT,37.3692768,-122.0379743,6.00199918730295,0.0022359076,0.1,107.81201,1629837338000
Fix,GT,37.3692768,-122.0379743,6.00099982674513,0.0014142134,0.099,107.81146,1629837339000
Fix,GT,37.3692768,-122.0379743,6.000999906386482,0.001,0.1,107.81186,1629837340000
Fix,GT,37.3692768,-122.0379743,6.001000046108151,0.0014139334,0.1,107.81189,1629837341000
Fix,GT,37.3692768,-122.0379743,6.001000125749503,0.0010002799,0.1,107.81192,1629837342000
Fix,GT,37.3692768,-122.0379743,6.000999847703381,0.002235234,0.1,107.8118,1629837343000
Fix,GT,37.3692768,-122.0379743,6.000999867264414,0.0014147671,0.1,107.81201,1629837344000
Fix,GT,37.3692767,-122.0379741,5.995998779517715,0.17461675,0.1,107.81406,1629837345000
Fix,GT,37.3692749,-122.0379669,5.989000144322752,1.3523643,0.1,107.88455,1629837346000
Fix,GT,37.3692686,-122.0379431,5.978000103693688,3.1384697,0.1,107.99744,1629837347000
Fix,GT,37.3692572,-122.0378995,5.972999394134385,4.951358,0.1,108.05078,1629837348000
Fix,GT,37.3692407,-122.0378357,5.966998626610904,6.994118,0.1,107.83005,1629837349000
Fix,GT,37.3692188,-122.0377499,5.953998588874936,8.91866,0.1,107.717316,1629837350000
Fix,GT,37.3691922,-122.0376459,5.938999217426404,10.41201,0.1,107.674255,1629837351000
Fix,GT,37.3691616,-122.0375248,5.920999179163948,12.033271,0.1,107.33502,1629837352000
Fix,GT,37.3691291,-122.0373916,5.918996835550876,12.425524,0.1,106.67047,1629837353000
Fix,GT,37.3690979,-122.0372564,5.889996078183408,12.601105,0.1,105.71167,1629837354000
Fix,GT,37.3690675,-122.0371164,5.871998694138718,13.101921,0.1,104.78296,1629837355000
Fix,GT,37.3690377,-122.0369701,5.83199402750266,13.63078,0.1,103.874054,1629837356000
Fix,GT,37.3690087,-122.0368175,5.758995547059923,14.14589,0.1,103.03073,1629837357000
Fix,GT,37.3689797,-122.0366594,5.734990843079112,14.61355,0.1,102.8006,1629837358000
Fix,GT,37.3689496,-122.0364963,5.652994053076487,14.982328,0.1,103.0072,1629837359000
Fix,GT,37.3689192,-122.0363305,5.622995995981968,15.152591,0.1,102.78873,1629837360000
Fix,GT,37.3688884,-122.0361641,5.587998589755386,15.10636,0.1,103.06076,1629837361000
Fix,GT,37.3688574,-122.0359976,5.573997899254609,15.185232,0.099,102.97833,1629837362000
Fix,GT,37.3688266,-122.035831,5.55699797641614,15.108158,0.1,102.94586,1629837363000
Fix,GT,37.3687959,-122.0356652,5.549993590367958,15.042461,0.1,103.03131,1629837364000
Fix,GT,37.3687657,-122.0355008,5.49499997345236,14.831369,0.1,102.73419,1629837365000
Fix,GT,37.3687366,-122.0353386,5.473995487219247,14.69629,0.1,102.52042,1629837366000
Fix,GT,37.3687075,-122.0351757,5.438996811735327,14.853247,0.1,102.618835,1629837367000
Fix,GT,37.3686775,-122.0350132,5.427994075948838,14.6877165,0.1,103.07349,1629837368000
Fix,GT,37.3686468,-122.0348508,5.413993021829228,14.976058,0.1,103.41571,1629837369000
Fix,GT,37.3686132,-122.0346841,5.383998063717387,15.485317,0.1,104.668365,1629837370000
Fix,GT,37.3685752,-122.0345142,5.338998729993939,15.672436,0.1,106.23331,1629837371000
Fix,GT,37.3685337,-122.034346,5.302000577880127,15.53624,0.1,107.70007,1629837372000
Fix,GT,37.3684883,-122.0341808,5.301994956918526,15.385785,0.1,110.097015,1629837373000
Fix,GT,37.3684382,-122.0340203,5.272996109310712,15.137306,0.1,111.86502,1629837374000
Fix,GT,37.368387,-122.0338638,5.244996027745714,14.836013,0.099,112.35156,1629837375000
Fix,GT,37.3683351,-122.033711,5.20100207655644,14.634446,0.1,113.53543,1629837376000
Fix,GT,37.3682799,-122.0335606,5.178997508464906,14.733635,0.1,115.40643,1629837377000
Fix,GT,37.368221,-122.0334123,5.129995407688897,14.5930805,0.1,117.07898,1629837378000
Fix,GT,37.36816,-122.0332681,5.096995583379292,14.3153105,0.1,118.19232,1629837379000
Fix,GT,37.3680983,-122.0331282,5.086996091216919,14.021641,0.1,119.26105,1629837380000
Fix,GT,37.3680357,-122.0329927,5.09199885757477,13.710567,0.1,120.53644,1629837381000
Fix,GT,37.3679718,-122.0328622,5.087997353132814,13.419876,0.1,122.07852,1629837382000
Fix,GT,37.3679067,-122.0327365,5.07199879130011,13.14373,0.1,123.48764,1629837383000
Fix,GT,37.3678404,-122.0326154,5.05900055494369,12.875847,0.1,124.811676,1629837384000
Fix,GT,37.3677736,-122.0324983,5.036997563144076,12.680106,0.1,125.925354,1629837385000
Fix,GT,37.3677054,-122.0323817,5.002997383282055,13.005497,0.099,126.08557,1629837386000
Fix,GT,37.3676339,-122.032261,4.998001377236098,13.641047,0.1,126.866,1629837387000
Fix,GT,37.3675572,-122.032136,4.987998678814272,14.254191,0.1,128.02325,1629837388000
Fix,GT,37.367475,-122.0320083,4.966994982430769,14.805342,0.1,129.34134,1629837389000
Fix,GT,37.3673872,-122.0318786,4.946998714029498,15.332262,0.1,131.12033,1629837390000
Fix,GT,37.3672918,-122.0317492,4.896996230482066,15.874823,0.1,133.52094,1629837391000
Fix,GT,37.3671901,-122.0316193,4.889998269658419,16.372383,0.1,135.01346,1629837392000
Fix,GT,37.3670833,-122.0314889,4.8649943555169735,16.600023,0.1,135.89374,1629837393000
Fix,GT,37.3669762,-122.03136,4.873001317607938,16.351963,0.1,136.13144,1629837394000
Fix,GT,37.3668709,-122.0312334,4.844998273039819,16.054054,0.1,136.20206,1629837395000
Fix,GT,37.3667671,-122.0311096,4.818001245829742,15.761109,0.1,136.31012,1629837396000
Fix,GT,37.3666653,-122.0309878,4.777000115394069,15.480416,0.1,136.22952,1629837397000
Fix,GT,37.3665654,-122.0308682,4.78399998774752,15.177318,0.1,136.14764,1629837398000
Fix,GT,37.3664676,-122.0307504,4.764997534984141,15.023541,0.1,136.05646,1629837399000
Fix,GT,37.3663699,-122.0306327,4.733998831331031,15.018212,0.1,135.96954,1629837400000
Fix,GT,37.366273,-122.0305157,4.664998892820847,14.830605,0.1,135.9292,1629837401000
Fix,GT,37.3661778,-122.0304005,4.64099806389981,14.545904,0.1,135.92542,1629837402000
Fix,GT,37.3660845,-122.0302875,4.607995677316736,14.259461,0.1,135.86646,1629837403000
Fix,GT,37.3659931,-122.0301767,4.534001246228348,13.979971,0.1,135.81381,1629837404000
Fix,GT,37.3659045,-122.0300687,4.526999471376883,13.243151,0.1,135.69095,1629837405000
Fix,GT,37.3658251,-122.0299719,4.520997003323398,11.313154,0.1,135.69522,1629837406000
Fix,GT,37.3657589,-122.0298914,4.505000670307433,9.005207,0.1,135.81177,1629837407000
Fix,GT,37.365709,-122.0298314,4.490998298687395,6.3843026,0.1,136.19757,1629837408000
Fix,GT,37.3656757,-122.0297916,4.477000561227556,3.8327785,0.1,136.24854,1629837409000
Fix,GT,37.3656583,-122.0297708,4.468999968004006,1.7122276,0.1,136.2558,1629837410000
Fix,GT,37.3656512,-122.0297624,4.466000025735586,0.5424592,0.1,136.24182,1629837411000
Fix,GT,37.3656502,-122.0297612,4.459000730567611,0.0078090564,0.1,136.2428,1629837412000
Fix,GT,37.3656502,-122.0297612,4.4599993174524855,0.0010002493,0.1,136.24118,1629837413000
Fix,GT,37.3656502,-122.0297612,4.45999993224279,0.0014139647,0.1,136.24005,1629837414000
Fix,GT,37.3656502,-122.0297612,4.459999989615753,0.001,0.1,136.24036,1629837415000
Fix,GT,37.3656502,-122.0297612,4.460000046988716,0.0009994014,0.1,136.24048,1629837416000
Fix,GT,37.3656502,-122.0297612,4.4599998831772245,0.0014142134,0.099,136.24023,1629837417000
Fix,GT,37.3656502,-122.0297612,4.4599999408097935,0.0,0.1,136.24042,1629837418000
Fix,GT,37.3656502,-122.0297612,4.459999998182757,0.0014142136,0.1,136.24036,1629837419000
Fix,GT,37.3656502,-122.0297612,4.460000011163065,0.0022353334,0.1,136.2406,1629837420000
Fix,GT,37.3656502,-122.0297612,4.460000023883767,0.0022347413,0.1,136.2406,1629837421000
Fix,GT,37.3656502,-122.0297612,4.460000081516337,0.0022347437,0.1,136.24057,1629837422000
Fix,GT,37.3656502,-122.0297612,4.460000094237039,0.0028267552,0.1,136.24072,1629837423000
Fix,GT,37.3656502,-122.0297612,4.460000107217347,0.0028273484,0.1,136.24066,1629837424000
Fix,GT,37.3656502,-122.0297612,4.460000075285788,0.0028273503,0.1,136.24042,1629837425000
Fix,GT,37.3656502,-122.0297612,4.460000043613836,0.0036040193,0.1,136.24036,1629837426000
Fix,GT,37.3656502,-122.0297612,4.460000056594144,0.0014133836,0.1,136.2403,1629837427000
Fix,GT,37.3656502,-122.0297612,4.460000024662587,0.0031604252,0.1,136.24042,1629837428000
Fix,GT,37.3656502,-122.0297612,4.4599999929906335,0.0022355875,0.1,136.24066,1629837429000
Fix,GT,37.3656502,-122.0297612,4.459999961318681,0.0022355884,0.1,136.24081,1629837430000
Fix,GT,37.3656502,-122.0297612,4.459999884994467,0.001,0.1,136.24078,1629837431000
Fix,GT,37.3656502,-122.0297612,4.460000119159231,0.0,0.1,136.24033,1629837432000
Fix,GT,37.3656502,-122.0297612,4.460000042575412,0.0009994197,0.1,136.24048,1629837433000
Fix,GT,37.3656502,-122.0297612,4.462000010908348,0.0,0.1,136.24036,1629837434000
Fix,GT,37.3656502,-122.0297612,4.462999979217537,5.7822e-07,0.1,136.24084,1629837435000
Fix,GT,37.3656502,-122.0297612,4.462999902841984,0.0,0.1,136.2406,1629837436000
Fix,GT,37.3656502,-122.0297612,4.462999871148728,0.0010002387,0.099,136.24097,1629837437000
Fix,GT,37.3656502,-122.0297612,4.46300010521122,0.0031710302,0.1,136.24002,1629837438000
Fix,GT,37.3656482,-122.0297588,4.457000073419127,0.7518585,0.1,136.20914,1629837439000
Fix,GT,37.3656402,-122.029749,4.4549994243475375,1.7774221,0.1,136.0592,1629837440000
Fix,GT,37.3656243,-122.0297297,4.449999920997652,3.2354846,0.1,135.78146,1629837441000
Fix,GT,37.3655978,-122.0296968,4.445999318866117,5.061736,0.099,135.34998,1629837442000
Fix,GT,37.3655586,-122.029648,4.436001831041066,7.208428,0.1,135.13895,1629837443000
Fix,GT,37.3655081,-122.0295855,4.444999870633474,8.447293,0.099,135.2392,1629837444000
Fix,GT,37.3654502,-122.0295142,4.4409998836749,9.567825,0.099,135.51288,1629837445000
Fix,GT,37.3653848,-122.0294346,4.448001771454234,10.646132,0.1,135.78772,1629837446000
Fix,GT,37.3653126,-122.0293472,4.4460016029827525,11.60749,0.099,135.92783,1629837447000
Fix,GT,37.3652362,-122.0292544,4.435999487531837,12.012817,0.1,135.84125,1629837448000
Fix,GT,37.3651562,-122.0291584,4.413998242627015,12.65378,0.099,136.23914,1629837449000
Fix,GT,37.3650705,-122.0290553,4.413004052627832,13.735202,0.1,136.02411,1629837450000
Fix,GT,37.3649782,-122.0289447,4.443000515810679,14.583555,0.1,136.1789,1629837451000
Fix,GT,37.3648824,-122.0288294,4.4409989801025365,14.762294,0.1,136.05774,1629837452000
Fix,GT,37.3647858,-122.0287127,4.39899495176936,15.125722,0.1,135.85815,1629837453000
Fix,GT,37.3646863,-122.0285918,4.361004537422268,15.647049,0.1,135.64255,1629837454000
Fix,GT,37.3645837,-122.0284667,4.359997177140613,16.02001,0.1,135.83868,1629837455000
Fix,GT,37.3644804,-122.0283418,4.345999458380393,15.849167,0.1,135.97537,1629837456000
Fix,GT,37.3643785,-122.0282187,4.325000110769179,15.561118,0.1,135.98163,1629837457000
Fix,GT,37.3642784,-122.028098,4.317998930535745,15.268533,0.1,136.03479,1629837458000
Fix,GT,37.3641803,-122.0279796,4.318998815592378,14.968426,0.1,135.98233,1629837459000
Fix,GT,37.3640842,-122.0278632,4.2999994658996,14.679028,0.1,135.85468,1629837460000
Fix,GT,37.36399,-122.0277494,4.281996644492262,14.396796,0.1,136.03024,1629837461000
Fix,GT,37.3638974,-122.0276378,4.249000081864359,14.12674,0.1,136.0788,1629837462000
Fix,GT,37.3638065,-122.0275283,4.232000556704413,13.866828,0.1,136.01767,1629837463000
Fix,GT,37.3637168,-122.02742,4.240002247826896,13.789515,0.1,135.93243,1629837464000
Fix,GT,37.3636275,-122.0273123,4.253999946762691,13.697405,0.1,136.11578,1629837465000
Fix,GT,37.3635386,-122.0272059,4.249001131059834,13.614768,0.1,136.17984,1629837466000
Fix,GT,37.3634499,-122.0270992,4.243001599379117,13.721177,0.099,136.04132,1629837467000
Fix,GT,37.3633609,-122.0269916,4.248002233518287,13.66421,0.1,135.90253,1629837468000
Fix,GT,37.3632718,-122.0268837,4.199995580967515,13.951507,0.099,135.7699,1629837469000
Fix,GT,37.3631802,-122.0267723,4.163998964897356,14.314683,0.1,135.79312,1629837470000
Fix,GT,37.3630876,-122.0266608,4.124999557072529,14.173129,0.1,136.18787,1629837471000
Fix,GT,37.3629963,-122.0265506,4.098001059278148,14.079249,0.1,135.79941,1629837472000
Fix,GT,37.3629034,-122.0264369,4.089997352684149,14.999546,0.1,135.63382,1629837473000
Fix,GT,37.362803,-122.0263146,4.081999389032018,16.060144,0.1,135.71881,1629837474000
Fix,GT,37.3626959,-122.0261849,4.083999481864972,16.983969,0.1,135.78925,1629837475000
Fix,GT,37.3625849,-122.02605,4.10500544037961,17.272184,0.1,135.8736,1629837476000
Fix,GT,37.3624731,-122.0259152,4.153003312502929,17.181135,0.1,136.10486,1629837477000
Fix,GT,37.3623616,-122.0257813,4.214005232870579,17.106756,0.1,136.11957,1629837478000
Fix,GT,37.3622506,-122.0256482,4.279003727241186,16.965,0.1,136.16077,1629837479000
Fix,GT,37.3621406,-122.0255162,4.36800536057877,16.863663,0.1,136.14557,1629837480000
Fix,GT,37.3620312,-122.0253844,4.453005272489739,16.850477,0.1,135.94727,1629837481000
Fix,GT,37.3619216,-122.0252526,4.522004174246802,16.857075,0.1,136.12964,1629837482000
Fix,GT,37.3618114,-122.025121,4.565008995370824,17.006666,0.1,136.30399,1629837483000
Fix,GT,37.3616998,-122.0249873,4.6580032698605205,17.270489,0.1,136.07495,1629837484000
Fix,GT,37.3615868,-122.0248508,4.751003800245234,17.546951,0.1,135.8953,1629837485000
Fix,GT,37.3614724,-122.0247133,4.823006128687586,17.633688,0.1,136.16681,1629837486000
Fix,GT,37.3613576,-122.024576,4.905003521118314,17.569582,0.099,136.31287,1629837487000
Fix,GT,37.3612434,-122.0244396,4.981002014354919,17.457523,0.1,136.20715,1629837488000
Fix,GT,37.3611302,-122.0243034,5.048005332804052,17.369375,0.1,135.96454,1629837489000
Fix,GT,37.3610182,-122.0241671,5.133999390547863,17.28798,0.1,135.56305,1629837490000
Fix,GT,37.3609073,-122.0240307,5.191005804254557,17.212305,0.1,135.41571,1629837491000
Fix,GT,37.3607969,-122.0238948,5.2660040003506,17.138735,0.1,135.40399,1629837492000
Fix,GT,37.3606869,-122.0237593,5.33999783485895,17.10479,0.099,135.44128,1629837493000
Fix,GT,37.3605769,-122.0236242,5.41700303414237,17.129404,0.1,135.59052,1629837494000
Fix,GT,37.3604663,-122.0234896,5.481004465922015,17.061766,0.099,135.80273,1629837495000
Fix,GT,37.3603565,-122.0233561,5.563001679780776,16.907639,0.1,135.7392,1629837496000
Fix,GT,37.3602478,-122.0232236,5.626999884707853,16.757338,0.1,135.72247,1629837497000
Fix,GT,37.3601399,-122.0230924,5.672004924596171,16.590609,0.1,135.84253,1629837498000
Fix,GT,37.3600327,-122.0229631,5.735003403922427,16.44979,0.1,136.06769,1629837499000
Fix,GT,37.3599264,-122.022835,5.803997841896489,16.302254,0.099,136.044,1629837500000
Fix,GT,37.3598211,-122.022708,5.896007745352865,16.137619,0.1,135.9527,1629837501000
Fix,GT,37.3597167,-122.0225823,5.967004602880216,16.019144,0.1,136.10327,1629837502000
Fix,GT,37.3596127,-122.0224575,6.0070055532759286,15.923146,0.1,136.14856,1629837503000
Fix,GT,37.3595095,-122.0223332,6.111004051999189,15.8978405,0.1,135.9899,1629837504000
Fix,GT,37.3594065,-122.0222085,6.159003496565506,15.878095,0.1,135.84781,1629837505000
Fix,GT,37.3593037,-122.0220836,6.23099938543397,15.928527,0.1,135.78485,1629837506000
Fix,GT,37.3592003,-122.0219583,6.289004567923606,16.004711,0.1,135.83179,1629837507000
Fix,GT,37.3590965,-122.0218324,6.361001593011431,16.067047,0.1,135.91101,1629837508000
Fix,GT,37.3589921,-122.0217062,6.406004948577843,16.116442,0.1,136.00815,1629837509000
Fix,GT,37.3588874,-122.0215804,6.491003404364688,16.091164,0.099,136.15942,1629837510000
Fix,GT,37.3587824,-122.021455,6.557002853047977,16.136604,0.1,136.36685,1629837511000
Fix,GT,37.3586769,-122.0213291,6.6020041079660885,16.204432,0.1,136.11053,1629837512000
Fix,GT,37.3585714,-122.0212021,6.662002576699306,16.267076,0.1,136.00098,1629837513000
Fix,GT,37.3584657,-122.0210742,6.692001763449516,16.338032,0.1,135.86176,1629837514000
Fix,GT,37.3583599,-122.0209456,6.7610027516436535,16.405046,0.099,135.68262,1629837515000
Fix,GT,37.3582539,-122.0208161,6.826002825260627,16.437428,0.1,135.67676,1629837516000
Fix,GT,37.3581481,-122.0206876,6.863003252929717,16.245098,0.1,135.80157,1629837517000
Fix,GT,37.3580442,-122.020561,6.921001107649325,15.941037,0.1,135.70947,1629837518000
Fix,GT,37.3579418,-122.0204371,6.961000984382176,15.638705,0.1,135.93283,1629837519000
Fix,GT,37.3578417,-122.0203158,6.96699913374384,15.253733,0.1,135.82489,1629837520000
Fix,GT,37.3577441,-122.0201971,6.961997016715352,14.955362,0.1,135.72821,1629837521000
Fix,GT,37.3576481,-122.0200808,6.931997796537297,14.68702,0.1,135.89346,1629837522000
Fix,GT,37.3575531,-122.0199658,6.903998640016565,14.68791,0.1,135.8877,1629837523000
Fix,GT,37.3574573,-122.0198503,6.846995583391574,14.853057,0.1,136.0971,1629837524000
Fix,GT,37.35736,-122.0197335,6.7689954027212815,15.062317,0.1,136.08331,1629837525000
Fix,GT,37.3572615,-122.0196148,6.660994751939317,15.2754755,0.1,136.09915,1629837526000
Fix,GT,37.3571614,-122.0194947,6.5679953195799605,15.491167,0.1,136.04327,1629837527000
Fix,GT,37.3570602,-122.0193727,6.438995626373566,15.7021885,0.1,135.91302,1629837528000
Fix,GT,37.356958,-122.0192492,6.3579967876469885,15.771819,0.1,135.94342,1629837529000
Fix,GT,37.3568553,-122.0191253,6.25199514515698,15.891369,0.1,135.98721,1629837530000
Fix,GT,37.3567516,-122.0190002,6.141993883971329,16.046133,0.1,135.96729,1629837531000
Fix,GT,37.3566471,-122.0188741,6.036996378414973,16.164417,0.1,135.9672,1629837532000
Fix,GT,37.3565419,-122.0187469,5.926993414222873,16.28483,0.1,135.83746,1629837533000
Fix,GT,37.3564362,-122.0186185,5.79799455101951,16.400352,0.1,135.79132,1629837534000
Fix,GT,37.3563296,-122.0184898,5.695995802656194,16.454819,0.1,136.01929,1629837535000
Fix,GT,37.3562226,-122.0183607,5.600995658990694,16.53002,0.1,135.97961,1629837536000
Fix,GT,37.3561151,-122.018231,5.499994458768517,16.589697,0.1,135.98886,1629837537000
Fix,GT,37.3560072,-122.0181014,5.385994786368479,16.56512,0.099,136.16418,1629837538000
Fix,GT,37.3558994,-122.0179724,5.328000858483255,16.524696,0.1,136.23901,1629837539000
Fix,GT,37.3557918,-122.0178438,5.282999384519411,16.507374,0.1,136.24042,1629837540000
Fix,GT,37.3556844,-122.0177149,5.27299909652528,16.528023,0.1,136.08871,1629837541000
Fix,GT,37.3555771,-122.0175851,5.236001044629491,16.58986,0.1,135.73212,1629837542000
Fix,GT,37.3554697,-122.0174542,5.269002267381934,16.663862,0.1,135.67722,1629837543000
Fix,GT,37.3553618,-122.017323,5.337001977489796,16.70716,0.1,135.76593,1629837544000
Fix,GT,37.3552538,-122.0171917,5.387004042484215,16.681656,0.099,135.70203,1629837545000
Fix,GT,37.3551466,-122.0170617,5.445000981528836,16.423077,0.1,135.94305,1629837546000
Fix,GT,37.355041,-122.0169345,5.4869999254235005,16.134054,0.1,136.08847,1629837547000
Fix,GT,37.3549366,-122.0168087,5.52300320085627,16.033941,0.1,135.90515,1629837548000
Fix,GT,37.3548334,-122.0166832,5.59300169114332,15.861776,0.099,135.669,1629837549000
Fix,GT,37.3547319,-122.0165593,5.620002314640005,15.604419,0.1,135.69086,1629837550000
Fix,GT,37.354631,-122.016437,5.663003438115353,15.5847435,0.1,136.0701,1629837551000
Fix,GT,37.3545294,-122.0163155,5.721001712962752,15.590585,0.099,136.27454,1629837552000
Fix,GT,37.3544282,-122.0161948,5.767002109281952,15.399883,0.099,136.35413,1629837553000
Fix,GT,37.3543287,-122.0160761,5.823003118109366,15.085207,0.1,136.18976,1629837554000
Fix,GT,37.3542318,-122.0159593,5.876002063488675,14.765893,0.1,135.99997,1629837555000
Fix,GT,37.3541383,-122.0158455,5.932004393681942,13.940876,0.1,135.52344,1629837556000
Fix,GT,37.3540533,-122.0157401,5.981997032604355,12.623216,0.1,135.03949,1629837557000
Fix,GT,37.3539778,-122.0156438,6.0220021427220205,11.280854,0.1,134.04388,1629837558000
Fix,GT,37.3539125,-122.0155571,6.048000142048114,9.872355,0.1,132.8468,1629837559000
Fix,GT,37.3538568,-122.0154806,6.085000351229334,8.441334,0.099,132.09778,1629837560000
Fix,GT,37.3538106,-122.0154151,6.103000171226332,7.10228,0.1,131.41278,1629837561000
Fix,GT,37.3537722,-122.0153597,6.116000437661976,5.9204454,0.1,130.79865,1629837562000
Fix,GT,37.3537406,-122.0153134,6.135003109370183,4.9297957,0.1,130.33606,1629837563000
Fix,GT,37.3537146,-122.0152746,6.1590010162029065,3.9718113,0.1,130.03247,1629837564000
Fix,GT,37.3536951,-122.0152455,6.16999998294079,2.7144876,0.1,130.00397,1629837565000
Fix,GT,37.3536834,-122.0152281,6.173000181095209,1.2582911,0.1,129.89044,1629837566000
Fix,GT,37.35368,-122.015223,6.172999949516117,0.061203595,0.1,129.8725,1629837567000
Fix,GT,37.35368,-122.015223,6.167999841490527,0.0009999999,0.099,129.87189,1629837568000
Fix,GT,37.35368,-122.015223,6.168000039492734,0.001,0.1,129.87024,1629837569000
Fix,GT,37.35368,-122.015223,6.168000175742665,0.001,0.1,129.87085,1629837570000
Fix,GT,37.35368,-122.015223,6.165999944369192,0.0009995763,0.1,129.87115,1629837571000
Fix,GT,37.3536801,-122.015223,6.165000142284116,4.2262002e-07,0.1,129.87122,1629837572000
Fix,GT,37.3536801,-122.015223,6.1650001552027245,0.001,0.1,129.87146,1629837573000
Fix,GT,37.3536801,-122.015223,6.165000167941908,0.0009995798,0.1,129.87152,1629837574000
Fix,GT,37.3536801,-122.015223,6.16499993684236,0.0010001736,0.1,129.87158,1629837575000
Fix,GT,37.3536801,-122.015223,6.164999949581543,0.0014140405,0.1,129.87149,1629837576000
Fix,GT,37.3536801,-122.015223,6.16500002422239,0.0010001727,0.1,129.87161,1629837577000
Fix,GT,37.3536801,-122.015223,6.165000037140999,0.0010001722,0.1,129.87155,1629837578000
Fix,GT,37.3536801,-122.015223,6.16500017332466,4.1434e-07,0.1,129.87134,1629837579000
Fix,GT,37.3536801,-122.015223,6.164999880502873,0.0009995869,0.099,129.8713,1629837580000
Fix,GT,37.3536801,-122.015223,6.164999893242056,0.0014140429,0.1,129.87143,1629837581000
Fix,GT,37.3536801,-122.015223,6.16499984461785,0.0009995892,0.1,129.87152,1629837582000
Fix,GT,37.3536801,-122.015223,6.164999919079274,0.0,0.1,129.87152,1629837583000
Fix,GT,37.3536801,-122.015223,6.164999993720121,0.0,0.1,129.87146,1629837584000
Fix,GT,37.3536801,-122.015223,6.165000068181544,0.0009995928,0.1,129.8713,1629837585000
Fix,GT,37.3536801,-122.015223,6.165000019557337,0.0014140455,0.1,129.87134,1629837586000
Fix,GT,37.3536801,-122.015223,6.16500009401876,0.001413641,0.1,129.87158,1629837587000
Fix,GT,37.3536801,-122.015223,6.165000168659608,4.0367004e-07,0.1,129.87183,1629837588000
Fix,GT,37.3536801,-122.015223,6.165000119855977,0.0014140469,0.1,129.87192,1629837589000
Fix,GT,37.3536801,-122.015223,6.165000132774585,0.001,0.1,129.87189,1629837590000
Fix,GT,37.3536801,-122.015223,6.165000145693193,0.0014140479,0.1,129.87158,1629837591000
Fix,GT,37.3536801,-122.015223,6.165000096889561,0.001,0.1,129.87173,1629837592000
Fix,GT,37.3536801,-122.015223,6.165000109808171,0.0,0.1,129.87158,1629837593000
Fix,GT,37.3536801,-122.015223,6.164999816806958,0.001,0.099,129.87146,1629837594000
Fix,GT,37.3536801,-122.015223,6.1650001356453865,0.001,0.1,129.87152,1629837595000
Fix,GT,37.3536801,-122.015223,6.165000148563995,0.0010001634,0.1,129.87119,1629837596000
Fix,GT,37.3536801,-122.015223,6.165000161482603,0.0,0.1,129.87115,1629837597000
Fix,GT,37.3536801,-122.015223,6.165000174401212,0.002235584,0.1,129.87146,1629837598000
Fix,GT,37.3536801,-122.015223,6.164999881399999,0.0010001619,0.099,129.8707,1629837599000
Fix,GT,37.3536801,-122.015223,6.164999832596369,0.001,0.1,129.87094,1629837600000
Fix,GT,37.3536801,-122.015223,6.164999907237216,0.0022355882,0.1,129.87097,1629837601000
Fix,GT,37.3536801,-122.015223,6.164999920155824,0.0014140533,0.099,129.87115,1629837602000
Fix,GT,37.3536801,-122.015223,6.164999994617246,0.0010001599,0.1,129.87122,1629837603000
Fix,GT,37.3536801,-122.015223,6.16499994599304,0.001,0.1,129.8714,1629837604000
Fix,GT,37.3536801,-122.015223,6.164999958732224,0.001,0.1,129.87158,1629837605000
Fix,GT,37.3536801,-122.015223,6.165000033373072,0.001999618,0.1,129.87134,1629837606000
Fix,GT,37.3536801,-122.015223,6.165000107834494,0.0010003812,0.1,129.871,1629837607000
Fix,GT,37.3536801,-122.015223,6.165000120753102,0.0014140562,0.1,129.87091,1629837608000
Fix,GT,37.3536801,-122.015223,6.16500013367171,0.001,0.1,129.87103,1629837609000
Fix,GT,37.3536801,-122.015223,6.165000085047505,0.0031614613,0.1,129.87112,1629837610000
Fix,GT,37.3536801,-122.015223,6.165000036243874,3.7629002e-07,0.1,129.87103,1629837611000
Fix,GT,37.3536801,-122.015223,6.165000049162481,0.0010004637,0.1,129.87122,1629837612000
Fix,GT,37.3536801,-122.015223,6.164999938816036,0.0010001549,0.1,129.87128,1629837613000
Fix,GT,37.3536801,-122.015223,6.1649999515552185,8.333825e-07,0.1,129.8714,1629837614000
Fix,GT,37.3536801,-122.015223,6.164999964473828,0.0009996286,0.099,129.87146,1629837615000
Fix,GT,37.3536797,-122.0152225,6.161000286214228,0.31102997,0.1,129.86127,1629837616000
Fix,GT,37.3536759,-122.0152167,6.166000236134424,0.9979485,0.1,129.78064,1629837617000
Fix,GT,37.3536685,-122.0152054,6.168999511966714,1.6394238,0.099,129.51135,1629837618000
Fix,GT,37.3536553,-122.0151846,6.170000137191964,3.23745,0.1,128.87296,1629837619000
Fix,GT,37.3536315,-122.0151464,6.182000150413019,5.276327,0.1,128.02444,1629837620000
Fix,GT,37.3535962,-122.0150885,6.194000403969199,7.695318,0.1,127.212585,1629837621000
Fix,GT,37.3535483,-122.0150084,6.216002169433691,9.758836,0.1,126.63953,1629837622000
Fix,GT,37.353495,-122.0149185,6.242001688328659,10.015358,0.099,126.54584,1629837623000
Fix,GT,37.3534417,-122.0148282,6.291001333900117,9.842562,0.1,126.32208,1629837624000
Fix,GT,37.3533899,-122.0147394,6.312000622963126,9.655522,0.1,126.12396,1629837625000
Fix,GT,37.3533391,-122.0146521,6.32100057038755,9.499339,0.1,126.04291,1629837626000
Fix,GT,37.3532883,-122.0145649,6.336001609562664,9.718061,0.1,126.18448,1629837627000
Fix,GT,37.3532347,-122.0144732,6.381000527262746,10.510902,0.099,126.010864,1629837628000
Fix,GT,37.3531762,-122.0143724,6.444001246043482,11.573125,0.1,125.99359,1629837629000
Fix,GT,37.3531126,-122.0142614,6.506002217748203,12.578819,0.1,125.38928,1629837630000
Fix,GT,37.3530476,-122.014144,6.534002864089387,12.676928,0.1,124.19003,1629837631000
Fix,GT,37.3529856,-122.0140255,6.576001332327141,12.392837,0.1,122.5813,1629837632000
Fix,GT,37.3529284,-122.0139068,6.61600092498702,12.13339,0.099,120.07623,1629837633000
Fix,GT,37.3528764,-122.0137884,6.6159998022499495,11.793713,0.1,118.2359,1629837634000
Fix,GT,37.3528284,-122.0136719,6.643001903096214,11.470843,0.1,116.80151,1629837635000
Fix,GT,37.3527823,-122.0135545,6.679000259594527,11.789143,0.1,115.703705,1629837636000
Fix,GT,37.352736,-122.0134314,6.675000272443751,12.319397,0.1,114.894775,1629837637000
Fix,GT,37.3526896,-122.0133025,6.6810019377900165,12.651956,0.1,113.921295,1629837638000
Fix,GT,37.3526442,-122.0131705,6.712000839116459,12.8479,0.1,112.831085,1629837639000
Fix,GT,37.3525998,-122.0130345,6.751001541327918,13.210982,0.099,111.84766,1629837640000
Fix,GT,37.3525557,-122.0128934,6.7440005230431845,13.624573,0.1,110.93683,1629837641000
Fix,GT,37.3525127,-122.0127473,6.755999179658771,13.868706,0.1,109.64676,1629837642000
Fix,GT,37.3524724,-122.0125987,6.732998795348801,13.93908,0.099,108.02173,1629837643000
Fix,GT,37.3524357,-122.0124473,6.688999752636068,14.103245,0.1,106.005005,1629837644000
Fix,GT,37.3524036,-122.0122924,6.654999298764975,14.147641,0.1,103.57498,1629837645000
Fix,GT,37.352376,-122.0121375,6.600997911915067,13.95505,0.1,101.95245,1629837646000
Fix,GT,37.352351,-122.0119845,6.524995536638425,13.713511,0.1,101.54944,1629837647000
Fix,GT,37.352326,-122.0118333,6.455997814426578,13.706104,0.1,101.54431,1629837648000
Fix,GT,37.3523012,-122.0116809,6.318994195265258,13.886609,0.1,101.32324,1629837649000
Fix,GT,37.3522769,-122.0115255,6.174995091645978,14.178635,0.1,100.82068,1629837650000
Fix,GT,37.3522535,-122.0113665,6.011995001286588,14.474347,0.1,100.1391,1629837651000
Fix,GT,37.3522313,-122.0112037,5.860994938491698,14.772926,0.1,99.10071,1629837652000
Fix,GT,37.3522118,-122.011037,5.670993929754943,15.089123,0.1,97.74658,1629837653000
Fix,GT,37.352195,-122.0108664,5.475994879068807,15.318418,0.1,96.315796,1629837654000
Fix,GT,37.3521818,-122.0106947,5.307993507272796,15.225496,0.1,94.80719,1629837655000
Fix,GT,37.3521724,-122.0105241,5.111993762946833,15.055341,0.1,93.30719,1629837656000
Fix,GT,37.3521663,-122.0103554,4.92499458847451,14.877978,0.1,91.90564,1629837657000
Fix,GT,37.3521635,-122.0101885,4.734995482002705,14.6827965,0.1,90.7359,1629837658000
Fix,GT,37.3521625,-122.0100238,4.559992869856068,14.510046,0.099,90.11359,1629837659000
Fix,GT,37.3521627,-122.009861,4.402993127989234,14.32303,0.1,89.85397,1629837660000
Fix,GT,37.3521627,-122.0097005,4.222994655525021,14.056981,0.1,90.00177,1629837661000
Fix,GT,37.3521626,-122.009546,4.0779942870356605,13.267975,0.1,89.93454,1629837662000
Fix,GT,37.3521626,-122.0094023,3.963997376850573,12.156969,0.1,89.89862,1629837663000
Fix,GT,37.3521625,-122.0092729,3.900997199472389,10.657939,0.1,89.96512,1629837664000
Fix,GT,37.3521625,-122.0091635,3.837997802537866,8.713947,0.1,89.928375,1629837665000
Fix,GT,37.3521625,-122.009076,3.7959988240697418,6.8879614,0.1,89.94736,1629837666000
Fix,GT,37.3521624,-122.0090071,3.764999725466827,5.3029523,0.1,89.940186,1629837667000
Fix,GT,37.3521623,-122.0089556,3.722998699231917,3.943969,0.099,90.10889,1629837668000
Fix,GT,37.352162,-122.0089172,3.700999325220269,2.86497,0.1,90.35205,1629837669000
Fix,GT,37.3521618,-122.008891,3.683999786780711,1.7650374,0.1,90.49826,1629837670000
Fix,GT,37.3521616,-122.0088781,3.6749996852043534,0.5150473,0.1,90.53906,1629837671000
Fix,GT,37.3521616,-122.0088765,3.66600037179474,0.012996741,0.1,90.55328,1629837672000
Fix,GT,37.3521616,-122.0088765,3.6660000033075337,0.001,0.1,90.550995,1629837673000
Fix,GT,37.3521616,-122.0088765,3.66499993760066,0.001,0.1,90.54971,1629837674000
Fix,GT,37.3521616,-122.0088765,3.6650000538660974,0.0,0.1,90.549866,1629837675000
Fix,GT,37.3521616,-122.0088765,3.664999951573845,2.9801004e-07,0.1,90.54968,1629837676000
Fix,GT,37.3521616,-122.0088765,3.665000104318897,2.968e-07,0.1,90.54971,1629837677000
Fix,GT,37.3521616,-122.0088765,3.665000002026645,0.0,0.1,90.54993,1629837678000
Fix,GT,37.3521616,-122.0088765,3.6649998998410593,0.0009997056,0.099,90.5499,1629837679000
Fix,GT,37.3521616,-122.0088765,3.665000015999831,2.9314003e-07,0.1,90.54996,1629837680000
Fix,GT,37.3521616,-122.0088765,3.664999950293859,0.0,0.099,90.549866,1629837681000
Fix,GT,37.3521616,-122.0088765,3.665000066559296,0.0,0.1,90.54993,1629837682000
Fix,GT,37.3521616,-122.0088765,3.664999964267044,0.0,0.099,90.5499,1629837683000
Fix,GT,37.3521616,-122.0088765,3.664999898561073,0.0,0.1,90.54993,1629837684000
Fix,GT,37.3521616,-122.0088765,3.665000014719845,0.0,0.1,90.55011,1629837685000
Fix,GT,37.3521616,-122.0088765,3.664999949120538,2.8585e-07,0.1,90.55023,1629837686000
Fix,GT,37.3521616,-122.0088765,3.6650000652793095,0.001,0.1,90.55023,1629837687000
Fix,GT,37.3521616,-122.0088765,3.664999962987058,0.0019999999,0.1,90.55051,1629837688000
Fix,GT,37.3521616,-122.0088765,3.6650000792524953,0.003,0.1,90.55011,1629837689000
Fix,GT,37.3521616,-122.0088765,3.664999940267298,0.0014146591,0.1,90.55011,1629837690000
Fix,GT,37.3521616,-122.0088765,3.6650000198397903,0.002,0.1,90.55014,1629837691000
Fix,GT,37.3521616,-122.0088765,3.6649999175475374,0.0009997215,0.099,90.55014,1629837692000
Fix,GT,37.3521616,-122.0088765,3.6650000337063102,0.001,0.1,90.55005,1629837693000
Fix,GT,37.3521616,-122.0088765,3.664999931414058,0.0009997239,0.1,90.55002,1629837694000
Fix,GT,37.3521616,-122.0088765,3.665000084265776,2.7486e-07,0.1,90.55014,1629837695000
Fix,GT,37.3521616,-122.0088765,3.664999981973524,0.001,0.1,90.55014,1629837696000
Fix,GT,37.3521616,-122.0088765,3.6649999163742177,0.0019994553,0.1,90.55023,1629837697000
Fix,GT,37.3521616,-122.0088765,3.664999995840044,0.0022354615,0.1,90.5502,1629837698000
Fix,GT,37.3521616,-122.0088765,3.664999893547792,0.0019994602,0.1,90.549866,1629837699000
Fix,GT,37.3521616,-122.0088765,3.664999973120284,0.0029991937,0.1,90.54993,1629837700000
Fix,GT,37.3521616,-122.0088765,3.6649999441072576,0.001999465,0.1,90.55029,1629837701000
Fix,GT,37.3521616,-122.0088765,3.665000096958975,0.0019997337,0.1,90.55008,1629837702000
Fix,GT,37.3521616,-122.0088765,3.665000031253003,0.0019997351,0.1,90.55017,1629837703000
Fix,GT,37.3521616,-122.0088765,3.664999929067417,2.6391004e-07,0.1,90.54999,1629837704000
Fix,GT,37.3521616,-122.0088765,3.665000081812468,0.0014141048,0.1,90.55008,1629837705000
Fix,GT,37.3521616,-122.0088765,3.665000052906108,0.0019994772,0.1,90.55008,1629837706000
Fix,GT,37.3521616,-122.0088765,3.6649999139209104,0.0022357462,0.099,90.54999,1629837707000
Fix,GT,37.3521616,-122.0088765,3.665000066772627,2.5906002e-07,0.1,90.549866,1629837708000
Fix,GT,37.3521616,-122.0088765,3.664999964480376,0.001,0.1,90.54971,1629837709000
Fix,GT,37.3521616,-122.0088765,3.665000080639147,0.001999487,0.1,90.549835,1629837710000
Fix,GT,37.3521616,-122.0088765,3.664999978346896,0.002,0.1,90.55011,1629837711000
Fix,GT,37.3521616,-122.0088765,3.664999912747589,0.0019997458,0.1,90.54953,1629837712000
Fix,GT,37.3521616,-122.0088765,3.6650000655993065,0.0009997471,0.1,90.54962,1629837713000
Fix,GT,37.3521616,-122.0088765,3.6649999998933342,0.0014138574,0.1,90.54968,1629837714000
Fix,GT,37.3521616,-122.0088765,3.6650000794658255,2.5054e-07,0.1,90.55026,1629837715000
Fix,GT,37.3521616,-122.0088765,3.66499990389435,0.0009997507,0.1,90.55008,1629837716000
Fix,GT,37.3521616,-122.0088765,3.6650000200531214,2.4808003e-07,0.1,90.55014,1629837717000
Fix,GT,37.3521616,-122.0088765,3.665000062932668,0.0019995065,0.1,90.549805,1629837718000
Fix,GT,37.3521616,-122.0088765,3.664999960640416,0.0,0.099,90.55026,1629837719000
Fix,GT,37.3521616,-122.0088765,3.665000076799188,0.0,0.1,90.54996,1629837720000
Fix,GT,37.3521616,-122.0088765,3.664999937867324,0.0019997568,0.099,90.55008,1629837721000
Fix,GT,37.3521616,-122.0088765,3.665000054026095,0.0,0.1,90.549866,1629837722000
Fix,GT,37.3521616,-122.0088765,3.6650000969056418,3.4041534e-07,0.1,90.55002,1629837723000
Fix,GT,37.3521616,-122.0088752,3.659999994620739,0.4170309,0.1,90.551605,1629837724000
Fix,GT,37.3521615,-122.0088662,3.6559998357437,1.1411448,0.1,90.4964,1629837725000
Fix,GT,37.3521616,-122.008848,3.6469994615119936,2.176101,0.1,90.23389,1629837726000
Fix,GT,37.3521616,-122.0088159,3.627999978301523,3.646043,0.1,89.81177,1629837727000
Fix,GT,37.3521619,-122.0087654,3.6079993891158377,5.293112,0.1,89.523895,1629837728000
Fix,GT,37.3521622,-122.0086945,3.58599929212252,7.2531776,0.1,89.53473,1629837729000
Fix,GT,37.352163,-122.0086033,3.5399986763599736,8.659613,0.1,89.258484,1629837730000
Fix,GT,37.3521638,-122.0085027,3.491998088649474,9.246459,0.099,89.324066,1629837731000
Fix,GT,37.3521646,-122.008393,3.427999092683662,10.152456,0.1,89.45038,1629837732000
Fix,GT,37.3521649,-122.008276,3.3619984850406475,10.513016,0.1,89.882935,1629837733000
Fix,GT,37.3521644,-122.0081566,3.310997263843776,10.545256,0.1,90.284454,1629837734000
Fix,GT,37.3521642,-122.0080382,3.250999641643065,10.490133,0.1,90.1236,1629837735000
Fix,GT,37.3521638,-122.0079178,3.19699952135692,10.942055,0.1,90.12085,1629837736000
Fix,GT,37.3521636,-122.0077903,3.136998251246652,11.647036,0.1,89.976746,1629837737000
Fix,GT,37.3521635,-122.007655,3.03299817504482,12.32703,0.1,90.00653,1629837738000
Fix,GT,37.3521631,-122.0075121,2.93599733652157,12.987044,0.1,90.03067,1629837739000
Fix,GT,37.3521631,-122.0073621,2.8269976610057053,13.524013,0.1,89.91354,1629837740000
Fix,GT,37.3521626,-122.0072084,2.6999984430998447,13.721231,0.099,90.18524,1629837741000
Fix,GT,37.3521621,-122.0070534,2.577996552334604,13.686039,0.1,90.07126,1629837742000
Fix,GT,37.3521619,-122.0068998,2.43899736681224,13.51701,0.099,89.961334,1629837743000
Fix,GT,37.3521618,-122.0067483,2.298997218760545,13.312998,0.1,89.96402,1629837744000
Fix,GT,37.3521616,-122.0065988,2.158997601042443,13.254021,0.099,89.89267,1629837745000
Fix,GT,37.352162,-122.0064489,2.0489989364169303,13.255148,0.1,89.62463,1629837746000
Fix,GT,37.3521623,-122.0063001,1.94599785126443,13.091994,0.099,89.89899,1629837747000
Fix,GT,37.3521622,-122.0061537,1.8669976954814047,12.828997,0.1,89.977234,1629837748000
Fix,GT,37.3521618,-122.0060137,1.820998929088935,11.81002,0.099,90.10129,1629837749000
Fix,GT,37.3521615,-122.0058894,1.7799993896808448,10.158985,0.1,90.06213,1629837750000
Fix,GT,37.3521613,-122.0057843,1.7419999636235588,8.43497,0.1,90.0838,1629837751000
Fix,GT,37.3521611,-122.0056993,1.7299988049200037,6.640991,0.1,90.10199,1629837752000
Fix,GT,37.3521611,-122.0056346,1.702999766931258,4.7949734,0.1,89.984375,1629837753000
Fix,GT,37.352161,-122.0055885,1.698999822092592,3.434978,0.1,90.05386,1629837754000
Fix,GT,37.352161,-122.0055562,1.692000044491666,2.354,0.1,90.02887,1629837755000
Fix,GT,37.3521611,-122.0055352,1.6919999803517711,1.4989955,0.1,89.99884,1629837756000
Fix,GT,37.352161,-122.0055216,1.6920002330427668,0.8799871,0.1,89.96777,1629837757000
Fix,GT,37.352161,-122.0055153,1.6979999697559978,0.22598916,0.1,89.95355,1629837758000
Fix,GT,37.352161,-122.0055149,1.6950000404760794,0.0020000464,0.1,89.9548,1629837759000
Fix,GT,37.352161,-122.0055149,1.6949999931676576,2.7630904e-07,0.1,89.9534,1629837760000
Fix,GT,37.352161,-122.0055149,1.6950000129987166,0.0010000804,0.1,89.95242,1629837761000
Fix,GT,37.352161,-122.0055149,1.6949999656902948,3.8584e-07,0.1,89.95242,1629837762000
Fix,GT,37.352161,-122.0055149,1.6949999855213536,0.0014141342,0.1,89.9527,1629837763000
Fix,GT,37.352161,-122.0055149,1.6950000392674702,0.0010001905,0.1,89.952484,1629837764000
Fix,GT,37.352161,-122.0055149,1.692999768873502,0.0009999999,0.1,89.95245,1629837765000
Fix,GT,37.352161,-122.0055149,1.690000011755328,0.001999624,0.1,89.95282,1629837766000
Fix,GT,37.352161,-122.0055149,1.689999964586459,0.0014141361,0.1,89.95276,1629837767000
Fix,GT,37.352161,-122.0055149,1.6900000012542296,0.0010001856,0.1,89.95279,1629837768000
Fix,GT,37.352161,-122.0055149,1.6899999540853603,0.0009999999,0.1,89.95279,1629837769000
Fix,GT,37.352161,-122.0055149,1.690000007648341,3.6622e-07,0.1,89.9527,1629837770000
Fix,GT,37.352161,-122.0055149,1.6900000443161114,0.0010000754,0.1,89.95273,1629837771000
Fix,GT,37.352161,-122.0055149,1.6900000140670453,0.0014142136,0.1,89.95267,1629837772000
Fix,GT,37.352161,-122.0055149,1.6899999668981762,0.0031619638,0.1,89.95276,1629837773000
Fix,GT,37.352161,-122.0055149,1.6900000035659466,0.0010002203,0.1,89.9527,1629837774000
Fix,GT,37.352161,-122.0055149,1.6900000402337172,0.0022359225,0.1,89.95282,1629837775000
Fix,GT,37.352161,-122.0055149,1.690000043111067,0.002236068,0.1,89.953186,1629837776000
Fix,GT,37.352161,-122.0055149,1.6899999790469882,0.0014141413,0.099,89.953156,1629837777000
Fix,GT,37.352161,-122.0055149,1.6900000157147588,0.0031622776,0.1,89.953186,1629837778000
Fix,GT,37.352161,-122.0055149,1.6899999516506794,0.001,0.1,89.95303,1629837779000
Fix,GT,37.352161,-122.0055149,1.69000000521366,0.0031622776,0.1,89.95291,1629837780000
Fix,GT,37.352161,-122.0055149,1.689999958044791,0.001,0.1,89.95276,1629837781000
Fix,GT,37.352161,-122.0055149,1.6900000447587809,0.002236224,0.1,89.95294,1629837782000
Fix,GT,37.352161,-122.0055149,1.6899999637994914,0.0014141443,0.099,89.953094,1629837783000
Fix,GT,37.352161,-122.0055149,1.6890000004669856,0.001000205,0.1,89.95297,1629837784000
Fix,GT,37.352161,-122.0055149,1.689000003318055,0.0022359327,0.1,89.95294,1629837785000
Fix,GT,37.352161,-122.0055149,1.69000003998779,0.0014142136,0.1,89.95276,1629837786000
Fix,GT,37.352161,-122.0055149,1.6899999590285006,0.002828331,0.099,89.95261,1629837787000
Fix,GT,37.352161,-122.0055149,1.6890000126086089,0.002236068,0.1,89.95239,1629837788000
Fix,GT,37.352161,-122.0055149,1.688000032325741,0.0041228044,0.1,89.95175,1629837789000
Fix,GT,37.352161,-122.005513,1.681999793174793,0.52401555,0.1,89.93805,1629837790000
Fix,GT,37.352161,-122.0055008,1.6739996402949329,1.6460202,0.1,89.83823,1629837791000
Fix,GT,37.3521612,-122.0054734,1.6579995231812352,3.3410685,0.099,89.64819,1629837792000
Fix,GT,37.3521616,-122.0054244,1.642000010417891,5.3723507,0.1,89.36148,1629837793000
Fix,GT,37.3521619,-122.0053487,1.628000045651628,8.005126,0.1,89.62427,1629837794000
Fix,GT,37.3521622,-122.0052453,1.614001050035964,10.072073,0.1,89.658905,1629837795000
Fix,GT,37.3521631,-122.0051297,1.5779994302043925,10.360498,0.1,89.3656,1629837796000
Fix,GT,37.3521641,-122.0050105,1.5769995251520594,10.757663,0.1,89.250244,1629837797000
Fix,GT,37.3521656,-122.0048861,1.5369997114333964,11.39345,0.1,89.00934,1629837798000
Fix,GT,37.3521671,-122.0047527,1.528998700237367,12.282277,0.1,89.135376,1629837799000
Fix,GT,37.3521686,-122.0046082,1.4950001894996967,13.303343,0.1,89.04489,1629837800000
Fix,GT,37.3521706,-122.0044524,1.483999392449623,14.327908,0.1,88.95001,1629837801000
Fix,GT,37.3521729,-122.004286,1.4469991277579977,15.005379,0.1,88.92679,1629837802000
Fix,GT,37.3521752,-122.0041153,1.4109995932411403,15.257102,0.1,88.92285,1629837803000
Fix,GT,37.3521776,-122.0039429,1.3729991207924903,15.20165,0.099,88.88037,1629837804000
Fix,GT,37.35218,-122.0037719,1.321999997749197,15.183283,0.1,88.8627,1629837805000
Fix,GT,37.3521832,-122.0035985,1.2319985762166032,15.577812,0.099,88.469055,1629837806000
Fix,GT,37.3521869,-122.0034204,1.145999555574468,15.9878435,0.1,88.3931,1629837807000
Fix,GT,37.35219,-122.0032378,1.0809995737560674,16.300798,0.1,88.83786,1629837808000
Fix,GT,37.3521928,-122.0030546,0.9899983853111336,16.142954,0.1,88.78412,1629837809000
Fix,GT,37.3521961,-122.002874,0.9229993469991024,15.8633995,0.1,88.34613,1629837810000
Fix,GT,37.3521996,-122.0026966,0.8589991954873986,15.58106,0.099,88.792145,1629837811000
Fix,GT,37.352202,-122.0025223,0.7979989660934953,15.314818,0.1,88.787994,1629837812000
Fix,GT,37.3522051,-122.0023509,0.7019986940272501,15.067275,0.1,88.55353,1629837813000
Fix,GT,37.3522081,-122.0021824,0.6489985918964376,14.804057,0.1,88.757385,1629837814000
Fix,GT,37.3522103,-122.0020167,0.5409985833247484,14.560629,0.1,89.033264,1629837815000
Fix,GT,37.3522122,-122.0018536,0.4359989880055654,14.337323,0.1,89.14426,1629837816000
Fix,GT,37.352213,-122.0016929,0.3119984980371664,14.142,0.1,89.9263,1629837817000
Fix,GT,37.3522128,-122.0015345,0.1979986410049605,13.922007,0.1,89.93848,1629837818000
Fix,GT,37.3522127,-122.0013787,0.0999984023038996,13.696,0.099,89.908264,1629837819000
Fix,GT,37.3522127,-122.0012253,-0.0230019426419094,13.492998,0.1,89.85327,1629837820000
Fix,GT,37.352213,-122.0010744,-0.1310003589839179,13.2572565,0.1,89.54944,1629837821000
Fix,GT,37.3522145,-122.0009261,-0.2330016653765342,13.02661,0.1,88.979675,1629837822000
Fix,GT,37.3522164,-122.0007804,-0.3360007100177463,12.808437,0.1,89.06555,1629837823000
Fix,GT,37.3522182,-122.0006372,-0.4230007084686658,12.571819,0.1,88.97455,1629837824000
Fix,GT,37.3522201,-122.0004971,-0.5040011448478036,12.165569,0.1,88.93854,1629837825000
Fix,GT,37.3522216,-122.0003643,-0.583000567949348,11.33109,0.099,89.076996,1629837826000
Fix,GT,37.3522233,-122.0002417,-0.6710009076152565,10.373954,0.1,88.84091,1629837827000
Fix,GT,37.3522252,-122.0001316,-0.7390007878828037,9.149877,0.1,88.72949,1629837828000
Fix,GT,37.3522268,-122.0000362,-0.8030008597599736,7.68602,0.1,88.60666,1629837829000
Fix,GT,37.352228,-121.9999581,-0.8590003130048862,6.2671366,0.099,88.875,1629837830000
Fix,GT,37.3522288,-121.9998943,-0.8970004089510403,5.0495753,0.1,89.069336,1629837831000
Fix,GT,37.3522294,-121.9998431,-0.9370003074015548,4.0443907,0.1,89.19757,1629837832000
Fix,GT,37.3522298,-121.9998034,-0.9730003048293292,2.9871833,0.1,89.24826,1629837833000
Fix,GT,37.3522299,-121.9997747,-0.9990002084307488,2.1491508,0.1,89.30234,1629837834000
Fix,GT,37.3522301,-121.9997539,-1.019000104844075,1.6180296,0.1,89.327515,1629837835000
Fix,GT,37.3522303,-121.9997362,-1.0300000749055327,1.5090625,0.1,89.3374,1629837836000
Fix,GT,37.3522304,-121.999721,-1.041000106393971,1.1670303,0.1,89.32123,1629837837000
Fix,GT,37.3522305,-121.9997104,-1.05100007590538,0.7720409,0.1,89.30466,1629837838000
Fix,GT,37.3522306,-121.9997025,-1.0569999995462491,0.54101896,0.1,89.27887,1629837839000
Fix,GT,37.3522306,-121.9996989,-1.065999969789715,0.08800142,0.1,89.26511,1629837840000
Fix,GT,37.3522306,-121.9996988,-1.070000003596797,0.013999814,0.1,89.26813,1629837841000
Fix,GT,37.3522306,-121.9996987,-1.070999973707934,0.001414363,0.1,89.26831,1629837842000
Fix,GT,37.3522306,-121.9996987,-1.0710000183670416,9.306e-08,0.1,89.26785,1629837843000
Fix,GT,37.3522306,-121.9996987,-1.071000009896539,0.0009999082,0.1,89.26761,1629837844000
Fix,GT,37.3522306,-121.9996987,-1.0710000014338292,0.001,0.1,89.267944,1629837845000
Fix,GT,37.3522306,-121.9996987,-1.0710000036702914,8.947001e-08,0.1,89.26816,1629837846000
Fix,GT,37.3522306,-121.9996987,-1.0709999951997888,0.0019999119,0.1,89.26874,1629837847000
Fix,GT,37.3522306,-121.9996987,-1.0709999974440434,0.001,0.1,89.26813,1629837848000
Fix,GT,37.3522306,-121.9996987,-1.070999999688298,0.0,0.1,89.26819,1629837849000
Fix,GT,37.3522306,-121.9996987,-1.0710000126395172,0.001,0.1,89.26877,1629837850000
Fix,GT,37.3522306,-121.9996987,-1.071000025590736,0.0,0.1,89.26868,1629837851000
Fix,GT,37.3522306,-121.9996987,-1.0709999747053809,0.0019999177,0.099,89.26892,1629837852000
Fix,GT,37.3522306,-121.9996987,-1.0709999983635643,0.001,0.1,89.26892,1629837853000
Fix,GT,37.3522306,-121.9996987,-1.0710000113147833,0.0022358892,0.1,89.26929,1629837854000
