MessageType,Provider,LatitudeDegrees,LongitudeDegrees,AltitudeMeters,SpeedMps,AccuracyMeters,BearingDegrees,UnixTimeMillis
Fix,GT,34.1719477,-118.5413448,206.797,0.0012389973,0.1,358.31262,1638989539442
Fix,GT,34.1719477,-118.5413448,206.797,0.0004230096,0.1,358.3123,1638989540442
Fix,GT,34.1719477,-118.5413448,206.7969938369692,0.0005982259,0.1,358.3117,1638989541442
Fix,GT,34.1719477,-118.5413448,206.7969938369692,0.00057699037,0.1,358.3112,1638989542442
Fix,GT,34.1719477,-118.5413448,206.7969938369692,0.0008159876,0.1,358.31055,1638989543442
Fix,GT,34.1719477,-118.5413448,206.797,0.0011752164,0.1,358.31006,1638989544442
Fix,GT,34.1719477,-118.5413448,206.7969938369692,0.0014142136,0.1,358.30972,1638989545442
Fix,GT,34.1719477,-118.5413448,206.7969938369692,0.0021539808,0.1,358.30917,1638989546442
Fix,GT,34.1719477,-118.5413448,206.7969938369692,0.0017618658,0.1,358.30856,1638989547442
Fix,GT,34.1719477,-118.5413448,206.797,0.0,0.1,358.30786,1638989548442
Fix,GT,34.1719477,-118.5413448,206.7969938369692,0.0,0.1,358.30728,1638989549442
Fix,GT,34.1719477,-118.5413448,206.7969938369692,0.00057699037,0.1,358.3067,1638989550442
Fix,GT,34.1719477,-118.5413448,206.7969938369692,0.006267608,0.1,358.30722,1638989551442
Fix,GT,34.1719477,-118.5413448,206.7969938369692,0.0036920384,0.1,358.30542,1638989552442
Fix,GT,34.1719477,-118.5413448,206.797,0.0017522066,0.1,358.3051,1638989553442
Fix,GT,34.1719477,-118.5413448,206.7969938369692,0.0011539805,0.1,358.30484,1638989554442
Fix,GT,34.1719477,-118.5413448,206.797,0.0021536618,0.1,358.3043,1638989555442
Fix,GT,34.1719477,-118.5413448,206.797,0.0017734426,0.1,358.3037,1638989556442
Fix,GT,34.1719477,-118.5413448,206.7969938369692,0.00042300986,0.1,358.30307,1638989557442
Fix,GT,34.1719477,-118.5413448,206.797,0.001,0.1,358.30255,1638989558442
Fix,GT,34.1719477,-118.5413448,206.797,0.0014230099,0.1,358.3021,1638989559442
Fix,GT,34.1719477,-118.5413448,206.7969938369692,0.0014230099,0.1,358.30173,1638989560442
Fix,GT,34.1719477,-118.5413448,206.7969938369692,0.0018884153,0.1,358.30115,1638989561442
Fix,GT,34.1719477,-118.5413448,206.797,0.002236068,0.1,358.30066,1638989562442
Fix,GT,34.1719477,-118.5413448,206.7969938369692,0.002236068,0.1,358.30014,1638989563442
Fix,GT,34.1719477,-118.5413448,206.797,0.0014142136,0.1,358.29962,1638989564442
Fix,GT,34.1719477,-118.5413448,206.797,0.0011752166,0.1,358.29913,1638989565442
Fix,GT,34.1719477,-118.5413448,206.797,0.0015769899,0.1,358.29886,1638989566442
Fix,GT,34.1719477,-118.5413448,206.797,0.001238997,0.1,358.2984,1638989567442
Fix,GT,34.1719477,-118.5413448,206.797,0.0015769897,0.1,358.29785,1638989568442
Fix,GT,34.1719477,-118.5413448,206.797,0.0030936324,0.1,358.29733,1638989569442
Fix,GT,34.1719477,-118.5413448,206.7969938369692,0.0041231057,0.1,358.29675,1638989570442
Fix,GT,34.1719477,-118.5413448,206.797,0.0050990195,0.1,358.29608,1638989571442
Fix,GT,34.1719477,-118.5413448,206.797,0.0059271827,0.1,358.2957,1638989572442
Fix,GT,34.1719477,-118.5413448,206.7969938369692,0.005385164,0.1,358.29504,1638989573442
Fix,GT,34.1719477,-118.5413448,206.7969938369692,0.004472136,0.1,358.29437,1638989574442
Fix,GT,34.1719477,-118.5413448,206.7969938369692,0.002577853,0.1,358.2936,1638989575442
Fix,GT,34.1719477,-118.5413448,206.797,0.0020998593,0.1,358.29306,1638989576442
Fix,GT,34.1719477,-118.5413448,206.797,0.008482361,0.1,358.2921,1638989577442
Fix,GT,34.1719477,-118.5413448,206.796,0.016709112,0.1,358.2917,1638989578442
Fix,GT,34.1719476,-118.5413449,206.796,0.028092086,0.1,358.29074,1638989579442
Fix,GT,34.1719473,-118.541345,206.7945769892335,0.04631085,0.1,358.28967,1638989580442
Fix,GT,34.1719469,-118.5413452,206.795,0.06325519,0.1,358.28317,1638989581442
Fix,GT,34.171946,-118.5413455,206.7959938369989,0.2761674,0.1,358.25275,1638989582442
Fix,GT,34.1719402,-118.5413446,206.77272480526568,0.9463936,0.1,1.2357178,1638989583442
Fix,GT,34.1719305,-118.5413421,206.74757082763315,1.1946487,0.1,11.409393,1638989584442
Fix,GT,34.1719174,-118.5413411,206.72914781737327,1.4814601,0.1,27.183716,1638989585442
Fix,GT,34.1719034,-118.5413447,206.69203276443483,1.462254,0.1,44.272217,1638989586442
Fix,GT,34.1718918,-118.5413519,206.666,1.2101998,0.1,59.75714,1638989587442
Fix,GT,34.1718835,-118.5413605,206.6735769891739,0.90629,0.1,72.53418,1638989588442
Fix,GT,34.1718813,-118.5413637,206.67615397834777,0.12186505,0.1,75.52063,1638989589442
Fix,GT,34.1718807,-118.5413644,206.6695769891143,0.075550824,0.1,75.684326,1638989590442
Fix,GT,34.1718803,-118.541365,206.668,0.06521147,0.1,75.73822,1638989591442
Fix,GT,34.1718803,-118.5413652,206.668,0.05104231,0.1,75.73718,1638989592442
Fix,GT,34.1718802,-118.5413652,206.66457698911427,0.19877453,0.1,75.83258,1638989593442
Fix,GT,34.1718807,-118.541359,206.663,0.8971033,0.1,77.87509,1638989594442
Fix,GT,34.1718804,-118.5413477,206.6694230108857,0.9380555,0.1,82.829346,1638989595442
Fix,GT,34.1718803,-118.5413384,206.669993840754,0.79891944,0.1,85.55951,1638989596442
Fix,GT,34.1718802,-118.5413302,206.66415397810937,0.66133475,0.1,87.02173,1638989597442
Fix,GT,34.1718803,-118.5413246,206.66,0.3335723,0.1,87.58612,1638989598442
Fix,GT,34.1718803,-118.5413231,206.6575708300769,0.019935265,0.1,87.72363,1638989599442
Fix,GT,34.1718803,-118.5413232,206.65699384114149,0.00593747,0.1,87.72385,1638989600442
Fix,GT,34.1718803,-118.5413232,206.65699384114149,0.0031819493,0.1,87.72302,1638989601442
Fix,GT,34.1718803,-118.5413232,206.65700615885856,0.0031622779,0.1,87.72229,1638989602442
Fix,GT,34.1718803,-118.5413232,206.657,0.00042301114,0.1,87.72153,1638989603442
Fix,GT,34.1718803,-118.5413232,206.657,0.001,0.1,87.72113,1638989604442
Fix,GT,34.1718803,-118.5413232,206.65700615885856,0.0014142136,0.1,87.72037,1638989605442
Fix,GT,34.1718803,-118.5413232,206.65700615885856,0.0016620078,0.1,87.71991,1638989606442
Fix,GT,34.1718803,-118.5413232,206.65700615885856,0.0012389966,0.1,87.71927,1638989607442
Fix,GT,34.1718803,-118.5413232,206.65699384114149,0.0014142136,0.1,87.71893,1638989608442
Fix,GT,34.1718803,-118.5413232,206.657,0.0008159857,0.1,87.71829,1638989609442
Fix,GT,34.1718803,-118.5413232,206.657,0.0012389966,0.1,87.717804,1638989610442
Fix,GT,34.1718803,-118.5413232,206.65699384114143,0.0,0.1,87.717255,1638989611442
Fix,GT,34.1718803,-118.5413232,206.657,0.0014142136,0.1,87.71652,1638989612442
Fix,GT,34.1718803,-118.5413232,206.65699384114143,0.0024866425,0.1,87.716064,1638989613442
Fix,GT,34.1718803,-118.5413232,206.656,0.004472136,0.1,87.7157,1638989614442
Fix,GT,34.1718802,-118.5413232,206.655,0.007382283,0.1,87.71521,1638989615442
Fix,GT,34.1718802,-118.5413231,206.65015397810936,0.15202633,0.1,87.74289,1638989616442
Fix,GT,34.1718801,-118.5413173,206.6479938414097,0.92007875,0.1,88.21695,1638989617442
Fix,GT,34.1718799,-118.5413028,206.6309938419164,1.8547853,0.1,89.57193,1638989618442
Fix,GT,34.1718795,-118.5412775,206.6246920435429,2.733391,0.1,90.133545,1638989619442
Fix,GT,34.1718792,-118.5412439,206.6257248096466,3.4458098,0.1,90.286285,1638989620442
Fix,GT,34.1718781,-118.5412031,206.608,4.093707,0.1,91.383514,1638989621442
Fix,GT,34.1718767,-118.5411551,206.59488494557144,4.7617197,0.1,91.62625,1638989622442
Fix,GT,34.1718756,-118.5411032,206.5785769891143,4.7526827,0.1,91.16708,1638989623442
Fix,GT,34.1718751,-118.5410531,206.5684230108261,4.5072236,0.1,90.617615,1638989624442
Fix,GT,34.1718746,-118.5410052,206.5534619350433,4.2962847,0.1,90.47,1638989625442
Fix,GT,34.1718744,-118.5409605,206.53042301088573,3.9157534,0.1,90.29437,1638989626442
Fix,GT,34.1718743,-118.5409211,206.5261539783478,3.3038054,0.1,90.03613,1638989627442
Fix,GT,34.1718745,-118.5408897,206.48630180299284,2.5961046,0.1,89.905914,1638989628442
Fix,GT,34.1718745,-118.540862,206.45387879315012,2.3687587,0.1,90.3562,1638989629442
Fix,GT,34.1718751,-118.5408415,206.43757083687183,1.4281709,0.1,89.76123,1638989630442
Fix,GT,34.1718778,-118.5408257,206.408307956934,1.8328404,0.1,84.455505,1638989631442
Fix,GT,34.1718885,-118.5407997,206.2959627965689,3.0829158,0.1,68.301544,1638989632442
Fix,GT,34.1719142,-118.5407688,206.21153806459904,4.1325417,0.1,45.700073,1638989633442
Fix,GT,34.1719561,-118.5407458,206.2384619350433,5.447881,0.1,23.454987,1638989634442
Fix,GT,34.1720123,-118.5407315,206.1600389238,6.7884283,0.1,10.838226,1638989635442
Fix,GT,34.1720706,-118.5407207,206.1037698911429,6.9028387,0.1,9.411133,1638989636442
Fix,GT,34.1721266,-118.5407106,206.0243079564572,5.8601804,0.1,9.50882,1638989637442
Fix,GT,34.172172,-118.5407011,205.9680327860117,4.2987657,0.1,10.364105,1638989638442
Fix,GT,34.1722047,-118.5406931,205.90173096752167,3.044576,0.1,12.563385,1638989639442
Fix,GT,34.1722267,-118.5406855,205.8413018222153,2.52066,0.1,16.65207,1638989640442
Fix,GT,34.1722502,-118.5406686,205.7916159133911,3.9314873,0.1,29.222656,1638989641442
Fix,GT,34.172278,-118.5406292,205.75069204354284,5.5086555,0.1,51.519745,1638989642442
Fix,GT,34.1722944,-118.5405645,205.73603892338275,6.972246,0.1,76.33411,1638989643442
Fix,GT,34.1722984,-118.5404788,205.74484602177145,8.707115,0.1,86.52933,1638989644442
Fix,GT,34.1722994,-118.5403771,205.7186159129143,10.208223,0.1,89.79199,1638989645442
Fix,GT,34.1722977,-118.5402556,205.6092318258285,12.1647,0.1,90.25519,1638989646442
Fix,GT,34.1722971,-118.5401136,205.44080881494284,14.034399,0.1,89.83826,1638989647442
Fix,GT,34.172297,-118.5399535,205.28311065259567,15.347624,0.1,89.76138,1638989648442
Fix,GT,34.1722968,-118.5397822,205.1131929014921,16.101143,0.1,89.85989,1638989649442
Fix,GT,34.1722958,-118.5396071,204.94542472636692,16.095675,0.1,90.338776,1638989650442
Fix,GT,34.1722954,-118.5394315,204.7502318239212,16.489933,0.1,89.48453,1638989651442
Fix,GT,34.172297,-118.5392509,204.5838088139296,16.656334,0.1,89.08563,1638989652442
Fix,GT,34.1722985,-118.5390711,204.4116548358202,16.486782,0.1,89.373535,1638989653442
Fix,GT,34.1722992,-118.5388936,204.23223182487487,16.258549,0.1,89.82611,1638989654442
Fix,GT,34.172299,-118.5387186,204.0760406407714,16.014643,0.1,89.66403,1638989655442
Fix,GT,34.1723,-118.5385461,203.8979956392348,15.798311,0.1,89.394196,1638989656442
Fix,GT,34.1723004,-118.5383764,203.7693797304928,15.375896,0.1,89.87866,1638989657442
Fix,GT,34.1723005,-118.5382144,203.61923182582856,14.489931,0.1,89.78711,1638989658442
Fix,GT,34.1723009,-118.5380608,203.43480881494284,13.888826,0.1,89.568665,1638989659442
Fix,GT,34.1723018,-118.5379118,203.3160389242172,13.623793,0.1,89.132355,1638989660442
Fix,GT,34.1723032,-118.5377651,203.17423182773592,13.530083,0.1,89.25998,1638989661442
Fix,GT,34.1723036,-118.5376166,203.02964878711103,13.789953,0.1,90.08603,1638989662442
Fix,GT,34.1723025,-118.5374674,202.8842318286896,13.689917,0.1,90.36133,1638989663442
Fix,GT,34.1723015,-118.53732,202.7716548393965,13.497082,0.1,90.24878,1638989664442
Fix,GT,34.1723009,-118.5371751,202.6538027787209,13.160141,0.1,89.9444,1638989665442
Fix,GT,34.1723009,-118.5370367,202.5603019204736,12.276439,0.1,89.89877,1638989666442
Fix,GT,34.1723004,-118.5369109,202.4314619361162,10.806744,0.1,90.207306,1638989667442
Fix,GT,34.1722997,-118.5368004,202.3440718216896,9.6474495,0.1,90.16705,1638989668442
Fix,GT,34.172299,-118.5367016,202.2597638664841,8.479655,0.1,90.35507,1638989669442
Fix,GT,34.1722986,-118.536617,202.17030795788764,7.2775917,0.1,89.80664,1638989670442
Fix,GT,34.1722988,-118.5365443,202.08261591625217,6.059018,0.1,89.58771,1638989671442
Fix,GT,34.1722985,-118.5364853,201.99776989591123,4.8305335,0.1,89.87512,1638989672442
Fix,GT,34.1722984,-118.5364385,201.9188789306879,3.800506,0.1,90.02655,1638989673442
Fix,GT,34.1722981,-118.5364035,201.87030795884127,2.5841408,0.1,90.14139,1638989674442
Fix,GT,34.1722979,-118.5363823,201.843,1.3304772,0.1,90.19278,1638989675442
Fix,GT,34.1722979,-118.5363737,201.8265709747672,0.3627755,0.1,90.22574,1638989676442
Fix,GT,34.1722979,-118.5363727,201.8189939853251,0.024839465,0.1,90.23779,1638989677442
Fix,GT,34.1722979,-118.5363726,201.8179939853549,0.0011752166,0.1,90.23828,1638989678442
Fix,GT,34.1722979,-118.5363726,201.818,0.001238997,0.1,90.23627,1638989679442
Fix,GT,34.1722979,-118.5363726,201.818,0.0011752166,0.1,90.23605,1638989680442
Fix,GT,34.1722979,-118.5363726,201.818,0.0014142136,0.1,90.23663,1638989681442
Fix,GT,34.1722979,-118.5363726,201.818,0.0014142136,0.1,90.23706,1638989682442
Fix,GT,34.1722979,-118.5363726,201.818,0.0022302005,0.1,90.23773,1638989683442
Fix,GT,34.1722979,-118.5363726,201.818,0.0018884152,0.1,90.23859,1638989684442
Fix,GT,34.1722979,-118.5363726,201.8179939853549,0.002236068,0.1,90.23926,1638989685442
Fix,GT,34.1722979,-118.5363726,201.818,0.002236068,0.1,90.24002,1638989686442
Fix,GT,34.1722979,-118.5363726,201.8179939853549,0.0018884152,0.1,90.24069,1638989687442
Fix,GT,34.1722979,-118.5363726,201.818,0.002236068,0.1,90.24133,1638989688442
Fix,GT,34.1722979,-118.5363726,201.818,0.0014142136,0.1,90.241974,1638989689442
Fix,GT,34.1722979,-118.5363726,201.818,0.0017131987,0.1,90.24271,1638989690442
Fix,GT,34.1722979,-118.5363726,201.818,0.001,0.1,90.24344,1638989691442
Fix,GT,34.1722979,-118.5363726,201.818,0.0,0.1,90.2441,1638989692442
Fix,GT,34.1722979,-118.5363726,201.818,0.0005769899,0.1,90.24454,1638989693442
Fix,GT,34.1722978,-118.5363726,201.8199939852953,0.0009999999,0.1,90.245026,1638989694442
Fix,GT,34.1722978,-118.5363726,201.823,0.003,0.1,90.24548,1638989695442
Fix,GT,34.1722978,-118.5363722,201.82357698988915,0.21540615,0.1,90.25455,1638989696442
Fix,GT,34.1722977,-118.5363637,201.8125709754229,1.53404,0.1,90.2861,1638989697442
Fix,GT,34.1722975,-118.5363386,201.777301946193,3.1583316,0.1,90.33481,1638989698442
Fix,GT,34.1722973,-118.5362949,201.7216099074781,4.857394,0.1,90.39386,1638989699442
Fix,GT,34.1722967,-118.5362322,201.6793019491136,6.636587,0.1,90.79065,1638989700442
Fix,GT,34.1722951,-118.5361532,201.6804559288919,7.82642,0.1,91.3746,1638989701442
Fix,GT,34.172293,-118.5360635,201.7995709758103,8.763736,0.1,91.41962,1638989702442
Fix,GT,34.1722915,-118.5359626,201.8660778592825,9.881926,0.1,90.66272,1638989703442
Fix,GT,34.1722909,-118.5358481,201.64822409135104,11.271559,0.1,89.97461,1638989704442
Fix,GT,34.1722911,-118.5357197,201.65042300999164,12.211876,0.1,89.46042,1638989705442
Fix,GT,34.1722924,-118.5355844,201.71888320982453,12.534131,0.1,88.96509,1638989706442
Fix,GT,34.1722936,-118.5354486,201.78868602612613,12.632173,0.1,89.51944,1638989707442
Fix,GT,34.1722913,-118.5353088,201.8033451507688,13.095713,0.1,92.12167,1638989708442
Fix,GT,34.172282,-118.5351688,201.87573096984624,12.886808,0.1,96.08777,1638989709442
Fix,GT,34.1722646,-118.5350327,201.895,12.627615,0.1,100.16171,1638989710442
Fix,GT,34.1722379,-118.5348975,201.9414991314412,13.119741,0.1,105.084015,1638989711442
Fix,GT,34.1722013,-118.5347626,201.99542301023007,13.006046,0.1,109.62421,1638989712442
Fix,GT,34.1721565,-118.5346343,202.1109610716105,12.679966,0.1,114.21384,1638989713442
Fix,GT,34.1721048,-118.5345142,202.2028010658026,12.324349,0.1,118.65399,1638989714442
Fix,GT,34.1720478,-118.5343979,202.2856531131864,12.564407,0.1,121.04089,1638989715442
Fix,GT,34.1719897,-118.5342841,202.35645590731505,11.809765,0.1,121.26404,1638989716442
Fix,GT,34.1719381,-118.5341802,202.4342301040888,10.501446,0.1,120.19104,1638989717442
Fix,GT,34.1718941,-118.5340828,202.46911505234243,10.121623,0.1,117.47269,1638989718442
Fix,GT,34.1718545,-118.5339833,202.50733912336824,10.137594,0.1,114.29254,1638989719442
Fix,GT,34.1718207,-118.5338821,202.57453806388372,10.057275,0.1,110.54172,1638989720442
Fix,GT,34.1717919,-118.5337762,202.63196107494832,10.484417,0.1,106.67438,1638989721442
Fix,GT,34.1717683,-118.5336641,202.73111505413056,10.723452,0.1,102.77362,1638989722442
Fix,GT,34.1717512,-118.5335489,202.7879221532345,10.98818,0.1,98.36218,1638989723442
Fix,GT,34.1717419,-118.5334254,202.85723615643383,11.829926,0.1,93.45099,1638989724442
Fix,GT,34.1717396,-118.5332949,202.9331090079546,12.216259,0.1,89.67059,1638989725442
Fix,GT,34.1717447,-118.5331665,203.01484602272512,11.245899,0.1,85.61246,1638989726442
Fix,GT,34.1717554,-118.5330522,203.0663840918541,10.038986,0.1,82.53223,1638989727442
Fix,GT,34.1717672,-118.5329494,203.1421211124957,9.323502,0.1,82.544525,1638989728442
Fix,GT,34.1717723,-118.5328499,203.1944169562161,9.1674185,0.1,88.278564,1638989729442
Fix,GT,34.1717673,-118.5327463,203.24369810527563,9.857316,0.1,95.50748,1638989730442
Fix,GT,34.1717494,-118.532639,203.12135291847588,10.4661,0.1,103.95163,1638989731442
Fix,GT,34.1717161,-118.5325285,203.2338071119189,11.262771,0.1,112.81012,1638989732442
Fix,GT,34.1716665,-118.5324161,203.4466903784275,12.244387,0.1,119.35394,1638989733442
Fix,GT,34.1716099,-118.5322958,203.91707281875608,13.100765,0.1,118.7767,1638989734442
Fix,GT,34.171553,-118.5321694,204.6926481544972,13.440297,0.1,117.75824,1638989735442
Fix,GT,34.1714975,-118.532035,205.61318626064065,14.242416,0.1,115.2731,1638989736442
Fix,GT,34.1714454,-118.53189,206.59134640923145,14.72765,0.1,112.07648,1638989737442
Fix,GT,34.1713996,-118.5317393,207.44780218559504,14.832359,0.1,108.95172,1638989738442
Fix,GT,34.1713578,-118.5315828,208.3192314248681,15.577101,0.1,106.84207,1638989739442
Fix,GT,34.1713216,-118.5314182,209.1984181189537,15.525943,0.1,103.31061,1638989740442
Fix,GT,34.171295,-118.5312565,209.96473232996465,14.835398,0.1,99.72955,1638989741442
Fix,GT,34.1712775,-118.5311008,210.5618490603268,14.158463,0.1,96.58847,1638989742442
Fix,GT,34.1712647,-118.5309513,211.0085301870405,13.547289,0.1,95.60043,1638989743442
Fix,GT,34.171252,-118.5308085,211.4347666349412,12.945291,0.1,96.51788,1638989744442
Fix,GT,34.171237,-118.5306725,211.77885074195265,12.287075,0.1,98.095184,1638989745442
Fix,GT,34.1712206,-118.5305471,211.94549920350312,11.142803,0.1,99.34067,1638989746442
Fix,GT,34.1712047,-118.5304353,212.04569206357,9.801437,0.1,99.865234,1638989747442
Fix,GT,34.1711898,-118.5303357,212.2191523885727,8.8562975,0.1,100.107056,1638989748442
Fix,GT,34.1711761,-118.5302455,212.3031150824428,8.02748,0.1,100.3634,1638989749442
Fix,GT,34.1711638,-118.5301638,212.3802690503597,7.311311,0.1,100.20593,1638989750442
Fix,GT,34.1711533,-118.5300922,212.4306983990968,5.9888797,0.1,99.75421,1638989751442
Fix,GT,34.1711457,-118.5300359,212.43841668620703,4.7956266,0.1,99.25845,1638989752442
Fix,GT,34.1711392,-118.5299868,212.44200633126496,4.4200177,0.1,98.89194,1638989753442
Fix,GT,34.1711333,-118.5299401,212.44057698208093,4.3017645,0.1,98.542114,1638989754442
Fix,GT,34.1711278,-118.5298945,212.4334293492436,4.176952,0.1,98.364075,1638989755442
Fix,GT,34.1711226,-118.529852,212.4410063312352,3.6481438,0.1,98.30835,1638989756442
Fix,GT,34.1711186,-118.5298188,212.44442301881315,2.6076374,0.1,98.30081,1638989757442
Fix,GT,34.1711153,-118.5297923,212.44057698094844,2.5326633,0.1,98.31061,1638989758442
Fix,GT,34.1711118,-118.5297643,212.42815396142004,2.5968351,0.1,98.46112,1638989759442
Fix,GT,34.1711083,-118.5297362,212.416576980412,2.772005,0.1,98.41937,1638989760442
Fix,GT,34.171104,-118.5297017,212.403153960228,3.698543,0.1,98.397644,1638989761442
Fix,GT,34.1710981,-118.529655,212.3888397105336,5.0884056,0.1,98.3573,1638989762442
Fix,GT,34.171091,-118.5295942,212.4088397104144,6.0002832,0.1,97.80994,1638989763442
Fix,GT,34.1710843,-118.52953,212.4411087716818,5.8501005,0.1,97.01416,1638989764442
Fix,GT,34.1710785,-118.5294681,212.47258331131937,5.682655,0.1,96.346924,1638989765442
Fix,GT,34.171073,-118.5294044,212.487429353714,6.1641846,0.1,95.720764,1638989766442
Fix,GT,34.1710681,-118.529335,212.49858331161732,6.390704,0.1,94.57178,1638989767442
Fix,GT,34.1710648,-118.5292689,212.498,5.809002,0.1,93.13867,1638989768442
Fix,GT,34.1710627,-118.5292104,212.49,4.9847856,0.1,92.41376,1638989769442
Fix,GT,34.1710609,-118.5291613,212.4831539558172,4.279146,0.1,92.49982,1638989770442
Fix,GT,34.1710588,-118.5291157,212.4818460446596,4.152708,0.1,93.06726,1638989771442
Fix,GT,34.1710563,-118.5290684,212.471,4.652912,0.1,93.49451,1638989772442
Fix,GT,34.171054,-118.5290133,212.46942302274704,5.571145,0.1,92.693726,1638989773442
Fix,GT,34.1710525,-118.5289476,212.4822627367973,6.3557234,0.1,91.36276,1638989774442
Fix,GT,34.1710516,-118.5288783,212.48187855151292,6.427749,0.1,90.88098,1638989775442
Fix,GT,34.1710507,-118.5288059,212.4705769765973,6.772989,0.1,90.9299,1638989776442
Fix,GT,34.1710495,-118.5287317,212.44915395271772,7.0885677,0.1,90.85031,1638989777442
Fix,GT,34.1710489,-118.5286535,212.4377372596264,7.183283,0.1,90.460846,1638989778442
Fix,GT,34.171048,-118.5285769,212.40873725804687,6.849949,0.1,90.85007,1638989779442
Fix,GT,34.1710471,-118.5285046,212.3808523780704,6.540963,0.1,90.77533,1638989780442
Fix,GT,34.1710465,-118.5284328,212.3327372543514,6.9629726,0.1,90.52301,1638989781442
Fix,GT,34.1710459,-118.5283563,212.2873079009056,7.009964,0.1,90.51935,1638989782442
Fix,GT,34.1710453,-118.5282826,212.257153949976,6.6439953,0.1,90.34479,1638989783442
Fix,GT,34.171045,-118.5282108,212.2101927727461,6.729744,0.1,90.146545,1638989784442
Fix,GT,34.1710449,-118.5281354,212.15804514425992,7.0745068,0.1,89.95984,1638989785442
Fix,GT,34.171045,-118.5280579,212.091192768991,7.3161635,0.1,89.72162,1638989786442
Fix,GT,34.1710454,-118.5279745,212.0140388186574,8.131284,0.1,89.52603,1638989787442
Fix,GT,34.171046,-118.5278805,211.93703250047565,9.196667,0.1,89.43033,1638989788442
Fix,GT,34.1710463,-118.5277753,211.8526094748974,10.177227,0.1,89.77869,1638989789442
Fix,GT,34.171046,-118.5276601,211.80145552784205,10.949772,0.1,90.244965,1638989790442
Fix,GT,34.171045,-118.5275407,211.7089173677564,11.054203,0.1,90.45587,1638989791442
Fix,GT,34.1710442,-118.527421,211.6306157827377,11.05367,0.1,90.29968,1638989792442
Fix,GT,34.1710435,-118.527298,211.5563078904152,11.7344885,0.1,90.10858,1638989793442
Fix,GT,34.1710435,-118.5271652,211.52000630378723,12.838305,0.1,89.78967,1638989794442
Fix,GT,34.1710439,-118.5270191,211.46746183347705,14.198967,0.1,89.61008,1638989795442
Fix,GT,34.1710443,-118.5268563,211.39592366337777,15.834536,0.1,89.42355,1638989796442
Fix,GT,34.171049,-118.5266755,211.30307130768887,17.396954,0.1,87.260925,1638989797442
Fix,GT,34.1710581,-118.5264831,211.1358022239804,18.08203,0.1,86.44827,1638989798442
Fix,GT,34.1710666,-118.5262843,210.93953313732143,18.64273,0.1,87.56476,1638989799442
Fix,GT,34.171071,-118.526083,210.67214890813827,18.360197,0.1,88.895996,1638989800442
Fix,GT,34.1710726,-118.5258886,210.37772588095063,17.427008,0.1,89.64606,1638989801442
Fix,GT,34.1710727,-118.5257065,210.0940337643921,16.099169,0.1,90.01178,1638989802442
Fix,GT,34.1710724,-118.5255396,209.7624567961693,14.808853,0.1,89.86136,1638989803442
Fix,GT,34.1710729,-118.5253807,209.4615781911016,14.536516,0.1,89.68988,1638989804442
Fix,GT,34.1710732,-118.5252245,209.18958442014457,14.233627,0.1,89.83487,1638989805442
Fix,GT,34.1710728,-118.5250721,208.9181551511288,13.886492,0.1,90.013855,1638989806442
Fix,GT,34.1710727,-118.5249234,208.6566995471716,13.5038185,0.1,89.96045,1638989807442
Fix,GT,34.1710723,-118.5247804,208.40085347566009,12.709316,0.1,90.136505,1638989808442
Fix,GT,34.171072,-118.5246507,208.1748534632028,11.207408,0.1,89.988525,1638989809442
Fix,GT,34.1710719,-118.5245358,207.9715393781662,9.936505,0.1,89.87457,1638989810442
Fix,GT,34.1710723,-118.5244334,207.79280846840143,8.978745,0.1,89.55246,1638989811442
Fix,GT,34.171073,-118.5243397,207.62465452826024,8.197617,0.1,89.23633,1638989812442
Fix,GT,34.1710737,-118.5242532,207.46623149299623,7.895858,0.1,89.58548,1638989813442
Fix,GT,34.1710736,-118.5241673,207.30123766887183,7.9624357,0.1,90.04822,1638989814442
Fix,GT,34.1710733,-118.5240802,207.1258146297932,8.128688,0.1,90.15787,1638989815442
Fix,GT,34.1710729,-118.5239925,206.9700713817477,7.8385034,0.1,90.23474,1638989816442
Fix,GT,34.1710723,-118.5239089,206.8395005803108,7.646116,0.1,90.45044,1638989817442
Fix,GT,34.1710717,-118.5238264,206.6882314796448,7.562096,0.1,90.218445,1638989818442
Fix,GT,34.1710718,-118.523744,206.54050057566167,7.7389584,0.1,89.73639,1638989819442
Fix,GT,34.171072,-118.5236558,206.40664835745096,8.554666,0.1,89.80121,1638989820442
Fix,GT,34.1710719,-118.5235617,206.2781927040816,8.667158,0.1,89.92871,1638989821442
Fix,GT,34.1710717,-118.5234668,206.14580843901632,9.089551,0.1,90.09668,1638989822442
Fix,GT,34.1710714,-118.5233589,206.003083675474,10.888361,0.1,89.95691,1638989823442
Fix,GT,34.1710718,-118.5232309,205.87008366984128,12.553751,0.1,89.548645,1638989824442
Fix,GT,34.1710723,-118.5230887,205.75276966643327,13.500698,0.1,89.72742,1638989825442
Fix,GT,34.1710725,-118.5229407,205.67318656933307,13.650333,0.1,89.85718,1638989826442
Fix,GT,34.1710723,-118.5227895,205.59004489260911,14.342516,0.1,90.08154,1638989827442
Fix,GT,34.1710722,-118.5226298,205.5447308992148,15.09177,0.1,89.714325,1638989828442
Fix,GT,34.1710726,-118.5224624,205.5231539326906,15.785284,0.1,89.72821,1638989829442
Fix,GT,34.1710731,-118.5222875,205.49914780825372,16.422222,0.1,89.72363,1638989830442
Fix,GT,34.1710733,-118.5221098,205.4553078649044,16.092813,0.1,89.93561,1638989831442
Fix,GT,34.1710728,-118.521941,205.4308848311305,15.075181,0.1,90.175385,1638989832442
Fix,GT,34.1710724,-118.5217813,205.3827308984995,14.357101,0.1,89.96387,1638989833442
Fix,GT,34.1710724,-118.5216274,205.34573089849948,14.048438,0.1,89.951904,1638989834442
Fix,GT,34.1710722,-118.5214755,205.305846067667,14.080926,0.1,89.91449,1638989835442
Fix,GT,34.1710723,-118.5213209,205.27715393245225,14.300364,0.1,90.00592,1638989836442
Fix,GT,34.1710718,-118.5211667,205.2527308986783,14.125997,0.1,90.13132,1638989837442
Fix,GT,34.1710713,-118.5210148,205.2188848311305,13.907053,0.1,90.12717,1638989838442
Fix,GT,34.1710709,-118.5208622,205.1807308986783,14.338948,0.1,90.07306,1638989839442
Fix,GT,34.1710706,-118.5207022,205.15503876399995,15.131155,0.1,89.85721,1638989840442
Fix,GT,34.171071,-118.5205376,205.14641691985724,15.153276,0.1,89.68591,1638989841442
Fix,GT,34.1710721,-118.5203736,205.10888483172653,15.171997,0.1,89.3291,1638989842442
Fix,GT,34.1710733,-118.5202086,205.0827308992148,15.170032,0.1,89.5954,1638989843442
Fix,GT,34.1710733,-118.5200451,205.0499938890338,14.941671,0.1,90.10785,1638989844442
Fix,GT,34.1710727,-118.5198842,205.00846179914475,14.583275,0.1,90.17444,1638989845442
Fix,GT,34.1710723,-118.5197309,205.00142303335667,13.724758,0.1,90.0397,1638989846442
Fix,GT,34.1710719,-118.5195842,204.9753139757216,13.398693,0.1,90.18643,1638989847442
Fix,GT,34.1710709,-118.5194383,204.9384556930363,13.519613,0.1,90.50809,1638989848442
Fix,GT,34.1710702,-118.5192953,204.9011539337635,12.688207,0.1,89.93463,1638989849442
Fix,GT,34.1710705,-118.5191629,204.8807370068729,11.8274145,0.1,89.7359,1638989850442
Fix,GT,34.1710707,-118.5190381,204.841301763326,11.043541,0.1,89.74048,1638989851442
Fix,GT,34.171071,-118.5189244,204.79088483560088,10.022887,0.1,89.73657,1638989852442
Fix,GT,34.1710713,-118.5188197,204.7431866034865,9.290493,0.1,89.74121,1638989853442
Fix,GT,34.1710715,-118.5187221,204.67426414987443,8.801776,0.1,89.74841,1638989854442
Fix,GT,34.1710718,-118.5186276,204.6273078699112,8.648854,0.1,89.538635,1638989855442
Fix,GT,34.1710726,-118.5185327,204.5995708700717,9.063354,0.1,89.29797,1638989856442
Fix,GT,34.1710733,-118.5184277,204.5401478396952,10.303231,0.1,89.549194,1638989857442
Fix,GT,34.1710736,-118.518311,204.5033078713417,11.000386,0.1,89.83304,1638989858442
Fix,GT,34.1710734,-118.5181884,204.3957696801424,11.685671,0.1,90.06079,1638989859442
Fix,GT,34.171073,-118.51806,204.2846157445908,11.97612,0.1,90.100555,1638989860442
Fix,GT,34.1710728,-118.5179299,204.1392375765443,12.080391,0.1,90.07272,1638989861442
Fix,GT,34.1710724,-118.5177965,203.942962400198,12.409411,0.1,90.12219,1638989862442
Fix,GT,34.1710719,-118.5176609,203.7240011823177,12.673725,0.1,90.219696,1638989863442
Fix,GT,34.1710712,-118.5175201,203.4750011869669,13.331114,0.1,90.12103,1638989864442
Fix,GT,34.171071,-118.5173711,203.18758421552184,14.152804,0.1,89.90521,1638989865442
Fix,GT,34.1710712,-118.5172136,202.8840399779081,14.842625,0.1,89.81995,1638989866442
Fix,GT,34.1710711,-118.5170519,202.53977088928224,14.89723,0.1,90.0668,1638989867442
Fix,GT,34.1710707,-118.5168932,202.18619392430784,14.272726,0.1,89.99628,1638989868442
Fix,GT,34.1710705,-118.5167421,201.82419392848016,13.67351,0.1,89.947754,1638989869442
Fix,GT,34.1710704,-118.5165958,201.4513538791537,13.346584,0.1,89.93594,1638989870442
Fix,GT,34.1710705,-118.516453,201.09435387292507,12.960503,0.1,89.83414,1638989871442
Fix,GT,34.1710707,-118.5163141,200.73576493325828,12.683505,0.1,89.68515,1638989872442
Fix,GT,34.1710712,-118.5161779,200.3931939472556,12.444927,0.1,89.63168,1638989873442
Fix,GT,34.1710717,-118.5160425,200.02407283875343,12.637146,0.1,89.7514,1638989874442
Fix,GT,34.1710719,-118.5159023,199.66104596310856,13.122501,0.1,89.844635,1638989875442
Fix,GT,34.1710718,-118.5157595,199.32277092576027,13.223616,0.1,89.946045,1638989876442
Fix,GT,34.1710717,-118.5156152,198.9496557814479,13.369509,0.1,89.96988,1638989877442
Fix,GT,34.1710716,-118.5154693,198.56350776019693,13.6097145,0.1,89.99362,1638989878442
Fix,GT,34.1710717,-118.5153177,198.1766498784721,14.402271,0.1,89.720856,1638989879442
Fix,GT,34.1710722,-118.5151563,197.7621117129624,15.415684,0.1,89.82599,1638989880442
Fix,GT,34.1710721,-118.5149814,197.2867004550397,16.758152,0.1,89.83301,1638989881442
Fix,GT,34.1710725,-118.5147949,196.78400246071817,17.53373,0.1,89.629456,1638989882442
Fix,GT,34.1710727,-118.514602,196.4049190202057,18.0916,0.1,90.112305,1638989883442
Fix,GT,34.1710718,-118.5144009,196.12461699354648,18.835093,0.1,90.191345,1638989884442
Fix,GT,34.1710711,-118.5141966,195.91042425996065,18.86477,0.1,90.12152,1638989885442
Fix,GT,34.1710707,-118.5139896,195.6736545559764,19.406986,0.1,89.96353,1638989886442
Fix,GT,34.1710707,-118.5137775,195.45211637836687,19.564617,0.1,89.981384,1638989887442
Fix,GT,34.1710704,-118.513566,195.2959294655621,19.434206,0.1,89.89307,1638989888442
Fix,GT,34.1710714,-118.5133561,195.10384728956225,19.27384,0.1,89.48218,1638989889442
Fix,GT,34.1710719,-118.5131474,194.8805394079685,19.320354,0.1,89.89978,1638989890442
Fix,GT,34.1710714,-118.5129375,194.65527031916372,19.416777,0.1,90.18408,1638989891442
Fix,GT,34.1710706,-118.5127259,194.4142703191638,19.508392,0.1,90.135284,1638989892442
Fix,GT,34.1710701,-118.5125151,194.19111637836693,19.382107,0.1,89.964386,1638989893442
Fix,GT,34.1710704,-118.5123052,193.94957820075751,19.438103,0.1,89.75708,1638989894442
Fix,GT,34.1710709,-118.5120913,193.72611060398816,19.943886,0.1,89.74283,1638989895442
Fix,GT,34.171071,-118.5118751,193.48043002420667,19.88977,0.1,89.947815,1638989896442
Fix,GT,34.1710711,-118.5116602,193.25269910645488,19.714994,0.1,89.81085,1638989897442
Fix,GT,34.1710716,-118.5114474,193.0319566839636,19.53263,0.1,89.61813,1638989898442
Fix,GT,34.1710729,-118.5112366,192.81243000429868,19.356514,0.1,89.553314,1638989899442
Fix,GT,34.1710727,-118.5110267,192.58211063557863,19.311707,0.1,90.400055,1638989900442
Fix,GT,34.1710712,-118.5108185,192.34800695768,18.954773,0.1,90.22891,1638989901442
Fix,GT,34.1710705,-118.5106164,192.10915516448023,18.42965,0.1,90.128784,1638989902442
Fix,GT,34.1710699,-118.5104165,191.7822270293832,18.505398,0.1,90.10901,1638989903442
Fix,GT,34.1710698,-118.5102156,191.6005724830329,18.396967,0.1,89.841156,1638989904442
Fix,GT,34.1710701,-118.5100196,191.3838027883172,17.704136,0.1,89.86011,1638989905442
Fix,GT,34.17107,-118.5098312,191.17650061053035,17.094751,0.1,90.07782,1638989906442
Fix,GT,34.1710696,-118.5096469,191.0387309101224,16.919094,0.1,89.95929,1638989907442
Fix,GT,34.17107,-118.5094631,190.95050629875064,17.053656,0.1,89.60144,1638989908442
Fix,GT,34.1710704,-118.5092757,190.9196864311099,17.54669,0.1,89.918335,1638989909442
Fix,GT,34.1710704,-118.5090824,190.918076363802,18.064053,0.1,89.816284,1638989910442
Fix,GT,34.171071,-118.5088845,191.07135115027427,18.445969,0.1,89.76935,1638989911442
Fix,GT,34.171071,-118.5086818,191.197076366663,18.927225,0.1,90.01199,1638989912442
Fix,GT,34.1710706,-118.5084742,191.32265333741904,19.364094,0.1,90.0116,1638989913442
Fix,GT,34.1710703,-118.5082625,191.4334994003177,19.683537,0.1,90.06253,1638989914442
Fix,GT,34.1710692,-118.5080464,191.5424994034172,20.170967,0.1,90.14526,1638989915442
Fix,GT,34.171069,-118.5078245,191.6840763745308,20.69624,0.1,89.82333,1638989916442
Fix,GT,34.1710711,-118.5075967,191.8042360296845,21.536186,0.1,88.620636,1638989917442
Fix,GT,34.1710781,-118.5073517,191.96946063017845,23.496822,0.1,87.26309,1638989918442
Fix,GT,34.1710878,-118.5070922,192.13788366544247,24.375221,0.1,87.77167,1638989919442
Fix,GT,34.1710939,-118.5068217,192.30588939946887,25.574392,0.1,88.7406,1638989920442
Fix,GT,34.1710984,-118.5065443,192.4692303192616,25.461006,0.1,88.9682,1638989921442
Fix,GT,34.1711014,-118.5062705,192.5391094226241,25.036556,0.1,89.38858,1638989922442
Fix,GT,34.171102,-118.5060014,192.6224230322838,24.595402,0.1,90.0025,1638989923442
Fix,GT,34.1711015,-118.5057371,192.6450057412684,24.14701,0.1,89.99997,1638989924442
Fix,GT,34.1711016,-118.5054775,192.74131361398105,23.720001,0.1,89.818695,1638989925442
Fix,GT,34.1711017,-118.5052225,192.8306476133764,23.31978,0.1,90.24045,1638989926442
Fix,GT,34.1710995,-118.5049706,193.01926795351503,23.17966,0.1,90.67178,1638989927442
Fix,GT,34.1710953,-118.5047209,193.15995547425743,22.944782,0.1,91.33774,1638989928442
Fix,GT,34.171089,-118.5044709,193.2333397377133,23.279034,0.1,91.952515,1638989929442
Fix,GT,34.1710812,-118.5042157,193.36477429288624,23.812693,0.1,91.94327,1638989930442
Fix,GT,34.17107,-118.503957,193.5443512668908,23.820892,0.1,94.081116,1638989931442
Fix,GT,34.1710502,-118.5037008,193.71619156706333,23.760307,0.1,96.144165,1638989932442
Fix,GT,34.1710216,-118.5034439,193.90776853561405,23.954193,0.1,98.77899,1638989933442
Fix,GT,34.1709839,-118.5031901,194.0609166866243,23.465797,0.1,101.08551,1638989934442
Fix,GT,34.1709398,-118.5029468,194.2023455048204,22.476954,0.1,103.06613,1638989935442
Fix,GT,34.170892,-118.5027168,194.33234550660848,21.188875,0.1,104.558624,1638989936442
Fix,GT,34.1708425,-118.5025012,194.4359612368345,20.139526,0.1,105.861694,1638989937442
Fix,GT,34.1707912,-118.502297,194.4814230339527,19.205433,0.1,107.375916,1638989938442
Fix,GT,34.170738,-118.5021033,194.4892691023946,18.492283,0.1,108.77164,1638989939442
Fix,GT,34.1706827,-118.501918,194.47546179485323,17.79948,0.1,110.2738,1638989940442
Fix,GT,34.1706249,-118.5017412,194.3906544853449,17.304659,0.1,112.11255,1638989941442
Fix,GT,34.1705656,-118.5015728,194.23338537919523,16.340603,0.1,113.34534,1638989942442
Fix,GT,34.1705069,-118.5014138,194.00903875815868,15.855408,0.1,114.00513,1638989943442
Fix,GT,34.1704471,-118.5012582,193.94057228133084,15.872816,0.1,115.23053,1638989944442
Fix,GT,34.1703835,-118.5011031,193.82653930068017,15.73068,0.1,116.725464,1638989945442
Fix,GT,34.1703203,-118.5009576,193.65611626446247,14.512035,0.1,117.94922,1638989946442
Fix,GT,34.1702589,-118.500825,193.4142759554684,13.6936,0.1,119.51016,1638989947442
Fix,GT,34.1701969,-118.5006971,193.2643020992875,13.685638,0.1,120.42578,1638989948442
Fix,GT,34.1701343,-118.5005721,193.1571162557006,12.962124,0.1,121.12839,1638989949442
Fix,GT,34.1700768,-118.5004596,192.94853928875924,11.4661,0.1,121.63458,1638989950442
Fix,GT,34.1700232,-118.500358,192.76196806761624,10.768929,0.1,122.54297,1638989951442
Fix,GT,34.1699711,-118.5002624,192.5662644394338,10.493742,0.1,123.33853,1638989952442
Fix,GT,34.1699183,-118.500168,192.36053355035187,10.442692,0.1,124.042725,1638989953442
Fix,GT,34.1698656,-118.5000759,192.16580266165727,10.228436,0.1,124.49228,1638989954442
Fix,GT,34.1698126,-118.4999856,191.9745449989736,10.1815,0.1,125.365906,1638989955442
Fix,GT,34.1697583,-118.4998954,191.7606874860525,10.483482,0.1,125.925995,1638989956442
Fix,GT,34.1697002,-118.4998005,191.54669890612365,11.182938,0.1,126.49548,1638989957442
Fix,GT,34.169639,-118.4997032,191.2994240841269,11.336113,0.1,127.107574,1638989958442
Fix,GT,34.1695759,-118.4996035,191.0287319306732,11.7818775,0.1,127.25067,1638989959442
Fix,GT,34.1695111,-118.4995009,190.72788585323096,11.934807,0.1,127.17694,1638989960442
Fix,GT,34.1694454,-118.4993978,190.41788584768773,12.138716,0.1,127.6073,1638989961442
Fix,GT,34.1693761,-118.4992899,190.0921936927438,13.06896,0.1,127.62927,1638989962442
Fix,GT,34.1693019,-118.4991739,189.7345015340448,13.794523,0.1,127.489044,1638989963442
Fix,GT,34.169225,-118.4990534,189.32866109326483,14.136867,0.1,127.49097,1638989964442
Fix,GT,34.1691467,-118.4989317,188.9042324037552,14.30213,0.1,127.84958,1638989965442
Fix,GT,34.1690657,-118.4988065,188.44781497606635,15.029915,0.1,127.80597,1638989966442
Fix,GT,34.1689799,-118.4986744,188.0497762226165,15.8984165,0.1,128.00226,1638989967442
Fix,GT,34.1688898,-118.4985359,187.691199241966,16.350267,0.1,127.95499,1638989968442
Fix,GT,34.1687991,-118.4983962,187.3713144183755,16.298952,0.1,127.92255,1638989969442
Fix,GT,34.168709,-118.4982573,187.1061217551828,16.272717,0.1,127.98181,1638989970442
Fix,GT,34.1686187,-118.4981184,186.91680832958224,16.215405,0.1,127.93396,1638989971442
Fix,GT,34.1685295,-118.4979805,186.7911926423908,16.00577,0.1,127.731476,1638989972442
Fix,GT,34.1684416,-118.497844,186.7086101155281,15.933874,0.1,127.80002,1638989973442
Fix,GT,34.1683526,-118.4977058,186.6683078386784,16.20076,0.1,127.58655,1638989974442
Fix,GT,34.1682621,-118.4975651,186.6361483565867,16.715734,0.1,127.71536,1638989975442
Fix,GT,34.1681684,-118.4974198,186.613307836771,17.000694,0.1,127.81732,1638989976442
Fix,GT,34.1680747,-118.4972755,186.5741483572424,16.681795,0.1,128.03583,1638989977442
Fix,GT,34.1679842,-118.4971364,186.5438903520405,15.879835,0.1,127.97363,1638989978442
Fix,GT,34.167897,-118.4970028,186.5123078329563,15.517294,0.1,128.16394,1638989979442
Fix,GT,34.1678102,-118.49687,186.4723133890033,15.767938,0.1,128.12415,1638989980442
Fix,GT,34.1677221,-118.4967349,186.4341539152861,15.88323,0.1,128.00262,1638989981442
Fix,GT,34.1676326,-118.4965967,186.4003022742868,16.496456,0.1,127.73999,1638989982442
Fix,GT,34.1675404,-118.4964529,186.362153914094,16.884802,0.1,127.52429,1638989983442
Fix,GT,34.1674474,-118.4963079,186.3321539134979,16.841646,0.1,127.768585,1638989984442
Fix,GT,34.1673535,-118.4961629,186.3045769564509,17.095896,0.1,127.86966,1638989985442
Fix,GT,34.1672596,-118.4960181,186.2767364198864,16.634,0.1,127.88922,1638989986442
Fix,GT,34.1671694,-118.4958792,186.2465769558549,15.867695,0.1,128.06909,1638989987442
Fix,GT,34.1670822,-118.4957461,186.2193133719265,15.488058,0.1,128.27069,1638989988442
Fix,GT,34.1669954,-118.4956138,186.17673086559773,15.726973,0.1,128.09888,1638989989442
Fix,GT,34.1669069,-118.4954767,186.1255714078844,16.26835,0.1,127.52341,1638989990442
Fix,GT,34.1668159,-118.4953342,186.0987364099324,16.897257,0.1,127.52069,1638989991442
Fix,GT,34.1667211,-118.4951868,186.1122691372633,17.360771,0.1,127.67505,1638989992442
Fix,GT,34.1666256,-118.4950392,186.1678018666208,17.034985,0.1,128.00208,1638989993442
Fix,GT,34.1665332,-118.4948972,186.285076556921,16.222998,0.1,127.941284,1638989994442
Fix,GT,34.166446,-118.4947616,186.4700378885865,15.211361,0.1,127.57019,1638989995442
Fix,GT,34.1663663,-118.4946359,186.66388398838043,14.087516,0.1,127.23584,1638989996442
Fix,GT,34.1662922,-118.4945174,186.8788784261048,13.363052,0.1,126.78079,1638989997442
Fix,GT,34.1662217,-118.4944027,187.1087245195508,12.93469,0.1,126.283905,1638989998442
Fix,GT,34.1661545,-118.4942908,187.34746654173733,12.497181,0.1,125.62085,1638989999442
Fix,GT,34.1660913,-118.494182,187.6231144941449,11.962437,0.1,124.482056,1638990000442
Fix,GT,34.1660328,-118.4940765,187.9242684046626,11.336853,0.1,123.29645,1638990001442
Fix,GT,34.1659796,-118.4939754,188.2211145126224,10.772411,0.1,121.93851,1638990002442
Fix,GT,34.1659296,-118.4938763,188.51884537291528,10.691698,0.1,120.9884,1638990003442
Fix,GT,34.1658802,-118.4937749,188.8121201568246,11.030666,0.1,120.14496,1638990004442
Fix,GT,34.1658317,-118.493671,189.11085102435948,10.938759,0.1,118.98419,1638990005442
Fix,GT,34.1657841,-118.4935648,189.37173578968645,11.259937,0.1,117.99353,1638990006442
Fix,GT,34.165738,-118.4934571,189.59930710101128,11.074063,0.1,116.84506,1638990007442
Fix,GT,34.1656939,-118.4933489,189.80104361224176,11.229654,0.1,115.82556,1638990008442
Fix,GT,34.1656512,-118.4932391,189.990186198473,11.043575,0.1,114.673584,1638990009442
Fix,GT,34.1656112,-118.4931308,190.15134576320648,10.865246,0.1,113.67001,1638990010442
Fix,GT,34.1655721,-118.4930202,190.2993457667828,11.420153,0.1,112.81592,1638990011442
Fix,GT,34.1655311,-118.4928998,190.4163844108581,12.622686,0.1,111.90213,1638990012442
Fix,GT,34.165488,-118.4927659,190.4776922063828,13.765328,0.1,110.81363,1638990013442
Fix,GT,34.1654437,-118.4926206,190.53311525917053,14.782206,0.1,109.6228,1638990014442
Fix,GT,34.1654002,-118.4924653,190.5557694792748,15.324865,0.1,108.06323,1638990015442
Fix,GT,34.1653592,-118.4923051,190.53957694762943,15.626986,0.1,106.46698,1638990016442
Fix,GT,34.1653213,-118.4921399,190.55303295335176,15.899502,0.1,104.74942,1638990017442
Fix,GT,34.1652867,-118.491971,190.4262311563492,16.124334,0.1,103.368866,1638990018442
Fix,GT,34.1652555,-118.4917993,190.2944946412146,16.380655,0.1,101.53992,1638990019442
Fix,GT,34.1652277,-118.4916213,190.09126411288972,17.039598,0.1,100.13022,1638990020442
Fix,GT,34.1652023,-118.4914355,189.8475719012022,17.630901,0.1,98.74365,1638990021442
Fix,GT,34.1651808,-118.4912439,189.55188533586264,17.995966,0.1,96.99838,1638990022442
Fix,GT,34.1651637,-118.4910494,189.23446791553496,18.046303,0.1,95.299835,1638990023442
Fix,GT,34.1651512,-118.4908532,188.9090392127633,18.14954,0.1,93.724884,1638990024442
Fix,GT,34.1651431,-118.4906577,188.61999496635795,17.919487,0.1,92.13782,1638990025442
Fix,GT,34.1651397,-118.4904647,188.36468718600275,17.693342,0.1,90.64249,1638990026442
Fix,GT,34.1651396,-118.4902714,188.1304236296416,17.95393,0.1,89.660614,1638990027442
Fix,GT,34.165141,-118.490077,187.89969279015065,17.849962,0.1,89.489044,1638990028442
Fix,GT,34.1651427,-118.489885,187.69038500583173,17.573593,0.1,89.36124,1638990029442
Fix,GT,34.1651439,-118.4896936,187.52507722258568,17.816366,0.1,89.60474,1638990030442
Fix,GT,34.1651452,-118.4895006,187.4101924980879,17.74235,0.1,89.346466,1638990031442
Fix,GT,34.165147,-118.4893093,187.32461555242537,17.512,0.1,89.31796,1638990032442
Fix,GT,34.1651489,-118.4891192,187.254307775259,17.711832,0.1,89.08185,1638990033442
Fix,GT,34.1651524,-118.4889233,187.2096099689901,18.56575,0.1,88.48877,1638990034442
Fix,GT,34.1651571,-118.4887161,187.16157136544587,19.485584,0.1,88.517,1638990035442
Fix,GT,34.1651607,-118.4885024,187.12904417803884,19.963163,0.1,89.03516,1638990036442
Fix,GT,34.1651636,-118.4882828,187.05819805982708,20.493563,0.1,89.013245,1638990037442
Fix,GT,34.1651663,-118.4880585,186.9908847122192,20.903097,0.1,89.269104,1638990038442
Fix,GT,34.1651685,-118.4878291,186.9386099665761,21.338047,0.1,89.361145,1638990039442
Fix,GT,34.1651701,-118.4875976,186.88014831450585,21.262638,0.1,89.59851,1638990040442
Fix,GT,34.1651716,-118.4873684,186.82403859251733,20.990234,0.1,89.350494,1638990041442
Fix,GT,34.1651747,-118.4871436,186.76073082464933,20.294804,0.1,88.76282,1638990042442
Fix,GT,34.1651791,-118.4869303,186.71915388262272,19.014496,0.1,88.4848,1638990043442
Fix,GT,34.1651833,-118.4867302,186.6860385879278,18.002167,0.1,88.719055,1638990044442
Fix,GT,34.1651862,-118.4865393,186.6437308228612,17.251463,0.1,89.01691,1638990045442
Fix,GT,34.1651888,-118.4863538,186.61130220124124,17.005236,0.1,88.98132,1638990046442
Fix,GT,34.1651912,-118.4861702,186.5690441438257,16.85563,0.1,89.30655,1638990047442
Fix,GT,34.1651925,-118.4859878,186.54357138088344,16.809473,0.1,89.398865,1638990048442
Fix,GT,34.1651943,-118.4858053,186.5351483209729,16.884403,0.1,89.2081,1638990049442
Fix,GT,34.1651967,-118.4856202,186.52099444124104,17.267649,0.1,88.95096,1638990050442
Fix,GT,34.1651999,-118.4854313,186.53200555908683,17.451956,0.1,88.81973,1638990051442
Fix,GT,34.1652024,-118.4852431,186.532,17.25407,0.1,89.21011,1638990052442
Fix,GT,34.1652046,-118.4850574,186.50573081696032,16.99138,0.1,89.12463,1638990053442
Fix,GT,34.165207,-118.4848785,186.4887308162451,15.900808,0.1,88.99704,1638990054442
Fix,GT,34.1652093,-118.4847108,186.46115387701988,15.079576,0.1,89.11075,1638990055442
Fix,GT,34.1652111,-118.4845501,186.43173081463573,14.728021,0.1,89.19968,1638990056442
Fix,GT,34.1652131,-118.4843917,186.4191538758278,14.340522,0.1,89.065704,1638990057442
Fix,GT,34.1652154,-118.484241,186.40173081302643,13.422179,0.1,88.84668,1638990058442
Fix,GT,34.1652178,-118.4840998,186.3761538748741,12.795891,0.1,88.781555,1638990059442
Fix,GT,34.1652201,-118.4839608,186.3457308112383,12.912115,0.1,88.94992,1638990060442
Fix,GT,34.1652221,-118.4838209,186.3117308101654,12.939758,0.1,89.04883,1638990061442
Fix,GT,34.165224,-118.4836805,186.2933077459336,12.909948,0.1,89.034424,1638990062442
Fix,GT,34.165226,-118.4835399,186.2617308087349,13.041943,0.1,88.92499,1638990063442
Fix,GT,34.1652283,-118.4833983,186.23815387201307,13.021076,0.1,88.89877,1638990064442
Fix,GT,34.1652304,-118.4832577,186.22415387141703,12.958178,0.1,89.06787,1638990065442
Fix,GT,34.1652323,-118.4831153,186.18830774211884,13.37397,0.1,89.05463,1638990066442
Fix,GT,34.1652339,-118.4829682,186.16415387046337,13.701516,0.1,89.33295,1638990067442
Fix,GT,34.1652351,-118.48282,186.14030219239,13.591544,0.1,89.30878,1638990068442
Fix,GT,34.165237,-118.4826738,186.0988791273832,13.378286,0.1,88.947815,1638990069442
Fix,GT,34.1652394,-118.482529,186.03887912797927,13.431182,0.1,88.73328,1638990070442
Fix,GT,34.1652422,-118.4823806,185.9874671480656,13.981585,0.1,88.64957,1638990071442
Fix,GT,34.1652451,-118.4822257,185.9457252603769,14.559982,0.1,88.84155,1638990072442
Fix,GT,34.1652469,-118.4820678,185.950423066318,14.574888,0.1,89.19241,1638990073442
Fix,GT,34.165249,-118.4819079,185.9178846672177,14.940004,0.1,89.0607,1638990074442
Fix,GT,34.1652512,-118.4817435,185.86188466602565,15.38942,0.1,89.12436,1638990075442
Fix,GT,34.165253,-118.4815736,185.8176154637337,16.073513,0.1,89.26178,1638990076442
Fix,GT,34.1652548,-118.4813929,185.75988466364143,17.270372,0.1,89.20267,1638990077442
Fix,GT,34.1652572,-118.4811987,185.69304406180976,18.529102,0.1,89.103485,1638990078442
Fix,GT,34.1652597,-118.480993,185.64031326168777,19.384699,0.1,89.13312,1638990079442
Fix,GT,34.1652623,-118.4807782,185.60415386402607,20.213898,0.1,89.11206,1638990080442
Fix,GT,34.1652652,-118.480556,185.575,20.749805,0.1,88.93448,1638990081442
Fix,GT,34.1652694,-118.4803278,185.5425769314766,21.323105,0.1,88.62314,1638990082442
Fix,GT,34.1652727,-118.4800964,185.49089018416404,21.320198,0.1,89.23926,1638990083442
Fix,GT,34.1652749,-118.4798664,185.44973079299928,21.081861,0.1,89.34589,1638990084442
Fix,GT,34.165277,-118.4796393,185.39603298938275,20.79383,0.1,89.13568,1638990085442
Fix,GT,34.16528,-118.4794154,185.3383132455349,20.50502,0.1,89.04443,1638990086442
Fix,GT,34.1652834,-118.4791947,185.2824560599625,20.199371,0.1,88.77487,1638990087442
Fix,GT,34.165287,-118.4789774,185.22703851073985,19.883873,0.1,88.96802,1638990088442
Fix,GT,34.1652895,-118.4787634,185.17930220100283,19.599354,0.1,89.313995,1638990089442
Fix,GT,34.1652917,-118.4785523,185.13088464874028,19.328667,0.1,89.190125,1638990090442
Fix,GT,34.1652945,-118.4783439,185.0756154370308,19.20356,0.1,88.948,1638990091442
Fix,GT,34.1652979,-118.4781337,185.0221483448446,19.54277,0.1,88.9017,1638990092442
Fix,GT,34.1653011,-118.4779222,184.98626369893552,19.497343,0.1,88.83954,1638990093442
Fix,GT,34.1653047,-118.4777088,184.91576929271216,19.929928,0.1,88.78436,1638990094442
Fix,GT,34.1653076,-118.477492,184.7987637848556,19.991213,0.1,89.15848,1638990095442
Fix,GT,34.1653094,-118.4772729,184.72830771684647,20.558365,0.1,89.429016,1638990096442
Fix,GT,34.1653105,-118.4770448,184.6328022923768,21.546417,0.1,89.74219,1638990097442
Fix,GT,34.1653085,-118.4768057,184.44026936775447,22.716064,0.1,91.24011,1638990098442
Fix,GT,34.1652995,-118.4765532,184.1945770838857,23.7134,0.1,93.55768,1638990099442
Fix,GT,34.1652803,-118.4762944,183.9151540129185,24.210016,0.1,95.94061,1638990100442
Fix,GT,34.1652529,-118.4760312,183.62446172714235,24.743418,0.1,98.09445,1638990101442
Fix,GT,34.1652171,-118.4757633,183.28776397696137,25.331947,0.1,99.79559,1638990102442
Fix,GT,34.1651723,-118.475491,182.9073463675976,25.902775,0.1,102.2677,1638990103442
Fix,GT,34.1651157,-118.4752166,182.5732255664766,26.15483,0.1,105.14972,1638990104442
Fix,GT,34.165048,-118.4749459,182.1879232919216,26.004921,0.1,108.00226,1638990105442
Fix,GT,34.1649686,-118.4746816,181.8246155769825,25.848003,0.1,111.539185,1638990106442
Fix,GT,34.1648762,-118.4744257,181.48865407568212,25.65726,0.1,114.93085,1638990107442
Fix,GT,34.1647722,-118.474179,181.12530786025525,25.328417,0.1,118.290924,1638990108442
Fix,GT,34.1646596,-118.4739443,180.753928673625,24.622078,0.1,121.25333,1638990109442
Fix,GT,34.1645404,-118.4737241,180.3708847852349,23.978168,0.1,124.5733,1638990110442
Fix,GT,34.1644126,-118.473516,180.04984628534316,23.830439,0.1,127.806915,1638990111442
Fix,GT,34.1642757,-118.4733177,179.7606870726347,23.730087,0.1,131.10684,1638990112442
Fix,GT,34.1641298,-118.473131,179.49537951046227,23.591133,0.1,134.89624,1638990113442
Fix,GT,34.163975,-118.4729569,179.0603795234263,23.46939,0.1,138.28735,1638990114442
Fix,GT,34.1638139,-118.4727931,178.65338485646248,23.38802,0.1,140.48965,1638990115442
Fix,GT,34.1636475,-118.472634,178.2787747383714,23.891205,0.1,142.38367,1638990116442
Fix,GT,34.1634706,-118.4724813,177.92603863841293,24.415676,0.1,145.59628,1638990117442
Fix,GT,34.1632833,-118.4723376,177.59162085688115,24.795986,0.1,148.97238,1638990118442
Fix,GT,34.1630894,-118.4722045,177.27134634774922,24.826859,0.1,150.98102,1638990119442
Fix,GT,34.1628914,-118.4720767,176.89792327153685,24.960003,0.1,152.26862,1638990120442
Fix,GT,34.1626912,-118.4719539,176.58231310263275,24.865437,0.1,153.52087,1638990121442
Fix,GT,34.1624899,-118.4718369,176.2338900165558,24.698511,0.1,154.50836,1638990122442
Fix,GT,34.1622913,-118.4717215,176.01680252483487,24.160114,0.1,153.73914,1638990123442
Fix,GT,34.1620986,-118.4716046,175.87646156489848,23.794815,0.1,152.64801,1638990124442
Fix,GT,34.1619086,-118.471484,175.88996675091985,23.93597,0.1,151.79858,1638990125442
Fix,GT,34.1617177,-118.47136,176.01919224089383,24.17462,0.1,151.72223,1638990126442
Fix,GT,34.1615248,-118.471236,176.2717690757513,24.353796,0.1,151.64276,1638990127442
Fix,GT,34.1613328,-118.471107,176.72458201164005,24.370947,0.1,149.73285,1638990128442
Fix,GT,34.1611478,-118.4709681,177.2875382682085,23.933258,0.1,146.46619,1638990129442
Fix,GT,34.1609738,-118.4708194,177.91549979108572,23.447277,0.1,142.83008,1638990130442
Fix,GT,34.1608119,-118.4706589,178.56623589640856,23.077724,0.1,138.76578,1638990131442
Fix,GT,34.1606587,-118.4704907,179.16823592174052,22.836615,0.1,136.71674,1638990132442
Fix,GT,34.1605115,-118.4703181,179.8200382502675,22.820585,0.1,135.03662,1638990133442
Fix,GT,34.1603686,-118.4701389,180.45153829932207,22.911823,0.1,132.64343,1638990134442
Fix,GT,34.1602327,-118.4699508,180.92442293185,22.985405,0.1,129.60788,1638990135442
Fix,GT,34.1601061,-118.4697555,181.4044560137093,22.664364,0.1,126.42401,1638990136442
Fix,GT,34.1599901,-118.4695537,181.75707682585715,22.630093,0.1,123.195496,1638990137442
Fix,GT,34.1598819,-118.4693438,181.9642361667752,22.889164,0.1,120.727875,1638990138442
Fix,GT,34.1597803,-118.4691271,182.145,22.873304,0.1,118.38968,1638990139442
Fix,GT,34.1596868,-118.468907,182.22926379290223,22.739712,0.1,116.01099,1638990140442
Fix,GT,34.159601,-118.4686823,182.2784285069406,22.767593,0.1,113.58725,1638990141442
Fix,GT,34.1595233,-118.4684531,182.3134176413417,22.974112,0.1,111.0025,1638990142442
Fix,GT,34.1594549,-118.4682153,182.34103304204345,23.30613,0.1,107.1673,1638990143442
Fix,GT,34.1594011,-118.4679703,182.305230802536,23.379042,0.1,102.658844,1638990144442
Fix,GT,34.1593631,-118.4677202,182.15896157574656,23.567188,0.1,98.71002,1638990145442
Fix,GT,34.159336,-118.4674637,181.9778077236414,23.980076,0.1,95.947235,1638990146442
Fix,GT,34.1593179,-118.4672025,181.8675054438114,24.305729,0.1,93.971985,1638990147442
Fix,GT,34.1593058,-118.4669392,181.676230796814,24.401188,0.1,92.655396,1638990148442
Fix,GT,34.1592979,-118.4666719,181.59491768443584,24.93034,0.1,91.46185,1638990149442
Fix,GT,34.1592936,-118.4663988,181.47149457219248,25.386623,0.1,90.72937,1638990150442
Fix,GT,34.1592916,-118.4661239,181.31003310373427,25.344507,0.1,90.29895,1638990151442
Fix,GT,34.1592908,-118.4658479,180.9773461675644,25.559786,0.1,89.90036,1638990152442
Fix,GT,34.159292,-118.465568,180.64991773211955,26.108044,0.1,89.46341,1638990153442
Fix,GT,34.1592944,-118.4652816,180.3184231006503,26.714182,0.1,89.23126,1638990154442
Fix,GT,34.1592974,-118.4649886,179.98761004734038,27.33416,0.1,89.19656,1638990155442
Fix,GT,34.1593005,-118.4646899,179.58484618341924,27.613293,0.1,89.25595,1638990156442
Fix,GT,34.1593041,-118.4643911,179.09157695126532,27.460173,0.1,88.92874,1638990157442
Fix,GT,34.1593087,-118.4640946,178.6145331526995,27.217058,0.1,88.789276,1638990158442
Fix,GT,34.1593136,-118.463801,178.14384615957738,26.958828,0.1,88.82825,1638990159442
Fix,GT,34.1593177,-118.4635097,177.62053316587208,26.785336,0.1,89.02289,1638990160442
Fix,GT,34.159321,-118.4632203,177.16126922178267,26.609802,0.1,89.33124,1638990161442
Fix,GT,34.1593227,-118.4629326,176.64185139623285,26.45269,0.1,89.633026,1638990162442
Fix,GT,34.1593248,-118.4626469,176.12985136905314,26.131973,0.1,89.29324,1638990163442
Fix,GT,34.1593272,-118.4623672,175.59346148979665,25.58564,0.1,89.381165,1638990164442
Fix,GT,34.1593286,-118.4620913,175.01219224196672,25.336288,0.1,89.85852,1638990165442
Fix,GT,34.1593284,-118.4618173,174.45134607094525,25.205029,0.1,90.27524,1638990166442
Fix,GT,34.1593242,-118.4615444,173.95585126253962,25.21639,0.1,92.09943,1638990167442
Fix,GT,34.1593097,-118.4612688,173.45754355046154,25.852573,0.1,94.742065,1638990168442
Fix,GT,34.1592861,-118.4609895,172.9581152891517,25.891554,0.1,96.38608,1638990169442
Fix,GT,34.1592563,-118.4607113,172.48053835713864,25.832634,0.1,98.184265,1638990170442
Fix,GT,34.1592198,-118.4604356,172.20669225251677,25.66428,0.1,99.79404,1638990171442
Fix,GT,34.1591764,-118.4601636,172.109,25.435932,0.1,101.512665,1638990172442
Fix,GT,34.1591272,-118.4598957,172.15665387898684,25.167229,0.1,103.18353,1638990173442
Fix,GT,34.1590702,-118.4596333,172.3716975401938,25.038757,0.1,106.41147,1638990174442
Fix,GT,34.1589993,-118.4593737,172.636543715924,25.28447,0.1,109.28027,1638990175442
Fix,GT,34.1589223,-118.4591175,172.9541103461981,24.95606,0.1,110.0878,1638990176442
Fix,GT,34.1588441,-118.4588659,173.26242318165302,24.584354,0.1,110.884705,1638990177442
Fix,GT,34.1587641,-118.4586196,173.5638078364134,24.18494,0.1,111.37573,1638990178442
Fix,GT,34.1586856,-118.4583785,173.93738476347923,23.613644,0.1,111.31964,1638990179442
Fix,GT,34.1586083,-118.4581409,174.2124616303444,23.588486,0.1,111.0907,1638990180442
Fix,GT,34.1585314,-118.4578995,174.38134102910757,24.052574,0.1,110.84805,1638990181442
Fix,GT,34.1584537,-118.4576565,174.50234622901678,23.955793,0.1,111.054016,1638990182442
Fix,GT,34.158377,-118.4574147,174.60111020755767,23.749866,0.1,110.646545,1638990183442
Fix,GT,34.1583012,-118.4571756,174.66246150517463,23.46262,0.1,111.133026,1638990184442
Fix,GT,34.1582247,-118.4569399,174.62046150338648,23.180416,0.1,111.31308,1638990185442
Fix,GT,34.1581501,-118.456708,174.52207683789732,22.660484,0.1,110.88342,1638990186442
Fix,GT,34.1580793,-118.4564783,174.35111525309088,22.579933,0.1,109.62039,1638990187442
Fix,GT,34.1580131,-118.4562452,174.12085118660332,22.935457,0.1,108.28479,1638990188442
Fix,GT,34.1579494,-118.4560053,173.84162033575774,23.424742,0.1,107.1723,1638990189442
Fix,GT,34.1578898,-118.4557598,173.49734589344263,23.825115,0.1,105.46243,1638990190442
Fix,GT,34.1578349,-118.4555068,173.14050487786534,24.34102,0.1,103.96356,1638990191442
Fix,GT,34.1577843,-118.4552479,172.75635102590917,24.669168,0.1,102.56561,1638990192442
Fix,GT,34.1577383,-118.454983,172.38535100603104,25.289566,0.1,100.97287,1638990193442
Fix,GT,34.1576979,-118.4547102,172.014076608181,25.63675,0.1,99.355194,1638990194442
Fix,GT,34.1576643,-118.4544353,171.5903842611313,25.629944,0.1,97.43024,1638990195442
Fix,GT,34.1576367,-118.4541593,171.16569190979004,25.602146,0.1,96.32434,1638990196442
Fix,GT,34.1576133,-118.4538829,170.6438457274437,25.73777,0.1,95.30411,1638990197442
Fix,GT,34.1575914,-118.4536014,170.12196621859073,26.592026,0.1,95.2818,1638990198442
Fix,GT,34.1575688,-118.4533128,169.64542767870427,26.76539,0.1,95.36478,1638990199442
Fix,GT,34.1575458,-118.4530245,169.32962012022733,26.614458,0.1,95.29401,1638990200442
Fix,GT,34.1575235,-118.4527384,169.1291538274288,26.361671,0.1,95.35214,1638990201442
Fix,GT,34.1575,-118.452456,169.14023086524008,26.003754,0.1,95.8681,1638990202442
Fix,GT,34.1574732,-118.452177,169.33499520879985,25.86018,0.1,97.23352,1638990203442
Fix,GT,34.1574408,-118.4519011,169.5336489056349,25.5401,0.1,98.60574,1638990204442
Fix,GT,34.1574048,-118.4516346,169.77988483202458,24.082016,0.1,99.62198,1638990205442
Fix,GT,34.1573677,-118.4513871,169.99287977048755,22.314264,0.1,100.65515,1638990206442
Fix,GT,34.1573293,-118.4511592,170.2090053505897,20.677544,0.1,101.95007,1638990207442
Fix,GT,34.1572898,-118.4509466,170.4226155810356,19.406452,0.1,103.0553,1638990208442
Fix,GT,34.1572506,-118.450752,170.6180386734009,17.61016,0.1,103.964386,1638990209442
Fix,GT,34.1572123,-118.4505759,170.7858027048409,16.030426,0.1,104.94565,1638990210442
Fix,GT,34.1571747,-118.4504148,170.86426417309048,14.881368,0.1,105.883606,1638990211442
Fix,GT,34.1571376,-118.4502642,170.81772533831003,14.205664,0.1,106.7287,1638990212442
Fix,GT,34.1571003,-118.4501217,170.6305382230282,13.357706,0.1,107.70532,1638990213442
Fix,GT,34.1570634,-118.4499883,170.34434570598603,12.509157,0.1,108.76465,1638990214442
Fix,GT,34.1570271,-118.449866,169.9839226078987,11.456682,0.1,110.02954,1638990215442
Fix,GT,34.1569921,-118.4497556,169.56180715388058,10.469744,0.1,111.21304,1638990216442
Fix,GT,34.1569578,-118.4496537,169.11427364760638,9.835097,0.1,112.34027,1638990217442
Fix,GT,34.1569241,-118.4495588,168.63211477929352,9.1471615,0.1,113.267944,1638990218442
Fix,GT,34.1568921,-118.4494715,168.18837902393938,8.453992,0.1,113.79492,1638990219442
Fix,GT,34.1568626,-118.4493924,167.7869275714457,7.4678264,0.1,114.1261,1638990220442
Fix,GT,34.1568368,-118.4493242,167.43103801685572,6.3264594,0.1,114.46045,1638990221442
Fix,GT,34.1568149,-118.4492673,167.1452689153552,5.3768044,0.1,114.76114,1638990222442
Fix,GT,34.1567958,-118.4492177,166.90795630058645,4.689486,0.1,114.72119,1638990223442
Fix,GT,34.1567796,-118.449175,166.74950478714703,3.9696016,0.1,114.58664,1638990224442
Fix,GT,34.1567661,-118.4491393,166.5929612688422,3.2441688,0.1,114.40958,1638990225442
Fix,GT,34.1567552,-118.4491104,166.49876908648014,2.5254393,0.1,114.38699,1638990226442
Fix,GT,34.1567477,-118.4490913,166.425884542346,1.3812885,0.1,114.74457,1638990227442
Fix,GT,34.1567444,-118.4490825,166.39757690829038,0.50196457,0.1,114.862854,1638990228442
Fix,GT,34.1567434,-118.4490801,166.39300495889782,0.03848742,0.1,114.90341,1638990229442
Fix,GT,34.1567434,-118.4490801,166.39200495886803,0.002236068,0.1,114.90509,1638990230442
Fix,GT,34.1567435,-118.4490801,166.392,0.0020998786,0.1,114.903625,1638990231442
Fix,GT,34.1567435,-118.4490801,166.39300495889785,0.002,0.1,114.90399,1638990232442
Fix,GT,34.1567435,-118.4490801,166.39300495889785,0.002,0.1,114.90381,1638990233442
Fix,GT,34.1567435,-118.4490801,166.39300495889785,0.0015769075,0.1,114.90347,1638990234442
Fix,GT,34.1567435,-118.4490801,166.39299504110215,0.0011752509,0.1,114.9032,1638990235442
