MessageType,Provider,LatitudeDegrees,LongitudeDegrees,AltitudeMeters,SpeedMps,AccuracyMeters,BearingDegrees,UnixTimeMillis
Fix,GT,37.3958453,-122.1029545,-5.32,0.00445626,0.1,300.98486,1619648371999
Fix,GT,37.3958453,-122.1029545,-5.32,0.005380986,0.1,300.98465,1619648372999
Fix,GT,37.3958453,-122.1029545,-5.32,0.005095097,0.1,300.98544,1619648373999
Fix,GT,37.3958453,-122.1029547,-5.350986245632171,0.0044783656,0.1,300.98547,1619648374999
Fix,GT,37.3958453,-122.1029547,-5.354,0.006708204,0.1,300.9856,1619648375999
Fix,GT,37.3958453,-122.1029547,-5.354,0.0063245553,0.1,300.9855,1619648376999
Fix,GT,37.3958453,-122.1029547,-5.354,0.00761423,0.1,300.98535,1619648377999
Fix,GT,37.3958453,-122.1029547,-5.354,0.0085281525,0.1,300.98575,1619648378999
Fix,GT,37.3958453,-122.1029548,-5.355,0.009207979,0.1,300.98636,1619648379999
Fix,GT,37.3958452,-122.1029546,-5.3520046092867855,0.13894385,0.1,300.81818,1619648380999
Fix,GT,37.3958433,-122.1029512,-5.343004613339901,0.6113163,0.1,299.952,1619648381999
Fix,GT,37.3958406,-122.1029422,-5.322018469810486,0.9740648,0.1,304.2989,1619648382999
Fix,GT,37.3958371,-122.1029289,-5.291009243011475,1.1896744,0.1,316.77548,1619648383999
Fix,GT,37.3958308,-122.1029154,-5.274013876855373,1.114215,0.1,331.85657,1619648384999
Fix,GT,37.3958241,-122.1029068,-5.242013889193535,0.7145843,0.1,343.28394,1619648385999
Fix,GT,37.3958204,-122.1029034,-5.2230092676877975,0.19853401,0.1,348.6214,1619648386999
Fix,GT,37.3958201,-122.1029033,-5.218004637897015,0.014869716,0.1,349.09747,1619648387999
Fix,GT,37.3958201,-122.1029035,-5.216,0.010768797,0.1,349.097,1619648388999
Fix,GT,37.3958202,-122.1029037,-5.2169953539967535,0.07864685,0.1,348.97632,1619648389999
Fix,GT,37.3958245,-122.1029066,-5.2399860498309145,0.9703676,0.1,345.54178,1619648390999
Fix,GT,37.3958361,-122.102911,-5.274995345830918,1.633825,0.1,345.38837,1619648391999
Fix,GT,37.3958517,-122.1029115,-5.298990683555603,1.7923337,0.1,353.99103,1619648392999
Fix,GT,37.3958677,-122.1029055,-5.3259860129952425,2.0371072,0.1,9.043976,1619648393999
Fix,GT,37.3958844,-122.1028897,-5.351990667223931,2.5762744,0.1,29.391144,1619648394999
Fix,GT,37.3958981,-122.1028645,-5.355004670500756,2.7921796,0.1,50.065247,1619648395999
Fix,GT,37.3959084,-122.1028363,-5.336004674553871,2.7361488,0.1,61.736816,1619648396999
Fix,GT,37.3959185,-122.1028089,-5.330004678666592,2.5844047,0.1,64.41739,1619648397999
Fix,GT,37.3959284,-122.1027868,-5.319014048159122,1.7418956,0.1,61.645325,1619648398999
Fix,GT,37.3959355,-122.1027742,-5.308,1.0892082,0.1,58.78607,1619648399999
Fix,GT,37.3959409,-122.102765,-5.314995309114456,1.1193848,0.1,56.945343,1619648400999
Fix,GT,37.3959486,-122.1027505,-5.332981220245362,1.9217632,0.1,57.67917,1619648401999
Fix,GT,37.3959553,-122.1027277,-5.457915417075157,2.3785946,0.1,66.5842,1619648402999
Fix,GT,37.3959577,-122.1026987,-5.553990593791008,2.836722,0.1,79.70938,1619648403999
Fix,GT,37.3959539,-122.1026659,-5.464037657737732,3.0952435,0.1,95.34146,1619648404999
Fix,GT,37.3959441,-122.1026298,-5.407018845081329,3.806241,0.1,106.88141,1619648405999
Fix,GT,37.3959302,-122.1025877,-5.346014146149158,4.1245365,0.1,112.135315,1619648406999
Fix,GT,37.3959145,-122.1025479,-5.328014158308506,3.782204,0.1,115.92551,1619648407999
Fix,GT,37.3958987,-122.102511,-5.322,3.7824218,0.1,117.6409,1619648408999
Fix,GT,37.3958813,-122.1024714,-5.324,4.2689767,0.1,118.16153,1619648409999
Fix,GT,37.3958607,-122.1024242,-5.323009463310242,5.4272623,0.1,118.33841,1619648410999
Fix,GT,37.3958341,-122.1023639,-5.318995264232159,6.7619605,0.1,118.76709,1619648411999
Fix,GT,37.3958021,-122.1022933,-5.317990520477294,7.6317863,0.1,119.266785,1619648412999
Fix,GT,37.3957663,-122.1022143,-5.3310142314434055,8.562125,0.1,119.245026,1619648413999
Fix,GT,37.3957264,-122.1021256,-5.292028487563133,9.53675,0.1,119.00748,1619648414999
Fix,GT,37.3956825,-122.1020274,-5.254995248019696,10.464684,0.1,118.95499,1619648415999
Fix,GT,37.395635,-122.1019204,-5.336971463441849,11.248777,0.1,118.624115,1619648416999
Fix,GT,37.3955856,-122.1018068,-5.362938118100167,11.734201,0.1,118.12463,1619648417999
Fix,GT,37.3955345,-122.1016884,-5.378009528517723,12.180892,0.1,118.09241,1619648418999
Fix,GT,37.3954813,-122.1015652,-5.424976158440113,12.728522,0.1,118.134705,1619648419999
Fix,GT,37.3954254,-122.1014364,-5.450985682725906,13.299834,0.1,118.262726,1619648420999
Fix,GT,37.3953672,-122.1013022,-5.504985670566558,13.739602,0.1,118.31976,1619648421999
Fix,GT,37.395308,-122.1011657,-5.553928292036057,13.7394905,0.1,118.29086,1619648422999
Fix,GT,37.3952495,-122.1010306,-5.58897607678175,13.476262,0.1,118.309814,1619648423999
Fix,GT,37.3951915,-122.1008979,-5.634971267819404,13.4568,0.1,118.54578,1619648424999
Fix,GT,37.3951326,-122.1007632,-5.697952071905136,13.668062,0.1,118.45261,1619648425999
Fix,GT,37.3950739,-122.1006283,-5.79995682823658,13.510216,0.1,118.42926,1619648426999
Fix,GT,37.3950158,-122.1004957,-5.816,13.213477,0.1,118.65228,1619648427999
Fix,GT,37.3949591,-122.1003664,-5.821028830170631,12.889405,0.1,118.798065,1619648428999
Fix,GT,37.3949032,-122.100241,-5.810004809141159,12.557648,0.1,119.09378,1619648429999
Fix,GT,37.3948483,-122.1001191,-5.813995186805725,12.245215,0.1,119.30017,1619648430999
Fix,GT,37.3947952,-122.0999998,-5.808009634613991,11.953366,0.1,118.798615,1619648431999
Fix,GT,37.3947437,-122.0998823,-5.781,11.81703,0.1,118.476074,1619648432999
Fix,GT,37.3946926,-122.0997651,-5.803971047520638,11.822556,0.1,118.58209,1619648433999
Fix,GT,37.3946416,-122.099649,-5.851062783062457,11.600459,0.1,118.82129,1619648434999
Fix,GT,37.3945915,-122.0995363,-5.866980665922165,11.246609,0.1,118.92041,1619648435999
Fix,GT,37.3945434,-122.0994265,-5.930990324854851,10.950413,0.1,118.5271,1619648436999
Fix,GT,37.3944971,-122.0993194,-5.958995158314705,10.562956,0.1,118.18152,1619648437999
Fix,GT,37.3944529,-122.0992169,-5.97,9.998296,0.1,118.471436,1619648438999
Fix,GT,37.3944115,-122.0991227,-5.957072747766972,9.211983,0.1,118.84784,1619648439999
Fix,GT,37.3943721,-122.0990343,-5.934004853904247,8.643059,0.1,119.15253,1619648440999
Fix,GT,37.3943356,-122.0989531,-5.940014574050903,7.954828,0.1,119.20068,1619648441999
Fix,GT,37.3943023,-122.098877,-5.926024310350418,7.320188,0.1,118.51138,1619648442999
Fix,GT,37.3942728,-122.0988089,-5.929009732365609,6.3887753,0.1,118.3035,1619648443999
Fix,GT,37.3942476,-122.0987505,-5.923995129764081,5.329708,0.1,118.30664,1619648444999
Fix,GT,37.3942271,-122.0987032,-5.914990251302719,4.3311806,0.1,118.38632,1619648445999
Fix,GT,37.3942106,-122.0986646,-5.913014635205269,3.2695105,0.1,118.15283,1619648446999
Fix,GT,37.3941997,-122.0986387,-5.914,1.9964743,0.1,117.96521,1619648447999
Fix,GT,37.3941934,-122.0986239,-5.912995113432408,0.9927343,0.1,117.87247,1619648448999
Fix,GT,37.3941908,-122.0986177,-5.913995109438896,0.3259411,0.1,117.8349,1619648449999
Fix,GT,37.3941902,-122.0986164,-5.916,0.0028675264,0.1,117.825806,1619648450999
Fix,GT,37.3941898,-122.0986154,-5.92,0.17264022,0.1,117.82254,1619648451999
Fix,GT,37.3941889,-122.0986132,-5.921,0.23084219,0.1,117.81149,1619648452999
Fix,GT,37.394188,-122.0986111,-5.924,0.1758521,0.1,117.802246,1619648453999
Fix,GT,37.3941874,-122.0986097,-5.926,0.087766975,0.1,117.79413,1619648454999
Fix,GT,37.3941872,-122.0986093,-5.928,0.008088573,0.1,117.79254,1619648455999
Fix,GT,37.3941872,-122.0986093,-5.929,0.0022320254,0.1,117.79324,1619648456999
Fix,GT,37.3941872,-122.0986093,-5.929,0.0010020393,0.1,117.79346,1619648457999
Fix,GT,37.3941872,-122.0986093,-5.929,0.002236068,0.1,117.79132,1619648458999
Fix,GT,37.3941871,-122.098609,-5.93,0.18669775,0.1,117.790405,1619648459999
Fix,GT,37.3941845,-122.0986029,-5.932995064556598,1.173537,0.1,117.88074,1619648460999
Fix,GT,37.3941763,-122.0985847,-5.931004939496518,2.6248574,0.1,118.80362,1619648461999
Fix,GT,37.3941609,-122.0985507,-5.921004943609239,4.274649,0.1,119.2565,1619648462999
Fix,GT,37.3941386,-122.0985011,-5.89998515701294,5.8423357,0.1,119.24991,1619648463999
Fix,GT,37.39411,-122.0984372,-5.895014855325221,7.1285896,0.1,119.20682,1619648464999
Fix,GT,37.3940761,-122.0983615,-5.842034690797329,8.163801,0.1,119.21808,1619648465999
Fix,GT,37.3940379,-122.0982752,-5.756019839763642,9.328615,0.1,119.04968,1619648466999
Fix,GT,37.3939952,-122.0981785,-5.687985108017921,10.27437,0.1,118.83258,1619648467999
Fix,GT,37.3939474,-122.0980722,-5.72295528703928,11.324137,0.1,119.3833,1619648468999
Fix,GT,37.3938945,-122.0979572,-5.709935361921787,12.11148,0.1,120.050385,1619648469999
Fix,GT,37.3938375,-122.0978368,-5.672009952425957,12.68017,0.1,120.96234,1619648470999
Fix,GT,37.3937759,-122.0977129,-5.627024901628494,13.139189,0.1,122.27191,1619648471999
Fix,GT,37.3937111,-122.0975888,-5.571019937515258,13.106483,0.1,123.668335,1619648472999
Fix,GT,37.3936446,-122.0974674,-5.538995011508465,12.996437,0.1,124.77588,1619648473999
Fix,GT,37.3935759,-122.0973467,-5.483039939880371,13.323097,0.1,126.015564,1619648474999
Fix,GT,37.3935028,-122.0972254,-5.425029979228973,13.574632,0.1,127.59271,1619648475999
Fix,GT,37.3934259,-122.0971046,-5.380020002603531,13.783503,0.1,129.08191,1619648476999
Fix,GT,37.3933461,-122.0969852,-5.331025024116039,13.755427,0.1,130.53952,1619648477999
Fix,GT,37.3932649,-122.0968699,-5.256960051055998,13.450319,0.1,131.92206,1619648479000
Fix,GT,37.393184,-122.0967603,-5.149945290696808,12.978173,0.1,133.09393,1619648480000
Fix,GT,37.3931042,-122.0966572,-5.065915399368387,12.492533,0.1,134.6489,1619648481000
Fix,GT,37.3930252,-122.0965605,-4.970970151703339,12.040346,0.1,136.04541,1619648482000
Fix,GT,37.3929481,-122.0964696,-4.894955362934619,11.307206,0.1,136.91522,1619648483000
Fix,GT,37.3928763,-122.0963876,-4.788985045288689,10.359866,0.1,137.89795,1619648484000
Fix,GT,37.3928087,-122.0963129,-4.6809454774679615,9.7411785,0.1,138.6879,1619648485000
Fix,GT,37.3927434,-122.0962423,-4.549925545870792,9.412803,0.1,139.1648,1619648486000
Fix,GT,37.39268,-122.0961741,-4.450955505788326,9.142841,0.1,139.37366,1619648487000
Fix,GT,37.3926182,-122.0961085,-4.318920740705915,8.758259,0.1,139.82385,1619648488000
Fix,GT,37.392562,-122.0960505,-4.210975146133453,7.253579,0.1,140.62793,1619648489000
Fix,GT,37.3925149,-122.0960041,-4.155975345861167,6.1970086,0.1,142.0521,1619648490000
Fix,GT,37.392473,-122.0959643,-4.089965370108374,5.4497523,0.1,142.69519,1619648491000
Fix,GT,37.3924354,-122.0959285,-4.0469803453963245,5.1005764,0.1,142.79758,1619648492000
Fix,GT,37.3923989,-122.095894,-4.0149802935943,5.2058325,0.1,143.05411,1619648493000
Fix,GT,37.3923595,-122.0958574,-3.966980202415027,5.7287583,0.099,143.40454,1619648494000
Fix,GT,37.3923157,-122.095817,-3.9260146754421297,6.3831606,0.099,143.67462,1619648495000
Fix,GT,37.392265,-122.0957708,-3.849955728358589,7.5701294,0.1,144.14502,1619648496000
Fix,GT,37.3922067,-122.0957183,-3.760985357024707,8.343216,0.1,144.41562,1619648497000
Fix,GT,37.3921425,-122.0956613,-3.703965612793808,9.146657,0.1,144.8227,1619648498000
Fix,GT,37.3920718,-122.0955998,-3.662990090377163,9.943536,0.099,145.20978,1619648499000
Fix,GT,37.3919955,-122.0955334,-3.600951009996701,10.678293,0.1,145.25946,1619648500000
Fix,GT,37.391914,-122.0954628,-3.52396565860184,11.241133,0.099,145.26666,1619648501000
Fix,GT,37.3918306,-122.0953902,-3.396926452147774,11.212843,0.1,145.13504,1619648502000
Fix,GT,37.3917487,-122.0953186,-3.354921730475966,10.932167,0.1,145.05756,1619648503000
Fix,GT,37.391669,-122.0952485,-3.281921706606634,10.768009,0.1,144.573,1619648504000
Fix,GT,37.39159,-122.0951753,-3.213014697343111,11.037304,0.1,142.8533,1619648505000
Fix,GT,37.3915107,-122.0950977,-3.133980431938544,11.318042,0.1,141.39789,1619648506000
Fix,GT,37.3914302,-122.095015,-3.0839903034642338,11.780917,0.1,140.05896,1619648507000
Fix,GT,37.3913489,-122.0949269,-3.02897561147064,11.833223,0.1,138.32718,1619648508000
Fix,GT,37.391275,-122.0948418,-2.984970830170904,10.268742,0.1,136.80298,1619648509000
Fix,GT,37.391214,-122.0947685,-2.939980505444109,8.453825,0.1,135.70782,1619648510000
Fix,GT,37.3911663,-122.0947088,-2.8759756122785616,6.511605,0.1,134.83215,1619648511000
Fix,GT,37.3911315,-122.0946642,-2.801980584077537,4.5014863,0.1,134.24493,1619648512000
Fix,GT,37.3911095,-122.0946354,-2.7659999626474456,2.6557598,0.1,133.88559,1619648513000
Fix,GT,37.3910952,-122.0946166,-2.7510000538034363,2.062265,0.1,133.67703,1619648514000
Fix,GT,37.3910828,-122.0946002,-2.735995135255158,1.9770198,0.1,133.50586,1619648515000
Fix,GT,37.3910709,-122.0945842,-2.7249903334383854,1.992884,0.1,133.25366,1619648516000
Fix,GT,37.3910572,-122.0945657,-2.715999940557406,2.6978672,0.1,133.0373,1619648517000
Fix,GT,37.3910352,-122.0945359,-2.6999951980747285,4.6158795,0.1,132.87439,1619648518000
Fix,GT,37.3910005,-122.0944886,-2.6650096138464288,6.6890397,0.1,132.43622,1619648519000
Fix,GT,37.3909544,-122.0944248,-2.6069517009160483,8.469166,0.1,131.91788,1619648520000
Fix,GT,37.3909004,-122.0943479,-2.5349807452703828,9.684561,0.1,131.07281,1619648521000
Fix,GT,37.3908399,-122.094259,-2.4699566404582005,10.907034,0.1,129.95746,1619648522000
Fix,GT,37.3907747,-122.0941591,-2.3999470138628967,11.957054,0.099,128.96606,1619648523000
Fix,GT,37.390705,-122.0940496,-2.345918290538248,12.773129,0.1,128.30438,1619648524000
Fix,GT,37.3906343,-122.0939351,-2.221947121298872,12.717835,0.099,127.24835,1619648525000
Fix,GT,37.3905661,-122.093821,-2.1459856115235016,12.643196,0.1,126.316345,1619648526000
Fix,GT,37.3904984,-122.093703,-2.081985588532872,13.130715,0.1,125.225494,1619648527000
Fix,GT,37.3904308,-122.09358,-2.000980875639245,13.166216,0.1,124.06192,1619648528000
Fix,GT,37.3903657,-122.0934577,-1.920947328508832,12.830712,0.1,123.4751,1619648529000
Fix,GT,37.3903031,-122.0933379,-1.866009522933513,12.657466,0.099,122.77701,1619648530000
Fix,GT,37.3902404,-122.0932152,-1.868971343615558,13.175192,0.1,122.295074,1619648531000
Fix,GT,37.3901765,-122.0930871,-1.8280047614201904,13.514017,0.099,121.828064,1619648532000
Fix,GT,37.3901121,-122.0929574,-1.8229761010073124,13.488366,0.1,121.857025,1619648533000
Fix,GT,37.3900486,-122.0928287,-1.768966629368253,13.412005,0.1,121.46451,1619648534000
Fix,GT,37.3899839,-122.092698,-1.6979427981683983,13.879898,0.1,121.798096,1619648535000
Fix,GT,37.3899172,-122.0925633,-1.6449191086571662,14.132213,0.1,121.77893,1619648536000
Fix,GT,37.3898497,-122.0924267,-1.548933477017097,14.386423,0.1,121.68448,1619648537000
Fix,GT,37.3897804,-122.0922871,-1.454995249450207,14.706659,0.1,121.76752,1619648538000
Fix,GT,37.3897099,-122.0921454,-1.3939857235890811,14.861725,0.1,121.91373,1619648539000
Fix,GT,37.3896385,-122.0920032,-1.317966811248567,14.864742,0.1,122.05292,1619648540000
Fix,GT,37.3895669,-122.0918601,-1.2289620802761057,15.067898,0.1,121.93689,1619648541000
Fix,GT,37.3894948,-122.0917149,-1.1479810881651935,15.121287,0.1,121.65344,1619648542000
Fix,GT,37.3894237,-122.091571,-1.0969952642209828,14.875882,0.1,121.80795,1619648543000
Fix,GT,37.3893528,-122.0914292,-1.0629953036196529,14.767862,0.1,122.097626,1619648544000
Fix,GT,37.3892825,-122.0912893,-1.0409669469688083,14.513979,0.1,122.04108,1619648545000
Fix,GT,37.3892139,-122.0911519,-1.006995255820453,14.200532,0.1,121.920044,1619648546000
Fix,GT,37.3891471,-122.0910171,-1.0039858650257811,13.887908,0.1,121.5087,1619648547000
Fix,GT,37.3890826,-122.0908844,-0.987995270456653,13.690372,0.1,121.21463,1619648548000
Fix,GT,37.389018,-122.0907522,-0.9970423636557536,13.798357,0.1,121.746185,1619648549000
Fix,GT,37.3889524,-122.0906202,-0.9699670846634544,13.706282,0.1,121.8837,1619648550000
Fix,GT,37.388888,-122.0904905,-0.9649718422307632,13.299011,0.1,121.79471,1619648551000
Fix,GT,37.3888261,-122.0903655,-0.962985920995474,12.812785,0.1,121.80853,1619648552000
Fix,GT,37.3887656,-122.0902445,-0.9869999747215772,12.477759,0.1,122.13498,1619648553000
Fix,GT,37.3887062,-122.0901278,-0.9790374896153808,11.972057,0.1,122.77472,1619648554000
Fix,GT,37.3886489,-122.0900189,-0.9660046623172238,11.03696,0.1,123.42566,1619648555000
Fix,GT,37.3885968,-122.0899204,-0.9719906584136188,9.899271,0.1,123.32648,1619648556000
Fix,GT,37.3885508,-122.0898324,-0.9820046593314036,8.733469,0.1,123.02957,1619648557000
Fix,GT,37.3885098,-122.0897535,-0.9840093466257676,8.040467,0.1,122.97305,1619648558000
Fix,GT,37.3884721,-122.0896813,-1.0159999820217491,7.181934,0.1,123.220795,1619648559000
Fix,GT,37.3884385,-122.0896181,-1.0280093263667076,6.3986554,0.1,123.66086,1619648560000
Fix,GT,37.3884088,-122.0895619,-1.042953410070855,5.4884887,0.099,123.26294,1619648561000
Fix,GT,37.3883847,-122.0895158,-1.0319953584228645,4.2563314,0.1,122.88867,1619648562000
Fix,GT,37.3883671,-122.0894815,-1.0450046212896704,2.9467402,0.099,122.65213,1619648563000
Fix,GT,37.3883559,-122.0894592,-1.0279907177817078,1.7739727,0.1,122.50653,1619648564000
Fix,GT,37.3883499,-122.0894473,-1.0070046300739048,0.7077794,0.1,122.42386,1619648565000
Fix,GT,37.3883488,-122.089445,-1.0140046589747072,0.01005574,0.1,122.427734,1619648566000
Fix,GT,37.3883488,-122.089445,-1.0140000056661664,0.0009953678,0.1,122.41995,1619648567000
Fix,GT,37.3883488,-122.089445,-1.0139999881954864,0.0022322645,0.1,122.418335,1619648568000
Fix,GT,37.3883488,-122.089445,-1.0140000217203051,4.6240903e-06,0.1,122.41858,1619648569000
Fix,GT,37.3883488,-122.089445,-1.0139999839458615,0.0,0.1,122.41815,1619648570000
Fix,GT,37.3883488,-122.089445,-1.0140000273864715,0.0009953842,0.1,122.41824,1619648571000
Fix,GT,37.3883488,-122.089445,-1.014,6.5221407e-06,0.1,122.41821,1619648572000
Fix,GT,37.3883488,-122.089445,-1.0139999730857088,0.0,0.1,122.41797,1619648573000
Fix,GT,37.3883488,-122.089445,-1.0140000061383472,0.0,0.1,122.41791,1619648574000
Fix,GT,37.3883488,-122.089445,-1.0139999787518754,0.0014077087,0.1,122.41821,1619648575000
Fix,GT,37.3883488,-122.089445,-1.0140000221924856,0.0,0.1,122.41824,1619648576000
Fix,GT,37.3883488,-122.089445,-1.013999994806014,0.001,0.1,122.41852,1619648577000
Fix,GT,37.3883488,-122.089445,-1.0140000283308326,0.001,0.1,122.41962,1619648578000
Fix,GT,37.3883488,-122.089445,-1.013999990556389,0.001,0.1,122.41907,1619648579000
Fix,GT,37.3883488,-122.089445,-1.0140000037774444,0.0,0.1,122.41815,1619648580000
Fix,GT,37.3883488,-122.089445,-1.0139999966947362,4.5751303e-06,0.1,122.41885,1619648581000
Fix,GT,37.3883488,-122.089445,-1.0140000297473744,0.001,0.1,122.41873,1619648582000
Fix,GT,37.3883488,-122.089445,-1.0140000127488749,4.5669804e-06,0.1,122.41818,1619648583000
Fix,GT,37.3883488,-122.089445,-1.013999985362403,0.001,0.1,122.418884,1619648584000
Fix,GT,37.3883488,-122.089445,-1.0140000184150413,0.0010018884,0.1,122.41919,1619648585000
Fix,GT,37.3883488,-122.089445,-1.0140000014165416,0.0010018867,0.1,122.418915,1619648586000
Fix,GT,37.3883488,-122.089445,-1.01399997403007,0.001,0.1,122.41852,1619648587000
Fix,GT,37.3883488,-122.089445,-1.013999997166917,0.0020010734,0.1,122.418396,1619648588000
Fix,GT,37.3883488,-122.089445,-1.0140000203037631,0.001412332,0.1,122.41864,1619648589000
Fix,GT,37.3883488,-122.089445,-1.0139999830015003,0.001,0.1,122.41855,1619648590000
Fix,GT,37.3883488,-122.089445,-1.0140000264421103,0.0014123354,0.1,122.418335,1619648591000
Fix,GT,37.3883488,-122.089445,-1.0140000089714305,0.0010018765,0.1,122.418274,1619648592000
Fix,GT,37.3883488,-122.089445,-1.0139999716691672,0.0014123388,0.099,122.41907,1619648593000
Fix,GT,37.3883487,-122.0894449,-1.0180000047404318,0.11234523,0.1,122.41913,1619648594000
Fix,GT,37.3883463,-122.0894401,-1.01100002777623,0.9057973,0.1,122.35062,1619648595000
Fix,GT,37.38834,-122.0894272,-0.9959954768139868,1.7567117,0.1,122.198364,1619648596000
Fix,GT,37.3883297,-122.0894066,-1.0050045233918354,2.5571501,0.1,122.05542,1619648597000
Fix,GT,37.3883157,-122.0893785,-0.9529864601781592,3.3369699,0.1,121.95291,1619648598000
Fix,GT,37.3882975,-122.0893424,-0.932018015280366,4.2698984,0.1,122.05173,1619648599000
Fix,GT,37.3882751,-122.0892983,-0.969085436683148,4.785939,0.1,122.32681,1619648600000
Fix,GT,37.3882518,-122.0892529,-1.0590539376586674,4.760301,0.1,122.23987,1619648601000
Fix,GT,37.3882294,-122.0892079,-1.0949999872525222,4.6279955,0.1,121.86865,1619648602000
Fix,GT,37.3882077,-122.0891641,-1.0969955157116056,4.5054245,0.1,121.54028,1619648603000
Fix,GT,37.3881867,-122.0891213,-1.0959865711708554,4.4345593,0.1,121.40198,1619648604000
Fix,GT,37.3881649,-122.0890769,-1.07799103118293,4.926609,0.1,121.42166,1619648605000
Fix,GT,37.3881396,-122.0890253,-1.063977655558847,5.7638674,0.1,121.43829,1619648606000
Fix,GT,37.3881106,-122.088966,-1.044991064473521,6.596045,0.1,121.32974,1619648607000
Fix,GT,37.388077,-122.0888973,-1.0269910453315825,7.659022,0.099,121.3457,1619648608000
Fix,GT,37.388039,-122.0888195,-1.0049776945449411,8.554336,0.1,121.46066,1619648609000
Fix,GT,37.3879966,-122.0887331,-0.980004428892862,9.394662,0.099,121.5405,1619648610000
Fix,GT,37.3879499,-122.0886384,-0.976973288194742,10.345512,0.1,121.58099,1619648611000
Fix,GT,37.3878996,-122.0885363,-0.950906558333896,10.854083,0.099,121.67261,1619648612000
Fix,GT,37.3878479,-122.0884304,-0.8390355645166709,11.106187,0.1,121.27472,1619648613000
Fix,GT,37.3877962,-122.0883236,-0.7871243488783948,11.063551,0.1,121.29666,1619648614000
Fix,GT,37.3877446,-122.0882155,-0.7749689425826073,11.283973,0.1,120.65381,1619648615000
Fix,GT,37.3876921,-122.088105,-0.7540798015538603,11.482273,0.1,120.61444,1619648616000
Fix,GT,37.3876394,-122.0879945,-0.7309955732114614,11.300247,0.1,120.60187,1619648617000
Fix,GT,37.3875882,-122.0878859,-0.7449955867044628,11.099574,0.1,120.34195,1619648618000
Fix,GT,37.3875369,-122.087776,-0.7429955634325743,11.571603,0.099,120.13678,1619648619000
Fix,GT,37.3874825,-122.0876598,-0.6779381846264005,12.22318,0.1,120.35162,1619648620000
Fix,GT,37.3874248,-122.0875393,-0.6189603081056848,12.615385,0.1,120.9874,1619648621000
Fix,GT,37.3873661,-122.0874183,-0.5979735455065965,12.5014925,0.099,121.28247,1619648622000
Fix,GT,37.3873059,-122.0872964,-0.5469559740908445,12.872246,0.1,121.82025,1619648623000
Fix,GT,37.3872445,-122.087174,-0.5518724092566409,12.676519,0.1,122.20926,1619648624000
Fix,GT,37.3871839,-122.0870524,-0.4739911971613764,12.760521,0.1,121.528625,1619648625000
Fix,GT,37.3871242,-122.0869298,-0.4308726492701098,12.607337,0.1,121.175415,1619648626000
Fix,GT,37.3870659,-122.0868096,-0.3479649088904261,12.275248,0.1,121.3056,1619648627000
Fix,GT,37.38701,-122.0866942,-0.2629956125235185,11.67134,0.099,120.9209,1619648628000
Fix,GT,37.3869567,-122.0865835,-0.1939737266637385,11.195285,0.1,121.13815,1619648629000
Fix,GT,37.3869053,-122.0864787,-0.1469956233957782,10.561968,0.099,121.79312,1619648630000
Fix,GT,37.3868569,-122.0863822,-0.1489912614300847,9.538249,0.1,122.23273,1619648631000
Fix,GT,37.3868137,-122.0862963,-0.1329999980181455,8.534541,0.099,122.13635,1619648632000
Fix,GT,37.3867735,-122.0862166,-0.1330043638227507,8.2397,0.1,122.3537,1619648633000
Fix,GT,37.3867342,-122.0861392,-0.1520043542915955,7.9824204,0.1,122.453674,1619648634000
Fix,GT,37.3866963,-122.0860646,-0.1479782246886752,7.717605,0.099,122.49432,1619648635000
Fix,GT,37.3866591,-122.085992,-0.1289956516623497,7.549385,0.1,122.62622,1619648636000
Fix,GT,37.3866228,-122.0859202,-0.1179826119430363,7.6389494,0.099,122.0596,1619648637000
Fix,GT,37.3865862,-122.085845,-0.1100000002561137,7.9525084,0.1,121.15259,1619648638000
Fix,GT,37.3865484,-122.085766,-0.1020173504417762,8.32224,0.1,120.82013,1619648639000
Fix,GT,37.3865094,-122.0856848,-0.1210043339245021,8.449045,0.1,121.23111,1619648640000
Fix,GT,37.3864692,-122.0856041,-0.1310129864895716,8.362183,0.1,121.94525,1619648641000
Fix,GT,37.3864294,-122.0855241,-0.1679653927832842,8.444063,0.1,121.842316,1619648642000
Fix,GT,37.3863893,-122.0854431,-0.162995674370788,8.384217,0.1,121.62903,1619648643000
Fix,GT,37.3863499,-122.0853633,-0.1559654588866978,8.245539,0.1,121.81323,1619648644000
Fix,GT,37.3863109,-122.085285,-0.1599956899206154,8.098862,0.1,121.7449,1619648645000
Fix,GT,37.386273,-122.0852078,-0.1609784510750323,7.951327,0.099,121.48752,1619648646000
Fix,GT,37.3862355,-122.0851319,-0.1500043083541095,7.967425,0.1,121.79703,1619648647000
Fix,GT,37.3861965,-122.0850542,-0.1549913957407698,8.3001175,0.1,122.18088,1619648648000
Fix,GT,37.386156,-122.0849737,-0.1540000022230669,8.4933195,0.1,122.04309,1619648649000
Fix,GT,37.3861158,-122.0848929,-0.1709957028776407,8.361414,0.1,121.857056,1619648650000
Fix,GT,37.3860762,-122.0848136,-0.1750428902893327,8.210911,0.099,121.84097,1619648651000
Fix,GT,37.3860374,-122.0847355,-0.1900171429179608,8.076611,0.1,121.84097,1619648652000
Fix,GT,37.3859996,-122.0846594,-0.2010085571724921,7.742978,0.1,121.848785,1619648653000
Fix,GT,37.385963,-122.0845864,-0.1859957247055135,7.495517,0.1,121.995605,1619648654000
Fix,GT,37.3859282,-122.0845172,-0.1900042675416916,6.961125,0.1,122.09216,1619648655000
Fix,GT,37.3858972,-122.0844546,-0.1869914633305743,6.0120187,0.1,121.53354,1619648656000
Fix,GT,37.3858716,-122.0844019,-0.1589829456475563,4.88706,0.1,121.12439,1619648657000
Fix,GT,37.3858517,-122.0843602,-0.15898721979931,3.7130463,0.1,120.79721,1619648658000
Fix,GT,37.3858378,-122.0843311,-0.1610085087665357,2.3838658,0.1,120.79767,1619648659000
Fix,GT,37.3858289,-122.0843124,-0.1569957485105842,1.4175512,0.1,120.79636,1619648660000
Fix,GT,37.3858246,-122.0843033,-0.1590042529404163,0.477313,0.1,120.79205,1619648661000
Fix,GT,37.3858239,-122.0843019,-0.1669957560412585,0.0022399991,0.1,120.798065,1619648662000
Fix,GT,37.3858239,-122.0843019,-0.1680000041462481,0.002,0.1,120.79639,1619648663000
Fix,GT,37.3858239,-122.0843019,-0.1679999979659915,0.001,0.1,120.79294,1619648664000
Fix,GT,37.3858239,-122.0843019,-0.1680000017993152,0.0,0.1,120.792816,1619648665000
Fix,GT,37.3858239,-122.0843019,-0.1679999956190586,0.0,0.1,120.79294,1619648666000
Fix,GT,37.3858239,-122.0843019,-0.1680000027380884,0.0,0.1,120.79315,1619648667000
Fix,GT,37.3858239,-122.0843019,-0.168000004928559,0.0,0.1,120.79288,1619648668000
Fix,GT,37.3858239,-122.0843019,-0.1679999970272183,0.0,0.1,120.79205,1619648669000
Fix,GT,37.3858239,-122.0843019,-0.168000000860542,4.2115503e-06,0.1,120.79196,1619648670000
Fix,GT,37.3858239,-122.0843019,-0.1679999963231384,0.0,0.1,120.792725,1619648671000
Fix,GT,37.3858239,-122.0843019,-0.1680000001564622,0.0,0.1,120.7926,1619648672000
Fix,GT,37.3858239,-122.0843019,-0.1679999956190586,0.0,0.1,120.79251,1619648673000
Fix,GT,37.3858239,-122.0843019,-0.1679999994523823,0.0009958048,0.099,120.79199,1619648674000
Fix,GT,37.3858239,-122.0843019,-0.1680000015646219,0.0010041912,0.1,120.79248,1619648675000
Fix,GT,37.3858239,-122.0843019,-0.1679999953843653,0.0014082922,0.1,120.79294,1619648676000
Fix,GT,37.3858239,-122.0843019,-0.168000000860542,0.001408298,0.1,120.79245,1619648677000
Fix,GT,37.3858239,-122.0843019,-0.1680000030510127,0.0,0.1,120.79352,1619648678000
Fix,GT,37.3858239,-122.0843019,-0.167999996792525,0.001,0.099,120.79352,1619648679000
Fix,GT,37.3858239,-122.0843019,-0.1680000006258487,0.0,0.1,120.79309,1619648680000
Fix,GT,37.3858239,-122.0843019,-0.1680000044591725,0.0,0.1,120.793335,1619648681000
Fix,GT,37.3858239,-122.0843019,-0.1679999999217689,0.0,0.1,120.79376,1619648682000
Fix,GT,37.3858239,-122.0843019,-0.1680000003911554,0.0,0.1,120.79355,1619648683000
Fix,GT,37.3858239,-122.0843019,-0.1679999958537519,0.0,0.099,120.79358,1619648684000
Fix,GT,37.3858239,-122.0843019,-0.1679999996870756,0.0,0.1,120.793396,1619648685000
Fix,GT,37.3858239,-122.0843019,-0.1680000035203993,0.0,0.1,120.79352,1619648686000
Fix,GT,37.3858239,-122.0843019,-0.1680000007040799,0.0010017158,0.1,120.79404,1619648687000
Fix,GT,37.3858239,-122.0843019,-0.1680000044591725,5.851959e-06,0.1,120.79404,1619648688000
Fix,GT,37.3858239,-122.0843019,-0.168,0.0,0.1,120.793915,1619648689000
Fix,GT,37.3858239,-122.0843019,-0.1680000037550926,0.0010017108,0.1,120.7937,1619648690000
Fix,GT,37.3858239,-122.0843019,-0.1679999992959201,0.0,0.1,120.79382,1619648691000
Fix,GT,37.3858239,-122.0843019,-0.1680000047720968,0.0,0.1,120.79407,1619648692000
Fix,GT,37.3858239,-122.0843019,-0.1679999985918402,0.0,0.099,120.7941,1619648693000
Fix,GT,37.3858239,-122.0843019,-0.168000002425164,0.0,0.1,120.79413,1619648694000
Fix,GT,37.3858239,-122.0843019,-0.1679999961666763,0.0028226154,0.1,120.793976,1619648695000
Fix,GT,37.3858239,-122.0843019,-0.1679999966360628,0.0010017005,0.099,120.79352,1619648696000
Fix,GT,37.3858239,-122.0843019,-0.1680000004693866,5.799916e-06,0.1,120.79361,1619648697000
Fix,GT,37.3858239,-122.0843019,-0.1680000025816261,4.09706e-06,0.1,120.793915,1619648698000
Fix,GT,37.3858239,-122.0843019,-0.1679999964013696,0.0,0.099,120.79413,1619648699000
Fix,GT,37.3858239,-122.0843019,-0.1679999985136092,0.0009959112,0.1,120.79428,1619648700000
Fix,GT,37.3858239,-122.0843019,-0.1680000023469328,4.08478e-06,0.1,120.79437,1619648701000
Fix,GT,37.3858239,-122.0843019,-0.1680000028163195,0.001,0.1,120.79419,1619648702000
Fix,GT,37.3858239,-122.0843019,-0.1710040815863758,0.001412525,0.1,120.79404,1619648703000
Fix,GT,37.3858238,-122.0843019,-0.1759999986886977,0.0014084541,0.1,120.79422,1619648704000
Fix,GT,37.3858238,-122.0843019,-0.1760000027045607,0.0,0.1,120.79382,1619648705000
Fix,GT,37.3858238,-122.0843019,-0.1759999979510903,0.0009959358,0.1,120.79373,1619648706000
Fix,GT,37.3858238,-122.0843019,-0.1760000019669532,0.0009959398,0.1,120.79401,1619648707000
Fix,GT,37.3858238,-122.0843019,-0.1759999972134828,0.0010016802,0.1,120.79407,1619648708000
Fix,GT,37.3858238,-122.0843019,-0.1759999995082616,0.0,0.1,120.79355,1619648709000
Fix,GT,37.3858238,-122.0843019,-0.1760000034421682,0.001412537,0.1,120.79355,1619648710000
Fix,GT,37.3858238,-122.0843019,-0.1759999952465295,0.0009999999,0.1,120.79358,1619648711000
Fix,GT,37.3858238,-122.0843019,-0.1759999992623925,0.001,0.1,120.793396,1619648712000
Fix,GT,37.3858238,-122.0843019,-0.1760000014752149,0.001,0.1,120.793365,1619648713000
Fix,GT,37.3858238,-122.0843019,-0.1759999950006604,0.001,0.1,120.79346,1619648714000
Fix,GT,37.3858238,-122.0843019,-0.1759999989345669,0.0014125453,0.1,120.79364,1619648715000
Fix,GT,37.3858238,-122.0843019,-0.1760000012293457,0.0,0.1,120.793396,1619648716000
Fix,GT,37.3858238,-122.0843019,-0.1760000052452087,0.001,0.1,120.79346,1619648717000
Fix,GT,37.3858238,-122.0843019,-0.1760000004917383,0.001,0.1,120.79346,1619648718000
Fix,GT,37.3858238,-122.0843019,-0.1760000045076012,0.0,0.1,120.79382,1619648719000
Fix,GT,37.3858238,-122.0843019,-0.1759999962300062,0.0,0.1,120.79413,1619648720000
Fix,GT,37.3858238,-122.0843019,-0.1760000002458691,0.0,0.1,120.79352,1619648721000
Fix,GT,37.3858238,-122.0843019,-0.1760000024586916,0.0009960012,0.1,120.793396,1619648722000
Fix,GT,37.3858238,-122.0843019,-0.1759999977052211,0.0,0.1,120.79364,1619648723000
Fix,GT,37.3858238,-122.0843019,-0.176,0.001,0.1,120.79376,1619648724000
Fix,GT,37.3858238,-122.0843019,-0.1760000022128224,3.9865504e-06,0.1,120.79364,1619648725000
Fix,GT,37.3858238,-122.0843019,-0.1760000044256448,0.001,0.1,120.7937,1619648726000
Fix,GT,37.3858238,-122.0843019,-0.1759999962300062,0.0014142136,0.1,120.7937,1619648727000
Fix,GT,37.3858238,-122.0843019,-0.1760000001639128,0.0014142136,0.1,120.79367,1619648728000
Fix,GT,37.3858238,-122.0843019,-0.1760000041797757,0.0014125691,0.1,120.793884,1619648729000
Fix,GT,37.3858238,-122.0843019,-0.1759999977052211,0.0010016429,0.1,120.79379,1619648730000
Fix,GT,37.3858238,-122.0843019,-0.1759999999180436,3.96198e-06,0.1,120.7937,1619648731000
Fix,GT,37.3858238,-122.0843019,-0.1760000039339065,0.001,0.1,120.793945,1619648732000
Fix,GT,37.3858238,-122.0843019,-0.1760000044256448,0.0010000002,0.1,120.79382,1619648733000
Fix,GT,37.3858238,-122.0843019,-0.1760000049173831,0.001,0.1,120.79367,1619648734000
Fix,GT,37.3858238,-122.0843019,-0.1759999966397881,0.001,0.099,120.79355,1619648735000
Fix,GT,37.3858238,-122.0843019,-0.1759999988526105,0.0,0.1,120.79376,1619648736000
Fix,GT,37.3858238,-122.0843019,-0.1760000011473894,0.0009960626,0.1,120.79382,1619648737000
Fix,GT,37.3858238,-122.0843019,-0.1760000033602118,0.0009960668,0.1,120.793884,1619648738000
Fix,GT,37.3858238,-122.0843019,-0.1760000038519501,0.0,0.1,120.793945,1619648739000
Fix,GT,37.3858238,-122.0843019,-0.1759999955743551,0.001,0.1,120.793945,1619648740000
Fix,GT,37.3858238,-122.0843019,-0.175999999590218,0.0014142136,0.1,120.79382,1619648741000
Fix,GT,37.3858238,-122.0843019,-0.1760000000819563,0.001,0.1,120.7937,1619648742000
Fix,GT,37.3858238,-122.0843019,-0.176,0.001,0.1,120.793846,1619648743000
Fix,GT,37.3858238,-122.084302,-0.1770000045332126,0.001,0.1,120.793976,1619648744000
Fix,GT,37.3858237,-122.0843017,-0.1840000052694231,0.1971646,0.1,120.80121,1619648745000
Fix,GT,37.3858212,-122.0842964,-0.1860038970287423,0.8730174,0.1,120.78705,1619648746000
Fix,GT,37.3858158,-122.0842849,-0.1910038972049951,1.456689,0.1,120.7634,1619648747000
Fix,GT,37.3858068,-122.0842661,-0.205999995347578,2.5194292,0.1,120.855804,1619648748000
Fix,GT,37.385791,-122.0842338,-0.2319688922911882,4.2667184,0.1,121.38562,1619648749000
Fix,GT,37.3857661,-122.084184,-0.2410427281334996,6.2923794,0.1,121.86517,1619648750000
Fix,GT,37.3857305,-122.0841141,-0.2849650873895734,8.213018,0.1,122.38196,1619648751000
Fix,GT,37.3856885,-122.0840306,-0.2199999975413084,9.270844,0.1,122.175964,1619648752000
Fix,GT,37.3856421,-122.0839373,-0.1929728995324112,10.002552,0.1,121.66354,1619648753000
Fix,GT,37.3855948,-122.0838403,-0.193949714716291,10.200937,0.1,121.17172,1619648754000
Fix,GT,37.3855464,-122.0837399,-0.1999922682628966,10.568593,0.1,121.07391,1619648755000
Fix,GT,37.3854963,-122.0836367,-0.165,10.809,0.1,121.27655,1619648756000
Fix,GT,37.3854458,-122.0835329,-0.1479768693749792,10.666933,0.1,121.23462,1619648757000
Fix,GT,37.3853959,-122.0834313,-0.1069961513956077,10.480501,0.1,121.62811,1619648758000
Fix,GT,37.3853453,-122.0833297,-0.0759884567121043,10.838858,0.099,122.06607,1619648759000
Fix,GT,37.3852931,-122.0832264,-0.0369846275313757,10.708892,0.1,122.24185,1619648760000
Fix,GT,37.3852425,-122.0831258,-0.0129769660020247,10.406199,0.1,122.16342,1619648761000
Fix,GT,37.3851928,-122.0830276,0.03002301038336,10.172369,0.1,122.32266,1619648762000
Fix,GT,37.3851435,-122.0829308,0.0509846756584011,10.323743,0.099,122.43942,1619648763000
Fix,GT,37.3850926,-122.0828295,0.0680229591322131,10.87779,0.1,121.91254,1619648764000
Fix,GT,37.3850391,-122.0827228,0.0809847099136095,11.4290905,0.1,122.08542,1619648765000
Fix,GT,37.3849834,-122.082611,0.1080038183089345,11.900367,0.1,121.732574,1619648766000
Fix,GT,37.3849261,-122.0824943,0.1270267022298649,12.366989,0.1,121.39508,1619648767000
Fix,GT,37.3848669,-122.0823727,0.1849923837303649,12.8792715,0.1,121.17111,1619648768000
Fix,GT,37.3848064,-122.0822466,0.2409771594260819,13.027256,0.1,120.83649,1619648769000
Fix,GT,37.3847467,-122.0821216,0.2260646358819213,12.745327,0.1,120.93982,1619648770000
Fix,GT,37.384688,-122.082,0.261988606518833,12.457859,0.1,121.30072,1619648771000
Fix,GT,37.3846286,-122.0818795,0.2970341526092961,12.629344,0.1,121.7525,1619648772000
Fix,GT,37.384568,-122.0817575,0.3050227321737911,12.836985,0.1,121.79382,1619648773000
Fix,GT,37.3845071,-122.0816344,0.3980340677741915,12.722474,0.1,121.81091,1619648774000
Fix,GT,37.3844468,-122.0815134,0.4810302594231907,12.5557375,0.1,122.01645,1619648775000
Fix,GT,37.3843867,-122.0813929,0.5850339841037057,12.690853,0.1,121.92203,1619648776000
Fix,GT,37.3843253,-122.0812693,0.6209698056851048,13.130631,0.1,121.89392,1619648777000
Fix,GT,37.3842616,-122.0811416,0.57796984635666,13.474094,0.1,121.95245,1619648778000
Fix,GT,37.3841966,-122.0810128,0.6400263725458644,13.528359,0.1,122.588104,1619648779000
Fix,GT,37.3841311,-122.0808851,0.695011267915368,13.33671,0.1,122.55286,1619648780000
Fix,GT,37.3840681,-122.0807591,0.7649736933470704,12.971591,0.099,121.69394,1619648781000
Fix,GT,37.3840077,-122.0806363,0.7559962568972259,12.605488,0.1,121.54251,1619648782000
Fix,GT,37.3839489,-122.0805167,0.7810150156242308,12.282035,0.1,121.442444,1619648783000
Fix,GT,37.3838918,-122.0804001,0.8110411835960113,11.9675,0.099,121.47888,1619648784000
Fix,GT,37.3838357,-122.0802856,0.8920112324240618,12.002261,0.1,121.45883,1619648785000
Fix,GT,37.3837782,-122.080167,0.9060336513693912,12.56711,0.1,120.99277,1619648786000
Fix,GT,37.3837199,-122.0800432,0.982014956631232,12.771369,0.1,120.0647,1619648787000
Fix,GT,37.3836631,-122.0799172,1.0680298058232294,12.918476,0.099,118.993195,1619648788000
Fix,GT,37.3836069,-122.0797888,1.1400409705310592,12.9639435,0.1,118.506714,1619648789000
Fix,GT,37.3835511,-122.0796623,1.2650483820722438,12.711914,0.1,119.17874,1619648790000
Fix,GT,37.383494,-122.079538,1.3580223350543528,12.634337,0.1,120.15515,1619648791000
Fix,GT,37.3834375,-122.0794179,1.4250333816097118,11.987654,0.1,120.68677,1619648792000
Fix,GT,37.3833846,-122.0793087,1.5050074220872485,10.609266,0.1,121.22043,1619648793000
Fix,GT,37.3833385,-122.0792125,1.5440222489829176,9.301222,0.1,120.60626,1619648794000
Fix,GT,37.3832993,-122.0791241,1.6040111468732356,8.7694,0.1,118.02847,1619648795000
Fix,GT,37.3832641,-122.0790362,1.6760110410836058,8.899078,0.1,116.393005,1619648796000
Fix,GT,37.3832261,-122.0789409,1.7499889177882575,9.764981,0.1,116.322876,1619648797000
Fix,GT,37.3831881,-122.0788435,1.8260332197607496,9.23485,0.1,115.97757,1619648798000
Fix,GT,37.3831519,-122.0787559,1.9160441447291523,8.283597,0.1,118.02936,1619648799000
Fix,GT,37.383116,-122.0786764,1.9790183646678925,7.9875255,0.1,119.652405,1619648800000
Fix,GT,37.3830804,-122.0785987,2.017022084532305,7.9919453,0.1,119.89221,1619648801000
Fix,GT,37.3830427,-122.0785183,2.0730330796334893,8.608426,0.1,120.25348,1619648802000
Fix,GT,37.3830035,-122.0784294,2.11801827685372,9.297583,0.1,118.23724,1619648803000
Fix,GT,37.3829648,-122.0783361,2.1870256295558064,9.213188,0.1,117.17523,1619648804000
Fix,GT,37.3829271,-122.0782453,2.26903294697078,8.86055,0.1,117.9064,1619648805000
Fix,GT,37.3828906,-122.0781633,2.3370146669067906,7.7409306,0.1,119.55081,1619648806000
Fix,GT,37.382858,-122.0780941,2.378010889548809,6.4847493,0.1,120.81256,1619648807000
Fix,GT,37.382831,-122.0780389,2.4080145537229254,4.951267,0.099,121.41879,1619648808000
Fix,GT,37.3828115,-122.0779986,2.436003640618408,3.4236279,0.1,121.1236,1619648809000
Fix,GT,37.3827988,-122.0779721,2.4520073306956327,2.0614007,0.1,121.034454,1619648810000
Fix,GT,37.3827929,-122.0779595,2.463003572769463,0.5724945,0.099,120.97467,1619648811000
Fix,GT,37.3827923,-122.0779583,2.456996364811435,0.004467381,0.1,120.97778,1619648812000
Fix,GT,37.3827923,-122.0779583,2.4550000262935647,0.0031589193,0.1,120.979126,1619648813000
Fix,GT,37.3827923,-122.0779583,2.454999935409287,0.0014142134,0.099,120.978,1619648814000
Fix,GT,37.3827923,-122.0779583,2.4549999914260114,0.002236068,0.1,120.97742,1619648815000
Fix,GT,37.3827923,-122.0779583,2.4550000468711373,0.0028262865,0.1,120.97778,1619648816000
Fix,GT,37.3827923,-122.0779583,2.4549999565584586,0.0028254369,0.099,120.97815,1619648817000
Fix,GT,37.3827923,-122.0779583,2.454999987996416,0.0036006134,0.1,120.97742,1619648818000
Fix,GT,37.3827923,-122.0779583,2.454999994284008,0.0031610753,0.1,120.97806,1619648819000
Fix,GT,37.3827923,-122.0779583,2.455000025721965,0.0022393998,0.1,120.97754,1619648820000
Fix,GT,37.3827923,-122.0779583,2.454999935409288,0.003602759,0.1,120.97763,1619648821000
Fix,GT,37.3827923,-122.0779583,2.454999966275645,0.0022393921,0.1,120.97809,1619648822000
Fix,GT,37.3827923,-122.0779583,2.454999997713603,0.0028263037,0.1,120.97797,1619648823000
Fix,GT,37.3827923,-122.0779583,2.4550000285799616,0.0020000003,0.1,120.978424,1619648824000
Fix,GT,37.3827923,-122.0779583,2.455000060017919,0.0031622776,0.1,120.97833,1619648825000
Fix,GT,37.3827923,-122.0779583,2.454999945126474,0.0022360678,0.1,120.977905,1619648826000
Fix,GT,37.3827923,-122.0779583,2.4549999759928323,0.002238182,0.1,120.97833,1619648827000
Fix,GT,37.3827923,-122.0779583,2.454999982852024,0.003,0.1,120.978516,1619648828000
Fix,GT,37.3827924,-122.0779583,2.453996453914093,0.008463032,0.1,120.977234,1619648829000
Fix,GT,37.3827913,-122.0779562,2.4500000450643715,0.48216945,0.1,120.9707,1619648830000
Fix,GT,37.3827892,-122.0779516,2.454003482463304,0.34785938,0.1,120.94638,1619648831000
Fix,GT,37.3827884,-122.07795,2.4549964382015173,0.017005494,0.1,120.94159,1619648832000
Fix,GT,37.3827884,-122.07795,2.4539999925722373,0.0019929123,0.1,120.94141,1619648833000
Fix,GT,37.3827884,-122.07795,2.454000023997389,0.0022431712,0.1,120.939575,1619648834000
Fix,GT,37.3827884,-122.07795,2.454000055422541,0.0010043705,0.1,120.94049,1619648835000
Fix,GT,37.3827884,-122.07795,2.4540000617075712,0.001,0.1,120.94101,1619648836000
Fix,GT,37.3827884,-122.07795,2.45399997143168,0.0014192023,0.1,120.9404,1619648837000
Fix,GT,37.3827884,-122.07795,2.4539999777167107,0.0029944123,0.1,120.94031,1619648838000
Fix,GT,37.3827884,-122.07795,2.453999960004352,0.0010043501,0.1,120.940704,1619648839000
Fix,GT,37.3827884,-122.07795,2.453999991429504,0.0014127576,0.1,120.94055,1619648840000
Fix,GT,37.3827884,-122.07795,2.45400002228329,7.02228e-06,0.1,120.940216,1619648841000
Fix,GT,37.3827884,-122.07795,2.4539999320073984,0.0009964929,0.1,120.94095,1619648842000
Fix,GT,37.3827884,-122.07795,2.4539999634325507,0.0019979482,0.1,120.94064,1619648843000
Fix,GT,37.3827884,-122.07795,2.453999994286336,0.0022282444,0.1,120.940765,1619648844000
Fix,GT,37.3827884,-122.07795,2.4530000257010105,0.001,0.1,120.94031,1619648845000
Fix,GT,37.3827885,-122.07795,2.4510000325280705,0.0014142136,0.1,120.94058,1619648846000
Fix,GT,37.3827885,-122.07795,2.451000063344138,0.001,0.1,120.94086,1619648847000
Fix,GT,37.3827885,-122.07795,2.451000070192153,0.001,0.1,120.9411,1619648848000
Fix,GT,37.3827885,-122.07795,2.4509999554879034,0.0022317686,0.1,120.94031,1619648849000
Fix,GT,37.3827885,-122.07795,2.4509999863039704,0.0010014392,0.099,120.94055,1619648850000
Fix,GT,37.3827885,-122.07795,2.451000017690705,0.001,0.1,120.94104,1619648851000
Fix,GT,37.3827885,-122.07795,2.450999951493228,0.001,0.1,120.9411,1619648852000
Fix,GT,37.3827885,-122.07795,2.4509999828799627,0.001,0.099,120.94083,1619648853000
Fix,GT,37.3827885,-122.07795,2.4510000142666977,0.0009965422,0.1,120.940186,1619648854000
Fix,GT,37.3827885,-122.07795,2.4510000450827647,3.4537502e-06,0.1,120.940796,1619648855000
Fix,GT,37.3827885,-122.07795,2.4509999549172354,0.0009965503,0.099,120.94162,1619648856000
Fix,GT,37.3827885,-122.07795,2.4510000102720224,3.44557e-06,0.1,120.94116,1619648857000
Fix,GT,37.3827885,-122.07795,2.451000017120037,0.001,0.1,120.94116,1619648858000
Fix,GT,37.3827885,-122.07795,2.4510000485067724,0.0014093524,0.1,120.94107,1619648859000
Fix,GT,37.3827885,-122.07795,2.4509999577705748,0.0,0.1,120.94104,1619648860000
Fix,GT,37.3827885,-122.07795,2.45100001369603,0.0009965709,0.1,120.940796,1619648861000
Fix,GT,37.3827885,-122.07795,2.4510000450827647,0.0014127948,0.1,120.94043,1619648862000
Fix,GT,37.3827885,-122.07795,2.451000051360112,0.0014127966,0.1,120.940765,1619648863000
Fix,GT,37.3827885,-122.07795,2.4510000582081264,0.0010000002,0.1,120.94083,1619648864000
Fix,GT,37.3827885,-122.07795,2.450999943503877,0.0010014136,0.1,120.94098,1619648865000
Fix,GT,37.3827885,-122.07795,2.450999974319944,0.0014128016,0.1,120.94101,1619648866000
Fix,GT,37.3827885,-122.07795,2.451000005706679,0.003600889,0.1,120.941376,1619648867000
Fix,GT,37.3827885,-122.07795,2.4509999880159743,0.002236068,0.1,120.94046,1619648868000
Fix,GT,37.3827885,-122.07795,2.451000018832041,0.001,0.1,120.94043,1619648869000
Fix,GT,37.3827885,-122.07795,2.451000025680056,0.0009966078,0.1,120.94037,1619648870000
Fix,GT,37.3827885,-122.07795,2.4510000570667905,0.0,0.1,120.94098,1619648871000
Fix,GT,37.3827885,-122.07795,2.4509999417918737,0.0,0.1,120.940674,1619648872000
Fix,GT,37.3827885,-122.07795,2.4509999486398883,0.001,0.099,120.94028,1619648873000
Fix,GT,37.3827885,-122.07795,2.4509999554879034,0.0010013983,0.099,120.94107,1619648874000
Fix,GT,37.3827885,-122.07795,2.4509999372265305,0.0010013966,0.099,120.941895,1619648875000
Fix,GT,37.3827885,-122.07795,2.4509965764945374,0.007292509,0.1,120.94165,1619648876000
Fix,GT,37.3827876,-122.0779483,2.4510033143926413,0.25925368,0.1,120.92743,1619648877000
Fix,GT,37.3827866,-122.0779462,2.4519999817311766,0.15962727,0.1,120.90924,1619648878000
Fix,GT,37.3827857,-122.0779443,2.4510000131253618,0.39296943,0.1,120.89896,1619648879000
Fix,GT,37.3827825,-122.0779376,2.455003371166065,0.9762076,0.1,120.86496,1619648880000
Fix,GT,37.3827752,-122.0779226,2.4560066232327373,2.401817,0.1,121.309265,1619648881000
Fix,GT,37.3827587,-122.0778912,2.479020017994335,4.230712,0.1,122.70285,1619648882000
Fix,GT,37.3827363,-122.0778414,2.48402333905478,5.881283,0.1,117.83472,1619648883000
Fix,GT,37.3827202,-122.0777708,2.539003307556733,6.897062,0.1,102.207184,1619648884000
Fix,GT,37.3827215,-122.0776879,2.558960012061988,7.5157094,0.1,84.369446,1619648885000
Fix,GT,37.3827446,-122.0776045,2.49595344064245,7.9834514,0.1,65.76416,1619648886000
Fix,GT,37.3827908,-122.0775303,2.268840562503552,8.533667,0.1,46.52234,1619648887000
Fix,GT,37.3828539,-122.0774687,2.11297339129122,9.146484,0.099,35.459076,1619648888000
Fix,GT,37.3829265,-122.0774128,1.9569833764508369,9.675135,0.099,30.044983,1619648889000
Fix,GT,37.3830042,-122.077359,1.898016524135135,10.003325,0.1,28.647339,1619648890000
Fix,GT,37.3830845,-122.0773031,1.8749702248647808,10.3453245,0.1,29.259735,1619648891000
Fix,GT,37.3831653,-122.0772451,1.7619273428032176,10.280434,0.1,30.015137,1619648892000
Fix,GT,37.3832452,-122.0771863,1.633953821289353,10.277463,0.1,30.230225,1619648893000
Fix,GT,37.3833249,-122.0771281,1.5079440027049276,10.176288,0.1,30.007568,1619648894000
Fix,GT,37.3834039,-122.0770716,1.420980262188474,9.994033,0.1,29.47992,1619648895000
Fix,GT,37.3834813,-122.0770159,1.3560000167330728,9.832949,0.1,29.923859,1619648896000
Fix,GT,37.3835584,-122.0769592,1.3289869078984484,10.116839,0.1,30.329285,1619648897000
Fix,GT,37.3836396,-122.0768989,1.2789835856081917,10.864127,0.1,30.679596,1619648898000
Fix,GT,37.383726,-122.0768332,1.2349934424257374,11.576805,0.1,31.403503,1619648899000
Fix,GT,37.3838174,-122.0767622,1.1949934662915769,12.2565155,0.1,31.94458,1619648900000
Fix,GT,37.3839125,-122.0766873,1.179934719633311,12.649975,0.1,31.98996,1619648901000
Fix,GT,37.3840109,-122.0766109,0.9799641394389328,12.954616,0.1,31.610779,1619648902000
Fix,GT,37.3841097,-122.0765344,0.8399511587235611,12.822705,0.1,31.661774,1619648903000
Fix,GT,37.384207,-122.0764589,0.7359609861942008,12.556247,0.1,31.871735,1619648904000
Fix,GT,37.3843013,-122.0763834,0.6509837685665115,12.284093,0.1,32.798798,1619648905000
Fix,GT,37.3843929,-122.0763085,0.555967539258767,11.992232,0.099,33.166504,1619648906000
Fix,GT,37.3844819,-122.0762348,0.5639157418361864,11.677516,0.1,33.348175,1619648907000
Fix,GT,37.384569,-122.0761638,0.5109773392025382,11.37635,0.1,32.736298,1619648908000
Fix,GT,37.3846542,-122.0760958,0.4669773699017241,10.970576,0.1,32.21341,1619648909000
Fix,GT,37.3847356,-122.0760324,0.4069903123993426,10.265231,0.1,31.541931,1619648910000
Fix,GT,37.3848102,-122.0759757,0.368006449256558,9.099349,0.1,30.996887,1619648911000
Fix,GT,37.3848757,-122.075927,0.3329935692960862,7.6922026,0.1,30.495361,1619648912000
Fix,GT,37.3849277,-122.0758888,0.296996793013066,5.6642222,0.1,30.213165,1619648913000
Fix,GT,37.3849641,-122.0758624,0.2700353200719692,3.8772874,0.1,29.869537,1619648914000
Fix,GT,37.3849947,-122.0758439,0.2379711268055252,3.738088,0.1,24.791534,1619648915000
Fix,GT,37.3850334,-122.0758355,0.1939903875114396,4.913353,0.099,8.343414,1619648916000
Fix,GT,37.3850827,-122.0758486,0.1529424117151648,6.0127606,0.099,344.3378,1619648917000
Fix,GT,37.3851324,-122.0758907,0.0249552675960585,7.0790257,0.1,321.4431,1619648918000
Fix,GT,37.3851763,-122.0759574,-0.0350191457504406,8.070251,0.1,306.73212,1619648919000
Fix,GT,37.3852187,-122.0760391,-0.1040223095701076,9.136015,0.1,302.26044,1619648920000
Fix,GT,37.3852641,-122.0761308,-0.1590350147937424,9.839091,0.1,301.60764,1619648921000
Fix,GT,37.3853102,-122.0762256,-0.2410286144949495,9.777397,0.1,301.0725,1619648922000
Fix,GT,37.3853547,-122.0763185,-0.3360158656116109,9.2532015,0.1,300.7845,1619648923000
Fix,GT,37.3853953,-122.0764026,-0.3980095077282749,8.15273,0.1,301.2375,1619648924000
Fix,GT,37.3854315,-122.0764762,-0.4310126582537777,7.3769627,0.1,301.4488,1619648925000
Fix,GT,37.3854657,-122.0765466,-0.3470600825450383,7.235218,0.1,301.03928,1619648926000
Fix,GT,37.3854991,-122.076616,-0.5499936826834455,7.291517,0.1,300.8827,1619648927000
Fix,GT,37.3855352,-122.0766907,-0.5859968464458362,8.204708,0.1,301.3919,1619648928000
Fix,GT,37.3855763,-122.0767718,-0.627018895938294,8.583198,0.099,302.51984,1619648929000
Fix,GT,37.3856164,-122.0768487,-0.6790251714671032,7.581393,0.1,303.19736,1619648930000
Fix,GT,37.3856513,-122.0769145,-0.7300314317364245,6.6057916,0.1,303.53876,1619648931000
Fix,GT,37.3856832,-122.0769741,-0.7840188122671098,6.108979,0.099,303.51834,1619648932000
Fix,GT,37.3857115,-122.0770273,-0.8280156555622815,5.0884504,0.099,303.70908,1619648933000
Fix,GT,37.3857372,-122.0770689,-0.8660187661331147,4.4791923,0.1,308.4943,1619648934000
Fix,GT,37.3857635,-122.0771045,-0.9410250033983028,4.185571,0.1,311.94684,1619648935000
Fix,GT,37.3857821,-122.077144,-0.9950093670235948,3.7716315,0.1,297.67035,1619648936000
Fix,GT,37.3857791,-122.0771853,-0.9779750782046468,3.0560577,0.1,264.65295,1619648937000
Fix,GT,37.3857601,-122.07721,-0.907984442622168,2.2386818,0.1,232.06543,1619648938000
Fix,GT,37.3857447,-122.0772182,-0.911000019514002,0.967747,0.1,214.63481,1619648939000
Fix,GT,37.3857423,-122.0772191,-0.9209907075972296,0.014883239,0.1,212.33916,1619648940000
Fix,GT,37.3857426,-122.0772191,-0.9159969238063786,0.15573578,0.1,212.55116,1619648941000
Fix,GT,37.3857461,-122.0772158,-0.9089999817986972,0.8222018,0.1,211.26614,1619648942000
Fix,GT,37.3857524,-122.0772076,-0.9110030766017736,1.1274433,0.1,202.705,1619648943000
Fix,GT,37.3857606,-122.0771984,-0.942009260843508,1.0934322,0.1,188.87968,1619648944000
Fix,GT,37.3857662,-122.0771945,-0.9710030727600678,0.23196329,0.099,180.98819,1619648945000
Fix,GT,37.3857664,-122.0771944,-0.9690030905781314,0.008637508,0.1,180.65204,1619648946000
Fix,GT,37.3857626,-122.0771934,-0.9619907465837896,0.95684755,0.099,178.09082,1619648947000
Fix,GT,37.3857493,-122.0771839,-0.9389876992800272,2.1714041,0.099,161.6626,1619648948000
Fix,GT,37.3857307,-122.0771576,-0.9370061163634528,3.6982594,0.099,136.07135,1619648949000
Fix,GT,37.3857112,-122.0771119,-0.9069754734991584,5.1841946,0.1,118.74106,1619648950000
Fix,GT,37.3856879,-122.0770556,-0.8329663310223259,5.82897,0.1,117.83301,1619648951000
Fix,GT,37.3856619,-122.0770001,-0.7879786089921836,5.5787864,0.1,122.226685,1619648952000
Fix,GT,37.3856269,-122.0769591,-0.7390091763138771,5.2569447,0.1,140.38623,1619648953000
Fix,GT,37.385583,-122.0769419,-0.7420091219199821,5.2868295,0.1,166.18158,1619648954000
Fix,GT,37.3855349,-122.0769525,-0.699006069331197,5.8984523,0.1,193.18639,1619648955000
Fix,GT,37.3854827,-122.0769854,-0.6190182274538092,7.268964,0.1,208.28223,1619648956000
Fix,GT,37.3854223,-122.0770328,-0.567993930641096,8.500856,0.1,212.20518,1619648957000
Fix,GT,37.385353,-122.077088,-0.5109727084240876,9.699669,0.1,212.22296,1619648958000
Fix,GT,37.3852757,-122.077149,-0.4269636683173012,10.526478,0.1,212.03528,1619648959000
Fix,GT,37.3851924,-122.0772143,-0.351966749807354,11.296731,0.1,211.78864,1619648960000
Fix,GT,37.385103,-122.077283,-0.3019607615370769,11.851521,0.1,211.13887,1619648961000
Fix,GT,37.3850096,-122.077352,-0.1979638306181877,12.297463,0.1,210.06462,1619648962000
Fix,GT,37.384911,-122.0774221,-0.110975918685086,12.8434725,0.1,209.22487,1619648963000
Fix,GT,37.3848077,-122.0774939,-0.0209669299791567,13.338298,0.099,208.62508,1619648964000
Fix,GT,37.384701,-122.077567,0.0700240157586522,13.631642,0.099,208.72527,1619648965000
Fix,GT,37.3845926,-122.0776422,0.1590209828917868,13.840619,0.1,208.92714,1619648966000
Fix,GT,37.3844835,-122.0777173,0.2590209550955333,13.720296,0.1,208.58054,1619648967000
Fix,GT,37.3843764,-122.0777913,0.3380358758061193,13.409301,0.1,208.9141,1619648968000
Fix,GT,37.3842721,-122.077864,0.4360029877086635,13.08745,0.1,209.02394,1619648969000
Fix,GT,37.3841686,-122.0779362,0.5150417523928918,13.296393,0.1,208.90381,1619648970000
Fix,GT,37.3840631,-122.0780085,0.5960238030171021,13.283305,0.1,208.45021,1619648971000
Fix,GT,37.3839587,-122.0780792,0.6960148485517129,13.002392,0.1,208.34828,1619648972000
Fix,GT,37.3838582,-122.0781484,0.7740089276928921,12.471567,0.1,208.98938,1619648973000
Fix,GT,37.3837624,-122.0782164,0.8630178157531191,11.940823,0.1,209.58983,1619648974000
Fix,GT,37.3836728,-122.0782816,0.9549614779590628,10.920206,0.1,210.27759,1619648975000
Fix,GT,37.3835937,-122.0783412,0.983008855297696,9.585989,0.099,211.41403,1619648976000
Fix,GT,37.3835261,-122.0783948,1.0400265624781606,8.150487,0.1,212.6526,1619648977000
Fix,GT,37.3834706,-122.0784409,1.1050412717640865,6.614841,0.1,213.57112,1619648978000
Fix,GT,37.3834284,-122.0784767,1.1620088249011895,4.584029,0.1,213.70819,1619648979000
Fix,GT,37.3834007,-122.0784999,1.1830000057842118,2.858166,0.1,213.82799,1619648980000
Fix,GT,37.3833843,-122.0785139,1.1940088066603058,1.8940088,0.1,213.93538,1619648981000
Fix,GT,37.3833717,-122.0785248,1.214005852848291,1.3985062,0.1,213.9895,1619648982000
Fix,GT,37.3833628,-122.0785323,1.2190029197353869,1.267422,0.1,214.04204,1619648983000
Fix,GT,37.3833507,-122.0785427,1.2240058308760635,2.0213199,0.1,214.2931,1619648984000
Fix,GT,37.3833349,-122.0785575,1.2299883056012917,2.2963974,0.1,215.91257,1619648985000
Fix,GT,37.3833201,-122.0785737,1.2610204129079354,1.7940992,0.1,219.49985,1619648986000
Fix,GT,37.3833102,-122.078586,1.2940087405520024,1.5936847,0.1,222.76105,1619648987000
Fix,GT,37.3833011,-122.0786081,1.3280261913423892,3.157473,0.1,237.40662,1619648988000
Fix,GT,37.3832987,-122.0786551,1.4450551816672088,5.279859,0.1,266.37103,1619648989000
Fix,GT,37.3833157,-122.07872,1.5119913198659198,7.0387955,0.1,291.61414,1619648990000
Fix,GT,37.3833496,-122.0787984,1.528002917783102,8.722296,0.1,298.94745,1619648991000
Fix,GT,37.3833924,-122.0788898,1.5060029326458462,10.151019,0.1,300.59125,1619648992000
Fix,GT,37.3834427,-122.078995,1.461985535896616,11.530061,0.1,300.98315,1619648993000
Fix,GT,37.3834998,-122.079112,1.391950950880302,12.761122,0.1,301.43463,1619648994000
Fix,GT,37.3835625,-122.0792387,1.3309741237191484,13.633202,0.1,301.76675,1619648995000
Fix,GT,37.3836296,-122.0793727,1.257014409805648,14.33563,0.1,302.08173,1619648996000
Fix,GT,37.3836988,-122.0795102,1.180968388642185,14.374155,0.1,302.12115,1619648997000
Fix,GT,37.3837673,-122.0796467,1.094979905501008,14.156397,0.1,301.8986,1619648998000
Fix,GT,37.3838345,-122.0797815,1.0379828526712953,14.100068,0.1,301.70676,1619648999000
Fix,GT,37.3839014,-122.0799174,0.9689771614666096,14.100117,0.1,301.35544,1619649000000
Fix,GT,37.3839673,-122.0800524,0.8770056842209305,13.926471,0.099,301.34488,1619649001000
Fix,GT,37.3840329,-122.0801857,0.8070170807952527,13.875459,0.099,301.65182,1619649002000
Fix,GT,37.3840994,-122.0803199,0.7609857529671863,14.090686,0.1,301.65094,1619649003000
Fix,GT,37.3841665,-122.0804562,0.7019886115626431,14.2804785,0.1,301.45905,1619649004000
Fix,GT,37.3842343,-122.0805944,0.6269772869292647,14.433373,0.1,301.47342,1619649005000
Fix,GT,37.3843029,-122.0807341,0.5409574815253728,14.591939,0.1,301.3355,1619649006000
Fix,GT,37.3843717,-122.0808746,0.4419915238148533,14.58778,0.1,301.49097,1619649007000
Fix,GT,37.3844404,-122.081014,0.3859971787740942,14.407401,0.1,301.6069,1619649008000
Fix,GT,37.3845089,-122.0811516,0.3369689698894508,14.3728,0.1,301.7629,1619649009000
Fix,GT,37.384578,-122.0812899,0.2929859158098697,14.427761,0.1,302.00424,1619649010000
Fix,GT,37.3846466,-122.0814271,0.2269746797578409,14.250225,0.1,301.8353,1619649011000
Fix,GT,37.3847142,-122.081562,0.1329662911568302,13.905133,0.1,301.9197,1619649012000
Fix,GT,37.3847799,-122.0816929,0.015997194743948,13.533671,0.1,302.05917,1619649013000
Fix,GT,37.3848437,-122.0818214,0.0109691916108131,13.219606,0.1,301.62225,1619649014000
Fix,GT,37.3849057,-122.081947,0.0019720335807651,12.938712,0.1,301.45563,1619649015000
Fix,GT,37.3849666,-122.0820698,-0.0220195469704922,12.6430645,0.1,301.84473,1619649016000
Fix,GT,37.3850263,-122.0821896,-0.0359832687196321,12.349116,0.1,301.71597,1619649017000
Fix,GT,37.3850839,-122.0823061,-0.0539805115479975,11.858274,0.1,301.5099,1619649018000
Fix,GT,37.3851384,-122.0824169,-0.0630222425702959,11.148881,0.1,301.37296,1619649019000
Fix,GT,37.3851894,-122.082521,-0.1069861212200485,10.4803095,0.1,301.15295,1619649020000
Fix,GT,37.3852367,-122.0826181,-0.1179750545250717,9.598975,0.1,301.31458,1619649021000
Fix,GT,37.3852801,-122.0827067,-0.139000001197448,8.981108,0.1,301.3702,1619649022000
Fix,GT,37.3853216,-122.0827908,-0.1280055275587365,8.586176,0.1,301.7519,1619649023000
Fix,GT,37.3853622,-122.0828709,-0.1500275948271155,8.278823,0.1,302.1645,1619649024000
Fix,GT,37.3854018,-122.0829501,-0.2030192876062355,8.460614,0.1,301.93,1619649025000
Fix,GT,37.3854436,-122.083035,-0.1609834902735893,9.057645,0.1,301.40097,1619649026000
Fix,GT,37.385485,-122.0831225,-0.1649945042722392,8.953553,0.099,300.3045,1619649027000
Fix,GT,37.3855255,-122.0832098,-0.2050027400553226,8.900059,0.099,300.07565,1619649028000
Fix,GT,37.3855664,-122.0832952,-0.2070273874446283,8.762597,0.1,301.22797,1619649029000
Fix,GT,37.3856086,-122.0833778,-0.2460164044685661,8.641864,0.1,303.02335,1619649030000
Fix,GT,37.3856513,-122.0834588,-0.3099972640331834,8.522791,0.1,303.08847,1619649031000
Fix,GT,37.3856923,-122.0835393,-0.3430463616661727,8.407705,0.1,302.22144,1619649032000
Fix,GT,37.3857325,-122.0836203,-0.3790163458569441,8.547181,0.1,301.51053,1619649033000
Fix,GT,37.3857741,-122.0837053,-0.4129891350143589,9.186317,0.1,301.32053,1619649034000
Fix,GT,37.3858185,-122.0837961,-0.3580000049178488,9.716206,0.1,301.6927,1619649035000
Fix,GT,37.3858666,-122.0838913,-0.3539457989055663,10.23852,0.1,302.19308,1619649036000
Fix,GT,37.385916,-122.0839924,-0.326997293645516,10.777227,0.1,300.83813,1619649037000
Fix,GT,37.3859668,-122.0841005,-0.3550459336414933,11.426816,0.1,299.95135,1619649038000
Fix,GT,37.386018,-122.0842175,-0.3359972970266827,12.215766,0.1,297.9641,1619649039000
Fix,GT,37.3860704,-122.0843437,-0.2679676696062087,12.951777,0.1,297.28125,1619649040000
Fix,GT,37.3861261,-122.084476,-0.2289838693516794,13.617053,0.1,298.29996,1619649041000
Fix,GT,37.3861885,-122.0846141,-0.2139811959501821,14.521598,0.1,300.02353,1619649042000
Fix,GT,37.386257,-122.0847589,-0.1809865888245403,15.241079,0.1,300.8503,1619649043000
Fix,GT,37.3863287,-122.0849079,-0.1630053589760791,15.416657,0.1,301.20908,1619649044000
Fix,GT,37.3864007,-122.0850551,-0.1630053495597094,15.16711,0.1,301.4559,1619649045000
Fix,GT,37.3864717,-122.0851995,-0.155997333080275,14.863837,0.1,301.5683,1619649046000
Fix,GT,37.3865412,-122.0853408,-0.1529946711508091,14.553068,0.1,301.5881,1619649047000
Fix,GT,37.3866089,-122.0854816,-0.1530106427860446,14.695019,0.1,300.6495,1619649048000
Fix,GT,37.3866761,-122.085628,-0.1489973420863971,15.1699705,0.1,299.29642,1619649049000
Fix,GT,37.3867435,-122.085779,-0.1399973438817542,15.394983,0.1,299.17453,1619649050000
Fix,GT,37.3868117,-122.0859291,-0.1619973478382453,15.181809,0.1,299.8121,1619649051000
Fix,GT,37.3868798,-122.0860756,-0.1509947158547583,14.875123,0.1,300.4755,1619649052000
Fix,GT,37.3869482,-122.0862194,-0.1699894414586015,14.827644,0.1,300.93817,1619649053000
Fix,GT,37.3870177,-122.0863626,-0.1730052745977882,14.786276,0.1,301.2397,1619649054000
Fix,GT,37.3870869,-122.0865039,-0.1869947375298943,14.537387,0.1,301.5299,1619649055000
Fix,GT,37.3871549,-122.0866415,-0.1960183945298194,14.119454,0.1,301.58417,1619649056000
