MessageType,Provider,LatitudeDegrees,LongitudeDegrees,AltitudeMeters,SpeedMps,AccuracyMeters,BearingDegrees,UnixTimeMillis
Fix,GT,34.2725352,-118.6156624,323.38100784929594,0.0014140747,0.1,263.1895,1638904975000
Fix,GT,34.2725352,-118.6156624,323.3810031058365,0.001,0.1,263.1892,1638904976000
Fix,GT,34.2725352,-118.6156624,323.3810015905648,0.001,0.1,263.18918,1638904977000
Fix,GT,34.2725352,-118.6156624,323.38099360950605,0.001,0.1,263.189,1638904978000
Fix,GT,34.2725352,-118.6156624,323.381004903457,0.001,0.1,263.1898,1638904979000
Fix,GT,34.2725352,-118.6156624,323.3809969223984,0.0,0.1,263.18948,1638904980000
Fix,GT,34.2725352,-118.6156624,323.3810082257609,0.0,0.1,263.18964,1638904981000
Fix,GT,34.2725352,-118.6156624,323.38099700710296,4.0737834e-07,0.1,263.1899,1638904982000
Fix,GT,34.2725352,-118.6156624,323.3810050728663,0.0010003478,0.1,263.18915,1638904983000
Fix,GT,34.2725352,-118.6156624,323.38100666343104,0.001,0.1,263.18903,1638904984000
Fix,GT,34.2725352,-118.6156624,323.38099221658547,0.0009997323,0.1,263.18887,1638904985000
Fix,GT,34.2725352,-118.6156624,323.3809970447495,0.0009999999,0.1,263.18896,1638904986000
Fix,GT,34.2725352,-118.6156624,323.38100187291354,0.0010001054,0.1,263.18918,1638904987000
Fix,GT,34.2725352,-118.6156624,323.3810067010776,0.0014141111,0.1,263.18933,1638904988000
Fix,GT,34.2725352,-118.6156624,323.380992254232,0.0049995575,0.1,263.18973,1638904989000
Fix,GT,34.2725353,-118.6156624,323.380997082396,0.0042434293,0.1,263.18427,1638904990000
Fix,GT,34.2725353,-118.6156624,323.3830019105718,0.018439498,0.1,263.14783,1638904991000
Fix,GT,34.2725343,-118.6156643,323.394007399775,0.341115,0.1,260.77313,1638904992000
Fix,GT,34.2725332,-118.6156663,323.4079925047149,0.030409629,0.1,258.10318,1638904993000
Fix,GT,34.2725333,-118.6156663,323.4089971197931,0.011999186,0.1,258.08185,1638904994000
Fix,GT,34.2725333,-118.6156663,323.4090021482952,0.013152516,0.1,258.08136,1638904995000
Fix,GT,34.2725334,-118.6156663,323.4100067769783,0.016278442,0.1,258.07996,1638904996000
Fix,GT,34.2725335,-118.6156664,323.4109923288134,0.055081166,0.1,257.99362,1638904997000
Fix,GT,34.2725324,-118.6156683,323.42500092940566,0.26323193,0.1,255.2958,1638904998000
Fix,GT,34.2725304,-118.6156712,323.4440091445665,0.520253,0.1,250.87456,1638904999000
Fix,GT,34.2725244,-118.6156779,323.47999450107903,1.2205805,0.099,239.70245,1638905000000
Fix,GT,34.2725105,-118.6156858,323.466998673388,1.9417951,0.099,218.18994,1638905001000
Fix,GT,34.2724888,-118.6156851,323.529005035118,2.5617185,0.1,188.6682,1638905002000
Fix,GT,34.2724651,-118.6156654,323.5959928792788,3.4350498,0.1,150.80945,1638905003000
Fix,GT,34.2724524,-118.6156233,323.45600026823905,4.6321034,0.1,111.30081,1638905004000
Fix,GT,34.2724527,-118.6155637,323.14599180214594,6.3391013,0.1,88.66321,1638905005000
Fix,GT,34.272458,-118.6154847,322.8089959517135,8.228694,0.1,84.980286,1638905006000
Fix,GT,34.2724669,-118.6153855,322.3639954176357,10.297897,0.1,83.67465,1638905007000
Fix,GT,34.2724795,-118.6152642,321.88299816976337,12.175449,0.1,82.469666,1638905008000
Fix,GT,34.2724947,-118.6151234,321.35399767243285,13.9466095,0.1,82.66864,1638905009000
Fix,GT,34.2725117,-118.6149642,320.634999244296,15.499893,0.1,82.51019,1638905010000
Fix,GT,34.2725301,-118.6147922,319.8269974037362,16.203947,0.1,82.67627,1638905011000
Fix,GT,34.2725482,-118.6146176,319.0349989558408,15.9849825,0.1,82.79947,1638905012000
Fix,GT,34.2725653,-118.6144505,318.2090016821611,14.890236,0.1,82.6557,1638905013000
Fix,GT,34.2725801,-118.6142965,317.34198446721365,13.81532,0.1,84.15448,1638905014000
Fix,GT,34.2725824,-118.6141534,316.4709898406535,12.692509,0.1,92.45798,1638905015000
Fix,GT,34.2725616,-118.6140194,315.4249880756518,12.649753,0.1,105.49344,1638905016000
Fix,GT,34.2725121,-118.6138922,314.33898813500144,13.411642,0.1,120.9606,1638905017000
Fix,GT,34.2724286,-118.61378,313.5619943538253,14.385546,0.1,138.66376,1638905018000
Fix,GT,34.2723159,-118.6136947,312.77499557762303,15.215855,0.1,153.12427,1638905019000
Fix,GT,34.2721892,-118.6136238,311.9080009551664,15.688213,0.1,154.79437,1638905020000
Fix,GT,34.2720657,-118.6135419,311.1040001751178,15.59511,0.1,147.66772,1638905021000
Fix,GT,34.2719566,-118.613435,310.40200216984493,15.737589,0.1,136.42935,1638905022000
Fix,GT,34.2718619,-118.6133051,309.51500412230814,16.133844,0.1,127.87805,1638905023000
Fix,GT,34.2717836,-118.6131562,308.7630031760555,16.37481,0.1,118.576294,1638905024000
Fix,GT,34.2717269,-118.6129937,308.24700015378,15.912424,0.1,108.35242,1638905024999
Fix,GT,34.271699,-118.6128275,307.9490002281666,15.539343,0.1,96.18173,1638905025999
Fix,GT,34.2717033,-118.6126582,307.816000051856,15.832075,0.1,82.61499,1638905026999
Fix,GT,34.2717389,-118.6124888,307.8339999039173,16.423906,0.1,72.015625,1638905027999
Fix,GT,34.2717866,-118.6123165,307.8269999075532,17.008968,0.1,72.15506,1638905028999
Fix,GT,34.2718303,-118.6121356,307.80500037610534,17.818409,0.1,74.23596,1638905029999
Fix,GT,34.2718729,-118.6119421,307.77700004440544,18.994577,0.1,75.6026,1638905030999
Fix,GT,34.2719156,-118.611737,307.71799979519847,19.94909,0.1,75.687195,1638905031999
Fix,GT,34.2719608,-118.6115242,307.6390005219579,20.406754,0.1,75.28357,1638905032999
Fix,GT,34.2720085,-118.611311,307.6659987689852,20.224781,0.1,74.23038,1638905033999
Fix,GT,34.2720594,-118.6111016,307.58300128853324,19.98067,0.1,73.17758,1638905034999
Fix,GT,34.2721114,-118.6108959,307.65599945133926,19.67715,0.1,72.78906,1638905035999
Fix,GT,34.2721627,-118.6106919,307.6830004258752,19.53184,0.1,73.63077,1638905036999
Fix,GT,34.2722075,-118.6104878,307.671,19.41,0.1,76.55493,1638905037999
Fix,GT,34.2722422,-118.6102803,307.631,19.485191,0.1,80.08667,1638905038999
Fix,GT,34.2722672,-118.6100719,307.4570030629635,19.311243,0.1,83.03516,1638905039999
Fix,GT,34.272283,-118.609864,307.08900573313235,19.173916,0.1,86.008514,1638905040999
Fix,GT,34.2722921,-118.6096562,306.4540084638596,19.171764,0.1,87.18829,1638905041999
Fix,GT,34.2723004,-118.6094476,305.5410139864684,19.292614,0.1,87.19385,1638905042999
Fix,GT,34.2723092,-118.609237,304.28901965427394,19.554836,0.1,86.9068,1638905043999
Fix,GT,34.2723187,-118.6090233,303.0520171700716,19.828053,0.1,86.95734,1638905044999
Fix,GT,34.2723274,-118.6088085,301.8640174202919,19.614176,0.1,87.26865,1638905045999
Fix,GT,34.2723346,-118.6085982,300.7310165438652,19.282146,0.1,87.93881,1638905046999
Fix,GT,34.2723359,-118.6083877,299.5190199973583,19.513838,0.1,91.28082,1638905047999
Fix,GT,34.2723232,-118.6081751,298.2570221809149,19.752863,0.1,96.32214,1638905048999
Fix,GT,34.2722946,-118.6079622,297.05901823097474,19.975828,0.1,101.17682,1638905049999
Fix,GT,34.2722572,-118.6077492,296.039018764019,20.078869,0.1,101.55029,1638905050999
Fix,GT,34.2722253,-118.6075356,295.4340162879825,19.71182,0.1,98.67337,1638905051999
Fix,GT,34.2722065,-118.6073252,294.94500795453786,19.34701,0.1,94.13208,1638905052999
Fix,GT,34.2722006,-118.6071164,294.6370070282817,19.143316,0.1,90.20398,1638905053999
Fix,GT,34.2722073,-118.60691,294.41100166082384,18.864052,0.1,85.18729,1638905054999
Fix,GT,34.2722307,-118.6067095,294.61599549764395,18.43516,0.1,79.45349,1638905055999
Fix,GT,34.2722671,-118.6065172,295.054989161551,17.869064,0.1,75.23425,1638905056999
Fix,GT,34.2723118,-118.6063358,295.7559838128686,16.926977,0.1,72.04254,1638905057999
Fix,GT,34.2723574,-118.6061662,296.590976052165,15.898878,0.1,73.06116,1638905058999
Fix,GT,34.2723891,-118.6060026,297.67497318488364,15.115705,0.1,79.47528,1638905059999
Fix,GT,34.2724051,-118.6058417,298.85196969854826,14.753904,0.1,85.31128,1638905060999
Fix,GT,34.2724091,-118.6056839,300.00397090411184,14.3801985,0.1,89.99963,1638905061999
Fix,GT,34.2724027,-118.6055323,301.1389740598202,13.535119,0.1,94.59259,1638905062999
Fix,GT,34.272388,-118.6053922,302.20497069895265,12.405878,0.1,98.52118,1638905063999
Fix,GT,34.2723695,-118.6052702,303.15898015594485,10.010459,0.1,100.6445,1638905064999
Fix,GT,34.2723556,-118.6051799,303.80698531484603,6.939759,0.1,100.27142,1638905065999
Fix,GT,34.2723457,-118.6051206,304.2419910347462,4.2518725,0.1,101.57776,1638905066999
Fix,GT,34.2723392,-118.6050881,304.48999556005003,1.9067245,0.1,103.29843,1638905067999
Fix,GT,34.2723367,-118.6050771,304.5699993942976,0.2642676,0.1,103.82391,1638905068999
Fix,GT,34.2723367,-118.605077,304.56299969041345,0.0058308137,0.1,103.84964,1638905069999
Fix,GT,34.2723367,-118.605077,304.563,0.0036055513,0.1,103.849304,1638905070999
Fix,GT,34.2723367,-118.605077,304.563,0.0022363148,0.1,103.84924,1638905071999
Fix,GT,34.2723367,-118.605077,304.563,0.002236068,0.1,103.84955,1638905072999
Fix,GT,34.2723367,-118.605077,304.563,0.001,0.1,103.84958,1638905073999
Fix,GT,34.2723367,-118.605077,304.562,0.001,0.1,103.84957,1638905074999
Fix,GT,34.2723367,-118.605077,304.562,0.0,0.1,103.84973,1638905075999
Fix,GT,34.2723367,-118.605077,304.562,0.0,0.1,103.84955,1638905076999
Fix,GT,34.2723367,-118.605077,304.562,0.000999636,0.1,103.84943,1638905077999
Fix,GT,34.2723367,-118.605077,304.562,3.708601e-07,0.1,103.849335,1638905078999
Fix,GT,34.2723367,-118.605077,304.562,0.0009996223,0.1,103.849976,1638905079999
Fix,GT,34.2723367,-118.605077,304.562,0.0010001594,0.1,103.84973,1638905080999
Fix,GT,34.2723367,-118.605077,304.562,0.0014140515,0.1,103.84973,1638905081999
Fix,GT,34.2723367,-118.605077,304.562,0.0014142136,0.1,103.84979,1638905082999
Fix,GT,34.2723367,-118.605077,304.562,0.0014140458,0.1,103.84976,1638905083999
Fix,GT,34.2723367,-118.605077,304.562,0.0019991763,0.1,103.8501,1638905084999
Fix,GT,34.2723367,-118.605077,304.562,0.0009995813,0.1,103.84943,1638905085999
Fix,GT,34.2723367,-118.605077,304.562,0.001,0.1,103.84955,1638905086999
Fix,GT,34.2723367,-118.605077,304.562,0.0009995677,0.1,103.84979,1638905087999
Fix,GT,34.2723367,-118.605077,304.562,4.3922665e-07,0.1,103.849365,1638905088999
Fix,GT,34.2723367,-118.605077,304.562,0.0010001848,0.1,103.84955,1638905089999
Fix,GT,34.2723367,-118.605077,304.562,0.0009995472,0.1,103.84955,1638905090999
Fix,GT,34.2723367,-118.605077,304.562,0.0,0.1,103.84949,1638905091999
Fix,GT,34.2723367,-118.605077,304.562,0.0,0.1,103.849304,1638905092999
Fix,GT,34.2723367,-118.605077,304.562,4.732609e-07,0.1,103.849365,1638905093999
Fix,GT,34.2723367,-118.605077,304.562,4.8005586e-07,0.1,103.84958,1638905094999
Fix,GT,34.2723367,-118.605077,304.562,0.001,0.1,103.849396,1638905095999
Fix,GT,34.2723367,-118.605077,304.562,0.001,0.1,103.84949,1638905096999
Fix,GT,34.2723367,-118.605077,304.562,0.001,0.1,103.84924,1638905097999
Fix,GT,34.2723367,-118.605077,304.562,0.001,0.1,103.849396,1638905098999
Fix,GT,34.2723367,-118.605077,304.562,0.0014140006,0.1,103.849335,1638905099999
Fix,GT,34.2723367,-118.605077,304.562,0.0014142136,0.1,103.849304,1638905100999
Fix,GT,34.2723367,-118.605077,304.562,0.0014142136,0.1,103.84958,1638905101999
Fix,GT,34.2723367,-118.605077,304.562,0.0010002216,0.1,103.849365,1638905102999
Fix,GT,34.2723367,-118.605077,304.562,0.0010002243,0.1,103.84921,1638905103999
Fix,GT,34.2723367,-118.605077,304.562,0.0014139864,0.1,103.84906,1638905104999
Fix,GT,34.2723367,-118.605077,304.562,0.001,0.1,103.84915,1638905105999
Fix,GT,34.2723367,-118.605077,304.562,0.0010002329,0.1,103.849365,1638905106999
Fix,GT,34.2723367,-118.605077,304.562,0.0010002357,0.1,103.849396,1638905107999
Fix,GT,34.2723367,-118.605077,304.562,0.001,0.1,103.84955,1638905108999
Fix,GT,34.2723367,-118.605077,304.562,5.825758e-07,0.1,103.849304,1638905109999
Fix,GT,34.2723367,-118.605077,304.562,0.001,0.1,103.84915,1638905110999
Fix,GT,34.2723367,-118.605077,304.562,0.0,0.1,103.849236,1638905111999
Fix,GT,34.2723367,-118.605077,304.562,6.030202e-07,0.1,103.849304,1638905112999
Fix,GT,34.2723367,-118.605077,304.562,6.099344e-07,0.1,103.849304,1638905113999
Fix,GT,34.2723367,-118.605077,304.562,6.1672927e-07,0.1,103.84921,1638905114999
Fix,GT,34.2723367,-118.605077,304.562,0.0,0.1,103.84909,1638905115999
Fix,GT,34.2723367,-118.605077,304.562,0.0009993697,0.1,103.849,1638905116999
Fix,GT,34.2723367,-118.605077,304.562,6.372929e-07,0.1,103.849,1638905117999
Fix,GT,34.2723367,-118.605077,304.562,0.0009993559,0.1,103.84897,1638905118999
Fix,GT,34.2723367,-118.605077,304.562,0.0009993492,0.1,103.84903,1638905119999
Fix,GT,34.2723367,-118.605077,304.562,0.0009993423,0.1,103.84918,1638905120999
Fix,GT,34.2723367,-118.605077,304.562,9.397904e-07,0.1,103.848755,1638905121999
Fix,GT,34.2723367,-118.605077,304.562,0.0,0.1,103.84866,1638905122999
Fix,GT,34.2723367,-118.605077,304.562,0.0,0.1,103.848816,1638905123999
Fix,GT,34.2723367,-118.605077,304.562,0.001,0.1,103.84885,1638905124999
Fix,GT,34.2723367,-118.605077,304.562,0.0014146189,0.1,103.84891,1638905125999
Fix,GT,34.2723367,-118.605077,304.562,0.002236068,0.1,103.849,1638905126999
Fix,GT,34.2723367,-118.605077,304.562,0.0028284271,0.1,103.84885,1638905127999
Fix,GT,34.2723367,-118.605077,304.562,0.0036055513,0.1,103.84848,1638905128999
Fix,GT,34.2723367,-118.605077,304.562,0.0042431853,0.1,103.84897,1638905129999
Fix,GT,34.2723367,-118.605077,304.561,0.005,0.1,103.849,1638905130999
Fix,GT,34.2723366,-118.605077,304.558,0.0404856,0.1,103.85037,1638905131999
Fix,GT,34.2723356,-118.6050721,304.58099408197404,1.1926616,0.1,104.01077,1638905132999
Fix,GT,34.2723306,-118.6050499,304.7429850690365,3.007665,0.1,104.31955,1638905133999
Fix,GT,34.272322,-118.6050107,305.0639721218944,4.4036517,0.1,104.43213,1638905134999
Fix,GT,34.2723133,-118.6049543,305.5029619871378,6.0494323,0.1,98.45819,1638905135999
Fix,GT,34.2723167,-118.6048828,306.0689478404522,7.09999,0.1,83.1369,1638905136999
Fix,GT,34.272342,-118.6048062,306.8029365396499,8.076813,0.1,62.987427,1638905137999
Fix,GT,34.2723943,-118.6047382,307.6709328596592,9.145302,0.1,40.970398,1638905138999
Fix,GT,34.2724722,-118.6046865,308.5459283269644,10.635411,0.1,24.330597,1638905139999
Fix,GT,34.2725694,-118.6046475,309.45992532539367,12.017403,0.1,16.716644,1638905140999
Fix,GT,34.2726784,-118.6046124,310.4539166684151,13.114289,0.1,14.034943,1638905141999
Fix,GT,34.2727993,-118.6045778,311.5189127295017,14.455458,0.1,12.69696,1638905142999
Fix,GT,34.2729327,-118.6045442,312.6919022030831,15.7561245,0.1,11.311371,1638905143999
Fix,GT,34.273077,-118.6045126,313.9298972788453,16.701431,0.1,9.037842,1638905144999
Fix,GT,34.27323,-118.604491,315.1738939361572,17.374062,0.1,4.7782593,1638905145999
Fix,GT,34.273389,-118.6044836,316.4268922309876,17.914057,0.1,0.21401978,1638905146999
Fix,GT,34.2735523,-118.6044916,317.7398913544417,18.187735,0.1,355.9423,1638905147999
Fix,GT,34.2737122,-118.6045103,318.9888947081566,17.387743,0.1,353.5376,1638905148999
Fix,GT,34.2738635,-118.6045328,320.14890327399974,16.419008,0.1,352.49146,1638905149999
Fix,GT,34.2740076,-118.6045553,321.2359042317271,16.05765,0.1,352.4831,1638905150999
Fix,GT,34.2741544,-118.6045781,322.3088982461095,16.828197,0.1,352.45697,1638905151999
Fix,GT,34.274303,-118.6046016,323.4798965746165,16.280134,0.1,352.2284,1638905152999
Fix,GT,34.2744444,-118.6046245,324.6149054825306,15.353424,0.1,352.121,1638905153999
Fix,GT,34.2745771,-118.6046461,325.6869065357447,14.347548,0.1,352.21393,1638905154999
Fix,GT,34.2747009,-118.6046658,326.7199085009098,13.341129,0.1,352.4178,1638905155999
Fix,GT,34.2748157,-118.6046838,327.7019114232063,12.366666,0.1,352.4389,1638905156999
Fix,GT,34.2749247,-118.604701,328.5879225905538,12.163412,0.1,352.30994,1638905157999
Fix,GT,34.275035,-118.604719,329.48491559052474,12.462474,0.1,352.08047,1638905158999
Fix,GT,34.2751459,-118.6047378,330.4229094138146,12.290682,0.1,351.8283,1638905159999
Fix,GT,34.2752547,-118.6047561,331.332910604477,12.107596,0.1,351.9396,1638905160999
Fix,GT,34.2753625,-118.6047742,332.2229137041569,11.999093,0.1,351.93686,1638905161999
Fix,GT,34.2754668,-118.604791,333.08991874265666,11.290922,0.1,352.5319,1638905162999
Fix,GT,34.275566,-118.6048067,333.89792100828885,11.039371,0.1,352.28802,1638905163999
Fix,GT,34.2756655,-118.6048232,334.72692043936246,11.232126,0.1,352.05505,1638905164999
Fix,GT,34.2757662,-118.6048398,335.5749169793129,11.244562,0.1,352.04962,1638905165999
Fix,GT,34.2758648,-118.6048556,336.4029212557077,10.867287,0.1,352.5459,1638905166999
Fix,GT,34.2759602,-118.6048697,337.1749226537943,10.389178,0.1,353.05206,1638905167999
Fix,GT,34.27605,-118.6048819,337.90093000388146,9.622748,0.1,353.58517,1638905168999
Fix,GT,34.2761335,-118.6048925,338.56593150264024,9.113214,0.1,354.05966,1638905169999
Fix,GT,34.2762117,-118.6049014,339.16094602644444,8.232178,0.1,354.52145,1638905170999
Fix,GT,34.2762801,-118.6049085,339.63895773017407,7.071457,0.1,354.97,1638905171999
Fix,GT,34.2763397,-118.6049137,340.0459614976644,6.213031,0.1,355.98245,1638905172999
Fix,GT,34.2763925,-118.604917,340.377971437931,5.4799204,0.1,357.028,1638905173999
Fix,GT,34.2764425,-118.6049188,340.66696919393536,5.7375493,0.1,358.19556,1638905174999
Fix,GT,34.2764937,-118.6049197,340.9629731216431,5.484653,0.1,359.07486,1638905175999
Fix,GT,34.2765432,-118.6049203,341.2159729434252,5.796082,0.1,359.44214,1638905176999
Fix,GT,34.2765984,-118.6049203,341.5209706718922,6.187048,0.1,0.06719971,1638905177999
Fix,GT,34.2766531,-118.6049193,341.8069746956826,6.140639,0.1,0.7720947,1638905178999
Fix,GT,34.2767119,-118.6049178,342.10097453260425,6.9378257,0.1,1.1519165,1638905179999
Fix,GT,34.2767776,-118.6049151,342.4089658241272,7.470952,0.1,2.1710205,1638905180999
Fix,GT,34.2768475,-118.60491,342.69797097903484,8.098281,0.1,3.7829895,1638905181999
Fix,GT,34.2769215,-118.6049018,342.9849686305523,8.4387865,0.1,5.730255,1638905182999
Fix,GT,34.2769977,-118.6048909,343.2429749631285,8.448556,0.1,7.0646057,1638905183999
Fix,GT,34.2770707,-118.6048785,343.4799791882634,7.7634344,0.1,8.368591,1638905184999
Fix,GT,34.2771356,-118.604863,343.63398677277564,7.0085993,0.1,12.724213,1638905185999
Fix,GT,34.2771917,-118.6048336,343.66300887298587,6.6989126,0.1,27.842468,1638905186999
Fix,GT,34.2772339,-118.6047808,343.57601897060874,6.954652,0.1,51.806946,1638905187999
Fix,GT,34.2772526,-118.6047061,343.35900785940885,7.49732,0.1,80.16434,1638905188999
Fix,GT,34.2772434,-118.6046203,343.2400022592545,8.624808,0.1,101.43274,1638905189999
Fix,GT,34.2772215,-118.6045206,343.4119681785106,10.371796,0.1,104.47388,1638905190999
Fix,GT,34.277195,-118.6044039,343.87293026012185,11.936418,0.1,105.46002,1638905191999
Fix,GT,34.2771647,-118.6042737,344.4439390462041,12.792633,0.1,105.68414,1638905192999
Fix,GT,34.2771334,-118.6041401,344.9479444646835,12.612961,0.1,105.73993,1638905193999
Fix,GT,34.2771029,-118.604011,345.37895344638827,12.149983,0.1,105.77484,1638905194999
Fix,GT,34.2770729,-118.6038825,345.7519637103081,12.594964,0.1,105.42441,1638905195999
Fix,GT,34.2770406,-118.6037443,346.07495407557485,14.082965,0.1,105.739624,1638905196999
Fix,GT,34.2770037,-118.6035894,346.3789656540156,15.3652525,0.1,105.9212,1638905197999
Fix,GT,34.2769647,-118.6034294,346.6059785584212,15.314314,0.1,106.6232,1638905198999
Fix,GT,34.2769243,-118.6032714,346.715995208025,15.139369,0.1,107.25897,1638905199999
Fix,GT,34.276883,-118.6031139,346.7320072294474,15.351245,0.1,107.39383,1638905200999
Fix,GT,34.2768407,-118.6029527,346.65002059894795,15.82211,0.1,107.479126,1638905201999
Fix,GT,34.2767965,-118.6027854,346.49402924537657,16.372526,0.1,107.65491,1638905202999
Fix,GT,34.2767512,-118.6026188,346.31802573364973,15.836776,0.1,108.47128,1638905203999
Fix,GT,34.2767045,-118.6024596,346.0010480583906,15.289976,0.1,110.09662,1638905204999
Fix,GT,34.2766557,-118.6023049,345.5630681516528,15.30475,0.1,110.91519,1638905205999
Fix,GT,34.276604,-118.6021469,345.0650622957945,16.092833,0.1,111.51782,1638905206999
Fix,GT,34.2765485,-118.6019776,344.5540701551437,17.470213,0.1,111.45831,1638905207999
Fix,GT,34.2764873,-118.6017916,343.98107810044286,19.315924,0.1,111.57184,1638905208999
Fix,GT,34.2764209,-118.6015901,343.3630835876465,20.58326,0.1,111.659485,1638905209999
Fix,GT,34.2763501,-118.6013774,342.6770865867138,21.653801,0.1,111.861725,1638905210999
Fix,GT,34.2762741,-118.6011529,341.9950857726336,22.967838,0.1,112.416626,1638905211999
Fix,GT,34.2761919,-118.600919,341.25109652823204,23.760513,0.1,113.27255,1638905212999
Fix,GT,34.2761042,-118.6006792,340.4921009193659,24.489449,0.1,113.917206,1638905213999
Fix,GT,34.2760126,-118.6004334,339.7031014540196,25.164389,0.1,114.032684,1638905214999
Fix,GT,34.2759192,-118.6001803,338.8791033009291,25.86029,0.1,113.69711,1638905215999
Fix,GT,34.2758251,-118.5999188,338.0461130385399,26.681879,0.1,112.8475,1638905216999
Fix,GT,34.2757314,-118.5996461,337.20411362802986,27.701792,0.1,112.07327,1638905217999
Fix,GT,34.275635,-118.5993628,336.32111554044485,28.532534,0.1,112.554565,1638905218999
Fix,GT,34.275535,-118.599077,335.4271268216968,28.582104,0.1,113.0076,1638905219999
Fix,GT,34.2754327,-118.598792,334.5301207584142,28.583883,0.1,113.602295,1638905220999
Fix,GT,34.2753292,-118.5985081,333.630122723937,28.525047,0.1,113.62976,1638905221999
Fix,GT,34.2752254,-118.5982249,332.7041274197102,28.472666,0.1,113.86987,1638905222999
Fix,GT,34.2751213,-118.5979427,331.79711988973617,28.41469,0.1,113.95175,1638905223999
Fix,GT,34.2750172,-118.5976609,330.8861218568684,28.391933,0.1,113.902374,1638905224999
Fix,GT,34.2749131,-118.5973795,329.959126600504,28.370157,0.1,114.02368,1638905225999
Fix,GT,34.2748083,-118.5970987,329.037129997015,28.338842,0.1,114.323,1638905226999
Fix,GT,34.2747027,-118.5968202,328.1321292459965,27.99194,0.1,114.67758,1638905227999
Fix,GT,34.274598,-118.5965442,327.32510893917083,27.925392,0.1,114.14691,1638905228999
Fix,GT,34.2744962,-118.5962675,326.7800659649968,27.801949,0.1,113.74716,1638905229999
Fix,GT,34.2743966,-118.5959916,326.4790296189189,27.611147,0.1,113.17328,1638905230999
Fix,GT,34.2743006,-118.5957162,326.07604960268736,27.407515,0.1,112.36047,1638905231999
Fix,GT,34.2742087,-118.5954409,325.64205269074444,27.298765,0.1,111.461426,1638905232999
Fix,GT,34.2741208,-118.5951622,325.2060643891096,27.697186,0.1,109.7511,1638905233999
Fix,GT,34.2740422,-118.5948728,324.8100618246794,28.459179,0.1,106.989685,1638905234999
Fix,GT,34.2739685,-118.5945705,324.4710491176844,29.626432,0.1,105.807434,1638905235999
Fix,GT,34.2738944,-118.5942544,324.20603193151953,30.856243,0.1,105.82074,1638905236999
Fix,GT,34.2738189,-118.593925,323.94003500032426,32.097584,0.1,104.81439,1638905237999
Fix,GT,34.2737465,-118.5935822,323.6740395588279,32.978924,0.1,103.716125,1638905238999
Fix,GT,34.2736776,-118.5932295,323.40904121589665,33.737408,0.1,102.603485,1638905239999
Fix,GT,34.2736127,-118.5928672,323.11306802713875,34.55475,0.1,101.7735,1638905240999
Fix,GT,34.2735506,-118.5924948,322.7230624021292,35.385136,0.1,100.57034,1638905241999
Fix,GT,34.2734963,-118.5921127,322.42304179167746,35.99367,0.1,98.51535,1638905242999
Fix,GT,34.2734522,-118.5917224,322.15002848887445,36.464596,0.1,96.85962,1638905243999
Fix,GT,34.2734168,-118.591328,321.8530557341576,36.580048,0.1,95.401215,1638905244999
Fix,GT,34.2733899,-118.5909319,321.58203934121127,36.578552,0.1,93.74103,1638905245999
Fix,GT,34.2733726,-118.5905369,321.27206535905594,36.30188,0.1,92.192566,1638905246999
Fix,GT,34.2733637,-118.590144,320.80107481771705,36.055885,0.1,90.83499,1638905247999
Fix,GT,34.2733593,-118.5897535,320.2821042947769,35.965298,0.1,90.5376,1638905248999
Fix,GT,34.2733551,-118.5893607,319.83603697299964,36.39698,0.1,90.69394,1638905249999
Fix,GT,34.2733504,-118.588964,319.5600479711294,36.62551,0.1,90.68817,1638905250999
Fix,GT,34.2733455,-118.5885662,319.2940295318961,36.63325,0.1,90.7616,1638905251999
Fix,GT,34.2733409,-118.5881689,319.068031222105,36.50903,0.1,90.70825,1638905252999
Fix,GT,34.2733363,-118.5877742,318.8710266563296,36.219852,0.1,90.73959,1638905253999
Fix,GT,34.2733312,-118.5873816,318.67802992260454,36.147953,0.1,90.8638,1638905254999
Fix,GT,34.2733261,-118.5869888,318.536022143364,36.21787,0.1,90.753845,1638905255999
Fix,GT,34.2733216,-118.5865948,318.44401588583,36.36467,0.1,90.73993,1638905256999
Fix,GT,34.2733168,-118.5861992,318.3350175491572,36.50406,0.1,90.77106,1638905257999
Fix,GT,34.2733118,-118.5858026,318.2610192267895,36.523174,0.1,90.787415,1638905258999
Fix,GT,34.2733067,-118.5854065,318.153008045733,36.417793,0.1,90.828064,1638905259999
Fix,GT,34.2733019,-118.585012,318.0520193912983,36.248657,0.1,90.62079,1638905260999
Fix,GT,34.2732984,-118.5846195,317.96401785075665,36.00418,0.1,90.5477,1638905261999
Fix,GT,34.2732946,-118.5842304,317.86501466685536,35.66391,0.1,90.65192,1638905262999
Fix,GT,34.2732903,-118.583845,317.7720196380615,35.32325,0.1,90.70596,1638905263999
Fix,GT,34.2732869,-118.5834634,317.67701479023697,35.00568,0.1,90.17792,1638905264999
Fix,GT,34.273286,-118.5830836,317.5790264034271,34.947067,0.1,90.00049,1638905265999
Fix,GT,34.2732856,-118.5827049,317.48701491361857,34.80605,0.1,89.96854,1638905266999
Fix,GT,34.2732853,-118.5823274,317.40501497530937,34.717033,0.1,89.94263,1638905267999
Fix,GT,34.2732861,-118.581952,317.3150183779001,34.41944,0.1,89.65149,1638905268999
Fix,GT,34.2732874,-118.5815799,317.2450100654364,34.109413,0.1,89.627594,1638905269999
Fix,GT,34.2732895,-118.5812114,317.1440218983293,33.749416,0.1,89.448364,1638905270999
Fix,GT,34.2732924,-118.580847,317.0660186040997,33.384235,0.1,89.29343,1638905271999
Fix,GT,34.2732957,-118.5804846,316.95601528322703,33.432022,0.1,89.28409,1638905272999
Fix,GT,34.2732992,-118.5801211,316.90101023030286,33.517986,0.1,89.28833,1638905273999
Fix,GT,34.2733028,-118.579757,316.8110136947632,33.53677,0.1,89.156494,1638905274999
Fix,GT,34.2733074,-118.5793934,316.75001718699934,33.406036,0.1,88.91925,1638905275999
Fix,GT,34.2733133,-118.5790319,316.6560120792985,33.161095,0.1,88.60245,1638905276999
Fix,GT,34.2733206,-118.5786739,316.56901905649903,32.797653,0.1,88.35959,1638905277999
Fix,GT,34.2733283,-118.5783198,316.4850208711624,32.437542,0.1,88.55365,1638905278999
Fix,GT,34.2733345,-118.5779697,316.3670261926651,32.09971,0.1,88.868164,1638905279999
Fix,GT,34.2733406,-118.5776214,316.294991235137,32.1094,0.1,88.38019,1638905280999
Fix,GT,34.2733487,-118.5772722,316.20501583844424,32.213642,0.1,88.25354,1638905281999
Fix,GT,34.273357,-118.5769232,316.12701236718897,31.910677,0.1,88.27713,1638905282999
Fix,GT,34.2733652,-118.5765849,316.0490195095539,30.333311,0.1,88.279144,1638905283999
Fix,GT,34.2733723,-118.5762629,315.9680124627352,29.215895,0.1,88.47885,1638905284999
Fix,GT,34.2733782,-118.575949,315.8910125111342,28.640059,0.1,88.797424,1638905285999
Fix,GT,34.2733821,-118.5756411,315.80501614689825,28.064787,0.1,89.35773,1638905286999
Fix,GT,34.2733838,-118.5753386,315.7320144076348,27.696669,0.1,89.4361,1638905287999
Fix,GT,34.2733856,-118.5750395,315.6490180786848,27.39438,0.1,89.726776,1638905288999
Fix,GT,34.2733861,-118.5747438,315.545030849278,27.08006,0.1,89.82715,1638905289999
Fix,GT,34.2733865,-118.5744514,315.50701457214353,26.78912,0.1,89.826996,1638905290999
Fix,GT,34.2733865,-118.5741609,315.4250109698773,26.821943,0.1,89.82529,1638905291999
Fix,GT,34.2733895,-118.5738673,315.3020201874972,27.27526,0.1,88.63373,1638905292999
Fix,GT,34.2733968,-118.5735669,315.2910036841631,28.094082,0.1,88.10632,1638905293999
Fix,GT,34.2734038,-118.5732588,315.24101109361646,28.630915,0.1,88.56485,1638905294999
Fix,GT,34.2734081,-118.572946,315.194007422924,28.899109,0.1,89.52295,1638905295999
Fix,GT,34.2734079,-118.5726323,315.12601862645147,28.869678,0.1,90.34198,1638905296999
Fix,GT,34.2734056,-118.5723174,315.0300168254971,29.185812,0.1,90.369415,1638905297999
Fix,GT,34.2734032,-118.5719983,314.9580075056553,29.58562,0.1,90.528625,1638905298999
Fix,GT,34.2733994,-118.5716749,314.89401506567,29.985502,0.1,90.93591,1638905299999
Fix,GT,34.2733937,-118.5713471,314.8270151205063,30.40398,0.1,91.27054,1638905300999
Fix,GT,34.2733868,-118.5710152,314.7550151758194,30.668669,0.1,91.42932,1638905301999
Fix,GT,34.2733785,-118.5706825,314.6790171344876,30.609543,0.1,91.81116,1638905302999
Fix,GT,34.2733689,-118.5703517,314.6030191062689,30.356367,0.1,91.746765,1638905303999
Fix,GT,34.2733602,-118.5700238,314.5310191754103,30.063328,0.1,91.81204,1638905304999
Fix,GT,34.2733508,-118.5696989,314.4360057730078,29.881018,0.1,91.91586,1638905305999
Fix,GT,34.2733412,-118.5693738,314.36300965595245,30.02088,0.1,92.12567,1638905306999
Fix,GT,34.2733294,-118.5690481,314.2810213191509,30.056976,0.1,92.5629,1638905307999
Fix,GT,34.273316,-118.5687231,314.2020311193466,29.836597,0.1,93.19855,1638905308999
Fix,GT,34.2732994,-118.5684016,314.1210234210491,29.500517,0.1,93.57907,1638905309999
Fix,GT,34.2732834,-118.5680836,314.046025462687,29.192192,0.1,93.30716,1638905310999
Fix,GT,34.2732677,-118.5677686,313.94501965522767,28.916399,0.1,93.29291,1638905311999
Fix,GT,34.2732524,-118.567456,313.849019723177,28.852167,0.1,93.322815,1638905312999
Fix,GT,34.2732361,-118.5671414,313.7999920833111,29.229485,0.1,93.66412,1638905313999
Fix,GT,34.2732184,-118.566823,313.70702383303643,29.557703,0.1,93.739624,1638905314999
Fix,GT,34.2732001,-118.5665006,313.6389980071187,29.953363,0.1,93.86612,1638905315999
Fix,GT,34.2731808,-118.566174,313.5910099986792,30.35581,0.1,94.081726,1638905316999
Fix,GT,34.27316,-118.5658433,313.51001605224604,30.716002,0.1,94.489624,1638905317999
Fix,GT,34.2731366,-118.5655096,313.4330140941143,30.92853,0.1,94.94504,1638905318999
Fix,GT,34.2731127,-118.5651743,313.3560181826949,31.06575,0.1,94.500916,1638905319999
Fix,GT,34.2730908,-118.5648372,313.28701419049503,31.209398,0.1,94.3512,1638905320999
Fix,GT,34.273069,-118.5644987,313.1710183060765,31.320864,0.1,94.45148,1638905321999
Fix,GT,34.273046,-118.5641596,313.11901428604125,31.336884,0.1,94.742676,1638905322999
Fix,GT,34.2730215,-118.5638207,313.06301842999454,31.313524,0.1,95.08746,1638905323999
Fix,GT,34.2729949,-118.5634824,312.9830123274326,31.283018,0.1,95.62271,1638905324999
Fix,GT,34.2729656,-118.5631447,312.9020144299865,31.245674,0.1,96.15735,1638905325999
Fix,GT,34.2729345,-118.5628077,312.8160248200893,31.223806,0.1,96.40912,1638905326999
Fix,GT,34.2729025,-118.5624703,312.73202075195314,31.34567,0.1,96.348694,1638905327999
Fix,GT,34.2728706,-118.5621312,312.6480208210945,31.502739,0.1,96.49054,1638905328999
Fix,GT,34.2728372,-118.5617905,312.57400835561754,31.670664,0.1,96.73105,1638905329999
Fix,GT,34.2728032,-118.5614482,312.49001047879455,31.810688,0.1,96.77545,1638905330999
Fix,GT,34.2727687,-118.5611049,312.3660294365883,31.887226,0.1,96.855896,1638905331999
Fix,GT,34.2727339,-118.5607606,312.1540485177636,31.989828,0.1,96.819855,1638905332999
Fix,GT,34.2726992,-118.5604154,311.8560740712881,32.052353,0.1,96.85196,1638905333999
Fix,GT,34.2726642,-118.5600697,311.4590934197903,32.101315,0.1,96.8703,1638905334999
Fix,GT,34.2726289,-118.5597234,310.96511715501543,32.148632,0.1,96.92636,1638905335999
Fix,GT,34.2725934,-118.5593768,310.38213462382555,32.17105,0.1,97.03528,1638905336999
Fix,GT,34.2725574,-118.5590308,309.70416078054905,32.064114,0.1,96.98306,1638905337999
Fix,GT,34.2725225,-118.558685,308.9052150535583,32.130104,0.1,96.76953,1638905338999
Fix,GT,34.2724883,-118.558338,308.0131984853744,32.177803,0.1,96.84784,1638905339999
Fix,GT,34.272454,-118.5579916,307.18618180155755,32.06368,0.1,96.2793,1638905340999
Fix,GT,34.2724223,-118.5576461,306.2962149506211,31.972456,0.1,96.58673,1638905341999
Fix,GT,34.2723874,-118.5573011,305.4481807800531,32.09756,0.1,97.06378,1638905342999
Fix,GT,34.2723519,-118.5569545,304.6261704289913,32.169193,0.1,97.013336,1638905343999
Fix,GT,34.2723169,-118.5566086,304.00814027404783,32.017517,0.1,96.94116,1638905344999
Fix,GT,34.272283,-118.556263,303.4281143290997,32.073116,0.1,96.56201,1638905345999
Fix,GT,34.2722511,-118.5559173,302.9730860141516,31.970192,0.1,95.74014,1638905346999
Fix,GT,34.2722275,-118.5555707,302.62207079696657,32.167397,0.1,93.68643,1638905347999
Fix,GT,34.2722137,-118.55522,302.35605326223373,32.486504,0.1,91.589966,1638905348999
Fix,GT,34.2722106,-118.5548654,302.1820333926082,32.843243,0.1,89.5437,1638905349999
Fix,GT,34.2722189,-118.5545071,302.11200893211367,33.19133,0.1,87.4209,1638905350999
Fix,GT,34.2722375,-118.5541464,302.17397760057446,33.343178,0.1,85.379395,1638905351999
Fix,GT,34.2722666,-118.5537862,302.3249640522003,33.321716,0.1,83.47522,1638905352999
Fix,GT,34.2723054,-118.5534272,302.4529391530156,33.34391,0.1,81.57864,1638905353999
Fix,GT,34.2723544,-118.5530702,302.6129751344324,33.323063,0.1,79.46417,1638905354999
Fix,GT,34.2724148,-118.5527162,302.7469773263931,33.186543,0.1,77.27362,1638905355999
Fix,GT,34.272486,-118.5523682,302.9039681609869,32.83386,0.1,74.861145,1638905356999
Fix,GT,34.2725682,-118.5520269,303.03096806502344,32.716343,0.1,72.7861,1638905357999
Fix,GT,34.2726586,-118.5516881,303.09999084830287,32.822834,0.1,71.43085,1638905358999
Fix,GT,34.2727554,-118.5513504,303.1449908208847,32.993904,0.1,70.43182,1638905359999
Fix,GT,34.2728551,-118.551012,303.1989838881493,33.100815,0.1,70.40094,1638905360999
Fix,GT,34.2729547,-118.5506744,303.2449884572625,32.85657,0.1,70.143616,1638905361999
Fix,GT,34.2730551,-118.5503408,303.28299305397275,32.49113,0.1,69.894196,1638905362999
Fix,GT,34.2731551,-118.5500115,303.3469860664606,32.117363,0.1,69.8154,1638905363999
Fix,GT,34.2732535,-118.5496836,303.4399790380001,32.17017,0.1,70.21167,1638905364999
Fix,GT,34.2733515,-118.5493545,303.5409789757729,32.190254,0.1,70.07767,1638905365999
Fix,GT,34.2734496,-118.5490266,303.6369765712023,31.974623,0.1,70.12155,1638905366999
Fix,GT,34.2735469,-118.5487018,303.73497885239124,31.614323,0.1,69.94983,1638905367999
Fix,GT,34.2736433,-118.5483809,303.8529693643451,31.229725,0.1,70.22568,1638905368999
Fix,GT,34.2737356,-118.5480622,303.97096927523614,31.028852,0.1,71.20636,1638905369999
Fix,GT,34.2738225,-118.5477414,304.13795970493555,31.08831,0.1,72.74347,1638905370999
Fix,GT,34.2739002,-118.547417,304.31395245814326,31.170864,0.1,74.77075,1638905371999
Fix,GT,34.27397,-118.547088,304.53194516783947,31.344591,0.1,76.39227,1638905372999
Fix,GT,34.2740321,-118.5467556,304.82490675640105,31.402788,0.1,78.19177,1638905373999
Fix,GT,34.2740858,-118.5464207,305.17090648674963,31.426767,0.1,79.81372,1638905374999
Fix,GT,34.2741309,-118.5460837,305.59188698238137,31.448294,0.1,81.76776,1638905375999
Fix,GT,34.2741675,-118.5457452,306.07787460589407,31.399364,0.1,83.27069,1638905376999
Fix,GT,34.2741964,-118.5454071,306.63285731798413,31.168901,0.1,84.865265,1638905377999
Fix,GT,34.2742174,-118.5450712,307.2438472127915,30.92034,0.1,86.37039,1638905378999
Fix,GT,34.2742327,-118.5447367,307.86884921669963,30.793299,0.1,87.02313,1638905379999
Fix,GT,34.2742474,-118.5444032,308.39089512717726,30.726023,0.1,86.8844,1638905380999
Fix,GT,34.2742617,-118.5440705,308.9728459172845,30.606594,0.1,86.99567,1638905381999
Fix,GT,34.2742757,-118.5437393,309.4248920850754,30.484455,0.1,87.05844,1638905382999
Fix,GT,34.2742894,-118.5434093,309.86589670240875,30.372282,0.1,87.112915,1638905383999
Fix,GT,34.2743034,-118.5430804,310.2399062798023,30.282225,0.1,86.92804,1638905384999
Fix,GT,34.274318,-118.542753,310.58690107297895,30.104242,0.1,86.833374,1638905385999
Fix,GT,34.2743328,-118.5424274,310.84895288056134,29.958427,0.1,86.804565,1638905386999
Fix,GT,34.2743472,-118.5421038,311.11393782788514,29.724985,0.1,87.073975,1638905387999
Fix,GT,34.2743601,-118.541782,311.3009725688696,29.637724,0.1,87.25882,1638905388999
Fix,GT,34.2743731,-118.5414606,311.41797499346734,29.647764,0.1,87.022644,1638905389999
Fix,GT,34.2743873,-118.5411387,311.47400250750775,29.728416,0.1,86.94397,1638905390999
Fix,GT,34.2744009,-118.5408158,311.53098994278906,29.826767,0.1,87.17572,1638905391999
Fix,GT,34.274414,-118.5404918,311.5530050424337,29.891611,0.1,87.14267,1638905392999
Fix,GT,34.2744277,-118.5401673,311.50902275264264,29.977854,0.1,86.944916,1638905393999
Fix,GT,34.2744433,-118.5398415,311.40203548812866,30.113039,0.1,86.24829,1638905394999
Fix,GT,34.2744643,-118.5395145,311.2930279595852,30.30468,0.1,84.96466,1638905395999
Fix,GT,34.2744901,-118.5391858,311.1690356808901,30.511997,0.1,84.02576,1638905396999
Fix,GT,34.2745215,-118.5388556,311.04602555549144,30.675743,0.1,82.76312,1638905397999
Fix,GT,34.2745591,-118.5385251,310.91304356086255,30.75344,0.1,81.46335,1638905398999
Fix,GT,34.2746028,-118.538195,310.76903596878054,30.82544,0.1,80.35535,1638905399999
Fix,GT,34.2746519,-118.5378651,310.6290412168503,30.84461,0.1,79.26068,1638905400999
Fix,GT,34.2747057,-118.5375377,310.49004391044383,30.64897,0.1,78.17053,1638905401999
Fix,GT,34.2747656,-118.5372127,310.3390517964363,30.736723,0.1,76.7388,1638905402999
Fix,GT,34.274832,-118.5368876,310.2340155804157,30.917126,0.1,75.570435,1638905403999
Fix,GT,34.2749042,-118.5365634,310.18200520718096,30.848907,0.1,74.363525,1638905404999
Fix,GT,34.2749815,-118.5362428,310.21797911691664,30.68236,0.1,73.20831,1638905405999
Fix,GT,34.2750635,-118.535925,310.3079712097049,30.619843,0.1,72.1015,1638905406999
Fix,GT,34.2751512,-118.5356101,310.4799553893805,30.575575,0.1,70.70386,1638905407999
Fix,GT,34.2752449,-118.5352979,310.7339131747484,30.556566,0.1,69.600525,1638905408999
Fix,GT,34.2753427,-118.5349883,311.0619155883789,30.462437,0.1,68.42099,1638905409999
Fix,GT,34.2754464,-118.5346829,311.4428809877038,30.286827,0.1,67.00995,1638905410999
Fix,GT,34.2755551,-118.5343824,311.8448859849573,30.088844,0.1,65.94623,1638905411999
Fix,GT,34.2756664,-118.5340866,312.2329096134901,29.709309,0.1,65.131134,1638905412999
Fix,GT,34.2757795,-118.5337957,312.5769040498733,29.497913,0.1,64.621185,1638905413999
Fix,GT,34.275893,-118.5335074,312.9229091473818,29.301075,0.1,64.53528,1638905414999
Fix,GT,34.2760062,-118.5332201,313.276914270401,29.27583,0.1,64.53424,1638905415999
Fix,GT,34.2761193,-118.5329328,313.59389793789387,29.290611,0.1,64.4613,1638905416999
Fix,GT,34.2762327,-118.5326449,313.959900370121,29.393864,0.1,64.64722,1638905417999
Fix,GT,34.2763456,-118.5323559,314.3668947150708,29.396315,0.1,64.70911,1638905418999
Fix,GT,34.2764584,-118.5320677,314.75389174127577,29.250725,0.1,64.675964,1638905419999
Fix,GT,34.2765702,-118.5317819,315.12591317558287,28.928934,0.1,64.65036,1638905420999
Fix,GT,34.2766815,-118.5314986,315.4859047937989,28.842197,0.1,64.47473,1638905421999
Fix,GT,34.276793,-118.5312169,315.835907280922,28.577993,0.1,64.48126,1638905422999
Fix,GT,34.2769027,-118.5309384,316.1629125137329,28.231094,0.1,64.51712,1638905423999
Fix,GT,34.2770121,-118.5306619,316.4719232592583,28.226862,0.1,64.32089,1638905424999
Fix,GT,34.2771224,-118.5303849,316.7639148245454,28.286327,0.1,64.35898,1638905425999
Fix,GT,34.2772312,-118.5301088,317.00694215530154,27.988771,0.1,64.64566,1638905426999
Fix,GT,34.2773377,-118.5298354,317.2229337286949,27.65297,0.1,64.888855,1638905427999
Fix,GT,34.2774416,-118.5295631,317.4399307960272,27.61991,0.1,65.661255,1638905428999
Fix,GT,34.2775411,-118.5292874,317.63994727474454,27.763027,0.1,67.32712,1638905429999
Fix,GT,34.2776334,-118.5290062,317.8629248879552,27.938852,0.1,69.18634,1638905430999
Fix,GT,34.277719,-118.52872,318.05395259070394,28.067005,0.1,70.95822,1638905431999
Fix,GT,34.2777981,-118.52843,318.2029636559486,28.141403,0.1,72.41931,1638905432999
Fix,GT,34.2778704,-118.528137,318.29298038214444,28.129927,0.1,74.27365,1638905433999
Fix,GT,34.2779345,-118.5278426,318.3329915719629,27.897594,0.1,76.17938,1638905434999
Fix,GT,34.2779899,-118.5275488,318.3200140812993,27.610634,0.1,77.968994,1638905435999
Fix,GT,34.2780375,-118.5272562,318.231028231144,27.31173,0.1,79.680145,1638905436999
Fix,GT,34.2780767,-118.5269649,318.1410282990933,27.051678,0.1,81.70215,1638905437999
Fix,GT,34.2781078,-118.5266747,317.98205389964585,26.829996,0.1,83.264435,1638905438999
Fix,GT,34.2781328,-118.526386,317.81006824827193,26.688366,0.1,84.736786,1638905439999
Fix,GT,34.278151,-118.5260956,317.5770712633133,27.04854,0.1,86.367065,1638905440999
Fix,GT,34.2781625,-118.5257988,317.28408286595345,27.66902,0.1,88.115845,1638905441999
Fix,GT,34.278166,-118.5254981,316.9521031126976,27.660034,0.1,90.06134,1638905442999
Fix,GT,34.2781633,-118.525197,316.5881091016531,27.915085,0.1,90.614624,1638905443999
Fix,GT,34.2781608,-118.5248906,316.191126632452,28.546618,0.1,90.36902,1638905444999
Fix,GT,34.2781592,-118.5245767,315.7481413583756,29.067307,0.1,90.208954,1638905445999
Fix,GT,34.2781575,-118.5242603,315.2081619329453,29.274725,0.1,90.374756,1638905446999
Fix,GT,34.278155,-118.5239423,314.5841884073019,29.287376,0.1,90.50534,1638905447999
Fix,GT,34.2781523,-118.5236245,313.8842091908455,29.232569,0.1,90.481445,1638905448999
Fix,GT,34.2781497,-118.5233075,313.1562213380337,29.181288,0.1,90.46051,1638905449999
Fix,GT,34.2781466,-118.5229887,312.40322185897827,29.625652,0.1,90.71228,1638905450999
Fix,GT,34.2781419,-118.5226648,311.65323407936097,29.982798,0.1,91.319214,1638905451999
Fix,GT,34.2781332,-118.5223392,310.89522876667974,29.99274,0.1,92.12628,1638905452999
Fix,GT,34.2781218,-118.5220135,310.12823518085474,30.126663,0.1,92.54251,1638905453999
Fix,GT,34.2781084,-118.5216851,309.3582327826023,30.334276,0.1,93.05713,1638905454999
Fix,GT,34.2780918,-118.5213566,308.59022151023146,30.264334,0.1,93.78064,1638905455999
Fix,GT,34.2780716,-118.5210294,307.8242338656187,30.153502,0.1,94.566284,1638905456999
Fix,GT,34.2780485,-118.5207037,307.0492344071269,30.053165,0.1,95.04184,1638905457999
Fix,GT,34.2780236,-118.5203789,306.2902349533439,30.127798,0.1,95.359985,1638905458999
Fix,GT,34.2779974,-118.5200531,305.5182265474796,30.105013,0.1,95.375946,1638905459999
Fix,GT,34.277972,-118.5197281,304.76223005616663,30.012098,0.1,95.295746,1638905460999
Fix,GT,34.2779454,-118.5194043,303.999239572525,29.922739,0.1,95.75714,1638905461999
Fix,GT,34.2779182,-118.5190814,303.2392221118212,29.843185,0.1,95.61896,1638905462999
Fix,GT,34.277892,-118.5187593,302.5022105897665,29.777836,0.1,95.342224,1638905463999
Fix,GT,34.2778676,-118.5184362,301.8052020237446,30.047039,0.1,95.10086,1638905464999
Fix,GT,34.2778427,-118.5181084,301.14420247900483,30.577154,0.1,95.28256,1638905465999
Fix,GT,34.2778168,-118.5177755,300.46021202921867,31.00256,0.1,95.33331,1638905466999
Fix,GT,34.2777912,-118.5174381,299.761227688253,31.394865,0.1,95.20529,1638905467999
Fix,GT,34.2777669,-118.5170962,299.01523733043666,31.791891,0.1,94.42462,1638905468999
Fix,GT,34.2777456,-118.5167509,298.2562317705154,31.950087,0.1,94.14514,1638905469999
Fix,GT,34.2777252,-118.5164036,297.509210896194,32.181965,0.1,93.647156,1638905470999
Fix,GT,34.2777083,-118.5160539,296.80522362679244,32.329994,0.1,93.091064,1638905471999
Fix,GT,34.2776936,-118.5157023,296.1301995652914,32.51293,0.1,92.58554,1638905472999
Fix,GT,34.277682,-118.5153493,295.47819693756105,32.477406,0.1,91.79199,1638905473999
Fix,GT,34.2776745,-118.5149969,294.85418812423944,32.501297,0.1,91.026855,1638905474999
Fix,GT,34.2776708,-118.5146434,294.2261947240829,32.597015,0.1,90.38013,1638905475999
Fix,GT,34.27767,-118.5142895,293.61318276155,32.53109,0.1,89.82031,1638905476999
Fix,GT,34.277672,-118.513937,292.9801800649166,32.451843,0.1,89.27765,1638905477999
Fix,GT,34.2776772,-118.5135832,292.3332022424341,32.78418,0.1,88.58664,1638905478999
Fix,GT,34.2776858,-118.513225,291.6392307568789,33.17748,0.1,88.04846,1638905479999
Fix,GT,34.2776956,-118.5128649,290.88423750996594,33.15022,0.1,87.98901,1638905480999
Fix,GT,34.277706,-118.5125052,290.1322348989249,33.14994,0.1,88.026,1638905481999
Fix,GT,34.2777154,-118.5121454,289.3862260007859,33.157856,0.1,88.19815,1638905482999
Fix,GT,34.2777242,-118.5117846,288.7122076158523,33.31758,0.1,88.21124,1638905483999
Fix,GT,34.2777335,-118.5114227,288.0732049157023,33.360813,0.1,87.95593,1638905484999
Fix,GT,34.2777446,-118.5110602,287.4541958867312,33.419044,0.1,87.763306,1638905485999
Fix,GT,34.2777555,-118.5106976,286.8791899790764,33.415157,0.1,87.89041,1638905486999
Fix,GT,34.2777661,-118.5103352,286.28917769432064,33.369198,0.1,87.9292,1638905487999
Fix,GT,34.2777766,-118.5099728,285.74017172145847,33.42167,0.1,87.900024,1638905488999
Fix,GT,34.2777874,-118.5096094,285.2011497834325,33.5454,0.1,87.87811,1638905489999
Fix,GT,34.2777981,-118.509245,284.6651820429564,33.58077,0.1,87.85281,1638905490999
Fix,GT,34.2778085,-118.508881,284.16215362548826,33.50425,0.1,87.985596,1638905491999
Fix,GT,34.2778182,-118.5085178,283.62817320203783,33.431786,0.1,88.13568,1638905492999
Fix,GT,34.2778275,-118.508155,283.14615107208493,33.416775,0.1,88.17865,1638905493999
Fix,GT,34.2778374,-118.5077926,282.6551449546218,33.35573,0.1,87.92316,1638905494999
Fix,GT,34.2778481,-118.5074306,282.1721517164112,33.365387,0.1,87.870056,1638905495999
Fix,GT,34.2778592,-118.5070686,281.6521908569336,33.38105,0.1,87.759705,1638905496999
Fix,GT,34.2778705,-118.5067052,281.1741491217613,33.586136,0.1,87.88867,1638905497999
Fix,GT,34.2778805,-118.5063396,280.6621721774936,33.7967,0.1,88.09396,1638905498999
Fix,GT,34.2778907,-118.5059718,280.1371692883968,33.97423,0.1,87.81494,1638905499999
Fix,GT,34.2779016,-118.5056022,279.6201696417332,34.15383,0.1,87.956116,1638905500999
Fix,GT,34.2779119,-118.5052304,279.1061732673645,34.3475,0.1,87.96173,1638905501999
Fix,GT,34.277923,-118.5048567,278.5831703577042,34.52978,0.1,87.83887,1638905502999
Fix,GT,34.277934,-118.5044808,278.04718384599687,34.744995,0.1,87.91739,1638905503999
Fix,GT,34.2779446,-118.5041028,277.4981546186805,34.86967,0.1,88.01956,1638905504999
Fix,GT,34.2779552,-118.503724,276.98817801713943,34.9488,0.1,87.90729,1638905505999
Fix,GT,34.2779662,-118.5033442,276.4511816940308,35.05088,0.1,87.963776,1638905506999
Fix,GT,34.2779771,-118.5029634,275.9141820710301,35.103092,0.1,88.00891,1638905507999
Fix,GT,34.2779867,-118.5025833,275.28824216264485,34.908554,0.1,88.44574,1638905508999
Fix,GT,34.2779909,-118.5022056,274.6242160698176,34.672073,0.1,90.01044,1638905509999
Fix,GT,34.2779861,-118.5018294,274.0491765401364,34.663204,0.1,91.6178,1638905510999
Fix,GT,34.2779717,-118.5014534,273.5161702308655,34.608685,0.1,93.6275,1638905511999
Fix,GT,34.2779468,-118.50108,272.9891806145906,34.416386,0.1,95.404205,1638905512999
Fix,GT,34.2779128,-118.5007085,272.4641742846966,34.44418,0.1,97.094086,1638905513999
Fix,GT,34.2778683,-118.500338,271.93718807506565,34.507236,0.1,99.21942,1638905514999
Fix,GT,34.2778134,-118.4999688,271.4041817250252,34.56218,0.1,101.09195,1638905515999
Fix,GT,34.2777474,-118.4996021,270.8601888394356,34.555218,0.1,103.31952,1638905516999
Fix,GT,34.2776708,-118.4992381,270.31516895234586,34.62238,0.1,104.899994,1638905517999
Fix,GT,34.2775863,-118.4988761,269.8651151186228,34.635693,0.1,106.52664,1638905518999
Fix,GT,34.2774923,-118.4985176,269.564071246624,34.617565,0.1,108.34906,1638905519999
Fix,GT,34.2773886,-118.4981635,269.4200203976632,34.535408,0.1,110.46573,1638905520999
Fix,GT,34.2772744,-118.4978148,269.41697274827953,34.516197,0.1,112.383514,1638905521999
Fix,GT,34.2771512,-118.4974707,269.57692149502043,34.505383,0.1,114.176636,1638905522999
Fix,GT,34.277019,-118.4971319,269.8968802939057,34.43535,0.1,115.99658,1638905523999
Fix,GT,34.2768787,-118.4967992,270.3468217945098,34.29456,0.1,117.85071,1638905524999
Fix,GT,34.2767301,-118.4964736,270.95775275611885,34.138794,0.1,119.677246,1638905525999
Fix,GT,34.276573,-118.4961561,271.679748821795,33.962635,0.1,121.763885,1638905526999
Fix,GT,34.2764083,-118.4958461,272.3857655637264,33.82099,0.1,123.46863,1638905527999
Fix,GT,34.2762361,-118.4955441,273.0327754570842,33.6661,0.1,125.378235,1638905528999
Fix,GT,34.2760564,-118.4952501,273.5278407773972,33.572655,0.1,127.19495,1638905529999
Fix,GT,34.2758698,-118.4949639,273.93486473959683,33.479534,0.1,129.14069,1638905530999
Fix,GT,34.2756759,-118.4946856,274.2539061747193,33.430744,0.1,130.67548,1638905531999
Fix,GT,34.2754756,-118.4944149,274.5608990241885,33.37067,0.1,132.67291,1638905532999
Fix,GT,34.2752688,-118.494152,274.64898604488377,33.36598,0.1,134.0758,1638905533999
Fix,GT,34.2750584,-118.4938933,274.9838776507377,33.30087,0.1,134.48523,1638905534999
Fix,GT,34.2748481,-118.4936363,275.2688213700652,33.20886,0.1,134.59662,1638905535999
Fix,GT,34.2746386,-118.4933798,275.04001754730945,33.097767,0.1,134.35138,1638905536999
Fix,GT,34.2744295,-118.4931229,274.7442777889967,33.195656,0.1,134.36304,1638905537999
Fix,GT,34.2742192,-118.4928648,274.4131691093445,33.415207,0.1,134.50507,1638905538999
Fix,GT,34.2740069,-118.492605,273.98713767099383,33.715958,0.1,134.42847,1638905539999
Fix,GT,34.2737932,-118.4923435,273.5222086759209,33.859123,0.1,134.57544,1638905540999
Fix,GT,34.273579,-118.4920823,273.0661700992584,33.71503,0.1,134.50134,1638905541999
Fix,GT,34.2733668,-118.491822,272.45025564241405,33.526745,0.1,134.28357,1638905542999
Fix,GT,34.2731551,-118.4915609,271.7412454636097,33.69689,0.1,134.2442,1638905543999
Fix,GT,34.2729425,-118.4912986,271.038256629467,33.80216,0.1,134.22693,1638905544999
Fix,GT,34.2727294,-118.4910356,270.3143535500169,33.93269,0.1,134.27563,1638905545999
Fix,GT,34.2725143,-118.4907716,269.5822898234129,34.192554,0.1,134.44247,1638905546999
Fix,GT,34.2722974,-118.4905059,268.9412186838388,34.38897,0.1,134.49829,1638905547999
Fix,GT,34.2720795,-118.4902398,268.1932837502956,34.49329,0.1,134.54257,1638905548999
Fix,GT,34.2718603,-118.4899721,267.4851907274127,34.77418,0.1,134.4654,1638905549999
Fix,GT,34.27164,-118.4897018,266.8801730661392,35.01271,0.1,134.30746,1638905550999
Fix,GT,34.2714188,-118.4894292,266.3401481083631,35.180515,0.1,134.3227,1638905551999
Fix,GT,34.2711962,-118.4891561,265.9101809597016,35.31495,0.1,134.43564,1638905552999
Fix,GT,34.2709722,-118.4888822,265.5490979049206,35.49615,0.1,134.51605,1638905553999
Fix,GT,34.2707469,-118.4886069,265.30011625480654,35.696575,0.1,134.4494,1638905554999
Fix,GT,34.270521,-118.4883304,265.0540800759792,35.73871,0.1,134.52313,1638905555999
Fix,GT,34.2702945,-118.4880543,264.8920619944334,35.761745,0.1,134.59875,1638905556999
Fix,GT,34.2700678,-118.4877777,264.75604384231565,35.81958,0.1,134.45563,1638905557999
Fix,GT,34.2698415,-118.4875001,264.6199963396192,35.82131,0.1,134.46329,1638905558999
Fix,GT,34.2696154,-118.4872228,264.4870770131945,35.80261,0.1,134.38141,1638905559999
Fix,GT,34.2693891,-118.4869455,264.3620698088408,35.803425,0.1,134.47964,1638905560999
Fix,GT,34.2691629,-118.4866689,264.2181398758889,35.64269,0.1,134.51035,1638905561999
Fix,GT,34.2689383,-118.486394,264.2249446821213,35.446106,0.1,134.36862,1638905562999
Fix,GT,34.268716,-118.4861186,264.3259704422951,35.292095,0.1,133.98401,1638905563999
Fix,GT,34.2684958,-118.485843,264.3389962983728,35.167484,0.1,133.89236,1638905564999
Fix,GT,34.2682766,-118.4855681,264.29601854240894,35.05362,0.1,133.73083,1638905565999
Fix,GT,34.2680615,-118.4852902,264.2070408680439,34.92366,0.1,132.01862,1638905566999
Fix,GT,34.267856,-118.4850038,264.33978783851865,34.788548,0.1,129.52295,1638905567999
Fix,GT,34.26766,-118.4847097,264.1410932261348,34.697746,0.1,127.75366,1638905568999
Fix,GT,34.2674729,-118.4844078,263.8972204180956,34.701416,0.1,125.18396,1638905569999
Fix,GT,34.2672973,-118.4840956,263.65712725162507,34.76276,0.1,122.97104,1638905570999
Fix,GT,34.2671322,-118.4837746,263.598029996872,34.81993,0.1,120.70633,1638905571999
Fix,GT,34.2669753,-118.4834467,263.44705259048936,34.908028,0.1,118.89496,1638905572999
Fix,GT,34.2668283,-118.4831113,263.35502634364366,34.9161,0.1,116.54941,1638905573999
Fix,GT,34.2666924,-118.4827696,263.25404901224374,34.881035,0.1,114.55063,1638905574999
Fix,GT,34.2665663,-118.4824228,263.2050037770271,34.849586,0.1,112.54437,1638905575999
Fix,GT,34.2664505,-118.4820709,263.1440075678825,34.884914,0.1,110.298676,1638905576999
Fix,GT,34.2663475,-118.4817126,262.92501137220864,34.946495,0.1,107.669495,1638905577999
Fix,GT,34.2662571,-118.4813492,262.82805696386094,34.94157,0.1,105.61542,1638905578999
Fix,GT,34.2661775,-118.4809823,262.7200456540585,34.901703,0.1,103.456116,1638905579999
Fix,GT,34.26611,-118.4806124,262.61602667951587,34.843136,0.1,101.19656,1638905580999
Fix,GT,34.2660541,-118.4802413,262.6170725460649,34.642868,0.1,99.25516,1638905581999
Fix,GT,34.2660093,-118.4798699,262.36619125342366,34.52651,0.1,97.173584,1638905582999
Fix,GT,34.2659759,-118.4794976,262.234015327692,34.46834,0.1,95.12308,1638905583999
Fix,GT,34.2659533,-118.4791238,262.1290882946253,34.584118,0.1,93.06201,1638905584999
Fix,GT,34.2659416,-118.4787476,261.9030692235231,34.736828,0.1,90.950195,1638905585999
Fix,GT,34.2659389,-118.4783696,261.6810654932856,34.88641,0.1,90.26935,1638905586999
Fix,GT,34.2659363,-118.4779903,261.5391042054296,34.95247,0.1,90.43533,1638905587999
Fix,GT,34.2659332,-118.4776108,261.27908119261264,34.967606,0.1,90.49747,1638905588999
Fix,GT,34.2659304,-118.4772309,261.1519845070839,34.991966,0.1,90.32193,1638905589999
Fix,GT,34.2659281,-118.4768507,260.92907372158766,35.049004,0.1,90.32367,1638905590999
Fix,GT,34.2659259,-118.4764699,260.6531088342667,35.097862,0.1,90.2818,1638905591999
Fix,GT,34.2659238,-118.4760887,260.3323387547731,35.11647,0.1,90.28653,1638905592999
Fix,GT,34.2659218,-118.4757067,259.7253588595391,35.26773,0.1,90.3934,1638905593999
Fix,GT,34.265919,-118.4753227,259.0132539876103,35.481613,0.1,90.45355,1638905594999
Fix,GT,34.2659166,-118.4749367,258.3042974956035,35.61554,0.1,90.23581,1638905595999
Fix,GT,34.2659148,-118.4745494,257.5283254604936,35.73161,0.1,90.28088,1638905596999
Fix,GT,34.2659126,-118.4741608,256.60038102233415,35.849976,0.1,90.36304,1638905597999
Fix,GT,34.2659097,-118.473771,255.6104013679028,35.938366,0.1,90.44293,1638905598999
Fix,GT,34.2659068,-118.4733799,254.5794138925672,36.122417,0.1,90.45947,1638905599999
Fix,GT,34.2659034,-118.4729867,253.7352882499099,36.297497,0.1,90.565735,1638905600999
Fix,GT,34.2658996,-118.4725924,253.0962096437812,36.312656,0.1,90.40521,1638905601999
Fix,GT,34.2658971,-118.4721983,252.6791426463128,36.274273,0.1,90.40875,1638905602999
Fix,GT,34.2658946,-118.4718049,252.48301587700843,36.200977,0.1,90.34509,1638905603999
Fix,GT,34.2658922,-118.4714122,252.5169403575063,36.13494,0.1,90.32422,1638905604999
Fix,GT,34.2658901,-118.4710205,252.7838566133976,36.028584,0.1,90.24866,1638905605999
Fix,GT,34.2658881,-118.47063,253.26476859068867,35.88898,0.1,90.33838,1638905606999
Fix,GT,34.2658855,-118.4702413,253.96467627453805,35.693626,0.1,90.46326,1638905607999
Fix,GT,34.2658822,-118.469855,254.8726116580963,35.467587,0.1,90.60773,1638905608999
Fix,GT,34.2658777,-118.4694712,255.85763104510303,35.249313,0.1,90.64624,1638905609999
Fix,GT,34.2658747,-118.4690897,256.79365049546954,34.997353,0.1,90.38928,1638905610999
Fix,GT,34.2658723,-118.4687112,257.6976297838688,34.73371,0.1,90.253296,1638905611999
Fix,GT,34.2658706,-118.4683352,258.5326573698521,34.535694,0.1,90.28851,1638905612999
Fix,GT,34.2658681,-118.4679611,259.3027052364349,34.371452,0.1,90.450195,1638905613999
Fix,GT,34.2658648,-118.467589,260.1356157580615,34.165375,0.1,90.51007,1638905614999
Fix,GT,34.2658621,-118.4672187,260.67278527015446,34.03715,0.1,90.36948,1638905615999
Fix,GT,34.2658599,-118.4668498,261.0458538968564,33.9269,0.1,90.237335,1638905616999
Fix,GT,34.2658582,-118.466482,261.43691056525705,33.83143,0.1,90.16492,1638905617999
Fix,GT,34.2658571,-118.4661151,261.7119144865274,33.7453,0.1,90.1741,1638905618999
Fix,GT,34.2658554,-118.465749,261.85290618336205,33.680775,0.1,90.3024,1638905619999
Fix,GT,34.2658528,-118.4653838,262.1288651673198,33.60269,0.1,90.49844,1638905620999
Fix,GT,34.26585,-118.4650193,262.3399427031278,33.521217,0.1,90.38776,1638905621999
Fix,GT,34.2658475,-118.4646573,262.5889508054256,33.149418,0.1,90.41272,1638905622999
Fix,GT,34.2658447,-118.4642997,262.8279014463424,32.77662,0.1,90.47092,1638905623999
Fix,GT,34.2658424,-118.4639443,263.0349136216045,32.72757,0.1,90.20972,1638905624999
Fix,GT,34.2658411,-118.4635886,263.21391759896284,32.781334,0.1,90.168945,1638905625999
Fix,GT,34.2658396,-118.4632325,263.43994634944204,32.817562,0.1,90.249115,1638905626999
Fix,GT,34.2658378,-118.462876,263.6369131897688,32.85272,0.1,90.30563,1638905627999
Fix,GT,34.2658356,-118.4625191,263.8569047658444,32.86007,0.1,90.35187,1638905628999
Fix,GT,34.2658332,-118.4621632,264.0739004592896,32.70928,0.1,90.4509,1638905629999
Fix,GT,34.2658303,-118.4618094,264.32594599300626,32.413715,0.1,90.50018,1638905630999
Fix,GT,34.2658273,-118.4614604,264.52589596754314,31.879545,0.1,90.37457,1638905631999
Fix,GT,34.2658262,-118.4611166,264.69892497324946,31.474201,0.1,89.99414,1638905632999
Fix,GT,34.265825,-118.4607769,264.93192067372803,31.148264,0.1,90.47562,1638905633999
Fix,GT,34.2658218,-118.460438,265.16091218090054,31.534336,0.1,90.44702,1638905634999
Fix,GT,34.2658196,-118.4600905,265.3109036595225,32.35219,0.1,90.52478,1638905635999
Fix,GT,34.2658157,-118.459739,265.5469454575777,32.28187,0.1,90.804535,1638905636999
Fix,GT,34.2658106,-118.459389,265.5690252145529,32.19721,0.1,90.98462,1638905637999
Fix,GT,34.2658046,-118.4590401,265.52700841856,32.047356,0.1,91.42328,1638905638999
Fix,GT,34.265795,-118.4586941,265.4650168645382,31.726202,0.1,92.08276,1638905639999
Fix,GT,34.265785,-118.4583516,265.3350591226816,31.389236,0.1,91.64374,1638905640999
Fix,GT,34.265778,-118.4580127,265.17506767749785,31.078714,0.1,91.15872,1638905641999
Fix,GT,34.2657724,-118.4576767,265.0100677871704,30.830812,0.1,90.953125,1638905642999
Fix,GT,34.2657691,-118.4573433,264.8530551669598,30.662384,0.1,90.46622,1638905643999
Fix,GT,34.2657662,-118.4570087,264.70303825366494,31.116282,0.1,90.42755,1638905644999
Fix,GT,34.2657638,-118.4566713,264.54107237344977,30.964386,0.1,90.46283,1638905645999
Fix,GT,34.26576,-118.456337,264.3700980760455,30.612741,0.1,91.249146,1638905646999
Fix,GT,34.2657506,-118.4560071,264.1930640654564,30.193972,0.1,92.38382,1638905647999
Fix,GT,34.2657394,-118.4556815,264.03007700085635,29.839447,0.1,92.12488,1638905648999
Fix,GT,34.2657297,-118.4553585,263.8730514168739,29.803833,0.1,91.80319,1638905649999
Fix,GT,34.2657226,-118.455033,263.8719957084656,30.13843,0.1,91.0448,1638905650999
Fix,GT,34.2657179,-118.4547065,263.9959785080552,30.032118,0.1,90.838684,1638905651999
Fix,GT,34.2657136,-118.4543811,264.26579765075445,29.837595,0.1,90.90674,1638905652999
Fix,GT,34.2657068,-118.4540593,264.5459094446897,29.455626,0.1,92.01776,1638905653999
Fix,GT,34.265695,-118.4537418,264.6838661106229,29.088097,0.1,92.650024,1638905654999
Fix,GT,34.2656844,-118.4534283,264.93890483093264,28.693176,0.1,91.72864,1638905655999
Fix,GT,34.2656788,-118.4531201,265.1499133455753,27.966993,0.1,90.63873,1638905656999
Fix,GT,34.2656759,-118.4528236,265.3998915106058,26.637424,0.1,90.53058,1638905657999
Fix,GT,34.2656738,-118.4525428,265.6579087262154,25.035538,0.1,90.43762,1638905658999
Fix,GT,34.2656717,-118.4522773,265.86691728758814,23.982372,0.1,90.44055,1638905659999
Fix,GT,34.2656706,-118.452022,266.0849040769338,22.969522,0.1,90.08911,1638905660999
Fix,GT,34.2656703,-118.4517747,266.2739039274454,22.65813,0.1,89.55029,1638905661999
Fix,GT,34.2656744,-118.4515272,266.4759081491828,23.023424,0.1,88.29874,1638905662999
Fix,GT,34.2656814,-118.4512728,266.6988861017227,23.971746,0.1,87.81299,1638905663999
Fix,GT,34.2656881,-118.4510075,266.93589908754825,24.785225,0.1,88.57849,1638905664999
Fix,GT,34.2656921,-118.4507362,267.1579340838194,25.22781,0.1,89.04526,1638905665999
Fix,GT,34.2656966,-118.4504593,267.31792077720166,25.797657,0.1,88.04764,1638905666999
Fix,GT,34.2657089,-118.4501744,267.47293828547,26.75672,0.1,86.057526,1638905667999
Fix,GT,34.2657271,-118.4498836,267.6929293603897,26.942144,0.1,85.50287,1638905668999
Fix,GT,34.2657455,-118.4495913,267.86992040705684,27.115711,0.1,85.67697,1638905669999
Fix,GT,34.2657636,-118.4492952,267.9539601413012,27.49981,0.1,85.70694,1638905670999
Fix,GT,34.2657826,-118.4489959,268.13493790161607,27.864212,0.1,85.33243,1638905671999
Fix,GT,34.2658043,-118.4486909,268.2599466912746,28.449997,0.1,84.77463,1638905672999
Fix,GT,34.2658287,-118.4483817,268.4199421589971,28.730467,0.1,84.1976,1638905673999
Fix,GT,34.2658559,-118.4480696,268.55693761372567,29.081158,0.1,83.60547,1638905674999
