MessageType,Provider,LatitudeDegrees,LongitudeDegrees,AltitudeMeters,SpeedMps,AccuracyMeters,BearingDegrees,UnixTimeMillis
Fix,GT,37.4150391,-122.079043,-23.260995365619657,0.0056568542,0.1,337.56616,1639594137999
Fix,GT,37.4150391,-122.079043,-23.260995358943937,0.005,0.1,337.56567,1639594138999
Fix,GT,37.4150391,-122.079043,-23.26099535238743,0.0044784513,0.1,337.56348,1639594139999
Fix,GT,37.4150391,-122.079043,-23.26099534577132,0.005827084,0.1,337.5648,1639594140999
Fix,GT,37.4150391,-122.079043,-23.2609953392148,0.005653793,0.1,337.56378,1639594141999
Fix,GT,37.4150391,-122.079043,-23.26099533253908,0.0058301394,0.1,337.56448,1639594142999
Fix,GT,37.4150391,-122.079043,-23.260995325922966,0.002848912,0.1,337.5639,1639594143999
Fix,GT,37.4150391,-122.079043,-23.26099531930685,0.004996455,0.1,337.56378,1639594144999
Fix,GT,37.4150391,-122.079043,-23.26099531263113,0.005,0.1,337.56406,1639594145999
Fix,GT,37.4150391,-122.079043,-23.261,0.005,0.1,337.56384,1639594146999
Fix,GT,37.4150391,-122.079043,-23.261,0.005,0.1,337.56384,1639594147999
Fix,GT,37.4150391,-122.079043,-23.261,0.0058270404,0.1,337.5638,1639594148999
Fix,GT,37.4150391,-122.079043,-23.261,0.00424621,0.1,337.5639,1639594149999
Fix,GT,37.4150391,-122.079043,-23.261,0.0050031007,0.1,337.56424,1639594150999
Fix,GT,37.4150391,-122.079043,-23.261,0.00499642,0.1,337.56415,1639594151999
Fix,GT,37.4150391,-122.079043,-23.261,0.005,0.1,337.564,1639594152999
Fix,GT,37.4150391,-122.079043,-23.261,0.005,0.1,337.5642,1639594153999
Fix,GT,37.4150391,-122.079043,-23.261,0.005,0.1,337.5641,1639594154999
Fix,GT,37.4150391,-122.079043,-23.261,0.0042426405,0.1,337.5641,1639594155999
Fix,GT,37.4150391,-122.079043,-23.261,0.0042396076,0.1,337.56387,1639594156999
Fix,GT,37.4150391,-122.079043,-23.261,0.0036055513,0.1,337.56406,1639594157999
Fix,GT,37.4150391,-122.079043,-23.261,0.0036055513,0.1,337.56406,1639594158999
Fix,GT,37.4150391,-122.079043,-23.261,0.0031643964,0.1,337.56418,1639594159999
Fix,GT,37.4150391,-122.079043,-23.261,0.0036055513,0.1,337.56403,1639594160999
Fix,GT,37.4150391,-122.079043,-23.261,0.0022405074,0.1,337.5641,1639594161999
Fix,GT,37.4150391,-122.079043,-23.261,0.0029952002,0.1,337.56403,1639594162999
Fix,GT,37.4150391,-122.079043,-23.261,0.0020048064,0.1,337.56403,1639594163999
Fix,GT,37.4150391,-122.079043,-23.261,0.003,0.1,337.56412,1639594164999
Fix,GT,37.4150391,-122.079043,-23.261,0.0031622776,0.1,337.5639,1639594165999
Fix,GT,37.4150391,-122.079043,-23.261,0.0031644169,0.1,337.56403,1639594166999
Fix,GT,37.4150391,-122.079043,-23.261,0.0031622776,0.1,337.56387,1639594167999
Fix,GT,37.4150391,-122.079043,-23.261,0.0036055513,0.1,337.564,1639594168999
Fix,GT,37.4150391,-122.079043,-23.261,0.0044679367,0.1,337.5638,1639594169999
Fix,GT,37.4150391,-122.079043,-23.261,0.0041139484,0.1,337.56268,1639594170999
Fix,GT,37.4150391,-122.079043,-23.261,0.0028352994,0.1,337.56427,1639594171999
Fix,GT,37.4150391,-122.079043,-23.261,0.0063873543,0.1,337.56516,1639594172999
Fix,GT,37.4150391,-122.079043,-23.261,0.002839008,0.1,337.5655,1639594173999
Fix,GT,37.4150391,-122.079043,-23.261,0.0053832857,0.1,337.5644,1639594174999
Fix,GT,37.4150391,-122.079043,-23.261,0.005830952,0.1,337.5647,1639594175999
Fix,GT,37.4150391,-122.079043,-23.261,0.0063221403,0.1,337.5644,1639594176999
Fix,GT,37.4150391,-122.079043,-23.261,0.005830952,0.1,337.56378,1639594177999
Fix,GT,37.4150391,-122.079043,-23.261,0.0063245553,0.1,337.56357,1639594178999
Fix,GT,37.4150391,-122.079043,-23.261,0.0063245553,0.1,337.5632,1639594179999
Fix,GT,37.4150391,-122.079043,-23.261,0.0063245553,0.1,337.5631,1639594180999
Fix,GT,37.4150391,-122.079043,-23.261,0.005389792,0.1,337.56302,1639594181999
Fix,GT,37.4150391,-122.079043,-23.261,0.006319922,0.1,337.56302,1639594182999
Fix,GT,37.4150391,-122.079043,-23.261,0.0053851646,0.1,337.56296,1639594183999
Fix,GT,37.4150391,-122.079043,-23.261,0.0053851646,0.1,337.56262,1639594184999
Fix,GT,37.4150391,-122.079043,-23.261,0.004124834,0.1,337.5623,1639594185999
Fix,GT,37.4150391,-122.079043,-23.261,0.004472136,0.1,337.56235,1639594186999
Fix,GT,37.4150391,-122.079043,-23.261,0.0036098543,0.1,337.56204,1639594187999
Fix,GT,37.4150391,-122.079043,-23.261,0.0036033473,0.1,337.56238,1639594188999
Fix,GT,37.4150391,-122.079043,-23.261,0.002236068,0.1,337.5621,1639594189999
Fix,GT,37.4150391,-122.079043,-23.261,0.002231971,0.1,337.5621,1639594190999
Fix,GT,37.4150391,-122.079043,-23.261,0.0014142136,0.1,337.5619,1639594191999
Fix,GT,37.4150391,-122.079043,-23.262,4.998565e-06,0.1,337.56183,1639594192999
Fix,GT,37.4150391,-122.079043,-23.26499499481916,0.0,0.1,337.56174,1639594193999
Fix,GT,37.4150391,-122.079043,-23.26799498814345,0.0014171494,0.1,337.56177,1639594194999
Fix,GT,37.415039,-122.0790427,-23.19996992728393,0.0020049815,0.1,337.5614,1639594196000
Fix,GT,37.415039,-122.0790427,-23.193000648004936,0.005827311,0.1,337.55948,1639594197000
Fix,GT,37.415039,-122.0790427,-23.19501003366942,0.0063110464,0.1,337.56076,1639594198000
Fix,GT,37.415039,-122.0790427,-23.209004496865905,0.004140435,0.1,337.56256,1639594199000
Fix,GT,37.415039,-122.0790426,-23.22100014057057,0.0080580395,0.1,337.56335,1639594200000
Fix,GT,37.415039,-122.0790426,-23.22200429947488,0.0072928206,0.099,337.5594,1639594201000
Fix,GT,37.4150389,-122.0790425,-23.231999945908782,0.014032609,0.1,337.5614,1639594202000
Fix,GT,37.4150389,-122.0790424,-23.237010411008256,0.0032703425,0.1,337.56958,1639594203000
Fix,GT,37.4150414,-122.079043,-23.262014546711928,0.6255868,0.1,338.71146,1639594204000
Fix,GT,37.4150483,-122.0790451,-23.28502496626694,0.8538259,0.1,341.0183,1639594205000
Fix,GT,37.415058,-122.0790491,-23.326024140719323,1.5172858,0.099,340.70612,1639594206000
Fix,GT,37.4150765,-122.0790576,-23.39301465978101,2.8486545,0.1,340.29407,1639594207000
Fix,GT,37.4151061,-122.0790701,-23.414049322485926,4.0207415,0.1,340.84747,1639594208000
Fix,GT,37.415143,-122.0790859,-23.38997618910158,4.414077,0.1,340.83853,1639594209000
Fix,GT,37.4151795,-122.0791019,-23.38409764842503,4.124257,0.1,340.4275,1639594210000
Fix,GT,37.4152131,-122.0791172,-23.36504441456869,3.78803,0.1,339.8863,1639594211000
Fix,GT,37.4152443,-122.0791284,-23.35401500586746,3.4048448,0.1,344.41928,1639594212000
Fix,GT,37.4152733,-122.0791287,-23.32399540312728,3.0040765,0.1,357.7949,1639594213000
Fix,GT,37.415299,-122.0791208,-23.29699577832222,2.873644,0.1,9.957245,1639594214000
Fix,GT,37.4153241,-122.0791138,-23.323043315598746,2.8653307,0.1,11.122498,1639594215000
Fix,GT,37.4153468,-122.0791088,-23.363019143417013,2.0988328,0.1,10.155029,1639594216000
Fix,GT,37.4153643,-122.0791053,-23.408014176383613,2.0141459,0.1,9.350189,1639594217000
Fix,GT,37.4153842,-122.0790984,-23.43799471746897,2.7310832,0.1,14.000793,1639594218000
Fix,GT,37.4154089,-122.0790787,-23.496981299292298,3.7383842,0.1,30.64679,1639594219000
Fix,GT,37.4154326,-122.0790382,-23.490023681602903,5.125316,0.1,53.747284,1639594220000
Fix,GT,37.4154507,-122.0789761,-23.57193322734349,6.5198684,0.1,70.56198,1639594221000
Fix,GT,37.4154694,-122.0788997,-23.65803806972131,7.660094,0.1,72.66928,1639594222000
Fix,GT,37.41549,-122.0788154,-23.76904388956446,7.946156,0.1,72.95349,1639594223000
Fix,GT,37.4155096,-122.0787323,-23.86006652904488,7.387439,0.1,73.51959,1639594224000
Fix,GT,37.4155265,-122.0786572,-23.98305793910148,6.4419465,0.1,74.27783,1639594225000
Fix,GT,37.4155394,-122.078593,-24.0710912307445,5.295415,0.1,76.14856,1639594226000
Fix,GT,37.4155465,-122.078543,-24.17403799625672,3.610502,0.1,80.25009,1639594227000
Fix,GT,37.4155486,-122.0785123,-24.259013750982472,1.9374443,0.099,83.52042,1639594228000
Fix,GT,37.4155495,-122.0784983,-24.306028874415905,0.6647243,0.1,84.06958,1639594229000
Fix,GT,37.4155497,-122.0784943,-24.350009464204312,0.050487515,0.1,84.16156,1639594230000
Fix,GT,37.4155496,-122.078494,-24.37400436218921,0.012526045,0.1,84.16611,1639594231000
Fix,GT,37.4155494,-122.0784931,-24.3859959740038,0.012074571,0.1,84.16513,1639594232000
Fix,GT,37.4155493,-122.0784916,-24.3900145675689,0.0072732484,0.1,84.16519,1639594233000
Fix,GT,37.4155493,-122.0784918,-24.421009478784168,0.0060823713,0.1,84.16461,1639594234000
Fix,GT,37.4155492,-122.078492,-24.444009351618583,0.0050990195,0.1,84.164795,1639594235000
Fix,GT,37.4155492,-122.0784922,-24.45800899651274,0.0041185757,0.1,84.16467,1639594236000
Fix,GT,37.4155492,-122.0784924,-24.474014556921087,0.0031662215,0.1,84.16455,1639594237000
Fix,GT,37.4155492,-122.0784926,-24.492008752376773,0.0022322042,0.1,84.16376,1639594238000
Fix,GT,37.4155492,-122.0784928,-24.510014049320016,0.0010163,0.1,84.1658,1639594239000
Fix,GT,37.4155492,-122.0784931,-24.53001440608036,0.0014075841,0.1,84.1651,1639594240000
Fix,GT,37.4155492,-122.0784933,-24.551013540241865,0.0022322207,0.1,84.16464,1639594241000
Fix,GT,37.4155492,-122.0784935,-24.573013897240163,0.0014180553,0.1,84.16412,1639594242000
Fix,GT,37.4155492,-122.0784936,-24.597014506950977,0.0022448762,0.1,84.163605,1639594243000
Fix,GT,37.4155492,-122.0784938,-24.62201461339323,0.004470509,0.1,84.16342,1639594244000
Fix,GT,37.4155491,-122.0784938,-24.64702305303328,0.003089378,0.1,84.1655,1639594245000
Fix,GT,37.4155494,-122.0784908,-24.69502829904296,0.6513889,0.1,84.23602,1639594246000
Fix,GT,37.4155503,-122.078478,-24.75503694204241,1.6970654,0.1,84.395294,1639594247000
Fix,GT,37.4155513,-122.0784524,-24.804027989342806,2.905407,0.1,86.31415,1639594248000
Fix,GT,37.4155525,-122.0784121,-24.90003758711181,4.26976,0.1,87.60971,1639594249000
Fix,GT,37.4155513,-122.078357,-25.00304567092378,5.2984905,0.1,92.258606,1639594250000
Fix,GT,37.4155401,-122.0782975,-25.097073928222528,5.5571914,0.1,106.073395,1639594251000
Fix,GT,37.4155113,-122.0782447,-25.180005099684934,5.80595,0.1,128.39096,1639594252000
Fix,GT,37.4154636,-122.0782117,-25.14505458542285,6.4166093,0.1,155.88391,1639594253000
Fix,GT,37.4154012,-122.0782055,-25.16103216824681,7.555982,0.1,178.3891,1639594254000
Fix,GT,37.415327,-122.07821,-25.137986636786724,8.910692,0.1,182.79138,1639594255000
Fix,GT,37.4152413,-122.0782155,-25.212990123115947,10.191058,0.1,182.1898,1639594256000
Fix,GT,37.4151457,-122.0782182,-25.13794936230593,10.865988,0.099,181.10793,1639594257000
Fix,GT,37.4150465,-122.078219,-25.05396808996191,11.120047,0.1,180.41049,1639594258000
Fix,GT,37.4149472,-122.078219,-24.956940903604032,10.86989,0.1,180.35251,1639594259000
Fix,GT,37.4148508,-122.0782197,-24.873940620087087,10.525728,0.1,180.85263,1639594260000
Fix,GT,37.4147576,-122.0782212,-24.7730087934481,10.145907,0.099,180.85547,1639594261000
Fix,GT,37.4146675,-122.0782216,-24.718917866518723,9.856865,0.1,180.46194,1639594262000
Fix,GT,37.4145802,-122.0782223,-24.600964181255083,9.466371,0.1,180.5543,1639594263000
Fix,GT,37.4144974,-122.0782228,-24.458981734826228,8.880931,0.1,180.3816,1639594264000
Fix,GT,37.4144215,-122.0782232,-24.35896856662632,7.910603,0.1,180.26538,1639594265000
Fix,GT,37.4143548,-122.0782234,-24.273985828366133,6.893624,0.099,180.31122,1639594266000
Fix,GT,37.4142977,-122.0782235,-24.212959422457963,5.7764697,0.1,180.38014,1639594267000
Fix,GT,37.414251,-122.0782235,-24.15398683943693,4.533365,0.1,180.36147,1639594268000
Fix,GT,37.4142164,-122.0782236,-24.12098721874691,3.1844873,0.1,180.53447,1639594269000
Fix,GT,37.414192,-122.0782234,-24.09399585078936,2.3187046,0.1,180.4005,1639594270000
Fix,GT,37.4141741,-122.0782232,-24.078990784029013,1.6897454,0.1,180.17424,1639594271000
Fix,GT,37.4141622,-122.0782229,-24.069995628616308,0.94875455,0.1,180.0041,1639594272000
Fix,GT,37.414157,-122.0782227,-24.066999506888912,0.20407996,0.1,179.91907,1639594273000
Fix,GT,37.4141568,-122.0782226,-24.071000594073443,0.013038405,0.1,179.91644,1639594274000
Fix,GT,37.4141568,-122.0782226,-24.07099975340348,0.0101948725,0.1,179.91583,1639594275000
Fix,GT,37.4141568,-122.0782226,-24.07100035868585,0.007004722,0.1,179.9137,1639594276000
Fix,GT,37.4141568,-122.0782226,-24.071000717371703,0.0060871495,0.1,179.91351,1639594277000
Fix,GT,37.4141568,-122.0782226,-24.07099964131415,0.0050990195,0.1,179.91345,1639594278000
Fix,GT,37.4141568,-122.0782226,-24.071,0.0041208155,0.1,179.91333,1639594279000
Fix,GT,37.4141568,-122.0782226,-24.07100035868585,0.0031622776,0.1,179.91309,1639594280000
Fix,GT,37.4141568,-122.0782226,-24.070999764612413,0.0028318553,0.1,179.91357,1639594281000
Fix,GT,37.4141568,-122.0782226,-24.071000123298266,0.0022421,0.1,179.91351,1639594282000
Fix,GT,37.4141568,-122.0782226,-24.071000481984115,0.0014142136,0.1,179.91333,1639594283000
Fix,GT,37.4141568,-122.0782226,-24.07099988791068,0.0035959291,0.1,179.91309,1639594284000
Fix,GT,37.4141568,-122.0782226,-24.07100024659653,0.0014142136,0.1,179.91321,1639594285000
Fix,GT,37.4141568,-122.0782226,-24.071000369894787,0.0019956226,0.1,179.91327,1639594286000
Fix,GT,37.4141568,-122.0782226,-24.07100024659652,0.0014080326,0.1,179.91315,1639594287000
Fix,GT,37.4141568,-122.0782226,-24.071000123298266,0.0022350377,0.1,179.91302,1639594288000
Fix,GT,37.4141568,-122.0782226,-24.071000481984115,0.0020010287,0.1,179.91345,1639594289000
Fix,GT,37.4141568,-122.0782226,-24.07099940592656,0.0022324927,0.1,179.91357,1639594290000
Fix,GT,37.4141568,-122.0782226,-24.070999764612413,0.0014167579,0.1,179.91333,1639594291000
Fix,GT,37.4141568,-122.0782225,-24.066995786557904,0.0014142136,0.1,179.91309,1639594292000
Fix,GT,37.4141567,-122.0782224,-24.06000024648383,0.0019974636,0.1,179.91321,1639594293000
Fix,GT,37.4141567,-122.0782224,-24.06000012324192,0.002236068,0.1,179.91309,1639594294000
Fix,GT,37.4141567,-122.0782224,-24.06000048176385,0.001,0.1,179.91351,1639594295000
Fix,GT,37.4141567,-122.0782224,-24.05900035850704,0.0014124286,0.1,179.91357,1639594296000
Fix,GT,37.4141567,-122.0782224,-24.0569956972599,0.00400053,0.1,179.91412,1639594297000
Fix,GT,37.4141567,-122.0782224,-24.05399963036645,0.006008592,0.1,179.91382,1639594298000
Fix,GT,37.4141567,-122.0782223,-24.05199975359812,0.010312129,0.1,179.91284,1639594299000
Fix,GT,37.4141548,-122.0782222,-24.048995348103343,0.4933811,0.099,179.88,1639594300000
Fix,GT,37.4141482,-122.0782219,-24.03499095646478,0.9582737,0.099,179.763,1639594301000
Fix,GT,37.4141371,-122.0782216,-24.016990847412032,1.605763,0.099,179.68744,1639594302000
Fix,GT,37.4141186,-122.0782212,-23.984979148274288,2.5740862,0.1,179.69958,1639594303000
Fix,GT,37.4140891,-122.0782208,-23.92497930362821,4.022805,0.1,179.86017,1639594304000
Fix,GT,37.4140462,-122.0782203,-23.84994947526511,5.4788938,0.1,179.7185,1639594305000
Fix,GT,37.4139919,-122.0782193,-23.70994094966352,6.5201616,0.1,179.68994,1639594306000
Fix,GT,37.4139285,-122.0782189,-23.572957619770897,7.5354877,0.1,180.1275,1639594307000
Fix,GT,37.4138574,-122.0782189,-23.484906843366566,8.234438,0.1,180.4234,1639594308000
Fix,GT,37.4137798,-122.0782192,-23.35400488448841,9.017489,0.1,180.28197,1639594309000
Fix,GT,37.4136952,-122.0782184,-23.17986100398609,9.734726,0.1,179.85938,1639594310000
Fix,GT,37.4136045,-122.0782181,-22.91884404576384,10.40824,0.1,180.38605,1639594311000
Fix,GT,37.4135083,-122.0782182,-22.601843964769508,10.884178,0.1,180.2253,1639594312000
Fix,GT,37.4134083,-122.0782178,-22.184731758899986,11.35144,0.1,180.0573,1639594313000
Fix,GT,37.4133029,-122.0782176,-21.560681834415067,11.945087,0.1,180.47765,1639594314000
Fix,GT,37.413194,-122.0782181,-20.817665319059977,12.287356,0.1,180.41725,1639594315000
Fix,GT,37.4130805,-122.0782179,-20.05164053409826,12.804035,0.1,180.43283,1639594316000
Fix,GT,37.412965,-122.0782185,-19.15765052049793,12.835123,0.1,180.57602,1639594317000
Fix,GT,37.4128507,-122.0782194,-18.26961298548337,12.47444,0.1,180.73251,1639594318000
Fix,GT,37.4127402,-122.0782197,-17.40867566144932,12.093983,0.1,180.42075,1639594319000
Fix,GT,37.4126319,-122.07822,-16.575651906982067,11.954029,0.1,180.55692,1639594320000
Fix,GT,37.4125241,-122.0782207,-15.82672674327716,12.012192,0.1,180.70377,1639594321000
Fix,GT,37.4124168,-122.0782219,-15.129744100173935,11.662515,0.1,181.01279,1639594322000
Fix,GT,37.4123145,-122.0782241,-14.605806172782554,11.055728,0.1,181.46503,1639594323000
Fix,GT,37.4122162,-122.0782272,-14.161855423382953,10.919646,0.099,181.95349,1639594324000
Fix,GT,37.4121187,-122.0782304,-13.801880820668767,10.62519,0.1,181.72293,1639594325000
Fix,GT,37.4120251,-122.0782323,-13.51490120338602,10.21913,0.099,181.17542,1639594326000
Fix,GT,37.411932,-122.078233,-13.317942814234645,10.569282,0.1,180.36502,1639594327000
Fix,GT,37.411834,-122.0782333,-13.196962905205783,11.1341505,0.099,180.46024,1639594328000
Fix,GT,37.4117335,-122.0782339,-13.139004139835016,11.0781145,0.1,180.58203,1639594329000
Fix,GT,37.4116345,-122.0782352,-13.189016164440662,10.92903,0.1,180.9709,1639594330000
Fix,GT,37.4115365,-122.0782371,-13.34206531825196,10.782172,0.1,181.00063,1639594331000
Fix,GT,37.4114401,-122.0782398,-13.553158350307497,10.6643095,0.1,181.83513,1639594332000
Fix,GT,37.4113446,-122.0782478,-13.843150165058672,10.569292,0.1,184.91858,1639594333000
Fix,GT,37.4112527,-122.0782637,-14.19416241556313,9.936564,0.1,189.54993,1639594334000
Fix,GT,37.4111678,-122.07829,-14.656177818447352,9.636375,0.1,196.38579,1639594335000
Fix,GT,37.4110898,-122.0783344,-15.235250398553442,9.345116,0.1,208.0919,1639594336000
Fix,GT,37.4110249,-122.078398,-16.01132599400729,9.094298,0.1,221.20818,1639594337000
Fix,GT,37.4109746,-122.0784789,-16.72230973256007,9.132722,0.1,236.08069,1639594338000
Fix,GT,37.4109436,-122.0785771,-17.676361497854813,9.612722,0.1,252.6167,1639594339000
Fix,GT,37.4109366,-122.0786877,-18.601385400883387,10.122353,0.1,269.69693,1639594340000
Fix,GT,37.4109543,-122.0788022,-19.56024359576637,10.575053,0.099,285.52255,1639594341000
Fix,GT,37.410999,-122.0789092,-20.22317971415632,10.875517,0.1,301.78473,1639594342000
Fix,GT,37.4110656,-122.0790002,-20.75619167057425,11.037966,0.1,316.35352,1639594343000
Fix,GT,37.4111484,-122.0790696,-21.184127945601944,11.116838,0.1,329.7783,1639594344000
Fix,GT,37.4112412,-122.0791154,-21.449134925242515,11.04775,0.1,341.53848,1639594345000
Fix,GT,37.411339,-122.0791359,-21.72411913893372,10.994802,0.1,353.9596,1639594346000
Fix,GT,37.4114373,-122.0791272,-22.0051034053904,10.943126,0.1,8.083405,1639594347000
Fix,GT,37.4115297,-122.0790868,-22.272024237650445,10.797733,0.1,24.05835,1639594348000
Fix,GT,37.411608,-122.079016,-22.26006771822367,10.79377,0.1,39.952057,1639594349000
Fix,GT,37.4116705,-122.0789206,-22.39704317623004,11.218174,0.099,54.483612,1639594350000
Fix,GT,37.4117126,-122.0788048,-22.406031621189783,11.427744,0.1,70.01697,1639594351000
Fix,GT,37.4117291,-122.0786772,-22.37496882973984,11.620781,0.1,85.2735,1639594352000
Fix,GT,37.4117186,-122.0785455,-22.327003390472385,11.977938,0.1,100.29672,1639594353000
Fix,GT,37.4116834,-122.0784133,-22.23099979295768,12.815537,0.1,111.23474,1639594354000
Fix,GT,37.4116323,-122.0782752,-22.226960598692298,13.977733,0.1,116.252686,1639594355000
Fix,GT,37.4115705,-122.0781296,-22.16094127056934,15.148872,0.1,118.2536,1639594356000
Fix,GT,37.4115024,-122.0779753,-22.10795682367589,15.785802,0.1,119.252716,1639594357000
Fix,GT,37.4114312,-122.0778216,-22.03700451758923,15.68002,0.1,120.31183,1639594358000
Fix,GT,37.4113577,-122.0776695,-21.93400826995075,15.802337,0.1,121.53186,1639594359000
Fix,GT,37.411282,-122.0775161,-21.80900726826629,16.142956,0.099,121.77518,1639594360000
Fix,GT,37.4112029,-122.077358,-21.71491457518144,16.862171,0.1,122.067535,1639594361000
Fix,GT,37.411122,-122.0771924,-21.56397292605136,17.36747,0.1,120.95773,1639594362000
Fix,GT,37.4110423,-122.0770218,-21.43893069943227,17.398924,0.1,120.39114,1639594363000
Fix,GT,37.4109636,-122.0768529,-21.29999671498011,17.137562,0.1,120.293304,1639594364000
Fix,GT,37.4108883,-122.0766852,-21.18691878327122,16.833805,0.1,118.93274,1639594365000
Fix,GT,37.4108172,-122.0765177,-21.103919022860005,16.80328,0.1,117.601746,1639594366000
Fix,GT,37.4107473,-122.0763471,-20.81885807263292,17.196896,0.099,117.29904,1639594367000
Fix,GT,37.4106754,-122.0761743,-20.39979372188542,17.182884,0.1,117.74078,1639594368000
Fix,GT,37.4106042,-122.076003,-19.84074844826828,17.072046,0.1,117.52225,1639594369000
Fix,GT,37.4105338,-122.0758312,-19.146737577015067,17.0702,0.1,117.18637,1639594370000
Fix,GT,37.4104645,-122.0756601,-18.42265458374843,17.03385,0.1,117.16388,1639594371000
Fix,GT,37.4103947,-122.0754899,-17.6146668297064,16.808353,0.1,117.525696,1639594372000
Fix,GT,37.4103254,-122.0753225,-16.776666654516244,16.694508,0.1,117.372406,1639594373000
Fix,GT,37.4102583,-122.0751558,-15.939690011745784,16.476242,0.1,116.65045,1639594374000
Fix,GT,37.4101917,-122.0749893,-15.192717195766512,16.615255,0.1,117.17325,1639594375000
Fix,GT,37.4101222,-122.0748217,-14.502744121951284,16.836191,0.1,118.08258,1639594376000
Fix,GT,37.4100493,-122.0746556,-13.844774699213447,16.789104,0.1,119.2858,1639594377000
Fix,GT,37.4099754,-122.0744896,-13.204737145091642,16.891882,0.099,119.61441,1639594378000
Fix,GT,37.4099007,-122.074326,-12.605793841667706,16.426159,0.1,120.46271,1639594379000
Fix,GT,37.4098288,-122.0741658,-12.101798140782863,16.227245,0.1,118.945496,1639594380000
Fix,GT,37.4097612,-122.0740027,-11.631861963228088,16.279922,0.1,117.00119,1639594381000
Fix,GT,37.4097003,-122.0738378,-11.261910431929865,15.862588,0.099,113.96939,1639594382000
Fix,GT,37.4096475,-122.073673,-10.99991480421368,15.68259,0.1,111.312744,1639594383000
Fix,GT,37.4095996,-122.0735055,-10.87793693406391,15.747623,0.1,109.079285,1639594384000
Fix,GT,37.4095556,-122.0733346,-10.766003618840362,16.172718,0.1,107.50891,1639594385000
Fix,GT,37.4095127,-122.0731576,-10.742981278921013,16.495565,0.1,106.8291,1639594386000
Fix,GT,37.4094696,-122.0729776,-10.785036569436778,16.644302,0.099,107.07233,1639594387000
Fix,GT,37.4094235,-122.0728002,-10.910054953062208,16.434484,0.099,108.93298,1639594388000
Fix,GT,37.4093725,-122.0726258,-11.100098873017124,16.591667,0.099,111.17749,1639594389000
Fix,GT,37.4093125,-122.0724489,-11.302073510782328,17.500435,0.1,114.52377,1639594390000
Fix,GT,37.4092423,-122.0722688,-11.524117121424526,17.98294,0.1,117.253204,1639594391000
Fix,GT,37.4091653,-122.0720877,-11.799138641078487,18.298395,0.099,118.678955,1639594392000
Fix,GT,37.4090856,-122.0719049,-12.25618583412259,18.595526,0.1,118.97797,1639594393000
Fix,GT,37.409004,-122.0717181,-12.83422531736642,19.141401,0.099,118.7767,1639594394000
Fix,GT,37.4089201,-122.071528,-13.467254668829032,19.267221,0.1,119.23718,1639594395000
Fix,GT,37.4088359,-122.0713363,-14.13826067945687,19.59175,0.1,118.71945,1639594396000
Fix,GT,37.4087505,-122.0711382,-14.841235636316238,20.149553,0.1,118.86597,1639594397000
Fix,GT,37.4086628,-122.0709382,-15.584282083380968,20.237814,0.1,119.223816,1639594398000
Fix,GT,37.4085747,-122.0707364,-16.320270659493982,20.480001,0.1,118.715576,1639594399000
Fix,GT,37.4084897,-122.0705308,-16.93422327733133,20.492666,0.1,116.560486,1639594400000
Fix,GT,37.4084131,-122.0703202,-17.49414374451991,20.51852,0.1,113.520874,1639594401000
Fix,GT,37.4083441,-122.0701042,-17.97013243665383,20.694376,0.1,110.86127,1639594402000
Fix,GT,37.4082818,-122.0698832,-18.335124924387785,20.759113,0.1,108.878845,1639594403000
Fix,GT,37.4082236,-122.0696603,-18.657124574631453,20.80624,0.099,108.02783,1639594404000
Fix,GT,37.4081673,-122.0694355,-18.741036053367424,20.905653,0.1,107.29956,1639594405000
Fix,GT,37.4081119,-122.0692094,-18.707918483327607,20.88698,0.1,107.3273,1639594406000
Fix,GT,37.4080564,-122.0689858,-18.6237978196016,20.552565,0.1,107.48697,1639594407000
Fix,GT,37.4080023,-122.0687663,-18.50198573892377,20.163927,0.1,107.32312,1639594408000
Fix,GT,37.407949,-122.0685505,-18.50999292623997,19.819918,0.1,107.57449,1639594409000
Fix,GT,37.4078958,-122.0683393,-18.540006956439463,19.398748,0.1,107.53177,1639594410000
Fix,GT,37.4078461,-122.0681338,-18.52002798261493,18.54265,0.1,106.60028,1639594411000
Fix,GT,37.4078019,-122.0679369,-18.57602412529872,17.408815,0.1,105.65607,1639594412000
Fix,GT,37.4077624,-122.0677593,-18.62403117735358,15.598018,0.1,105.62732,1639594413000
Fix,GT,37.4077285,-122.0675893,-18.71902751071309,15.5397215,0.1,103.14557,1639594414000
Fix,GT,37.4076992,-122.067414,-18.78798558838665,16.249346,0.099,101.64484,1639594415000
Fix,GT,37.4076677,-122.067229,-18.87308669005288,17.303314,0.099,102.82999,1639594416000
Fix,GT,37.4076301,-122.0670325,-19.03008754206472,18.429663,0.1,104.27759,1639594417000
Fix,GT,37.4075862,-122.0668251,-19.137010817550124,19.566862,0.1,104.87961,1639594418000
Fix,GT,37.4075404,-122.0666056,-19.11597928378684,20.610731,0.1,104.97897,1639594419000
Fix,GT,37.4074903,-122.0663752,-19.07303095285548,21.712763,0.099,105.670654,1639594420000
Fix,GT,37.4074362,-122.0661327,-19.072989329936448,22.869795,0.099,105.58649,1639594421000
Fix,GT,37.4073806,-122.0658778,-19.017066041677257,23.934055,0.1,105.28223,1639594422000
Fix,GT,37.4073229,-122.0656117,-18.86088938403781,24.873138,0.1,105.36566,1639594423000
Fix,GT,37.4072626,-122.0653365,-18.83896180513501,25.662834,0.1,105.54788,1639594424000
Fix,GT,37.4071998,-122.0650533,-18.80898576600291,26.397343,0.1,105.6774,1639594425000
Fix,GT,37.4071351,-122.0647628,-18.806017219422618,27.008896,0.1,105.61511,1639594426000
Fix,GT,37.4070692,-122.0644653,-18.84393497485691,27.657751,0.1,105.77606,1639594427000
Fix,GT,37.4070013,-122.0641619,-18.792999536187853,28.132631,0.1,105.60828,1639594428000
Fix,GT,37.4069329,-122.063853,-18.78499715582281,28.617182,0.1,105.5199,1639594429000
Fix,GT,37.4068642,-122.0635401,-18.78995276371389,28.841127,0.1,105.37543,1639594430000
Fix,GT,37.4067954,-122.0632242,-18.828989815996028,29.109957,0.1,105.38788,1639594431000
Fix,GT,37.4067262,-122.0629053,-18.87905055373069,29.456585,0.1,105.223785,1639594432000
Fix,GT,37.4066562,-122.0625819,-18.90904341556132,29.899511,0.1,105.31729,1639594433000
Fix,GT,37.4065847,-122.0622538,-18.912993489596527,30.305174,0.1,105.40466,1639594434000
Fix,GT,37.4065121,-122.0619222,-18.944969893226403,30.61754,0.1,105.55444,1639594435000
Fix,GT,37.4064377,-122.0615868,-18.99099647599412,30.981298,0.1,105.58142,1639594436000
Fix,GT,37.4063632,-122.0612489,-18.99397630848992,31.08413,0.1,105.48483,1639594437000
Fix,GT,37.4062892,-122.0609083,-18.9799369526254,31.368307,0.1,105.19092,1639594438000
Fix,GT,37.4062154,-122.0605656,-18.92498675110773,31.527462,0.1,105.22424,1639594439000
Fix,GT,37.4061406,-122.0602205,-18.84799055881542,31.797337,0.1,105.31076,1639594440000
Fix,GT,37.4060648,-122.0598735,-18.843977020979622,31.895271,0.1,105.55292,1639594441000
Fix,GT,37.4059877,-122.0595261,-18.776989828617776,31.936132,0.1,105.63898,1639594442000
Fix,GT,37.4059106,-122.0591786,-18.717999472667,31.919567,0.1,105.45697,1639594443000
Fix,GT,37.4058347,-122.0588314,-18.7070035927482,31.74752,0.1,105.46222,1639594444000
Fix,GT,37.405759,-122.058488,-18.67701974689728,31.36682,0.1,105.610596,1639594445000
Fix,GT,37.4056839,-122.0581476,-18.687993151516185,31.211605,0.1,105.52484,1639594446000
Fix,GT,37.4056094,-122.057808,-18.69999726828165,31.17514,0.1,105.381134,1639594447000
Fix,GT,37.4055349,-122.0574682,-18.697013333201173,31.25317,0.1,105.52423,1639594448000
Fix,GT,37.4054596,-122.0571278,-18.726996515418872,31.228636,0.099,105.60919,1639594449000
Fix,GT,37.4053846,-122.0567885,-18.748924616434145,31.112635,0.099,105.56372,1639594450000
Fix,GT,37.4053095,-122.0564501,-18.754026114307813,31.083986,0.1,105.8819,1639594451000
Fix,GT,37.405232,-122.0561128,-18.77499316712841,31.082428,0.1,106.46509,1639594452000
Fix,GT,37.4051514,-122.0557764,-18.74903568635881,31.122671,0.1,107.16864,1639594453000
Fix,GT,37.4050678,-122.0554416,-18.772028674409256,30.936216,0.1,107.737274,1639594454000
Fix,GT,37.4049827,-122.0551111,-18.65096483466402,30.582348,0.1,108.19302,1639594455000
Fix,GT,37.4048962,-122.0547845,-18.560012648776173,30.362358,0.1,108.71094,1639594456000
Fix,GT,37.4048078,-122.0544612,-18.56284235114837,30.150587,0.099,109.255615,1639594457000
Fix,GT,37.4047178,-122.054141,-18.090804735974874,29.951384,0.1,109.6189,1639594458000
Fix,GT,37.4046282,-122.0538224,-17.376751291060586,29.90019,0.1,109.306305,1639594459000
Fix,GT,37.4045394,-122.0535035,-16.4006621639675,29.881891,0.1,109.339294,1639594460000
Fix,GT,37.404451,-122.0531861,-15.260640252968296,29.644804,0.099,109.3291,1639594461000
Fix,GT,37.4043639,-122.052871,-14.13768278984539,29.403215,0.1,109.05884,1639594462000
Fix,GT,37.4042788,-122.0525578,-13.212756084956228,29.191452,0.1,109.06177,1639594463000
Fix,GT,37.4041946,-122.0522465,-12.542858139506077,29.02563,0.1,108.695465,1639594464000
Fix,GT,37.4041125,-122.0519361,-12.037896074677352,28.854475,0.1,108.2265,1639594465000
Fix,GT,37.4040334,-122.0516277,-11.653917903317138,28.451538,0.099,107.73236,1639594466000
Fix,GT,37.403958,-122.0513232,-11.442987635644384,28.011038,0.1,107.0672,1639594467000
Fix,GT,37.4038859,-122.0510221,-11.53609059564839,27.67298,0.1,106.617676,1639594468000
Fix,GT,37.403816,-122.0507232,-11.837100288247925,27.491964,0.1,106.34924,1639594469000
Fix,GT,37.4037483,-122.0504253,-12.190130819775163,27.377245,0.1,105.81134,1639594470000
Fix,GT,37.4036822,-122.0501271,-12.79123609776562,27.44442,0.1,105.4899,1639594471000
Fix,GT,37.4036166,-122.0498272,-13.63825153987552,27.645542,0.1,105.39288,1639594472000
Fix,GT,37.4035506,-122.0495261,-14.494265958275646,27.614738,0.099,105.49036,1639594473000
Fix,GT,37.4034843,-122.0492258,-15.420312067118472,27.551102,0.1,105.58331,1639594474000
Fix,GT,37.4034178,-122.0489262,-16.465320367314387,27.529158,0.1,105.599335,1639594475000
Fix,GT,37.4033519,-122.0486265,-17.464276981249913,27.505768,0.1,105.38324,1639594476000
Fix,GT,37.4032868,-122.0483273,-18.278168284780577,27.41171,0.099,105.309204,1639594477000
Fix,GT,37.4032224,-122.0480292,-18.867104214239635,27.259531,0.1,105.39099,1639594478000
Fix,GT,37.4031571,-122.0477336,-19.211057657447643,27.061369,0.1,105.65704,1639594479000
Fix,GT,37.4030913,-122.0474404,-19.34205208816542,26.858637,0.1,105.87515,1639594480000
Fix,GT,37.4030259,-122.0471494,-19.3649782730192,26.719393,0.099,105.75519,1639594481000
Fix,GT,37.4029614,-122.0468588,-19.28995185978245,26.663998,0.1,105.58472,1639594482000
Fix,GT,37.4028977,-122.0465703,-19.2449724857714,26.33659,0.1,105.54956,1639594483000
Fix,GT,37.4028349,-122.0462857,-19.20697300890973,25.949245,0.1,105.49509,1639594484000
Fix,GT,37.4027733,-122.0460051,-19.159993493709248,25.594097,0.099,105.461426,1639594485000
Fix,GT,37.4027126,-122.0457283,-19.120987956283848,25.23816,0.1,105.45331,1639594486000
Fix,GT,37.4026535,-122.0454562,-19.089975492065307,24.530323,0.1,105.197296,1639594487000
Fix,GT,37.4025972,-122.0451945,-19.052981997154887,23.584946,0.1,105.11606,1639594488000
Fix,GT,37.4025428,-122.0449391,-19.02299350348161,23.216902,0.099,105.11386,1639594489000
Fix,GT,37.4024882,-122.0446868,-19.01499676317815,23.1563,0.1,105.412964,1639594490000
Fix,GT,37.4024332,-122.0444339,-19.022000394172498,23.277636,0.1,105.3327,1639594491000
Fix,GT,37.402378,-122.0441805,-19.0229908221541,23.158438,0.099,105.50192,1639594492000
Fix,GT,37.4023222,-122.0439292,-19.04300609611161,23.097486,0.1,105.7789,1639594493000
Fix,GT,37.402266,-122.0436756,-19.03799359856546,23.53788,0.1,105.40625,1639594494000
Fix,GT,37.4022102,-122.043418,-19.05500880130753,23.69943,0.1,105.241486,1639594495000
Fix,GT,37.4021543,-122.0431593,-19.063999476235363,23.683847,0.099,105.26956,1639594496000
Fix,GT,37.4020985,-122.0429023,-19.098005801407616,23.486149,0.1,105.352905,1639594497000
Fix,GT,37.4020429,-122.0426478,-19.14400822660117,23.229069,0.1,105.383575,1639594498000
Fix,GT,37.4019881,-122.0423961,-19.21001741890609,23.023542,0.1,105.34845,1639594499000
Fix,GT,37.4019329,-122.042145,-19.28001803717995,23.076841,0.1,105.60043,1639594500000
Fix,GT,37.4018775,-122.0418949,-19.33101150463917,22.897299,0.1,105.585266,1639594501000
Fix,GT,37.4018226,-122.0416447,-19.39602932624612,23.136837,0.1,105.400696,1639594502000
Fix,GT,37.4017675,-122.041392,-19.47799677389441,23.154224,0.099,105.43204,1639594503000
Fix,GT,37.4017124,-122.0411411,-19.56999128993531,22.903727,0.1,105.414856,1639594504000
Fix,GT,37.4016585,-122.0408927,-19.59000577164441,22.719666,0.1,105.19833,1639594505000
Fix,GT,37.4016051,-122.0406453,-19.580003166123525,22.683023,0.1,105.27319,1639594506000
Fix,GT,37.4015512,-122.0403978,-19.56999101485475,22.743048,0.1,105.32773,1639594507000
Fix,GT,37.4014974,-122.040149,-19.527982936628163,22.914743,0.1,105.21521,1639594508000
Fix,GT,37.4014429,-122.0398974,-19.508957612957342,23.257452,0.1,105.38901,1639594509000
Fix,GT,37.4013866,-122.0396432,-19.48397104249615,23.453867,0.1,105.62451,1639594510000
Fix,GT,37.4013299,-122.0393869,-19.44600560727343,23.65429,0.1,105.384094,1639594511000
Fix,GT,37.4012736,-122.0391287,-19.4209862602409,23.729452,0.1,105.31802,1639594512000
Fix,GT,37.401217,-122.0388705,-19.39403639567248,23.699703,0.1,105.43521,1639594513000
Fix,GT,37.4011601,-122.0386125,-19.38099436167488,23.69559,0.1,105.46985,1639594514000
Fix,GT,37.4011035,-122.0383546,-19.37101449432597,23.659878,0.1,105.396545,1639594515000
Fix,GT,37.401047,-122.0380981,-19.371994935037105,23.440813,0.1,105.484344,1639594516000
Fix,GT,37.4009916,-122.0378476,-19.38605313056754,22.336569,0.1,105.609406,1639594517000
Fix,GT,37.4009379,-122.037609,-19.46999772517313,21.690119,0.1,105.87457,1639594518000
Fix,GT,37.4008854,-122.0373753,-19.520052646360128,21.339193,0.1,105.70209,1639594519000
Fix,GT,37.400832,-122.0371457,-19.605000100422185,21.02403,0.1,106.80667,1639594520000
Fix,GT,37.4007754,-122.036921,-19.72900334518309,20.686228,0.1,107.720276,1639594521000
Fix,GT,37.4007189,-122.0367002,-19.813035550584083,20.313812,0.099,107.657776,1639594522000
Fix,GT,37.4006654,-122.036484,-19.934997205626683,19.756063,0.1,106.835205,1639594523000
Fix,GT,37.4006155,-122.0362749,-20.051038682562297,18.75633,0.1,106.39868,1639594524000
Fix,GT,37.4005704,-122.0360795,-20.13101595946099,17.242596,0.1,105.77072,1639594525000
Fix,GT,37.4005299,-122.0359007,-20.202029862863945,15.634212,0.1,105.908936,1639594526000
Fix,GT,37.4004917,-122.0357421,-20.288997374191883,13.543434,0.1,107.356476,1639594527000
Fix,GT,37.4004548,-122.035613,-20.361007936349136,10.48843,0.1,111.37457,1639594528000
Fix,GT,37.400421,-122.0355195,-20.49101905024378,7.9892178,0.1,115.457275,1639594529000
Fix,GT,37.4003884,-122.035444,-20.560027613153213,7.3642235,0.1,119.07849,1639594530000
Fix,GT,37.4003527,-122.0353764,-20.633027017934943,6.915255,0.1,124.627014,1639594531000
Fix,GT,37.4003131,-122.0353205,-20.6460084082014,6.4117374,0.1,132.98401,1639594532000
Fix,GT,37.4002693,-122.0352753,-20.600980820923112,6.181319,0.1,141.34149,1639594533000
Fix,GT,37.4002226,-122.0352399,-20.551984245449304,5.923867,0.1,149.36618,1639594534000
Fix,GT,37.400175,-122.0352146,-20.49799157028459,5.5681596,0.1,157.01721,1639594535000
Fix,GT,37.4001234,-122.0351976,-20.4329787719585,6.412469,0.1,165.69891,1639594536000
Fix,GT,37.4000642,-122.0351908,-20.37498197161779,6.75727,0.1,175.45435,1639594537000
Fix,GT,37.4000026,-122.0351944,-20.289976203991564,6.924789,0.1,183.33363,1639594538000
Fix,GT,37.3999398,-122.0352122,-20.23797675593057,7.408579,0.1,194.28824,1639594539000
Fix,GT,37.3998766,-122.0352465,-20.14798907818273,7.8795404,0.1,204.9033,1639594540000
Fix,GT,37.3998163,-122.0352956,-20.06698675908381,8.013361,0.1,214.38571,1639594541000
Fix,GT,37.3997621,-122.0353536,-19.98297921282612,7.818748,0.1,220.69574,1639594542000
Fix,GT,37.3997124,-122.0354159,-19.92000046843663,7.87939,0.1,225.27722,1639594543000
Fix,GT,37.3996652,-122.0354855,-19.855009992268634,8.294353,0.1,229.811,1639594544000
Fix,GT,37.3996197,-122.0355627,-19.77796342999301,8.727526,0.1,234.05148,1639594545000
Fix,GT,37.3995773,-122.0356485,-19.64596101606265,8.9859495,0.1,238.98917,1639594546000
Fix,GT,37.3995413,-122.0357374,-19.513932548336683,8.656632,0.1,243.6965,1639594547000
Fix,GT,37.3995126,-122.0358258,-19.295968934026543,8.252691,0.099,248.47205,1639594548000
Fix,GT,37.3994908,-122.0359124,-19.075943551295904,7.83536,0.1,252.97641,1639594549000
Fix,GT,37.3994749,-122.035998,-18.82493608081713,7.773872,0.1,257.36642,1639594550000
Fix,GT,37.3994651,-122.0360834,-18.57692115692236,7.5671177,0.1,262.5053,1639594551000
Fix,GT,37.3994628,-122.0361716,-18.2829356656624,8.06006,0.099,269.24585,1639594552000
Fix,GT,37.3994705,-122.0362607,-17.993918457679914,7.826613,0.1,278.05435,1639594553000
Fix,GT,37.39949,-122.0363464,-17.665903697973118,8.042099,0.1,287.8339,1639594554000
Fix,GT,37.3995235,-122.0364281,-17.24990840908047,8.218693,0.099,299.52072,1639594555000
Fix,GT,37.3995705,-122.0365009,-16.891903683856594,8.406202,0.1,311.24756,1639594556000
Fix,GT,37.3996299,-122.0365639,-16.527906706787643,8.835247,0.1,322.01685,1639594557000
Fix,GT,37.3997008,-122.0366121,-16.169914889588956,9.143425,0.1,334.43076,1639594558000
Fix,GT,37.3997812,-122.0366389,-15.840939438977278,9.286184,0.1,347.89334,1639594559000
Fix,GT,37.3998658,-122.0366433,-15.555934994382785,9.5882225,0.1,0.49346924,1639594560000
Fix,GT,37.3999528,-122.0366234,-15.282947691963054,10.06293,0.1,13.5894165,1639594561000
Fix,GT,37.4000376,-122.0365763,-15.076953018331436,10.523297,0.1,27.574493,1639594562000
Fix,GT,37.4001151,-122.0365027,-14.808950727849268,11.169947,0.1,40.858826,1639594563000
Fix,GT,37.400184,-122.0364039,-14.520932912799998,12.199646,0.099,51.338135,1639594564000
Fix,GT,37.400251,-122.0362866,-14.276913747936952,13.368557,0.1,54.37918,1639594565000
Fix,GT,37.4003215,-122.0361568,-13.992950749678538,14.287633,0.1,56.04132,1639594566000
Fix,GT,37.4003914,-122.0360153,-13.781960878578946,15.269133,0.1,58.595673,1639594567000
Fix,GT,37.4004642,-122.0358618,-13.65994897141843,16.457504,0.1,58.957397,1639594568000
Fix,GT,37.4005442,-122.0356959,-13.559990170318637,17.854834,0.1,58.359497,1639594569000
Fix,GT,37.4006303,-122.0355164,-13.530004957646131,19.263489,0.1,59.267944,1639594570000
Fix,GT,37.4007182,-122.0353228,-13.627041460908018,20.104858,0.1,60.667114,1639594571000
Fix,GT,37.4008058,-122.0351181,-13.788072111153044,21.053583,0.1,62.04077,1639594572000
Fix,GT,37.4008933,-122.0349019,-14.050091359240936,21.879656,0.099,63.53601,1639594573000
Fix,GT,37.4009793,-122.0346764,-14.43810104327649,22.252464,0.1,64.917816,1639594574000
Fix,GT,37.4010618,-122.0344469,-14.911136881032958,22.41786,0.1,65.993835,1639594575000
Fix,GT,37.4011425,-122.0342135,-15.498135800907386,22.556467,0.099,66.658264,1639594576000
Fix,GT,37.4012215,-122.0339786,-16.200197509309046,22.682226,0.1,67.13788,1639594577000
Fix,GT,37.4013001,-122.0337394,-16.977194798541024,23.105724,0.1,67.74213,1639594578000
Fix,GT,37.4013774,-122.0334962,-17.850215793193787,23.23228,0.1,68.40454,1639594579000
Fix,GT,37.4014532,-122.0332501,-18.739230853291,23.546663,0.1,68.94696,1639594580000
Fix,GT,37.4015275,-122.0329993,-19.501147900003943,23.717735,0.1,69.92697,1639594581000
Fix,GT,37.401599,-122.0327462,-20.08611021140148,23.920988,0.1,70.66867,1639594582000
Fix,GT,37.4016696,-122.0324869,-20.474072757737247,24.641996,0.1,71.304535,1639594583000
Fix,GT,37.4017393,-122.0322205,-20.667042526131265,24.840658,0.1,72.01547,1639594584000
Fix,GT,37.4018073,-122.0319537,-20.82605540531455,24.836908,0.1,71.76953,1639594585000
Fix,GT,37.4018793,-122.0316849,-21.00002308241092,25.457413,0.1,70.89072,1639594586000
Fix,GT,37.4019556,-122.0314092,-21.12804642408993,26.160585,0.1,70.48883,1639594587000
Fix,GT,37.4020341,-122.0311288,-21.340069633401,26.497547,0.1,70.6192,1639594588000
Fix,GT,37.4021134,-122.0308432,-21.57602709562518,26.985762,0.099,70.71475,1639594589000
Fix,GT,37.402192,-122.0305524,-21.755027317887404,27.39796,0.1,71.620056,1639594590000
Fix,GT,37.4022684,-122.0302563,-21.91005244421144,27.622766,0.1,72.175476,1639594591000
Fix,GT,37.4023425,-122.0299587,-22.100052593577423,27.602314,0.1,72.75659,1639594592000
Fix,GT,37.4024163,-122.029661,-22.240982168638848,27.580252,0.1,72.44275,1639594593000
Fix,GT,37.4024904,-122.0293632,-22.28700743184797,27.65111,0.1,72.50537,1639594594000
Fix,GT,37.4025638,-122.0290665,-22.07692089922168,27.331015,0.1,72.637024,1639594595000
Fix,GT,37.4026359,-122.0287733,-21.58887871431559,26.996414,0.1,72.62109,1639594596000
Fix,GT,37.4027078,-122.0284846,-20.901816599578595,26.578102,0.1,72.34305,1639594597000
Fix,GT,37.4027794,-122.0281988,-20.017803025648465,26.559162,0.099,72.514404,1639594598000
Fix,GT,37.4028504,-122.0279131,-19.19884402653249,26.345276,0.1,72.60986,1639594599000
Fix,GT,37.4029193,-122.0276296,-18.538864945999816,26.180529,0.1,73.22299,1639594600000
Fix,GT,37.4029843,-122.0273473,-17.97788225318445,25.794228,0.099,74.11438,1639594601000
Fix,GT,37.4030453,-122.0270689,-17.60494248274737,25.377481,0.1,74.83548,1639594602000
Fix,GT,37.4031032,-122.0267919,-17.404949682860636,25.362333,0.1,75.401855,1639594603000
Fix,GT,37.4031582,-122.0265151,-17.304986349434824,25.12597,0.1,76.22687,1639594604000
Fix,GT,37.4032104,-122.0262391,-17.321951818536036,25.186407,0.1,76.680176,1639594605000
Fix,GT,37.4032617,-122.0259597,-17.50105014499743,25.59567,0.1,77.12262,1639594606000
Fix,GT,37.4033109,-122.0256766,-17.796089530067515,25.684519,0.1,77.937836,1639594607000
Fix,GT,37.4033569,-122.0253916,-18.26509709425969,25.854864,0.099,78.58508,1639594608000
Fix,GT,37.4034027,-122.0251036,-18.801146326660177,26.15301,0.1,78.78174,1639594609000
Fix,GT,37.4034472,-122.0248124,-19.504157069078413,26.281527,0.1,79.021484,1639594610000
Fix,GT,37.4034922,-122.0245212,-20.354195266921305,26.234354,0.1,78.79999,1639594611000
Fix,GT,37.4035377,-122.0242303,-21.31419472855958,26.330221,0.1,78.8728,1639594612000
Fix,GT,37.4035837,-122.0239374,-22.26520250113681,26.539112,0.1,78.476135,1639594613000
Fix,GT,37.403633,-122.0236422,-23.163200049401027,26.876432,0.1,77.72702,1639594614000
Fix,GT,37.4036861,-122.0233444,-23.8631359672146,27.109812,0.1,76.97064,1639594615000
Fix,GT,37.4037412,-122.0230463,-24.3780689872324,27.011202,0.099,76.653534,1639594616000
Fix,GT,37.4037977,-122.0227512,-24.630006226280937,26.709396,0.1,76.15729,1639594617000
Fix,GT,37.4038549,-122.0224599,-24.71601074495842,26.52932,0.1,75.79114,1639594618000
Fix,GT,37.4039148,-122.0221675,-24.82602864585258,27.12527,0.1,75.18765,1639594619000
Fix,GT,37.4039786,-122.0218641,-25.015995815686413,28.40451,0.1,75.216095,1639594620000
Fix,GT,37.4040446,-122.0215472,-25.12700863954867,29.51871,0.1,74.869934,1639594621000
Fix,GT,37.4041149,-122.0212201,-25.255982067304195,30.457561,0.1,74.648346,1639594622000
Fix,GT,37.4041876,-122.0208829,-25.26897247876227,31.371946,0.099,74.696655,1639594623000
Fix,GT,37.404263,-122.0205374,-25.295024322243176,32.044384,0.1,74.3053,1639594624000
Fix,GT,37.4043415,-122.020185,-25.42501384497434,32.728367,0.1,74.17941,1639594625000
Fix,GT,37.4044222,-122.0198255,-25.513013895865534,33.362556,0.1,73.93442,1639594626000
Fix,GT,37.4045051,-122.0194613,-25.5970058131814,33.71223,0.1,73.79593,1639594627000
Fix,GT,37.4045894,-122.0190924,-25.58900158726517,34.245224,0.099,73.784485,1639594628000
Fix,GT,37.4046752,-122.0187178,-25.620997644700108,34.72262,0.1,73.87048,1639594629000
Fix,GT,37.4047608,-122.0183407,-25.64201815294009,34.614437,0.1,74.12985,1639594630000
Fix,GT,37.4048442,-122.0179654,-25.74903853104449,34.35177,0.1,74.31787,1639594631000
Fix,GT,37.4049279,-122.0175936,-25.839992497236462,34.069557,0.1,73.88504,1639594632000
Fix,GT,37.4050126,-122.0172252,-25.96603122096509,33.806957,0.1,73.671295,1639594633000
Fix,GT,37.4050967,-122.0168599,-26.01600365847908,33.547855,0.099,73.77777,1639594634000
Fix,GT,37.4051797,-122.0164962,-26.101005994183943,33.453747,0.1,73.91431,1639594635000
Fix,GT,37.4052617,-122.0161338,-26.12500437164912,33.162888,0.1,73.794586,1639594636000
Fix,GT,37.4053438,-122.0157763,-26.177009068299547,32.748363,0.099,73.54669,1639594637000
Fix,GT,37.4054273,-122.0154213,-26.253020890168845,32.871098,0.1,72.93375,1639594638000
Fix,GT,37.405516,-122.0150641,-26.294972381172936,33.535297,0.1,72.20514,1639594639000
Fix,GT,37.4056093,-122.0146984,-26.30201564829517,34.464317,0.1,72.14285,1639594640000
Fix,GT,37.4057034,-122.0143224,-26.34199851850525,35.238068,0.1,72.66385,1639594641000
Fix,GT,37.4057968,-122.0139396,-26.402027609756217,35.644676,0.1,72.81793,1639594642000
Fix,GT,37.4058897,-122.0135527,-26.46401695188228,35.822826,0.099,73.44278,1639594643000
Fix,GT,37.4059791,-122.0131639,-26.511000003086288,35.83549,0.1,73.97516,1639594644000
Fix,GT,37.4060672,-122.0127741,-26.555023310083545,35.870087,0.1,73.934204,1639594645000
Fix,GT,37.4061549,-122.0123858,-26.63103502702201,35.527843,0.1,74.03888,1639594646000
Fix,GT,37.4062418,-122.0120018,-26.746012824548178,35.209198,0.1,73.96002,1639594647000
Fix,GT,37.4063283,-122.0116203,-26.848986691019267,35.018417,0.1,73.899475,1639594648000
Fix,GT,37.4064148,-122.011241,-26.92500622330047,34.844543,0.1,73.770874,1639594649000
Fix,GT,37.4065013,-122.0108636,-27.01902320154268,34.704666,0.1,73.73749,1639594650000
Fix,GT,37.4065877,-122.010487,-27.16803150514804,34.704475,0.1,73.74573,1639594651000
Fix,GT,37.4066746,-122.0101096,-27.36003177448956,34.915615,0.1,73.709625,1639594652000
Fix,GT,37.4067617,-122.0097286,-27.49603018942848,35.2674,0.1,73.95715,1639594653000
Fix,GT,37.4068486,-122.0093435,-27.51002698154538,35.572998,0.1,74.02222,1639594654000
Fix,GT,37.4069363,-122.0089561,-27.48695727632101,35.675705,0.1,73.99765,1639594655000
Fix,GT,37.4070231,-122.0085683,-27.183963329880964,35.64386,0.1,74.1449,1639594656000
Fix,GT,37.4071096,-122.0081812,-26.90796019056579,35.54096,0.1,74.00348,1639594657000
Fix,GT,37.4071968,-122.0077952,-26.664950285983966,35.533634,0.1,73.8833,1639594658000
Fix,GT,37.4072846,-122.0074079,-26.41896173795429,35.768635,0.1,73.93039,1639594659000
Fix,GT,37.4073731,-122.0070184,-26.19698936334205,35.898922,0.1,73.812744,1639594660000
Fix,GT,37.4074616,-122.0066282,-26.078966368478724,35.936314,0.1,74.13083,1639594661000
Fix,GT,37.407548,-122.0062374,-26.098979660357347,35.8517,0.099,74.46002,1639594662000
Fix,GT,37.4076323,-122.0058471,-26.141053358787087,35.76269,0.1,74.68359,1639594663000
Fix,GT,37.4077171,-122.0054572,-26.439071318871108,35.830593,0.1,74.43359,1639594664000
Fix,GT,37.4078035,-122.0050664,-26.829065838329026,35.97592,0.1,74.209595,1639594665000
Fix,GT,37.40789,-122.004674,-27.157057138895965,36.10262,0.1,74.39029,1639594666000
Fix,GT,37.407976,-122.0042804,-27.46504715836001,36.131493,0.1,74.4653,1639594667000
Fix,GT,37.408062,-122.0038871,-27.68004532981338,36.08719,0.1,74.43524,1639594668000
Fix,GT,37.4081478,-122.0034943,-27.80902460156521,36.035683,0.1,74.53323,1639594669000
Fix,GT,37.4082328,-122.0031017,-27.843990488208483,35.980503,0.1,74.68161,1639594670000
Fix,GT,37.4083175,-122.0027101,-27.86100850805128,35.863052,0.099,74.560455,1639594671000
Fix,GT,37.4084026,-122.00232,-27.882019216738176,35.727005,0.1,74.42706,1639594672000
Fix,GT,37.4084871,-122.0019331,-27.912008948881528,35.289948,0.1,74.48959,1639594673000
Fix,GT,37.408571,-122.0015499,-27.951009311864617,35.115944,0.1,74.4303,1639594674000
Fix,GT,37.4086544,-122.0011671,-27.96800602087937,35.152172,0.099,74.56714,1639594675000
Fix,GT,37.4087382,-122.0007836,-28.01599620823795,35.255783,0.1,74.44159,1639594676000
Fix,GT,37.4088225,-122.0003988,-28.03601013691607,35.40076,0.1,74.44928,1639594677000
Fix,GT,37.4089073,-122.0000121,-28.03800207808043,35.584408,0.1,74.46063,1639594678000
Fix,GT,37.4089908,-121.9996237,-28.060007214471696,35.645985,0.1,74.801056,1639594679000
Fix,GT,37.4090744,-121.9992345,-28.075025944324445,35.70232,0.1,74.664734,1639594680000
Fix,GT,37.4091578,-121.9988449,-28.14600822368113,35.721462,0.1,74.851654,1639594681000
Fix,GT,37.4092406,-121.9984546,-28.178004996083327,35.78189,0.1,74.81052,1639594682000
Fix,GT,37.4093246,-121.9980645,-28.23898200993799,35.75485,0.1,74.59262,1639594683000
Fix,GT,37.40941,-121.9976749,-28.186005469823023,35.799137,0.1,74.278595,1639594684000
Fix,GT,37.4094956,-121.9972849,-28.17700743599725,35.803707,0.1,74.55191,1639594685000
Fix,GT,37.4095803,-121.9968947,-28.20701105386205,35.812866,0.099,74.59738,1639594686000
Fix,GT,37.4096647,-121.9965044,-28.233997872832,35.76653,0.1,74.523865,1639594687000
Fix,GT,37.4097496,-121.996115,-28.257009858945736,35.72037,0.1,74.6301,1639594688000
Fix,GT,37.4098337,-121.9957259,-28.301992744168498,35.648476,0.1,74.66556,1639594689000
Fix,GT,37.4099178,-121.9953378,-28.30798808607552,35.564598,0.099,74.55557,1639594690000
Fix,GT,37.4100016,-121.9949505,-28.291012437610657,35.48724,0.1,74.691925,1639594691000
Fix,GT,37.410085,-121.9945638,-28.332028929885247,35.48167,0.1,74.5376,1639594692000
Fix,GT,37.4101699,-121.9941769,-28.31499287658022,35.560974,0.1,74.4624,1639594693000
Fix,GT,37.4102545,-121.993789,-28.3380029145116,35.62815,0.1,74.466705,1639594694000
Fix,GT,37.4103392,-121.9934014,-28.338001450345736,35.442844,0.1,74.49011,1639594695000
Fix,GT,37.4104237,-121.9930169,-28.30898809877888,35.256645,0.1,74.32333,1639594696000
Fix,GT,37.4105082,-121.9926325,-28.282002236841244,35.325874,0.1,74.5741,1639594697000
Fix,GT,37.4105913,-121.9922481,-28.264987040252656,35.184437,0.1,74.63989,1639594698000
Fix,GT,37.4106743,-121.9918651,-28.208001055474973,35.096092,0.099,74.60611,1639594699000
Fix,GT,37.4107568,-121.9914829,-28.08997848004708,35.018673,0.1,74.7121,1639594700000
Fix,GT,37.4108393,-121.9911015,-27.88097744559497,34.94472,0.1,74.6066,1639594701000
Fix,GT,37.4109224,-121.9907207,-27.84998070059577,34.995102,0.1,74.46118,1639594702000
Fix,GT,37.411007,-121.9903385,-27.716970740384188,35.237854,0.1,74.22009,1639594703000
Fix,GT,37.4110933,-121.9899546,-27.5409601893382,35.343533,0.1,74.14841,1639594704000
Fix,GT,37.4111808,-121.9895701,-27.304944567911324,35.41628,0.1,73.54779,1639594705000
Fix,GT,37.4112715,-121.9891891,-26.89593477673549,34.937412,0.1,72.8244,1639594706000
Fix,GT,37.4113651,-121.9888143,-26.411916167541523,34.698704,0.1,72.05594,1639594707000
Fix,GT,37.4114631,-121.9884408,-25.83792596038338,34.942337,0.1,71.22391,1639594708000
Fix,GT,37.4115647,-121.9880658,-25.269929860354864,35.15115,0.1,70.80875,1639594709000
Fix,GT,37.4116701,-121.9876914,-24.744928822617048,35.148308,0.1,69.922485,1639594710000
Fix,GT,37.4117799,-121.9873193,-24.241936530089703,34.963978,0.1,69.2388,1639594711000
Fix,GT,37.4118912,-121.9869524,-23.906996574223275,34.605995,0.1,68.823,1639594712000
Fix,GT,37.4120049,-121.9865876,-23.56596809846535,34.759293,0.1,68.20517,1639594713000
Fix,GT,37.4121229,-121.9862232,-23.300004447831192,34.87116,0.1,67.326904,1639594714000
Fix,GT,37.412244,-121.9858597,-23.238993609750526,34.87902,0.099,66.95969,1639594715000
Fix,GT,37.4123688,-121.985497,-23.23301124827424,35.087578,0.1,65.99219,1639594716000
Fix,GT,37.4124996,-121.9851345,-23.35801977424696,35.34637,0.1,64.95642,1639594717000
Fix,GT,37.4126352,-121.9847722,-23.534038301288263,35.5284,0.1,64.52112,1639594718000
Fix,GT,37.4127737,-121.9844088,-23.65802164747124,35.77829,0.1,64.10745,1639594719000
Fix,GT,37.4129152,-121.9840437,-23.81102627885295,36.087845,0.1,63.69629,1639594720000
Fix,GT,37.4130601,-121.9836775,-23.987026003522097,36.26375,0.1,63.146423,1639594721000
Fix,GT,37.4132084,-121.9833133,-24.05001014093368,36.077194,0.1,62.524963,1639594722000
Fix,GT,37.4133577,-121.9829542,-24.27405291575077,35.62224,0.1,62.038666,1639594723000
Fix,GT,37.4135079,-121.9826011,-24.494025674749164,35.22021,0.1,61.677673,1639594724000
Fix,GT,37.4136568,-121.9822522,-24.75003132466192,34.88225,0.1,61.623352,1639594725000
Fix,GT,37.4138048,-121.9819059,-25.020039630644256,34.702698,0.1,61.720123,1639594726000
Fix,GT,37.4139518,-121.9815607,-25.18400357183512,34.55729,0.099,61.67395,1639594727000
Fix,GT,37.4140987,-121.9812165,-25.117978733202207,34.641655,0.1,61.745514,1639594728000
Fix,GT,37.4142453,-121.98087,-24.87295523332584,34.80197,0.1,61.97885,1639594729000
Fix,GT,37.4143914,-121.9805227,-24.49695434537856,34.66525,0.099,62.04895,1639594730000
Fix,GT,37.4145366,-121.9801771,-24.143939361222785,34.498993,0.1,62.07248,1639594731000
Fix,GT,37.4146813,-121.9798327,-23.745949427606654,34.479668,0.1,61.87848,1639594732000
Fix,GT,37.4148274,-121.9794885,-23.33998643094208,34.582,0.099,61.787354,1639594733000
Fix,GT,37.4149741,-121.9791438,-22.95995830620453,34.564533,0.1,61.70984,1639594734000
Fix,GT,37.4151201,-121.9787995,-22.590951109307703,34.463802,0.1,61.99063,1639594735000
Fix,GT,37.4152644,-121.9784549,-22.20094420623477,34.44329,0.1,62.106842,1639594736000
Fix,GT,37.4154093,-121.9781106,-21.81995160040539,34.485794,0.1,61.824097,1639594737000
Fix,GT,37.4155558,-121.9777661,-21.46899045381497,34.651722,0.1,61.680084,1639594738000
Fix,GT,37.4157031,-121.9774203,-21.12496597665362,34.742,0.1,61.917816,1639594739000
Fix,GT,37.4158499,-121.9770731,-20.673905146447943,34.836037,0.1,61.82065,1639594740000
Fix,GT,37.4159969,-121.9767252,-20.30896216848016,34.833874,0.1,61.963257,1639594741000
Fix,GT,37.4161436,-121.9763777,-20.02896782954224,34.80034,0.1,61.80838,1639594742000
Fix,GT,37.4162901,-121.97603,-19.835968540340662,34.829086,0.1,62.06015,1639594743000
Fix,GT,37.4164362,-121.9756814,-19.67797959667922,34.86275,0.1,61.9758,1639594744000
Fix,GT,37.4165834,-121.9753335,-19.55799566508108,34.838543,0.1,61.832367,1639594745000
Fix,GT,37.4167303,-121.9749884,-19.55700796296773,34.42167,0.1,61.731934,1639594746000
Fix,GT,37.4168753,-121.9746462,-19.64902489140071,34.210487,0.1,61.921783,1639594747000
Fix,GT,37.4170191,-121.9743043,-19.883040227109333,34.303307,0.1,61.917694,1639594748000
Fix,GT,37.4171646,-121.9739615,-20.09202356366627,34.42912,0.099,61.79068,1639594749000
Fix,GT,37.4173096,-121.9736172,-20.42706167459569,34.492867,0.1,62.039917,1639594750000
Fix,GT,37.4174541,-121.9732718,-20.8980547426492,34.55394,0.1,62.03186,1639594751000
Fix,GT,37.4175998,-121.9729264,-21.35703576386394,34.689163,0.1,61.749634,1639594752000
Fix,GT,37.4177482,-121.9725789,-21.730054394385427,35.05004,0.1,61.4989,1639594753000
Fix,GT,37.4178971,-121.9722293,-22.19105878934101,35.00647,0.1,62.042084,1639594754000
Fix,GT,37.4180419,-121.9718793,-22.72905875015165,34.84848,0.1,62.879486,1639594755000
Fix,GT,37.4181778,-121.9715238,-23.26106101866718,35.000587,0.1,65.53046,1639594756000
Fix,GT,37.4183017,-121.9711596,-23.6840461979094,35.070995,0.1,67.77908,1639594757000
Fix,GT,37.4184138,-121.970789,-23.94000727425737,35.114563,0.099,70.47449,1639594758000
Fix,GT,37.4185111,-121.970412,-23.87297295105923,35.019245,0.1,73.117645,1639594759000
Fix,GT,37.4185941,-121.9700314,-23.67698033474339,34.859516,0.1,75.85074,1639594760000
Fix,GT,37.4186626,-121.9696482,-23.496979912706184,34.668255,0.1,78.65204,1639594761000
Fix,GT,37.4187141,-121.9692632,-23.311985653460027,34.492466,0.1,81.68121,1639594762000
Fix,GT,37.4187516,-121.9688772,-23.18798497311281,34.347717,0.1,83.871796,1639594763000
Fix,GT,37.418778,-121.9684905,-23.14299193645048,34.40588,0.1,85.77341,1639594764000
Fix,GT,37.4187968,-121.968102,-23.13498142388789,34.49096,0.1,87.122375,1639594765000
Fix,GT,37.4188092,-121.9677128,-23.205003390055147,34.459114,0.1,87.50537,1639594766000
Fix,GT,37.4188229,-121.9673243,-23.381109304737883,34.436188,0.1,87.06879,1639594767000
Fix,GT,37.4188364,-121.966935,-23.624001549589213,34.50479,0.099,87.42468,1639594768000
Fix,GT,37.4188487,-121.9665472,-23.84703645174811,34.189674,0.1,87.47412,1639594769000
Fix,GT,37.4188597,-121.9661631,-24.26605251555052,33.86765,0.1,87.77466,1639594770000
Fix,GT,37.4188712,-121.9657811,-24.79605803934531,33.894943,0.099,87.333466,1639594771000
Fix,GT,37.4188845,-121.9653964,-25.291054118739908,34.295383,0.1,87.27701,1639594772000
Fix,GT,37.4188983,-121.9650072,-25.812060044689687,34.60629,0.1,87.201904,1639594773000
Fix,GT,37.4189122,-121.9646164,-26.308074291622383,34.64392,0.1,87.21872,1639594774000
Fix,GT,37.4189252,-121.9642253,-26.573028532620288,34.667423,0.1,87.568726,1639594775000
Fix,GT,37.4189375,-121.9638338,-26.838021403827472,34.68203,0.1,87.372894,1639594776000
Fix,GT,37.4189517,-121.9634429,-27.01601664052997,34.570663,0.1,86.895325,1639594777000
Fix,GT,37.4189668,-121.9630533,-27.12600472761388,34.52361,0.1,86.99881,1639594778000
Fix,GT,37.4189821,-121.962663,-27.33402488671988,34.681053,0.1,86.9465,1639594779000
Fix,GT,37.4189974,-121.9622704,-27.596023133179173,34.92659,0.099,87.0766,1639594780000
Fix,GT,37.4190121,-121.9618757,-27.827028914221504,34.99279,0.1,87.091034,1639594781000
Fix,GT,37.4190272,-121.9614801,-28.10898854696483,35.123585,0.1,86.8725,1639594782000
Fix,GT,37.4190449,-121.9610833,-28.263017791265447,35.196198,0.1,86.00348,1639594783000
Fix,GT,37.4190674,-121.9606869,-28.378009714919315,35.173645,0.099,85.33679,1639594784000
Fix,GT,37.4190933,-121.9602912,-28.51601003869192,35.115757,0.1,84.73828,1639594785000
Fix,GT,37.4191222,-121.9598962,-28.64500849035324,35.08814,0.1,84.290924,1639594786000
Fix,GT,37.4191536,-121.9595017,-28.797007616340416,35.116383,0.1,83.900665,1639594787000
Fix,GT,37.4191858,-121.9591063,-28.793991046477107,35.23996,0.1,84.06641,1639594788000
Fix,GT,37.4192172,-121.9587102,-28.602006192930045,35.2065,0.1,84.08014,1639594789000
Fix,GT,37.4192479,-121.9583147,-28.689008094541148,35.145393,0.1,84.34973,1639594790000
Fix,GT,37.4192768,-121.9579197,-28.716012771313952,35.08247,0.1,84.701294,1639594791000
Fix,GT,37.4193031,-121.9575251,-28.773994531812143,35.029068,0.1,85.69928,1639594792000
Fix,GT,37.4193222,-121.9571308,-28.7749958698859,34.834915,0.1,86.87396,1639594793000
Fix,GT,37.4193339,-121.95674,-28.812993664040523,34.406277,0.1,88.32736,1639594794000
Fix,GT,37.4193388,-121.9563528,-28.739988907394928,34.192825,0.1,89.45001,1639594795000
Fix,GT,37.4193385,-121.9559676,-28.643987659353414,33.996616,0.1,90.16058,1639594796000
Fix,GT,37.4193375,-121.9555849,-28.517994771201163,33.76203,0.1,89.864685,1639594797000
Fix,GT,37.4193361,-121.9552045,-28.486999206201983,33.59092,0.1,90.1828,1639594798000
Fix,GT,37.4193342,-121.954826,-28.472008098290768,33.422592,0.1,90.088715,1639594799000
Fix,GT,37.4193329,-121.9544489,-28.46399496318173,33.37718,0.1,89.92062,1639594800000
Fix,GT,37.4193329,-121.9540711,-28.48399569309061,33.49706,0.1,89.63403,1639594801000
Fix,GT,37.4193336,-121.9536921,-28.459995267634223,33.607056,0.1,89.68393,1639594802000
Fix,GT,37.419334,-121.9533129,-28.456002805449067,33.49229,0.1,89.53049,1639594803000
Fix,GT,37.419335,-121.9529354,-28.447995043164934,33.359013,0.1,89.69592,1639594804000
Fix,GT,37.4193344,-121.9525587,-28.44499577163521,33.36929,0.1,89.947845,1639594805000
Fix,GT,37.4193341,-121.952181,-28.507011930642708,33.49903,0.1,89.7583,1639594806000
Fix,GT,37.4193346,-121.9518024,-28.568001644402745,33.50805,0.1,89.68332,1639594807000
Fix,GT,37.4193347,-121.9514245,-28.52999876717123,33.389175,0.1,89.98639,1639594808000
Fix,GT,37.4193342,-121.951048,-28.5709965539159,33.255993,0.1,89.84903,1639594809000
Fix,GT,37.4193346,-121.9506728,-28.553995927468232,33.20112,0.1,89.65216,1639594810000
Fix,GT,37.4193353,-121.9502974,-28.54199809046928,33.20311,0.1,89.658295,1639594811000
Fix,GT,37.419335,-121.949923,-28.516993198668818,33.123413,0.1,90.16614,1639594812000
Fix,GT,37.419333,-121.949548,-28.436991123631945,33.26882,0.1,90.256775,1639594813000
Fix,GT,37.419331,-121.9491719,-28.37799011820811,33.280308,0.1,90.04675,1639594814000
Fix,GT,37.4193301,-121.9487958,-28.277980001399293,33.31807,0.1,90.03583,1639594815000
Fix,GT,37.4193296,-121.9484193,-28.206994989350147,33.341,0.099,89.759705,1639594816000
Fix,GT,37.4193307,-121.9480431,-28.12199876861612,33.21552,0.1,89.57446,1639594817000
Fix,GT,37.4193307,-121.9476692,-28.063994592007365,32.993137,0.1,90.041016,1639594818000
Fix,GT,37.4193299,-121.9472971,-28.01399348594842,32.922028,0.099,89.892,1639594819000
Fix,GT,37.4193298,-121.9469248,-27.93599154943088,32.998,0.1,89.90402,1639594820000
Fix,GT,37.4193291,-121.9465521,-27.78798965523217,32.96541,0.099,90.09671,1639594821000
Fix,GT,37.4193278,-121.9461797,-27.618990559114376,32.98715,0.1,89.99115,1639594822000
Fix,GT,37.4193262,-121.9458067,-27.45998285033944,33.019615,0.1,90.14084,1639594823000
