MessageType,Provider,LatitudeDegrees,LongitudeDegrees,AltitudeMeters,SpeedMps,AccuracyMeters,BearingDegrees,UnixTimeMillis
Fix,GT,34.1719476,-118.5413417,206.797,0.0010001911,0.1,358.31128,1638989541999
Fix,GT,34.1719476,-118.5413417,206.797,0.0009995381,0.1,358.3109,1638989542999
Fix,GT,34.1719476,-118.5413417,206.797,0.001,0.1,358.31042,1638989543999
Fix,GT,34.1719476,-118.5413417,206.797,0.0014140218,0.1,358.31003,1638989544999
Fix,GT,34.1719476,-118.5413417,206.797,0.003605346,0.1,358.31003,1638989545999
Fix,GT,34.1719476,-118.5413417,206.797,0.0,0.1,358.3096,1638989546999
Fix,GT,34.1719476,-118.5413417,206.797,0.001,0.1,358.30804,1638989547999
Fix,GT,34.1719476,-118.5413417,206.797,0.0009995349,0.1,358.30762,1638989548999
Fix,GT,34.1719476,-118.5413417,206.797,0.001,0.1,358.3072,1638989549999
Fix,GT,34.1719476,-118.5413417,206.797,0.006401613,0.1,358.30673,1638989550999
Fix,GT,34.1719476,-118.5413417,206.797,0.003604912,0.1,358.3071,1638989551999
Fix,GT,34.1719476,-118.5413417,206.797,0.0014159359,0.1,358.30518,1638989552999
Fix,GT,34.1719476,-118.5413417,206.797,0.0036045257,0.1,358.3047,1638989553999
Fix,GT,34.1719476,-118.5413417,206.797,0.001,0.1,358.30396,1638989554999
Fix,GT,34.1719476,-118.5413417,206.797,0.0010001945,0.1,358.3036,1638989555999
Fix,GT,34.1719476,-118.5413417,206.797,0.0010001946,0.1,358.30328,1638989556999
Fix,GT,34.1719476,-118.5413417,206.797,0.0019997247,0.1,358.30267,1638989557999
Fix,GT,34.1719476,-118.5413417,206.797,0.001000195,0.1,358.3025,1638989558999
Fix,GT,34.1719476,-118.5413417,206.797,0.0010004716,0.1,358.30185,1638989559999
Fix,GT,34.1719476,-118.5413417,206.797,0.00141449,0.1,358.3014,1638989560999
Fix,GT,34.1719476,-118.5413417,206.797,0.0014142136,0.1,358.3007,1638989561999
Fix,GT,34.1719476,-118.5413417,206.797,0.0014142136,0.1,358.30038,1638989562999
Fix,GT,34.1719476,-118.5413417,206.797,0.0014142136,0.1,358.30002,1638989563999
Fix,GT,34.1719476,-118.5413417,206.797,0.0010001966,0.1,358.2995,1638989564999
Fix,GT,34.1719476,-118.5413417,206.797,0.0010001968,0.1,358.29932,1638989565999
Fix,GT,34.1719476,-118.5413417,206.797,0.0010001971,0.1,358.29825,1638989566999
Fix,GT,34.1719476,-118.5413417,206.797,0.001999524,0.1,358.29788,1638989567999
Fix,GT,34.1719476,-118.5413417,206.797,0.002,0.1,358.2975,1638989568999
Fix,GT,34.1719476,-118.5413417,206.797,0.0031622,0.1,358.29715,1638989569999
Fix,GT,34.1719476,-118.5413417,206.797,0.005098553,0.1,358.29648,1638989570999
Fix,GT,34.1719476,-118.5413417,206.797,0.0053851646,0.1,358.29605,1638989571999
Fix,GT,34.1719476,-118.5413417,206.797,0.006324105,0.1,358.29517,1638989572999
Fix,GT,34.1719476,-118.5413417,206.797,0.005830952,0.1,358.29446,1638989573999
Fix,GT,34.1719476,-118.5413417,206.797,0.0036059679,0.1,358.29382,1638989574999
Fix,GT,34.1719476,-118.5413417,206.797,0.0010004813,0.1,358.2933,1638989575999
Fix,GT,34.1719476,-118.5413417,206.797,0.004999518,0.1,358.2925,1638989576999
Fix,GT,34.1719476,-118.5413417,206.797,0.011704555,0.1,358.29175,1638989577999
Fix,GT,34.1719476,-118.5413417,206.796,0.023408642,0.1,358.29102,1638989578999
Fix,GT,34.1719473,-118.5413418,206.795,0.03639965,0.1,358.28986,1638989579999
Fix,GT,34.171947,-118.541342,206.79499951565265,0.053711962,0.1,358.28854,1638989580999
Fix,GT,34.1719464,-118.5413422,206.795,0.07289698,0.1,358.2778,1638989581999
Fix,GT,34.1719433,-118.5413422,206.7860009710789,0.72425944,0.1,359.06747,1638989582999
Fix,GT,34.1719346,-118.5413403,206.75800097227096,1.0599896,0.1,5.9997253,1638989583999
Fix,GT,34.1719226,-118.5413383,206.74,1.3964142,0.1,19.804657,1638989584999
Fix,GT,34.1719078,-118.5413402,206.71500146216155,1.4999335,0.1,36.801422,1638989585999
Fix,GT,34.1718942,-118.5413467,206.6590024399161,1.3498064,0.1,53.315796,1638989586999
Fix,GT,34.1718843,-118.5413557,206.66999853408336,1.1476699,0.1,67.42453,1638989587999
Fix,GT,34.171879,-118.5413629,206.671,0.23899338,0.1,75.460815,1638989588999
Fix,GT,34.1718785,-118.5413637,206.6710009797812,0.0898722,0.1,75.592224,1638989589999
Fix,GT,34.171878,-118.5413642,206.669,0.0700003,0.1,75.73877,1638989590999
Fix,GT,34.1718778,-118.5413644,206.669,0.05547208,0.1,75.737854,1638989591999
Fix,GT,34.1718776,-118.5413649,206.668,0.034714576,0.1,75.77768,1638989592999
Fix,GT,34.171878,-118.5413622,206.664,0.60657966,0.1,76.37198,1638989593999
Fix,GT,34.171878,-118.5413524,206.665,1.0956994,0.1,80.889404,1638989594999
Fix,GT,34.1718778,-118.5413421,206.6700004937053,0.8407139,0.1,84.484955,1638989595999
Fix,GT,34.1718777,-118.5413336,206.6680004942417,0.73863214,0.1,86.56122,1638989596999
Fix,GT,34.1718777,-118.5413267,206.661,0.50185496,0.1,87.39862,1638989597999
Fix,GT,34.1718778,-118.5413233,206.659,0.100144796,0.1,87.707275,1638989598999
Fix,GT,34.1718778,-118.5413233,206.65699950385093,0.00412506,0.1,87.72427,1638989599999
Fix,GT,34.1718778,-118.5413233,206.657,0.0041240794,0.1,87.72363,1638989600999
Fix,GT,34.1718778,-118.5413233,206.657,0.005098056,0.1,87.72272,1638989601999
Fix,GT,34.1718778,-118.5413233,206.657,0.0010006158,0.1,87.72171,1638989602999
Fix,GT,34.1718778,-118.5413233,206.657,0.001,0.1,87.7211,1638989603999
Fix,GT,34.1718778,-118.5413233,206.657,0.0014142136,0.1,87.72052,1638989604999
Fix,GT,34.1718778,-118.5413233,206.657,0.0014142136,0.1,87.72015,1638989605999
Fix,GT,34.1718778,-118.5413233,206.657,0.0014140061,0.1,87.719635,1638989606999
Fix,GT,34.1718778,-118.5413233,206.657,0.0014142136,0.1,87.71927,1638989607999
Fix,GT,34.1718778,-118.5413233,206.657,0.0014140058,0.1,87.71875,1638989608999
Fix,GT,34.1718778,-118.5413233,206.657,0.0014140054,0.1,87.71796,1638989609999
Fix,GT,34.1718778,-118.5413233,206.657,0.0,0.1,87.717285,1638989610999
Fix,GT,34.1718778,-118.5413233,206.657,0.0,0.1,87.71698,1638989611999
Fix,GT,34.1718778,-118.5413233,206.657,0.002236068,0.1,87.71649,1638989612999
Fix,GT,34.1718778,-118.5413233,206.657,0.0036055513,0.1,87.716156,1638989613999
Fix,GT,34.1718778,-118.5413233,206.656,0.005830952,0.1,87.715454,1638989614999
Fix,GT,34.1718777,-118.5413234,206.65400050646065,0.0078106504,0.1,87.71521,1638989615999
Fix,GT,34.1718777,-118.541321,206.649,0.5802716,0.1,87.94623,1638989616999
Fix,GT,34.1718775,-118.5413106,206.6380015233159,1.3792976,0.1,88.882935,1638989617999
Fix,GT,34.1718771,-118.5412901,206.62200101685525,2.3779972,0.1,90.02701,1638989618999
Fix,GT,34.1718768,-118.5412601,206.62999847257137,3.1452284,0.1,90.21994,1638989619999
Fix,GT,34.1718761,-118.5412224,206.61400356817245,3.8026054,0.1,90.7926,1638989620999
Fix,GT,34.1718748,-118.5411776,206.59200255197288,4.4717693,0.1,91.61252,1638989621999
Fix,GT,34.1718734,-118.5411264,206.5880005110502,4.8049555,0.1,91.47357,1638989622999
Fix,GT,34.1718727,-118.5410752,206.56700051170588,4.597897,0.1,90.82556,1638989623999
Fix,GT,34.1718723,-118.5410264,206.5680030745268,4.426155,0.1,90.564514,1638989624999
Fix,GT,34.1718719,-118.54098,206.53799948698284,4.0941157,0.1,90.30081,1638989625999
Fix,GT,34.1718717,-118.540938,206.53,3.626156,0.1,90.19525,1638989626999
Fix,GT,34.1718718,-118.5409028,206.50600154316425,2.8441017,0.1,89.79529,1638989627999
Fix,GT,34.1718719,-118.5408743,206.4650015451312,2.5902338,0.1,90.27792,1638989628999
Fix,GT,34.1718723,-118.5408495,206.439,1.8256727,0.1,90.20645,1638989629999
Fix,GT,34.1718734,-118.5408335,206.4230020656585,1.404509,0.1,88.0871,1638989630999
Fix,GT,34.1718798,-118.5408119,206.3960062055588,2.6515245,0.1,76.80945,1638989631999
Fix,GT,34.1718983,-118.5407803,206.15401449799532,3.6947622,0.1,55.851532,1638989632999
Fix,GT,34.1719342,-118.5407523,206.250997408092,4.7972565,0.1,32.579193,1638989633999
Fix,GT,34.1719853,-118.5407342,206.1900083055496,6.3099914,0.1,14.724762,1638989634999
Fix,GT,34.1720455,-118.540722,206.1230046783089,7.0274234,0.1,9.491852,1638989635999
Fix,GT,34.1721019,-118.5407123,206.0660041637421,6.4270806,0.1,9.38092,1638989636999
Fix,GT,34.1721532,-118.5407019,205.9980041694641,5.009855,0.1,9.891907,1638989637999
Fix,GT,34.1721911,-118.5406936,205.922003131032,3.6803267,0.1,11.390015,1638989638999
Fix,GT,34.1722168,-118.5406864,205.8680052255392,2.3782434,0.1,13.971313,1638989639999
Fix,GT,34.172238,-118.5406753,205.82100209283828,3.0737731,0.1,22.679657,1638989640999
Fix,GT,34.1722643,-118.540648,205.75000052392485,4.933725,0.1,40.63263,1638989641999
Fix,GT,34.1722868,-118.5405949,205.749,6.259091,0.1,66.03339,1638989642999
Fix,GT,34.1722945,-118.5405189,205.7349989494085,8.033786,0.1,84.82318,1638989643999
Fix,GT,34.1722969,-118.5404241,205.7410015776753,9.415067,0.1,88.411316,1638989644999
Fix,GT,34.1722957,-118.5403122,205.6590063199997,11.311561,0.1,90.54755,1638989645999
Fix,GT,34.1722948,-118.5401792,205.52000791072845,13.212246,0.1,89.9935,1638989646999
Fix,GT,34.1722945,-118.5400262,205.3450110875368,14.879934,0.1,89.70242,1638989647999
Fix,GT,34.1722944,-118.5398592,205.1850116312504,15.86597,0.1,89.729034,1638989648999
Fix,GT,34.1722939,-118.5396848,205.02100582414863,16.145298,0.1,90.15225,1638989649999
Fix,GT,34.1722927,-118.53951,204.83001007121803,16.187206,0.1,89.980774,1638989650999
Fix,GT,34.1722936,-118.539331,204.65801008480787,16.687147,0.1,89.170105,1638989651999
Fix,GT,34.1722954,-118.5391505,204.4930116928816,16.581041,0.1,89.15558,1638989652999
Fix,GT,34.1722964,-118.538972,204.32000585496425,16.358206,0.1,89.59393,1638989653999
Fix,GT,34.1722964,-118.5387959,204.1440069288016,16.12605,0.1,89.862274,1638989654999
Fix,GT,34.172297,-118.5386223,203.9770112051964,15.89434,0.1,89.41177,1638989655999
Fix,GT,34.1722979,-118.5384511,203.8210048086644,15.650273,0.1,89.674255,1638989656999
Fix,GT,34.1722979,-118.538285,203.699009095192,14.89805,0.1,89.79413,1638989657999
Fix,GT,34.1722981,-118.5381282,203.51601285886764,14.115056,0.1,89.703125,1638989658999
Fix,GT,34.1722987,-118.5379776,203.3660075110197,13.719213,0.1,89.42114,1638989659999
Fix,GT,34.1723002,-118.5378299,203.24500537216664,13.506724,0.1,89.21289,1638989660999
Fix,GT,34.1723011,-118.5376828,203.09900753104685,13.739289,0.1,89.61423,1638989661999
Fix,GT,34.1723004,-118.5375335,202.9640053864717,13.744626,0.1,90.34384,1638989662999
Fix,GT,34.1722993,-118.5373852,202.8100091691613,13.583463,0.1,90.27258,1638989663999
Fix,GT,34.1722985,-118.537239,202.71500270038845,13.366157,0.1,90.098816,1638989664999
Fix,GT,34.1722983,-118.5370969,202.59000540792945,12.749046,0.1,89.76849,1638989665999
Fix,GT,34.1722982,-118.5369648,202.499005415082,11.550181,0.1,90.12042,1638989666999
Fix,GT,34.1722975,-118.5368481,202.3910043377876,10.116333,0.1,90.22104,1638989667999
Fix,GT,34.1722968,-118.5367441,202.2970048864484,9.077464,0.1,90.32059,1638989668999
Fix,GT,34.1722961,-118.5366531,202.20800489288567,7.68347,0.1,90.23004,1638989669999
Fix,GT,34.1722962,-118.536575,202.11500544428827,6.651134,0.1,89.48505,1638989670999
Fix,GT,34.1722961,-118.5365099,202.0300059965849,5.3811164,0.1,89.84613,1638989671999
Fix,GT,34.1722959,-118.536458,201.9520043668747,4.259243,0.1,89.96643,1638989672999
Fix,GT,34.1722956,-118.5364176,201.88700273287296,3.167071,0.1,90.11203,1638989673999
Fix,GT,34.1722955,-118.5363903,201.8510016418696,1.8841528,0.1,90.17642,1638989674999
Fix,GT,34.1722954,-118.5363766,201.8320016440153,0.72310257,0.1,90.21713,1638989675999
Fix,GT,34.1722954,-118.536373,201.823,0.0073063397,0.1,90.23004,1638989676999
Fix,GT,34.1722954,-118.5363729,201.8180005494356,0.0020043955,0.1,90.23804,1638989677999
Fix,GT,34.1722954,-118.5363729,201.818,0.0014145359,0.1,90.23718,1638989678999
Fix,GT,34.1722954,-118.5363729,201.818,0.0014142136,0.1,90.23569,1638989679999
Fix,GT,34.1722954,-118.5363729,201.818,0.0010006817,0.1,90.23645,1638989680999
Fix,GT,34.1722954,-118.5363729,201.818,0.002236068,0.1,90.23685,1638989681999
Fix,GT,34.1722954,-118.5363729,201.818,0.002236068,0.1,90.23761,1638989682999
Fix,GT,34.1722954,-118.5363729,201.818,0.002236068,0.1,90.238434,1638989683999
Fix,GT,34.1722954,-118.5363729,201.818,0.0022356124,0.1,90.23901,1638989684999
Fix,GT,34.1722954,-118.5363729,201.818,0.002236068,0.1,90.239685,1638989685999
Fix,GT,34.1722954,-118.5363729,201.818,0.002236068,0.1,90.24045,1638989686999
Fix,GT,34.1722954,-118.5363729,201.818,0.0022359367,0.1,90.24112,1638989687999
Fix,GT,34.1722954,-118.5363729,201.818,0.0022359365,0.1,90.24185,1638989688999
Fix,GT,34.1722954,-118.5363729,201.818,0.0014142136,0.1,90.242615,1638989689999
Fix,GT,34.1722954,-118.5363729,201.818,0.0014142136,0.1,90.243164,1638989690999
Fix,GT,34.1722954,-118.5363729,201.818,5.5968763e-07,0.1,90.24365,1638989691999
Fix,GT,34.1722954,-118.5363729,201.818,0.0,0.1,90.244354,1638989692999
Fix,GT,34.1722954,-118.5363729,201.818,0.001,0.1,90.24484,1638989693999
Fix,GT,34.1722953,-118.5363729,201.821,0.001999438,0.1,90.24536,1638989694999
Fix,GT,34.1722953,-118.5363729,201.825,0.006706749,0.1,90.24628,1638989695999
Fix,GT,34.1722952,-118.5363697,201.8190016903281,0.80793047,0.1,90.27136,1638989696999
Fix,GT,34.1722951,-118.5363522,201.7970016926527,2.3859735,0.1,90.31424,1638989697999
Fix,GT,34.1722949,-118.5363167,201.7430045194626,4.14908,0.1,90.36594,1638989698999
Fix,GT,34.1722945,-118.5362627,201.69500282883644,5.9179935,0.1,90.45502,1638989699999
Fix,GT,34.1722934,-118.5361901,201.6899988670349,7.377934,0.1,91.16937,1638989700999
Fix,GT,34.1722914,-118.5361047,201.7339852528572,8.318853,0.1,91.51553,1638989701999
Fix,GT,34.1722894,-118.536009,201.83799659252165,9.362888,0.1,91.118225,1638989702999
Fix,GT,34.1722885,-118.535901,201.74301649367808,10.641214,0.1,90.269714,1638989703999
Fix,GT,34.1722882,-118.5357778,201.65600284731389,11.893104,0.1,89.60712,1638989704999
Fix,GT,34.1722892,-118.5356446,201.68000456190111,12.475714,0.1,88.967926,1638989705999
Fix,GT,34.1722908,-118.5355089,201.79299486088752,12.493527,0.1,89.2168,1638989706999
Fix,GT,34.1722906,-118.5353715,201.78199942821263,12.997121,0.1,90.74878,1638989707999
Fix,GT,34.1722846,-118.5352308,201.8579925566912,12.995058,0.1,94.302,1638989708999
Fix,GT,34.1722708,-118.5350929,201.88000229334835,12.714646,0.1,98.319916,1638989709999
Fix,GT,34.1722486,-118.5349585,201.90800229620933,12.861989,0.1,102.82007,1638989710999
Fix,GT,34.1722162,-118.5348228,201.9540034493208,13.103119,0.1,107.572876,1638989711999
Fix,GT,34.1721749,-118.5346915,202.0599902137518,12.834878,0.1,112.26431,1638989712999
Fix,GT,34.1721263,-118.5345678,202.1489913525581,12.471482,0.1,116.78531,1638989713999
Fix,GT,34.1720715,-118.5344511,202.2599953823089,12.484638,0.1,120.29187,1638989714999
Fix,GT,34.1720128,-118.5343353,202.3309907522201,12.352044,0.1,121.36612,1638989715999
Fix,GT,34.1719577,-118.5342266,202.3999959490896,11.08686,0.1,120.91504,1638989716999
Fix,GT,34.1719107,-118.5341276,202.4429959432483,10.156371,0.1,118.7327,1638989717999
Fix,GT,34.1718691,-118.5340292,202.47399651813507,10.205544,0.1,115.74649,1638989718999
Fix,GT,34.1718326,-118.5339284,202.553995931983,10.023625,0.1,112.25543,1638989719999
Fix,GT,34.1718018,-118.5338251,202.60099301695823,10.314012,0.1,108.39172,1638989720999
Fix,GT,34.1717755,-118.5337153,202.70499766922,10.692974,0.1,104.46695,1638989721999
Fix,GT,34.1717554,-118.5336012,202.7549976663589,10.774764,0.1,100.44455,1638989722999
Fix,GT,34.1717425,-118.533482,202.82999240481857,11.477008,0.1,95.528564,1638989723999
Fix,GT,34.1717372,-118.5333535,202.9019929797649,12.077544,0.1,91.33807,1638989724999
Fix,GT,34.171739,-118.5332218,202.98199297118188,11.819862,0.1,87.39114,1638989725999
Fix,GT,34.1717476,-118.533101,203.03799178802967,10.501319,0.1,83.80383,1638989726999
Fix,GT,34.1717596,-118.5329938,203.1159976506233,9.50086,0.1,81.85843,1638989727999
Fix,GT,34.1717686,-118.5328936,203.17299647092813,9.179873,0.1,85.58661,1638989728999
Fix,GT,34.1717684,-118.5327933,203.2329970552325,9.6793165,0.1,92.12671,1638989729999
Fix,GT,34.1717566,-118.5326877,203.21400471830367,10.134156,0.1,100.11844,1638989730999
Fix,GT,34.1717307,-118.5325788,203.1750041335225,10.876781,0.1,108.69638,1638989731999
Fix,GT,34.1716878,-118.532468,203.32498462677,11.778591,0.1,117.52295,1638989732999
Fix,GT,34.1716329,-118.5323521,203.660972173512,12.8432455,0.1,119.529205,1638989733999
Fix,GT,34.1715758,-118.5322275,204.31995256900788,13.256781,0.1,118.57001,1638989734999
Fix,GT,34.1715195,-118.5320974,205.19994716405867,13.864287,0.1,116.60812,1638989735999
Fix,GT,34.1714655,-118.5319565,206.16793877911567,14.602705,0.1,113.511505,1638989736999
Fix,GT,34.1714166,-118.5318077,207.07494881176947,14.793406,0.1,110.054016,1638989737999
Fix,GT,34.1713736,-118.5316544,207.915950533092,15.174342,0.1,108.02936,1638989738999
Fix,GT,34.1713341,-118.5314921,208.8299468829036,15.740226,0.1,104.96228,1638989739999
Fix,GT,34.1713031,-118.5313281,209.64095278990268,15.154115,0.1,101.24774,1638989740999
Fix,GT,34.1712817,-118.5311695,210.325964699626,14.4405365,0.1,97.63049,1638989741999
Fix,GT,34.1712674,-118.5310172,210.82697303843497,13.8158655,0.1,95.77832,1638989742999
Fix,GT,34.1712553,-118.5308714,211.259978402853,13.214395,0.1,96.017,1638989743999
Fix,GT,34.1712414,-118.5307324,211.66897777426243,12.612935,0.1,97.41354,1638989744999
Fix,GT,34.1712254,-118.5306018,211.8809903755188,11.627129,0.1,98.90039,1638989745999
Fix,GT,34.1712091,-118.5304836,212.0129945792556,10.371094,0.1,99.678345,1638989746999
Fix,GT,34.1711937,-118.5303792,212.11198854035132,9.254537,0.1,99.986694,1638989747999
Fix,GT,34.1711795,-118.530285,212.2819957726002,8.42386,0.1,100.28998,1638989748999
Fix,GT,34.1711665,-118.5301997,212.35799516201016,7.616003,0.1,100.31793,1638989749999
Fix,GT,34.1711552,-118.5301228,212.4109957613349,6.6250734,0.1,100.00879,1638989750999
Fix,GT,34.1711464,-118.5300599,212.4409993937016,5.0842857,0.1,99.47479,1638989751999
Fix,GT,34.1711396,-118.5300087,212.442,4.549838,0.1,99.04758,1638989752999
Fix,GT,34.1711335,-118.5299612,212.438,4.3529477,0.1,98.68152,1638989753999
Fix,GT,34.1711278,-118.5299151,212.43300060874225,4.2332506,0.1,98.42465,1638989754999
Fix,GT,34.1711224,-118.5298707,212.44000060951709,3.9371057,0.1,98.31116,1638989755999
Fix,GT,34.1711177,-118.5298327,212.4479993897081,2.9997795,0.1,98.327576,1638989756999
Fix,GT,34.1711143,-118.5298047,212.4430012222529,2.4105723,0.1,98.28891,1638989757999
Fix,GT,34.1711109,-118.5297774,212.4360006119013,2.6614664,0.1,98.41284,1638989758999
Fix,GT,34.1711074,-118.5297495,212.42100061273567,2.6098979,0.1,98.44165,1638989759999
Fix,GT,34.1711035,-118.5297189,212.40800061351052,3.2716398,0.1,98.395935,1638989760999
Fix,GT,34.1710984,-118.5296782,212.39200061434508,4.4237757,0.1,98.39279,1638989761999
Fix,GT,34.1710917,-118.5296229,212.3979987697601,5.762176,0.1,98.10733,1638989762999
Fix,GT,34.1710847,-118.5295587,212.42299938416485,5.9619913,0.1,97.31769,1638989763999
Fix,GT,34.1710785,-118.5294958,212.4609975333214,5.7153025,0.1,96.628235,1638989764999
Fix,GT,34.171073,-118.5294337,212.47799876511093,5.9327297,0.1,96.000854,1638989765999
Fix,GT,34.1710676,-118.5293665,212.49399876356125,6.504687,0.1,95.24423,1638989766999
Fix,GT,34.1710635,-118.5292978,212.5059987618924,6.0467553,0.1,93.72525,1638989767999
Fix,GT,34.1710611,-118.5292355,212.49600123965743,5.3327785,0.1,92.60486,1638989768999
Fix,GT,34.1710592,-118.5291824,212.48600186198948,4.4410653,0.1,92.42917,1638989769999
Fix,GT,34.1710573,-118.529136,212.476998757124,4.2057667,0.1,92.79089,1638989770999
Fix,GT,34.171055,-118.5290904,212.479,4.395426,0.1,93.34631,1638989771999
Fix,GT,34.1710524,-118.5290394,212.4659987539053,5.119334,0.1,93.24222,1638989772999
Fix,GT,34.1710505,-118.528978,212.48099937617772,6.1611695,0.1,91.90646,1638989773999
Fix,GT,34.1710495,-118.5289092,212.491,6.3708367,0.1,90.94821,1638989774999
Fix,GT,34.1710485,-118.5288387,212.46900125086307,6.7577806,0.1,90.84012,1638989775999
Fix,GT,34.1710474,-118.5287653,212.464001252532,6.792187,0.1,91.04184,1638989776999
Fix,GT,34.1710466,-118.5286884,212.44500062704088,7.2563148,0.1,90.58124,1638989777999
Fix,GT,34.171046,-118.5286106,212.4220018834472,7.0804844,0.1,90.68475,1638989778999
Fix,GT,34.1710449,-118.5285365,212.39200188612932,6.6358275,0.1,90.9086,1638989779999
Fix,GT,34.1710443,-118.5284656,212.35100944316383,6.5444107,0.1,90.4935,1638989780999
Fix,GT,34.1710435,-118.5283905,212.3060031515956,7.0884156,0.1,90.51938,1638989781999
Fix,GT,34.171043,-118.5283149,212.2680018936396,6.7482467,0.1,90.41177,1638989782999
Fix,GT,34.1710427,-118.5282429,212.23900252795212,6.5842,0.1,90.24884,1638989783999
Fix,GT,34.1710424,-118.5281694,212.1780031641125,7.002004,0.1,90.03302,1638989784999
Fix,GT,34.1710424,-118.5280926,212.12300316798687,7.1369953,0.1,89.82971,1638989785999
Fix,GT,34.1710427,-118.5280127,212.0500050749779,7.709027,0.1,89.62384,1638989786999
Fix,GT,34.1710432,-118.5279237,211.97000508213043,8.733126,0.1,89.450134,1638989787999
Fix,GT,34.1710437,-118.5278233,211.88800636100768,9.7601,0.1,89.5582,1638989788999
Fix,GT,34.1710436,-118.5277124,211.82900254774097,10.703999,0.1,90.08032,1638989789999
Fix,GT,34.1710429,-118.5275939,211.76500446438789,11.010635,0.1,90.427185,1638989790999
Fix,GT,34.1710419,-118.5274742,211.65000510835648,11.022405,0.1,90.37988,1638989791999
Fix,GT,34.1710413,-118.5273537,211.5770076725483,11.370154,0.1,90.22745,1638989792999
Fix,GT,34.1710409,-118.5272257,211.5280038412809,12.296937,0.1,89.984406,1638989793999
Fix,GT,34.1710412,-118.5270859,211.5349955126643,13.528043,0.1,89.58478,1638989794999
Fix,GT,34.1710416,-118.5269308,211.4470057764053,15.102891,0.1,89.87735,1638989795999
Fix,GT,34.1710436,-118.5267577,211.33900771260264,16.785248,0.1,88.167145,1638989796999
Fix,GT,34.1710513,-118.5265691,211.2070128698349,17.816065,0.1,86.56833,1638989797999
Fix,GT,34.1710607,-118.5263731,211.033012242198,18.378645,0.1,86.88629,1638989798999
Fix,GT,34.171067,-118.5261717,210.80201806616785,18.595854,0.1,88.40399,1638989799999
Fix,GT,34.1710697,-118.5259735,210.514018087864,17.894016,0.1,89.36841,1638989800999
Fix,GT,34.1710702,-118.5257855,210.21601746600865,16.722088,0.1,89.88568,1638989801999
Fix,GT,34.17107,-118.5256119,209.9090213729143,15.2621155,0.1,89.971405,1638989802999
Fix,GT,34.1710702,-118.5254509,209.58901880818607,14.641093,0.1,89.67175,1638989803999
Fix,GT,34.1710706,-118.5252934,209.310017531991,14.389072,0.1,89.7561,1638989804999
Fix,GT,34.1710704,-118.5251393,209.04101755613087,14.0350895,0.1,90.084076,1638989805999
Fix,GT,34.1710703,-118.5249889,208.76601692759988,13.6930275,0.1,89.895935,1638989806999
Fix,GT,34.17107,-118.5248428,208.51801694774628,13.169144,0.1,90.06503,1638989807999
Fix,GT,34.1710695,-118.5247061,208.27401436007025,11.870204,0.1,90.07172,1638989808999
Fix,GT,34.1710694,-118.524585,208.0630130701065,10.523091,0.1,89.88977,1638989809999
Fix,GT,34.1710695,-118.5244776,207.8680111247897,9.395083,0.1,89.70624,1638989810999
Fix,GT,34.1710701,-118.5243804,207.6960111379624,8.614335,0.1,89.381226,1638989811999
Fix,GT,34.171071,-118.5242912,207.5360104961395,7.9578147,0.1,89.241486,1638989812999
Fix,GT,34.1710712,-118.5242055,207.37601051044464,7.9309974,0.1,89.927246,1638989813999
Fix,GT,34.171071,-118.5241191,207.2060105228424,8.007006,0.1,90.005035,1638989814999
Fix,GT,34.1710706,-118.5240311,207.0390098785758,8.122179,0.1,90.23749,1638989815999
Fix,GT,34.1710701,-118.5239459,206.89700791215893,7.6842213,0.1,90.30731,1638989816999
Fix,GT,34.1710693,-118.5238631,206.7580105628968,7.598587,0.1,90.573456,1638989817999
Fix,GT,34.1710691,-118.5237809,206.60200991523268,7.583995,0.1,89.84775,1638989818999
Fix,GT,34.1710694,-118.5236961,206.4680086040497,8.185975,0.1,89.75079,1638989819999
Fix,GT,34.1710694,-118.5236036,206.33000861412287,8.693019,0.1,89.83334,1638989820999
Fix,GT,34.1710693,-118.5235095,206.21400862574572,8.712001,0.1,90.0282,1638989821999
Fix,GT,34.171069,-118.5234093,206.06200930011275,10.033029,0.1,90.109375,1638989822999
Fix,GT,34.171069,-118.52329,205.934008646667,11.927935,0.1,89.70941,1638989823999
Fix,GT,34.1710696,-118.523153,205.7980086567402,13.222155,0.1,89.6134,1638989824999
Fix,GT,34.17107,-118.5230065,205.7060053343773,13.684018,0.1,89.755646,1638989825999
Fix,GT,34.1710699,-118.5228577,205.62700467300417,13.974029,0.1,90.08032,1638989826999
Fix,GT,34.1710695,-118.5227017,205.56100200521948,14.778954,0.1,89.91025,1638989827999
Fix,GT,34.17107,-118.5225376,205.53400133860112,15.469015,0.1,89.71417,1638989828999
Fix,GT,34.1710704,-118.5223659,205.51600067007536,16.18002,0.1,89.712036,1638989829999
Fix,GT,34.1710707,-118.5221882,205.48000469595192,16.425026,0.1,89.81918,1638989830999
Fix,GT,34.1710706,-118.5220146,205.443,15.50715,0.1,90.14105,1638989831999
Fix,GT,34.1710699,-118.5218511,205.40100537967683,14.704176,0.1,90.08588,1638989832999
Fix,GT,34.1710699,-118.5216952,205.3680020198822,14.169031,0.1,89.88721,1638989833999
Fix,GT,34.1710698,-118.5215429,205.31200269627573,13.971003,0.1,89.95801,1638989834999
Fix,GT,34.1710698,-118.5213898,205.288002699852,14.310026,0.1,89.816315,1638989835999
Fix,GT,34.1710695,-118.5212349,205.2650013514757,14.212153,0.1,90.13452,1638989836999
Fix,GT,34.171069,-118.5210819,205.23300270628928,13.987133,0.1,90.12677,1638989837999
Fix,GT,34.1710685,-118.5209305,205.1970027093888,14.063085,0.1,90.12131,1638989838999
Fix,GT,34.1710681,-118.5207744,205.1690013563633,14.798966,0.1,89.99719,1638989839999
Fix,GT,34.1710683,-118.5206106,205.1510006790161,15.181105,0.1,89.73361,1638989840999
Fix,GT,34.171069,-118.5204463,205.12900475895404,15.0824375,0.1,89.44232,1638989841999
Fix,GT,34.1710703,-118.5202817,205.0970027225017,15.23573,0.1,89.363434,1638989842999
Fix,GT,34.1710709,-118.5201173,205.06100340729952,15.06103,0.1,89.87155,1638989843999
Fix,GT,34.1710705,-118.5199553,205.0320054578781,14.866187,0.1,90.23004,1638989844999
Fix,GT,34.1710699,-118.5197978,204.9979979507923,14.09612,0.1,90.085144,1638989845999
Fix,GT,34.1710696,-118.519649,204.98800136768816,13.48505,0.1,90.06021,1638989846999
Fix,GT,34.1710689,-118.5195034,204.9560034236908,13.459365,0.1,90.39313,1638989847999
Fix,GT,34.1710677,-118.5193575,204.91800342756508,13.175551,0.1,90.25293,1638989848999
Fix,GT,34.1710678,-118.5192205,204.89300068634748,12.120098,0.1,89.7612,1638989849999
Fix,GT,34.1710681,-118.5190924,204.86300274848932,11.518096,0.1,89.71362,1638989850999
Fix,GT,34.1710684,-118.5189735,204.82100343948605,10.378134,0.1,89.73358,1638989851999
Fix,GT,34.1710687,-118.5188653,204.77100068873165,9.61611,0.1,89.72839,1638989852999
Fix,GT,34.171069,-118.5187649,204.6960027580261,8.962075,0.1,89.74002,1638989853999
Fix,GT,34.1710691,-118.5186694,204.650008284092,8.684046,0.1,89.68042,1638989854999
Fix,GT,34.1710697,-118.5185754,204.6050020733476,8.722325,0.1,89.34012,1638989855999
Fix,GT,34.1710705,-118.5184759,204.5780027680397,9.762332,0.1,89.40997,1638989856999
Fix,GT,34.171071,-118.5183637,204.5389993072152,10.852981,0.1,89.69968,1638989857999
Fix,GT,34.171071,-118.5182439,204.4360069361925,11.341943,0.1,89.96814,1638989858999
Fix,GT,34.1710707,-118.5181174,204.340009722352,11.837125,0.1,90.16116,1638989859999
Fix,GT,34.1710703,-118.5179877,204.21200973403447,11.995038,0.1,90.04636,1638989860999
Fix,GT,34.17107,-118.5178561,204.034013923645,12.344052,0.1,90.078735,1638989861999
Fix,GT,34.1710696,-118.5177215,203.82901672697068,12.491133,0.1,90.1882,1638989862999
Fix,GT,34.171069,-118.5175835,203.590015352726,13.033108,0.1,90.19275,1638989863999
Fix,GT,34.1710686,-118.5174383,203.3150195615292,13.776999,0.1,89.99393,1638989864999
Fix,GT,34.1710685,-118.5172844,203.02502168512345,14.563967,0.1,89.82248,1638989865999
Fix,GT,34.1710687,-118.5171237,202.69302381002905,14.927998,0.1,89.926025,1638989866999
Fix,GT,34.1710683,-118.5169627,202.3470252406597,14.612126,0.1,90.05881,1638989867999
Fix,GT,34.1710681,-118.5168084,201.9820238687992,13.8820505,0.1,89.96658,1638989868999
Fix,GT,34.171068,-118.5166603,201.6160274091363,13.464028,0.1,89.942474,1638989869999
Fix,GT,34.1710679,-118.5165158,201.25002462923527,13.1320305,0.1,89.91547,1638989870999
Fix,GT,34.1710681,-118.5163754,200.89002606529,12.796058,0.1,89.74155,1638989871999
Fix,GT,34.1710685,-118.516238,200.54502398228644,12.54415,0.1,89.630585,1638989872999
Fix,GT,34.171069,-118.5161028,200.1910261270404,12.452097,0.1,89.687256,1638989873999
Fix,GT,34.1710692,-118.5159652,199.81302616012093,12.985971,0.1,89.79996,1638989874999
Fix,GT,34.1710693,-118.515823,199.4770226516724,13.175993,0.1,89.90088,1638989875999
Fix,GT,34.1710693,-118.5156794,199.1150262218714,13.3189945,0.1,89.956726,1638989876999
Fix,GT,34.1710691,-118.5155343,198.73802625274652,13.431998,0.1,89.99896,1638989877999
Fix,GT,34.171069,-118.515386,198.3570284123421,14.016941,0.1,89.85419,1638989878999
Fix,GT,34.1710695,-118.5152292,197.95002915930743,14.910121,0.1,89.63367,1638989879999
Fix,GT,34.1710696,-118.5150609,197.49603346294168,16.244923,0.1,89.95712,1638989880999
Fix,GT,34.1710698,-118.5148786,197.0090356405973,17.27705,0.1,89.65173,1638989881999
Fix,GT,34.1710703,-118.5146883,196.53302997565268,17.795994,0.1,89.89612,1638989882999
Fix,GT,34.1710697,-118.5144912,196.2570192909837,18.621313,0.1,90.194275,1638989883999
Fix,GT,34.1710689,-118.5142872,196.0040143074989,18.844238,0.1,90.184296,1638989884999
Fix,GT,34.1710682,-118.5140821,195.79300859379768,19.092031,0.1,90.03055,1638989885999
Fix,GT,34.1710682,-118.5138716,195.55900788748264,19.588999,0.1,89.90152,1638989886999
Fix,GT,34.1710679,-118.5136596,195.3230208167434,19.48602,0.1,90.03003,1638989887999
Fix,GT,34.1710684,-118.5134489,195.20101293683047,19.349375,0.1,89.52194,1638989888999
Fix,GT,34.1710694,-118.51324,194.9780187082291,19.192127,0.1,89.70929,1638989889999
Fix,GT,34.1710692,-118.5130306,194.7620158470869,19.336105,0.1,90.09976,1638989890999
Fix,GT,34.1710684,-118.5128199,194.51701730918884,19.52817,0.1,90.14227,1638989891999
Fix,GT,34.1710677,-118.5126084,194.29801588380337,19.448095,0.1,90.04489,1638989892999
Fix,GT,34.1710676,-118.5123983,194.0640195178985,19.306025,0.1,89.7991,1638989893999
Fix,GT,34.1710682,-118.5121869,193.81601592051985,19.775063,0.1,89.708405,1638989894999
Fix,GT,34.1710685,-118.5119708,193.5850202858448,19.934006,0.1,89.92563,1638989895999
Fix,GT,34.1710684,-118.5117553,193.3470181347132,19.793015,0.1,89.85907,1638989896999
Fix,GT,34.1710688,-118.5115415,193.12601670175792,19.615118,0.1,89.706696,1638989897999
Fix,GT,34.1710698,-118.5113298,192.9160167195797,19.430584,0.1,89.4574,1638989898999
Fix,GT,34.1710706,-118.5111197,192.6830174679756,19.351006,0.1,90.01279,1638989899999
Fix,GT,34.1710692,-118.5109104,192.45501530200244,19.219217,0.1,90.46695,1638989900999
Fix,GT,34.1710682,-118.5107053,192.22101677715776,18.580183,0.1,90.142426,1638989901999
Fix,GT,34.1710676,-118.5105053,191.9390240971446,18.418116,0.1,90.11554,1638989902999
Fix,GT,34.1710672,-118.5103045,191.685010235548,18.556007,0.1,89.94037,1638989903999
Fix,GT,34.1710674,-118.5101055,191.48900512361527,18.042133,0.1,89.78735,1638989904999
Fix,GT,34.1710676,-118.5099139,191.25402198338503,17.308065,0.1,89.99869,1638989905999
Fix,GT,34.1710671,-118.5097284,191.0900139386654,16.992126,0.1,90.09393,1638989906999
Fix,GT,34.1710671,-118.5095448,190.98000440740583,16.937029,0.1,89.76688,1638989907999
Fix,GT,34.1710679,-118.5093594,190.9289992646575,17.303097,0.1,89.743164,1638989908999
Fix,GT,34.1710678,-118.5091688,190.89999411058423,17.86398,0.1,89.92804,1638989909999
Fix,GT,34.1710682,-118.5089727,191.00098968267443,18.251225,0.1,89.67825,1638989910999
Fix,GT,34.1710685,-118.5087724,191.1469896709919,18.722961,0.1,89.94681,1638989911999
Fix,GT,34.1710682,-118.5085668,191.265990398705,19.160015,0.1,90.022095,1638989912999
Fix,GT,34.1710678,-118.5083567,191.38599334490297,19.523026,0.1,90.02707,1638989913999
Fix,GT,34.171067,-118.508143,191.4979933379292,19.932602,0.1,90.3078,1638989914999
Fix,GT,34.1710664,-118.5079236,191.62098740190268,20.525007,0.1,89.964874,1638989915999
Fix,GT,34.1710669,-118.5076987,191.7549925816059,20.98556,0.1,89.36276,1638989916999
Fix,GT,34.1710716,-118.5074628,191.88898365986347,22.749691,0.1,87.85376,1638989917999
Fix,GT,34.1710813,-118.5072081,192.0659851298332,23.984829,0.1,87.344696,1638989918999
Fix,GT,34.1710891,-118.5069431,192.231988834858,25.024693,0.1,88.51141,1638989919999
Fix,GT,34.1710939,-118.5066668,192.40399105858805,25.592138,0.1,88.811554,1638989920999
Fix,GT,34.1710978,-118.5063911,192.5239925410748,25.230543,0.1,89.15524,1638989921999
Fix,GT,34.1710995,-118.5061201,192.56099477291107,24.794035,0.1,89.957886,1638989922999
Fix,GT,34.1710992,-118.5058536,192.64000074750183,24.344088,0.1,90.044464,1638989923999
Fix,GT,34.1710989,-118.5055919,192.7069962580204,23.906046,0.1,89.87634,1638989924999
Fix,GT,34.1710993,-118.5053349,192.823993257463,23.480106,0.1,89.79285,1638989925999
Fix,GT,34.1710982,-118.5050822,192.89997899985315,23.207201,0.1,90.48419,1638989926999
Fix,GT,34.171095,-118.5048312,193.132985735178,23.011866,0.1,91.07971,1638989927999
Fix,GT,34.1710896,-118.5045822,193.184994738698,23.06078,0.1,91.66281,1638989928999
Fix,GT,34.1710821,-118.5043296,193.30899097132684,23.602777,0.1,91.949036,1638989929999
Fix,GT,34.1710736,-118.5040717,193.4649826758504,23.927284,0.1,92.86249,1638989930999
Fix,GT,34.1710574,-118.5038143,193.63598869001865,23.70055,0.1,95.257385,1638989931999
Fix,GT,34.1710331,-118.5035582,193.82198490452765,23.977438,0.1,97.56729,1638989932999
Fix,GT,34.1709991,-118.5033023,193.99698791027072,23.80063,0.1,100.10501,1638989933999
Fix,GT,34.1709575,-118.5030537,194.1459894106388,22.929138,0.1,102.28186,1638989934999
Fix,GT,34.1709109,-118.5028175,194.2729893989563,21.79072,0.1,103.96747,1638989935999
Fix,GT,34.1708623,-118.502596,194.39999242007733,20.572386,0.1,105.31296,1638989936999
Fix,GT,34.1708118,-118.502387,194.46799696469307,19.621233,0.1,106.67151,1638989937999
Fix,GT,34.1707595,-118.5021891,194.4889984807968,18.788218,0.1,108.18164,1638989938999
Fix,GT,34.1707051,-118.5020001,194.4900015207529,18.114933,0.1,109.61038,1638989939999
Fix,GT,34.1706487,-118.5018199,194.4430076121092,17.49335,0.1,111.25342,1638989940999
Fix,GT,34.1705895,-118.5016472,194.3130129537582,16.858633,0.1,112.83304,1638989941999
Fix,GT,34.1705306,-118.5014848,194.1020213589668,16.017363,0.1,113.73813,1638989942999
Fix,GT,34.1704717,-118.5013282,193.984995418787,15.792498,0.1,114.58063,1638989943999
Fix,GT,34.1704098,-118.5011728,193.89600993603463,16.038126,0.1,116.120605,1638989944999
Fix,GT,34.1703458,-118.5010219,193.7350160680413,15.070257,0.1,117.341675,1638989945999
Fix,GT,34.1702839,-118.5008841,193.5310367641449,13.875094,0.1,118.878174,1638989946999
Fix,GT,34.1702225,-118.5007553,193.3080122671128,13.65528,0.1,120.01132,1638989947999
Fix,GT,34.1701596,-118.500628,193.22600614023207,13.494595,0.1,120.85773,1638989948999
Fix,GT,34.1700994,-118.5005092,193.03801536607745,12.071932,0.1,121.3916,1638989949999
Fix,GT,34.1700447,-118.5004038,192.8430146136284,11.066432,0.1,122.16141,1638989950999
Fix,GT,34.1699921,-118.5003062,192.65601539826395,10.487945,0.1,122.99609,1638989951999
Fix,GT,34.1699397,-118.5002115,192.44901541495324,10.514656,0.1,123.75415,1638989952999
Fix,GT,34.1698868,-118.5001182,192.24701620197297,10.28103,0.1,124.30835,1638989953999
Fix,GT,34.1698342,-118.5000273,192.0640139013529,10.186757,0.1,125.02142,1638989954999
Fix,GT,34.1697806,-118.4999375,191.8560162357688,10.253848,0.1,125.73477,1638989955999
Fix,GT,34.1697246,-118.4998452,191.64101625204088,10.945645,0.1,126.1087,1638989956999
Fix,GT,34.1696643,-118.4997483,191.4160193685293,11.263843,0.1,126.95007,1638989957999
Fix,GT,34.1696023,-118.4996502,191.15202093893288,11.570276,0.1,127.217865,1638989958999
Fix,GT,34.1695378,-118.4995486,190.8650232887268,11.903891,0.1,127.22629,1638989959999
Fix,GT,34.1694727,-118.4994455,190.5550240908861,11.977267,0.1,127.310394,1638989960999
Fix,GT,34.1694055,-118.4993406,190.23702644860745,12.612502,0.1,127.67227,1638989961999
Fix,GT,34.1693332,-118.499228,189.9010288131833,13.554622,0.1,127.54028,1638989962999
Fix,GT,34.1692573,-118.4991091,189.5070319574476,14.064843,0.1,127.408875,1638989963999
Fix,GT,34.1691796,-118.4989876,189.09703355479243,14.186724,0.1,127.70624,1638989964999
Fix,GT,34.1691002,-118.4988648,188.65103827482463,14.646197,0.1,127.84961,1638989965999
Fix,GT,34.1690165,-118.4987358,188.21903049385543,15.52485,0.1,127.92401,1638989966999
Fix,GT,34.168928,-118.4985997,187.84702817821503,16.288689,0.1,128.00513,1638989967999
Fix,GT,34.1688373,-118.49846,187.50402507209776,16.345232,0.1,127.947815,1638989968999
Fix,GT,34.1687469,-118.4983207,187.218019608438,16.217438,0.1,127.90146,1638989969999
Fix,GT,34.1686567,-118.4981818,186.99401413202287,16.25969,0.1,128.00403,1638989970999
Fix,GT,34.1685669,-118.4980434,186.8390094313621,16.10175,0.1,127.8165,1638989971999
Fix,GT,34.1684785,-118.4979062,186.74200629377364,15.875149,0.1,127.73035,1638989972999
Fix,GT,34.1683902,-118.4977693,186.6830015749931,16.167707,0.1,127.68283,1638989973999
Fix,GT,34.1683006,-118.4976299,186.64200157678127,16.43851,0.1,127.69061,1638989974999
Fix,GT,34.1682081,-118.4974863,186.62100157845023,17.008528,0.1,127.737335,1638989975999
Fix,GT,34.1681141,-118.497341,186.59200315999985,16.902452,0.1,127.97107,1638989976999
Fix,GT,34.1680217,-118.4971991,186.55800316309927,16.239208,0.1,127.99432,1638989977999
Fix,GT,34.1679335,-118.4970635,186.52400395804645,15.63355,0.1,128.08237,1638989978999
Fix,GT,34.1678468,-118.4969311,186.49000317001344,15.567258,0.1,128.18518,1638989979999
Fix,GT,34.1677592,-118.4967967,186.45100396639103,15.817705,0.1,128.04962,1638989980999
Fix,GT,34.1676706,-118.4966606,186.4180023821592,16.183708,0.1,127.86331,1638989981999
Fix,GT,34.1675794,-118.496519,186.37800317955012,16.791618,0.1,127.602295,1638989982999
Fix,GT,34.1674866,-118.4963739,186.3460015915632,16.906557,0.1,127.58649,1638989983999
Fix,GT,34.1673933,-118.4962295,186.31600238966945,16.928776,0.1,127.86957,1638989984999
Fix,GT,34.1672988,-118.4960837,186.29300159466268,16.94122,0.1,127.861176,1638989985999
Fix,GT,34.1672069,-118.4959418,186.25700239467625,16.211988,0.1,127.98636,1638989986999
Fix,GT,34.1671187,-118.4958067,186.2330023971796,15.585202,0.1,128.1694,1638989987999
Fix,GT,34.167032,-118.4956747,186.19500399947165,15.537485,0.1,128.26328,1638989988999
Fix,GT,34.1669444,-118.4955401,186.1470048043728,16.02021,0.1,127.742615,1638989989999
Fix,GT,34.1668547,-118.4953999,186.114,16.612455,0.1,127.40054,1638989990999
Fix,GT,34.1667615,-118.4952545,186.10099919760225,17.24199,0.1,127.684845,1638989991999
Fix,GT,34.1666658,-118.4951061,186.1359967868328,17.266314,0.1,127.8764,1638989992999
Fix,GT,34.1665716,-118.4949611,186.22798954713343,16.551716,0.1,128.05212,1638989993999
Fix,GT,34.1664819,-118.4948227,186.3839863156676,15.792773,0.1,127.71524,1638989994999
Fix,GT,34.1663989,-118.4946925,186.57398630249503,14.4943,0.1,127.42395,1638989995999
Fix,GT,34.1663224,-118.4945711,186.7879806408882,13.583497,0.1,127.00006,1638989996999
Fix,GT,34.1662506,-118.494455,187.0039798133969,13.129056,0.1,126.49628,1638989997999
Fix,GT,34.1661819,-118.494342,187.2399814091325,12.692423,0.1,125.94498,1638989998999
Fix,GT,34.1661166,-118.4942317,187.4869781534076,12.204635,0.1,125.07538,1638989999999
Fix,GT,34.166056,-118.4941246,187.7889756991863,11.655445,0.1,123.81537,1638990000999
Fix,GT,34.1660006,-118.4940215,188.086976485014,10.961372,0.1,122.50708,1638990001999
Fix,GT,34.1659495,-118.493922,188.38797646081449,10.658117,0.1,121.355255,1638990002999
Fix,GT,34.1658999,-118.4938221,188.6789748134017,10.842675,0.1,120.53366,1638990003999
Fix,GT,34.1658507,-118.4937186,188.98597559905053,10.965027,0.1,119.44916,1638990004999
Fix,GT,34.165803,-118.493614,189.26097882926464,11.1280365,0.1,118.45386,1638990005999
Fix,GT,34.1657559,-118.4935062,189.50498125422,11.160021,0.1,117.329956,1638990006999
Fix,GT,34.1657111,-118.4933986,189.7149836814404,11.071757,0.1,116.283264,1638990007999
Fix,GT,34.1656675,-118.4932891,189.9099852993488,11.177191,0.1,115.166016,1638990008999
Fix,GT,34.1656264,-118.49318,190.08298610085248,10.881442,0.1,114.105194,1638990009999
Fix,GT,34.1655873,-118.4930713,190.23498690605163,11.071589,0.1,113.1535,1638990010999
Fix,GT,34.1655473,-118.4929561,190.36899098807567,12.044212,0.1,112.32303,1638990011999
Fix,GT,34.165505,-118.492828,190.45699425929783,13.333761,0.1,111.272675,1638990012999
Fix,GT,34.165461,-118.4926876,190.50599589562407,14.322813,0.1,110.19174,1638990013999
Fix,GT,34.1654168,-118.492536,190.57900739538672,15.120453,0.1,108.90073,1638990014999
Fix,GT,34.1653746,-118.4923777,190.5390024676323,15.422548,0.1,107.15167,1638990015999
Fix,GT,34.1653353,-118.4922146,190.55998929607867,15.834308,0.1,105.468994,1638990016999
Fix,GT,34.1652992,-118.4920472,190.48000824153425,16.088572,0.1,103.91525,1638990017999
Fix,GT,34.1652663,-118.4918767,190.3490099005699,16.164463,0.1,102.33835,1638990018999
Fix,GT,34.1652373,-118.4917018,190.18901734226944,16.738253,0.1,100.737976,1638990019999
Fix,GT,34.1652107,-118.4915192,189.96601818645,17.394848,0.1,99.39438,1638990020999
Fix,GT,34.1651872,-118.4913298,189.69102399724724,17.808136,0.1,97.72162,1638990021999
Fix,GT,34.1651682,-118.4911361,189.373026506424,18.029892,0.1,96.0614,1638990022999
Fix,GT,34.1651537,-118.4909407,189.04902736032008,18.165657,0.1,94.38086,1638990023999
Fix,GT,34.1651437,-118.4907443,188.74802489805225,18.038319,0.1,92.91632,1638990024999
Fix,GT,34.1651382,-118.49055,188.46602242916825,17.769772,0.1,91.24704,1638990025999
Fix,GT,34.1651368,-118.4903575,188.2370182939768,17.857986,0.1,90.01373,1638990026999
Fix,GT,34.1651379,-118.490163,187.9970183110237,17.921732,0.1,89.48697,1638990027999
Fix,GT,34.1651393,-118.4899697,187.78001999425888,17.672009,0.1,89.39191,1638990028999
Fix,GT,34.1651408,-118.4897789,187.5930141777992,17.63351,0.1,89.53644,1638990029999
Fix,GT,34.1651419,-118.489586,187.4600091830492,17.81035,0.1,89.55292,1638990030999
Fix,GT,34.1651436,-118.4893938,187.36000752037765,17.625168,0.1,89.30588,1638990031999
Fix,GT,34.1651454,-118.4892038,187.2830058546066,17.508957,0.1,89.33038,1638990032999
Fix,GT,34.1651481,-118.4890111,187.23800502324104,18.050934,0.1,88.731476,1638990033999
Fix,GT,34.1651524,-118.488809,187.17300670480728,19.220203,0.1,88.31314,1638990034999
Fix,GT,34.1651567,-118.4885976,187.152,19.730267,0.1,88.81067,1638990035999
Fix,GT,34.1651597,-118.4883808,187.09300671720504,20.29731,0.1,89.050964,1638990036999
Fix,GT,34.1651627,-118.4881583,187.0150067238808,20.709364,0.1,89.143524,1638990037999
Fix,GT,34.1651649,-118.4879313,186.9650058888197,21.206318,0.1,89.3367,1638990038999
Fix,GT,34.165167,-118.4877,186.89800589466097,21.36585,0.1,89.501526,1638990039999
Fix,GT,34.1651683,-118.4874696,186.85400252860785,21.115465,0.1,89.57449,1638990040999
Fix,GT,34.1651706,-118.4872421,186.78700674963,20.743633,0.1,89.026855,1638990041999
Fix,GT,34.1651746,-118.4870229,186.73400422239305,19.59746,0.1,88.55188,1638990042999
Fix,GT,34.165179,-118.4868175,186.7060025357604,18.389395,0.1,88.503845,1638990043999
Fix,GT,34.1651825,-118.4866228,186.6550033845901,17.55713,0.1,88.92465,1638990044999
Fix,GT,34.1651852,-118.4864356,186.626001693964,17.08352,0.1,89.00763,1638990045999
Fix,GT,34.1651877,-118.4862513,186.5940050865412,16.921152,0.1,89.12082,1638990046999
Fix,GT,34.1651894,-118.4860686,186.5510025455952,16.805714,0.1,89.450806,1638990047999
Fix,GT,34.1651909,-118.4858863,186.539,16.825981,0.1,89.294495,1638990048999
Fix,GT,34.165193,-118.4857027,186.5260025504232,17.085932,0.1,89.06995,1638990049999
Fix,GT,34.1651959,-118.4855152,186.52499829804896,17.468445,0.1,88.802155,1638990050999
Fix,GT,34.1651988,-118.4853262,186.5350017035008,17.353437,0.1,89.04175,1638990051999
Fix,GT,34.165201,-118.4851394,186.5170017051697,17.11659,0.1,89.17154,1638990052999
Fix,GT,34.1652033,-118.4849562,186.49800085335968,16.458158,0.1,89.0744,1638990053999
Fix,GT,34.1652057,-118.484784,186.4780025624037,15.43425,0.1,89.042114,1638990054999
Fix,GT,34.1652078,-118.484621,186.44800170993807,14.749459,0.1,89.19699,1638990055999
Fix,GT,34.1652096,-118.4844614,186.42400085586308,14.632492,0.1,89.15381,1638990056999
Fix,GT,34.1652118,-118.4843065,186.4140017132759,13.849523,0.1,88.90811,1638990057999
Fix,GT,34.1652142,-118.4841615,186.3870025722385,12.9219055,0.1,88.81482,1638990058999
Fix,GT,34.1652166,-118.4840226,186.3600017164946,12.805747,0.1,88.83685,1638990059999
Fix,GT,34.1652187,-118.4838829,186.32800171804428,12.889962,0.1,88.99774,1638990060999
Fix,GT,34.1652207,-118.4837426,186.3030025795698,12.958792,0.1,89.03528,1638990061999
Fix,GT,34.1652226,-118.4836024,186.27400086063147,12.951739,0.1,89.01047,1638990062999
Fix,GT,34.1652248,-118.483461,186.2520034458637,13.072633,0.1,88.87326,1638990063999
Fix,GT,34.165227,-118.4833199,186.2300008622408,12.950365,0.1,88.92978,1638990064999
Fix,GT,34.1652289,-118.483179,186.21100172603133,13.149686,0.1,89.04529,1638990065999
Fix,GT,34.1652307,-118.4830339,186.172,13.580353,0.1,89.201965,1638990066999
Fix,GT,34.165232,-118.4828856,186.15300172924992,13.666488,0.1,89.461975,1638990067999
Fix,GT,34.1652335,-118.4827383,186.12100346183777,13.474458,0.1,89.10162,1638990068999
Fix,GT,34.1652358,-118.4825932,186.0630034649372,13.322692,0.1,88.800995,1638990069999
Fix,GT,34.1652385,-118.4824471,186.00900346827507,13.725365,0.1,88.66162,1638990070999
Fix,GT,34.1652413,-118.4822951,185.9640043392181,14.312596,0.1,88.67432,1638990071999
Fix,GT,34.1652437,-118.4821377,185.9410008686185,14.560624,0.1,89.154236,1638990072999
Fix,GT,34.1652455,-118.4819792,185.9390026083589,14.759489,0.1,89.135895,1638990073999
Fix,GT,34.1652476,-118.4818169,185.8810060915947,15.182984,0.1,89.0517,1638990074999
Fix,GT,34.1652497,-118.4816498,185.83900261318684,15.67942,0.1,89.215485,1638990075999
Fix,GT,34.1652515,-118.4814747,185.78500435918568,16.721224,0.1,89.23654,1638990076999
Fix,GT,34.1652535,-118.4812864,185.726006108284,17.98267,0.1,89.1492,1638990077999
Fix,GT,34.165256,-118.4810852,185.66100349378584,19.025032,0.1,89.10028,1638990078999
Fix,GT,34.1652586,-118.4808745,185.6200061195493,19.861078,0.1,89.16107,1638990079999
Fix,GT,34.1652613,-118.4806551,185.58400437527897,20.52045,0.1,89.04706,1638990080999
Fix,GT,34.1652649,-118.4804296,185.5650035033226,21.084814,0.1,88.702545,1638990081999
Fix,GT,34.165269,-118.4801989,185.5180061366558,21.343578,0.1,88.99481,1638990082999
Fix,GT,34.1652714,-118.479968,185.46600526463985,21.196156,0.1,89.35831,1638990083999
Fix,GT,34.1652734,-118.4797396,185.4190043910742,20.916267,0.1,89.307434,1638990084999
Fix,GT,34.1652761,-118.4795142,185.3630043952465,20.631762,0.1,89.03876,1638990085999
Fix,GT,34.1652792,-118.479292,185.30000527966024,20.338228,0.1,88.90906,1638990086999
Fix,GT,34.1652831,-118.4790732,185.2430061650276,20.018581,0.1,88.78708,1638990087999
Fix,GT,34.165286,-118.4788579,185.2010035259724,19.723999,0.1,89.211334,1638990088999
Fix,GT,34.1652882,-118.4786455,185.15800441163776,19.447594,0.1,89.23346,1638990089999
Fix,GT,34.1652906,-118.4784359,185.0990052986145,19.177437,0.1,89.05527,1638990090999
Fix,GT,34.1652939,-118.4782273,185.03100176799296,19.405962,0.1,88.77869,1638990091999
Fix,GT,34.1652972,-118.4780158,185.00100088477137,19.48269,0.1,88.97806,1638990092999
Fix,GT,34.1653006,-118.4778039,184.96000885605807,19.70616,0.1,88.74396,1638990093999
Fix,GT,34.165304,-118.477588,184.85800975018745,20.017101,0.1,88.93317,1638990094999
Fix,GT,34.1653062,-118.4773708,184.75000177443027,20.20781,0.1,89.36481,1638990095999
Fix,GT,34.1653076,-118.4771472,184.6950079913736,21.088404,0.1,89.52597,1638990096999
Fix,GT,34.1653076,-118.4769133,184.52801866281035,22.071545,0.1,90.44287,1638990097999
Fix,GT,34.165302,-118.4766666,184.30702135038376,23.41571,0.1,92.33646,1638990098999
Fix,GT,34.1652874,-118.4764099,184.0400240384936,24.017504,0.1,94.99588,1638990099999
Fix,GT,34.1652637,-118.4761488,183.74802584332227,24.486713,0.1,97.00198,1638990100999
Fix,GT,34.1652314,-118.4758832,183.43702943348885,25.07365,0.1,98.9751,1638990101999
Fix,GT,34.165191,-118.4756127,183.0730321371556,25.65185,0.1,101.09778,1638990102999
Fix,GT,34.1651399,-118.4753387,182.7270276995301,26.145292,0.1,103.89688,1638990103999
Fix,GT,34.1650769,-118.4750659,182.35503756594656,26.08365,0.1,106.70868,1638990104999
Fix,GT,34.165003,-118.4747988,181.984032225132,25.931684,0.1,109.84192,1638990105999
Fix,GT,34.1649162,-118.4745393,181.6290331511497,25.739714,0.1,113.499054,1638990106999
Fix,GT,34.1648173,-118.4742884,181.27302869415283,25.532473,0.1,116.86133,1638990107999
Fix,GT,34.1647082,-118.4740481,180.93603320848945,25.007378,0.1,119.94739,1638990108999
Fix,GT,34.1645921,-118.4738216,180.53403773367404,24.183989,0.1,123.031525,1638990109999
Fix,GT,34.1644683,-118.4736087,180.21904405766728,23.860367,0.1,126.37753,1638990110999
Fix,GT,34.1643355,-118.4734062,179.88303509652616,23.788443,0.1,129.63733,1638990111999
Fix,GT,34.1641937,-118.4732143,179.65502161931994,23.644344,0.1,133.18,1638990112999
Fix,GT,34.1640428,-118.4730349,179.2460378638506,23.52361,0.1,136.82968,1638990113999
Fix,GT,34.1638842,-118.4728671,178.82803790140153,23.405493,0.1,139.74405,1638990114999
Fix,GT,34.1637207,-118.4727066,178.43603522205353,23.589994,0.1,141.23523,1638990115999
Fix,GT,34.1635489,-118.4725503,178.08603073680402,24.21982,0.1,144.28394,1638990116999
Fix,GT,34.1633663,-118.4724024,177.7440262374282,24.757608,0.1,147.46277,1638990117999
Fix,GT,34.1631745,-118.4722651,177.41403259849548,24.75734,0.1,150.30743,1638990118999
Fix,GT,34.1629783,-118.4721353,177.04403353488445,24.96007,0.1,151.72577,1638990119999
Fix,GT,34.162779,-118.4720103,176.71202721369266,24.916473,0.1,152.9574,1638990120999
Fix,GT,34.1625781,-118.4718909,176.39103540802003,24.77587,0.1,154.17218,1638990121999
Fix,GT,34.1623774,-118.4717755,176.10302090084554,24.448137,0.1,154.12933,1638990122999
Fix,GT,34.1621823,-118.4716595,175.9200136426091,23.893764,0.1,153.2024,1638990123999
Fix,GT,34.1619916,-118.4715407,175.862,23.8318,0.1,152.08752,1638990124999
Fix,GT,34.1618013,-118.4714178,175.94799088883403,24.075033,0.1,151.56342,1638990125999
Fix,GT,34.1616092,-118.4712938,176.1349799383879,24.277962,0.1,152.00659,1638990126999
Fix,GT,34.1614162,-118.4711678,176.51795984268188,24.414934,0.1,150.8432,1638990127999
Fix,GT,34.1612272,-118.4710334,177.0279470204115,24.147615,0.1,147.95721,1638990128999
Fix,GT,34.161048,-118.4708891,177.6339424043894,23.628784,0.1,144.54904,1638990129999
Fix,GT,34.1608804,-118.4707338,178.28593869161605,23.210747,0.1,140.27118,1638990130999
Fix,GT,34.1607241,-118.4705681,178.90294504332542,23.009403,0.1,137.62622,1638990131999
Fix,GT,34.1605745,-118.4703974,179.51993582963945,22.766623,0.1,135.66782,1638990132999
Fix,GT,34.1604294,-118.4702214,180.2119357753992,22.931444,0.1,133.83374,1638990133999
Fix,GT,34.1602901,-118.4700373,180.72096510350704,22.97333,0.1,131.00296,1638990134999
Fix,GT,34.1601589,-118.4698446,181.1829503619671,22.79759,0.1,127.84439,1638990135999
Fix,GT,34.1600382,-118.4696458,181.61797792005532,22.589724,0.1,124.64691,1638990136999
Fix,GT,34.1599269,-118.4694394,181.8879972376824,22.78717,0.1,121.7652,1638990137999
Fix,GT,34.1598222,-118.4692252,182.11696037089823,22.949183,0.1,119.36612,1638990138999
Fix,GT,34.159725,-118.4690063,182.19199538809065,22.758316,0.1,117.02176,1638990139999
Fix,GT,34.1596358,-118.4687838,182.25599538362025,22.815073,0.1,114.66669,1638990140999
Fix,GT,34.1595544,-118.4685566,182.2999981518984,22.814342,0.1,112.2254,1638990141999
Fix,GT,34.1594812,-118.4683228,182.315,23.22354,0.1,109.08838,1638990142999
Fix,GT,34.1594205,-118.4680804,182.3390046288967,23.34967,0.1,104.6853,1638990143999
Fix,GT,34.1593757,-118.4678322,182.20301111865044,23.414873,0.1,100.18713,1638990144999
Fix,GT,34.1593444,-118.4675785,182.060019475162,23.902403,0.1,97.22568,1638990145999
Fix,GT,34.1593226,-118.4673191,181.9030139224529,24.19339,0.1,94.747314,1638990146999
Fix,GT,34.159308,-118.4670562,181.7560195102096,24.279135,0.1,93.192505,1638990147999
Fix,GT,34.1592984,-118.4667912,181.6170065088272,24.691492,0.1,91.92499,1638990148999
Fix,GT,34.1592926,-118.4665206,181.5070148916245,25.227474,0.1,91.07684,1638990149999
Fix,GT,34.1592898,-118.4662456,181.4100540270805,25.340132,0.1,90.487946,1638990150999
Fix,GT,34.1592884,-118.4659704,181.1770233083964,25.457159,0.1,90.10443,1638990151999
Fix,GT,34.1592887,-118.4656928,180.79503359198569,25.835413,0.1,89.60895,1638990152999
Fix,GT,34.1592907,-118.4654093,180.46402895230057,26.439314,0.1,89.303925,1638990153999
Fix,GT,34.1592936,-118.4651192,180.1510327172876,27.063131,0.1,89.191864,1638990154999
Fix,GT,34.1592967,-118.4648225,179.78103836017848,27.612045,0.1,89.238556,1638990155999
Fix,GT,34.1592998,-118.4645232,179.3180449523926,27.543804,0.1,89.0824,1638990156999
Fix,GT,34.159304,-118.4642255,178.82703936588766,27.340967,0.1,88.82263,1638990157999
Fix,GT,34.1593089,-118.4639306,178.35204221260548,27.051762,0.1,88.75159,1638990158999
Fix,GT,34.1593135,-118.4636384,177.8540478835106,26.860806,0.1,88.95261,1638990159999
Fix,GT,34.1593172,-118.4633482,177.36504416996243,26.685778,0.1,89.138916,1638990160999
Fix,GT,34.1593195,-118.4630598,176.8670460875034,26.524645,0.1,89.55188,1638990161999
Fix,GT,34.1593212,-118.4627731,176.34905083858968,26.344978,0.1,89.4068,1638990162999
Fix,GT,34.1593236,-118.4624904,175.84605182266236,25.727757,0.1,89.29367,1638990163999
Fix,GT,34.1593257,-118.4622132,175.28505092549324,25.428864,0.1,89.5423,1638990164999
Fix,GT,34.1593261,-118.4619385,174.70304813581706,25.258018,0.1,89.94089,1638990165999
Fix,GT,34.1593244,-118.4616654,174.17004251301287,25.13821,0.1,90.86505,1638990166999
Fix,GT,34.159315,-118.4613919,173.68304632991553,25.490122,0.1,93.627625,1638990167999
Fix,GT,34.159295,-118.4611135,173.1740492129326,25.910517,0.1,95.8562,1638990168999
Fix,GT,34.1592679,-118.4608347,172.68704451733828,25.875277,0.1,97.35034,1638990169999
Fix,GT,34.1592342,-118.4605579,172.3130265443325,25.746975,0.1,98.9389,1638990170999
Fix,GT,34.1591939,-118.4602842,172.10200474452972,25.539673,0.1,100.91446,1638990171999
Fix,GT,34.1591473,-118.4600145,172.1090028490424,25.299849,0.1,102.37372,1638990172999
Fix,GT,34.1590947,-118.4597496,172.26197813951967,24.982075,0.1,104.579834,1638990173999
Fix,GT,34.1590297,-118.4594896,172.51697621774673,25.28799,0.1,108.300354,1638990174999
Fix,GT,34.1589543,-118.4592314,172.8149685818553,25.114428,0.1,109.80078,1638990175999
Fix,GT,34.1588766,-118.4589778,173.13197141301632,24.75088,0.1,110.41818,1638990176999
Fix,GT,34.1587973,-118.4587293,173.4219732954502,24.370298,0.1,111.28693,1638990177999
Fix,GT,34.1587177,-118.4584857,173.77996181726456,23.822756,0.1,111.29895,1638990178999
Fix,GT,34.1586401,-118.4582473,174.1109732503891,23.491123,0.1,111.2655,1638990179999
Fix,GT,34.1585633,-118.4580082,174.30998948204518,23.862888,0.1,110.87503,1638990180999
Fix,GT,34.1584858,-118.457765,174.45498564571142,24.01306,0.1,110.98035,1638990181999
Fix,GT,34.1584083,-118.4575227,174.58600478833915,23.850515,0.1,110.848694,1638990182999
Fix,GT,34.1583324,-118.4572821,174.645983705461,23.5817,0.1,110.87088,1638990183999
Fix,GT,34.1582562,-118.4570451,174.6420038371086,23.319885,0.1,111.31683,1638990184999
Fix,GT,34.1581804,-118.4568113,174.59001152062416,22.882513,0.1,111.15198,1638990185999
Fix,GT,34.1581078,-118.4565813,174.43901633507014,22.560907,0.1,110.332825,1638990186999
Fix,GT,34.1580396,-118.4563502,174.22802596485616,22.713007,0.1,108.73547,1638990187999
Fix,GT,34.157975,-118.4561134,173.9710259873867,23.257801,0.1,107.6709,1638990188999
Fix,GT,34.1579132,-118.4558703,173.6540346777439,23.582014,0.1,106.19092,1638990189999
Fix,GT,34.1578563,-118.4556205,173.29203374367953,24.13928,0.1,104.56021,1638990190999
Fix,GT,34.1578036,-118.4553639,172.93703666543962,24.550123,0.1,103.17316,1638990191999
Fix,GT,34.1577556,-118.4551021,172.54903379791975,24.944769,0.1,101.69629,1638990192999
Fix,GT,34.1577126,-118.4548322,172.18803092956543,25.616798,0.1,100.02072,1638990193999
Fix,GT,34.1576757,-118.4545577,171.78303772795198,25.591328,0.1,98.17929,1638990194999
Fix,GT,34.1576459,-118.454282,171.3720377581716,25.634169,0.1,96.7926,1638990195999
Fix,GT,34.1576206,-118.454006,170.8800532913208,25.560196,0.1,95.72394,1638990196999
Fix,GT,34.1575987,-118.4537276,170.36405333721638,26.071342,0.1,95.23517,1638990197999
Fix,GT,34.1575763,-118.453441,169.82805338639022,26.758888,0.1,95.24664,1638990198999
Fix,GT,34.1575533,-118.4531524,169.4740301145315,26.69595,0.1,95.37848,1638990199999
Fix,GT,34.1575308,-118.4528651,169.1830174998045,26.489899,0.1,95.23773,1638990200999
Fix,GT,34.1575082,-118.4525809,169.11399221563337,26.170643,0.1,95.60208,1638990201999
Fix,GT,34.1574832,-118.4523008,169.22798441886903,25.86508,0.1,96.62714,1638990202999
Fix,GT,34.1574534,-118.4520232,169.47497953224183,25.699566,0.1,98.00757,1638990203999
Fix,GT,34.1574185,-118.451751,169.6829756142497,24.84321,0.1,99.244995,1638990204999
Fix,GT,34.1573818,-118.4514949,169.89397559338806,23.104097,0.1,100.19339,1638990205999
Fix,GT,34.1573442,-118.4512585,170.1199863214493,21.328386,0.1,101.43402,1638990206999
Fix,GT,34.1573051,-118.4510397,170.3369726228714,20.066618,0.1,102.532684,1638990207999
Fix,GT,34.1572654,-118.4508364,170.53198042821884,18.3359,0.1,103.52728,1638990208999
Fix,GT,34.1572267,-118.4506525,170.70898237144948,16.681046,0.1,104.5105,1638990209999
Fix,GT,34.1571889,-118.4504854,170.83799215793607,15.350099,0.1,105.49237,1638990210999
Fix,GT,34.1571516,-118.450331,170.88699019026757,14.456611,0.1,106.29233,1638990211999
Fix,GT,34.1571144,-118.4501845,170.71701472622158,13.715552,0.1,107.30191,1638990212999
Fix,GT,34.1570773,-118.4500472,170.49003144264222,12.9505825,0.1,108.20401,1638990213999
Fix,GT,34.1570408,-118.4499199,170.16702360057832,11.92483,0.1,109.492065,1638990214999
Fix,GT,34.1570051,-118.4498043,169.7540383811593,10.820418,0.1,110.6839,1638990215999
Fix,GT,34.1569706,-118.4496991,169.31504235357045,10.110252,0.1,111.864624,1638990216999
Fix,GT,34.1569366,-118.4496012,168.83604731559754,9.472891,0.1,112.8728,1638990217999
Fix,GT,34.1569038,-118.4495107,168.37504340934754,8.760535,0.1,113.61923,1638990218999
Fix,GT,34.156873,-118.4494276,167.95803751933573,7.9637,0.1,113.974365,1638990219999
Fix,GT,34.1568455,-118.4493545,167.5820355746746,6.8417735,0.1,114.30646,1638990220999
Fix,GT,34.1568219,-118.4492928,167.26902373504635,5.703554,0.1,114.66934,1638990221999
Fix,GT,34.1568017,-118.4492403,166.98902375364304,5.0090055,0.1,114.73822,1638990222999
Fix,GT,34.1567843,-118.4491944,166.81501287740468,4.2841177,0.1,114.583405,1638990223999
Fix,GT,34.1567695,-118.4491557,166.67101189613342,3.5681255,0.1,114.48981,1638990224999
Fix,GT,34.1567574,-118.4491239,166.53301289832592,2.9357316,0.1,114.37048,1638990225999
Fix,GT,34.1567482,-118.4490998,166.45300695067644,1.8855313,0.1,114.623566,1638990226999
Fix,GT,34.1567433,-118.4490869,166.40400397515296,0.8135315,0.1,114.8313,1638990227999
Fix,GT,34.1567413,-118.4490821,166.3930009945631,0.21257015,0.1,114.89389,1638990228999
Fix,GT,34.1567411,-118.4490816,166.392,0.0028276027,0.1,114.904236,1638990229999
Fix,GT,34.1567412,-118.4490816,166.393,0.001414797,0.1,114.90451,1638990230999
Fix,GT,34.1567412,-118.4490816,166.393,0.0031622776,0.1,114.9039,1638990231999
Fix,GT,34.1567412,-118.4490816,166.393,0.0022358324,0.1,114.90372,1638990232999
Fix,GT,34.1567412,-118.4490816,166.393,0.002,0.1,114.903595,1638990233999
Fix,GT,34.1567412,-118.4490816,166.393,0.001,0.1,114.90335,1638990234999
Fix,GT,34.1567412,-118.4490816,166.393,0.0014137992,0.1,114.9032,1638990235999
Fix,GT,34.1567412,-118.4490816,166.393,0.001,0.1,114.9028,1638990236999
Fix,GT,34.1567412,-118.4490816,166.393,0.002236068,0.1,114.90253,1638990237999
Fix,GT,34.1567412,-118.4490816,166.393,0.0028284271,0.1,114.90234,1638990238999
Fix,GT,34.1567412,-118.4490816,166.392,0.0042426405,0.1,114.90207,1638990239999
Fix,GT,34.1567412,-118.4490816,166.392,0.0050006597,0.1,114.90149,1638990240999
Fix,GT,34.1567411,-118.4490817,166.3999989950657,0.0064031244,0.1,114.901245,1638990241999
Fix,GT,34.1567411,-118.4490818,166.404,0.0064031244,0.1,114.901184,1638990242999
Fix,GT,34.1567411,-118.4490818,166.404,0.005830952,0.1,114.901,1638990243999
