MessageType,Provider,LatitudeDegrees,LongitudeDegrees,AltitudeMeters,SpeedMps,AccuracyMeters,BearingDegrees,UnixTimeMillis
Fix,GT,37.4444994,-122.2323152,11.751,0.0,0.1,78.69,1615921154434
Fix,GT,37.4444994,-122.2323152,11.751,0.0,0.1,78.68991,1615921155434
Fix,GT,37.4444994,-122.2323152,11.751,0.000970935,0.1,78.68982,1615921156434
Fix,GT,37.4444994,-122.2323152,11.751434565544129,0.002236068,0.1,78.68964,1615921157434
Fix,GT,37.4444994,-122.2323152,11.752000350236894,0.0021335636,0.1,78.68982,1615921158434
Fix,GT,37.4444994,-122.2323152,11.752000350236894,0.0021025045,0.1,78.690155,1615921159434
Fix,GT,37.4444994,-122.2323152,11.752,0.0016993483,0.1,78.690186,1615921160434
Fix,GT,37.4444994,-122.2323152,11.752,0.00056578463,0.1,78.690186,1615921161434
Fix,GT,37.4444994,-122.2323152,11.752,0.0,0.1,78.69034,1615921162434
Fix,GT,37.4444994,-122.2323152,11.751999649763109,0.0006140733,0.1,78.690674,1615921163434
Fix,GT,37.4444994,-122.2323152,11.751999649763109,0.0008001402,0.1,78.69098,1615921164434
Fix,GT,37.4444994,-122.2323152,11.752,0.0,0.1,78.690796,1615921165434
Fix,GT,37.4444994,-122.2323152,11.752,0.00043421544,0.1,78.690765,1615921166434
Fix,GT,37.4444994,-122.2323152,11.752,0.001,0.1,78.69083,1615921167434
Fix,GT,37.4444994,-122.2323152,11.752000350236894,0.001,0.1,78.69083,1615921168434
Fix,GT,37.4444994,-122.2323152,11.752000350236894,0.0005657846,0.1,78.69098,1615921169434
Fix,GT,37.4444994,-122.2323152,11.752,0.0,0.1,78.6911,1615921170434
Fix,GT,37.4444994,-122.2323152,11.752,0.0,0.1,78.69104,1615921171434
Fix,GT,37.4444994,-122.2323152,11.752,0.0,0.1,78.69092,1615921172434
Fix,GT,37.4444994,-122.2323152,11.751999649763109,0.0,0.1,78.69104,1615921173434
Fix,GT,37.4444994,-122.2323152,11.751999649763109,0.0,0.1,78.691376,1615921174434
Fix,GT,37.4444994,-122.2323152,11.752,0.00043421556,0.1,78.69147,1615921175434
Fix,GT,37.4444994,-122.2323152,11.752,0.001,0.1,78.691376,1615921176434
Fix,GT,37.4444994,-122.2323152,11.752,0.00056578446,0.1,78.69141,1615921177434
Fix,GT,37.4444994,-122.2323152,11.752,0.00043421556,0.1,78.69147,1615921178434
Fix,GT,37.4444994,-122.2323152,11.752000350236894,0.001,0.1,78.69162,1615921179434
Fix,GT,37.4444994,-122.2323152,11.752000350236894,0.001179858,0.1,78.69162,1615921180434
Fix,GT,37.4444994,-122.2323152,11.752000350236894,0.0014142136,0.1,78.69159,1615921181434
Fix,GT,37.4444994,-122.2323152,11.752,0.0014142136,0.1,78.69168,1615921182434
Fix,GT,37.4444994,-122.2323152,11.752,0.0014142136,0.1,78.69174,1615921183434
Fix,GT,37.4444994,-122.2323152,11.752,0.0012343556,0.1,78.6918,1615921184434
Fix,GT,37.4444994,-122.2323152,11.752,0.001,0.1,78.69183,1615921185434
Fix,GT,37.4444994,-122.2323152,11.751999649763109,0.001179858,0.1,78.69183,1615921186434
Fix,GT,37.4444994,-122.2323152,11.751999649763109,0.0012343555,0.1,78.691895,1615921187434
Fix,GT,37.4444994,-122.2323152,11.751999649763109,0.001179858,0.1,78.69183,1615921188434
Fix,GT,37.4444994,-122.2323152,11.752000350236894,0.0012343556,0.1,78.691895,1615921189434
Fix,GT,37.4444994,-122.2323152,11.752000350236894,0.00056578434,0.1,78.691895,1615921190434
Fix,GT,37.4444994,-122.2323152,11.752000350236894,0.0004342157,0.1,78.691864,1615921191434
Fix,GT,37.4444994,-122.2323152,11.752,0.0005657843,0.1,78.691864,1615921192434
Fix,GT,37.4444994,-122.2323152,11.752,0.0,0.1,78.691864,1615921193434
Fix,GT,37.4444994,-122.2323152,11.751999649763109,0.00043421576,0.1,78.691986,1615921194434
Fix,GT,37.4444994,-122.2323152,11.751999649763109,0.0009999999,0.1,78.69214,1615921195434
Fix,GT,37.4444994,-122.2323152,11.751999649763109,0.0009999999,0.1,78.69229,1615921196434
Fix,GT,37.4444994,-122.2323152,11.752,0.001,0.1,78.69241,1615921197434
Fix,GT,37.4444994,-122.2323152,11.752,0.0005657842,0.1,78.692474,1615921198434
Fix,GT,37.4444994,-122.2323152,11.752000350236894,0.0,0.1,78.69241,1615921199434
Fix,GT,37.4444994,-122.2323152,11.752000350236894,0.0,0.1,78.69229,1615921200434
Fix,GT,37.4444994,-122.2323152,11.752000350236894,0.0,0.1,78.69232,1615921201434
Fix,GT,37.4444994,-122.2323152,11.752,0.00043421585,0.1,78.69241,1615921202434
Fix,GT,37.4444994,-122.2323152,11.752,0.001,0.1,78.69238,1615921203434
Fix,GT,37.4444994,-122.2323152,11.752,0.001,0.1,78.69238,1615921204434
Fix,GT,37.4444994,-122.2323152,11.751999649763109,0.001,0.1,78.692505,1615921205434
Fix,GT,37.4444994,-122.2323152,11.751999649763109,0.001,0.1,78.692566,1615921206434
Fix,GT,37.4444994,-122.2323152,11.751999649763109,0.0011798581,0.1,78.6926,1615921207434
Fix,GT,37.4444994,-122.2323152,11.751999649763109,0.0014142136,0.1,78.69275,1615921208434
Fix,GT,37.4444994,-122.2323152,11.752,0.0012343555,0.1,78.69278,1615921209434
Fix,GT,37.4444994,-122.2323152,11.752,0.001,0.1,78.69278,1615921210434
Fix,GT,37.4444994,-122.2323152,11.752,0.0005657841,0.1,78.69281,1615921211434
Fix,GT,37.4444994,-122.2323152,11.752000350236894,0.00043421597,0.1,78.69293,1615921212434
Fix,GT,37.4444994,-122.2323152,11.752000350236894,0.0005657841,0.1,78.69287,1615921213434
Fix,GT,37.4444994,-122.2323152,11.752000350236894,0.00061407406,0.1,78.692535,1615921214434
Fix,GT,37.4444994,-122.2323152,11.752000350236894,0.0016685715,0.1,78.692505,1615921215434
Fix,GT,37.4444994,-122.2323152,11.752,0.0023597162,0.1,78.69284,1615921216434
Fix,GT,37.4444994,-122.2323152,11.752,0.0031658667,0.1,78.693085,1615921217434
Fix,GT,37.4444994,-122.2323152,11.752,0.0038821856,0.1,78.69318,1615921218434
Fix,GT,37.4444994,-122.2323152,11.752,0.0042426405,0.1,78.69321,1615921219434
Fix,GT,37.4444994,-122.2323152,11.751999649763109,0.003966006,0.1,78.69327,1615921220434
Fix,GT,37.4444994,-122.2323152,11.751999649763109,0.0029083951,0.1,78.69342,1615921221434
Fix,GT,37.4444994,-122.2323152,11.751565433770418,0.002434216,0.1,78.69357,1615921222434
Fix,GT,37.4444994,-122.2323152,11.75099964979291,0.0069440035,0.1,78.69345,1615921223434
Fix,GT,37.4444994,-122.2323151,11.749263135910034,0.014807541,0.1,78.69336,1615921224434
Fix,GT,37.4444996,-122.232315,11.745697351932526,0.028706007,0.1,78.69354,1615921225434
Fix,GT,37.4445007,-122.2323149,11.744,0.30974984,0.1,78.68793,1615921226434
Fix,GT,37.4445061,-122.2323159,11.730105087280272,0.9497807,0.1,78.17413,1615921227434
Fix,GT,37.4445182,-122.2323192,11.70288181194663,1.3897934,0.1,74.48691,1615921228434
Fix,GT,37.4445342,-122.2323267,11.677539650797844,1.453628,0.1,65.04736,1615921229434
Fix,GT,37.4445485,-122.2323371,11.653487106710672,1.0602565,0.1,53.751526,1615921230434
Fix,GT,37.4445557,-122.2323433,11.646737211257218,0.37650073,0.1,48.005005,1615921231434
Fix,GT,37.4445561,-122.2323426,11.648131915062669,0.4590289,0.1,47.01828,1615921232434
Fix,GT,37.4445529,-122.2323374,11.652210939735172,1.3582971,0.1,41.918304,1615921233434
Fix,GT,37.4445467,-122.2323262,11.64553930145502,2.3527036,0.1,27.917725,1615921234434
Fix,GT,37.4445412,-122.2323058,11.636250105559826,3.2915723,0.1,9.397339,1615921235434
Fix,GT,37.4445402,-122.2322715,11.642223623096942,3.979453,0.1,356.5466,1615921236434
Fix,GT,37.4445439,-122.2322275,11.596920552611351,4.1773944,0.1,352.74365,1615921237434
Fix,GT,37.4445489,-122.2321784,11.45220932626724,4.2855854,0.1,355.434,1615921238434
Fix,GT,37.4445497,-122.2321222,11.266604452013969,4.5692635,0.1,7.568634,1615921239434
Fix,GT,37.444536,-122.232061,11.165328705906868,5.029595,0.1,27.843964,1615921240434
Fix,GT,37.4445058,-122.2320071,11.121026057481766,5.3442783,0.1,42.37085,1615921241434
Fix,GT,37.4444739,-122.231965,11.069381247639656,5.2566786,0.1,38.651978,1615921242434
Fix,GT,37.4444526,-122.2319267,11.022105083465576,5.0034676,0.1,19.132599,1615921243434
Fix,GT,37.4444463,-122.2318904,10.959710278451444,4.7857485,0.1,349.5671,1615921244434
Fix,GT,37.4444556,-122.23186,10.837736331522464,4.740037,0.1,315.46445,1615921245434
Fix,GT,37.4444777,-122.2318423,10.680183571338652,4.7927713,0.1,281.23016,1615921246434
Fix,GT,37.4445041,-122.2318435,10.547526157021522,4.757781,0.1,247.17146,1615921247434
Fix,GT,37.4445261,-122.2318631,10.51042118883133,4.5789537,0.1,215.74245,1615921248434
Fix,GT,37.4445384,-122.231896,10.56264524191618,4.29626,0.1,192.50621,1615921249434
Fix,GT,37.4445421,-122.231936,10.660763782143594,3.8950222,0.1,181.74947,1615921250434
Fix,GT,37.4445416,-122.2319761,10.769895349740985,3.4540932,0.1,179.2655,1615921251434
Fix,GT,37.4445405,-122.2320125,10.869210705548523,3.0937486,0.1,178.68512,1615921252434
Fix,GT,37.4445394,-122.2320461,10.943315783530474,2.8808131,0.1,178.92065,1615921253434
Fix,GT,37.4445387,-122.2320781,10.98846037608385,2.742868,0.1,179.50647,1615921254434
Fix,GT,37.4445383,-122.2321085,11.036829024404287,2.5514698,0.1,180.22058,1615921255434
Fix,GT,37.4445383,-122.2321368,11.128237518787383,2.440856,0.1,181.10432,1615921256434
Fix,GT,37.4445387,-122.232165,11.258829790353776,2.5951982,0.1,181.49658,1615921257434
Fix,GT,37.4445393,-122.2321957,11.394105951309204,2.921618,0.1,181.03377,1615921258434
Fix,GT,37.4445397,-122.2322305,11.510198004961014,3.3088279,0.1,180.27328,1615921259434
Fix,GT,37.4445397,-122.2322701,11.578210940390823,3.7001727,0.1,179.56946,1615921260434
Fix,GT,37.4445393,-122.2323129,11.530289092630149,3.8577511,0.1,178.82239,1615921261434
Fix,GT,37.4445385,-122.2323544,11.513277377843856,3.5678139,0.1,177.68054,1615921262434
Fix,GT,37.4445369,-122.2323913,11.649567005127668,3.2547593,0.1,175.25238,1615921263434
Fix,GT,37.444534,-122.2324252,11.78059271365404,3.1771393,0.1,171.3595,1615921264434
Fix,GT,37.4445292,-122.2324584,11.901658717513085,3.1498077,0.1,167.58716,1615921265434
Fix,GT,37.4445228,-122.2324911,12.042790284872057,3.1025414,0.1,164.62701,1615921266434
Fix,GT,37.4445151,-122.2325235,12.197553639769554,3.057491,0.1,162.90051,1615921267434
Fix,GT,37.4445065,-122.2325559,12.370250629454851,3.1538935,0.1,161.64197,1615921268434
Fix,GT,37.4444967,-122.2325899,12.544290138810872,3.4553132,0.1,159.60815,1615921269434
Fix,GT,37.4444848,-122.2326265,12.72793494606018,3.8493896,0.1,156.45575,1615921270434
Fix,GT,37.4444694,-122.2326666,12.885934497743843,4.41834,0.1,152.63403,1615921271434
Fix,GT,37.4444492,-122.2327106,12.875012133479116,5.042967,0.1,147.08328,1615921272434
Fix,GT,37.4444233,-122.2327558,12.713472841262815,5.31896,0.1,141.16388,1615921273434
Fix,GT,37.444393,-122.2328002,12.559051648139953,5.3129835,0.1,138.02875,1615921274434
Fix,GT,37.4443611,-122.2328427,12.388880932539704,5.297413,0.1,135.06409,1615921275434
Fix,GT,37.4443277,-122.232882,12.19503853970766,5.341941,0.1,130.28162,1615921276434
Fix,GT,37.4442912,-122.2329178,11.964485772103073,5.432588,0.1,125.00955,1615921277434
Fix,GT,37.4442515,-122.2329504,11.706288190513847,5.484542,0.1,120.86548,1615921278434
Fix,GT,37.4442097,-122.2329811,11.45347273400426,5.367279,0.1,119.51956,1615921279434
Fix,GT,37.4441684,-122.2330118,11.256920071005824,5.0509043,0.1,121.694885,1615921280434
Fix,GT,37.4441306,-122.2330435,11.114367758750916,4.618776,0.1,126.595276,1615921281434
Fix,GT,37.4440975,-122.2330775,11.014960035502911,4.3637624,0.1,132.91956,1615921282434
Fix,GT,37.4440686,-122.2331154,10.91980197519064,4.2792215,0.1,139.92856,1615921283434
Fix,GT,37.4440443,-122.2331559,10.803591050684451,4.0698767,0.1,146.76343,1615921284434
Fix,GT,37.4440252,-122.2331967,10.6849332190454,3.6886625,0.1,152.78046,1615921285434
Fix,GT,37.4440113,-122.2332333,10.568459490656853,3.1496892,0.1,156.2005,1615921286434
Fix,GT,37.4440014,-122.2332629,10.455275390714409,2.4617612,0.1,157.1947,1615921287434
Fix,GT,37.4439946,-122.2332845,10.370947010040284,1.5379462,0.1,158.13104,1615921288434
Fix,GT,37.4439914,-122.2332951,10.326144587516785,0.5392743,0.1,158.70569,1615921289434
Fix,GT,37.4439907,-122.2332974,10.311131567001343,0.018462533,0.1,158.85486,1615921290434
Fix,GT,37.4439907,-122.2332975,10.31,0.009416647,0.1,158.85577,1615921291434
Fix,GT,37.4439908,-122.2332976,10.31,0.0036973506,0.1,158.85571,1615921292434
Fix,GT,37.4439908,-122.2332976,10.310000307261944,0.002,0.1,158.85632,1615921293434
Fix,GT,37.4439908,-122.2332976,10.309566090732812,0.0021025047,0.1,158.85681,1615921294434
Fix,GT,37.4439908,-122.2332976,10.30900030723214,0.0026382436,0.1,158.85706,1615921295434
Fix,GT,37.4439908,-122.2332976,10.30900030723214,0.0027601023,0.1,158.8573,1615921296434
Fix,GT,37.4439908,-122.2332976,10.30900030723214,0.003055451,0.1,158.85767,1615921297434
Fix,GT,37.4439909,-122.2332976,10.308999692767856,0.007187474,0.1,158.85791,1615921298434
Fix,GT,37.4439909,-122.2332976,10.309433909356594,0.013486935,0.1,158.85822,1615921299434
Fix,GT,37.4439909,-122.2332976,10.309999692738057,0.022651047,0.1,158.85925,1615921300434
Fix,GT,37.4439911,-122.2332976,10.310433909326791,0.03662838,0.1,158.8606,1615921301434
Fix,GT,37.4439912,-122.2332984,10.304920660465957,0.2387118,0.1,158.90466,1615921302434
Fix,GT,37.4439898,-122.2333051,10.265736098736523,1.1636033,0.1,159.05994,1615921303434
Fix,GT,37.4439845,-122.2333257,10.162906723082068,2.4763618,0.1,161.3252,1615921304434
Fix,GT,37.443977,-122.2333618,10.039446771383286,3.4057314,0.1,168.75366,1615921305434
Fix,GT,37.4439737,-122.2334123,9.914959557652471,4.406682,0.1,182.1502,1615921306434
Fix,GT,37.4439832,-122.2334767,9.758999073982238,5.9640603,0.1,197.27934,1615921307434
Fix,GT,37.4440097,-122.2335533,9.568788011550904,7.9175215,0.1,207.00125,1615921308434
Fix,GT,37.4440491,-122.2336411,9.367867783874273,9.524412,0.1,210.40538,1615921309434
Fix,GT,37.4440963,-122.2337389,9.181827797591689,10.573099,0.1,211.18987,1615921310434
Fix,GT,37.4441484,-122.2338438,8.952735740482808,11.063635,0.1,212.22275,1615921311434
Fix,GT,37.4442013,-122.2339472,8.730472600400448,10.593231,0.1,212.50778,1615921312434
Fix,GT,37.4442498,-122.2340417,8.53522294279933,9.243565,0.1,212.30537,1615921313434
Fix,GT,37.4442904,-122.2341219,8.369617638051508,7.5579433,0.1,212.20895,1615921314434
Fix,GT,37.4443225,-122.2341853,8.214946531772613,5.696664,0.1,212.24867,1615921315434
Fix,GT,37.4443456,-122.2342311,8.104565315783024,3.9234755,0.1,212.3676,1615921316434
Fix,GT,37.4443609,-122.2342609,8.049710366368293,2.3786383,0.1,212.43497,1615921317434
Fix,GT,37.444369,-122.2342767,8.032828916609287,1.0395806,0.1,212.45186,1615921318434
Fix,GT,37.4443719,-122.2342823,8.027828916609288,0.27361137,0.1,212.4438,1615921319434
Fix,GT,37.4443724,-122.2342834,8.025434216678143,0.0032012179,0.1,212.44118,1615921320434
Fix,GT,37.4443724,-122.2342834,8.027302650034429,0.002434217,0.1,212.4421,1615921321434
Fix,GT,37.4443724,-122.2342834,8.029868194133044,0.003,0.1,212.44211,1615921322434
Fix,GT,37.4443724,-122.2342834,8.030999760657549,0.0025657832,0.1,212.44252,1615921323434
Fix,GT,37.4443723,-122.2342834,8.030999760657549,0.002,0.1,212.44286,1615921324434
Fix,GT,37.4443723,-122.2342834,8.030999760657549,0.0015657833,0.1,212.44325,1615921325434
Fix,GT,37.4443723,-122.2342834,8.030999760657549,0.0005657833,0.1,212.4436,1615921326434
Fix,GT,37.4443723,-122.2342834,8.030999760657549,0.00061407516,0.1,212.44391,1615921327434
Fix,GT,37.4443723,-122.2342834,8.031433977365493,0.0017710763,0.1,212.44427,1615921328434
Fix,GT,37.4443723,-122.2342834,8.032433977335693,0.0024932802,0.1,212.44467,1615921329434
Fix,GT,37.4443723,-122.2342834,8.033434216737747,0.0031658674,0.1,212.44485,1615921330434
Fix,GT,37.4443724,-122.2342834,8.034434216737747,0.004211044,0.1,212.44498,1615921331434
Fix,GT,37.4443724,-122.2342834,8.035434216737746,0.004671142,0.1,212.44528,1615921332434
Fix,GT,37.4443724,-122.2342834,8.036434216737748,0.0039660055,0.1,212.44563,1615921333434
Fix,GT,37.4443724,-122.2342835,8.037868433475495,0.0030108988,0.1,212.4459,1615921334434
Fix,GT,37.4443724,-122.2342835,8.039434456348419,0.0034792097,0.1,212.44629,1615921335434
Fix,GT,37.4443724,-122.2342835,8.04130288991332,0.008167415,0.1,212.44664,1615921336434
Fix,GT,37.4443724,-122.2342835,8.044302890002726,0.01636649,0.1,212.4469,1615921337434
Fix,GT,37.4443723,-122.2342835,8.047737106859683,0.027354669,0.1,212.44714,1615921338434
Fix,GT,37.4443721,-122.2342834,8.051302890211344,0.04265365,0.1,212.44743,1615921339434
Fix,GT,37.4443719,-122.2342834,8.052131806463004,0.13285777,0.1,212.44746,1615921340434
Fix,GT,37.4443737,-122.2342875,8.037973496079445,0.92662174,0.1,212.42357,1615921341434
Fix,GT,37.4443814,-122.2343041,7.992341691374779,2.6494966,0.1,211.07938,1615921342434
Fix,GT,37.4443948,-122.2343359,7.985395175814629,4.349615,0.1,203.91959,1615921343434
Fix,GT,37.444406,-122.2343815,8.06017132383585,5.58565,0.1,188.50233,1615921344434
Fix,GT,37.4444056,-122.2344379,8.16505324691534,6.481411,0.1,168.50366,1615921345434
Fix,GT,37.4443866,-122.2344992,8.265881679862739,7.4836926,0.1,147.97272,1615921346434
Fix,GT,37.4443434,-122.2345606,8.356487709403037,8.9928055,0.1,130.57788,1615921347434
Fix,GT,37.4442738,-122.2346205,8.534738310813903,10.799192,0.1,120.61148,1615921348434
Fix,GT,37.4441829,-122.2346824,8.812765297651291,12.378448,0.1,117.85886,1615921349434
Fix,GT,37.4440785,-122.2347502,9.176384092211723,13.732992,0.1,117.347534,1615921350434
Fix,GT,37.4439631,-122.2348246,9.635911615908146,15.087803,0.1,117.315735,1615921351434
Fix,GT,37.4438371,-122.2349066,10.0831207844913,16.379845,0.1,117.48331,1615921352434
Fix,GT,37.4437013,-122.2349954,10.373383443236351,17.582056,0.1,117.43909,1615921353434
Fix,GT,37.4435566,-122.2350902,10.58885639423132,18.637125,0.1,117.43201,1615921354434
Fix,GT,37.4434041,-122.2351904,10.764987960398198,19.471928,0.1,117.56232,1615921355434
Fix,GT,37.4432468,-122.2352947,10.956053668856622,19.901917,0.1,117.753815,1615921356434
Fix,GT,37.4430884,-122.2354005,11.1945408962667,19.850372,0.1,117.92697,1615921357434
Fix,GT,37.4429316,-122.2355062,11.499673639297486,19.704937,0.1,118.07095,1615921358434
Fix,GT,37.4427752,-122.2356115,11.976504534423352,19.699463,0.1,117.844025,1615921359434
Fix,GT,37.4426191,-122.2357157,12.669399644970897,19.547773,0.1,117.5397,1615921360434
Fix,GT,37.4424648,-122.2358173,13.547151500165462,19.080235,0.1,117.29132,1615921361434
Fix,GT,37.4423156,-122.2359144,14.621756909251214,18.235558,0.1,117.13092,1615921362434
Fix,GT,37.4421733,-122.236007,15.680663835465907,17.332726,0.1,117.302765,1615921363434
Fix,GT,37.4420381,-122.2360961,16.5787683737278,16.562681,0.1,117.61371,1615921364434
Fix,GT,37.4419087,-122.2361832,17.390571274638177,16.029503,0.1,118.35788,1615921365434
Fix,GT,37.4417833,-122.2362713,18.183886987864973,15.8119755,0.1,119.66937,1615921366434
Fix,GT,37.4416601,-122.2363623,18.90725465995073,15.891878,0.1,120.50244,1615921367434
Fix,GT,37.441536,-122.2364569,19.627189128994942,16.361101,0.1,121.08591,1615921368434
Fix,GT,37.4414084,-122.2365586,20.419991964280605,17.073463,0.1,122.859955,1615921369434
Fix,GT,37.4412781,-122.236672,21.324150525897743,17.822695,0.1,126.14334,1615921370434
Fix,GT,37.4411485,-122.2368014,22.27238779234886,18.621058,0.1,130.23013,1615921371434
Fix,GT,37.4410212,-122.2369483,23.27260012754797,19.417477,0.1,134.25644,1615921372434
Fix,GT,37.4408978,-122.2371115,24.36820546358824,20.020138,0.1,138.20831,1615921373434
Fix,GT,37.4407803,-122.2372892,25.47762599891424,20.490229,0.1,142.08362,1615921374434
Fix,GT,37.4406696,-122.2374792,26.645350378155705,20.860664,0.1,145.06818,1615921375434
Fix,GT,37.4405636,-122.2376766,27.81142761197686,21.153433,0.1,146.30219,1615921376434
Fix,GT,37.4404574,-122.2378768,28.979758665919302,21.429966,0.1,145.73862,1615921377434
Fix,GT,37.4403468,-122.2380753,30.22496967771649,21.648212,0.1,143.61243,1615921378434
Fix,GT,37.4402282,-122.2382693,31.38794267320633,21.861784,0.1,141.13495,1615921379434
Fix,GT,37.440102,-122.2384591,32.48877069795132,22.072773,0.1,139.20978,1615921380434
Fix,GT,37.4399701,-122.2386458,33.603271026611324,22.205872,0.1,137.70792,1615921381434
Fix,GT,37.4398339,-122.2388286,34.71538906669617,22.225721,0.1,135.97968,1615921382434
Fix,GT,37.4396933,-122.2390056,35.77337662515044,22.10888,0.1,134.09863,1615921383434
Fix,GT,37.4395508,-122.2391761,36.89082441055774,21.694616,0.1,132.8959,1615921384434
Fix,GT,37.439409,-122.2393386,38.11005993065238,21.081188,0.1,131.36877,1615921385434
Fix,GT,37.4392669,-122.2394893,39.24058508810401,20.504562,0.1,128.63327,1615921386434
Fix,GT,37.4391227,-122.2396285,40.23455921244621,20.184715,0.1,126.47519,1615921387434
Fix,GT,37.4389757,-122.2397607,41.16942889031768,20.180302,0.1,124.54236,1615921388434
Fix,GT,37.4388247,-122.239887,42.04246614676714,20.304684,0.1,122.69867,1615921389434
Fix,GT,37.4386691,-122.2400079,42.736201397240166,20.522202,0.1,120.680725,1615921390434
Fix,GT,37.4385083,-122.2401218,43.2697653709948,20.74141,0.1,117.82492,1615921391434
Fix,GT,37.4383417,-122.240226,43.700713062763214,20.80935,0.1,114.963104,1615921392434
Fix,GT,37.4381719,-122.2403211,43.99870029562712,20.599762,0.1,112.96808,1615921393434
Fix,GT,37.4380026,-122.2404089,44.19156688040495,20.18293,0.1,111.73834,1615921394434
Fix,GT,37.4378356,-122.240491,44.353421009868384,19.74233,0.1,110.81302,1615921395434
Fix,GT,37.4376712,-122.2405692,44.4755793261528,19.330685,0.1,110.53165,1615921396434
Fix,GT,37.4375089,-122.2406466,44.59271200978756,19.21861,0.1,110.87274,1615921397434
Fix,GT,37.4373464,-122.2407264,44.85202876865864,19.478611,0.1,111.64087,1615921398434
Fix,GT,37.4371828,-122.2408115,45.23639671269059,19.652023,0.1,113.29431,1615921399434
Fix,GT,37.4370216,-122.2409051,45.706372093200685,19.462406,0.1,116.393585,1615921400434
Fix,GT,37.4368683,-122.2410099,46.23537404343486,18.871529,0.1,120.86548,1615921401434
Fix,GT,37.4367275,-122.2411265,46.8494932025671,18.134022,0.1,126.15155,1615921402434
Fix,GT,37.436601,-122.2412537,47.52630775874853,17.457085,0.1,131.07135,1615921403434
Fix,GT,37.4364872,-122.2413871,48.16076597091556,16.836628,0.1,134.20978,1615921404434
Fix,GT,37.4363827,-122.2415212,48.75195206260681,16.09777,0.1,136.38654,1615921405434
Fix,GT,37.4362878,-122.2416523,49.39983553898334,14.979966,0.1,138.38647,1615921406434
Fix,GT,37.436204,-122.2417767,50.05060991871357,13.646925,0.1,140.40363,1615921407434
Fix,GT,37.4361308,-122.2418946,50.6164102216661,12.602934,0.1,143.32431,1615921408434
Fix,GT,37.4360677,-122.2420104,51.13417515635491,11.840748,0.1,147.79831,1615921409434
Fix,GT,37.4360158,-122.2421265,51.59866226625442,11.230244,0.1,154.06268,1615921410434
Fix,GT,37.4359772,-122.2422464,51.977346641242505,11.013601,0.1,162.78021,1615921411434
Fix,GT,37.4359554,-122.2423746,52.34823950684071,11.342766,0.1,173.56909,1615921412434
Fix,GT,37.4359532,-122.24251,52.70205387985706,11.747549,0.1,184.28967,1615921413434
Fix,GT,37.4359698,-122.2426473,53.17200631368161,12.123224,0.1,192.75839,1615921414434
Fix,GT,37.4360008,-122.2427843,53.76350445783138,12.635578,0.1,198.53236,1615921415434
Fix,GT,37.4360431,-122.2429227,54.36824192559719,13.249321,0.1,202.62343,1615921416434
Fix,GT,37.4360933,-122.2430635,55.0560173124969,13.836964,0.1,204.62308,1615921417434
Fix,GT,37.4361482,-122.2432067,55.83036174869537,14.084865,0.1,205.84862,1615921418434
Fix,GT,37.436205,-122.2433492,56.64945548504591,14.0439415,0.1,206.1828,1615921419434
Fix,GT,37.4362615,-122.2434903,57.44825786402821,13.913269,0.1,206.00528,1615921420434
Fix,GT,37.4363175,-122.2436304,58.24201961308718,13.823675,0.1,206.39111,1615921421434
Fix,GT,37.4363748,-122.2437702,59.06630756875872,13.916605,0.1,207.40038,1615921422434
Fix,GT,37.4364362,-122.2439102,59.92094121015072,14.136815,0.1,209.77196,1615921423434
Fix,GT,37.4365045,-122.2440482,60.76945388007164,14.265404,0.1,213.68924,1615921424434
Fix,GT,37.4365802,-122.2441811,61.60473243835568,14.30402,0.1,217.08937,1615921425434
Fix,GT,37.4366602,-122.2443073,62.46121736049652,13.992077,0.1,219.30255,1615921426434
Fix,GT,37.4367405,-122.244426,63.30748048615456,13.393786,0.1,220.67763,1615921427434
Fix,GT,37.4368188,-122.2445376,64.12759658652544,12.898226,0.1,221.63445,1615921428434
Fix,GT,37.4368961,-122.2446441,64.89358492279052,12.555546,0.1,222.53644,1615921429434
Fix,GT,37.4369734,-122.2447476,65.59788892784715,12.495716,0.1,223.23543,1615921430434
Fix,GT,37.4370524,-122.2448518,66.24525707530975,13.101881,0.1,223.33467,1615921431434
Fix,GT,37.4371372,-122.244964,66.88875347360968,14.425374,0.1,223.17819,1615921432434
Fix,GT,37.4372308,-122.2450885,67.56113719725609,15.780117,0.1,222.84401,1615921433434
Fix,GT,37.4373303,-122.245223,68.25355844759942,16.70065,0.1,222.33624,1615921434434
Fix,GT,37.4374335,-122.2453647,68.95956051465869,17.29424,0.1,222.08891,1615921435434
Fix,GT,37.4375396,-122.245511,69.67988771086931,17.642767,0.1,222.36517,1615921436434
Fix,GT,37.4376474,-122.2456572,70.41063755321503,17.425573,0.1,223.00961,1615921437434
Fix,GT,37.4377541,-122.2457984,71.1367145280838,16.975578,0.1,223.68517,1615921438434
Fix,GT,37.4378601,-122.245936,71.87505884933472,16.947487,0.1,224.07031,1615921439434
Fix,GT,37.4379681,-122.2460759,72.60125805065036,17.686632,0.1,223.42453,1615921440434
Fix,GT,37.4380803,-122.2462261,73.35158793315293,18.91523,0.1,222.41467,1615921441434
Fix,GT,37.4381988,-122.2463897,74.1826914153099,20.258455,0.1,221.69556,1615921442434
Fix,GT,37.438324,-122.2465664,75.07603204724192,21.64521,0.1,221.2469,1615921443434
Fix,GT,37.4384574,-122.2467558,76.02063961458205,23.058151,0.1,221.67728,1615921444434
Fix,GT,37.4386024,-122.2469545,76.97645786699653,24.462349,0.1,223.24608,1615921445434
Fix,GT,37.4387607,-122.247159,77.97936651355027,25.843004,0.1,224.97557,1615921446434
Fix,GT,37.4389314,-122.2473693,79.04903565418721,27.209734,0.1,225.57089,1615921447434
Fix,GT,37.4391107,-122.2475897,80.16083629527688,28.51784,0.1,225.14958,1615921448434
Fix,GT,37.4392961,-122.2478215,81.32058919334412,29.643139,0.1,224.6534,1615921449434
Fix,GT,37.4394868,-122.2480636,82.5247474014759,30.649412,0.1,224.25758,1615921450434
Fix,GT,37.4396829,-122.2483155,83.76037684944272,31.669216,0.1,223.96852,1615921451434
Fix,GT,37.4398844,-122.2485766,85.05676175630092,32.675785,0.1,223.89323,1615921452434
Fix,GT,37.4400923,-122.2488457,86.41792249372601,33.557796,0.1,224.03102,1615921453434
Fix,GT,37.4403049,-122.24912,87.78493293321134,34.03676,0.1,223.99425,1615921454434
Fix,GT,37.4405184,-122.2493969,89.13415392190218,34.123642,0.1,223.72545,1615921455434
Fix,GT,37.440731,-122.2496752,90.4919200592041,34.126816,0.1,223.53113,1615921456434
Fix,GT,37.4409425,-122.2499536,91.85025138655304,33.867893,0.1,223.44836,1615921457434
Fix,GT,37.4411513,-122.2502288,93.17209328338504,33.309856,0.1,223.58554,1615921458434
Fix,GT,37.4413571,-122.2504986,94.5189071879387,32.84563,0.1,223.779,1615921459434
Fix,GT,37.4415611,-122.2507649,95.92064126697184,32.503345,0.1,223.80745,1615921460434
Fix,GT,37.4417629,-122.2510289,97.3229072713852,32.246143,0.1,223.81978,1615921461434
Fix,GT,37.4419629,-122.2512917,98.71639694452286,32.119522,0.1,223.58754,1615921462434
Fix,GT,37.4421601,-122.2515559,100.07577510893344,32.045967,0.1,222.46092,1615921463434
Fix,GT,37.4423511,-122.2518253,101.38484062361717,31.987024,0.1,220.41786,1615921464434
Fix,GT,37.4425325,-122.2521033,102.66750150889158,31.859657,0.1,217.70647,1615921465434
Fix,GT,37.4427024,-122.2523907,103.93234035331012,31.69542,0.1,215.14758,1615921466434
Fix,GT,37.4428623,-122.2526852,105.17135021921992,31.593573,0.1,213.18588,1615921467434
Fix,GT,37.4430144,-122.252986,106.40473191738128,31.63264,0.1,211.35286,1615921468434
Fix,GT,37.4431585,-122.2532933,107.64122181367874,31.661644,0.1,209.47519,1615921469434
Fix,GT,37.4432951,-122.2536067,108.8809490121305,31.724678,0.1,207.71637,1615921470434
Fix,GT,37.4434243,-122.2539261,110.1468013153076,31.871513,0.1,205.95592,1615921471434
Fix,GT,37.443546,-122.2542524,111.42636382943392,32.12388,0.1,204.01141,1615921472434
Fix,GT,37.4436596,-122.2545869,112.70492957150935,32.42131,0.1,201.93819,1615921473434
Fix,GT,37.4437641,-122.2549295,113.98857780981064,32.73372,0.1,199.81381,1615921474434
Fix,GT,37.4438597,-122.2552803,115.29781850159168,33.08216,0.1,197.79561,1615921475434
Fix,GT,37.4439465,-122.2556387,116.62256494438648,33.410107,0.1,195.87741,1615921476434
Fix,GT,37.4440244,-122.256004,117.94481166437268,33.709328,0.1,193.90652,1615921477434
Fix,GT,37.4440929,-122.2563753,119.24003449103236,33.936344,0.1,191.92012,1615921478434
Fix,GT,37.4441512,-122.2567516,120.44826092946528,34.112183,0.1,189.85501,1615921479434
Fix,GT,37.4441987,-122.2571321,121.57122067308428,34.291092,0.1,187.61417,1615921480434
Fix,GT,37.4442344,-122.2575166,122.61552628740668,34.44904,0.1,185.30025,1615921481434
Fix,GT,37.4442578,-122.2579043,123.56337308898568,34.61777,0.1,182.91956,1615921482434
Fix,GT,37.4442685,-122.2582947,124.4094118797183,34.736736,0.1,180.62097,1615921483434
Fix,GT,37.4442669,-122.2586863,125.16561185216904,34.75211,0.1,178.41882,1615921484434
Fix,GT,37.4442534,-122.2590773,125.78483773741128,34.707817,0.1,176.34033,1615921485434
Fix,GT,37.4442301,-122.2594673,126.261902440995,34.67387,0.1,174.87122,1615921486434
Fix,GT,37.4442007,-122.2598562,126.62700292110443,34.48352,0.1,174.14008,1615921487434
Fix,GT,37.4441688,-122.2602416,126.89365621706844,34.057438,0.1,173.94781,1615921488434
Fix,GT,37.4441374,-122.2606217,127.08430034017562,33.591873,0.1,174.19055,1615921489434
Fix,GT,37.4441081,-122.2609977,127.26535734188556,33.245136,0.1,174.55249,1615921490434
Fix,GT,37.4440809,-122.2613702,127.48991398966312,32.935616,0.1,174.74591,1615921491434
Fix,GT,37.4440543,-122.2617386,127.70433074706791,32.54608,0.1,174.64929,1615921492434
Fix,GT,37.444027,-122.2621023,127.89714290869236,32.11717,0.1,174.4129,1615921493434
Fix,GT,37.4439991,-122.2624609,128.08494901275634,31.681225,0.1,174.25177,1615921494434
Fix,GT,37.4439713,-122.2628148,128.22646539685132,31.262455,0.1,174.2196,1615921495434
Fix,GT,37.4439437,-122.2631641,128.34996195417642,30.845322,0.1,174.22485,1615921496434
Fix,GT,37.4439166,-122.2635085,128.4819315188229,30.422363,0.1,174.24213,1615921497434
Fix,GT,37.4438905,-122.2638487,128.5991064519882,30.001213,0.1,174.71411,1615921498434
Fix,GT,37.4438687,-122.2641849,128.67264486640693,29.592674,0.1,176.24133,1615921499434
Fix,GT,37.4438557,-122.2645178,128.6626273441315,29.233383,0.1,178.3324,1615921500434
Fix,GT,37.4438521,-122.2648482,128.60482813525198,29.130512,0.1,180.06519,1615921501434
Fix,GT,37.4438562,-122.265179,128.49864717042445,29.307539,0.1,181.72025,1615921502434
Fix,GT,37.4438681,-122.2655119,128.33880074554682,29.509941,0.1,183.4257,1615921503434
Fix,GT,37.4438876,-122.2658464,128.12530945917965,29.705154,0.1,184.92223,1615921504434
Fix,GT,37.4439144,-122.2661819,127.84822048842906,29.823986,0.1,186.62347,1615921505434
Fix,GT,37.44395,-122.2665175,127.50847370392084,29.910534,0.1,188.64229,1615921506434
Fix,GT,37.4439948,-122.2668522,127.10781131970882,29.99831,0.1,190.3725,1615921507434
Fix,GT,37.4440467,-122.2671866,126.67415350151065,30.20295,0.1,191.55571,1615921508434
Fix,GT,37.4441048,-122.2675224,126.24615725672246,30.462185,0.1,193.05598,1615921509434
Fix,GT,37.4441713,-122.2678582,125.82162724280356,30.59858,0.1,194.96057,1615921510434
Fix,GT,37.4442469,-122.2681923,125.3907716950178,30.686022,0.1,196.85727,1615921511434
Fix,GT,37.4443316,-122.2685239,124.9475122949481,30.78392,0.1,198.76756,1615921512434
Fix,GT,37.4444255,-122.2688529,124.50346900558472,30.941906,0.1,200.57924,1615921513434
Fix,GT,37.4445279,-122.2691811,124.02550404033065,31.31372,0.1,202.23746,1615921514434
Fix,GT,37.4446392,-122.2695103,123.5393374209404,31.864372,0.1,203.83925,1615921515434
Fix,GT,37.4447609,-122.2698409,123.11678901907804,32.38487,0.1,205.82332,1615921516434
Fix,GT,37.4448936,-122.2701711,122.69004764604568,32.88864,0.1,207.86868,1615921517434
Fix,GT,37.4450378,-122.2705005,122.25017634627224,33.493378,0.1,209.87485,1615921518434
Fix,GT,37.4451948,-122.2708294,121.89820742464067,34.220245,0.1,211.86551,1615921519434
Fix,GT,37.4453636,-122.2711591,121.65918602761629,34.976772,0.1,213.45213,1615921520434
Fix,GT,37.4455433,-122.2714899,121.53998627597092,35.702026,0.1,215.11969,1615921521434
Fix,GT,37.4457347,-122.2718199,121.54864206889272,36.344856,0.1,217.04607,1615921522434
Fix,GT,37.4459383,-122.2721468,121.71884506988526,36.91886,0.1,219.05885,1615921523434
Fix,GT,37.4461534,-122.2724704,122.04043830299378,37.47653,0.1,220.71007,1615921524434
Fix,GT,37.4463773,-122.2727918,122.46920630058644,37.994957,0.1,221.48845,1615921525434
Fix,GT,37.4466064,-122.2731144,122.99797628626229,38.47305,0.1,221.5312,1615921526434
Fix,GT,37.4468377,-122.2734421,123.63807361996174,39.040874,0.1,221.10167,1615921527434
Fix,GT,37.4470711,-122.2737772,124.4107496868968,39.706875,0.1,220.95784,1615921528434
Fix,GT,37.4473081,-122.2741176,125.33498497569562,40.220203,0.1,221.14886,1615921529434
Fix,GT,37.4475486,-122.2744605,126.4171798376739,40.511612,0.1,221.34204,1615921530434
Fix,GT,37.4477909,-122.2748043,127.56609161806108,40.674034,0.1,221.39233,1615921531434
Fix,GT,37.4480338,-122.2751492,128.73572744897007,40.79991,0.1,221.23972,1615921532434
Fix,GT,37.4482769,-122.2754958,129.93136854356527,40.889748,0.1,221.20146,1615921533434
Fix,GT,37.4485205,-122.2758432,131.11439049348235,40.96959,0.1,221.21669,1615921534434
Fix,GT,37.448764,-122.2761914,132.2766050800085,40.993996,0.1,220.9866,1615921535434
Fix,GT,37.4490058,-122.2765408,133.43431931367516,40.90251,0.1,220.66359,1615921536434
Fix,GT,37.4492453,-122.2768909,134.53736699086426,40.781143,0.1,220.26642,1615921537434
Fix,GT,37.4494819,-122.2772425,135.53712483260037,40.704315,0.1,219.70844,1615921538434
Fix,GT,37.449716,-122.2775961,136.38111750677228,40.634354,0.1,219.41324,1615921539434
Fix,GT,37.4499487,-122.2779502,137.07567839449644,40.59341,0.1,219.34123,1615921540434
Fix,GT,37.4501809,-122.278305,137.73926675093173,40.67565,0.1,219.29564,1615921541434
Fix,GT,37.4504141,-122.278661,138.348492703557,40.844788,0.1,219.3303,1615921542434
Fix,GT,37.4506488,-122.2790184,138.77734980639815,41.080086,0.1,219.49913,1615921543434
Fix,GT,37.4508859,-122.2793769,139.019264844656,41.35028,0.1,219.67177,1615921544434
Fix,GT,37.4511249,-122.2797372,139.11689095690846,41.573586,0.1,219.64955,1615921545434
Fix,GT,37.4513647,-122.2800991,139.13022355818748,41.69723,0.1,219.56923,1615921546434
Fix,GT,37.4516041,-122.2804624,139.05496284618974,41.731403,0.1,219.36107,1615921547434
Fix,GT,37.4518426,-122.2808269,138.87858566612005,41.713924,0.1,219.2913,1615921548434
Fix,GT,37.452081,-122.2811908,138.58536360549925,41.597553,0.1,219.47977,1615921549434
Fix,GT,37.4523194,-122.2815525,138.1372352784872,41.465157,0.1,219.59163,1615921550434
Fix,GT,37.4525575,-122.2819131,137.59686136996746,41.394505,0.1,219.50961,1615921551434
Fix,GT,37.452795,-122.2822738,136.95004444503783,41.40975,0.1,219.4138,1615921552434
Fix,GT,37.4530325,-122.2826355,136.1931653788984,41.551277,0.1,219.32895,1615921553434
Fix,GT,37.4532705,-122.2829994,135.32394565153123,41.778538,0.1,219.2776,1615921554434
Fix,GT,37.4535096,-122.2833655,134.4019101126194,41.963196,0.1,219.22398,1615921555434
Fix,GT,37.4537495,-122.2837328,133.48590118941664,42.037037,0.1,219.34467,1615921556434
Fix,GT,37.4539903,-122.2840998,132.56031760782002,42.064224,0.1,219.51651,1615921557434
Fix,GT,37.454232,-122.2844662,131.6235548942089,42.09448,0.1,219.56865,1615921558434
Fix,GT,37.4544741,-122.2848327,130.699268989563,42.113926,0.1,219.60231,1615921559434
Fix,GT,37.4547162,-122.285199,129.7672126145959,42.08155,0.1,219.56358,1615921560434
Fix,GT,37.4549574,-122.2855648,128.84030455636977,41.913578,0.1,219.51753,1615921561434
Fix,GT,37.4551973,-122.2859284,127.90396227443216,41.576416,0.1,219.55513,1615921562434
Fix,GT,37.4554351,-122.2862889,126.944155321002,41.225746,0.1,219.5071,1615921563434
Fix,GT,37.455671,-122.2866466,125.9368463522494,40.907547,0.1,219.63245,1615921564434
Fix,GT,37.4559071,-122.2870001,124.96210752278566,40.636337,0.1,220.39758,1615921565434
Fix,GT,37.4561472,-122.2873458,124.19876528665424,40.351517,0.1,222.17464,1615921566434
Fix,GT,37.4563961,-122.2876777,123.71336792328955,40.090004,0.1,224.90369,1615921567434
Fix,GT,37.4566568,-122.2879925,123.45934035146236,40.008385,0.1,227.82309,1615921568434
Fix,GT,37.4569296,-122.2882903,123.39854003214838,40.050262,0.1,230.72183,1615921569434
Fix,GT,37.4572137,-122.288571,123.55644168308378,39.990635,0.1,233.1633,1615921570434
Fix,GT,37.4575057,-122.2888358,123.96955586901308,39.78553,0.1,235.3823,1615921571434
Fix,GT,37.4578044,-122.289084,124.59217054089903,39.526367,0.1,238.00386,1615921572434
Fix,GT,37.45811,-122.2893131,125.3310886913538,39.29168,0.1,240.66888,1615921573434
Fix,GT,37.458422,-122.289523,126.11420742416382,39.092613,0.1,243.2699,1615921574434
Fix,GT,37.4587395,-122.2897146,126.91746146064996,38.913033,0.1,245.68153,1615921575434
Fix,GT,37.4590613,-122.2898886,127.7323223876357,38.637436,0.1,248.01448,1615921576434
Fix,GT,37.4593854,-122.2900439,128.49621941280364,38.136497,0.1,250.4494,1615921577434
Fix,GT,37.4597095,-122.2901798,129.21697018545865,37.540413,0.1,252.77086,1615921578434
Fix,GT,37.4600327,-122.2902984,129.9604134297967,37.049713,0.1,254.80421,1615921579434
Fix,GT,37.4603553,-122.2904013,130.75959430307148,36.69116,0.1,256.95618,1615921580434
Fix,GT,37.4606793,-122.2904859,131.57897924518585,36.560055,0.1,259.96182,1615921581434
Fix,GT,37.4610061,-122.2905496,132.30421067509056,36.626175,0.1,262.64532,1615921582434
Fix,GT,37.4613353,-122.2905956,133.04100993013384,36.719975,0.1,264.62732,1615921583434
Fix,GT,37.4616661,-122.2906277,133.85745905017853,36.744263,0.1,266.65985,1615921584434
Fix,GT,37.461997,-122.2906466,134.74008127838374,36.660915,0.1,268.10535,1615921585434
Fix,GT,37.4623268,-122.2906574,135.55792688071728,36.483883,0.1,268.63422,1615921586434
Fix,GT,37.4626537,-122.2906657,136.28091707336904,36.06619,0.1,268.6368,1615921587434
Fix,GT,37.462976,-122.2906743,136.9830398670137,35.410484,0.1,268.8921,1615921588434
Fix,GT,37.4632922,-122.2906797,137.712663800925,34.706593,0.1,269.73096,1615921589434
Fix,GT,37.4636018,-122.2906799,138.52823572516442,33.973114,0.1,270.21567,1615921590434
Fix,GT,37.4639042,-122.2906798,139.3871119360328,33.23247,0.1,269.56656,1615921591434
Fix,GT,37.4642,-122.2906859,140.04738795650007,32.54393,0.1,268.31772,1615921592434
Fix,GT,37.4644894,-122.2907006,140.51430884772537,31.907494,0.1,266.81335,1615921593434
Fix,GT,37.4647726,-122.2907251,140.95333035746216,31.282024,0.1,264.95734,1615921594434
Fix,GT,37.4650495,-122.2907603,141.33420197963716,30.677532,0.1,263.18497,1615921595434
Fix,GT,37.4653203,-122.2908048,141.66104372256996,30.117905,0.1,261.71408,1615921596434
Fix,GT,37.4655861,-122.2908566,141.9551047602594,29.740204,0.1,260.46698,1615921597434
Fix,GT,37.4658489,-122.2909142,142.23710039711,29.502262,0.1,259.8755,1615921598434
Fix,GT,37.4661091,-122.2909726,142.55945230209826,29.0946,0.1,260.15283,1615921599434
Fix,GT,37.4663642,-122.2910282,142.90573253002762,28.348274,0.1,259.98224,1615921600434
Fix,GT,37.466611,-122.2910852,143.23325448983906,27.442081,0.1,258.75687,1615921601434
Fix,GT,37.4668493,-122.2911484,143.41165348130465,26.823006,0.1,257.13092,1615921602434
Fix,GT,37.467082,-122.2912181,143.25793371382355,26.313404,0.1,255.84892,1615921603434
Fix,GT,37.4673069,-122.2912914,142.79795190423727,25.217892,0.1,254.69305,1615921604434
Fix,GT,37.4675181,-122.2913664,142.18989946126936,23.670393,0.1,253.29652,1615921605434
Fix,GT,37.4677148,-122.2914437,141.49450580185652,22.264492,0.1,251.49268,1615921606434
Fix,GT,37.4678969,-122.2915226,140.6153112132847,20.519815,0.1,250.03899,1615921607434
Fix,GT,37.4680614,-122.2915982,139.66118383729457,18.491922,0.1,249.49954,1615921608434
Fix,GT,37.4682098,-122.2916675,138.71946945109963,16.586473,0.1,249.81952,1615921609434
Fix,GT,37.4683418,-122.2917273,137.88018698811533,14.291252,0.1,250.95807,1615921610434
Fix,GT,37.4684537,-122.2917747,137.28198061674834,11.765779,0.1,252.09265,1615921611434
Fix,GT,37.4685445,-122.2918112,136.93538728156685,9.350854,0.1,252.24854,1615921612434
Fix,GT,37.4686123,-122.2918392,136.76522650265693,6.6228323,0.1,250.20905,1615921613434
Fix,GT,37.4686545,-122.2918592,136.6977625490427,3.765914,0.1,246.51662,1615921614434
Fix,GT,37.4686748,-122.2918707,136.6753026752472,1.5129561,0.1,244.29378,1615921615434
Fix,GT,37.4686828,-122.291876,136.6783067486286,0.69026554,0.1,243.72528,1615921616434
Fix,GT,37.4686869,-122.291879,136.68650930419565,0.47547,0.1,243.45161,1615921617434
Fix,GT,37.4686906,-122.2918818,136.69847380161286,0.5544275,0.1,243.0744,1615921618434
Fix,GT,37.468699,-122.2918882,136.71558845937253,1.9925735,0.1,240.42209,1615921619434
Fix,GT,37.4687178,-122.2919045,136.77368563079833,3.911425,0.1,230.57971,1615921620434
Fix,GT,37.4687399,-122.2919359,136.89791028624774,5.423932,0.1,210.92693,1615921621434
Fix,GT,37.4687534,-122.2919866,137.0593404338658,6.800266,0.1,185.45146,1615921622434
Fix,GT,37.4687468,-122.2920562,137.17358381184937,8.1926565,0.1,162.80072,1615921623434
Fix,GT,37.4687145,-122.2921404,137.1899732350111,9.924268,0.1,148.0299,1615921624434
Fix,GT,37.4686581,-122.2922352,137.15389407539368,11.810841,0.1,139.73175,1615921625434
Fix,GT,37.4685816,-122.2923396,137.08384462550282,13.588335,0.1,135.98987,1615921626434
Fix,GT,37.4684917,-122.2924535,136.9112328722477,14.635476,0.1,135.30695,1615921627434
Fix,GT,37.4683982,-122.2925723,136.59886675813794,14.7562,0.1,136.2395,1615921628434
Fix,GT,37.4683074,-122.2926932,136.17309376069903,14.527036,0.1,137.74884,1615921629434
Fix,GT,37.4682211,-122.2928122,135.6464517147541,13.874971,0.1,137.40378,1615921630434
Fix,GT,37.4681406,-122.2929215,135.05729740723967,12.50432,0.1,136.27167,1615921631434
Fix,GT,37.4680679,-122.2930178,134.42927535149454,10.873991,0.1,136.89377,1615921632434
Fix,GT,37.4680066,-122.2931069,133.79603022396563,9.513813,0.1,143.13162,1615921633434
Fix,GT,37.4679613,-122.2932005,133.14031771510838,8.887628,0.1,156.6065,1615921634434
Fix,GT,37.4679396,-122.293306,132.4072345737219,8.897015,0.1,176.11078,1615921635434
Fix,GT,37.46795,-122.2934168,131.8794474170804,9.304267,0.1,199.14587,1615921636434
Fix,GT,37.4679961,-122.2935215,131.7662247000933,10.696127,0.1,217.35736,1615921637434
Fix,GT,37.4680708,-122.2936218,131.8503345822096,12.856205,0.1,226.43858,1615921638434
Fix,GT,37.4681646,-122.2937269,131.97061661174894,14.781345,0.1,228.27002,1615921639434
Fix,GT,37.468269,-122.2938419,132.2532574803829,15.936466,0.1,228.05025,1615921640434
Fix,GT,37.4683778,-122.293961,132.77906198978422,15.870292,0.1,228.64638,1615921641434
Fix,GT,37.4684858,-122.2940745,133.4014538857937,15.1733055,0.1,230.44966,1615921642434
Fix,GT,37.468593,-122.2941772,134.0921208231449,14.396078,0.1,234.76714,1615921643434
Fix,GT,37.4687038,-122.2942612,134.88438237309455,13.551563,0.1,244.42043,1615921644434
Fix,GT,37.4688203,-122.2943113,135.78947966441513,12.75084,0.1,259.12967,1615921645434
Fix,GT,37.4689386,-122.2943195,136.70207979780434,12.530607,0.1,275.55508,1615921646434
Fix,GT,37.4690549,-122.2942823,137.55901346445083,12.960783,0.1,293.10898,1615921647434
Fix,GT,37.4691612,-122.2941989,138.3624506033957,13.580077,0.1,311.18204,1615921648434
Fix,GT,37.4692453,-122.294073,139.14124980676175,14.456289,0.1,328.64856,1615921649434
Fix,GT,37.4692995,-122.2939108,139.9784222214222,15.516409,0.1,345.79117,1615921650434
Fix,GT,37.4693144,-122.2937256,140.91787591585518,16.100407,0.1,3.7453918,1615921651434
Fix,GT,37.4692828,-122.2935407,141.89352406460046,16.265268,0.1,22.081696,1615921652434
Fix,GT,37.4692058,-122.2933737,142.71935344815253,16.95566,0.1,38.50113,1615921653434
Fix,GT,37.4690941,-122.2932279,143.33519689184425,18.224298,0.1,48.07367,1615921654434
Fix,GT,37.4689618,-122.2930887,143.81923101043702,19.94936,0.1,51.07849,1615921655434
Fix,GT,37.4688117,-122.2929424,144.16045505967736,22.091282,0.1,52.96161,1615921656434
Fix,GT,37.468642,-122.2927878,144.21056326144932,24.312057,0.1,54.87027,1615921657434
Fix,GT,37.468451,-122.2926264,144.03801874309778,26.540855,0.1,57.264374,1615921658434
Fix,GT,37.4682381,-122.2924636,143.81266672456263,28.480911,0.1,60.113556,1615921659434
Fix,GT,37.4680055,-122.2923039,143.54863140836358,30.175884,0.1,62.405304,1615921660434
Fix,GT,37.4677555,-122.2921461,143.29929460680484,31.819979,0.1,64.084045,1615921661434
Fix,GT,37.4674883,-122.2919894,143.01046747112275,33.457733,0.1,66.022644,1615921662434
Fix,GT,37.4672038,-122.2918374,142.67798639628293,34.983128,0.1,68.16675,1615921663434
Fix,GT,37.4669027,-122.2916934,142.37136272215844,36.317944,0.1,70.29654,1615921664434
Fix,GT,37.4665878,-122.2915573,142.0248450649977,37.509464,0.1,71.62341,1615921665434
Fix,GT,37.4662609,-122.2914265,141.6572566986084,38.50049,0.1,73.24414,1615921666434
Fix,GT,37.465922,-122.2913085,141.27716894879936,39.25657,0.1,76.26962,1615921667434
Fix,GT,37.4655745,-122.2912109,140.90216050714255,39.472153,0.1,78.939514,1615921668434
Fix,GT,37.4652247,-122.2911315,140.4928649095297,39.183327,0.1,81.01874,1615921669434
Fix,GT,37.4648766,-122.2910683,140.05840094178913,38.73056,0.1,82.924225,1615921670434
Fix,GT,37.4645311,-122.2910205,139.60163173127174,38.246216,0.1,84.862885,1615921671434
Fix,GT,37.464189,-122.290988,139.0856754760742,37.760357,0.1,86.7818,1615921672434
Fix,GT,37.4638509,-122.2909682,138.58931179141996,37.28272,0.1,87.97705,1615921673434
Fix,GT,37.463517,-122.2909552,138.05598959159852,36.845695,0.1,88.41376,1615921674434
Fix,GT,37.4631871,-122.2909444,137.41889221510291,36.427013,0.1,88.53729,1615921675434
Fix,GT,37.4628608,-122.2909342,136.7256587355137,36.018982,0.1,88.63388,1615921676434
Fix,GT,37.4625383,-122.2909248,136.10679824486374,35.505928,0.1,88.67877,1615921677434
Fix,GT,37.4622229,-122.2909148,135.6596511718035,34.437637,0.1,88.382385,1615921678434
Fix,GT,37.4619201,-122.2909023,135.28180550202728,32.822197,0.1,87.73227,1615921679434
Fix,GT,37.4616317,-122.290885,134.85511359220743,31.44704,0.1,86.466125,1615921680434
Fix,GT,37.4613546,-122.290859,134.29851562356947,30.448559,0.1,84.602936,1615921681434
Fix,GT,37.4610874,-122.2908225,133.6807747015357,29.43779,0.1,82.60156,1615921682434
Fix,GT,37.4608298,-122.2907762,133.0785820207596,28.538979,0.1,80.87433,1615921683434
Fix,GT,37.46058,-122.2907218,132.50132287168503,27.917934,0.1,79.16727,1615921684434
Fix,GT,37.4603362,-122.2906589,131.94455647438764,27.614098,0.1,77.34555,1615921685434
Fix,GT,37.4600957,-122.2905868,131.39331495785714,27.438847,0.1,75.55942,1615921686434
Fix,GT,37.4598583,-122.2905061,130.8239638288021,27.3204,0.1,73.91766,1615921687434
Fix,GT,37.4596234,-122.2904173,130.26934957900644,27.300468,0.1,72.330505,1615921688434
Fix,GT,37.4593904,-122.2903206,129.73867520141604,27.283543,0.1,70.79144,1615921689434
Fix,GT,37.4591604,-122.2902158,129.23231629425288,27.235132,0.1,69.17078,1615921690434
Fix,GT,37.4589322,-122.2901026,128.71334181413053,27.454735,0.1,67.46011,1615921691434
Fix,GT,37.4587039,-122.2899796,128.15011186653376,27.886316,0.1,65.792725,1615921692434
Fix,GT,37.4584755,-122.2898461,127.55789728337524,28.169346,0.1,63.993683,1615921693434
Fix,GT,37.4582488,-122.2897024,126.9753979231119,28.385628,0.1,62.101685,1615921694434
Fix,GT,37.4580244,-122.2895489,126.42873121601345,28.490356,0.1,60.42505,1615921695434
Fix,GT,37.4578034,-122.2893873,125.9094157668948,28.420187,0.1,58.86847,1615921696434
Fix,GT,37.4575864,-122.2892182,125.4300710645914,28.484257,0.1,57.22641,1615921697434
Fix,GT,37.4573721,-122.2890403,125.04668815347551,28.724052,0.1,55.536896,1615921698434
Fix,GT,37.4571606,-122.2888526,124.78268048858642,29.006527,0.1,53.609985,1615921699434
Fix,GT,37.4569519,-122.2886535,124.6207124134004,29.363476,0.1,51.61133,1615921700434
Fix,GT,37.4567467,-122.2884432,124.53694629120828,29.639301,0.1,49.589966,1615921701434
Fix,GT,37.4565463,-122.2882228,124.5477218260169,29.65895,0.1,47.65207,1615921702434
Fix,GT,37.4563521,-122.287995,124.71282022070883,29.512623,0.1,45.881317,1615921703434
Fix,GT,37.4561645,-122.2877608,124.98921994876862,29.468748,0.1,44.13977,1615921704434
Fix,GT,37.4559831,-122.2875196,125.35471829760075,29.349447,0.1,42.232697,1615921705434
Fix,GT,37.4558094,-122.2872732,125.78688571044805,28.973549,0.1,40.64395,1615921706434
Fix,GT,37.4556425,-122.2870254,126.17890082931518,28.518276,0.1,39.778564,1615921707434
Fix,GT,37.4554795,-122.286779,126.52184850883484,28.208082,0.1,39.61078,1615921708434
Fix,GT,37.4553175,-122.2865346,126.93637368246912,28.038048,0.1,39.64862,1615921709434
Fix,GT,37.4551567,-122.2862915,127.4675500048399,27.863972,0.1,39.505127,1615921710434
Fix,GT,37.4549972,-122.286049,128.07885790640114,27.83871,0.1,39.32184,1615921711434
Fix,GT,37.4548378,-122.2858051,128.71140576016904,27.998743,0.1,39.139587,1615921712434
Fix,GT,37.4546777,-122.2855591,129.32078382280469,28.234524,0.1,39.20691,1615921713434
Fix,GT,37.4545155,-122.285311,129.94543266296387,28.53403,0.1,39.351807,1615921714434
Fix,GT,37.4543513,-122.2850607,130.5843842279613,28.828938,0.1,39.3696,1615921715434
Fix,GT,37.454185,-122.2848074,131.2276038454175,29.252,0.1,39.362183,1615921716434
Fix,GT,37.4540158,-122.2845497,131.85808650797603,29.778997,0.1,39.4451,1615921717434
Fix,GT,37.4538437,-122.2842888,132.50267035698892,30.05122,0.1,39.64377,1615921718434
Fix,GT,37.4536704,-122.2840275,133.16798975640535,30.074047,0.1,39.664062,1615921719434
Fix,GT,37.4534975,-122.2837664,133.84543418574333,30.009333,0.1,39.54425,1615921720434
Fix,GT,37.4533256,-122.2835054,134.49958579689263,29.921944,0.1,39.38452,1615921721434
Fix,GT,37.4531548,-122.2832448,135.09966032990815,29.780788,0.1,39.307922,1615921722434
Fix,GT,37.4529852,-122.282986,135.68722068214416,29.426453,0.1,39.352173,1615921723434
Fix,GT,37.4528181,-122.2827313,136.20863672569394,28.922283,0.1,39.380646,1615921724434
Fix,GT,37.4526539,-122.2824814,136.67588972580432,28.40794,0.1,39.44684,1615921725434
Fix,GT,37.4524921,-122.2822363,137.09005081370475,27.905289,0.1,39.60898,1615921726434
Fix,GT,37.4523325,-122.2819955,137.4392687942982,27.527718,0.1,39.6669,1615921727434
Fix,GT,37.4521742,-122.2817566,137.7357949771881,27.531353,0.1,39.68576,1615921728434
Fix,GT,37.4520145,-122.2815162,137.99696469163896,27.912167,0.1,39.58008,1615921729434
Fix,GT,37.4518528,-122.2812708,138.21318818104265,28.46896,0.1,39.286255,1615921730434
Fix,GT,37.4516888,-122.2810194,138.40277527990938,28.941763,0.1,39.1239,1615921731434
Fix,GT,37.4515237,-122.2807657,138.54537062120437,28.95393,0.1,39.143707,1615921732434
Fix,GT,37.4513594,-122.2805136,138.6370579023063,28.658825,0.1,39.231598,1615921733434
Fix,GT,37.4511963,-122.2802638,138.66925894895195,28.519907,0.1,39.216644,1615921734434
Fix,GT,37.4510334,-122.2800134,138.64572274899484,28.76265,0.1,39.059357,1615921735434
Fix,GT,37.4508684,-122.2797592,138.58022615227102,29.253544,0.1,39.137146,1615921736434
Fix,GT,37.4506998,-122.2795012,138.4623917118311,29.745823,0.1,39.420593,1615921737434
Fix,GT,37.4505283,-122.2792403,138.27008343684673,30.088036,0.1,39.44403,1615921738434
Fix,GT,37.4503552,-122.2789766,138.0300479454994,30.349731,0.1,39.472168,1615921739434
Fix,GT,37.4501804,-122.2787116,137.7161410561502,30.459454,0.1,39.74063,1615921740434
Fix,GT,37.4500048,-122.2784476,137.31808050221204,30.306332,0.1,39.90979,1615921741434
Fix,GT,37.4498304,-122.278186,136.92083422088623,30.042112,0.1,39.859985,1615921742434
Fix,GT,37.4496575,-122.2779264,136.4707179839909,29.873354,0.1,39.735016,1615921743434
Fix,GT,37.4494852,-122.2776663,135.96527966535092,30.126705,0.1,39.566315,1615921744434
Fix,GT,37.4493101,-122.2774013,135.39891764503716,30.82486,0.1,39.67279,1615921745434
Fix,GT,37.4491306,-122.2771316,134.73351281952858,31.270197,0.1,39.943756,1615921746434
Fix,GT,37.4489494,-122.2768611,133.99548040890696,31.23944,0.1,40.07852,1615921747434
Fix,GT,37.4487681,-122.2765912,133.17056212329865,31.214869,0.1,40.225067,1615921748434
Fix,GT,37.4485851,-122.276322,132.2897230062485,31.40016,0.1,40.736298,1615921749434
Fix,GT,37.4483981,-122.2760522,131.38953516757488,31.832811,0.1,41.260498,1615921750434
Fix,GT,37.4482068,-122.2757801,130.48259626337887,32.350716,0.1,41.44165,1615921751434
Fix,GT,37.4480124,-122.2755045,129.54057323014734,32.76466,0.1,41.411346,1615921752434
Fix,GT,37.4478165,-122.2752263,128.57853743433952,32.89557,0.1,41.42282,1615921753434
Fix,GT,37.4476205,-122.274948,127.61904701513052,32.79226,0.1,41.41815,1615921754434
Fix,GT,37.4474256,-122.2746708,126.67716203573346,32.61791,0.1,41.331665,1615921755434
Fix,GT,37.4472318,-122.2743946,125.74803425598144,32.499134,0.1,41.32315,1615921756434
Fix,GT,37.4470385,-122.2741193,124.85868446207049,32.41617,0.1,41.344055,1615921757434
Fix,GT,37.446846,-122.273845,124.0683145084977,32.26658,0.1,41.29886,1615921758434
Fix,GT,37.4466546,-122.2735718,123.3929878883362,32.089664,0.1,41.237732,1615921759434
Fix,GT,37.4464647,-122.2732998,122.85186303076148,31.882553,0.1,41.14032,1615921760434
Fix,GT,37.4462767,-122.2730293,122.46430028015374,31.651083,0.1,40.963623,1615921761434
Fix,GT,37.4460907,-122.2727595,122.177191993773,31.518261,0.1,40.81244,1615921762434
Fix,GT,37.4459057,-122.2724896,121.95769063025712,31.467955,0.1,40.57553,1615921763434
Fix,GT,37.4457235,-122.2722191,121.8226688683033,31.28078,0.1,39.565643,1615921764434
Fix,GT,37.4455482,-122.2719452,121.74059479075667,31.07045,0.1,37.664886,1615921765434
Fix,GT,37.4453814,-122.2716659,121.725724226892,30.855309,0.1,35.727997,1615921766434
Fix,GT,37.4452234,-122.2713828,121.79136712786556,30.465881,0.1,34.044647,1615921767434
Fix,GT,37.4450739,-122.271098,121.94992536664007,30.048637,0.1,32.493774,1615921768434
Fix,GT,37.4449324,-122.2708115,122.20778631323576,29.786041,0.1,30.869904,1615921769434
Fix,GT,37.4447986,-122.2705217,122.51409806972742,29.665218,0.1,29.0878,1615921770434
Fix,GT,37.4446726,-122.2702285,122.8347140380442,29.396261,0.1,27.401031,1615921771434
Fix,GT,37.4445545,-122.2699346,123.18394116592408,28.990074,0.1,25.950562,1615921772434
Fix,GT,37.4444438,-122.269641,123.49133423995973,28.655872,0.1,24.56665,1615921773434
Fix,GT,37.4443399,-122.2693464,123.77057562750576,28.562637,0.1,23.019379,1615921774434
Fix,GT,37.4442424,-122.2690486,124.1252417434454,28.542751,0.1,21.477081,1615921775434
Fix,GT,37.4441515,-122.2687484,124.49470350801946,28.454105,0.1,19.959747,1615921776434
Fix,GT,37.4440672,-122.2684465,124.80916839185358,28.295216,0.1,18.375793,1615921777434
Fix,GT,37.4439904,-122.2681442,125.13074314284326,27.966728,0.1,16.80484,1615921778434
Fix,GT,37.4439213,-122.2678437,125.43744044989349,27.537075,0.1,15.247101,1615921779434
Fix,GT,37.4438596,-122.2675457,125.75459518387912,27.096733,0.1,13.83963,1615921780434
Fix,GT,37.4438041,-122.26725,126.06805854034424,26.829447,0.1,12.565643,1615921781434
Fix,GT,37.4437543,-122.266954,126.36344423913955,26.954533,0.1,11.16687,1615921782434
Fix,GT,37.4437096,-122.2666519,126.66887471735478,27.588318,0.1,9.74762,1615921783434
Fix,GT,37.4436701,-122.2663408,126.96444939911363,28.24862,0.1,8.353912,1615921784434
Fix,GT,37.4436361,-122.266024,127.2438440039158,28.450912,0.1,6.928314,1615921785434
Fix,GT,37.443608,-122.2657038,127.4877146947384,28.718267,0.1,5.4663086,1615921786434
Fix,GT,37.4435864,-122.2653795,127.68233657333256,28.970222,0.1,3.8532715,1615921787434
Fix,GT,37.4435725,-122.2650536,127.84127890270948,28.88406,0.1,2.1327515,1615921788434
Fix,GT,37.4435661,-122.2647298,127.93848810452222,28.583529,0.1,0.51708984,1615921789434
Fix,GT,37.4435669,-122.2644093,127.96474579232932,28.283026,0.1,358.98538,1615921790434
Fix,GT,37.443574,-122.264092,127.94444309914113,28.073944,0.1,357.56042,1615921791434
Fix,GT,37.4435875,-122.2637759,127.90464342927932,28.127232,0.1,356.1485,1615921792434
Fix,GT,37.4436077,-122.2634578,127.86031537318227,28.593142,0.1,354.57053,1615921793434
Fix,GT,37.4436348,-122.2631329,127.75650872439148,29.388481,0.1,353.20166,1615921794434
Fix,GT,37.4436683,-122.2627995,127.51484564372896,30.19172,0.1,352.22348,1615921795434
Fix,GT,37.4437061,-122.2624581,127.22455942285062,30.831957,0.1,351.91614,1615921796434
Fix,GT,37.4437449,-122.2621097,126.92780981945992,31.378353,0.1,352.079,1615921797434
Fix,GT,37.4437835,-122.2617562,126.6665647803843,31.730545,0.1,352.17493,1615921798434
Fix,GT,37.4438221,-122.2614001,126.44624940216542,31.898792,0.1,352.15805,1615921799434
Fix,GT,37.4438614,-122.2610419,126.2420221709013,32.121506,0.1,352.0312,1615921800434
Fix,GT,37.4439009,-122.2606818,126.04836072093246,32.161266,0.1,352.17596,1615921801434
Fix,GT,37.443939,-122.2603224,125.81737180903554,31.946533,0.1,352.51685,1615921802434
Fix,GT,37.4439753,-122.2599657,125.48694866859913,31.666443,0.1,352.93268,1615921803434
Fix,GT,37.4440082,-122.2596109,125.07693813133238,31.48565,0.1,353.83316,1615921804434
Fix,GT,37.4440352,-122.2592563,124.61739771294594,31.396801,0.1,355.50943,1615921805434
Fix,GT,37.4440528,-122.2589018,124.09722864869238,31.25035,0.1,357.67474,1615921806434
Fix,GT,37.4440599,-122.258549,123.49605587631464,31.056046,0.1,359.61395,1615921807434
Fix,GT,37.4440576,-122.2581978,122.82299827343226,30.95879,0.1,1.5377197,1615921808434
Fix,GT,37.4440456,-122.2578473,122.0812560751438,30.944214,0.1,3.6079712,1615921809434
Fix,GT,37.4440236,-122.2574982,121.26516258078811,30.856634,0.1,5.6148376,1615921810434
Fix,GT,37.4439922,-122.2571512,120.38163842892646,30.767456,0.1,7.609375,1615921811434
Fix,GT,37.443951,-122.2568067,119.42229805004597,30.714252,0.1,9.711121,1615921812434
Fix,GT,37.4438999,-122.2564647,118.37738475352526,30.684685,0.1,11.721954,1615921813434
Fix,GT,37.4438397,-122.2561255,117.26397586369517,30.65784,0.1,13.698669,1615921814434
Fix,GT,37.4437701,-122.2557892,116.08011838817598,30.650143,0.1,15.594757,1615921815434
Fix,GT,37.4436919,-122.255456,114.8360821672082,30.65276,0.1,17.446442,1615921816434
Fix,GT,37.4436049,-122.2551262,113.59024985057115,30.668385,0.1,19.487152,1615921817434
Fix,GT,37.4435084,-122.2548003,112.3489833766222,30.690647,0.1,21.4971,1615921818434
Fix,GT,37.4434033,-122.2544787,111.10390416768192,30.665525,0.1,23.324219,1615921819434
Fix,GT,37.4432902,-122.2541619,109.86306595027446,30.604242,0.1,25.216461,1615921820434
Fix,GT,37.4431689,-122.2538506,108.62330528244377,30.531387,0.1,27.195404,1615921821434
Fix,GT,37.4430391,-122.2535458,107.377763181448,30.45426,0.1,29.247772,1615921822434
Fix,GT,37.4429014,-122.2532476,106.16756347608566,30.381966,0.1,31.163635,1615921823434
Fix,GT,37.4427561,-122.2529559,104.96753966021538,30.312973,0.1,33.112427,1615921824434
Fix,GT,37.4426031,-122.2526713,103.74316078725457,30.249926,0.1,35.155334,1615921825434
Fix,GT,37.4424426,-122.2523943,102.539553886652,30.18702,0.1,37.161377,1615921826434
Fix,GT,37.4422751,-122.2521248,101.372945423156,30.17073,0.1,38.884705,1615921827434
Fix,GT,37.4421011,-122.2518608,100.1313001254797,30.321457,0.1,40.46393,1615921828434
Fix,GT,37.4419201,-122.2516015,98.87489906567336,30.472942,0.1,42.138794,1615921829434
Fix,GT,37.4417338,-122.251348,97.74043355724214,30.432178,0.1,43.296173,1615921830434
Fix,GT,37.4415451,-122.2510989,96.59539517593385,30.361013,0.1,43.696533,1615921831434
Fix,GT,37.4413558,-122.2508514,95.38733140528204,30.341541,0.1,43.925842,1615921832434
Fix,GT,37.4411654,-122.2506044,94.16223660063744,30.464962,0.1,44.05655,1615921833434
Fix,GT,37.4409739,-122.2503563,92.96307693016529,30.665043,0.1,43.974518,1615921834434
Fix,GT,37.4407818,-122.2501064,91.75503839552402,30.775005,0.1,43.89511,1615921835434
Fix,GT,37.4405892,-122.2498555,90.50177800101042,30.886135,0.1,43.868256,1615921836434
Fix,GT,37.4403959,-122.2496036,89.26814454692602,31.027767,0.1,43.89392,1615921837434
Fix,GT,37.4402014,-122.2493513,88.04932568687201,31.02555,0.1,44.08139,1615921838434
Fix,GT,37.4400069,-122.2491001,86.8607119102478,30.95951,0.1,44.08481,1615921839434
Fix,GT,37.4398131,-122.2488489,85.68476505559683,30.924723,0.1,43.904846,1615921840434
Fix,GT,37.4396196,-122.2485972,84.39249603462218,30.936417,0.1,43.96579,1615921841434
Fix,GT,37.4394254,-122.2483462,83.06729871156813,30.889,0.1,44.418243,1615921842434
Fix,GT,37.4392301,-122.2480985,81.82219902670383,30.703922,0.1,44.95352,1615921843434
Fix,GT,37.439035,-122.2478552,80.59606500107051,30.347233,0.1,45.26056,1615921844434
Fix,GT,37.4388418,-122.247616,79.38452614212036,29.873177,0.1,45.453033,1615921845434
Fix,GT,37.4386512,-122.2473823,78.20268696901203,29.21094,0.1,45.985474,1615921846434
