MessageType,Provider,LatitudeDegrees,LongitudeDegrees,AltitudeMeters,SpeedMps,AccuracyMeters,BearingDegrees,UnixTimeMillis
Fix,GT,37.3794605,-122.0720796,,0.012165384,0.1,300.98608,1609881148999
Fix,GT,37.3794606,-122.0720797,,0.012165525,0.1,300.98624,1609881149999
Fix,GT,37.3794606,-122.0720798,,0.01529661,0.1,300.98492,1609881150999
Fix,GT,37.3794606,-122.0720799,,0.014317961,0.1,300.98654,1609881151999
Fix,GT,37.3794606,-122.0720801,,0.028997898,0.1,300.98425,1609881152999
Fix,GT,37.3794595,-122.0720778,,0.4450887,0.1,301.2402,1609881153999
Fix,GT,37.3794576,-122.0720714,,0.6480952,0.1,304.98352,1609881154999
Fix,GT,37.3794553,-122.0720627,,0.834297,0.1,312.99683,1609881155999
Fix,GT,37.3794512,-122.0720515,,1.0574466,0.1,325.36578,1609881156999
Fix,GT,37.3794441,-122.0720404,,1.1242311,0.1,339.77084,1609881157999
Fix,GT,37.3794349,-122.0720318,,1.1051836,0.1,354.08096,1609881158999
Fix,GT,37.3794244,-122.0720265,,1.0692428,0.1,8.17627,1609881159999
Fix,GT,37.3794151,-122.072025,,0.68623936,0.1,19.641327,1609881160999
Fix,GT,37.379412,-122.0720254,,0.030326542,0.1,23.173645,1609881161999
Fix,GT,37.3794123,-122.0720258,,0.0971552,0.1,23.217743,1609881162999
Fix,GT,37.3794162,-122.0720242,,0.851132,0.1,23.635284,1609881163999
Fix,GT,37.3794252,-122.0720174,,1.5628923,0.1,28.074036,1609881164999
Fix,GT,37.3794408,-122.0720044,,2.662519,0.1,32.612793,1609881165999
Fix,GT,37.3794633,-122.0719854,,3.1642494,0.1,34.445557,1609881166999
Fix,GT,37.3794866,-122.0719645,,3.2086122,0.1,36.234467,1609881167999
Fix,GT,37.379508,-122.0719434,,2.7554924,0.1,39.045074,1609881168999
Fix,GT,37.379525,-122.0719222,,2.7035453,0.1,45.19467,1609881169999
Fix,GT,37.379535,-122.0718959,,2.5793118,0.1,62.388947,1609881170999
Fix,GT,37.3795345,-122.0718681,,2.36153,0.1,85.293365,1609881171999
Fix,GT,37.3795282,-122.0718474,,1.5766865,0.1,102.239624,1609881172999
Fix,GT,37.3795237,-122.071835,,1.2343074,0.1,108.05972,1609881173999
Fix,GT,37.3795206,-122.0718199,,1.569501,0.1,106.38446,1609881174999
Fix,GT,37.3795206,-122.0717974,,2.4412725,0.1,95.4953,1609881175999
Fix,GT,37.3795283,-122.0717637,,3.4315696,0.1,77.13306,1609881176999
Fix,GT,37.3795463,-122.0717279,,3.615113,0.1,59.38513,1609881177999
Fix,GT,37.3795686,-122.0717007,,3.0478463,0.1,46.373352,1609881178999
Fix,GT,37.3795885,-122.0716827,,2.2014737,0.1,38.695984,1609881179999
Fix,GT,37.3796003,-122.0716726,,0.9705816,0.1,37.1904,1609881180999
Fix,GT,37.3796038,-122.0716696,,0.11865562,0.1,37.199493,1609881181999
Fix,GT,37.3796042,-122.0716695,,0.029133348,0.1,37.206787,1609881182999
Fix,GT,37.3796042,-122.0716696,,0.020616755,0.1,37.20575,1609881183999
Fix,GT,37.3796043,-122.0716697,,0.0183851,0.1,37.20697,1609881184999
Fix,GT,37.3796043,-122.0716697,,0.0170002,0.1,37.206024,1609881185999
Fix,GT,37.3796043,-122.0716697,,0.014765145,0.1,37.20526,1609881186999
Fix,GT,37.3796043,-122.0716697,,0.016124317,0.1,37.207703,1609881187999
Fix,GT,37.3796043,-122.0716697,,0.015264463,0.1,37.207336,1609881188999
Fix,GT,37.3796043,-122.0716697,,0.014422327,0.1,37.207306,1609881189999
Fix,GT,37.3796044,-122.0716698,,0.013601589,0.1,37.20685,1609881190999
Fix,GT,37.379605,-122.0716693,,0.33102804,0.1,37.199768,1609881191999
Fix,GT,37.3796072,-122.0716673,,0.15426244,0.1,37.20291,1609881192999
Fix,GT,37.3796074,-122.0716672,,0.011422434,0.1,37.203156,1609881193999
Fix,GT,37.3796074,-122.0716672,,0.010295791,0.1,37.20343,1609881194999
Fix,GT,37.3796074,-122.0716672,,0.01029563,0.1,37.20291,1609881195999
Fix,GT,37.3796074,-122.0716672,,0.008602571,0.1,37.2023,1609881196999
Fix,GT,37.3796074,-122.0716672,,0.0078103645,0.1,37.202454,1609881197999
Fix,GT,37.3796074,-122.0716672,,0.0078102495,0.1,37.202423,1609881198999
Fix,GT,37.3796074,-122.0716672,,0.0078102495,0.1,37.202515,1609881199999
Fix,GT,37.3796074,-122.0716672,,0.008062221,0.1,37.202576,1609881200999
Fix,GT,37.3796074,-122.0716672,,0.008602247,0.1,37.20294,1609881201999
Fix,GT,37.3796074,-122.0716672,,0.008062337,0.1,37.20282,1609881202999
Fix,GT,37.3796074,-122.0716672,,0.0072112265,0.1,37.20285,1609881203999
Fix,GT,37.3796074,-122.0716672,,0.008602123,0.1,37.202545,1609881204999
Fix,GT,37.3796074,-122.0716672,,0.0072113047,0.1,37.202087,1609881205999
Fix,GT,37.3796074,-122.0716672,,0.0072111026,0.1,37.20233,1609881206999
Fix,GT,37.3796074,-122.0716672,,0.0078101624,0.1,37.20215,1609881207999
Fix,GT,37.3796074,-122.0716672,,0.0072111897,0.1,37.202454,1609881208999
Fix,GT,37.3796074,-122.0716672,,0.0072111026,0.1,37.202515,1609881209999
Fix,GT,37.3796074,-122.0716672,,0.0072111026,0.1,37.20251,1609881210999
Fix,GT,37.3796074,-122.0716672,,0.0072111026,0.1,37.20279,1609881211999
Fix,GT,37.3796074,-122.0716672,,0.0072111026,0.1,37.20279,1609881212999
Fix,GT,37.3796074,-122.0716672,,0.007071088,0.1,37.20273,1609881213999
Fix,GT,37.3796074,-122.0716672,,0.007211082,0.1,37.203064,1609881214999
Fix,GT,37.3796074,-122.0716672,,0.0072111026,0.1,37.203217,1609881215999
Fix,GT,37.3796074,-122.0716672,,0.0072111026,0.1,37.20343,1609881216999
Fix,GT,37.3796074,-122.0716672,,0.0072111026,0.1,37.20288,1609881217999
Fix,GT,37.3796074,-122.0716672,,0.0067082774,0.1,37.202393,1609881218999
Fix,GT,37.3796074,-122.0716672,,0.007211029,0.1,37.20218,1609881219999
Fix,GT,37.3796074,-122.0716672,,0.0072111026,0.1,37.20221,1609881220999
Fix,GT,37.3796074,-122.0716672,,0.0072111026,0.1,37.202362,1609881221999
Fix,GT,37.3796074,-122.0716672,,0.0072111026,0.1,37.202393,1609881222999
Fix,GT,37.3796074,-122.0716672,,0.005831153,0.1,37.202393,1609881223999
Fix,GT,37.3796074,-122.0716672,,0.005830952,0.1,37.202026,1609881224999
Fix,GT,37.3796074,-122.0716672,,0.0050001214,0.1,37.20215,1609881225999
Fix,GT,37.3796074,-122.0716672,,0.005,0.1,37.20218,1609881226999
Fix,GT,37.3796074,-122.0716672,,0.03311688,0.1,37.202026,1609881227999
Fix,GT,37.3796103,-122.0716642,,0.8219339,0.1,37.4646,1609881228999
Fix,GT,37.3796201,-122.0716493,,2.6794193,0.1,45.921143,1609881229999
Fix,GT,37.3796279,-122.0716148,,3.8389997,0.1,70.66223,1609881230999
Fix,GT,37.3796212,-122.0715649,,5.301635,0.1,99.74072,1609881231999
Fix,GT,37.3795984,-122.0715017,,7.0948033,0.1,114.92554,1609881232999
Fix,GT,37.3795656,-122.071422,,8.762362,0.1,117.7345,1609881233999
Fix,GT,37.3795258,-122.071329,,9.977217,0.1,117.81021,1609881234999
Fix,GT,37.3794812,-122.0712227,,11.276659,0.1,117.59674,1609881235999
Fix,GT,37.3794314,-122.0711038,,12.477497,0.1,117.60544,1609881236999
Fix,GT,37.3793767,-122.0709743,,13.41857,0.1,117.97412,1609881237999
Fix,GT,37.379318,-122.0708377,,14.031369,0.1,118.28558,1609881238999
Fix,GT,37.3792569,-122.0706965,,14.336041,0.1,118.44107,1609881239999
Fix,GT,37.3791949,-122.0705543,,14.256898,0.1,118.5755,1609881240999
Fix,GT,37.3791349,-122.0704141,,13.85885,0.1,117.78348,1609881241999
Fix,GT,37.3790783,-122.0702775,,13.392717,0.1,117.08276,1609881242999
Fix,GT,37.3790244,-122.0701451,,12.968126,0.1,117.06433,1609881243999
Fix,GT,37.3789706,-122.0700141,,13.247459,0.1,117.278534,1609881244999
Fix,GT,37.3789146,-122.0698787,,13.74136,0.1,117.40784,1609881245999
Fix,GT,37.3788565,-122.0697384,,14.220876,0.1,117.34854,1609881246999
Fix,GT,37.3787967,-122.069594,,14.5266485,0.1,117.59384,1609881247999
Fix,GT,37.3787357,-122.0694502,,14.2601595,0.1,118.14917,1609881248999
Fix,GT,37.3786765,-122.0693125,,13.288529,0.1,118.33679,1609881249999
Fix,GT,37.3786228,-122.0691889,,11.572038,0.1,118.66806,1609881250999
Fix,GT,37.3785751,-122.0690806,,10.470354,0.1,118.9978,1609881251999
Fix,GT,37.3785318,-122.0689838,,9.19347,0.1,119.27161,1609881252999
Fix,GT,37.3784912,-122.0689001,,8.111973,0.1,123.09534,1609881253999
Fix,GT,37.3784469,-122.068837,,6.9205894,0.1,135.38568,1609881254999
Fix,GT,37.3783978,-122.068802,,6.001274,0.1,155.344,1609881255999
Fix,GT,37.3783471,-122.0687984,,5.58535,0.1,181.19312,1609881256999
Fix,GT,37.3782977,-122.0688212,,6.694463,0.1,202.50105,1609881257999
Fix,GT,37.3782371,-122.0688632,,8.742318,0.1,208.85382,1609881258999
Fix,GT,37.3781614,-122.0689139,,10.197604,0.1,207.24374,1609881259999
Fix,GT,37.3780721,-122.0689619,,11.256435,0.1,200.82433,1609881260999
Fix,GT,37.3779693,-122.0689951,,12.277194,0.1,190.63412,1609881261999
Fix,GT,37.3778546,-122.0690038,,13.131318,0.1,179.72098,1609881262999
Fix,GT,37.3777332,-122.0689871,,13.877234,0.1,170.08716,1609881263999
Fix,GT,37.3776097,-122.0689419,,14.597401,0.1,159.72327,1609881264999
Fix,GT,37.3774888,-122.0688669,,15.27519,0.1,149.99164,1609881265999
Fix,GT,37.3773721,-122.0687682,,15.936393,0.1,143.80383,1609881266999
Fix,GT,37.3772569,-122.0686536,,16.61433,0.1,139.90005,1609881267999
Fix,GT,37.3771424,-122.0685293,,16.927776,0.1,138.75574,1609881268999
Fix,GT,37.3770252,-122.0684055,,17.155733,0.1,140.75354,1609881269999
Fix,GT,37.3768989,-122.0682906,,17.566742,0.1,146.52448,1609881270999
Fix,GT,37.3767593,-122.0681957,,17.808418,0.1,155.08466,1609881271999
Fix,GT,37.3766079,-122.0681263,,18.092487,0.1,163.03888,1609881272999
Fix,GT,37.376447,-122.068081,,18.666323,0.1,170.58618,1609881273999
Fix,GT,37.3762772,-122.0680593,,19.262764,0.1,176.38922,1609881274999
Fix,GT,37.3761006,-122.0680534,,20.028986,0.1,179.44086,1609881275999
Fix,GT,37.375917,-122.0680545,,20.74488,0.1,181.10773,1609881276999
Fix,GT,37.3757271,-122.0680626,,21.43976,0.1,182.3409,1609881277999
Fix,GT,37.3755319,-122.0680729,,21.973953,0.1,182.34956,1609881278999
Fix,GT,37.375331,-122.0680809,,22.608646,0.1,181.32422,1609881279999
Fix,GT,37.3751248,-122.0680847,,23.16101,0.1,180.53271,1609881280999
Fix,GT,37.3749128,-122.0680847,,23.91275,0.1,179.38797,1609881281999
Fix,GT,37.3746948,-122.0680776,,24.447899,0.1,177.68628,1609881282999
Fix,GT,37.3744726,-122.0680613,,24.917538,0.1,175.68323,1609881283999
Fix,GT,37.374248,-122.0680336,,25.114733,0.1,173.26611,1609881284999
Fix,GT,37.3740225,-122.067995,,25.398113,0.1,171.20654,1609881285999
Fix,GT,37.3737964,-122.0679445,,25.492376,0.1,168.5398,1609881286999
Fix,GT,37.3735721,-122.0678809,,25.564556,0.1,166.07239,1609881287999
Fix,GT,37.3733492,-122.0678048,,25.698942,0.1,163.66718,1609881288999
Fix,GT,37.3731275,-122.0677171,,25.92027,0.1,161.48248,1609881289999
Fix,GT,37.3729066,-122.0676182,,26.12133,0.1,159.2323,1609881290999
Fix,GT,37.3726872,-122.0675071,,26.422613,0.1,156.85657,1609881291999
Fix,GT,37.3724682,-122.0673842,,26.803558,0.1,154.9654,1609881292999
Fix,GT,37.3722487,-122.0672525,,27.224813,0.1,153.94287,1609881293999
Fix,GT,37.3720271,-122.0671168,,27.482153,0.1,153.95526,1609881294999
Fix,GT,37.3718037,-122.0669812,,27.609032,0.1,154.12811,1609881295999
Fix,GT,37.3715787,-122.0668453,,27.852133,0.1,154.1745,1609881296999
Fix,GT,37.3713522,-122.0667082,,27.905918,0.1,154.11194,1609881297999
Fix,GT,37.3711267,-122.0665716,,27.740526,0.1,154.11682,1609881298999
Fix,GT,37.3709019,-122.0664353,,27.647707,0.1,154.02136,1609881299999
Fix,GT,37.3706782,-122.066299,,27.612965,0.1,153.94678,1609881300999
Fix,GT,37.3704545,-122.0661623,,27.634277,0.1,153.92755,1609881301999
Fix,GT,37.3702307,-122.066026,,27.573204,0.1,154.0357,1609881302999
Fix,GT,37.3700075,-122.0658907,,27.45461,0.1,154.15033,1609881303999
Fix,GT,37.3697851,-122.0657567,,27.354856,0.1,154.29889,1609881304999
Fix,GT,37.3695629,-122.0656229,,27.377607,0.1,154.10999,1609881305999
Fix,GT,37.3693405,-122.0654868,,27.58132,0.1,153.56073,1609881306999
Fix,GT,37.3691175,-122.0653472,,27.721891,0.1,153.281,1609881307999
Fix,GT,37.3688931,-122.0652081,,27.845455,0.1,153.93231,1609881308999
Fix,GT,37.3686667,-122.0650709,,27.981522,0.1,154.0719,1609881309999
Fix,GT,37.3684387,-122.0649334,,28.19982,0.1,154.39825,1609881310999
Fix,GT,37.3682088,-122.0647956,,28.364925,0.1,154.27856,1609881311999
Fix,GT,37.3679774,-122.0646564,,28.571907,0.1,154.18909,1609881312999
Fix,GT,37.3677452,-122.0645162,,28.654776,0.1,154.19574,1609881313999
Fix,GT,37.3675122,-122.064376,,28.684591,0.1,154.33887,1609881314999
Fix,GT,37.367279,-122.0642362,,28.692888,0.1,154.27673,1609881315999
Fix,GT,37.3670459,-122.0640965,,28.67568,0.1,154.43158,1609881316999
Fix,GT,37.3668127,-122.0639573,,28.662254,0.1,154.48633,1609881317999
Fix,GT,37.3665787,-122.0638201,,28.683193,0.1,155.3263,1609881318999
Fix,GT,37.3663417,-122.0636909,,28.707178,0.1,157.3758,1609881319999
Fix,GT,37.3661012,-122.0635712,,28.804083,0.1,159.18646,1609881320999
Fix,GT,37.3658561,-122.0634626,,28.95474,0.1,161.65546,1609881321999
Fix,GT,37.3656062,-122.0633662,,29.067402,0.1,163.92084,1609881322999
Fix,GT,37.3653529,-122.0632827,,29.129042,0.1,166.32843,1609881323999
Fix,GT,37.3650961,-122.0632127,,29.213305,0.1,168.87872,1609881324999
Fix,GT,37.3648366,-122.0631549,,29.317003,0.1,170.73193,1609881325999
Fix,GT,37.364575,-122.0631076,,29.304209,0.1,172.68066,1609881326999
Fix,GT,37.3643143,-122.0630725,,28.90577,0.1,174.8714,1609881327999
Fix,GT,37.3640567,-122.0630505,,28.454632,0.1,177.0802,1609881328999
Fix,GT,37.3638026,-122.0630408,,28.037973,0.1,179.36816,1609881329999
Fix,GT,37.3635499,-122.0630427,,28.116598,0.1,180.76929,1609881330999
Fix,GT,37.3632949,-122.0630482,,28.594728,0.1,180.98656,1609881331999
Fix,GT,37.3630343,-122.0630544,,29.21914,0.1,181.02698,1609881332999
Fix,GT,37.3627694,-122.063061,,29.543148,0.1,181.09305,1609881333999
Fix,GT,37.3625024,-122.0630677,,29.758856,0.1,181.00113,1609881334999
Fix,GT,37.3622327,-122.063074,,30.093634,0.1,180.9119,1609881335999
Fix,GT,37.3619603,-122.0630799,,30.337717,0.1,180.93086,1609881336999
Fix,GT,37.3616869,-122.063086,,30.34702,0.1,180.98491,1609881337999
Fix,GT,37.3614138,-122.0630931,,30.248238,0.1,181.20532,1609881338999
Fix,GT,37.3611421,-122.0631009,,30.113968,0.1,181.24872,1609881339999
Fix,GT,37.360871,-122.0631088,,30.084354,0.1,181.12502,1609881340999
Fix,GT,37.3606003,-122.0631154,,30.00211,0.1,180.93703,1609881341999
Fix,GT,37.3603305,-122.0631208,,29.921486,0.1,180.79742,1609881342999
Fix,GT,37.360061,-122.0631252,,29.905848,0.1,180.6157,1609881343999
Fix,GT,37.3597917,-122.0631283,,29.893864,0.1,180.31233,1609881344999
Fix,GT,37.3595223,-122.063129,,29.89503,0.1,179.75514,1609881345999
Fix,GT,37.3592534,-122.0631241,,29.77529,0.1,178.27356,1609881346999
Fix,GT,37.3589861,-122.0631101,,29.609438,0.1,177.00446,1609881347999
Fix,GT,37.35872,-122.06309,,29.585157,0.1,175.9602,1609881348999
Fix,GT,37.3584539,-122.063063,,29.638317,0.1,174.64386,1609881349999
Fix,GT,37.3581882,-122.0630291,,29.618433,0.1,173.64777,1609881350999
Fix,GT,37.3579233,-122.0629896,,29.600462,0.1,172.63135,1609881351999
Fix,GT,37.357659,-122.0629437,,29.664444,0.1,171.51154,1609881352999
Fix,GT,37.3573945,-122.062891,,29.728474,0.1,170.33685,1609881353999
Fix,GT,37.3571311,-122.0628317,,29.628954,0.1,169.31067,1609881354999
Fix,GT,37.3568699,-122.0627678,,29.433172,0.1,168.52612,1609881355999
Fix,GT,37.3566119,-122.0626997,,29.080183,0.1,167.581,1609881356999
Fix,GT,37.3563585,-122.0626259,,28.623142,0.1,166.20654,1609881357999
Fix,GT,37.3561096,-122.0625471,,28.441391,0.1,165.32532,1609881358999
Fix,GT,37.3558626,-122.0624627,,28.361877,0.1,164.16919,1609881359999
Fix,GT,37.3556181,-122.062374,,28.068823,0.1,163.55365,1609881360999
Fix,GT,37.3553778,-122.0622847,,27.542282,0.1,163.37195,1609881361999
Fix,GT,37.3551429,-122.062196,,26.917574,0.1,162.98523,1609881362999
Fix,GT,37.3549139,-122.0621071,,26.266964,0.1,162.60327,1609881363999
Fix,GT,37.3546907,-122.0620201,,25.637556,0.1,162.81165,1609881364999
Fix,GT,37.3544721,-122.0619372,,25.016623,0.1,163.16656,1609881365999
Fix,GT,37.3542602,-122.0618573,,23.874762,0.1,163.08301,1609881366999
Fix,GT,37.354065,-122.0617836,,21.288563,0.1,163.19257,1609881367999
Fix,GT,37.353892,-122.0617186,,19.015882,0.1,163.14557,1609881368999
Fix,GT,37.3537342,-122.0616582,,17.6636,0.1,162.87933,1609881369999
Fix,GT,37.3535855,-122.061601,,16.812586,0.1,162.80066,1609881370999
Fix,GT,37.3534456,-122.0615471,,15.516474,0.1,162.69574,1609881371999
Fix,GT,37.3533202,-122.0614981,,13.59746,0.1,162.48364,1609881372999
Fix,GT,37.3532091,-122.0614546,,12.363213,0.1,162.57184,1609881373999
Fix,GT,37.3531081,-122.0614156,,10.964361,0.1,163.00647,1609881374999
Fix,GT,37.3530182,-122.0613836,,9.876738,0.1,164.63354,1609881375999
Fix,GT,37.3529365,-122.0613576,,8.865317,0.1,165.94116,1609881376999
Fix,GT,37.352864,-122.0613358,,7.6274524,0.1,166.57867,1609881377999
Fix,GT,37.352803,-122.0613189,,6.236868,0.1,167.6466,1609881378999
Fix,GT,37.3527554,-122.0613066,,4.4288974,0.1,168.25934,1609881379999
Fix,GT,37.3527246,-122.0612989,,2.6273305,0.1,168.68787,1609881380999
Fix,GT,37.352707,-122.0612947,,1.3061587,0.1,168.867,1609881381999
Fix,GT,37.3527015,-122.0612934,,0.08551473,0.1,168.9226,1609881382999
Fix,GT,37.3527004,-122.0612931,,0.31024626,0.1,168.9436,1609881383999
Fix,GT,37.3526958,-122.0612922,,0.63538414,0.1,168.97162,1609881384999
Fix,GT,37.3526906,-122.0612909,,0.5224825,0.1,169.01208,1609881385999
Fix,GT,37.352687,-122.06129,,0.2891238,0.1,169.05383,1609881386999
Fix,GT,37.3526855,-122.0612897,,0.05710552,0.1,169.06268,1609881387999
Fix,GT,37.3526854,-122.0612897,,8.704809e-06,0.1,169.06592,1609881388999
Fix,GT,37.3526854,-122.0612897,,0.0031617952,0.1,169.0669,1609881389999
Fix,GT,37.3526855,-122.0612897,,0.0010003301,0.1,169.06683,1609881390999
Fix,GT,37.3526855,-122.0612897,,0.0022358794,0.1,169.06702,1609881391999
Fix,GT,37.3526855,-122.0612897,,0.002236068,0.1,169.06702,1609881392999
Fix,GT,37.3526855,-122.0612897,,0.002236068,0.1,169.06696,1609881393999
Fix,GT,37.3526855,-122.0612897,,0.0020000362,0.1,169.06708,1609881394999
Fix,GT,37.3526855,-122.0612896,,0.0029998473,0.1,169.0672,1609881395999
Fix,GT,37.3526855,-122.0612896,,0.0020001528,0.1,169.06732,1609881396999
Fix,GT,37.3526855,-122.0612896,,0.001000153,0.1,169.06726,1609881397999
Fix,GT,37.3526855,-122.0612896,,0.049236912,0.1,169.06934,1609881398999
Fix,GT,37.3526809,-122.0612885,,1.1891111,0.1,169.14484,1609881399999
Fix,GT,37.3526636,-122.0612846,,2.7595432,0.1,169.2652,1609881400999
Fix,GT,37.3526317,-122.0612771,,4.4119925,0.1,169.26721,1609881401999
Fix,GT,37.3525855,-122.0612663,,5.9779034,0.1,169.25134,1609881402999
Fix,GT,37.3525272,-122.0612527,,7.0950108,0.1,169.47607,1609881403999
Fix,GT,37.3524611,-122.0612381,,7.7257752,0.1,170.03876,1609881404999
Fix,GT,37.3523911,-122.0612234,,7.926817,0.1,170.68787,1609881405999
Fix,GT,37.3523211,-122.0612082,,7.7876196,0.1,169.48627,1609881406999
Fix,GT,37.3522543,-122.0611846,,7.502623,0.1,161.36322,1609881407999
Fix,GT,37.3521958,-122.061143,,7.3592076,0.1,146.31903,1609881408999
Fix,GT,37.3521478,-122.0610815,,7.7864904,0.1,129.91016,1609881409999
Fix,GT,37.3521133,-122.061001,,8.269662,0.1,114.22919,1609881410999
Fix,GT,37.3520945,-122.060907,,8.791226,0.1,99.87506,1609881411999
Fix,GT,37.3520904,-122.0608032,,9.589957,0.1,91.094055,1609881412999
Fix,GT,37.3520906,-122.0606907,,10.167112,0.1,89.4538,1609881413999
Fix,GT,37.3520922,-122.0605777,,9.628181,0.1,88.7666,1609881414999
Fix,GT,37.3520943,-122.0604775,,8.013933,0.1,88.26611,1609881415999
Fix,GT,37.3520966,-122.0603983,,6.0175524,0.1,87.793335,1609881416999
Fix,GT,37.3520985,-122.0603424,,3.890956,0.1,87.57028,1609881417999
Fix,GT,37.3520998,-122.0603073,,2.450472,0.1,87.27246,1609881418999
Fix,GT,37.3521007,-122.0602865,,1.2543905,0.1,87.16547,1609881419999
Fix,GT,37.352101,-122.0602785,,0.3085105,0.1,87.13104,1609881420999
Fix,GT,37.3521011,-122.0602742,,0.45351157,0.1,87.093506,1609881421999
Fix,GT,37.3521013,-122.0602699,,0.33340263,0.1,87.05408,1609881422999
Fix,GT,37.3521014,-122.0602672,,0.100215726,0.1,87.02899,1609881423999
Fix,GT,37.3521014,-122.0602671,,0.0041378946,0.1,87.02731,1609881424999
Fix,GT,37.3521014,-122.0602671,,6.3478836e-07,0.1,87.02527,1609881425999
Fix,GT,37.3521014,-122.0602671,,0.0014139957,0.1,87.02518,1609881426999
Fix,GT,37.3521014,-122.0602671,,0.0010000638,0.1,87.025085,1609881427999
Fix,GT,37.3521014,-122.0602671,,0.001,0.1,87.025085,1609881428999
Fix,GT,37.3521014,-122.0602671,,0.001,0.1,87.02429,1609881429999
Fix,GT,37.3521014,-122.0602671,,0.001,0.1,87.0246,1609881430999
Fix,GT,37.3521014,-122.0602671,,0.0014141497,0.1,87.02588,1609881431999
Fix,GT,37.3521014,-122.0602671,,0.001000064,0.1,87.02435,1609881432999
Fix,GT,37.3521014,-122.0602671,,0.001,0.1,87.02481,1609881433999
Fix,GT,37.3521014,-122.0602671,,1.5437604e-07,0.1,87.025085,1609881434999
Fix,GT,37.3521014,-122.0602671,,0.0009998457,0.1,87.024994,1609881435999
Fix,GT,37.3521014,-122.0602671,,0.0014141497,0.1,87.02481,1609881436999
Fix,GT,37.3521014,-122.0602671,,0.0010000641,0.1,87.02472,1609881437999
Fix,GT,37.3521014,-122.0602671,,0.03422935,0.1,87.025024,1609881438999
Fix,GT,37.352102,-122.0602624,,0.9430127,0.1,86.15518,1609881439999
Fix,GT,37.3521069,-122.0602456,,2.1263695,0.1,76.625,1609881440999
Fix,GT,37.3521225,-122.0602179,,3.5818338,0.1,58.258087,1609881441999
Fix,GT,37.3521551,-122.0601874,,5.180243,0.1,35.895477,1609881442999
Fix,GT,37.3522078,-122.0601668,,6.8217783,0.1,13.982422,1609881443999
Fix,GT,37.3522778,-122.0601651,,8.510305,0.1,357.2937,1609881444999
Fix,GT,37.3523594,-122.0601871,,9.906892,0.1,343.5403,1609881445999
Fix,GT,37.3524486,-122.0602338,,11.451261,0.1,335.39578,1609881446999
Fix,GT,37.352548,-122.0602919,,12.954452,0.1,334.8275,1609881447999
Fix,GT,37.3526594,-122.0603581,,14.341173,0.1,334.42664,1609881448999
Fix,GT,37.3527809,-122.0604308,,15.528673,0.1,334.47858,1609881449999
Fix,GT,37.3529123,-122.0605081,,16.670815,0.1,334.94913,1609881450999
Fix,GT,37.3530529,-122.0605895,,17.703175,0.1,335.23035,1609881451999
Fix,GT,37.3532008,-122.0606743,,18.409346,0.1,335.46173,1609881452999
Fix,GT,37.3533548,-122.0607637,,19.236744,0.1,334.81177,1609881453999
Fix,GT,37.3535142,-122.0608593,,20.009811,0.1,334.0104,1609881454999
Fix,GT,37.3536787,-122.0609615,,20.78685,0.1,333.189,1609881455999
Fix,GT,37.3538485,-122.0610709,,21.562166,0.1,332.48865,1609881456999
Fix,GT,37.3540243,-122.0611844,,22.385788,0.1,332.78574,1609881457999
Fix,GT,37.3542072,-122.0613005,,23.122238,0.1,333.28888,1609881458999
Fix,GT,37.3543976,-122.0614186,,24.059147,0.1,333.80655,1609881459999
Fix,GT,37.3545966,-122.0615378,,24.872578,0.1,334.84436,1609881460999
Fix,GT,37.3548037,-122.0616561,,25.71473,0.1,336.03525,1609881461999
Fix,GT,37.3550198,-122.0617721,,26.382557,0.1,337.51865,1609881462999
Fix,GT,37.3552425,-122.0618827,,26.819574,0.1,338.89407,1609881463999
Fix,GT,37.3554705,-122.0619891,,27.168034,0.1,340.31262,1609881464999
Fix,GT,37.3557034,-122.0620884,,27.470093,0.1,341.92865,1609881465999
Fix,GT,37.3559419,-122.0621811,,27.98339,0.1,343.33807,1609881466999
Fix,GT,37.3561864,-122.062268,,28.39628,0.1,344.84656,1609881467999
Fix,GT,37.3564355,-122.0623481,,28.68747,0.1,346.20966,1609881468999
Fix,GT,37.3566877,-122.0624212,,28.766718,0.1,347.5404,1609881469999
Fix,GT,37.3569412,-122.0624881,,28.68002,0.1,348.52716,1609881470999
Fix,GT,37.357194,-122.0625488,,28.528011,0.1,349.62582,1609881471999
Fix,GT,37.3574483,-122.0626042,,28.82192,0.1,350.4256,1609881472999
Fix,GT,37.3577053,-122.0626554,,28.897213,0.1,351.48505,1609881473999
Fix,GT,37.3579628,-122.0626992,,28.784266,0.1,352.85855,1609881474999
Fix,GT,37.3582202,-122.0627362,,28.772009,0.1,353.79556,1609881475999
Fix,GT,37.3584779,-122.0627683,,28.691286,0.1,354.6927,1609881476999
Fix,GT,37.3587349,-122.0627947,,28.569168,0.1,355.90005,1609881477999
Fix,GT,37.3589913,-122.0628139,,28.470373,0.1,357.06305,1609881478999
Fix,GT,37.3592479,-122.0628265,,28.534533,0.1,358.25757,1609881479999
Fix,GT,37.3595046,-122.0628321,,28.468859,0.1,359.57623,1609881480999
Fix,GT,37.3597615,-122.0628318,,28.59047,0.1,0.31619263,1609881481999
Fix,GT,37.3600201,-122.0628283,,28.86158,0.1,0.67440796,1609881482999
Fix,GT,37.3602821,-122.0628234,,29.275534,0.1,0.8269348,1609881483999
Fix,GT,37.3605472,-122.062818,,29.563707,0.1,0.7993469,1609881484999
Fix,GT,37.3608149,-122.0628131,,29.840303,0.1,0.73617554,1609881485999
Fix,GT,37.3610843,-122.0628083,,29.935247,0.1,0.7782898,1609881486999
Fix,GT,37.3613546,-122.0628023,,30.052294,0.1,0.99468994,1609881487999
Fix,GT,37.3616255,-122.062796,,30.077509,0.1,0.8843689,1609881488999
Fix,GT,37.3618965,-122.0627903,,30.078926,0.1,0.86727905,1609881489999
Fix,GT,37.3621673,-122.0627848,,30.058228,0.1,0.88845825,1609881490999
Fix,GT,37.3624382,-122.0627788,,30.098099,0.1,0.81762695,1609881491999
Fix,GT,37.3627099,-122.0627748,,30.204199,0.1,0.44381714,1609881492999
Fix,GT,37.3629828,-122.0627711,,30.407007,0.1,0.578125,1609881493999
Fix,GT,37.3632575,-122.0627662,,30.546875,0.1,0.92697144,1609881494999
Fix,GT,37.3635329,-122.0627607,,30.588701,0.1,0.7747803,1609881495999
Fix,GT,37.3638088,-122.0627586,,30.674053,0.1,359.8608,1609881496999
Fix,GT,37.3640859,-122.0627652,,30.82352,0.1,357.80103,1609881497999
Fix,GT,37.3643632,-122.0627863,,30.748295,0.1,355.16885,1609881498999
Fix,GT,37.3646376,-122.0628224,,30.474983,0.1,352.8854,1609881499999
Fix,GT,37.364908,-122.0628718,,30.163733,0.1,350.4622,1609881500999
Fix,GT,37.3651732,-122.0629347,,29.73899,0.1,348.09113,1609881501999
Fix,GT,37.3654331,-122.0630095,,29.426493,0.1,346.08826,1609881502999
Fix,GT,37.3656885,-122.0630944,,29.292229,0.1,344.0691,1609881503999
Fix,GT,37.3659411,-122.0631915,,29.305637,0.1,341.71454,1609881504999
Fix,GT,37.3661895,-122.0633015,,29.122215,0.1,339.2859,1609881505999
Fix,GT,37.3664322,-122.0634232,,28.870836,0.1,337.103,1609881506999
Fix,GT,37.3666695,-122.0635534,,28.63305,0.1,335.67175,1609881507999
Fix,GT,37.3669029,-122.0636886,,28.440304,0.1,334.7037,1609881508999
Fix,GT,37.3671336,-122.0638261,,28.279587,0.1,334.23886,1609881509999
Fix,GT,37.3673628,-122.0639641,,28.238768,0.1,334.21268,1609881510999
Fix,GT,37.3675921,-122.0641044,,28.44652,0.1,333.66083,1609881511999
Fix,GT,37.367823,-122.0642474,,28.679148,0.1,333.60837,1609881512999
Fix,GT,37.368055,-122.0643898,,28.64927,0.1,333.9947,1609881513999
Fix,GT,37.3682877,-122.0645315,,28.72666,0.1,333.97543,1609881514999
Fix,GT,37.3685197,-122.0646725,,28.502031,0.1,334.2051,1609881515999
Fix,GT,37.3687501,-122.0648106,,28.192211,0.1,334.4622,1609881516999
Fix,GT,37.3689783,-122.0649464,,27.883821,0.1,334.42596,1609881517999
Fix,GT,37.3692038,-122.0650816,,27.585249,0.1,334.25208,1609881518999
Fix,GT,37.3694265,-122.0652161,,27.298748,0.1,334.147,1609881519999
Fix,GT,37.3696476,-122.0653498,,27.224716,0.1,334.15445,1609881520999
Fix,GT,37.369869,-122.0654843,,27.445206,0.1,333.9125,1609881521999
Fix,GT,37.3700929,-122.0656218,,27.92728,0.1,333.73526,1609881522999
Fix,GT,37.3703191,-122.0657606,,27.953974,0.1,333.89072,1609881523999
Fix,GT,37.3705463,-122.0658995,,28.161758,0.1,333.8369,1609881524999
Fix,GT,37.3707743,-122.06604,,28.245695,0.1,333.76352,1609881525999
Fix,GT,37.371003,-122.0661793,,28.168962,0.1,334.20435,1609881526999
Fix,GT,37.3712318,-122.0663178,,28.268728,0.1,334.00302,1609881527999
Fix,GT,37.3714612,-122.0664578,,28.285608,0.1,333.99332,1609881528999
Fix,GT,37.3716896,-122.0665963,,28.039087,0.1,334.20285,1609881529999
Fix,GT,37.3719173,-122.0667329,,28.026304,0.1,334.4223,1609881530999
Fix,GT,37.3721446,-122.066868,,27.769016,0.1,334.6474,1609881531999
Fix,GT,37.3723695,-122.0670009,,27.457256,0.1,334.6992,1609881532999
Fix,GT,37.3725932,-122.0671312,,27.35908,0.1,335.31116,1609881533999
Fix,GT,37.3728196,-122.0672568,,27.655062,0.1,336.91888,1609881534999
Fix,GT,37.3730524,-122.067372,,27.920847,0.1,339.70148,1609881535999
Fix,GT,37.3732902,-122.0674734,,27.824194,0.1,342.4602,1609881536999
Fix,GT,37.3735297,-122.0675603,,27.536959,0.1,345.04562,1609881537999
Fix,GT,37.3737696,-122.0676322,,27.255287,0.1,347.7424,1609881538999
Fix,GT,37.3740079,-122.0676895,,26.55609,0.1,350.13312,1609881539999
Fix,GT,37.3742419,-122.0677335,,25.923037,0.1,352.56824,1609881540999
Fix,GT,37.3744692,-122.0677626,,24.682846,0.1,355.41766,1609881541999
Fix,GT,37.374686,-122.0677774,,23.64707,0.1,357.95688,1609881542999
Fix,GT,37.3748954,-122.0677792,,22.922588,0.1,1.3608093,1609881543999
Fix,GT,37.3750994,-122.0677604,,22.626451,0.1,6.3906555,1609881544999
Fix,GT,37.3753004,-122.0677245,,22.477972,0.1,8.949066,1609881545999
Fix,GT,37.3754992,-122.067683,,22.259214,0.1,9.733948,1609881546999
Fix,GT,37.375694,-122.0676383,,21.492708,0.1,10.589722,1609881547999
Fix,GT,37.3758787,-122.0675922,,20.222424,0.1,11.506592,1609881548999
Fix,GT,37.3760497,-122.0675451,,18.773859,0.1,12.893738,1609881549999
Fix,GT,37.3762087,-122.0674884,,18.143923,0.1,18.558289,1609881550999
Fix,GT,37.376358,-122.0674099,,17.885225,0.1,25.557526,1609881551999
Fix,GT,37.3764948,-122.067308,,17.558514,0.1,34.811096,1609881552999
Fix,GT,37.3766149,-122.0671824,,17.26641,0.1,42.84607,1609881553999
Fix,GT,37.3767196,-122.0670414,,16.934574,0.1,49.960815,1609881554999
Fix,GT,37.3768078,-122.0668879,,16.750689,0.1,57.30661,1609881555999
Fix,GT,37.3768801,-122.0667218,,16.805387,0.1,63.706726,1609881556999
Fix,GT,37.3769437,-122.066551,,16.576656,0.1,65.542694,1609881557999
Fix,GT,37.377003,-122.066381,,16.298512,0.1,66.599915,1609881558999
Fix,GT,37.3770602,-122.0662154,,15.511729,0.1,66.17682,1609881559999
Fix,GT,37.3771139,-122.0660633,,13.928679,0.1,65.88077,1609881560999
Fix,GT,37.3771599,-122.0659302,,11.614297,0.1,67.054504,1609881561999
Fix,GT,37.3771918,-122.0658208,,9.049624,0.1,71.952576,1609881562999
Fix,GT,37.3772073,-122.0657359,,6.68437,0.1,78.815765,1609881563999
Fix,GT,37.3772125,-122.0656739,,4.2811356,0.1,84.74985,1609881564999
Fix,GT,37.3772134,-122.0656344,,2.8713536,0.1,87.84149,1609881565999
Fix,GT,37.3772132,-122.0656068,,2.2522376,0.1,89.409546,1609881566999
Fix,GT,37.377213,-122.0655799,,2.769932,0.1,90.12616,1609881567999
Fix,GT,37.3772113,-122.0655392,,4.4438825,0.1,92.96219,1609881568999
Fix,GT,37.377206,-122.0654815,,5.863909,0.1,96.62213,1609881569999
Fix,GT,37.3771984,-122.065409,,7.0833855,0.1,97.24072,1609881570999
Fix,GT,37.377191,-122.0653232,,8.1206455,0.1,95.712494,1609881571999
Fix,GT,37.3771837,-122.0652269,,8.97365,0.1,95.57501,1609881572999
Fix,GT,37.3771735,-122.0651227,,9.6272545,0.1,97.96472,1609881573999
Fix,GT,37.3771571,-122.0650139,,10.049131,0.1,102.106995,1609881574999
Fix,GT,37.3771317,-122.0649016,,10.677667,0.1,107.83951,1609881575999
Fix,GT,37.3770947,-122.0647867,,11.340027,0.1,113.69415,1609881576999
Fix,GT,37.3770501,-122.0646675,,11.988455,0.1,115.33746,1609881577999
Fix,GT,37.3770027,-122.064543,,12.415613,0.1,115.41669,1609881578999
Fix,GT,37.3769548,-122.0644168,,12.283223,0.1,115.36328,1609881579999
Fix,GT,37.3769081,-122.0642933,,11.842664,0.1,115.149506,1609881580999
Fix,GT,37.3768646,-122.0641764,,10.791699,0.1,114.73563,1609881581999
Fix,GT,37.3768272,-122.0640743,,9.041688,0.1,114.5741,1609881582999
Fix,GT,37.3767961,-122.06399,,7.7158623,0.1,114.62079,1609881583999
Fix,GT,37.3767681,-122.0639151,,6.8272696,0.1,115.18915,1609881584999
Fix,GT,37.3767437,-122.0638512,,5.8551245,0.1,115.44345,1609881585999
Fix,GT,37.3767224,-122.0637952,,5.003188,0.1,115.342926,1609881586999
Fix,GT,37.3767059,-122.063751,,3.5217938,0.1,115.121704,1609881587999
Fix,GT,37.3766961,-122.0637251,,1.6095066,0.1,115.04355,1609881588999
Fix,GT,37.3766928,-122.0637161,,0.28560323,0.1,115.009705,1609881589999
Fix,GT,37.3766927,-122.0637157,,0.0014597453,0.1,115.01251,1609881590999
Fix,GT,37.3766926,-122.0637156,,0.0029997455,0.1,115.01306,1609881591999
Fix,GT,37.3766926,-122.0637156,,0.0014144679,0.1,115.01398,1609881592999
Fix,GT,37.3766926,-122.0637156,,0.0010000665,0.1,115.01416,1609881593999
Fix,GT,37.3766926,-122.0637156,,0.0022358696,0.1,115.012634,1609881594999
Fix,GT,37.3766927,-122.0637156,,0.002000038,0.1,115.01233,1609881595999
Fix,GT,37.3766927,-122.0637156,,0.002,0.1,115.01239,1609881596999
Fix,GT,37.3766927,-122.0637156,,0.002,0.1,115.01221,1609881597999
Fix,GT,37.3766927,-122.0637156,,0.002,0.1,115.01227,1609881598999
Fix,GT,37.3766927,-122.0637156,,0.00223603,0.1,115.01224,1609881599999
Fix,GT,37.3766927,-122.0637156,,0.0014143457,0.1,115.01291,1609881600999
Fix,GT,37.3766927,-122.0637156,,0.001999906,0.1,115.01239,1609881601999
Fix,GT,37.3766927,-122.0637156,,0.0010001608,0.1,115.01248,1609881602999
Fix,GT,37.3766927,-122.0637156,,0.0019998394,0.1,115.01224,1609881603999
Fix,GT,37.3766927,-122.0637156,,0.0010001609,0.1,115.01236,1609881604999
Fix,GT,37.3766927,-122.0637156,,0.001,0.1,115.012085,1609881605999
Fix,GT,37.3766927,-122.0637156,,0.001,0.1,115.01193,1609881606999
Fix,GT,37.3766927,-122.0637156,,0.0019998392,0.1,115.012024,1609881607999
Fix,GT,37.3766927,-122.0637156,,0.002,0.1,115.012054,1609881608999
Fix,GT,37.3766927,-122.0637156,,0.002,0.1,115.012146,1609881609999
Fix,GT,37.3766927,-122.0637156,,0.00223603,0.1,115.01294,1609881610999
Fix,GT,37.3766927,-122.0637156,,0.002236068,0.1,115.01279,1609881611999
Fix,GT,37.3766927,-122.0637156,,0.0020000383,0.1,115.01236,1609881612999
Fix,GT,37.3766927,-122.0637156,,0.0029998387,0.1,115.01242,1609881613999
Fix,GT,37.3766927,-122.0637156,,0.0020001612,0.1,115.01233,1609881614999
Fix,GT,37.3766927,-122.0637156,,0.00223603,0.1,115.01251,1609881615999
Fix,GT,37.3766927,-122.0637156,,0.0010001995,0.1,115.012726,1609881616999
Fix,GT,37.3766927,-122.0637156,,0.0019998387,0.1,115.012695,1609881617999
Fix,GT,37.3766927,-122.0637156,,0.002,0.1,115.012726,1609881618999
Fix,GT,37.3766927,-122.0637156,,0.0022360298,0.1,115.01288,1609881619999
Fix,GT,37.3766927,-122.0637156,,0.0031621282,0.1,115.01282,1609881620999
Fix,GT,37.3766927,-122.0637156,,0.0020001878,0.1,115.01285,1609881621999
Fix,GT,37.3766927,-122.0637156,,0.0010001615,0.1,115.01291,1609881622999
Fix,GT,37.3766927,-122.0637156,,0.0022358685,0.1,115.01294,1609881623999
Fix,GT,37.3766927,-122.0637156,,0.0010001998,0.1,115.012726,1609881624999
Fix,GT,37.3766927,-122.0637156,,0.001,0.1,115.01297,1609881625999
Fix,GT,37.3766927,-122.0637156,,0.001,0.1,115.01306,1609881626999
Fix,GT,37.3766927,-122.0637156,,0.0014141466,0.1,115.01349,1609881627999
Fix,GT,37.3766927,-122.0637156,,0.001000067,0.1,115.01337,1609881628999
Fix,GT,37.3766927,-122.0637156,,0.001,0.1,115.01312,1609881629999
Fix,GT,37.3766927,-122.0637156,,0.001,0.1,115.01294,1609881630999
Fix,GT,37.3766927,-122.0637156,,0.0014141465,0.1,115.01288,1609881631999
Fix,GT,37.3766927,-122.0637156,,0.0010000671,0.1,115.01303,1609881632999
Fix,GT,37.3766927,-122.0637156,,0.001,0.1,115.01306,1609881633999
Fix,GT,37.3766927,-122.0637156,,0.001,0.1,115.01294,1609881634999
Fix,GT,37.3766927,-122.0637156,,0.001,0.1,115.01312,1609881635999
Fix,GT,37.3766927,-122.0637156,,0.0014141465,0.1,115.01315,1609881636999
Fix,GT,37.3766927,-122.0637156,,0.0010000672,0.1,115.01306,1609881637999
Fix,GT,37.3766927,-122.0637156,,0.001999838,0.1,115.01318,1609881638999
Fix,GT,37.3766927,-122.0637156,,0.0022360298,0.1,115.013275,1609881639999
Fix,GT,37.3766927,-122.0637156,,0.002236068,0.1,115.013275,1609881640999
Fix,GT,37.3766927,-122.0637156,,0.002236068,0.1,115.013306,1609881641999
Fix,GT,37.3766927,-122.0637156,,0.002828331,0.1,115.01337,1609881642999
Fix,GT,37.3766927,-122.0637156,,0.001414443,0.1,115.013245,1609881643999
Fix,GT,37.3766927,-122.0637156,,0.0010000673,0.1,115.01318,1609881644999
Fix,GT,37.3766927,-122.0637156,,0.0019998378,0.1,115.01297,1609881645999
Fix,GT,37.3766927,-122.0637156,,0.002,0.1,115.01312,1609881646999
Fix,GT,37.3766927,-122.0637156,,0.0022360298,0.1,115.012665,1609881647999
Fix,GT,37.3766927,-122.0637156,,0.0010002009,0.1,115.01294,1609881648999
Fix,GT,37.3766927,-122.0637156,,0.001,0.1,115.01294,1609881649999
Fix,GT,37.3766927,-122.0637156,,0.0022358673,0.1,115.01303,1609881650999
Fix,GT,37.3766927,-122.0637156,,0.0020000385,0.1,115.01288,1609881651999
Fix,GT,37.3766927,-122.0637156,,0.0022360296,0.1,115.013,1609881652999
Fix,GT,37.3766927,-122.0637156,,0.001000201,0.1,115.01318,1609881653999
Fix,GT,37.3766927,-122.0637156,,0.001,0.1,115.01309,1609881654999
Fix,GT,37.3766927,-122.0637156,,0.0019998376,0.1,115.01312,1609881655999
Fix,GT,37.3766927,-122.0637156,,0.0022360296,0.1,115.01318,1609881656999
Fix,GT,37.3766927,-122.0637156,,0.002236068,0.1,115.01306,1609881657999
Fix,GT,37.3766927,-122.0637156,,0.002236068,0.1,115.01312,1609881658999
Fix,GT,37.3766927,-122.0637156,,0.0010002013,0.1,115.01297,1609881659999
Fix,GT,37.3766927,-122.0637156,,0.001999837,0.1,115.01312,1609881660999
Fix,GT,37.3766927,-122.0637156,,0.001414309,0.1,115.01294,1609881661999
Fix,GT,37.3766927,-122.0637156,,0.0010000676,0.1,115.01312,1609881662999
Fix,GT,37.3766927,-122.0637156,,0.001,0.1,115.01314,1609881663999
Fix,GT,37.3766927,-122.0637156,,0.001,0.1,115.013245,1609881664999
Fix,GT,37.3766927,-122.0637156,,0.001,0.1,115.01306,1609881665999
Fix,GT,37.3766927,-122.0637156,,0.001,0.1,115.01297,1609881666999
Fix,GT,37.3766927,-122.0637156,,0.001,0.1,115.01312,1609881667999
Fix,GT,37.3766927,-122.0637156,,0.001,0.1,115.01303,1609881668999
Fix,GT,37.3766927,-122.0637156,,0.0014141459,0.1,115.01312,1609881669999
Fix,GT,37.3766927,-122.0637156,,0.0010000677,0.1,115.01318,1609881670999
Fix,GT,37.3766927,-122.0637156,,0.001,0.1,115.013214,1609881671999
Fix,GT,37.3766927,-122.0637156,,0.0022358662,0.1,115.01312,1609881672999
Fix,GT,37.3766927,-122.0637156,,0.0010002019,0.1,115.013,1609881673999
Fix,GT,37.3766927,-122.0637156,,0.0019998366,0.1,115.01306,1609881674999
Fix,GT,37.3766927,-122.0637156,,0.002,0.1,115.01318,1609881675999
Fix,GT,37.3766927,-122.0637156,,0.0031620876,0.1,115.01517,1609881676999
Fix,GT,37.3766927,-122.0637156,,0.003605479,0.1,115.01544,1609881677999
Fix,GT,37.3766927,-122.0637156,,0.0020002625,0.1,115.0155,1609881678999
Fix,GT,37.3766927,-122.0637156,,0.002,0.1,115.01514,1609881679999
Fix,GT,37.3766927,-122.0637156,,0.0036052887,0.1,115.01358,1609881680999
Fix,GT,37.3766927,-122.0637156,,0.002236292,0.1,115.01294,1609881681999
Fix,GT,37.3766925,-122.0637152,,0.23037536,0.1,115.01044,1609881682999
Fix,GT,37.3766896,-122.0637069,,1.4329023,0.1,114.785065,1609881683999
Fix,GT,37.3766845,-122.0636856,,2.3951406,0.1,109.08563,1609881684999
Fix,GT,37.376686,-122.0636535,,3.0349624,0.1,89.43057,1609881685999
Fix,GT,37.376704,-122.0636205,,3.4345348,0.1,56.849365,1609881686999
Fix,GT,37.3767377,-122.0636083,,3.6336799,0.1,16.627808,1609881687999
Fix,GT,37.376774,-122.0636274,,4.612044,0.1,336.20013,1609881688999
Fix,GT,37.3768047,-122.0636797,,6.526312,0.1,303.0801,1609881689999
Fix,GT,37.376833,-122.0637592,,8.807674,0.1,293.94327,1609881690999
Fix,GT,37.3768691,-122.0638617,,11.028796,0.1,293.60638,1609881691999
Fix,GT,37.3769118,-122.0639853,,12.823661,0.1,293.24405,1609881692999
Fix,GT,37.3769616,-122.0641284,,14.801401,0.1,293.50983,1609881693999
Fix,GT,37.3770177,-122.0642915,,16.594145,0.1,292.85303,1609881694999
Fix,GT,37.3770772,-122.064472,,17.914167,0.1,292.10303,1609881695999
Fix,GT,37.3771401,-122.0646668,,19.28075,0.1,291.95053,1609881696999
Fix,GT,37.3772092,-122.0648749,,20.649357,0.1,293.0735,1609881697999
Fix,GT,37.3772863,-122.0650953,,21.928001,0.1,293.75977,1609881698999
Fix,GT,37.3773685,-122.0653277,,23.122425,0.1,293.8617,1609881699999
Fix,GT,37.3774549,-122.0655715,,23.922134,0.1,294.04144,1609881700999
Fix,GT,37.3775438,-122.0658157,,23.572989,0.1,294.75363,1609881701999
Fix,GT,37.377632,-122.0660546,,23.068537,0.1,294.74402,1609881702999
Fix,GT,37.3777182,-122.0662883,,22.532171,0.1,294.82797,1609881703999
Fix,GT,37.3778035,-122.066517,,22.15999,0.1,295.08154,1609881704999
Fix,GT,37.3778891,-122.0667402,,21.781843,0.1,296.39905,1609881705999
Fix,GT,37.3779791,-122.0669596,,21.999386,0.1,297.53036,1609881706999
Fix,GT,37.3780712,-122.0671782,,21.721529,0.1,297.80063,1609881707999
Fix,GT,37.3781619,-122.067393,,21.282087,0.1,297.95764,1609881708999
Fix,GT,37.3782517,-122.0676027,,20.893507,0.1,298.176,1609881709999
Fix,GT,37.3783398,-122.0678087,,20.484035,0.1,298.0646,1609881710999
Fix,GT,37.3784255,-122.068008,,19.507345,0.1,298.55646,1609881711999
Fix,GT,37.3785073,-122.0681938,,18.04652,0.1,298.64304,1609881712999
Fix,GT,37.3785811,-122.068369,,16.922602,0.1,296.91058,1609881713999
Fix,GT,37.3786454,-122.0685299,,14.8760395,0.1,296.4448,1609881714999
Fix,GT,37.3787022,-122.068667,,12.712878,0.1,298.518,1609881715999
Fix,GT,37.3787604,-122.0687803,,11.406666,0.1,305.97845,1609881716999
Fix,GT,37.3788314,-122.0688697,,11.250945,0.1,319.57306,1609881717999
Fix,GT,37.3789192,-122.0689328,,11.4415245,0.1,335.53967,1609881718999
Fix,GT,37.3790205,-122.0689639,,11.977872,0.1,351.81625,1609881719999
Fix,GT,37.3791297,-122.0689588,,12.475981,0.1,7.263855,1609881720999
Fix,GT,37.3792374,-122.0689159,,12.773801,0.1,23.873169,1609881721999
Fix,GT,37.3793318,-122.0688334,,13.078053,0.1,41.153046,1609881722999
Fix,GT,37.3794042,-122.068717,,13.2890835,0.1,58.69278,1609881723999
Fix,GT,37.379445,-122.0685775,,13.2312765,0.1,76.76175,1609881724999
Fix,GT,37.3794495,-122.0684312,,12.9706,0.1,94.73114,1609881725999
Fix,GT,37.3794192,-122.0682934,,12.617331,0.1,112.041504,1609881726999
Fix,GT,37.37936,-122.0681756,,12.350486,0.1,128.40295,1609881727999
Fix,GT,37.3792759,-122.068083,,12.867903,0.1,144.83621,1609881728999
Fix,GT,37.3791675,-122.0680184,,14.016099,0.1,159.91956,1609881729999
Fix,GT,37.3790396,-122.0679763,,15.502174,0.1,167.75098,1609881730999
Fix,GT,37.378895,-122.0679441,,17.123041,0.1,170.61462,1609881731999
Fix,GT,37.3787349,-122.0679141,,18.843382,0.1,171.50122,1609881732999
Fix,GT,37.3785591,-122.0678808,,20.619122,0.1,171.2417,1609881733999
Fix,GT,37.3783678,-122.0678457,,22.231985,0.1,172.20276,1609881734999
Fix,GT,37.3781641,-122.0678148,,23.304081,0.1,173.7428,1609881735999
Fix,GT,37.3779502,-122.0677904,,24.39788,0.1,175.57593,1609881736999
Fix,GT,37.3777258,-122.067776,,25.512964,0.1,178.1958,1609881737999
Fix,GT,37.3774906,-122.0677728,,26.72915,0.1,180.4223,1609881738999
Fix,GT,37.3772446,-122.0677826,,27.894861,0.1,182.98209,1609881739999
Fix,GT,37.3769907,-122.0678055,,28.5892,0.1,185.03201,1609881740999
Fix,GT,37.3767314,-122.0678379,,29.277205,0.1,185.86938,1609881741999
Fix,GT,37.3764661,-122.067872,,29.887249,0.1,185.68784,1609881742999
Fix,GT,37.3761966,-122.0679068,,30.191412,0.1,185.93701,1609881743999
Fix,GT,37.3759256,-122.067943,,30.266054,0.1,186.00723,1609881744999
Fix,GT,37.3756545,-122.067978,,30.223082,0.1,185.56537,1609881745999
Fix,GT,37.3753835,-122.0680082,,30.128172,0.1,184.51723,1609881746999
Fix,GT,37.3751132,-122.068028,,29.958391,0.1,182.00783,1609881747999
Fix,GT,37.3748435,-122.0680314,,29.896639,0.1,179.15396,1609881748999
Fix,GT,37.3745743,-122.0680196,,29.809822,0.1,176.63196,1609881749999
Fix,GT,37.3743084,-122.0679926,,29.365072,0.1,174.1452,1609881750999
Fix,GT,37.3740478,-122.067951,,28.939735,0.1,171.26788,1609881751999
Fix,GT,37.3737928,-122.067894,,28.530508,0.1,168.61072,1609881752999
Fix,GT,37.3735436,-122.0678237,,28.148964,0.1,165.98969,1609881753999
Fix,GT,37.3733014,-122.0677414,,27.551014,0.1,163.67798,1609881754999
Fix,GT,37.3730662,-122.0676478,,27.22817,0.1,161.03448,1609881755999
Fix,GT,37.3728371,-122.0675411,,27.009287,0.1,158.35095,1609881756999
Fix,GT,37.3726133,-122.0674233,,26.915518,0.1,156.15045,1609881757999
Fix,GT,37.3723925,-122.0672959,,27.070967,0.1,154.45691,1609881758999
Fix,GT,37.3721719,-122.0671615,,27.363228,0.1,153.66003,1609881759999
Fix,GT,37.3719491,-122.0670237,,27.801975,0.1,153.74219,1609881760999
Fix,GT,37.3717221,-122.066885,,28.246515,0.1,154.02649,1609881761999
Fix,GT,37.3714907,-122.0667445,,28.771704,0.1,154.12744,1609881762999
Fix,GT,37.3712552,-122.0666024,,29.250744,0.1,154.21887,1609881763999
Fix,GT,37.3710161,-122.066458,,29.716362,0.1,154.08215,1609881764999
Fix,GT,37.3707737,-122.0663102,,30.047647,0.1,153.84058,1609881765999
Fix,GT,37.3705293,-122.0661597,,30.427563,0.1,153.70868,1609881766999
Fix,GT,37.3702815,-122.0660076,,30.828533,0.1,153.94537,1609881767999
Fix,GT,37.3700303,-122.0658547,,31.09156,0.1,154.04419,1609881768999
Fix,GT,37.3697777,-122.0657013,,31.28942,0.1,154.10999,1609881769999
Fix,GT,37.369522,-122.0655464,,31.702238,0.1,154.14496,1609881770999
Fix,GT,37.3692639,-122.0653906,,31.87324,0.1,154.22711,1609881771999
Fix,GT,37.3690043,-122.0652344,,31.936588,0.1,154.30334,1609881772999
Fix,GT,37.3687459,-122.0650802,,31.54199,0.1,154.55853,1609881773999
Fix,GT,37.3684908,-122.0649289,,31.125568,0.1,154.59705,1609881774999
Fix,GT,37.3682392,-122.0647787,,30.734898,0.1,154.28992,1609881775999
Fix,GT,37.3679912,-122.064629,,30.356056,0.1,154.10455,1609881776999
Fix,GT,37.3677468,-122.0644801,,29.968313,0.1,153.90198,1609881777999
Fix,GT,37.367506,-122.0643322,,29.575325,0.1,153.80267,1609881778999
Fix,GT,37.3672679,-122.0641868,,29.20204,0.1,154.10767,1609881779999
Fix,GT,37.367032,-122.064045,,28.994333,0.1,154.43079,1609881780999
Fix,GT,37.3667952,-122.063903,,29.293827,0.1,154.30896,1609881781999
Fix,GT,37.3665561,-122.063761,,29.424622,0.1,154.9253,1609881782999
Fix,GT,37.3663129,-122.0636251,,29.771154,0.1,157.13196,1609881783999
Fix,GT,37.3660623,-122.0635027,,29.966991,0.1,160.05402,1609881784999
Fix,GT,37.3658061,-122.0633949,,30.058268,0.1,162.65222,1609881785999
Fix,GT,37.3655454,-122.0633007,,30.167978,0.1,165.01721,1609881786999
Fix,GT,37.3652814,-122.0632193,,30.20695,0.1,167.04138,1609881787999
Fix,GT,37.3650152,-122.0631491,,30.192547,0.1,169.03394,1609881788999
Fix,GT,37.3647464,-122.0630912,,30.39384,0.1,171.42224,1609881789999
Fix,GT,37.3644741,-122.0630484,,30.535585,0.1,174.18805,1609881790999
Fix,GT,37.3641998,-122.0630213,,30.529942,0.1,176.56598,1609881791999
Fix,GT,37.3639258,-122.063007,,30.31093,0.1,178.40747,1609881792999
Fix,GT,37.3636546,-122.0630031,,29.887077,0.1,180.03857,1609881793999
Fix,GT,37.3633875,-122.0630057,,29.41333,0.1,180.70735,1609881794999
Fix,GT,37.3631235,-122.0630111,,29.314556,0.1,180.95848,1609881795999
Fix,GT,37.3628589,-122.0630169,,29.301905,0.1,181.04568,1609881796999
Fix,GT,37.3625967,-122.0630239,,28.923803,0.1,181.26459,1609881797999
Fix,GT,37.362338,-122.0630318,,28.540945,0.1,181.32614,1609881798999
Fix,GT,37.3620819,-122.0630381,,28.384188,0.1,180.86464,1609881799999
Fix,GT,37.3618262,-122.0630425,,28.445023,0.1,180.63498,1609881800999
Fix,GT,37.3615689,-122.0630465,,28.656366,0.1,180.66331,1609881801999
Fix,GT,37.3613097,-122.0630511,,28.889282,0.1,180.82463,1609881802999
Fix,GT,37.3610486,-122.0630569,,29.06821,0.1,181.00691,1609881803999
Fix,GT,37.3607861,-122.063063,,29.183033,0.1,180.98405,1609881804999
Fix,GT,37.3605228,-122.0630697,,29.260498,0.1,181.25082,1609881805999
Fix,GT,37.3602591,-122.0630778,,29.268158,0.1,181.25337,1609881806999
Fix,GT,37.3599951,-122.0630836,,29.362377,0.1,180.68802,1609881807999
Fix,GT,37.35973,-122.0630863,,29.48921,0.1,180.1141,1609881808999
Fix,GT,37.3594634,-122.0630837,,29.676884,0.1,178.97346,1609881809999
Fix,GT,37.359195,-122.0630751,,29.91105,0.1,178.0672,1609881810999
Fix,GT,37.3589248,-122.0630611,,30.117424,0.1,177.08258,1609881811999
Fix,GT,37.3586526,-122.0630404,,30.373127,0.1,175.85022,1609881812999
Fix,GT,37.3583791,-122.0630126,,30.491076,0.1,174.80005,1609881813999
Fix,GT,37.3581057,-122.0629785,,30.469627,0.1,173.66785,1609881814999
Fix,GT,37.357834,-122.0629372,,30.22407,0.1,172.45056,1609881815999
Fix,GT,37.3575656,-122.0628884,,30.007355,0.1,170.98962,1609881816999
Fix,GT,37.3573001,-122.0628326,,29.712559,0.1,169.96063,1609881817999
Fix,GT,37.3570383,-122.0627728,,29.329903,0.1,169.38745,1609881818999
Fix,GT,37.3567803,-122.062711,,29.001392,0.1,168.95007,1609881819999
Fix,GT,37.3565251,-122.0626469,,28.75897,0.1,168.28925,1609881820999
Fix,GT,37.3562728,-122.0625787,,28.572472,0.1,167.15076,1609881821999
Fix,GT,37.356023,-122.0625033,,28.370928,0.1,165.74304,1609881822999
Fix,GT,37.3557777,-122.0624226,,27.876831,0.1,164.7533,1609881823999
Fix,GT,37.3555399,-122.0623391,,26.98628,0.1,163.97241,1609881824999
Fix,GT,37.355309,-122.0622545,,26.392984,0.1,163.3393,1609881825999
Fix,GT,37.3550853,-122.0621697,,25.326996,0.1,163.14258,1609881826999
Fix,GT,37.3548736,-122.0620887,,23.808718,0.1,162.81958,1609881827999
Fix,GT,37.3546732,-122.0620116,,22.755964,0.1,163.0586,1609881828999
Fix,GT,37.354481,-122.06194,,21.765667,0.1,163.41394,1609881829999
Fix,GT,37.3542973,-122.0618712,,20.788252,0.1,163.17322,1609881830999
Fix,GT,37.3541221,-122.0618045,,19.818268,0.1,162.93555,1609881831999
Fix,GT,37.3539587,-122.0617418,,18.01263,0.1,162.79529,1609881832999
Fix,GT,37.3538115,-122.0616847,,16.280077,0.1,162.73297,1609881833999
Fix,GT,37.3536761,-122.0616323,,15.367498,0.1,162.76416,1609881834999
Fix,GT,37.353545,-122.061582,,15.104847,0.1,162.99371,1609881835999
Fix,GT,37.3534156,-122.0615327,,14.908049,0.1,162.91528,1609881836999
Fix,GT,37.3532897,-122.0614848,,14.033025,0.1,163.13153,1609881837999
Fix,GT,37.3531773,-122.0614427,,12.009117,0.1,163.40381,1609881838999
Fix,GT,37.3530799,-122.0614073,,10.622067,0.1,163.97559,1609881839999
Fix,GT,37.3529933,-122.0613779,,9.324258,0.1,165.16571,1609881840999
Fix,GT,37.3529178,-122.0613544,,7.920355,0.1,166.20837,1609881841999
Fix,GT,37.3528534,-122.0613356,,6.779787,0.1,166.89954,1609881842999
Fix,GT,37.3528,-122.0613207,,5.4649177,0.1,167.39874,1609881843999
Fix,GT,37.3527585,-122.0613095,,4.0071845,0.1,167.69739,1609881844999
Fix,GT,37.3527277,-122.0613013,,3.0659187,0.1,167.91742,1609881845999
Fix,GT,37.3527028,-122.0612948,,2.645155,0.1,168.0733,1609881846999
Fix,GT,37.352682,-122.0612896,,1.9552277,0.1,168.22015,1609881847999
Fix,GT,37.3526694,-122.0612865,,0.8346881,0.1,168.3064,1609881848999
Fix,GT,37.3526664,-122.0612857,,0.033511676,0.1,168.31818,1609881849999
Fix,GT,37.3526664,-122.0612857,,0.002241319,0.1,168.32819,1609881850999
Fix,GT,37.3526664,-122.0612857,,0.0014143522,0.1,168.32593,1609881851999
Fix,GT,37.3526664,-122.0612857,,2.3855117e-07,0.1,168.32562,1609881852999
Fix,GT,37.3526664,-122.0612857,,0.0,0.1,168.32556,1609881853999
Fix,GT,37.3526664,-122.0612857,,0.0,0.1,168.32556,1609881854999
Fix,GT,37.3526664,-122.0612857,,0.0,0.1,168.32568,1609881855999
Fix,GT,37.3526664,-122.0612857,,0.0,0.1,168.3255,1609881856999
Fix,GT,37.3526664,-122.0612857,,0.0009998312,0.1,168.32556,1609881857999
Fix,GT,37.3526664,-122.0612857,,0.0014141436,0.1,168.32544,1609881858999
Fix,GT,37.3526664,-122.0612857,,2.3888833e-07,0.1,168.32568,1609881859999
Fix,GT,37.3526664,-122.0612857,,0.0014139747,0.1,168.3258,1609881860999
Fix,GT,37.3526664,-122.0612857,,0.00100007,0.1,168.32568,1609881861999
Fix,GT,37.3526664,-122.0612857,,1.6897917e-07,0.1,168.32568,1609881862999
Fix,GT,37.3526664,-122.0612857,,0.0,0.1,168.32556,1609881863999
Fix,GT,37.3526664,-122.0612857,,0.0,0.1,168.32556,1609881864999
Fix,GT,37.3526664,-122.0612857,,0.0009998309,0.1,168.32556,1609881865999
Fix,GT,37.3526664,-122.0612857,,0.0014141436,0.1,168.32568,1609881866999
Fix,GT,37.3526664,-122.0612857,,2.3914123e-07,0.1,168.3252,1609881867999
Fix,GT,37.3526664,-122.0612857,,0.0009998309,0.1,168.32574,1609881868999
Fix,GT,37.3526664,-122.0612857,,0.001,0.1,168.32568,1609881869999
Fix,GT,37.3526664,-122.0612857,,0.001,0.1,168.32562,1609881870999
Fix,GT,37.3526662,-122.0612856,,0.17667623,0.1,168.33563,1609881871999
Fix,GT,37.3526599,-122.061284,,1.3873198,0.1,168.38354,1609881872999
Fix,GT,37.3526413,-122.0612795,,2.9257927,0.1,168.45142,1609881873999
Fix,GT,37.3526071,-122.0612709,,4.784331,0.1,168.69958,1609881874999
Fix,GT,37.3525563,-122.0612589,,6.640958,0.1,169.28125,1609881875999
Fix,GT,37.3524909,-122.0612441,,7.9682994,0.1,169.81763,1609881876999
Fix,GT,37.3524181,-122.0612284,,8.324978,0.1,170.29663,1609881877999
Fix,GT,37.3523445,-122.0612129,,8.194525,0.1,170.43958,1609881878999
Fix,GT,37.3522733,-122.0611926,,7.957741,0.1,165.05707,1609881879999
Fix,GT,37.3522074,-122.0611556,,8.057583,0.1,151.75775,1609881880999
Fix,GT,37.3521517,-122.0610939,,8.373517,0.1,132.71378,1609881881999
Fix,GT,37.3521145,-122.0610078,,8.85142,0.1,112.27161,1609881882999
Fix,GT,37.3520992,-122.0609035,,9.845781,0.1,96.43402,1609881883999
Fix,GT,37.3520959,-122.0607868,,10.681122,0.1,91.28052,1609881884999
Fix,GT,37.3520949,-122.0606657,,10.668382,0.1,90.25,1609881885999
Fix,GT,37.3520952,-122.0605509,,9.413326,0.1,89.55371,1609881886999
Fix,GT,37.3520962,-122.0604553,,7.4954185,0.1,88.902954,1609881887999
Fix,GT,37.3520978,-122.0603814,,5.5595737,0.1,88.318054,1609881888999
Fix,GT,37.3520994,-122.0603293,,3.8048015,0.1,87.4949,1609881889999
Fix,GT,37.3521014,-122.0602972,,1.9815792,0.1,85.89984,1609881890999
Fix,GT,37.3521027,-122.0602792,,1.1578207,0.1,85.1788,1609881891999
Fix,GT,37.3521032,-122.0602722,,0.14459158,0.1,85.04825,1609881892999
Fix,GT,37.3521032,-122.060272,,0.004495901,0.1,85.04019,1609881893999
Fix,GT,37.3521032,-122.060272,,0.001414733,0.1,85.03961,1609881894999
Fix,GT,37.3521032,-122.060272,,0.0022359286,0.1,85.03943,1609881895999
Fix,GT,37.3521032,-122.060272,,0.002236068,0.1,85.03937,1609881896999
Fix,GT,37.3521033,-122.060272,,0.002236068,0.1,85.039185,1609881897999
Fix,GT,37.3521033,-122.060272,,0.002236068,0.1,85.03946,1609881898999
Fix,GT,37.3521033,-122.060272,,0.002236068,0.1,85.03873,1609881899999
Fix,GT,37.3521033,-122.060272,,0.0014143533,0.1,85.038574,1609881900999
Fix,GT,37.3521033,-122.060272,,0.0022359283,0.1,85.03873,1609881901999
Fix,GT,37.3521033,-122.060272,,0.002236068,0.1,85.038635,1609881902999
Fix,GT,37.3521033,-122.060272,,0.002236068,0.1,85.038666,1609881903999
Fix,GT,37.3521033,-122.060272,,0.002236068,0.1,85.03876,1609881904999
Fix,GT,37.3521033,-122.060272,,0.0010002103,0.1,85.03851,1609881905999
Fix,GT,37.3521033,-122.060272,,0.001,0.1,85.038605,1609881906999
Fix,GT,37.3521033,-122.060272,,0.001,0.1,85.03851,1609881907999
Fix,GT,37.3521033,-122.060272,,0.0014141431,0.1,85.038574,1609881908999
Fix,GT,37.3521033,-122.060272,,0.0014142136,0.1,85.038605,1609881909999
Fix,GT,37.3521033,-122.060272,,0.0014142136,0.1,85.038574,1609881910999
Fix,GT,37.3521033,-122.060272,,0.002235928,0.1,85.03836,1609881911999
Fix,GT,37.3521034,-122.0602712,,0.300989,0.1,85.00342,1609881912999
Fix,GT,37.352105,-122.0602597,,1.8676845,0.1,82.64804,1609881913999
Fix,GT,37.3521153,-122.060231,,3.4798543,0.1,68.47992,1609881914999
Fix,GT,37.3521424,-122.0601954,,4.9118376,0.1,45.1604,1609881915999
Fix,GT,37.352191,-122.0601697,,6.4558787,0.1,19.067993,1609881916999
Fix,GT,37.352258,-122.060164,,8.341952,0.1,0.29367065,1609881917999
Fix,GT,37.3523394,-122.060182,,9.834008,0.1,346.01892,1609881918999
Fix,GT,37.3524296,-122.0602243,,11.421673,0.1,337.08078,1609881919999
Fix,GT,37.3525298,-122.0602802,,12.97413,0.1,335.52,1609881920999
Fix,GT,37.3526419,-122.060346,,14.48172,0.1,334.5966,1609881921999
Fix,GT,37.3527655,-122.0604194,,15.798711,0.1,334.6731,1609881922999
Fix,GT,37.3528993,-122.0604975,,17.00986,0.1,335.0962,1609881923999
Fix,GT,37.3530434,-122.0605808,,18.221567,0.1,335.19962,1609881924999
Fix,GT,37.3531968,-122.0606695,,19.135473,0.1,335.3574,1609881925999
Fix,GT,37.3533568,-122.0607626,,20.074486,0.1,334.73706,1609881926999
Fix,GT,37.3535238,-122.0608634,,21.048138,0.1,333.88794,1609881927999
Fix,GT,37.3536969,-122.0609711,,21.796635,0.1,333.2618,1609881928999
Fix,GT,37.3538747,-122.0610844,,22.481817,0.1,332.74643,1609881929999
Fix,GT,37.3540573,-122.0612019,,23.110247,0.1,332.66846,1609881930999
Fix,GT,37.3542462,-122.0613239,,24.090807,0.1,332.56693,1609881931999
Fix,GT,37.3544428,-122.0614506,,24.977968,0.1,333.19458,1609881932999
Fix,GT,37.3546489,-122.061575,,25.759653,0.1,335.44922,1609881933999
Fix,GT,37.3548629,-122.0616943,,26.257967,0.1,336.28635,1609881934999
Fix,GT,37.355082,-122.0618135,,26.751926,0.1,336.714,1609881935999
Fix,GT,37.3553066,-122.0619292,,27.17575,0.1,338.34894,1609881936999
Fix,GT,37.355537,-122.0620408,,27.649324,0.1,339.26184,1609881937999
Fix,GT,37.355773,-122.0621464,,27.98898,0.1,341.2412,1609881938999
Fix,GT,37.3560144,-122.062244,,28.376368,0.1,342.93744,1609881939999
Fix,GT,37.3562625,-122.0623333,,28.946596,0.1,344.87918,1609881940999
Fix,GT,37.3565178,-122.0624146,,29.586014,0.1,346.38538,1609881941999
Fix,GT,37.3567809,-122.06249,,30.290176,0.1,347.64258,1609881942999
Fix,GT,37.3570507,-122.0625603,,30.87525,0.1,348.78656,1609881943999
Fix,GT,37.3573265,-122.062624,,31.366564,0.1,350.1239,1609881944999
Fix,GT,37.3576066,-122.0626819,,31.596493,0.1,350.97055,1609881945999
Fix,GT,37.3578888,-122.0627335,,31.738773,0.1,352.3954,1609881946999
Fix,GT,37.3581736,-122.0627766,,31.922321,0.1,353.6363,1609881947999
Fix,GT,37.3584601,-122.0628124,,32.01587,0.1,354.88336,1609881948999
Fix,GT,37.3587488,-122.0628401,,32.304386,0.1,356.18478,1609881949999
Fix,GT,37.3590408,-122.0628605,,32.642677,0.1,357.4181,1609881950999
Fix,GT,37.3593361,-122.0628725,,32.90766,0.1,358.78336,1609881951999
Fix,GT,37.3596332,-122.0628766,,33.087124,0.1,359.8015,1609881952999
Fix,GT,37.359932,-122.0628748,,33.222614,0.1,0.49087524,1609881953999
Fix,GT,37.3602324,-122.0628705,,33.48279,0.1,0.67907715,1609881954999
Fix,GT,37.3605352,-122.0628646,,33.7233,0.1,0.9785156,1609881955999
Fix,GT,37.3608398,-122.062858,,33.862656,0.1,0.869812,1609881956999
Fix,GT,37.3611455,-122.0628518,,34.019276,0.1,0.8713074,1609881957999
Fix,GT,37.3614527,-122.0628452,,34.165802,0.1,1.0322571,1609881958999
Fix,GT,37.36176,-122.062837,,34.013294,0.1,1.2775879,1609881959999
Fix,GT,37.3620648,-122.062827,,33.682095,0.1,1.5772705,1609881960999
Fix,GT,37.3623667,-122.0628171,,33.353046,0.1,1.1081238,1609881961999
Fix,GT,37.3626658,-122.0628107,,33.047348,0.1,0.7502136,1609881962999
Fix,GT,37.3629635,-122.0628063,,33.15919,0.1,0.5243225,1609881963999
Fix,GT,37.3632642,-122.0628027,,33.550354,0.1,0.49246216,1609881964999
Fix,GT,37.363567,-122.0628004,,33.61015,0.1,0.14086914,1609881965999
Fix,GT,37.3638697,-122.062803,,33.52669,0.1,358.89676,1609881966999
Fix,GT,37.36417,-122.0628169,,33.18553,0.1,356.59778,1609881967999
Fix,GT,37.3644674,-122.0628458,,33.105457,0.1,354.36072,1609881968999
Fix,GT,37.3647646,-122.06289,,33.324158,0.1,351.92334,1609881969999
Fix,GT,37.3650622,-122.0629511,,33.614082,0.1,349.33282,1609881970999
Fix,GT,37.3653602,-122.0630303,,33.965687,0.1,346.54742,1609881971999
Fix,GT,37.3656576,-122.0631285,,34.28587,0.1,343.83405,1609881972999
Fix,GT,37.3659533,-122.0632452,,34.473503,0.1,341.06116,1609881973999
Fix,GT,37.3662457,-122.0633778,,34.53759,0.1,339.12067,1609881974999
Fix,GT,37.3665349,-122.0635233,,34.61676,0.1,336.85858,1609881975999
Fix,GT,37.3668197,-122.0636831,,34.549698,0.1,334.95807,1609881976999
Fix,GT,37.3671002,-122.0638492,,34.368404,0.1,334.25073,1609881977999
Fix,GT,37.3673792,-122.0640188,,34.442955,0.1,333.89236,1609881978999
Fix,GT,37.3676579,-122.0641907,,34.563343,0.1,333.5804,1609881979999
Fix,GT,37.3679379,-122.0643641,,34.759724,0.1,333.69174,1609881980999
Fix,GT,37.3682199,-122.0645376,,34.942303,0.1,333.83673,1609881981999
Fix,GT,37.3685035,-122.0647101,,35.05293,0.1,334.2004,1609881982999
Fix,GT,37.368789,-122.0648822,,35.244648,0.1,334.2301,1609881983999
Fix,GT,37.3690752,-122.0650549,,35.26717,0.1,334.22086,1609881984999
Fix,GT,37.3693616,-122.0652275,,35.26834,0.1,334.27054,1609881985999
Fix,GT,37.3696481,-122.0654002,,35.31402,0.1,334.2134,1609881986999
Fix,GT,37.3699349,-122.0655732,,35.340317,0.1,334.2828,1609881987999
Fix,GT,37.370222,-122.0657465,,35.39459,0.1,334.12726,1609881988999
Fix,GT,37.3705094,-122.0659207,,35.490623,0.1,334.089,1609881989999
Fix,GT,37.3707976,-122.0660956,,35.58412,0.1,334.0843,1609881990999
Fix,GT,37.3710866,-122.066271,,35.716328,0.1,334.0473,1609881991999
Fix,GT,37.3713765,-122.066447,,35.71827,0.1,334.11188,1609881992999
Fix,GT,37.3716651,-122.0666212,,35.382862,0.1,334.26624,1609881993999
Fix,GT,37.3719518,-122.0667936,,35.280373,0.1,334.17233,1609881994999
Fix,GT,37.3722378,-122.0669666,,35.181778,0.1,334.1823,1609881995999
Fix,GT,37.3725232,-122.0671367,,34.956417,0.1,335.00208,1609881996999
Fix,GT,37.3728095,-122.0672961,,34.57536,0.1,337.12643,1609881997999
Fix,GT,37.3730983,-122.0674375,,34.344036,0.1,340.2244,1609881998999
Fix,GT,37.3733923,-122.0675582,,34.42522,0.1,343.54858,1609881999999
Fix,GT,37.3736929,-122.0676571,,34.61372,0.1,347.05423,1609882000999
Fix,GT,37.3739988,-122.0677331,,34.614265,0.1,350.41772,1609882001999
Fix,GT,37.3743064,-122.0677866,,34.32257,0.1,353.77908,1609882002999
Fix,GT,37.3746122,-122.0678177,,33.826683,0.1,356.99258,1609882003999
Fix,GT,37.3749152,-122.0678251,,33.50222,0.1,0.81973267,1609882004999
Fix,GT,37.3752153,-122.0678078,,33.21229,0.1,4.3237,1609882005999
Fix,GT,37.3755116,-122.0677714,,32.90671,0.1,6.506775,1609882006999
