MessageType,Provider,LatitudeDegrees,LongitudeDegrees,AltitudeMeters,SpeedMps,AccuracyMeters,BearingDegrees,UnixTimeMillis
Fix,GT,37.4146625,-122.0741243,-25.81000076919794,0.0014142136,0.1,183.61394,1617917305636
Fix,GT,37.4146625,-122.0741243,-25.81,0.0017640316,0.1,183.61365,1617917306657
Fix,GT,37.4146625,-122.0741243,-25.81000076919794,0.0038142824,0.1,183.61328,1617917307647
Fix,GT,37.4146625,-122.0741243,-25.81,0.001911042,0.1,183.61372,1617917308660
Fix,GT,37.4146625,-122.0741243,-25.81,0.0025914733,0.1,183.6136,1617917309649
Fix,GT,37.4146625,-122.0741243,-25.81,0.002236068,0.1,183.61494,1617917310638
Fix,GT,37.4146625,-122.0741243,-25.809,0.002236068,0.1,183.61559,1617917311657
Fix,GT,37.4146609,-122.0741243,-25.812000769257544,0.434446,0.1,183.50446,1617917312648
Fix,GT,37.4146541,-122.0741248,-25.812999999999995,1.028923,0.1,183.05597,1617917313662
Fix,GT,37.4146431,-122.0741248,-25.811,1.4209387,0.1,181.69707,1617917314648
Fix,GT,37.4146293,-122.0741235,-25.80023620131612,1.6389097,0.1,178.56824,1617917315638
Fix,GT,37.4146138,-122.0741213,-25.78557122296095,1.7529454,0.1,175.5373,1617917316657
Fix,GT,37.414598,-122.0741192,-25.77851455247402,1.7865391,0.1,174.46155,1617917317648
Fix,GT,37.4145815,-122.0741175,-25.7747571811676,1.8258824,0.1,174.96198,1617917318662
Fix,GT,37.4145651,-122.0741171,-25.784678216695784,1.9274828,0.1,177.69257,1617917319653
Fix,GT,37.4145442,-122.0741233,-25.79799322843552,2.7056093,0.1,190.07782,1617917320666
Fix,GT,37.4145232,-122.0741476,-25.835950173437595,3.4720964,0.1,219.19592,1617917321656
Fix,GT,37.4145108,-122.0741914,-25.905507140934468,4.6247473,0.1,249.59708,1617917322650
Fix,GT,37.4145078,-122.0742512,-25.994278789937496,5.75469,0.1,265.8272,1617917323661
Fix,GT,37.4145055,-122.0743209,-26.07746324658394,6.687519,0.1,267.939,1617917324653
Fix,GT,37.4145057,-122.0744002,-26.14913257759809,7.409895,0.1,270.5681,1617917325642
Fix,GT,37.4145066,-122.0744857,-26.17760040342808,7.3847694,0.1,270.14276,1617917326656
Fix,GT,37.4145028,-122.0745637,-26.093368263721462,6.531849,0.1,264.79138,1617917327646
Fix,GT,37.4144904,-122.0746312,-26.013915509104727,5.652833,0.1,253.2298,1617917328661
Fix,GT,37.4144615,-122.0746791,-25.82988505089283,5.0541883,0.1,228.98601,1617917329651
Fix,GT,37.4144218,-122.0747062,-25.751171625792978,5.060109,0.1,206.8754,1617917330664
Fix,GT,37.4143755,-122.0747222,-25.65457395458221,5.714295,0.1,194.48064,1617917331655
Fix,GT,37.4143219,-122.0747336,-25.539067837119106,6.440526,0.1,189.23022,1617917332646
Fix,GT,37.4142601,-122.0747442,-25.43838612174988,7.190997,0.1,187.08202,1617917333662
Fix,GT,37.4141936,-122.074752,-25.34277770245076,7.751259,0.1,185.0091,1617917334653
Fix,GT,37.4141202,-122.0747586,-25.357366493284704,8.4005575,0.1,183.89777,1617917335663
Fix,GT,37.414043,-122.0747641,-25.369,8.876177,0.1,183.18672,1617917336656
Fix,GT,37.4139622,-122.0747698,-25.370918432593346,9.230627,0.1,183.16344,1617917337645
Fix,GT,37.4138793,-122.0747755,-25.367932711213825,9.262452,0.1,183.17253,1617917338638
Fix,GT,37.4137955,-122.0747814,-25.3744659101367,9.104689,0.1,183.08772,1617917339653
Fix,GT,37.4137135,-122.0747868,-25.38265019464493,8.899159,0.1,182.95235,1617917340665
Fix,GT,37.4136362,-122.0747921,-25.38412492316961,8.330067,0.1,183.29823,1617917341657
Fix,GT,37.4135665,-122.0747993,-25.306709834724664,7.221588,0.1,185.4541,1617917342647
Fix,GT,37.4135201,-122.0748065,-25.106644125014544,5.800621,0.1,187.02628,1617917343440
Fix,GT,37.4134772,-122.0748132,-24.940745522022247,3.734419,0.1,186.75993,1617917344440
Fix,GT,37.4134505,-122.0748168,-24.87774626377225,2.3090954,0.1,186.28804,1617917345440
Fix,GT,37.4134346,-122.074819,-24.819372761249543,1.2951663,0.1,186.15518,1617917346440
Fix,GT,37.4134271,-122.07482,-24.79359319037199,0.35447812,0.1,186.10808,1617917347440
Fix,GT,37.4134264,-122.0748201,-24.797,0.056050688,0.1,186.10649,1617917348440
Fix,GT,37.4134232,-122.0748204,-24.78696595156193,0.8075607,0.1,186.09161,1617917349440
Fix,GT,37.4134132,-122.0748226,-24.7605931904316,1.3880802,0.1,187.80455,1617917350440
Fix,GT,37.4134016,-122.0748296,-24.78325521528721,1.4202473,0.1,197.06937,1617917351440
Fix,GT,37.4133891,-122.0748451,-24.98144160202145,2.4230728,0.1,214.80171,1617917352440
Fix,GT,37.4133785,-122.0748766,-24.90315307506919,3.502347,0.1,241.83989,1617917353440
Fix,GT,37.413377,-122.0749266,-24.85459393113852,5.4824677,0.1,266.71225,1617917354440
Fix,GT,37.4133773,-122.0750025,-24.81940680956841,7.8799195,0.1,269.81265,1617917355440
Fix,GT,37.4133773,-122.0751038,-24.826322571158407,10.0475025,0.1,269.9302,1617917356440
Fix,GT,37.4133781,-122.0752254,-24.82462797817588,11.204369,0.1,270.87823,1617917357440
Fix,GT,37.4133811,-122.0753566,-24.85847490394116,12.0088825,0.1,271.8677,1617917358440
Fix,GT,37.4133857,-122.0754958,-24.873627237558367,12.661238,0.1,272.53232,1617917359440
Fix,GT,37.4133918,-122.0756419,-24.94681436216831,13.214728,0.1,273.15207,1617917360440
Fix,GT,37.4133991,-122.0757938,-24.962491794377566,13.712777,0.1,273.4902,1617917361440
Fix,GT,37.4134073,-122.0759501,-24.9999505507052,13.9724045,0.1,273.87973,1617917362440
Fix,GT,37.413417,-122.0761076,-25.066221175074578,13.99836,0.1,274.74496,1617917363440
Fix,GT,37.4134294,-122.0762648,-25.02433871495724,13.947398,0.1,276.02533,1617917364440
Fix,GT,37.4134449,-122.0764198,-25.008863812208176,13.634964,0.1,277.65814,1617917365440
Fix,GT,37.4134632,-122.0765687,-24.926814361572266,12.965548,0.1,279.46268,1617917366440
Fix,GT,37.4134844,-122.0767073,-24.856966694056982,12.078583,0.1,281.56757,1617917367440
Fix,GT,37.4135072,-122.0768373,-24.84115307489037,11.431253,0.1,282.71667,1617917368440
Fix,GT,37.4135296,-122.0769583,-24.838220427811144,10.568044,0.1,283.0196,1617917369440
Fix,GT,37.4135501,-122.0770692,-24.79955914437771,9.527303,0.1,282.96198,1617917370440
Fix,GT,37.4135682,-122.0771676,-24.761407547295093,8.329108,0.1,283.125,1617917371440
Fix,GT,37.4135847,-122.0772512,-24.73396595364809,6.9142337,0.1,283.92285,1617917372440
Fix,GT,37.4135983,-122.0773192,-24.70096595364809,5.489527,0.1,283.9206,1617917373440
Fix,GT,37.4136085,-122.0773708,-24.68018638134003,3.9662294,0.1,283.8319,1617917374440
Fix,GT,37.4136156,-122.0774067,-24.660186381340026,2.5913546,0.1,283.70648,1617917375440
Fix,GT,37.41362,-122.0774293,-24.651,1.5157773,0.1,283.7077,1617917376440
Fix,GT,37.413622,-122.0774401,-24.662034781724216,0.6692451,0.1,283.63593,1617917377440
Fix,GT,37.4136241,-122.0774508,-24.6734068094492,1.4420537,0.1,283.6216,1617917378440
Fix,GT,37.4136285,-122.0774728,-24.672593190610407,2.5228932,0.1,283.68613,1617917379440
Fix,GT,37.4136343,-122.0775027,-24.66059319055081,2.8469768,0.1,283.82422,1617917380440
Fix,GT,37.4136414,-122.0775375,-24.657372762203217,3.706563,0.1,283.99677,1617917381440
Fix,GT,37.4136509,-122.0775845,-24.640221162736417,4.8603444,0.1,284.19586,1617917382440
Fix,GT,37.413663,-122.0776444,-24.625627971768377,5.972879,0.1,284.12427,1617917383440
Fix,GT,37.4136767,-122.0777124,-24.56115306487679,6.576002,0.1,284.05386,1617917384440
Fix,GT,37.4136917,-122.0777875,-24.51796668276191,6.9283285,0.1,283.93027,1617917385440
Fix,GT,37.4137062,-122.0778625,-24.51142368125916,6.7006025,0.1,283.09918,1617917386440
Fix,GT,37.4137169,-122.0779362,-24.412746250867844,6.6733313,0.1,278.67242,1617917387440
Fix,GT,37.4137165,-122.0780121,-24.308678151905536,6.7163115,0.1,265.7509,1617917388440
Fix,GT,37.4136974,-122.0780851,-24.05589785557985,7.0467434,0.1,247.6359,1617917389440
Fix,GT,37.4136579,-122.0781517,-24.06,7.6904573,0.1,228.80338,1617917390440
Fix,GT,37.4136015,-122.0782115,-23.938931902527813,8.731481,0.1,217.8948,1617917391440
Fix,GT,37.4135312,-122.0782679,-23.781643373072143,9.787519,0.1,210.15439,1617917392440
Fix,GT,37.4134288,-122.078324,-23.65817678838968,10.826384,0.1,199.5983,1617917393642
Fix,GT,37.4133314,-122.0783655,-23.603069088697435,11.6084,0.1,199.34074,1617917394659
Fix,GT,37.4132326,-122.0784139,-23.535393869698048,12.198553,0.1,202.50941,1617917395647
Fix,GT,37.4131305,-122.0784772,-23.57776955640316,12.854521,0.1,208.68091,1617917396658
Fix,GT,37.413033,-122.0785614,-23.80114691257477,13.446405,0.1,218.34563,1617917397654
Fix,GT,37.4129494,-122.0786686,-24.07587216758728,13.467733,0.1,230.03123,1617917398642
Fix,GT,37.4128843,-122.0788016,-24.141,13.913506,0.1,243.87688,1617917399657
Fix,GT,37.4128462,-122.078953,-24.235508643060925,14.486834,0.1,258.06488,1617917400649
Fix,GT,37.4128375,-122.0791193,-24.22632802498341,14.599373,0.1,271.24506,1617917401661
Fix,GT,37.4128523,-122.0792794,-24.14800917220116,14.316663,0.1,279.70142,1617917402650
Fix,GT,37.4128835,-122.0794402,-24.01447832083702,14.632919,0.1,285.98148,1617917403669
Fix,GT,37.4129269,-122.0795996,-24.035174733817577,15.725571,0.1,290.55872,1617917404657
Fix,GT,37.4129835,-122.0797689,-24.09603346538544,17.010786,0.1,293.76703,1617917405650
Fix,GT,37.4130514,-122.0799504,-24.129166489601136,18.030523,0.1,296.00806,1617917406658
Fix,GT,37.413126,-122.080132,-24.17250610655546,18.477749,0.1,297.92908,1617917407649
Fix,GT,37.413207,-122.0803169,-24.28652415186167,19.117891,0.1,299.1574,1617917408644
Fix,GT,37.4132949,-122.0805101,-24.36526160550117,19.798088,0.1,300.07324,1617917409656
Fix,GT,37.413387,-122.0807042,-24.52671239864826,20.523712,0.1,300.91992,1617917410648
Fix,GT,37.4134862,-122.0809081,-24.619245382547376,21.245075,0.1,301.65958,1617917411660
Fix,GT,37.4135895,-122.0811113,-24.751758548259733,21.945236,0.1,303.2664,1617917412648
Fix,GT,37.413706,-122.0813205,-24.74973481070996,22.56588,0.1,306.69843,1617917413663
Fix,GT,37.4138346,-122.0815201,-24.770130154132843,23.19582,0.1,310.32996,1617917414656
Fix,GT,37.4139752,-122.081715,-24.278567684680223,23.598843,0.1,313.19424,1617917415649
Fix,GT,37.4141248,-122.0819111,-23.0003441337347,23.761364,0.1,313.569,1617917416661
Fix,GT,37.4142689,-122.0821064,-22.002436345100403,23.856445,0.1,311.82043,1617917417650
Fix,GT,37.4144093,-122.0823163,-21.51558091115952,23.882694,0.1,308.33493,1617917418666
Fix,GT,37.4145071,-122.0824819,-21.487231542646885,23.691668,0.1,304.91174,1617917419432
Fix,GT,37.4146207,-122.0827072,-21.960598855108024,23.531078,0.1,299.96066,1617917420432
Fix,GT,37.4147213,-122.0829425,-22.98676478022337,23.844568,0.1,296.9935,1617917421432
Fix,GT,37.4148192,-122.0831859,-24.13040463981032,24.411701,0.1,296.64694,1617917422432
Fix,GT,37.4149215,-122.0834314,-25.10673335075378,24.550234,0.1,298.25183,1617917423432
Fix,GT,37.4150312,-122.0836722,-25.827311905860903,24.508675,0.1,300.8327,1617917424432
Fix,GT,37.4151511,-122.0839045,-25.57979982057214,24.528225,0.1,304.4799,1617917425432
Fix,GT,37.4152819,-122.0841288,-25.40942439502477,24.684486,0.1,307.54428,1617917426432
Fix,GT,37.415421,-122.0843466,-25.34126445418596,24.620743,0.1,309.5167,1617917427432
Fix,GT,37.4155638,-122.0845598,-25.423312665522097,24.809088,0.1,310.1544,1617917428432
Fix,GT,37.4157104,-122.0847761,-25.35370340511203,25.432182,0.1,310.25952,1617917429432
Fix,GT,37.4158597,-122.0849961,-25.51116805720329,25.714855,0.1,310.3366,1617917430432
Fix,GT,37.4160112,-122.0852175,-25.54565519395471,25.937565,0.1,310.63702,1617917431432
Fix,GT,37.416165,-122.0854392,-25.53304743924737,26.120583,0.1,311.0671,1617917432432
Fix,GT,37.416321,-122.0856613,-25.524425136119127,26.25346,0.1,311.43494,1617917433432
Fix,GT,37.4164782,-122.085883,-25.547951802670955,26.250149,0.1,311.52887,1617917434432
Fix,GT,37.4166354,-122.0861042,-25.56403213047981,26.224869,0.1,311.6613,1617917435432
Fix,GT,37.4167927,-122.0863252,-25.629704150140288,26.214691,0.1,311.64914,1617917436432
Fix,GT,37.4169501,-122.0865468,-25.66129585152865,26.329906,0.1,311.58823,1617917437432
Fix,GT,37.4171085,-122.0867691,-25.675065017312765,26.45396,0.1,311.70862,1617917438432
Fix,GT,37.4172679,-122.0869924,-25.69431191682816,26.590773,0.1,311.88922,1617917439432
Fix,GT,37.4174289,-122.0872161,-25.771296625137325,26.753056,0.1,312.11972,1617917440432
Fix,GT,37.4175917,-122.0874396,-25.86062306755781,26.84414,0.1,312.4903,1617917441432
Fix,GT,37.4177555,-122.0876638,-26.008887578368185,26.989214,0.1,312.30905,1617917442432
Fix,GT,37.4179199,-122.0878899,-26.18526374053955,27.176008,0.1,312.26367,1617917443432
Fix,GT,37.4180843,-122.0881164,-26.352904428631064,26.99894,0.1,312.23248,1617917444432
Fix,GT,37.4182471,-122.0883413,-26.50393655347824,26.803541,0.1,312.14954,1617917445432
Fix,GT,37.4184093,-122.0885655,-26.70159093120694,26.800842,0.1,312.11993,1617917446432
Fix,GT,37.4185715,-122.0887903,-26.85655961275101,26.862118,0.1,311.9656,1617917447432
Fix,GT,37.4187333,-122.0890161,-27.06588840293885,26.815563,0.1,311.79874,1617917448432
Fix,GT,37.4188941,-122.08924,-27.223247696876527,26.524788,0.1,312.1309,1617917449432
Fix,GT,37.4190541,-122.0894602,-27.402887604653834,26.196907,0.1,312.25998,1617917450432
Fix,GT,37.4192119,-122.0896775,-27.53796706730128,25.846064,0.1,312.2573,1617917451432
Fix,GT,37.4193677,-122.089892,-27.67193495416641,25.501053,0.1,312.19742,1617917452432
Fix,GT,37.4195215,-122.0901034,-27.758278989642854,25.15511,0.1,312.4421,1617917453432
Fix,GT,37.4196739,-122.0903114,-27.91229587322473,24.856653,0.1,312.3153,1617917454432
Fix,GT,37.419824,-122.090518,-28.020606967449183,24.687216,0.099,312.2412,1617917455432
Fix,GT,37.4199741,-122.0907243,-28.0902958753109,24.739986,0.1,312.33713,1617917456432
Fix,GT,37.4201249,-122.0909308,-28.203591752290727,24.821661,0.1,312.24936,1617917457432
Fix,GT,37.4202753,-122.0911387,-28.303951842367645,24.879013,0.1,312.09177,1617917458432
Fix,GT,37.4204258,-122.091347,-28.42921561729908,24.861805,0.1,312.15628,1617917459432
Fix,GT,37.4205761,-122.0915541,-28.51390284210444,24.672588,0.099,312.2596,1617917460432
Fix,GT,37.4207251,-122.0917588,-28.61495184665918,24.356745,0.1,312.16248,1617917461432
Fix,GT,37.4208711,-122.0919616,-28.80588678705692,23.993982,0.099,311.93094,1617917462432
Fix,GT,37.4210132,-122.09216,-28.969888512253764,23.131248,0.1,311.82343,1617917463432
Fix,GT,37.4211488,-122.0923491,-29.037344898581505,21.825779,0.1,311.8936,1617917464432
Fix,GT,37.4213048,-122.0925651,-29.08834903526306,20.26744,0.1,312.22977,1617917465658
Fix,GT,37.421423,-122.0927239,-29.08243259102106,18.44291,0.1,314.13815,1617917466650
Fix,GT,37.4215398,-122.0928613,-29.03127762871981,16.561571,0.1,319.23975,1617917467665
Fix,GT,37.4216528,-122.0929689,-29.12571373939513,15.267557,0.1,325.37854,1617917468655
Fix,GT,37.4217657,-122.0930477,-29.29533506539464,13.740927,0.1,335.8278,1617917469644
Fix,GT,37.4218785,-122.0930867,-29.23592660212517,12.058859,0.1,350.67984,1617917470661
Fix,GT,37.4219826,-122.0930859,-29.106374188303946,11.40707,0.1,5.977417,1617917471650
Fix,GT,37.4220795,-122.0930485,-28.96268236875534,10.924758,0.1,23.101044,1617917472663
Fix,GT,37.4221604,-122.0929815,-28.76032855004072,10.8532295,0.1,38.72824,1617917473655
Fix,GT,37.4222235,-122.0928903,-28.530840870529413,10.791588,0.1,54.124847,1617917474648
Fix,GT,37.4222668,-122.0927785,-28.27715273952484,10.935234,0.1,69.35278,1617917475662
Fix,GT,37.4222849,-122.0926575,-27.94625132513046,11.167198,0.1,84.70804,1617917476651
Fix,GT,37.4222759,-122.0925325,-27.493985760480165,11.321232,0.1,100.78003,1617917477643
Fix,GT,37.4222389,-122.092411,-27.03603749668598,11.328684,0.1,116.56589,1617917478657
Fix,GT,37.4221801,-122.0923125,-26.554615096211435,10.754599,0.1,132.60779,1617917479647
Fix,GT,37.4221024,-122.0922414,-25.971283168792723,10.433622,0.1,150.16876,1617917480659
Fix,GT,37.422015,-122.092204,-25.45891743183136,10.332636,0.1,166.60779,1617917481651
Fix,GT,37.4219198,-122.0921965,-24.966374214351177,10.704226,0.1,180.71613,1617917482665
Fix,GT,37.4218217,-122.0922115,-24.449995468854908,11.478037,0.1,189.02852,1617917483656
Fix,GT,37.4217172,-122.0922374,-23.873888560831546,12.391889,0.1,192.0339,1617917484647
Fix,GT,37.421603,-122.0922718,-23.339252819001672,13.328033,0.1,194.34975,1617917485660
Fix,GT,37.4214851,-122.0923138,-22.862181749343875,14.190066,0.1,196.69562,1617917486649
Fix,GT,37.4213612,-122.0923644,-22.479111397802832,14.873234,0.1,198.70544,1617917487643
Fix,GT,37.4212316,-122.0924245,-22.22567544054985,15.3748,0.1,200.93607,1617917488656
Fix,GT,37.4211021,-122.0924896,-22.13296043550968,15.865702,0.1,202.2267,1617917489648
Fix,GT,37.4209672,-122.0925606,-22.23536506187916,16.304878,0.1,202.94133,1617917490656
Fix,GT,37.4208304,-122.0926338,-22.477007660865784,16.318558,0.1,202.98532,1617917491667
Fix,GT,37.420696,-122.092704,-22.90484183126688,16.134531,0.1,201.94504,1617917492661
Fix,GT,37.420562,-122.0927661,-23.4450377869606,15.315474,0.1,198.70839,1617917493667
Fix,GT,37.4204345,-122.092816,-24.13347484052181,14.171658,0.1,196.78766,1617917494669
Fix,GT,37.4203202,-122.0928605,-24.805545605003832,12.616312,0.1,197.5173,1617917495659
Fix,GT,37.4202189,-122.0929033,-25.45002570295334,10.987001,0.1,198.9604,1617917496666
Fix,GT,37.4201323,-122.0929423,-26.03044841665029,9.560543,0.1,200.11536,1617917497664
Fix,GT,37.4200571,-122.0929782,-26.46447813236713,8.017641,0.1,201.0947,1617917498677
Fix,GT,37.4199962,-122.0930087,-26.770055719673632,6.6889906,0.1,202.04245,1617917499669
Fix,GT,37.4199467,-122.0930346,-27.020047450780865,5.3422766,0.1,202.64735,1617917500657
Fix,GT,37.4199085,-122.0930544,-27.197842400431632,3.925826,0.1,202.59882,1617917501648
Fix,GT,37.4198806,-122.0930688,-27.32661132633686,2.7529998,0.1,202.40585,1617917502666
Fix,GT,37.4198615,-122.0930787,-27.40607377439737,1.7796197,0.1,202.25233,1617917503658
Fix,GT,37.4198523,-122.0930834,-27.448975672245027,0.4578281,0.1,202.17667,1617917504648
Fix,GT,37.4198517,-122.0930837,-27.46061599636078,0.0032783155,0.1,202.17473,1617917505661
Fix,GT,37.4198517,-122.0930837,-27.462,0.0014978758,0.1,202.1735,1617917506649
Fix,GT,37.4198517,-122.0930837,-27.463000818461182,0.00053490675,0.1,202.17236,1617917507646
Fix,GT,37.4198517,-122.0930837,-27.463,0.0,0.1,202.17271,1617917508657
Fix,GT,37.4198517,-122.0930837,-27.464,0.0006847692,0.1,202.17256,1617917509648
Fix,GT,37.4198517,-122.0930837,-27.464,0.0012589552,0.1,202.17262,1617917510662
Fix,GT,37.4198517,-122.0930837,-27.464,0.0014142136,0.1,202.17264,1617917511654
Fix,GT,37.4198517,-122.0930837,-27.464,0.001814353,0.1,202.17264,1617917512665
Fix,GT,37.4198517,-122.0930837,-27.464,0.001888217,0.1,202.17265,1617917513657
Fix,GT,37.4198517,-122.0930837,-27.463999181509017,0.0022360678,0.1,202.17245,1617917514647
Fix,GT,37.4198517,-122.0930837,-27.464,0.0018167277,0.1,202.17267,1617917515662
Fix,GT,37.4198512,-122.093084,-27.473540293276308,0.18939027,0.1,202.16936,1617917516654
Fix,GT,37.4198477,-122.0930858,-27.492308022260666,0.6242038,0.1,202.14609,1617917517665
Fix,GT,37.419843,-122.0930882,-27.51256969761849,0.43701893,0.1,202.09976,1617917518656
Fix,GT,37.4198408,-122.0930894,-27.525479886889457,0.078302294,0.1,202.08447,1617917519647
Fix,GT,37.4198407,-122.0930894,-27.532,0.003983096,0.1,202.08406,1617917520661
Fix,GT,37.4198407,-122.0930895,-27.534,0.0031622776,0.1,202.0838,1617917521654
Fix,GT,37.4198407,-122.0930895,-27.536,0.0028284271,0.1,202.08272,1617917522667
Fix,GT,37.4198407,-122.0930895,-27.535,0.002104884,0.1,202.08252,1617917523655
Fix,GT,37.4198407,-122.0930895,-27.53499917939305,0.0021208995,0.1,202.08301,1617917524648
Fix,GT,37.4198407,-122.0930895,-27.535,0.0012626527,0.1,202.08307,1617917525663
Fix,GT,37.4198408,-122.0930895,-27.536,0.0014473668,0.1,202.08293,1617917526655
Fix,GT,37.4198408,-122.0930895,-27.536,0.001,0.1,202.08241,1617917527666
Fix,GT,37.4198408,-122.0930895,-27.536,0.001,0.1,202.08281,1617917528659
Fix,GT,37.4198408,-122.0930895,-27.53600082063675,0.001,0.1,202.08253,1617917529647
Fix,GT,37.4198408,-122.0930895,-27.536,0.001,0.1,202.08238,1617917530660
Fix,GT,37.4198408,-122.0930895,-27.536,0.001215901,0.1,202.08229,1617917531652
Fix,GT,37.4198408,-122.0930895,-27.536,0.0011449165,0.1,202.08246,1617917532665
Fix,GT,37.4198408,-122.0930895,-27.536,0.0012460661,0.1,202.0821,1617917533659
Fix,GT,37.4198408,-122.0930895,-27.536,0.0012039,0.1,202.08195,1617917534650
Fix,GT,37.4198408,-122.0930895,-27.536,0.001,0.1,202.08188,1617917535661
Fix,GT,37.4198408,-122.0930895,-27.536,0.0017275319,0.1,202.08243,1617917536653
Fix,GT,37.4198408,-122.0930895,-27.537,0.001,0.1,202.08261,1617917537667
Fix,GT,37.4198408,-122.0930895,-27.537,0.001,0.1,202.08275,1617917538657
Fix,GT,37.4198408,-122.0930895,-27.538,0.0011992477,0.1,202.08252,1617917539651
Fix,GT,37.4198408,-122.0930895,-27.539,0.00037751845,0.1,202.08223,1617917540662
Fix,GT,37.4198408,-122.0930895,-27.54,0.0,0.1,202.08209,1617917541653
Fix,GT,37.4198407,-122.0930895,-27.54165705698729,0.057984497,0.1,202.08199,1617917542665
Fix,GT,37.4198362,-122.0930919,-27.56729207754136,1.2207154,0.1,202.04834,1617917543657
Fix,GT,37.4198189,-122.0931004,-27.62542651128769,2.7877467,0.1,201.79143,1617917544667
Fix,GT,37.4197902,-122.0931144,-27.71550504469872,4.177615,0.1,201.19449,1617917545650
Fix,GT,37.419748,-122.0931346,-27.8496164200306,5.800832,0.1,200.75954,1617917546663
Fix,GT,37.4196924,-122.0931559,-27.95875468492508,6.8560085,0.1,194.71983,1617917547662
Fix,GT,37.4196295,-122.0931604,-28.045020917654035,7.0915737,0.1,179.70033,1617917548675
Fix,GT,37.4195647,-122.0931406,-28.21666648697853,7.8598413,0.1,161.53699,1617917549666
Fix,GT,37.4195046,-122.0930889,-28.466219679892063,8.480386,0.1,138.44147,1617917550652
Fix,GT,37.4194632,-122.0930047,-28.76775475901365,8.855001,0.1,114.75717,1617917551670
Fix,GT,37.419443,-122.0929058,-28.80358521032333,9.418361,0.1,100.1239,1617917552662
Fix,GT,37.4194394,-122.0927975,-28.707564313173293,10.073373,0.1,89.06775,1617917553649
Fix,GT,37.4194546,-122.0926805,-28.673,10.697883,0.1,75.58206,1617917554660
Fix,GT,37.4194942,-122.0925718,-28.66070355308056,11.186603,0.099,59.815582,1617917555629
Fix,GT,37.4195595,-122.0924674,-28.59608903431892,11.845547,0.1,49.23636,1617917556652
Fix,GT,37.4196321,-122.0923653,-28.52742106088996,12.549456,0.1,47.88324,1617917557644
Fix,GT,37.4197103,-122.0922548,-28.5466991622448,13.250602,0.1,48.99185,1617917558656
Fix,GT,37.4197858,-122.0921376,-28.623845346480607,13.6042385,0.1,52.401367,1617917559648
Fix,GT,37.4198529,-122.09201,-28.76639515554905,13.811729,0.1,59.617523,1617917560633
Fix,GT,37.4199005,-122.0918648,-28.825491005122664,13.549219,0.1,73.07202,1617917561650
Fix,GT,37.4199179,-122.0917164,-28.64221095657349,13.311842,0.1,86.77042,1617917562643
Fix,GT,37.4199072,-122.0915639,-28.3967337089777,13.581194,0.1,100.08063,1617917563655
Fix,GT,37.4198696,-122.0914167,-28.25668187880516,14.120811,0.1,112.64618,1617917564646
Fix,GT,37.4198038,-122.0912732,-28.27674012762308,14.928478,0.1,124.234436,1617917565658
Fix,GT,37.4197197,-122.0911371,-28.321508983254432,15.757412,0.1,128.52484,1617917566650
Fix,GT,37.4196292,-122.0909966,-28.34694495770335,16.490334,0.1,129.23932,1617917567642
Fix,GT,37.4195299,-122.0908493,-28.3280553702116,17.25344,0.1,130.59528,1617917568654
Fix,GT,37.4194268,-122.0906997,-28.24711585822701,17.999214,0.1,130.61981,1617917569647
Fix,GT,37.419318,-122.0905394,-28.159048248708253,18.751308,0.1,130.08264,1617917570661
Fix,GT,37.4192085,-122.0903764,-28.06113356554508,19.2868,0.1,130.01285,1617917571652
Fix,GT,37.4190963,-122.0902095,-28.01568607908488,19.75536,0.1,130.03778,1617917572642
Fix,GT,37.4189778,-122.0900349,-27.91630214500428,20.347525,0.1,130.48822,1617917573655
Fix,GT,37.4188566,-122.0898598,-27.79376947009564,20.990452,0.1,131.12549,1617917574647
Fix,GT,37.4187274,-122.0896766,-27.6650172958374,21.8923,0.1,131.4758,1617917575658
Fix,GT,37.4185948,-122.0894891,-27.51639563214779,22.80286,0.1,131.42151,1617917576650
Fix,GT,37.4184555,-122.0892927,-27.35533250510693,23.097084,0.1,131.56879,1617917577662
Fix,GT,37.4183175,-122.0890994,-27.21560410410165,23.033695,0.1,131.95575,1617917578656
Fix,GT,37.4181799,-122.0889101,-27.071821220338343,22.815819,0.1,132.43109,1617917579647
Fix,GT,37.4180396,-122.0887177,-26.925695308685302,22.823498,0.1,132.18213,1617917580658
Fix,GT,37.4179022,-122.0885286,-26.768362152397632,22.762383,0.1,132.19342,1617917581650
Fix,GT,37.4177676,-122.0883384,-26.60216782450676,22.591015,0.1,130.99646,1617917582643
Fix,GT,37.4176315,-122.0881465,-26.460486447095867,22.384474,0.1,132.07697,1617917583654
Fix,GT,37.4174973,-122.0879626,-26.316050241827966,22.077175,0.1,132.34464,1617917584646
Fix,GT,37.4173491,-122.0877592,-26.194357318043707,21.707848,0.1,132.23633,1617917585760
Fix,GT,37.4172585,-122.087635,-26.12298688268661,21.48944,0.1,132.42859,1617917586450
Fix,GT,37.4171033,-122.0874239,-26.05930997112393,21.207312,0.1,132.49542,1617917587642
Fix,GT,37.416972,-122.0872443,-26.04027894723416,21.480236,0.1,132.1824,1617917588654
Fix,GT,37.4168411,-122.0870639,-25.97859052693844,21.933144,0.1,132.45367,1617917589649
Fix,GT,37.4167043,-122.0868784,-25.922654252529146,22.392002,0.1,132.61487,1617917590658
Fix,GT,37.4165675,-122.0866918,-25.880480312764647,22.868984,0.1,132.40771,1617917591650
Fix,GT,37.4164247,-122.0864961,-25.86627640092373,23.477697,0.1,132.26031,1617917592663
Fix,GT,37.4162814,-122.0862992,-25.838081476569176,24.073643,0.1,132.32275,1617917593655
Fix,GT,37.4161342,-122.0860978,-25.78854703089595,24.657976,0.1,132.20215,1617917594648
Fix,GT,37.4159813,-122.0858866,-25.75756511282921,25.200968,0.1,132.09299,1617917595660
Fix,GT,37.4158291,-122.0856769,-25.718595762014388,25.64574,0.1,132.26575,1617917596648
Fix,GT,37.4156696,-122.0854576,-25.67684568077325,26.09933,0.1,132.28308,1617917597663
Fix,GT,37.4155117,-122.08524,-25.644897625565527,26.401775,0.1,132.20395,1617917598655
Fix,GT,37.4153508,-122.0850202,-25.573466502785685,26.677872,0.1,132.78104,1617917599650
Fix,GT,37.4151843,-122.0847963,-25.51444698548317,26.895037,0.1,132.92276,1617917600661
Fix,GT,37.4150208,-122.0845755,-25.378981773853305,27.025448,0.1,132.67236,1617917601650
Fix,GT,37.4148545,-122.0843475,-25.159982527911662,26.864174,0.1,132.1311,1617917602663
Fix,GT,37.4146957,-122.0841255,-24.98707226151228,26.493782,0.1,131.53552,1617917603652
Fix,GT,37.4145402,-122.0839026,-24.84955165842176,26.122017,0.1,130.73041,1617917604649
Fix,GT,37.4143871,-122.0836752,-24.736291518986224,25.951557,0.1,129.47552,1617917605660
Fix,GT,37.4142418,-122.0834507,-24.62964044404029,25.689161,0.1,128.60898,1617917606652
Fix,GT,37.4140984,-122.0832221,-24.53188418865204,25.047058,0.1,127.67465,1617917607663
Fix,GT,37.4139664,-122.0830034,-24.45894408798218,23.918858,0.1,126.50833,1617917608658
Fix,GT,37.4138413,-122.0827895,-24.376528384089468,23.62513,0.1,125.97986,1617917609647
Fix,GT,37.4137155,-122.0825686,-24.292211134910584,23.818115,0.1,124.79196,1617917610659
Fix,GT,37.4135961,-122.0823499,-24.21906111323833,23.576374,0.1,124.09799,1617917611649
Fix,GT,37.4134761,-122.082129,-24.133344502687457,22.948307,0.1,124.49164,1617917612663
Fix,GT,37.4133852,-122.0819656,-24.0615405215919,21.928741,0.1,125.12726,1617917613449
Fix,GT,37.4132725,-122.0817667,-23.997539089471104,21.372818,0.1,125.3642,1617917614449
Fix,GT,37.4131637,-122.0815697,-23.92557236328721,21.05574,0.1,123.62854,1617917615449
Fix,GT,37.4130629,-122.0813704,-23.799555728077888,20.737648,0.1,121.60431,1617917616449
Fix,GT,37.4129668,-122.0811714,-23.75307961273193,20.443832,0.1,121.01135,1617917617449
Fix,GT,37.412873,-122.0809747,-23.65014400961995,20.13971,0.1,120.67667,1617917618449
Fix,GT,37.412781,-122.0807806,-23.61147611582279,19.809055,0.1,120.79181,1617917619449
Fix,GT,37.4126894,-122.080591,-23.56114401125908,19.437542,0.1,121.388275,1617917620449
Fix,GT,37.412599,-122.0804068,-23.55058828225732,18.734692,0.1,121.408875,1617917621449
Fix,GT,37.4125124,-122.0802305,-23.620936304569245,18.042305,0.1,121.31946,1617917622449
Fix,GT,37.4124294,-122.0800578,-23.62560421130061,17.627935,0.1,120.81256,1617917623449
Fix,GT,37.4123493,-122.0798894,-23.61008032575249,16.94078,0.1,120.92554,1617917624449
Fix,GT,37.4122713,-122.079733,-23.567508664697407,15.577793,0.1,123.09207,1617917625449
Fix,GT,37.4121902,-122.0796006,-23.47623887217045,14.281376,0.1,131.14014,1617917626449
Fix,GT,37.4120959,-122.0794948,-23.323571661651137,13.86662,0.1,142.26324,1617917627449
Fix,GT,37.4119893,-122.0794168,-23.16363536190987,13.6969795,0.1,154.65833,1617917628449
Fix,GT,37.4118708,-122.0793714,-22.919731597572564,13.860975,0.1,167.8916,1617917629449
Fix,GT,37.4117459,-122.0793528,-22.78563604477048,14.110172,0.1,175.56812,1617917630449
Fix,GT,37.4116179,-122.0793424,-22.65960284003616,14.353565,0.1,176.56775,1617917631449
Fix,GT,37.4114885,-122.0793325,-22.5236201133728,14.302573,0.1,176.20319,1617917632449
Fix,GT,37.4113627,-122.0793172,-22.419667220532894,13.746164,0.1,172.72327,1617917633449
Fix,GT,37.4112433,-122.0792872,-22.303079628825188,13.324287,0.1,165.8689,1617917634449
Fix,GT,37.4111314,-122.0792384,-22.156143990844484,13.139009,0.1,157.57568,1617917635449
Fix,GT,37.4110253,-122.0791689,-21.938747504562137,13.430188,0.1,149.09216,1617917636449
Fix,GT,37.4109266,-122.0790787,-21.60979398539662,13.710913,0.1,140.80853,1617917637449
Fix,GT,37.4108358,-122.0789716,-21.134397518008942,13.961983,0.1,134.05328,1617917638449
Fix,GT,37.4107542,-122.0788518,-20.65135037207603,13.809977,0.1,127.823,1617917639449
Fix,GT,37.4106871,-122.078727,-20.231858940035103,12.713832,0.1,120.60135,1617917640449
Fix,GT,37.4106409,-122.0786046,-19.89473033630848,11.272551,0.1,111.85675,1617917641449
Fix,GT,37.4106128,-122.0784921,-19.64214275214076,9.402348,0.1,104.47821,1617917642449
Fix,GT,37.410599,-122.0784028,-19.48463479363918,6.671848,0.1,99.179504,1617917643449
Fix,GT,37.4105934,-122.078344,-19.373555742681027,3.7706325,0.1,96.14249,1617917644449
Fix,GT,37.4105913,-122.078316,-19.33603242892027,1.4890255,0.1,95.45599,1617917645449
Fix,GT,37.4105907,-122.0783071,-19.325984649628403,0.19549254,0.1,95.2883,1617917646449
Fix,GT,37.4105906,-122.0783067,-19.3329994238317,0.0014142136,0.1,95.291565,1617917647449
Fix,GT,37.4105906,-122.0783067,-19.334,0.0012038082,0.1,95.289856,1617917648449
Fix,GT,37.4105906,-122.0783067,-19.33449146059156,0.005598725,0.1,95.285706,1617917649449
Fix,GT,37.4105904,-122.0783025,-19.35098465013504,1.1499391,0.1,95.25922,1617917650449
Fix,GT,37.4105879,-122.0782761,-19.3050790566206,3.2964864,0.1,96.36954,1617917651449
Fix,GT,37.4105805,-122.0782362,-19.20950796324015,3.9460359,0.1,103.19516,1617917652449
Fix,GT,37.4105606,-122.0781928,-19.17396871829033,4.872199,0.1,122.13379,1617917653449
Fix,GT,37.4105197,-122.0781584,-19.32587201100588,6.1220713,0.1,149.46445,1617917654449
Fix,GT,37.410459,-122.0781419,-19.644172918647527,7.7251024,0.1,171.01477,1617917655449
Fix,GT,37.410383,-122.0781358,-20.04964961218834,9.14769,0.1,177.2785,1617917656449
Fix,GT,37.4102943,-122.0781323,-20.480602440178394,10.531628,0.1,178.44641,1617917657449
Fix,GT,37.410171,-122.0781309,-20.97377243238688,12.0453205,0.1,179.90027,1617917658660
Fix,GT,37.4100582,-122.0781315,-21.36899499392509,13.122864,0.1,180.12238,1617917659653
Fix,GT,37.409937,-122.0781322,-21.59109940800071,14.084493,0.1,180.19571,1617917660642
Fix,GT,37.4098043,-122.0781333,-21.73883915746212,14.980502,0.1,180.36337,1617917661654
Fix,GT,37.4096672,-122.078135,-21.80473357450962,15.621719,0.1,180.42268,1617917662648
Fix,GT,37.4095222,-122.0781359,-21.77530224019289,16.147451,0.1,179.98067,1617917663660
Fix,GT,37.4093757,-122.0781354,-21.71243096870184,16.663898,0.1,179.66248,1617917664652
Fix,GT,37.4092256,-122.0781349,-21.672252911925312,17.128948,0.1,179.9425,1617917665637
Fix,GT,37.4090669,-122.0781362,-21.6256709381938,17.478151,0.1,180.42131,1617917666654
Fix,GT,37.4089097,-122.0781376,-21.54515391647816,17.532661,0.1,180.28616,1617917667648
Fix,GT,37.408751,-122.0781384,-21.50339309614897,17.256815,0.1,180.02435,1617917668660
Fix,GT,37.4085982,-122.0781383,-21.49563810545206,16.932854,0.1,179.75128,1617917669652
Fix,GT,37.4084495,-122.0781367,-21.40920522081852,16.569118,0.1,179.31683,1617917670637
Fix,GT,37.408299,-122.0781347,-21.305,16.19459,0.1,179.22595,1617917671657
Fix,GT,37.4081559,-122.0781335,-21.23108606672287,15.843273,0.1,179.8501,1617917672649
Fix,GT,37.408013,-122.0781341,-21.119241370797155,15.455397,0.1,180.23055,1617917673662
Fix,GT,37.4078774,-122.0781347,-20.98495385736227,14.986771,0.1,179.95367,1617917674651
Fix,GT,37.4077462,-122.0781344,-20.859834837377072,14.487348,0.1,179.85406,1617917675638
Fix,GT,37.4076164,-122.0781351,-20.740597260534763,13.798078,0.1,180.28415,1617917676656
Fix,GT,37.407496,-122.0781361,-20.662099527329207,13.135474,0.1,180.21622,1617917677648
Fix,GT,37.4073806,-122.0781368,-20.5497410504818,12.171417,0.1,180.1637,1617917678660
Fix,GT,37.4072764,-122.0781375,-20.46814458549023,11.050104,0.1,180.16942,1617917679652
Fix,GT,37.4071837,-122.078138,-20.384466076910496,9.847406,0.1,180.15652,1617917680638
Fix,GT,37.407099,-122.0781384,-20.3067608294487,8.6288,0.1,179.97168,1617917681655
Fix,GT,37.4070271,-122.0781382,-20.257508219063283,7.5111504,0.1,179.64935,1617917682649
Fix,GT,37.4069612,-122.0781378,-20.20691405999661,7.0101614,0.1,179.71912,1617917683660
Fix,GT,37.4069015,-122.0781375,-20.13731784671545,6.207328,0.1,179.73425,1617917684653
Fix,GT,37.4068511,-122.0781375,-20.086395531892776,4.8196373,0.1,179.78699,1617917685665
Fix,GT,37.4068109,-122.0781375,-20.06327147239447,4.2585754,0.1,179.84113,1617917686657
Fix,GT,37.4067755,-122.0781375,-20.03055697980523,3.4955175,0.1,179.77509,1617917687648
Fix,GT,37.4067493,-122.0781372,-20.021,2.2795691,0.1,179.72705,1617917688662
Fix,GT,37.406734,-122.0781371,-20.017,1.1214185,0.1,179.71094,1617917689653
Fix,GT,37.406729,-122.0781371,-20.02,0.10770575,0.1,179.7019,1617917690665
Fix,GT,37.4067284,-122.0781371,-20.025,0.09989689,0.1,179.70471,1617917691657
Fix,GT,37.4067252,-122.078137,-20.02651098018885,0.7138722,0.1,179.69812,1617917692648
Fix,GT,37.4067162,-122.078137,-20.019,1.2531666,0.1,179.66919,1617917693663
Fix,GT,37.4067028,-122.0781369,-20.015747376322743,1.8109355,0.1,179.63452,1617917694654
Fix,GT,37.4066823,-122.0781367,-20.004524146199227,2.7805018,0.1,179.6294,1617917695647
Fix,GT,37.4066502,-122.0781365,-19.98828331810236,4.365314,0.1,179.69812,1617917696657
Fix,GT,37.4066033,-122.0781364,-19.97949967813492,6.1125307,0.1,179.75958,1617917697650
Fix,GT,37.4065398,-122.078136,-19.93564751261473,7.790943,0.1,179.67969,1617917698662
Fix,GT,37.4064643,-122.0781355,-19.85788531732559,9.066862,0.1,179.729,1617917699651
Fix,GT,37.4063751,-122.0781357,-19.77228257894516,10.4373665,0.1,180.16368,1617917700667
Fix,GT,37.4062765,-122.0781368,-19.62393266683817,11.645222,0.1,180.7215,1617917701658
Fix,GT,37.406167,-122.0781398,-19.477904447555545,12.857348,0.1,181.27925,1617917702650
Fix,GT,37.4060449,-122.0781431,-19.55176586097479,13.932392,0.1,180.77834,1617917703661
Fix,GT,37.4059164,-122.0781448,-19.46974450302124,14.828392,0.1,180.27138,1617917704651
Fix,GT,37.4057786,-122.078145,-19.359914528131487,15.350632,0.1,179.88171,1617917705664
Fix,GT,37.4056391,-122.0781452,-19.25787554717064,15.711636,0.1,179.97504,1617917706659
Fix,GT,37.4054979,-122.0781455,-19.178615861296656,15.998403,0.1,180.04367,1617917707648
Fix,GT,37.4053504,-122.0781462,-19.09037486362457,16.375778,0.1,180.13593,1617917708660
Fix,GT,37.4052025,-122.0781474,-19.00387447333336,16.693834,0.1,180.30621,1617917709652
Fix,GT,37.4050492,-122.0781487,-18.91842589211464,16.929844,0.1,180.26678,1617917710664
Fix,GT,37.4048971,-122.0781499,-18.821188545942302,16.998137,0.1,180.11882,1617917711656
Fix,GT,37.4047465,-122.0781508,-18.69863972297311,16.68318,0.1,180.15076,1617917712648
Fix,GT,37.4045959,-122.0781513,-18.634441320300105,16.3185,0.1,179.90588,1617917713661
Fix,GT,37.4044517,-122.0781505,-18.46930971425772,15.937603,0.1,179.57892,1617917714653
Fix,GT,37.4043107,-122.0781503,-18.4172245464921,15.593964,0.1,179.96368,1617917715646
Fix,GT,37.4041705,-122.0781507,-18.319036925733087,15.209292,0.1,180.13416,1617917716656
Fix,GT,37.4040362,-122.0781515,-18.21014421701432,14.846064,0.1,180.22891,1617917717648
Fix,GT,37.4039022,-122.0781527,-18.11837359225749,14.4892235,0.1,180.324,1617917718662
Fix,GT,37.4037732,-122.0781538,-18.03021635812521,14.5215435,0.1,180.2755,1617917719652
Fix,GT,37.4036397,-122.0781549,-17.924577089726924,14.738033,0.1,180.2586,1617917720665
Fix,GT,37.4035082,-122.0781561,-17.8147266690135,14.6591625,0.1,180.4168,1617917721657
Fix,GT,37.4033778,-122.0781587,-17.737027287006377,14.525947,0.1,181.09598,1617917722649
Fix,GT,37.4032465,-122.0781641,-17.658094398498534,14.386267,0.1,182.41484,1617917723657
Fix,GT,37.4031187,-122.078175,-17.619903112888338,14.258749,0.1,184.76048,1617917724650
Fix,GT,37.4029904,-122.0781925,-17.532372498512267,13.965506,0.1,187.21053,1617917725665
Fix,GT,37.4028682,-122.078215,-17.463771407961843,13.6362915,0.1,188.86981,1617917726658
Fix,GT,37.4027497,-122.078241,-17.373954674601556,13.256559,0.1,190.5101,1617917727650
Fix,GT,37.4026349,-122.078271,-17.312902482807637,12.5067005,0.1,192.4342,1617917728661
Fix,GT,37.4025294,-122.0783041,-17.236421072006227,11.788593,0.1,194.91113,1617917729653
Fix,GT,37.4024313,-122.0783407,-17.19572745972872,10.596706,0.1,197.31358,1617917730665
Fix,GT,37.4023463,-122.0783761,-17.154706753253937,9.492508,0.1,198.88916,1617917731658
Fix,GT,37.4022711,-122.0784114,-17.104483537852765,8.451545,0.1,201.08337,1617917732651
Fix,GT,37.4022044,-122.0784459,-17.06514626312256,7.403494,0.1,202.70856,1617917733661
Fix,GT,37.4021476,-122.0784773,-17.03093642067909,6.50027,0.1,203.97217,1617917734653
Fix,GT,37.4020994,-122.0785055,-16.997563171744346,5.285519,0.1,205.08807,1617917735647
Fix,GT,37.4020623,-122.0785284,-16.958867802619935,3.8045478,0.1,206.19441,1617917736656
Fix,GT,37.4020374,-122.0785445,-16.947498864173888,2.4967132,0.1,207.15752,1617917737649
Fix,GT,37.4020212,-122.0785555,-16.939796556591986,1.6212003,0.1,207.75238,1617917738660
Fix,GT,37.4020121,-122.0785617,-16.932,0.67891204,0.1,208.04832,1617917739654
Fix,GT,37.4020101,-122.078563,-16.936968974232673,0.015157651,0.1,208.11864,1617917740665
Fix,GT,37.4020101,-122.0785631,-16.938,0.002126432,0.1,208.11844,1617917741656
Fix,GT,37.4020101,-122.0785631,-16.938,0.001204082,0.1,208.11772,1617917742650
Fix,GT,37.4020101,-122.0785631,-16.939,0.0011598798,0.1,208.11852,1617917743661
Fix,GT,37.4020101,-122.0785631,-16.939,0.001,0.1,208.11882,1617917744653
Fix,GT,37.4020101,-122.0785631,-16.939,0.0005034849,0.1,208.11964,1617917745664
Fix,GT,37.4020097,-122.0785633,-16.944,0.20195717,0.1,208.14186,1617917746657
Fix,GT,37.4020067,-122.0785653,-16.94300050494075,0.5331402,0.1,208.16684,1617917747648
Fix,GT,37.4020033,-122.0785678,-16.938,0.25308958,0.1,208.19357,1617917748660
Fix,GT,37.4020025,-122.0785683,-16.941,0.0043263845,0.1,208.20055,1617917749651
Fix,GT,37.4020026,-122.0785683,-16.942,0.003551044,0.1,208.19957,1617917750665
Fix,GT,37.4020026,-122.0785682,-16.942,0.0014357177,0.1,208.19907,1617917751656
Fix,GT,37.4020026,-122.0785682,-16.942,0.0015160879,0.1,208.19919,1617917752651
Fix,GT,37.4020026,-122.0785682,-16.942,0.0014142136,0.1,208.19899,1617917753659
Fix,GT,37.4020026,-122.0785682,-16.942,0.0015638904,0.1,208.1994,1617917754654
Fix,GT,37.4020026,-122.0785682,-16.942,0.0016149643,0.1,208.19882,1617917755665
Fix,GT,37.4020026,-122.0785682,-16.942,0.0014142136,0.1,208.19894,1617917756657
Fix,GT,37.4020026,-122.0785682,-16.943,0.001,0.1,208.19911,1617917757651
Fix,GT,37.4020026,-122.0785682,-16.943,0.0014142136,0.1,208.19936,1617917758661
Fix,GT,37.4020025,-122.0785682,-16.94504249215126,0.039506454,0.1,208.2026,1617917759652
Fix,GT,37.4019987,-122.0785709,-16.957,1.2031889,0.1,208.23216,1617917760666
Fix,GT,37.4019813,-122.0785827,-16.947851311087607,3.2304184,0.1,208.28134,1617917761657
Fix,GT,37.4019486,-122.0786049,-16.923461031615737,4.9765797,0.1,208.55551,1617917762651
Fix,GT,37.401901,-122.0786385,-16.8903223785162,7.027711,0.1,209.52408,1617917763661
Fix,GT,37.40184,-122.0786848,-16.814801062762736,8.826621,0.1,211.76236,1617917764655
Fix,GT,37.4017677,-122.0787443,-16.709446305394174,10.217125,0.1,213.79225,1617917765665
Fix,GT,37.4016877,-122.0788148,-16.634502667427064,11.660075,0.1,215.73875,1617917766656
Fix,GT,37.401599,-122.078898,-16.601457628548147,13.060888,0.1,217.1476,1617917767650
Fix,GT,37.4015031,-122.078995,-16.542211348056796,14.004774,0.1,219.92957,1617917768660
Fix,GT,37.4014074,-122.0791024,-16.445125942528247,14.6822815,0.1,222.91399,1617917769651
Fix,GT,37.401311,-122.0792228,-16.353654832720757,15.14188,0.1,226.19057,1617917770664
Fix,GT,37.4012194,-122.0793504,-16.28720968425274,15.530487,0.1,229.01747,1617917771655
Fix,GT,37.4011295,-122.0794863,-16.232860887527465,15.869785,0.1,231.05222,1617917772651
Fix,GT,37.4010383,-122.0796286,-16.139757155537605,16.009867,0.1,231.11942,1617917773662
Fix,GT,37.4009482,-122.079766,-16.033129857838155,15.724797,0.1,230.05254,1617917774654
Fix,GT,37.400858,-122.0798988,-15.94941501224041,15.375862,0.1,229.10551,1617917775647
Fix,GT,37.4007656,-122.0800273,-15.833609698772433,14.989914,0.1,226.78601,1617917776655
Fix,GT,37.4006717,-122.0801449,-15.730875508308412,14.61088,0.1,223.6281,1617917777651
Fix,GT,37.4005755,-122.0802532,-15.625209987998009,13.689166,0.1,220.72096,1617917778660
Fix,GT,37.400485,-122.0803459,-15.548483958899975,12.493847,0.1,218.48686,1617917779651
Fix,GT,37.4003987,-122.0804288,-15.512194966077804,11.494424,0.1,216.82834,1617917780663
Fix,GT,37.4003177,-122.0805018,-15.430224375963212,10.839579,0.1,214.7953,1617917781656
Fix,GT,37.4002408,-122.0805655,-15.379092232823371,9.637199,0.1,212.76353,1617917782650
Fix,GT,37.4001715,-122.0806187,-15.265391720294952,8.273977,0.1,210.72897,1617917783660
Fix,GT,37.4001134,-122.08066,-15.143105637907984,6.6029816,0.1,208.88301,1617917784653
Fix,GT,37.4000685,-122.0806895,-15.067524197638033,4.754245,0.1,207.40533,1617917785638
Fix,GT,37.4000375,-122.0807093,-15.024298253893852,2.909397,0.1,206.92133,1617917786656
Fix,GT,37.4000203,-122.08072,-14.995953551173208,1.417199,0.1,206.57208,1617917787652
Fix,GT,37.4000144,-122.0807238,-14.991391799449922,0.22543642,0.1,206.46402,1617917788660
Fix,GT,37.4000141,-122.0807239,-14.995457817971706,0.0029069763,0.1,206.4629,1617917789654
Fix,GT,37.4000141,-122.0807239,-14.994999999999996,0.0020007119,0.1,206.46294,1617917790636
Fix,GT,37.4000141,-122.0807239,-14.994,0.0015746495,0.1,206.46022,1617917791657
Fix,GT,37.4000141,-122.080724,-14.98347823625803,0.001,0.1,206.46007,1617917792652
Fix,GT,37.4000141,-122.080724,-14.98,0.0016070129,0.1,206.4603,1617917793660
Fix,GT,37.4000141,-122.080724,-14.979,0.0014142136,0.1,206.46027,1617917794654
Fix,GT,37.4000141,-122.080724,-14.98000044643879,0.0014142136,0.1,206.46031,1617917795638
Fix,GT,37.4000141,-122.080724,-14.98,0.0014142136,0.1,206.45995,1617917796656
Fix,GT,37.4000141,-122.080724,-14.98,0.001,0.1,206.46022,1617917797653
Fix,GT,37.4000141,-122.080724,-14.98,0.0014142136,0.1,206.46039,1617917798661
Fix,GT,37.4000141,-122.080724,-14.98,0.00046188344,0.1,206.46022,1617917799653
Fix,GT,37.4000141,-122.080724,-14.98,0.00036599953,0.1,206.4605,1617917800636
Fix,GT,37.4000141,-122.080724,-14.98,0.0,0.1,206.46053,1617917801657
Fix,GT,37.4000141,-122.080724,-14.98,0.00046602616,0.1,206.4602,1617917802653
Fix,GT,37.4000141,-122.080724,-14.98,0.0,0.1,206.4603,1617917803660
Fix,GT,37.4000141,-122.080724,-14.981000000000002,0.0,0.1,206.46056,1617917804654
Fix,GT,37.4000141,-122.080724,-14.981,0.00035356183,0.1,206.46042,1617917805664
Fix,GT,37.4000141,-122.080724,-14.98398033821583,0.06920381,0.1,206.46057,1617917806649
Fix,GT,37.4000111,-122.0807258,-14.9842498691082,0.60256755,0.1,206.414,1617917807637
Fix,GT,37.4000053,-122.0807294,-14.977617509573696,0.9345027,0.1,206.32315,1617917808638
Fix,GT,37.3999956,-122.0807353,-14.973,1.441773,0.1,206.18839,1617917809655
Fix,GT,37.3999792,-122.0807454,-14.963239115953446,2.8370807,0.1,206.05533,1617917810644
Fix,GT,37.3999492,-122.0807636,-14.91387740278244,4.470409,0.1,205.77223,1617917811653
Fix,GT,37.3999063,-122.0807893,-14.865963908731937,6.2794156,0.1,205.42186,1617917812643
Fix,GT,37.3998464,-122.0808245,-14.775509958386422,8.127153,0.1,204.7816,1617917813660
Fix,GT,37.3997743,-122.0808647,-14.651286451637745,9.444705,0.1,203.77835,1617917814651
Fix,GT,37.3996891,-122.0809108,-14.591499850153925,10.888481,0.1,203.08025,1617917815664
Fix,GT,37.3995943,-122.080961,-14.454750061273575,12.138267,0.1,202.75902,1617917816656
Fix,GT,37.3994888,-122.0810161,-14.378006400585177,13.396339,0.1,202.30254,1617917817649
Fix,GT,37.3993705,-122.0810746,-14.183466473519802,14.448469,0.1,200.99498,1617917818661
Fix,GT,37.399245,-122.0811308,-13.863680303812028,15.39012,0.1,198.75465,1617917819651
Fix,GT,37.3991081,-122.0811864,-13.359532707393168,16.010801,0.1,197.39664,1617917820664
Fix,GT,37.3989703,-122.0812385,-12.79244042813778,16.228779,0.1,196.28755,1617917821656
Fix,GT,37.3988292,-122.0812875,-12.062635874330995,16.576199,0.1,194.81989,1617917822647
Fix,GT,37.3986807,-122.0813342,-11.181117745935918,16.902586,0.1,193.51288,1617917823661
Fix,GT,37.3985319,-122.0813776,-10.242403968811036,17.259874,0.1,192.73878,1617917824653
Fix,GT,37.3983772,-122.0814221,-9.311555713176729,17.610935,0.1,193.42252,1617917825664
Fix,GT,37.3982237,-122.0814719,-8.338139929056167,17.888649,0.1,195.29845,1617917826656
Fix,GT,37.3980683,-122.0815289,-7.34358010327816,18.166471,0.1,196.92091,1617917827652
Fix,GT,37.3979122,-122.0815924,-6.331407940506935,17.827267,0.1,198.79062,1617917828659
Fix,GT,37.3977655,-122.0816584,-5.386558432161808,17.04164,0.1,200.37378,1617917829651
Fix,GT,37.3976239,-122.0817269,-4.473275218367577,16.230423,0.1,201.63937,1617917830664
Fix,GT,37.3974926,-122.081795,-3.7634864351153374,15.519552,0.1,203.1764,1617917831657
Fix,GT,37.3973678,-122.0818646,-3.171532879352569,15.051255,0.1,204.4531,1617917832652
Fix,GT,37.3972448,-122.0819383,-2.705582727432251,15.0440235,0.1,206.1679,1617917833660
Fix,GT,37.3971242,-122.0820162,-2.391880522787571,15.300138,0.1,208.00299,1617917834653
Fix,GT,37.3970009,-122.0821026,-2.2376501080989835,15.694941,0.1,209.82,1617917835666
Fix,GT,37.3968786,-122.0821943,-2.241081021308899,16.193573,0.1,211.56358,1617917836658
Fix,GT,37.3967554,-122.0822931,-2.4361410771012304,16.390392,0.1,213.16628,1617917837651
Fix,GT,37.3966323,-122.0823972,-2.809265814065933,16.146091,0.1,214.52371,1617917838660
Fix,GT,37.3965164,-122.0825008,-3.191098289608956,15.5791855,0.1,216.05977,1617917839655
Fix,GT,37.3964068,-122.0826013,-3.763073687911034,14.727128,0.1,216.10594,1617917840647
Fix,GT,37.3963012,-122.0826946,-4.437770244538784,13.691553,0.1,214.26773,1617917841657
Fix,GT,37.3962026,-122.0827756,-5.175572500705719,12.599644,0.1,212.73344,1617917842652
Fix,GT,37.3961111,-122.0828492,-5.949139463424682,11.419571,0.1,213.05719,1617917843658
Fix,GT,37.3960288,-122.0829191,-6.667606253921985,10.738752,0.1,214.80994,1617917844654
Fix,GT,37.395952,-122.082988,-7.292965956270695,9.968607,0.1,215.61855,1617917845665
Fix,GT,37.3958829,-122.0830486,-7.73413828843832,8.8713045,0.1,214.54799,1617917846657
Fix,GT,37.3958218,-122.0831002,-8.133239368438721,7.604162,0.1,213.66301,1617917847650
Fix,GT,37.3957688,-122.0831435,-8.440769712090493,6.2885303,0.1,212.83662,1617917848660
Fix,GT,37.3957268,-122.0831764,-8.631477499306202,4.7310915,0.1,211.80675,1617917849655
Fix,GT,37.3956952,-122.0832003,-8.788157457768918,3.457931,0.1,211.1415,1617917850665
Fix,GT,37.395673,-122.0832165,-8.88909599864483,2.2616234,0.1,210.37863,1617917851656
Fix,GT,37.3956608,-122.0832252,-8.939430279403926,0.8447443,0.1,210.00142,1617917852647
Fix,GT,37.3956589,-122.0832265,-8.957173754334448,0.012646621,0.1,209.92586,1617917853660
Fix,GT,37.3956589,-122.0832265,-8.96055144006014,0.0014142136,0.1,209.92723,1617917854655
Fix,GT,37.3956589,-122.0832265,-8.962,0.00053379044,0.1,209.92609,1617917855646
Fix,GT,37.3956589,-122.0832265,-8.963,0.001,0.1,209.9264,1617917856657
Fix,GT,37.3956589,-122.0832265,-8.963,0.001,0.1,209.92613,1617917857652
Fix,GT,37.3956589,-122.0832265,-8.963,0.001,0.1,209.92659,1617917858661
Fix,GT,37.3956589,-122.0832265,-8.963,0.000556,0.1,209.92621,1617917859655
Fix,GT,37.3956589,-122.0832265,-8.963,0.0006390898,0.1,209.92628,1617917860663
Fix,GT,37.3956589,-122.0832265,-8.963,0.000566644,0.1,209.92662,1617917861656
Fix,GT,37.3956589,-122.0832265,-8.963,0.0,0.1,209.92685,1617917862651
Fix,GT,37.3956589,-122.0832265,-8.963,0.007019799,0.1,209.9302,1617917863661
Fix,GT,37.3956589,-122.0832265,-8.963,0.001,0.1,209.92978,1617917864653
Fix,GT,37.3956589,-122.0832265,-8.963,0.0011472611,0.1,209.92972,1617917865664
Fix,GT,37.3956589,-122.0832265,-8.963,0.0018900405,0.1,209.92949,1617917866657
Fix,GT,37.3956589,-122.0832265,-8.963,0.0006981101,0.1,209.92917,1617917867649
Fix,GT,37.3956589,-122.0832265,-8.963,0.00039394392,0.1,209.92761,1617917868660
Fix,GT,37.3956589,-122.0832265,-8.963,0.0,0.1,209.92812,1617917869654
Fix,GT,37.3956589,-122.0832265,-8.963,0.001,0.1,209.92816,1617917870666
Fix,GT,37.3956589,-122.0832265,-8.963,0.0004235068,0.1,209.92804,1617917871657
Fix,GT,37.3956589,-122.0832265,-8.963,0.001,0.1,209.92804,1617917872652
Fix,GT,37.3956589,-122.0832265,-8.963,0.001,0.1,209.92822,1617917873662
Fix,GT,37.3956589,-122.0832265,-8.963,0.001,0.1,209.92813,1617917874655
Fix,GT,37.3956589,-122.0832265,-8.963,0.0011766215,0.1,209.9281,1617917875642
Fix,GT,37.3956589,-122.0832265,-8.963,0.0,0.1,209.92819,1617917876655
Fix,GT,37.3956589,-122.0832265,-8.963,0.0011957416,0.1,209.92802,1617917877652
Fix,GT,37.3956589,-122.0832265,-8.963,0.001,0.1,209.92781,1617917878660
Fix,GT,37.3956589,-122.0832265,-8.963,0.001,0.1,209.92805,1617917879648
Fix,GT,37.3956589,-122.0832265,-8.963000267118215,0.0005121099,0.1,209.9282,1617917880648
Fix,GT,37.3956589,-122.0832265,-8.963,0.001,0.1,209.92813,1617917881656
Fix,GT,37.3956589,-122.0832265,-8.963,0.001218658,0.1,209.92818,1617917882652
Fix,GT,37.3956589,-122.0832265,-8.963,0.0014142136,0.1,209.92825,1617917883661
Fix,GT,37.3956589,-122.0832265,-8.963,0.001,0.1,209.92822,1617917884653
Fix,GT,37.3956589,-122.0832265,-8.963,0.0,0.1,209.9281,1617917885667
Fix,GT,37.3956589,-122.0832265,-8.963,0.00040574075,0.1,209.92807,1617917886659
Fix,GT,37.3956589,-122.0832265,-8.963,0.001,0.1,209.92781,1617917887653
Fix,GT,37.3956589,-122.0832265,-8.963,0.001,0.1,209.92778,1617917888662
Fix,GT,37.3956589,-122.0832265,-8.963,0.0011817898,0.1,209.92831,1617917889656
Fix,GT,37.3956589,-122.0832265,-8.963,0.0009255336,0.1,209.92828,1617917890665
Fix,GT,37.3956589,-122.0832265,-8.963,0.0011757901,0.1,209.92853,1617917891657
Fix,GT,37.3956589,-122.0832265,-8.963,0.0014975895,0.1,209.92812,1617917892650
Fix,GT,37.3956589,-122.0832265,-8.963,0.001,0.1,209.92851,1617917893662
Fix,GT,37.3956589,-122.0832265,-8.963,0.0015504607,0.1,209.928,1617917894655
Fix,GT,37.3956589,-122.0832265,-8.963000267118215,0.0004733054,0.1,209.92809,1617917895647
Fix,GT,37.3956589,-122.0832265,-8.963,0.0014193507,0.1,209.92819,1617917896658
Fix,GT,37.3956589,-122.0832265,-8.963,0.00073255546,0.1,209.92844,1617917897651
Fix,GT,37.3956589,-122.0832265,-8.963,0.0014142136,0.1,209.92755,1617917898661
Fix,GT,37.3956589,-122.0832265,-8.963,0.001,0.1,209.92801,1617917899655
Fix,GT,37.3956589,-122.0832265,-8.963,0.0012744316,0.1,209.9277,1617917900666
Fix,GT,37.3956589,-122.0832265,-8.963,0.0018768067,0.1,209.92752,1617917901656
Fix,GT,37.3956589,-122.0832265,-8.962999732881784,0.0018309975,0.1,209.92737,1617917902649
Fix,GT,37.3956589,-122.0832265,-8.963,0.0014142136,0.1,209.9272,1617917903660
Fix,GT,37.3956589,-122.0832265,-8.963,0.0012286563,0.1,209.92722,1617917904655
Fix,GT,37.3956589,-122.0832265,-8.963,0.001,0.1,209.92699,1617917905636
Fix,GT,37.3956589,-122.0832265,-8.963,0.0012277145,0.1,209.92706,1617917906654
Fix,GT,37.3956589,-122.0832265,-8.963,0.00067208114,0.1,209.92728,1617917907652
Fix,GT,37.3956589,-122.0832265,-8.963,0.0004002672,0.1,209.92744,1617917908659
Fix,GT,37.3956589,-122.0832265,-8.963,0.001184491,0.1,209.92734,1617917909655
Fix,GT,37.3956589,-122.0832265,-8.963,0.0012550249,0.1,209.92743,1617917910638
Fix,GT,37.3956589,-122.0832265,-8.963,0.0011830413,0.1,209.92764,1617917911655
Fix,GT,37.3956589,-122.0832265,-8.963,0.0014142136,0.1,209.92764,1617917912651
Fix,GT,37.3956589,-122.0832265,-8.963,0.0014142136,0.1,209.9277,1617917913661
Fix,GT,37.3956589,-122.0832265,-8.963,0.0012273778,0.1,209.92746,1617917914654
Fix,GT,37.3956589,-122.0832265,-8.963,0.0014142136,0.1,209.92737,1617917915636
Fix,GT,37.3956589,-122.0832265,-8.963,0.001,0.1,209.92761,1617917916657
Fix,GT,37.3956589,-122.0832265,-8.963,0.0014142136,0.1,209.92764,1617917917652
Fix,GT,37.3956589,-122.0832265,-8.963,0.0019187639,0.1,209.92754,1617917918661
Fix,GT,37.3956589,-122.0832265,-8.963,0.0014142136,0.1,209.92754,1617917919653
Fix,GT,37.3956589,-122.0832265,-8.963000267118215,0.0013679544,0.1,209.92789,1617917920636
Fix,GT,37.3956589,-122.0832265,-8.963,0.001,0.1,209.92786,1617917921656
Fix,GT,37.3956589,-122.0832265,-8.963,0.001,0.1,209.92801,1617917922653
Fix,GT,37.3956589,-122.0832265,-8.963,0.001,0.1,209.92801,1617917923660
Fix,GT,37.3956589,-122.0832265,-8.963,0.0005444741,0.1,209.928,1617917924654
Fix,GT,37.3956589,-122.0832265,-8.963,0.00036118814,0.1,209.92818,1617917925663
Fix,GT,37.3956589,-122.0832265,-8.963,0.00042723896,0.1,209.928,1617917926657
Fix,GT,37.3956589,-122.0832265,-8.963,0.001,0.1,209.92786,1617917927647
Fix,GT,37.3956589,-122.0832265,-8.963,0.0016428448,0.1,209.92801,1617917928660
Fix,GT,37.3956589,-122.0832265,-8.963,0.002,0.1,209.92809,1617917929653
Fix,GT,37.3956589,-122.0832265,-8.963,0.003057674,0.1,209.9277,1617917930664
Fix,GT,37.3956578,-122.0832273,-8.975,0.5390662,0.1,209.91225,1617917931658
Fix,GT,37.3956477,-122.0832348,-9.012482403218746,2.0746112,0.1,210.06664,1617917932649
Fix,GT,37.3956261,-122.0832495,-9.069138177096844,3.229568,0.1,208.17943,1617917933662
Fix,GT,37.3955958,-122.0832549,-9.14027135503292,3.4647944,0.1,187.64442,1617917934655
Fix,GT,37.3955668,-122.0832321,-9.206605849027634,3.7666743,0.1,147.99191,1617917935665
Fix,GT,37.3955583,-122.0831866,-9.273427894890307,4.408139,0.1,102.626434,1617917936657
Fix,GT,37.3955784,-122.0831357,-9.288273895442488,5.4656477,0.1,60.12152,1617917937653
Fix,GT,37.3956232,-122.0830965,-9.15868565106392,6.5741053,0.1,32.856506,1617917938660
Fix,GT,37.3956774,-122.0830544,-8.958259300112724,7.6938066,0.1,32.27191,1617917939652
Fix,GT,37.395738,-122.0830042,-8.728657683312893,8.582282,0.1,33.42157,1617917940645
Fix,GT,37.3958075,-122.082946,-8.352770464241505,9.718548,0.1,33.722626,1617917941656
Fix,GT,37.3958833,-122.0828799,-7.844245491802692,10.979307,0.1,35.229004,1617917942649
Fix,GT,37.3959682,-122.0828012,-7.213988325119018,12.173738,0.1,36.957336,1617917943660
Fix,GT,37.3960587,-122.0827149,-6.400161605477333,13.209684,0.1,37.16992,1617917944654
Fix,GT,37.3961563,-122.0826216,-5.552774824619293,14.221079,0.1,37.295746,1617917945646
Fix,GT,37.3962633,-122.0825204,-4.664323125839234,15.256577,0.1,36.403503,1617917946656
Fix,GT,37.3963779,-122.0824175,-3.945040329575539,16.16971,0.1,34.837402,1617917947650
Fix,GT,37.3965009,-122.0823122,-3.332858028411865,16.652004,0.1,33.991943,1617917948656
Fix,GT,37.3966267,-122.0822074,-2.8234731325507165,16.98197,0.1,33.136627,1617917949652
Fix,GT,37.3967558,-122.0821043,-2.491294966220856,17.257095,0.1,31.766022,1617917950645
Fix,GT,37.3968918,-122.0820017,-2.334560061693192,17.621374,0.1,30.277405,1617917951656
Fix,GT,37.3970303,-122.0819039,-2.394909394145012,17.962412,0.1,28.469482,1617917952647
Fix,GT,37.3971769,-122.0818087,-2.6625832209587097,18.145931,0.1,26.24115,1617917953661
Fix,GT,37.397324,-122.0817211,-3.151059994518757,18.220196,0.1,24.789795,1617917954654
Fix,GT,37.3974749,-122.0816363,-3.823172204136848,18.098427,0.1,23.454102,1617917955664
Fix,GT,37.3976237,-122.0815584,-4.676777705550194,17.999306,0.1,21.7883,1617917956657
Fix,GT,37.3977738,-122.0814877,-5.6022973820567135,17.881172,0.1,19.276459,1617917957649
Fix,GT,37.3979277,-122.0814239,-6.546716125249863,17.706417,0.1,17.46814,1617917958660
Fix,GT,37.3980792,-122.0813657,-7.499363692820072,17.802547,0.1,16.680542,1617917959653
Fix,GT,37.398235,-122.0813081,-8.455768270015717,17.925806,0.1,16.070435,1617917960662
Fix,GT,37.3983901,-122.0812543,-9.414429143786432,18.063137,0.1,14.820496,1617917961655
Fix,GT,37.3985466,-122.0812005,-10.370356026589867,18.1686,0.1,15.915344,1617917962648
Fix,GT,37.3987056,-122.0811419,-11.354264653801918,18.297604,0.1,16.231018,1617917963658
Fix,GT,37.3988639,-122.0810849,-12.313007319927216,18.394669,0.1,15.70932,1617917964653
Fix,GT,37.3990252,-122.0810286,-13.105447504043578,18.433958,0.1,15.389557,1617917965663
Fix,GT,37.3991802,-122.0809743,-13.690053861439228,16.897163,0.1,15.828613,1617917966657
Fix,GT,37.399312,-122.0809253,-14.099170793056487,13.692394,0.1,16.994904,1617917967651
Fix,GT,37.3994154,-122.0808836,-14.289364040136338,10.066359,0.1,18.142303,1617917968660
Fix,GT,37.3994843,-122.0808544,-14.401785113751888,6.2262006,0.1,18.71283,1617917969654
Fix,GT,37.3995218,-122.080838,-14.448870256513356,2.7032988,0.1,19.096497,1617917970646
Fix,GT,37.3995331,-122.080833,-14.472561921656132,0.18054453,0.1,19.203918,1617917971656
Fix,GT,37.3995331,-122.080833,-14.480499538123608,0.0030625334,0.1,19.215302,1617917972650
Fix,GT,37.3995331,-122.080833,-14.48,0.001,0.1,19.21466,1617917973661
Fix,GT,37.3995331,-122.080833,-14.48,0.00152955,0.1,19.21518,1617917974652
Fix,GT,37.3995331,-122.080833,-14.48,0.0013670251,0.1,19.215302,1617917975663
Fix,GT,37.3995331,-122.080833,-14.48,0.0015813578,0.1,19.21521,1617917976658
Fix,GT,37.3995331,-122.080833,-14.479,0.0004820295,0.1,19.21518,1617917977651
Fix,GT,37.3995331,-122.080833,-14.479000431507824,0.0013312661,0.1,19.215576,1617917978633
Fix,GT,37.3995331,-122.080833,-14.478999568492174,0.0005471504,0.1,19.215393,1617917979645
Fix,GT,37.3995331,-122.080833,-14.478999568492172,0.0011540039,0.1,19.21521,1617917980637
Fix,GT,37.3995331,-122.080833,-14.479,0.00042439,0.1,19.215302,1617917981657
Fix,GT,37.3995331,-122.080833,-14.479,0.001215478,0.1,19.215393,1617917982647
Fix,GT,37.3995331,-122.080833,-14.479,0.001,0.1,19.215637,1617917983661
Fix,GT,37.3995331,-122.080833,-14.479,0.0017971973,0.1,19.215363,1617917984653
Fix,GT,37.3995331,-122.080833,-14.479,0.0014142136,0.1,19.215576,1617917985662
Fix,GT,37.3995331,-122.080833,-14.479,0.0012369821,0.1,19.215546,1617917986657
Fix,GT,37.3995331,-122.080833,-14.479,0.00050013576,0.1,19.21521,1617917987649
Fix,GT,37.3995331,-122.080833,-14.479,0.0011605995,0.1,19.215485,1617917988661
Fix,GT,37.3995331,-122.080833,-14.479,0.00053630397,0.1,19.215698,1617917989653
Fix,GT,37.3995331,-122.080833,-14.478999568492174,0.0012280734,0.1,19.215668,1617917990644
Fix,GT,37.3995331,-122.080833,-14.479,0.0007982382,0.1,19.21585,1617917991656
Fix,GT,37.3995331,-122.080833,-14.479,0.0,0.1,19.215546,1617917992652
Fix,GT,37.3995331,-122.080833,-14.479,0.0012587082,0.1,19.215515,1617917993662
Fix,GT,37.3995331,-122.080833,-14.48,0.0011801976,0.1,19.215576,1617917994656
Fix,GT,37.3995331,-122.080833,-14.48,0.00034506715,0.1,19.215515,1617917995665
Fix,GT,37.3995331,-122.080833,-14.48,0.001235914,0.1,19.215424,1617917996656
Fix,GT,37.3995331,-122.080833,-14.479,0.001,0.1,19.215515,1617917997647
Fix,GT,37.3995331,-122.080833,-14.479,0.0006036882,0.1,19.215393,1617917998660
Fix,GT,37.3995331,-122.080833,-14.479,0.001,0.1,19.215546,1617917999653
Fix,GT,37.3995332,-122.080833,-14.479,0.001,0.1,19.215302,1617918000644
Fix,GT,37.3995332,-122.080833,-14.477,0.0017539833,0.1,19.215515,1617918001658
Fix,GT,37.3995332,-122.0808329,-14.474,0.001,0.1,19.215393,1617918002646
Fix,GT,37.399534,-122.0808325,-14.48640135663748,0.49878204,0.1,19.26184,1617918003659
Fix,GT,37.399548,-122.0808258,-14.52525127482414,2.9933126,0.1,20.341217,1617918004656
Fix,GT,37.3995827,-122.0808084,-14.594923679053784,5.1724668,0.1,21.3414,1617918005664
Fix,GT,37.3996349,-122.0807825,-14.66648180538416,7.418825,0.1,21.648743,1617918006658
Fix,GT,37.3997044,-122.0807456,-14.754991810441016,9.355949,0.1,23.274933,1617918007649
