MessageType,Provider,LatitudeDegrees,LongitudeDegrees,AltitudeMeters,SpeedMps,AccuracyMeters,BearingDegrees,UnixTimeMillis
Fix,GT,37.3450556,-121.9096576,-12.716000325674193,0.0010014124,0.1,139.96844,1617396187000
Fix,GT,37.3450556,-121.9096576,-12.71599996151123,0.001,0.1,139.96869,1617396188000
Fix,GT,37.3450556,-121.9096576,-12.71599985492695,0.001,0.1,139.96881,1617396189000
Fix,GT,37.3450556,-121.9096576,-12.716000124348326,0.0022284426,0.1,139.96814,1617396190000
Fix,GT,37.3450556,-121.9096576,-12.71599963583704,0.0009965895,0.099,139.96875,1617396191000
Fix,GT,37.3450556,-121.9096576,-12.715999650640413,0.0014093902,0.1,139.96832,1617396192000
Fix,GT,37.3450556,-121.9096576,-12.715999920061789,0.0009965892,0.1,139.97101,1617396193000
Fix,GT,37.3450556,-121.9096576,-12.714996905747334,0.0014142136,0.1,139.97,1617396194000
Fix,GT,37.3450556,-121.9096576,-12.716999955586392,0.001,0.1,139.96881,1617396195000
Fix,GT,37.3450556,-121.9096576,-12.710996558994983,0.001,0.1,139.96826,1617396196000
Fix,GT,37.3450556,-121.9096576,-12.70400011239946,0.0010014132,0.1,139.96838,1617396197000
Fix,GT,37.3450556,-121.9096576,-12.698000130085276,3.4117802e-06,0.1,139.96857,1617396198000
Fix,GT,37.3450556,-121.9096576,-12.691999766548165,0.000996588,0.1,139.9686,1617396199000
Fix,GT,37.3450556,-121.9096576,-12.689003701739944,0.04267049,0.1,139.9748,1617396200000
Fix,GT,37.3450534,-121.9096554,-12.680992850422394,0.56484556,0.1,140.05502,1617396201000
Fix,GT,37.3450471,-121.9096488,-12.68201005469868,1.2929413,0.1,140.17209,1617396202000
Fix,GT,37.3450352,-121.9096367,-12.682006911209786,2.0466566,0.1,140.44998,1617396203000
Fix,GT,37.3450182,-121.9096222,-12.673003138588276,2.5268457,0.1,144.5495,1617396204000
Fix,GT,37.3449958,-121.9096113,-12.681989881433314,2.8197129,0.1,156.42383,1617396205000
Fix,GT,37.3449694,-121.9096117,-12.647993308682926,3.0988934,0.1,177.04718,1617396206000
Fix,GT,37.3449416,-121.9096249,-12.611951860302591,3.5904934,0.1,198.07765,1617396207000
Fix,GT,37.3449138,-121.9096519,-12.515986263245344,4.2555895,0.1,216.677,1617396208000
Fix,GT,37.3448839,-121.909689,-12.46999286131654,5.107093,0.1,224.60857,1617396209000
Fix,GT,37.3448509,-121.9097354,-12.4339930007942,5.8056397,0.1,228.64914,1617396210000
Fix,GT,37.3448173,-121.909785,-12.383993139503058,5.6836557,0.1,229.5654,1617396211000
Fix,GT,37.3447847,-121.909833,-12.371996692001586,5.4715905,0.1,229.26997,1617396212000
Fix,GT,37.344753,-121.9098787,-12.330989635016769,5.2848253,0.099,228.79317,1617396213000
Fix,GT,37.3447209,-121.9099246,-12.30498599325749,5.5720506,0.099,228.80919,1617396214000
Fix,GT,37.3446864,-121.9099737,-12.266006744762882,6.0305324,0.1,228.57108,1617396215000
Fix,GT,37.3446485,-121.9100273,-12.234033960204572,6.6677313,0.1,228.44397,1617396216000
Fix,GT,37.3446074,-121.9100858,-12.186945415823953,6.9827623,0.1,228.60587,1617396217000
Fix,GT,37.3445668,-121.9101443,-12.172979224609907,6.7505493,0.1,228.94589,1617396218000
Fix,GT,37.3445279,-121.910201,-12.136986434865513,6.517843,0.1,229.29321,1617396219000
Fix,GT,37.3444903,-121.9102559,-12.112040992059743,6.2825437,0.1,229.25655,1617396220000
Fix,GT,37.3444542,-121.9103089,-12.082941936719232,6.0498433,0.1,229.2091,1617396221000
Fix,GT,37.3444192,-121.9103593,-12.06303054527007,5.8071904,0.099,229.02083,1617396222000
Fix,GT,37.3443854,-121.9104078,-12.037982965950388,5.569306,0.1,228.48619,1617396223000
Fix,GT,37.3443525,-121.9104538,-12.027958823729309,5.3698993,0.1,228.17114,1617396224000
Fix,GT,37.3443211,-121.9104982,-11.992000083763154,5.1539936,0.1,228.46623,1617396225000
Fix,GT,37.3442914,-121.9105411,-11.980968985591083,4.8837023,0.099,229.02513,1617396226000
Fix,GT,37.3442643,-121.9105813,-11.971000117063058,4.392019,0.1,229.6206,1617396227000
Fix,GT,37.3442408,-121.910616,-11.916999658718938,3.5871441,0.1,229.28258,1617396228000
Fix,GT,37.3442223,-121.9106421,-11.92798942052736,2.708997,0.1,228.22453,1617396229000
Fix,GT,37.3442052,-121.9106627,-11.91598991126474,2.648295,0.1,224.46918,1617396230000
Fix,GT,37.3441832,-121.9106793,-11.89200996507355,3.0279005,0.099,212.32018,1617396231000
Fix,GT,37.3441528,-121.9106872,-11.847986523337664,3.6929529,0.1,193.50215,1617396232000
Fix,GT,37.3441154,-121.9106823,-11.809958952271844,4.5744,0.1,173.8534,1617396233000
Fix,GT,37.3440722,-121.9106612,-11.707951895925216,5.6251173,0.1,157.4878,1617396234000
Fix,GT,37.3440246,-121.9106235,-11.6449928302397,6.856797,0.1,145.31189,1617396235000
Fix,GT,37.3439719,-121.9105704,-11.656990006822165,8.082335,0.1,140.53851,1617396236000
Fix,GT,37.343913,-121.9105064,-11.656003468789626,9.230307,0.1,138.83911,1617396237000
Fix,GT,37.343846,-121.9104339,-11.648979546726448,10.408923,0.1,138.95135,1617396238000
Fix,GT,37.3437716,-121.9103521,-11.632996549796312,11.445635,0.1,138.42886,1617396239000
Fix,GT,37.3436943,-121.9102657,-11.589972392094325,11.493885,0.1,138.31818,1617396240000
Fix,GT,37.3436172,-121.910181,-11.588999660017436,11.303176,0.1,138.72961,1617396241000
Fix,GT,37.3435407,-121.9100986,-11.605996373520233,10.989274,0.1,139.3418,1617396242000
Fix,GT,37.3434687,-121.9100218,-11.591003691203891,9.905037,0.1,139.50089,1617396243000
Fix,GT,37.3434058,-121.9099549,-11.592993329629302,8.331049,0.1,139.51831,1617396244000
Fix,GT,37.3433555,-121.9099013,-11.59901353044482,6.279027,0.1,139.20593,1617396245000
Fix,GT,37.3433207,-121.9098632,-11.63101389373187,3.9197464,0.1,138.65857,1617396246000
Fix,GT,37.3433017,-121.909842,-11.661006953021513,1.9431436,0.1,138.31384,1617396247000
Fix,GT,37.343292,-121.9098311,-11.680999776985033,1.1179384,0.099,138.138,1617396248000
Fix,GT,37.3432868,-121.9098253,-11.688003681165863,0.381478,0.1,138.13074,1617396249000
Fix,GT,37.3432862,-121.9098246,-11.6930035834969,0.003596633,0.1,138.13083,1617396250000
Fix,GT,37.3432862,-121.9098246,-11.69300006261724,0.0010034231,0.1,138.13171,1617396251000
Fix,GT,37.3432862,-121.9098247,-11.69099653856177,0.001,0.1,138.12949,1617396252000
Fix,GT,37.3432862,-121.9098247,-11.689003170445096,0.0079191625,0.1,138.13147,1617396253000
Fix,GT,37.3432845,-121.9098227,-11.692003301238408,0.5370374,0.1,138.12634,1617396254000
Fix,GT,37.3432786,-121.9098161,-11.699003314964472,1.1889998,0.1,138.09229,1617396255000
Fix,GT,37.3432675,-121.9098034,-11.7070065239158,2.2489886,0.1,137.81366,1617396256000
Fix,GT,37.34325,-121.9097798,-11.705996499345638,3.4625292,0.1,133.2508,1617396257000
Fix,GT,37.3432322,-121.9097388,-11.62801706604543,4.694598,0.1,117.76367,1617396258000
Fix,GT,37.3432224,-121.9096786,-11.580955787036569,6.0443273,0.1,99.17743,1617396259000
Fix,GT,37.3432276,-121.9096028,-11.465976350064857,7.414597,0.1,81.70438,1617396260000
Fix,GT,37.3432528,-121.909516,-11.445020778422943,8.827273,0.1,65.948395,1617396261000
Fix,GT,37.3432985,-121.9094238,-11.525003672430293,10.407908,0.1,55.12863,1617396262000
Fix,GT,37.3433625,-121.9093262,-11.54502070526965,11.934375,0.1,48.66089,1617396263000
Fix,GT,37.3434389,-121.9092192,-11.607048134675948,13.4895525,0.1,47.849213,1617396264000
Fix,GT,37.3435251,-121.9091003,-11.696017321973573,14.892007,0.1,47.42383,1617396265000
Fix,GT,37.3436167,-121.9089739,-11.774058107611722,15.160172,0.1,48.013123,1617396266000
Fix,GT,37.3437077,-121.908846,-11.865041462953204,15.347644,0.1,48.051514,1617396267000
Fix,GT,37.343801,-121.9087148,-11.947017379432916,15.819567,0.1,48.23703,1617396268000
Fix,GT,37.3438971,-121.9085789,-12.03002365974756,16.364004,0.1,48.470764,1617396269000
Fix,GT,37.3439962,-121.9084379,-12.085041294811994,16.925251,0.1,48.70517,1617396270000
Fix,GT,37.3440986,-121.9082915,-12.201910946961492,17.532743,0.1,48.617004,1617396271000
Fix,GT,37.3442044,-121.9081406,-12.17001355272159,18.030588,0.1,48.62915,1617396272000
Fix,GT,37.3443128,-121.907986,-12.108952348159391,18.375483,0.1,48.622894,1617396273000
Fix,GT,37.3444226,-121.9078291,-12.017979785506617,18.601423,0.1,48.74878,1617396274000
Fix,GT,37.3445336,-121.9076701,-11.96702425333159,18.829842,0.1,48.660553,1617396275000
Fix,GT,37.3446461,-121.9075088,-12.050041299548466,19.116201,0.1,48.813965,1617396276000
Fix,GT,37.3447588,-121.9073463,-12.151993074115364,18.98084,0.099,48.934082,1617396277000
Fix,GT,37.3448697,-121.9071859,-12.043975706695813,18.610186,0.099,49.08969,1617396278000
Fix,GT,37.3449776,-121.9070276,-12.07092097346112,18.261436,0.1,49.80066,1617396279000
Fix,GT,37.345082,-121.9068709,-12.00194546883693,17.900312,0.1,50.309204,1617396280000
Fix,GT,37.3451833,-121.9067168,-11.8089653543639,17.530386,0.1,50.57968,1617396281000
Fix,GT,37.3452828,-121.9065643,-11.506824743017557,17.367609,0.1,50.621735,1617396282000
Fix,GT,37.3453815,-121.9064136,-10.917722069881387,17.125303,0.1,50.41101,1617396283000
Fix,GT,37.345479,-121.9062666,-10.045667181527474,16.749197,0.1,49.996216,1617396284000
Fix,GT,37.3455744,-121.9061254,-9.031687760768223,15.996122,0.099,49.434296,1617396285000
Fix,GT,37.3456672,-121.9059933,-8.155739221967758,15.170235,0.1,47.64328,1617396286000
Fix,GT,37.3457596,-121.9058738,-7.390732280862983,14.320805,0.1,44.53766,1617396287000
Fix,GT,37.3458495,-121.9057636,-6.731794048536569,13.598012,0.1,44.434326,1617396288000
Fix,GT,37.3459358,-121.9056603,-6.126835290696937,12.916886,0.1,42.8573,1617396289000
Fix,GT,37.3460187,-121.9055632,-5.6078352866228665,12.25242,0.1,43.242035,1617396290000
Fix,GT,37.3460964,-121.9054702,-5.148900444447994,11.662318,0.1,44.02249,1617396291000
Fix,GT,37.3461687,-121.9053785,-4.792862640685635,11.205044,0.1,45.98831,1617396292000
Fix,GT,37.3462362,-121.9052878,-4.444890060679288,10.767959,0.099,47.352783,1617396293000
Fix,GT,37.3463,-121.9051994,-4.153893498692661,10.361833,0.099,48.0224,1617396294000
Fix,GT,37.3463603,-121.9051147,-3.94094499978004,9.593645,0.1,48.177643,1617396295000
Fix,GT,37.3464132,-121.9050398,-3.8039554558566304,8.04961,0.1,48.459534,1617396296000
Fix,GT,37.3464558,-121.9049792,-3.696965683558956,6.232996,0.1,48.518463,1617396297000
Fix,GT,37.3464865,-121.9049357,-3.6169862541342153,3.9438632,0.1,48.496338,1617396298000
Fix,GT,37.3465044,-121.9049103,-3.5899965975726955,2.1575928,0.1,48.55316,1617396299000
Fix,GT,37.3465139,-121.9048968,-3.5810000725376887,1.0777508,0.1,48.579712,1617396300000
Fix,GT,37.3465173,-121.904892,-3.5860035131634214,0.046830155,0.1,48.57669,1617396301000
Fix,GT,37.3465173,-121.9048921,-3.5989999421809338,0.002236068,0.099,48.582825,1617396302000
Fix,GT,37.3465172,-121.9048922,-3.602999947988894,0.0031617202,0.1,48.578766,1617396303000
Fix,GT,37.3465172,-121.9048923,-3.6029999890944455,0.002235257,0.1,48.58023,1617396304000
Fix,GT,37.3465172,-121.9048923,-3.6029999949666673,0.0014142136,0.1,48.580536,1617396305000
Fix,GT,37.3465172,-121.9048923,-3.603000036911108,0.002231821,0.1,48.579865,1617396306000
Fix,GT,37.3465172,-121.9048923,-3.602999970638892,0.0022381034,0.1,48.580048,1617396307000
Fix,GT,37.3465172,-121.9048923,-3.602999976511114,0.0022332438,0.1,48.58014,1617396308000
Fix,GT,37.3465172,-121.9048923,-3.603000017616665,0.0014142136,0.1,48.580475,1617396309000
Fix,GT,37.3465172,-121.9048923,-3.602999987416668,0.001,0.1,48.580414,1617396310000
Fix,GT,37.3465172,-121.9048923,-3.60299999328889,0.0014127898,0.1,48.580597,1617396311000
Fix,GT,37.3465172,-121.9048923,-3.602999999161112,0.001,0.1,48.580566,1617396312000
Fix,GT,37.3465172,-121.9048923,-3.6029999689611145,0.001,0.1,48.58069,1617396313000
Fix,GT,37.3465172,-121.9048923,-3.603000046138885,3.4378302e-06,0.1,48.58072,1617396314000
Fix,GT,37.3465172,-121.9048923,-3.603000088083325,0.0,0.1,48.580963,1617396315000
Fix,GT,37.3465172,-121.9048923,-3.603000057883328,4.8625047e-06,0.1,48.580933,1617396316000
Fix,GT,37.3465172,-121.9048923,-3.6030000637555495,0.001,0.1,48.58087,1617396317000
Fix,GT,37.3465172,-121.9048923,-3.6030000696277713,0.0010042506,0.1,48.58084,1617396318000
Fix,GT,37.3465172,-121.9048923,-3.603000074661104,0.0022332417,0.1,48.581116,1617396319000
Fix,GT,37.3465171,-121.9048923,-3.602000080510974,0.0020039976,0.1,48.58194,1617396320000
Fix,GT,37.3465171,-121.9048924,-3.6009999077734536,0.0031548406,0.099,48.57965,1617396321000
Fix,GT,37.3465172,-121.9048922,-3.603999949652701,0.18256082,0.1,48.58554,1617396322000
Fix,GT,37.3465212,-121.9048865,-3.596993110747775,1.3022027,0.1,48.616882,1617396323000
Fix,GT,37.3465329,-121.9048698,-3.5659897115707864,2.7367268,0.1,48.704987,1617396324000
Fix,GT,37.3465545,-121.9048385,-3.525989716234151,4.556002,0.1,48.829712,1617396325000
Fix,GT,37.346587,-121.9047917,-3.474993161381456,6.516177,0.1,48.93448,1617396326000
Fix,GT,37.3466306,-121.9047294,-3.412010404030327,7.9554873,0.1,48.43402,1617396327000
Fix,GT,37.3466829,-121.904662,-3.4179828805441503,8.640508,0.1,43.46701,1617396328000
Fix,GT,37.3467472,-121.9046048,-3.370003432878992,8.7165,0.1,31.195496,1617396329000
Fix,GT,37.3468199,-121.9045687,-3.3920309725916016,8.718356,0.1,18.32486,1617396330000
Fix,GT,37.3468994,-121.9045508,-3.5780654354861468,9.2048645,0.1,6.5811768,1617396331000
Fix,GT,37.3469861,-121.9045514,-3.8300861023692416,10.085517,0.1,356.57425,1617396332000
Fix,GT,37.3470801,-121.9045705,-4.125113495893311,11.0016,0.1,347.79803,1617396333000
Fix,GT,37.347177,-121.9046104,-4.281013795999111,11.591574,0.1,338.12955,1617396334000
Fix,GT,37.3472715,-121.9046735,-4.262013888221699,12.127193,0.1,328.24988,1617396335000
Fix,GT,37.3473589,-121.9047604,-4.129969088549027,12.624123,0.1,317.37006,1617396336000
Fix,GT,37.3474342,-121.904868,-4.172062068480998,12.647363,0.1,308.09845,1617396337000
Fix,GT,37.3475004,-121.9049837,-4.477165307943943,12.609474,0.1,304.58374,1617396338000
Fix,GT,37.3475644,-121.9051055,-5.118309825628995,13.327341,0.1,302.84836,1617396339000
Fix,GT,37.3476316,-121.9052379,-6.092330559095368,14.531854,0.099,302.19498,1617396340000
Fix,GT,37.3477049,-121.9053829,-7.076330723076127,15.842431,0.1,302.52332,1617396341000
Fix,GT,37.347785,-121.9055396,-8.034330521943513,17.10871,0.1,302.56396,1617396342000
Fix,GT,37.3478714,-121.9057084,-8.919289462579648,18.43453,0.1,302.55862,1617396343000
Fix,GT,37.3479642,-121.9058898,-9.673172273270088,19.709627,0.1,302.62857,1617396344000
Fix,GT,37.3480632,-121.9060823,-10.287199863751653,20.82936,0.1,302.82343,1617396345000
Fix,GT,37.3481681,-121.9062842,-10.689100080349016,21.797293,0.1,302.97894,1617396346000
Fix,GT,37.3482778,-121.9064939,-10.895041528128552,22.62119,0.1,303.22586,1617396347000
Fix,GT,37.3483923,-121.9067099,-10.816831441849471,23.275486,0.1,303.61823,1617396348000
Fix,GT,37.3485114,-121.9069295,-10.380889816396405,23.730055,0.1,304.76746,1617396349000
Fix,GT,37.3486376,-121.9071468,-10.015876134786756,23.892307,0.1,307.1183,1617396350000
Fix,GT,37.3487719,-121.9073587,-9.64588254902698,24.125477,0.099,309.5101,1617396351000
Fix,GT,37.3489158,-121.9075655,-9.251865420744522,24.490858,0.1,312.00058,1617396352000
Fix,GT,37.3490662,-121.907768,-8.890848282910651,24.3722,0.1,313.631,1617396353000
Fix,GT,37.3492193,-121.9079618,-8.554851905554532,23.922798,0.1,315.47873,1617396354000
Fix,GT,37.3493746,-121.9081447,-8.181793368637562,23.410131,0.1,317.72937,1617396355000
Fix,GT,37.3495327,-121.908315,-7.717913730810396,22.904894,0.1,320.4806,1617396356000
Fix,GT,37.3496933,-121.908473,-7.454896645738044,22.443398,0.1,322.92288,1617396357000
Fix,GT,37.3498555,-121.9086197,-7.114896716553486,21.980501,0.1,324.99762,1617396358000
Fix,GT,37.3500189,-121.9087561,-6.821944659709464,21.68782,0.1,327.27838,1617396359000
Fix,GT,37.350186,-121.9088837,-6.5239034117683765,21.806362,0.1,329.72452,1617396360000
Fix,GT,37.3503589,-121.909003,-6.283817242062884,22.030102,0.1,332.36096,1617396361000
Fix,GT,37.3505375,-121.9091142,-5.919930899464525,22.253918,0.1,334.37344,1617396362000
Fix,GT,37.350721,-121.9092192,-5.599937919918913,22.541714,0.1,335.86127,1617396363000
Fix,GT,37.3509084,-121.9093207,-5.322875819346402,22.810719,0.1,337.03305,1617396364000
Fix,GT,37.351099,-121.9094197,-4.871862111248076,23.00251,0.1,337.50754,1617396365000
Fix,GT,37.3512916,-121.9095181,-4.438827590086032,23.146614,0.1,337.78284,1617396366000
Fix,GT,37.3514853,-121.9096174,-3.9758377257257234,23.330944,0.1,337.53827,1617396367000
Fix,GT,37.3516803,-121.9097184,-3.548892912816722,23.496952,0.1,337.41843,1617396368000
Fix,GT,37.351876,-121.909821,-3.1799171442277734,23.575136,0.1,337.13235,1617396369000
Fix,GT,37.3520722,-121.909925,-2.9529378843442537,23.733942,0.1,336.9661,1617396370000
Fix,GT,37.3522698,-121.9100307,-2.7389551425073293,23.99676,0.1,336.75317,1617396371000
Fix,GT,37.3524697,-121.9101399,-2.629972430163063,24.436441,0.1,336.03278,1617396372000
Fix,GT,37.3526726,-121.9102543,-2.5369585956488736,24.920135,0.1,335.53165,1617396373000
Fix,GT,37.3528778,-121.9103724,-2.486027576453053,25.184612,0.1,335.06534,1617396374000
Fix,GT,37.3530842,-121.9104938,-2.490972384440247,25.453989,0.1,334.6307,1617396375000
Fix,GT,37.3532925,-121.9106184,-2.520031065801624,25.772104,0.1,334.263,1617396376000
Fix,GT,37.3535027,-121.9107462,-2.5840379787057173,26.096945,0.1,333.92316,1617396377000
Fix,GT,37.3537149,-121.910878,-2.712044892659411,26.46762,0.1,333.2691,1617396378000
Fix,GT,37.3539289,-121.9110145,-2.8901864554286005,26.82758,0.1,332.74307,1617396379000
Fix,GT,37.3541443,-121.9111553,-3.1251243566533087,27.038782,0.1,332.20004,1617396380000
Fix,GT,37.3543604,-121.9112984,-3.3901728024333715,27.230545,0.1,332.0048,1617396381000
Fix,GT,37.354576,-121.9114445,-3.729044855922461,27.112577,0.1,331.15662,1617396382000
Fix,GT,37.3547883,-121.9115931,-3.990259069794557,26.859423,0.1,330.48782,1617396383000
Fix,GT,37.3549976,-121.911743,-4.50117966410541,26.700089,0.1,330.15762,1617396384000
Fix,GT,37.3552063,-121.9118939,-4.967190050303936,26.80132,0.1,329.68118,1617396385000
Fix,GT,37.355415,-121.912048,-5.587217661647126,26.978254,0.099,329.43408,1617396386000
Fix,GT,37.3556253,-121.9122028,-6.332304141880013,27.183678,0.1,329.60287,1617396387000
Fix,GT,37.3558373,-121.9123594,-7.1352315251794645,27.404593,0.1,329.15692,1617396388000
Fix,GT,37.3560504,-121.9125179,-7.875273186321371,27.601019,0.1,329.34616,1617396389000
Fix,GT,37.356265,-121.9126758,-8.613228381531313,27.60819,0.1,329.47513,1617396390000
Fix,GT,37.3564789,-121.9128336,-9.339266456808897,27.487293,0.1,329.33554,1617396391000
Fix,GT,37.3566916,-121.9129913,-10.08628319827281,27.373034,0.1,329.20932,1617396392000
Fix,GT,37.3569033,-121.9131485,-10.853259011879564,27.25416,0.1,329.22137,1617396393000
Fix,GT,37.3571137,-121.9133056,-11.520224454243436,27.121857,0.1,329.05972,1617396394000
Fix,GT,37.3573229,-121.9134623,-12.148221257510595,26.975517,0.1,329.0182,1617396395000
Fix,GT,37.3575308,-121.9136184,-12.71918325180374,26.80154,0.1,328.94336,1617396396000
Fix,GT,37.3577371,-121.9137735,-13.194155485338998,26.608799,0.1,328.96252,1617396397000
Fix,GT,37.3579422,-121.9139269,-13.53814513869118,26.391602,0.1,329.14584,1617396398000
Fix,GT,37.3581458,-121.9140782,-13.851097022509668,26.156914,0.1,329.2618,1617396399000
Fix,GT,37.3583475,-121.9142278,-14.076058444703463,25.884283,0.1,329.3022,1617396400000
Fix,GT,37.3585473,-121.9143759,-14.22002747638896,25.684694,0.1,329.2875,1617396401000
Fix,GT,37.3587463,-121.9145243,-14.331024327591528,25.749744,0.1,329.0589,1617396402000
Fix,GT,37.3589461,-121.9146734,-14.387010366210712,25.857342,0.1,329.1621,1617396403000
Fix,GT,37.3591468,-121.9148228,-14.456072817345614,25.981495,0.1,329.1014,1617396404000
Fix,GT,37.3593484,-121.9149732,-14.561023826001213,26.112116,0.1,329.22998,1617396405000
Fix,GT,37.3595514,-121.915124,-14.620030917603756,26.259275,0.1,329.14044,1617396406000
Fix,GT,37.3597558,-121.9152765,-14.67404132202873,26.616735,0.1,329.15222,1617396407000
Fix,GT,37.3599636,-121.9154316,-14.77901711973548,27.067062,0.099,329.17545,1617396408000
Fix,GT,37.3601745,-121.9155879,-14.867055218909636,27.291485,0.1,329.42865,1617396409000
Fix,GT,37.3603868,-121.9157448,-14.981979540735482,27.419209,0.1,329.3641,1617396410000
Fix,GT,37.3606002,-121.9159024,-15.058045038980898,27.540354,0.1,329.3807,1617396411000
Fix,GT,37.3608142,-121.9160605,-15.157010442703962,27.592651,0.1,329.2815,1617396412000
Fix,GT,37.3610278,-121.9162194,-15.10897915578354,27.562708,0.1,329.11487,1617396413000
Fix,GT,37.3612408,-121.9163783,-15.053934467036976,27.400461,0.1,329.16315,1617396414000
Fix,GT,37.361452,-121.9165356,-14.866910392441556,27.13892,0.1,329.1784,1617396415000
Fix,GT,37.3616609,-121.9166914,-14.553878507909364,26.84447,0.1,329.06613,1617396416000
Fix,GT,37.3618679,-121.9168453,-14.247868138784076,26.576046,0.099,329.24887,1617396417000
Fix,GT,37.362073,-121.9169975,-13.705823408987373,26.339506,0.1,329.19604,1617396418000
Fix,GT,37.3622761,-121.9171493,-13.110788777796088,26.164461,0.1,329.0066,1617396419000
Fix,GT,37.362478,-121.9173002,-12.47075722984923,26.01861,0.099,329.2182,1617396420000
Fix,GT,37.3626792,-121.9174501,-11.790754018133509,25.953533,0.1,329.17255,1617396421000
Fix,GT,37.3628798,-121.917599,-11.126774918227923,25.809431,0.1,329.26,1617396422000
Fix,GT,37.3630792,-121.9177472,-10.414743728668428,25.631868,0.1,329.21127,1617396423000
Fix,GT,37.3632765,-121.9178944,-9.5957121472992,25.34112,0.1,329.11847,1617396424000
Fix,GT,37.3634715,-121.9180406,-8.80374005980161,25.116253,0.1,329.11093,1617396425000
Fix,GT,37.363665,-121.9181851,-8.057889078604058,24.902567,0.1,329.26944,1617396426000
Fix,GT,37.3638568,-121.9183296,-7.662857892044355,24.791683,0.1,328.89847,1617396427000
Fix,GT,37.3640477,-121.9184736,-7.245864824959776,24.677752,0.1,329.02502,1617396428000
Fix,GT,37.3642369,-121.9186169,-6.905958212576341,24.362207,0.1,328.57104,1617396429000
Fix,GT,37.3644214,-121.9187619,-6.740909693133085,23.966053,0.099,327.42953,1617396430000
Fix,GT,37.3646015,-121.9189104,-6.49991663741041,23.943872,0.099,325.9619,1617396431000
Fix,GT,37.3647791,-121.919065,-6.284920112750959,24.06747,0.099,324.4625,1617396432000
Fix,GT,37.3649545,-121.919226,-6.199947919616243,24.18524,0.1,323.0453,1617396433000
Fix,GT,37.3651268,-121.9193922,-6.161027741914848,24.001453,0.1,321.90787,1617396434000
Fix,GT,37.3652948,-121.9195604,-6.181941180922324,23.748463,0.1,320.88406,1617396435000
Fix,GT,37.36546,-121.9197323,-6.283017486587167,23.941143,0.1,319.6175,1617396436000
Fix,GT,37.3656232,-121.9199112,-6.404045183196663,24.208984,0.1,318.13138,1617396437000
Fix,GT,37.3657848,-121.9200973,-6.55204159923736,24.492626,0.1,316.74026,1617396438000
Fix,GT,37.365945,-121.9202905,-6.6920590234545525,24.933437,0.1,315.47592,1617396439000
Fix,GT,37.3661053,-121.9204928,-6.866027955183293,25.71066,0.1,314.1759,1617396440000
Fix,GT,37.3662673,-121.9207065,-7.015044971478171,26.378681,0.099,312.7458,1617396441000
Fix,GT,37.3664279,-121.9209294,-7.164065944422502,26.782803,0.1,311.30267,1617396442000
Fix,GT,37.3665856,-121.9211609,-7.326052155867219,27.12764,0.1,309.5011,1617396443000
Fix,GT,37.3667398,-121.9214014,-7.529100455859676,27.54112,0.1,308.21075,1617396444000
Fix,GT,37.3668933,-121.9216491,-7.799114350365475,28.009613,0.1,307.625,1617396445000
Fix,GT,37.3670487,-121.9219014,-8.045080059616826,28.467234,0.1,307.49475,1617396446000
Fix,GT,37.3672057,-121.9221582,-8.398124792892952,28.81391,0.1,307.28082,1617396447000
Fix,GT,37.3673643,-121.9224179,-8.708079684990691,29.080328,0.1,307.39618,1617396448000
Fix,GT,37.3675238,-121.9226788,-8.980128478434867,29.062616,0.1,307.36746,1617396449000
Fix,GT,37.3676825,-121.9229379,-9.345121655156836,28.80344,0.1,307.39374,1617396450000
Fix,GT,37.3678396,-121.9231947,-9.730159874942151,28.5156,0.1,307.39047,1617396451000
Fix,GT,37.367995,-121.9234491,-10.212208519130945,28.269176,0.1,307.335,1617396452000
Fix,GT,37.3681495,-121.9237015,-10.843239274032412,28.16527,0.099,307.50714,1617396453000
Fix,GT,37.3683048,-121.9239555,-11.44834358193283,28.546883,0.1,307.2926,1617396454000
Fix,GT,37.3684618,-121.9242129,-12.173215367189608,28.78614,0.1,307.3791,1617396455000
Fix,GT,37.3686195,-121.9244702,-12.938281263191254,28.729944,0.1,307.47028,1617396456000
Fix,GT,37.3687781,-121.9247286,-13.82636812912114,29.058826,0.1,307.4765,1617396457000
Fix,GT,37.3689378,-121.9249899,-14.994396115221084,29.178415,0.1,307.36374,1617396458000
Fix,GT,37.3690989,-121.9252497,-16.143374700540445,29.12421,0.1,308.062,1617396459000
Fix,GT,37.3692642,-121.9255043,-17.117256951706253,28.924582,0.1,310.5397,1617396460000
Fix,GT,37.3694416,-121.9257386,-17.855291735542938,28.378523,0.099,316.66632,1617396461000
Fix,GT,37.3696348,-121.9259456,-18.7342641738886,28.153893,0.1,321.37988,1617396462000
Fix,GT,37.3698363,-121.9261369,-19.510239905587166,27.996428,0.1,324.10532,1617396463000
Fix,GT,37.3700443,-121.926314,-20.172160036031155,27.805767,0.1,327.10028,1617396464000
Fix,GT,37.3702572,-121.9264758,-20.477048666961725,27.505861,0.1,330.3821,1617396465000
Fix,GT,37.3704758,-121.9266169,-20.53893749008188,27.114368,0.1,334.93884,1617396466000
Fix,GT,37.3706992,-121.9267335,-20.33185430547409,26.654362,0.1,339.5362,1617396467000
Fix,GT,37.3709247,-121.9268274,-19.911784604843707,26.078716,0.1,343.4482,1617396468000
Fix,GT,37.3711449,-121.9268992,-19.24072242607642,24.249926,0.1,346.84753,1617396469000
Fix,GT,37.3713479,-121.9269544,-18.506763215633576,21.932919,0.1,348.64572,1617396470000
Fix,GT,37.3715347,-121.9269989,-17.830787757065146,20.598513,0.099,349.3442,1617396471000
Fix,GT,37.3717144,-121.9270416,-17.178826365485087,20.068233,0.1,349.11298,1617396472000
Fix,GT,37.3718916,-121.9270843,-16.619781332369428,20.04485,0.1,348.965,1617396473000
Fix,GT,37.3720693,-121.9271283,-16.006750031997218,20.123508,0.1,348.59198,1617396474000
Fix,GT,37.3722472,-121.9271737,-15.31177012796374,20.191753,0.1,348.4431,1617396475000
Fix,GT,37.3724259,-121.9272199,-14.64974942943873,20.285944,0.1,348.1991,1617396476000
Fix,GT,37.3726057,-121.9272688,-13.98481232481054,20.603422,0.1,347.37662,1617396477000
Fix,GT,37.3727878,-121.9273237,-13.383784500004724,20.957464,0.1,345.4261,1617396478000
Fix,GT,37.37297,-121.9273913,-12.860847115630982,21.097916,0.1,342.06204,1617396479000
Fix,GT,37.3731472,-121.9274727,-12.51690613699844,20.748695,0.1,338.15134,1617396480000
Fix,GT,37.3733169,-121.9275695,-12.226975973335094,20.676382,0.1,333.45535,1617396481000
Fix,GT,37.37348,-121.9276849,-11.967007298706566,20.810366,0.1,328.2871,1617396482000
Fix,GT,37.3736349,-121.9278153,-11.912986320059282,20.550842,0.1,324.11658,1617396483000
Fix,GT,37.3737796,-121.9279576,-11.929038536761889,20.22751,0.1,320.2802,1617396484000
Fix,GT,37.3739141,-121.9281099,-12.072062559749464,19.93344,0.1,315.90646,1617396485000
Fix,GT,37.3740375,-121.9282721,-12.285076627108968,19.690166,0.1,311.78143,1617396486000
Fix,GT,37.3741496,-121.9284431,-12.573090573597002,19.470108,0.1,307.50906,1617396487000
Fix,GT,37.3742506,-121.9286221,-12.93516034915694,19.307137,0.1,303.4395,1617396488000
Fix,GT,37.3743407,-121.9288083,-13.40218114201678,19.201155,0.1,299.19043,1617396489000
Fix,GT,37.3744178,-121.9290027,-13.98432684498746,19.306269,0.1,294.5648,1617396490000
Fix,GT,37.3744839,-121.9292075,-14.675215754211417,19.92516,0.1,290.12756,1617396491000
Fix,GT,37.3745394,-121.9294249,-15.44029223309271,20.371578,0.1,285.7502,1617396492000
Fix,GT,37.3745818,-121.9296493,-16.36431348737376,20.466917,0.1,281.83545,1617396493000
Fix,GT,37.3746165,-121.9298778,-17.369323990474456,20.770817,0.1,280.17868,1617396494000
Fix,GT,37.3746484,-121.9301096,-18.256250912174583,20.864935,0.1,279.7264,1617396495000
Fix,GT,37.3746801,-121.9303415,-18.99825445010164,20.798481,0.1,279.71777,1617396496000
Fix,GT,37.3747135,-121.9305716,-19.61922992824553,20.548624,0.1,281.0901,1617396497000
Fix,GT,37.3747498,-121.9307947,-20.11314309890988,19.745228,0.1,281.79898,1617396498000
Fix,GT,37.374786,-121.9310099,-20.50106302740332,19.360992,0.1,281.7886,1617396499000
Fix,GT,37.3748224,-121.9312223,-20.66704236787255,19.147856,0.1,282.44403,1617396500000
Fix,GT,37.3748615,-121.9314336,-20.76002395774261,19.37286,0.099,283.42773,1617396501000
Fix,GT,37.3749039,-121.9316482,-20.74297152253916,19.786777,0.099,284.10242,1617396502000
Fix,GT,37.3749488,-121.9318666,-20.671985494216905,20.164959,0.1,284.72144,1617396503000
Fix,GT,37.3749964,-121.9320873,-20.624986349168232,20.320269,0.1,285.28375,1617396504000
Fix,GT,37.3750459,-121.9323087,-20.557979616578667,20.36604,0.1,285.91104,1617396505000
Fix,GT,37.3750966,-121.9325284,-20.440986615916945,20.114485,0.1,286.0921,1617396506000
Fix,GT,37.3751472,-121.9327456,-20.38899609202053,20.051022,0.1,286.16068,1617396507000
Fix,GT,37.3751965,-121.9329642,-20.399002887271344,20.193401,0.1,285.21594,1617396508000
Fix,GT,37.3752427,-121.933184,-20.42701706834137,20.040926,0.1,284.35715,1617396509000
Fix,GT,37.375288,-121.9334026,-20.45002099826373,20.040789,0.1,284.55508,1617396510000
Fix,GT,37.3753331,-121.9336223,-20.50901406044327,20.140318,0.1,284.25122,1617396511000
Fix,GT,37.3753786,-121.933843,-20.500996656497943,20.229504,0.1,284.3817,1617396512000
Fix,GT,37.3754236,-121.9340647,-20.54401781741157,20.326477,0.1,283.81152,1617396513000
Fix,GT,37.3754678,-121.9342875,-20.61403180227266,20.28078,0.1,283.86157,1617396514000
Fix,GT,37.3755108,-121.9345089,-20.67599656066997,20.05827,0.1,283.4515,1617396515000
Fix,GT,37.3755516,-121.9347281,-20.72602079590689,19.875605,0.1,282.58264,1617396516000
Fix,GT,37.3755928,-121.9349462,-20.80497897547949,19.770748,0.1,283.63684,1617396517000
Fix,GT,37.375635,-121.9351617,-20.79603153896844,19.531406,0.1,283.60928,1617396518000
Fix,GT,37.3756754,-121.935375,-20.866003877099605,19.357176,0.1,283.05203,1617396519000
Fix,GT,37.375714,-121.9355899,-20.917009847564625,19.734163,0.1,282.0017,1617396520000
Fix,GT,37.3757501,-121.9358127,-20.94401706921658,20.642029,0.1,280.89606,1617396521000
Fix,GT,37.3757851,-121.9360477,-20.978007056549192,21.700428,0.1,280.2451,1617396522000
Fix,GT,37.3758203,-121.9362939,-21.014037875330075,22.542164,0.099,280.20126,1617396523000
Fix,GT,37.3758599,-121.9365463,-21.06200998854964,23.010784,0.099,281.94754,1617396524000
Fix,GT,37.3759057,-121.9368026,-21.097000599267428,23.594484,0.1,282.979,1617396525000
Fix,GT,37.3759552,-121.937066,-21.1390108937854,24.346434,0.1,283.4606,1617396526000
Fix,GT,37.3760081,-121.9373369,-21.23100987807289,25.076462,0.1,283.69238,1617396527000
Fix,GT,37.3760624,-121.9376162,-21.26602387511521,25.848618,0.1,283.64938,1617396528000
Fix,GT,37.376119,-121.9379036,-21.342013431909027,26.622969,0.1,283.84216,1617396529000
Fix,GT,37.3761777,-121.9381997,-21.409021510047605,27.416513,0.1,283.87103,1617396530000
Fix,GT,37.3762379,-121.9385041,-21.443035298029194,28.124517,0.1,283.88095,1617396531000
Fix,GT,37.3762996,-121.9388156,-21.52801460301224,28.655045,0.1,283.84827,1617396532000
Fix,GT,37.3763623,-121.9391318,-21.61102404551627,29.08186,0.1,283.89212,1617396533000
Fix,GT,37.3764259,-121.9394522,-21.68404175385833,29.364367,0.1,283.86752,1617396534000
Fix,GT,37.37649,-121.9397751,-21.77101036046399,29.580946,0.1,283.92914,1617396535000
Fix,GT,37.3765541,-121.9401005,-21.83502109286445,29.811823,0.1,283.7732,1617396536000
Fix,GT,37.3766186,-121.9404285,-21.89300715899048,30.00637,0.1,283.72186,1617396537000
Fix,GT,37.3766827,-121.9407584,-21.91497597187664,30.133057,0.1,283.53326,1617396538000
Fix,GT,37.3767463,-121.9410896,-21.95207622481464,30.204796,0.1,283.51874,1617396539000
Fix,GT,37.3768101,-121.9414216,-22.04002080765273,30.287678,0.1,283.47754,1617396540000
Fix,GT,37.3768739,-121.9417542,-22.02094768966781,30.305563,0.1,283.45386,1617396541000
Fix,GT,37.3769372,-121.942087,-21.964930470875696,30.301662,0.1,283.3638,1617396542000
Fix,GT,37.3770009,-121.9424196,-21.818972431370057,30.289206,0.1,283.6494,1617396543000
Fix,GT,37.3770659,-121.9427518,-21.76295762396208,30.295696,0.099,283.66833,1617396544000
Fix,GT,37.3771302,-121.9430841,-21.678968571498523,30.273037,0.1,283.52905,1617396545000
Fix,GT,37.3771944,-121.943416,-21.542940427978987,30.212711,0.1,283.4039,1617396546000
Fix,GT,37.3772574,-121.9437464,-21.3079336828019,29.893717,0.1,283.31866,1617396547000
Fix,GT,37.3773194,-121.9440728,-21.074943776625208,29.617882,0.1,283.30554,1617396548000
Fix,GT,37.3773811,-121.9443982,-20.971996875272133,29.64101,0.1,283.36493,1617396549000
Fix,GT,37.3774436,-121.9447238,-21.028066205580952,29.679413,0.1,283.53323,1617396550000
Fix,GT,37.3775068,-121.9450497,-21.2581643531986,29.723532,0.1,283.65033,1617396551000
Fix,GT,37.3775706,-121.9453758,-21.67313992415648,29.77029,0.1,283.77075,1617396552000
Fix,GT,37.3776353,-121.9457024,-22.272255361922547,29.848413,0.1,283.95782,1617396553000
Fix,GT,37.3777005,-121.9460302,-23.06728013160359,29.994907,0.1,283.9735,1617396554000
Fix,GT,37.3777667,-121.9463595,-23.86628975133156,30.157207,0.099,284.1716,1617396555000
Fix,GT,37.3778336,-121.9466906,-24.749308506455503,30.360968,0.1,283.80344,1617396556000
Fix,GT,37.3778999,-121.9470244,-25.472198639773765,30.562265,0.099,283.81616,1617396557000
Fix,GT,37.3779657,-121.9473605,-25.912066010655604,30.69276,0.1,283.52716,1617396558000
Fix,GT,37.3780308,-121.9476972,-26.03896836364316,30.680859,0.1,283.4684,1617396559000
Fix,GT,37.3780958,-121.9480335,-25.82685670937085,30.594915,0.1,283.67047,1617396560000
Fix,GT,37.3781615,-121.9483681,-25.25872777891997,30.428066,0.1,283.68262,1617396561000
Fix,GT,37.3782272,-121.9487005,-24.45367407963192,30.238863,0.1,283.84006,1617396562000
Fix,GT,37.3782924,-121.9490307,-23.603741065015083,30.01227,0.1,283.9292,1617396563000
Fix,GT,37.3783577,-121.9493582,-22.913804304303603,29.760675,0.1,284.03323,1617396564000
Fix,GT,37.3784228,-121.9496815,-22.42586665291712,29.280542,0.099,284.1283,1617396565000
Fix,GT,37.3784859,-121.9499996,-22.1149576804,28.796257,0.1,283.76276,1617396566000
Fix,GT,37.3785478,-121.9503129,-22.002961435444654,28.390383,0.1,283.93832,1617396567000
Fix,GT,37.3786093,-121.9506219,-22.014003474892352,28.008402,0.1,283.92386,1617396568000
Fix,GT,37.37867,-121.9509266,-22.03099650949892,27.64093,0.1,284.02612,1617396569000
Fix,GT,37.3787313,-121.9512273,-22.04601076481189,27.401342,0.1,284.4757,1617396570000
Fix,GT,37.3787935,-121.9515261,-22.07202743458748,27.303108,0.1,284.6999,1617396571000
Fix,GT,37.378857,-121.951824,-22.11499968075892,27.318027,0.1,284.97705,1617396572000
Fix,GT,37.3789211,-121.9521223,-22.12099621496536,27.440563,0.1,285.04297,1617396573000
Fix,GT,37.3789873,-121.9524218,-22.12900347109605,27.610285,0.1,286.00616,1617396574000
Fix,GT,37.3790585,-121.952722,-22.218027366437948,27.879616,0.1,286.74252,1617396575000
Fix,GT,37.3791318,-121.9530257,-22.26503791082744,28.340496,0.099,286.71832,1617396576000
Fix,GT,37.3792062,-121.9533359,-22.299034446109086,29.014719,0.099,286.56885,1617396577000
Fix,GT,37.379282,-121.9536526,-22.34300055662845,29.533026,0.1,286.64417,1617396578000
Fix,GT,37.3793592,-121.9539734,-22.36200999427051,29.683043,0.1,287.04883,1617396579000
Fix,GT,37.3794387,-121.9542919,-22.39599601678829,29.408697,0.1,287.51953,1617396580000
Fix,GT,37.3795193,-121.9546063,-22.4039971639812,29.092329,0.1,288.0371,1617396581000
Fix,GT,37.3796014,-121.954916,-22.418982521858062,28.720097,0.1,288.59583,1617396582000
Fix,GT,37.3796846,-121.955222,-22.40302132269764,28.591007,0.1,288.87936,1617396583000
Fix,GT,37.3797691,-121.9555272,-22.436017856672407,28.632557,0.1,289.2589,1617396584000
Fix,GT,37.379855,-121.9558324,-22.43599948284496,28.709583,0.099,289.6272,1617396585000
Fix,GT,37.3799425,-121.9561379,-22.446985499295405,28.79585,0.099,289.6809,1617396586000
Fix,GT,37.38003,-121.9564434,-22.43902058195369,28.6316,0.099,289.71738,1617396587000
Fix,GT,37.3801168,-121.956746,-22.43999630645011,28.321445,0.1,289.65106,1617396588000
Fix,GT,37.3802023,-121.9570453,-22.437000073136296,27.99128,0.1,289.60797,1617396589000
Fix,GT,37.3802868,-121.957341,-22.45197250635736,27.638147,0.1,289.68024,1617396590000
Fix,GT,37.3803705,-121.9576328,-22.450007603076287,27.2875,0.1,289.77145,1617396591000
Fix,GT,37.3804544,-121.9579203,-22.4489931648518,26.945242,0.1,290.41122,1617396592000
Fix,GT,37.3805413,-121.9582021,-22.4570037210458,26.584799,0.1,291.74838,1617396593000
Fix,GT,37.380632,-121.9584777,-22.50102390936204,26.217377,0.1,292.9056,1617396594000
Fix,GT,37.3807243,-121.9587473,-22.57701036387123,25.728724,0.099,292.994,1617396595000
Fix,GT,37.3808146,-121.9590128,-22.618999878872884,25.393,0.1,293.07858,1617396596000
Fix,GT,37.3809042,-121.9592746,-22.644055811499246,25.086132,0.1,293.18335,1617396597000
Fix,GT,37.3809933,-121.959533,-22.77501398391579,24.767946,0.1,293.20203,1617396598000
Fix,GT,37.3810801,-121.9597887,-22.83000021262094,24.451286,0.1,292.71045,1617396599000
Fix,GT,37.3811639,-121.9600426,-23.017037933454848,24.24119,0.1,291.97546,1617396600000
Fix,GT,37.3812444,-121.9602969,-23.13303797047585,24.156057,0.1,291.21545,1617396601000
Fix,GT,37.381321,-121.960551,-23.227041982657973,24.003136,0.1,290.19235,1617396602000
Fix,GT,37.3813949,-121.9608066,-23.24905956369592,24.206242,0.1,289.60788,1617396603000
Fix,GT,37.3814692,-121.9610654,-23.27596882709209,24.536135,0.1,289.72986,1617396604000
Fix,GT,37.3815442,-121.9613276,-23.25301823051553,24.779863,0.1,289.57312,1617396605000
Fix,GT,37.3816194,-121.9615906,-23.2099934665598,24.620935,0.1,289.68738,1617396606000
Fix,GT,37.3816942,-121.9618507,-23.15397830835823,24.390308,0.099,289.66806,1617396607000
Fix,GT,37.3817672,-121.9621098,-23.06602161543816,24.261608,0.1,289.3697,1617396608000
Fix,GT,37.3818394,-121.9623664,-22.99595381033025,23.943695,0.1,289.45203,1617396609000
Fix,GT,37.3819112,-121.9626191,-22.948996895175423,23.542181,0.1,289.6438,1617396610000
Fix,GT,37.3819828,-121.9628669,-22.89495807421697,23.165644,0.1,290.05627,1617396611000
Fix,GT,37.3820561,-121.9631097,-22.873021542312348,22.823845,0.1,291.41718,1617396612000
Fix,GT,37.3821328,-121.9633468,-22.902004023529592,22.503517,0.1,292.32977,1617396613000
Fix,GT,37.3822091,-121.9635795,-22.87198887857655,21.9958,0.1,292.04224,1617396614000
Fix,GT,37.3822805,-121.9638052,-22.85700998821389,20.865612,0.1,291.34308,1617396615000
Fix,GT,37.3823463,-121.9640141,-22.86403109486564,18.81496,0.099,291.46463,1617396616000
Fix,GT,37.3824056,-121.9642,-22.946996466008947,16.601194,0.1,292.0497,1617396617000
Fix,GT,37.382465,-121.9643607,-23.067091581673825,14.861548,0.1,297.90497,1617396618000
Fix,GT,37.3825407,-121.9644892,-23.394097959404345,13.792396,0.099,313.22256,1617396619000
Fix,GT,37.3826403,-121.9645764,-23.478951145724626,13.370848,0.1,333.2137,1617396620000
Fix,GT,37.3827543,-121.9646109,-23.332916041818443,13.0138645,0.1,354.82132,1617396621000
Fix,GT,37.3828683,-121.9645904,-23.10788749697525,12.798564,0.1,16.625153,1617396622000
Fix,GT,37.3829669,-121.96452,-22.74985260824673,12.626853,0.1,37.571655,1617396623000
Fix,GT,37.3830391,-121.9644122,-22.291820778534284,12.522279,0.1,57.140106,1617396624000
Fix,GT,37.38308,-121.9642819,-21.682785438974385,12.463356,0.1,75.349884,1617396625000
Fix,GT,37.3830863,-121.9641427,-21.11879621853307,12.442116,0.1,93.69055,1617396626000
Fix,GT,37.3830572,-121.9640097,-20.46478569031786,12.049402,0.1,112.33893,1617396627000
Fix,GT,37.3829988,-121.9639007,-19.92383452158608,11.402329,0.1,130.53625,1617396628000
Fix,GT,37.3829198,-121.9638252,-19.358807187840345,10.8571415,0.1,149.24908,1617396629000
Fix,GT,37.3828285,-121.9637866,-18.839904697239863,10.807281,0.1,167.68787,1617396630000
Fix,GT,37.3827297,-121.9637855,-18.30179610066768,11.313414,0.1,185.24506,1617396631000
Fix,GT,37.3826279,-121.963813,-17.66678504148731,11.8909645,0.1,194.78247,1617396632000
Fix,GT,37.3825222,-121.963856,-17.124845017060636,12.884859,0.1,199.34943,1617396633000
Fix,GT,37.382408,-121.9639081,-16.774774703454458,14.084097,0.1,200.2842,1617396634000
Fix,GT,37.382284,-121.9639668,-16.458929632574087,15.312045,0.1,200.76846,1617396635000
Fix,GT,37.38215,-121.9640309,-16.26695779275894,16.441122,0.1,200.91331,1617396636000
Fix,GT,37.3820113,-121.9640987,-16.195000022624154,16.49968,0.1,201.47104,1617396637000
Fix,GT,37.3818738,-121.9641669,-16.25806672349805,16.343302,0.1,201.25908,1617396638000
Fix,GT,37.3817379,-121.9642324,-16.449112487273524,15.74089,0.1,200.90408,1617396639000
Fix,GT,37.3816108,-121.9642946,-16.788119893775324,14.52999,0.1,201.87321,1617396640000
Fix,GT,37.3814994,-121.9643637,-17.22121090610628,13.227971,0.1,210.48227,1617396641000
Fix,GT,37.3814089,-121.9644542,-17.999319840742743,12.667484,0.1,223.91632,1617396642000
Fix,GT,37.3813403,-121.9645689,-19.05048212961527,12.879614,0.1,238.64154,1617396643000
Fix,GT,37.3812998,-121.9647057,-19.83323564988188,13.014013,0.1,257.01538,1617396644000
Fix,GT,37.3813014,-121.9648506,-20.482271090558964,12.926773,0.1,279.97656,1617396645000
Fix,GT,37.3813504,-121.9649808,-21.215232643001947,12.898215,0.1,304.47446,1617396646000
Fix,GT,37.3814372,-121.9650749,-21.851288160948545,12.878302,0.099,328.32944,1617396647000
Fix,GT,37.3815468,-121.9651212,-22.68724947678065,13.036174,0.099,348.43863,1617396648000
Fix,GT,37.3816629,-121.9651176,-23.264140385478733,12.938151,0.1,9.967651,1617396649000
Fix,GT,37.3817676,-121.9650596,-23.60808761099493,12.696718,0.1,32.586,1617396650000
Fix,GT,37.3818451,-121.9649586,-23.726035314658656,12.38158,0.1,54.211365,1617396651000
Fix,GT,37.381887,-121.9648322,-23.709908829187047,11.954887,0.1,75.44849,1617396652000
Fix,GT,37.3818904,-121.9647092,-23.34988373811124,9.821825,0.1,94.69397,1617396653000
Fix,GT,37.3818783,-121.9646095,-23.134940799878912,8.51873,0.1,99.15143,1617396654000
Fix,GT,37.3818623,-121.9645174,-22.97397911447659,8.473152,0.1,104.038086,1617396655000
Fix,GT,37.381839,-121.9644223,-22.893988809770203,9.00119,0.1,107.37625,1617396656000
Fix,GT,37.3818136,-121.964322,-22.85899350335426,9.723648,0.1,107.27203,1617396657000
Fix,GT,37.381787,-121.9642092,-22.80996512932703,11.160918,0.1,106.105835,1617396658000
Fix,GT,37.3817579,-121.9640798,-22.797006976737872,12.649295,0.1,105.50098,1617396659000
Fix,GT,37.3817266,-121.9639338,-22.78396121396171,14.020989,0.1,104.86679,1617396660000
Fix,GT,37.3816905,-121.9637766,-22.72402137295716,15.09028,0.1,106.49783,1617396661000
Fix,GT,37.3816479,-121.9636052,-22.73602778672427,16.742662,0.1,107.661865,1617396662000
Fix,GT,37.3815988,-121.9634163,-22.81699701796472,18.432316,0.1,108.185486,1617396663000
Fix,GT,37.3815432,-121.9632103,-22.774978759470866,20.071531,0.1,108.75522,1617396664000
Fix,GT,37.3814821,-121.9629871,-22.789056560672822,21.743301,0.1,108.77768,1617396665000
Fix,GT,37.3814163,-121.9627459,-22.824992477622114,23.36669,0.1,108.70032,1617396666000
Fix,GT,37.3813462,-121.9624882,-22.82804914201284,24.871319,0.1,108.84152,1617396667000
Fix,GT,37.3812701,-121.9622149,-22.89698948304215,26.397507,0.1,109.345856,1617396668000
Fix,GT,37.3811884,-121.961927,-22.86899236335373,27.669163,0.1,109.621765,1617396669000
Fix,GT,37.3811031,-121.9616328,-22.81601753834146,27.63189,0.1,109.94684,1617396670000
Fix,GT,37.3810185,-121.9613405,-22.767926129354866,27.39848,0.1,109.862305,1617396671000
Fix,GT,37.380936,-121.9610505,-22.62592991264397,27.124392,0.1,109.17587,1617396672000
Fix,GT,37.380858,-121.9607621,-22.467951095001307,26.805918,0.1,108.38492,1617396673000
Fix,GT,37.380784,-121.9604758,-22.420911445448176,26.493895,0.1,107.67233,1617396674000
Fix,GT,37.3807126,-121.9601919,-22.41609157622233,26.216991,0.1,107.23312,1617396675000
Fix,GT,37.380642,-121.9599109,-22.496028128718955,25.977453,0.1,107.612885,1617396676000
Fix,GT,37.3805709,-121.9596329,-22.500953635105866,25.721663,0.1,107.78949,1617396677000
Fix,GT,37.3804991,-121.9593584,-22.448996451392773,25.45458,0.1,108.00079,1617396678000
Fix,GT,37.3804274,-121.9590866,-22.404993184062185,25.33969,0.1,108.29108,1617396679000
Fix,GT,37.3803553,-121.9588128,-22.374981973390096,25.972506,0.1,107.89331,1617396680000
Fix,GT,37.3802827,-121.9585289,-22.32396105688787,26.555305,0.1,107.66254,1617396681000
Fix,GT,37.38021,-121.9582446,-22.298982932599728,26.294556,0.1,107.614105,1617396682000
Fix,GT,37.3801376,-121.9579636,-22.277988920264644,26.001078,0.1,108.04767,1617396683000
Fix,GT,37.3800646,-121.9576864,-22.256911530625075,25.719748,0.099,108.27692,1617396684000
Fix,GT,37.3799926,-121.9574117,-22.27001458470244,25.5218,0.1,107.83188,1617396685000
Fix,GT,37.3799232,-121.9571363,-22.212000501648525,25.599077,0.1,107.29657,1617396686000
Fix,GT,37.379854,-121.9568615,-22.21697560568014,25.432468,0.1,107.630005,1617396687000
Fix,GT,37.3797842,-121.9565891,-22.16799350729305,25.31291,0.1,107.91336,1617396688000
Fix,GT,37.3797123,-121.9563171,-22.12596067016572,25.41056,0.1,108.54297,1617396689000
Fix,GT,37.3796383,-121.9560456,-22.06796820792533,25.424255,0.1,109.02112,1617396690000
Fix,GT,37.379563,-121.9557747,-22.01699317895272,25.32399,0.1,109.28378,1617396691000
Fix,GT,37.379488,-121.9555059,-21.99600380266109,25.112732,0.1,109.07605,1617396692000
Fix,GT,37.3794155,-121.9552383,-22.004986401794245,24.982388,0.1,108.58661,1617396693000
Fix,GT,37.3793435,-121.9549709,-21.99099703149963,25.028593,0.1,108.50296,1617396694000
Fix,GT,37.3792727,-121.9547017,-21.98598206879176,25.20021,0.099,107.95599,1617396695000
Fix,GT,37.3792033,-121.9544293,-21.96498629035847,25.462744,0.1,107.380585,1617396696000
Fix,GT,37.3791353,-121.9541528,-21.941992301512503,25.774982,0.099,106.77557,1617396697000
Fix,GT,37.3790682,-121.9538717,-21.92798217792879,26.213375,0.1,106.4787,1617396698000
Fix,GT,37.3790016,-121.9535852,-21.89798595973384,26.67656,0.1,105.82068,1617396699000
Fix,GT,37.3789359,-121.9532925,-21.882997032278684,27.12703,0.1,105.467285,1617396700000
Fix,GT,37.3788711,-121.9529966,-21.856974781906697,27.218056,0.1,105.177246,1617396701000
Fix,GT,37.3788067,-121.9526991,-21.83699623743538,27.40445,0.1,105.05618,1617396702000
Fix,GT,37.3787428,-121.9523988,-21.813000238700536,27.633623,0.1,104.765594,1617396703000
Fix,GT,37.3786785,-121.9520961,-21.821978204883635,27.885595,0.1,104.83417,1617396704000
Fix,GT,37.3786143,-121.9517914,-21.82097492290009,27.836813,0.1,104.70065,1617396705000
Fix,GT,37.3785515,-121.9514887,-21.80598909103405,27.555248,0.1,104.44992,1617396706000
Fix,GT,37.3784901,-121.951189,-21.78598890801519,27.228912,0.1,104.33255,1617396707000
Fix,GT,37.3784294,-121.9508933,-21.772978555246723,26.854376,0.099,104.40369,1617396708000
Fix,GT,37.3783699,-121.9506015,-21.771996266801604,26.530241,0.1,104.08334,1617396709000
Fix,GT,37.378312,-121.9503125,-21.81703519485146,26.25439,0.1,104.04593,1617396710000
Fix,GT,37.3782543,-121.9500265,-21.99108495080075,26.015686,0.1,104.10184,1617396711000
Fix,GT,37.3781977,-121.9497426,-22.28512411603704,25.82448,0.1,103.84918,1617396712000
Fix,GT,37.3781419,-121.9494604,-22.682156223445663,25.679703,0.1,103.81189,1617396713000
Fix,GT,37.3780866,-121.9491796,-23.244219948342067,25.560257,0.1,103.75745,1617396714000
Fix,GT,37.3780316,-121.9488997,-23.876240292951465,25.509586,0.1,103.756195,1617396715000
Fix,GT,37.3779765,-121.9486201,-24.600233515114525,25.498348,0.1,103.75879,1617396716000
Fix,GT,37.3779216,-121.9483409,-25.18518101647776,25.44984,0.1,103.8201,1617396717000
Fix,GT,37.3778659,-121.9480627,-25.579087830328383,25.323095,0.1,104.02893,1617396718000
Fix,GT,37.3778107,-121.9477865,-25.78902494585328,25.104324,0.1,103.83954,1617396719000
Fix,GT,37.3777567,-121.9475127,-25.78397571279481,24.854277,0.1,103.77661,1617396720000
Fix,GT,37.3777031,-121.9472421,-25.62788981216983,24.512468,0.099,103.82831,1617396721000
Fix,GT,37.3776506,-121.9469755,-25.244830199733844,24.108326,0.1,103.75601,1617396722000
Fix,GT,37.3775986,-121.9467129,-24.697770552200733,23.8776,0.1,103.90048,1617396723000
Fix,GT,37.3775465,-121.946451,-24.053765827707945,23.988585,0.1,103.86365,1617396724000
Fix,GT,37.3774941,-121.9461869,-23.39177341208607,24.231125,0.1,103.821625,1617396725000
Fix,GT,37.3774415,-121.9459196,-22.71775241850689,24.504217,0.1,103.6962,1617396726000
Fix,GT,37.3773891,-121.9456491,-22.143808851395733,24.818796,0.1,103.52167,1617396727000
Fix,GT,37.3773356,-121.9453749,-21.66984803247359,25.175821,0.1,103.7023,1617396728000
Fix,GT,37.3772815,-121.945097,-21.30088636675012,25.445345,0.1,103.56827,1617396729000
Fix,GT,37.3772271,-121.9448171,-21.070947006344795,25.597937,0.1,103.57028,1617396730000
Fix,GT,37.3771727,-121.9445352,-20.94199702946492,25.71286,0.1,103.47662,1617396731000
Fix,GT,37.3771182,-121.9442541,-20.968038519473048,25.495604,0.1,103.68161,1617396732000
Fix,GT,37.3770636,-121.9439758,-21.12506688537076,25.299644,0.099,103.64389,1617396733000
Fix,GT,37.3770098,-121.9436991,-21.36606358751468,25.126432,0.1,103.534485,1617396734000
Fix,GT,37.3769572,-121.9434254,-21.527050104670924,24.702162,0.1,103.32846,1617396735000
Fix,GT,37.3769064,-121.9431567,-21.59702095203381,24.200958,0.1,103.23215,1617396736000
Fix,GT,37.376856,-121.9428925,-21.6230138982567,23.919645,0.1,103.34296,1617396737000
Fix,GT,37.3768063,-121.9426313,-21.63900330597348,23.658188,0.1,103.31271,1617396738000
Fix,GT,37.3767573,-121.9423727,-21.67200731817168,23.410763,0.1,103.14319,1617396739000
Fix,GT,37.3767091,-121.9421168,-21.69800649550092,23.146233,0.1,103.18533,1617396740000
Fix,GT,37.3766612,-121.941864,-21.707006960748465,22.867287,0.1,103.26901,1617396741000
Fix,GT,37.3766136,-121.9416144,-21.726003680438968,22.599718,0.1,103.439545,1617396742000
Fix,GT,37.3765662,-121.9413676,-21.74000349853444,22.34863,0.1,103.398926,1617396743000
Fix,GT,37.3765195,-121.9411236,-21.734010617808675,22.089682,0.1,103.53812,1617396744000
Fix,GT,37.3764726,-121.9408827,-21.73300023782509,21.830439,0.1,103.631134,1617396745000
Fix,GT,37.3764258,-121.9406449,-21.74000650251843,21.570332,0.1,103.8616,1617396746000
Fix,GT,37.376379,-121.9404099,-21.737010301241646,21.334805,0.1,103.91177,1617396747000
Fix,GT,37.3763333,-121.9401773,-21.719989060585387,21.086735,0.099,103.60968,1617396748000
Fix,GT,37.3762884,-121.9399474,-21.66798576723039,20.83078,0.1,103.66034,1617396749000
Fix,GT,37.3762441,-121.9397204,-21.60896828877926,20.569857,0.1,103.67743,1617396750000
Fix,GT,37.3762004,-121.9394962,-21.55198228977155,20.307388,0.1,103.57074,1617396751000
Fix,GT,37.3761575,-121.9392749,-21.494993387810887,20.044289,0.1,103.57727,1617396752000
Fix,GT,37.3761148,-121.9390579,-21.45497505398094,19.50885,0.1,104.032166,1617396753000
Fix,GT,37.3760714,-121.938849,-21.395986370503906,18.642805,0.1,104.96826,1617396754000
Fix,GT,37.3760276,-121.9386516,-21.358992433342387,17.749594,0.1,105.764465,1617396755000
Fix,GT,37.3759839,-121.9384612,-21.32498892102018,17.405375,0.1,106.00162,1617396756000
Fix,GT,37.3759414,-121.9382734,-21.277971430941484,17.154915,0.1,105.41669,1617396757000
Fix,GT,37.3759005,-121.938088,-21.280982107198795,16.921915,0.1,105.460236,1617396758000
Fix,GT,37.3758597,-121.9379054,-21.26598944980581,16.708887,0.1,105.691925,1617396759000
Fix,GT,37.375819,-121.9377243,-21.213004096583,16.584093,0.1,105.51706,1617396760000
Fix,GT,37.3757775,-121.9375454,-21.193999743400138,16.4979,0.1,106.93237,1617396761000
Fix,GT,37.3757317,-121.9373658,-21.18097557209246,16.983269,0.1,107.79834,1617396762000
Fix,GT,37.3756854,-121.9371791,-21.14899626865704,17.691538,0.099,106.271576,1617396763000
Fix,GT,37.3756412,-121.9369824,-21.08500737373717,18.509922,0.1,105.16116,1617396764000
Fix,GT,37.3755972,-121.9367767,-21.022964189931752,19.058258,0.099,104.74432,1617396765000
Fix,GT,37.3755539,-121.9365697,-20.915953987137414,18.824478,0.1,104.44385,1617396766000
Fix,GT,37.3755119,-121.9363655,-20.836978868722216,18.518652,0.1,104.293335,1617396767000
Fix,GT,37.3754708,-121.9361645,-20.803982034872284,18.231886,0.1,104.19809,1617396768000
Fix,GT,37.375431,-121.9359665,-20.75098937703856,17.94318,0.1,103.947266,1617396769000
Fix,GT,37.3753919,-121.9357716,-20.70397458919999,17.652384,0.1,104.00394,1617396770000
Fix,GT,37.3753537,-121.9355798,-20.66898213822768,17.427153,0.1,103.81903,1617396771000
Fix,GT,37.3753167,-121.9353892,-20.63199951482006,17.349411,0.1,103.5484,1617396772000
Fix,GT,37.37528,-121.9351989,-20.578982203368096,17.35094,0.1,103.67645,1617396773000
Fix,GT,37.3752427,-121.9350086,-20.532010646138804,17.41827,0.1,103.822845,1617396774000
Fix,GT,37.3752043,-121.9348162,-20.490985209266192,17.759106,0.1,104.02817,1617396775000
Fix,GT,37.3751645,-121.9346196,-20.442989204676824,18.181479,0.1,104.29535,1617396776000
Fix,GT,37.3751227,-121.9344185,-20.445021411283875,18.669294,0.1,104.70325,1617396777000
Fix,GT,37.3750784,-121.9342122,-20.41694328163076,19.208128,0.1,105.16571,1617396778000
Fix,GT,37.3750316,-121.934002,-20.32195772629185,19.480536,0.1,105.72876,1617396779000
Fix,GT,37.3749829,-121.9337879,-20.261978476502,20.054655,0.1,105.83649,1617396780000
Fix,GT,37.3749322,-121.9335652,-20.22196114000748,20.960081,0.1,105.88309,1617396781000
Fix,GT,37.3748789,-121.9333355,-20.179981896554818,21.368954,0.1,106.45813,1617396782000
Fix,GT,37.3748234,-121.9331043,-20.123985886160284,21.301548,0.1,106.79297,1617396783000
Fix,GT,37.3747679,-121.9328756,-20.09601119687176,21.0232,0.1,106.91089,1617396784000
Fix,GT,37.3747128,-121.9326501,-20.16507106703008,20.768925,0.1,106.91925,1617396785000
Fix,GT,37.3746581,-121.9324268,-20.3060002080258,20.658087,0.1,107.118805,1617396786000
Fix,GT,37.3746026,-121.9322043,-20.33303599287453,20.638905,0.1,107.1969,1617396787000
Fix,GT,37.3745471,-121.9319818,-20.39201114128809,20.635149,0.1,107.24124,1617396788000
Fix,GT,37.3744923,-121.93176,-20.42402814649418,20.474352,0.1,106.85779,1617396789000
Fix,GT,37.3744391,-121.9315401,-20.40100369851943,20.218302,0.1,106.79318,1617396790000
Fix,GT,37.374386,-121.9313232,-20.43103969942872,19.970331,0.1,106.942505,1617396791000
Fix,GT,37.3743337,-121.9311089,-20.4770280517554,19.727118,0.1,107.02423,1617396792000
Fix,GT,37.3742811,-121.9308976,-20.50800004297401,19.485708,0.1,107.41333,1617396793000
Fix,GT,37.3742263,-121.9306898,-20.565032291072423,19.367655,0.1,109.11661,1617396794000
Fix,GT,37.374167,-121.9304828,-20.631021252652864,19.611113,0.1,109.89209,1617396795000
Fix,GT,37.3741053,-121.9302733,-20.7160030945614,19.977383,0.1,110.4267,1617396796000
Fix,GT,37.3740411,-121.9300599,-20.79908536926749,20.414463,0.1,110.66376,1617396797000
Fix,GT,37.3739746,-121.9298438,-20.938078502669928,20.49668,0.1,111.131226,1617396798000
Fix,GT,37.3739073,-121.9296291,-21.10205384706705,20.32532,0.1,111.47888,1617396799000
Fix,GT,37.3738387,-121.9294178,-21.21901766963862,20.090118,0.1,112.58646,1617396800000
Fix,GT,37.3737648,-121.9292121,-21.404053722227925,19.878538,0.1,115.46991,1617396801000
Fix,GT,37.373682,-121.9290147,-21.536021094219763,19.6439,0.1,119.27179,1617396802000
Fix,GT,37.37359,-121.928827,-21.590017998171973,19.437826,0.1,123.08856,1617396803000
Fix,GT,37.3734882,-121.9286472,-21.63500023675268,19.693214,0.1,126.81955,1617396804000
Fix,GT,37.3733752,-121.9284732,-21.576989385459107,20.08533,0.1,130.68573,1617396805000
Fix,GT,37.3732512,-121.9283047,-21.545992979951205,20.531252,0.1,133.79318,1617396806000
Fix,GT,37.3731169,-121.9281411,-21.49598275830224,21.069254,0.1,137.13165,1617396807000
Fix,GT,37.3729709,-121.9279843,-21.407953242362943,21.597944,0.1,140.99515,1617396808000
Fix,GT,37.3728126,-121.9278373,-21.335960610971785,22.14559,0.1,145.38025,1617396809000
Fix,GT,37.3726409,-121.9277052,-21.25897468029056,22.579933,0.1,150.92474,1617396810000
Fix,GT,37.3724569,-121.9275933,-21.21992862692103,22.823757,0.1,156.78046,1617396811000
Fix,GT,37.3722631,-121.9275035,-20.65564057104289,23.048378,0.1,161.84106,1617396812000
Fix,GT,37.3720625,-121.9274297,-20.05488554874156,23.358582,0.1,164.40808,1617396813000
Fix,GT,37.3718574,-121.9273596,-19.694871923002413,23.826424,0.1,164.64795,1617396814000
Fix,GT,37.371648,-121.9272884,-19.40792143840855,24.355108,0.1,164.78778,1617396815000
Fix,GT,37.3714348,-121.9272154,-19.169964791256938,24.647284,0.1,164.32355,1617396816000
Fix,GT,37.3712207,-121.9271373,-19.061989004493,24.835176,0.1,163.18793,1617396817000
Fix,GT,37.3710064,-121.9270523,-19.057038921533152,25.094149,0.1,161.81165,1617396818000
Fix,GT,37.3707911,-121.9269596,-19.21306765434146,25.410475,0.1,160.4314,1617396819000
Fix,GT,37.3705746,-121.92686,-19.507081560014747,25.804026,0.1,159.32068,1617396820000
Fix,GT,37.3703564,-121.9267497,-19.64304654407129,26.4037,0.1,156.53638,1617396821000
Fix,GT,37.3701392,-121.9266215,-19.529860647365226,26.859852,0.099,152.9331,1617396822000
Fix,GT,37.3699254,-121.9264751,-19.01872222586185,27.195229,0.1,150.05988,1617396823000
Fix,GT,37.3697157,-121.9263139,-18.10368247163924,27.360464,0.099,146.58081,1617396824000
Fix,GT,37.3695149,-121.9261345,-17.308718654701487,27.362822,0.1,142.66467,1617396825000
Fix,GT,37.3693242,-121.9259386,-16.50571881289268,27.395067,0.1,138.73795,1617396826000
Fix,GT,37.3691425,-121.9257285,-15.662671818822856,27.450506,0.1,135.57898,1617396827000
Fix,GT,37.3689702,-121.9255057,-14.82573987332522,27.510439,0.1,132.55737,1617396828000
Fix,GT,37.3688067,-121.9252713,-14.179832313146909,27.640089,0.1,129.72073,1617396829000
Fix,GT,37.3686505,-121.9250273,-13.59280420164112,27.766703,0.1,127.93625,1617396830000
Fix,GT,37.3684966,-121.924779,-13.112871573831187,27.948149,0.1,127.78818,1617396831000
Fix,GT,37.3683415,-121.9245288,-12.727779221744742,28.147383,0.1,127.581116,1617396832000
Fix,GT,37.3681869,-121.9242761,-12.113746982628712,28.258913,0.1,127.19037,1617396833000
Fix,GT,37.3680326,-121.9240225,-11.394850425843616,28.211605,0.1,127.23953,1617396834000
Fix,GT,37.3678786,-121.9237697,-10.75363246665476,28.148598,0.1,127.25644,1617396835000
Fix,GT,37.3677243,-121.9235162,-10.23777181422431,28.29577,0.1,127.26065,1617396836000
Fix,GT,37.3675691,-121.9232616,-9.71083574606804,28.485903,0.1,127.298096,1617396837000
Fix,GT,37.3674119,-121.9230057,-9.303864581394013,28.711973,0.1,127.66208,1617396838000
Fix,GT,37.3672528,-121.9227484,-8.932907316234196,28.946335,0.1,127.56323,1617396839000
Fix,GT,37.3670932,-121.9224885,-8.748928652027855,29.125198,0.1,127.40381,1617396840000
Fix,GT,37.3669332,-121.9222272,-8.537939284078313,29.218866,0.1,127.33954,1617396841000
Fix,GT,37.3667727,-121.9219647,-8.40998204962816,29.369022,0.1,127.23422,1617396842000
Fix,GT,37.3666112,-121.9217008,-8.29999293735996,29.541155,0.1,127.73883,1617396843000
Fix,GT,37.3664455,-121.9214387,-8.216953515962699,29.700335,0.1,129.04279,1617396844000
Fix,GT,37.366273,-121.9211815,-8.028928456470604,29.819096,0.1,130.94958,1617396845000
Fix,GT,37.3660927,-121.9209313,-7.853939334802563,29.928059,0.1,132.8692,1617396846000
Fix,GT,37.3659063,-121.9206862,-7.674924983878154,30.048906,0.1,134.3385,1617396847000
Fix,GT,37.3657137,-121.9204469,-7.491943071054294,30.17907,0.1,135.90619,1617396848000
Fix,GT,37.3655154,-121.9202128,-7.334935714075807,30.303396,0.1,137.57639,1617396849000
Fix,GT,37.3653109,-121.9199855,-7.134924865294714,30.3482,0.1,139.07507,1617396850000
Fix,GT,37.3651016,-121.9197645,-7.061981958132703,30.42145,0.1,140.5033,1617396851000
Fix,GT,37.3648875,-121.9195494,-7.016007257674356,30.553421,0.1,142.00797,1617396852000
Fix,GT,37.3646667,-121.9193417,-7.101042929452379,30.740356,0.1,144.03778,1617396853000
Fix,GT,37.3644395,-121.9191423,-7.315132418410853,30.810606,0.1,145.83072,1617396854000
Fix,GT,37.3642072,-121.9189514,-7.616089497913839,30.895811,0.1,147.49493,1617396855000
Fix,GT,37.3639699,-121.9187677,-7.929200069346466,31.050718,0.1,148.9266,1617396856000
Fix,GT,37.3637282,-121.9185888,-8.425182478714735,31.288046,0.1,149.482,1617396857000
Fix,GT,37.3634844,-121.9184087,-8.934171531193424,31.521196,0.1,149.31934,1617396858000
Fix,GT,37.3632386,-121.9182277,-9.485257254445226,31.76594,0.1,149.36151,1617396859000
Fix,GT,37.3629912,-121.9180449,-10.291275058597328,31.99215,0.099,149.3837,1617396860000
Fix,GT,37.3627421,-121.9178604,-11.112311275087064,32.22415,0.1,149.17401,1617396861000
Fix,GT,37.3624918,-121.9176739,-11.89727892646473,32.433125,0.1,149.04727,1617396862000
Fix,GT,37.3622399,-121.9174858,-12.722304134603824,32.655125,0.1,149.09897,1617396863000
Fix,GT,37.3619863,-121.9172964,-13.55828618640406,32.860615,0.1,148.99545,1617396864000
Fix,GT,37.3617315,-121.9171061,-14.21221486198902,32.960464,0.1,149.15796,1617396865000
Fix,GT,37.361476,-121.916916,-14.680146672460015,32.964825,0.1,149.20169,1617396866000
