MessageType,Provider,LatitudeDegrees,LongitudeDegrees,AltitudeMeters,SpeedMps,AccuracyMeters,BearingDegrees,UnixTimeMillis
Fix,GT,34.2725476,-118.6156771,322.4510064002694,9.0005005e-07,0.1,263.691,1638907816000
Fix,GT,34.2725476,-118.6156771,322.45100153906776,0.0,0.1,263.6912,1638907817000
Fix,GT,34.2725476,-118.6156771,322.45099990615444,0.0009991137,0.1,263.69153,1638907818000
Fix,GT,34.2725476,-118.6156771,322.4509918354335,8.796201e-07,0.099,263.6911,1638907819000
Fix,GT,34.2725476,-118.6156771,322.4510061938091,8.7281006e-07,0.1,263.69135,1638907820000
Fix,GT,34.2725476,-118.6156771,322.450998104319,0.0,0.1,263.69153,1638907821000
Fix,GT,34.2725476,-118.6156771,322.45100923440634,0.0009991409,0.1,263.69165,1638907822000
Fix,GT,34.2725476,-118.6156771,322.45100114491623,0.0014147129,0.1,263.6918,1638907823000
Fix,GT,34.2725476,-118.6156771,322.4509930741953,1.19576e-06,0.1,263.69183,1638907824000
Fix,GT,34.2725476,-118.6156771,322.4510009759942,0.0010003475,0.1,263.692,1638907825000
Fix,GT,34.2725476,-118.6156771,322.4509929052732,0.0009991681,0.1,263.69168,1638907826000
Fix,GT,34.2725476,-118.6156771,322.45100080707215,0.001,0.1,263.69177,1638907827000
Fix,GT,34.2725476,-118.6156771,322.45099271758204,0.0014146928,0.1,263.6919,1638907828000
Fix,GT,34.2725476,-118.6156771,322.4510038664384,0.0010008115,0.1,263.69196,1638907829000
Fix,GT,34.2725476,-118.6156771,322.4509957769484,0.002236068,0.1,263.6922,1638907830000
Fix,GT,34.2725476,-118.6156771,322.4520036787586,0.0022354126,0.1,263.6922,1638907831000
Fix,GT,34.2725476,-118.6156771,322.4519931706443,0.009434585,0.1,263.68948,1638907832000
Fix,GT,34.2725476,-118.6156771,322.4530027257369,0.0031615512,0.1,263.69186,1638907833000
Fix,GT,34.2725476,-118.6156771,322.4529954390759,0.0070680296,0.1,263.69324,1638907834000
Fix,GT,34.2725476,-118.6156771,322.45300334092383,0.0010009524,0.1,263.6936,1638907835000
Fix,GT,34.2725476,-118.6156771,322.4529952513835,0.0031615703,0.1,263.69308,1638907836000
Fix,GT,34.2725476,-118.6156771,322.4529903901517,0.0031621547,0.1,263.69434,1638907837000
Fix,GT,34.2725476,-118.6156771,322.4540047486312,0.004240209,0.1,263.6939,1638907838000
Fix,GT,34.2725476,-118.6156771,322.4549999061532,0.002235457,0.1,263.69327,1638907839000
Fix,GT,34.2725476,-118.6156771,322.45599181653745,0.0020001738,0.1,263.6937,1638907840000
Fix,GT,34.2725476,-118.6156771,322.4580029468156,0.002,0.1,263.69373,1638907841000
Fix,GT,34.2725477,-118.6156771,322.4589916475351,0.004123105,0.1,263.69397,1638907842000
Fix,GT,34.2725476,-118.6156771,322.460002777907,0.0063245557,0.1,263.6938,1638907843000
Fix,GT,34.2725476,-118.6156771,322.4609946881748,0.008544004,0.099,263.69373,1638907844000
Fix,GT,34.2725476,-118.6156771,322.4629930551677,0.011702521,0.1,263.69382,1638907845000
Fix,GT,34.2725475,-118.6156772,322.4650067186337,0.018786741,0.1,263.69098,1638907846000
Fix,GT,34.2725474,-118.6156772,322.4649961146238,0.018385055,0.099,263.69122,1638907847000
Fix,GT,34.2725473,-118.6156773,322.4650040167657,0.02563288,0.1,263.6919,1638907848000
Fix,GT,34.272547,-118.6156775,322.46399592693706,0.02915429,0.099,263.51904,1638907849000
Fix,GT,34.2725469,-118.6156776,322.462991084337,0.033839114,0.099,263.51395,1638907850000
Fix,GT,34.2725458,-118.6156791,322.4720055218002,0.41766927,0.1,261.7929,1638907851000
Fix,GT,34.2725415,-118.6156851,322.51600062587084,0.7395081,0.1,253.70143,1638907852000
Fix,GT,34.2725362,-118.6156907,322.5429944334905,0.6375309,0.099,245.18082,1638907853000
Fix,GT,34.2725328,-118.6156936,322.55200685287406,0.13084467,0.1,240.22797,1638907854000
Fix,GT,34.2725324,-118.6156937,322.54399876088087,0.04600592,0.1,240.07117,1638907855000
Fix,GT,34.2725321,-118.6156937,322.5359932898826,0.0405216,0.099,240.0726,1638907856000
Fix,GT,34.2725317,-118.6156936,322.5270076586221,0.044721916,0.1,240.0762,1638907857000
Fix,GT,34.2725314,-118.6156934,322.5169957314205,0.05263079,0.1,240.07668,1638907858000
Fix,GT,34.272531,-118.615693,322.5039914900324,0.064351894,0.099,240.0764,1638907859000
Fix,GT,34.2725306,-118.6156924,322.4910052572577,0.0800018,0.1,240.07672,1638907860000
Fix,GT,34.27253,-118.6156917,322.47599922249884,0.0822126,0.1,240.02893,1638907861000
Fix,GT,34.272526,-118.6156934,322.46699497469143,0.6656455,0.1,234.40935,1638907862000
Fix,GT,34.2725181,-118.6156963,322.45400556462306,0.8767078,0.1,223.65018,1638907863000
Fix,GT,34.2725066,-118.6156972,322.38299177438324,1.2997191,0.1,208.26404,1638907864000
Fix,GT,34.2724912,-118.6156929,322.3500105415416,1.6995999,0.1,187.69423,1638907865000
Fix,GT,34.2724738,-118.6156786,322.3949969560951,2.2850845,0.1,161.95801,1638907866000
Fix,GT,34.2724599,-118.615651,322.3779930210089,3.173707,0.1,131.86853,1638907867000
Fix,GT,34.2724537,-118.6156094,322.209994931194,4.3113503,0.1,103.46826,1638907868000
Fix,GT,34.2724566,-118.6155554,321.9459886310375,5.5290523,0.1,87.30939,1638907869000
Fix,GT,34.2724601,-118.6154889,321.6569759584312,6.7670283,0.1,86.35712,1638907870000
Fix,GT,34.2724647,-118.6154089,321.29198254909073,7.9288025,0.1,85.787506,1638907871000
Fix,GT,34.2724704,-118.6153175,320.8569779856103,8.996815,0.1,85.37964,1638907872000
Fix,GT,34.2724792,-118.6152152,320.4579871424132,9.927879,0.1,83.336945,1638907873000
Fix,GT,34.272492,-118.6151035,320.03097063452714,10.855862,0.1,81.53088,1638907874000
Fix,GT,34.272506,-118.6149843,319.49598051719045,11.275311,0.1,81.953735,1638907875000
Fix,GT,34.2725191,-118.6148616,318.9199753386672,11.535476,0.1,82.476746,1638907876000
Fix,GT,34.2725311,-118.6147358,318.3439550939102,11.783278,0.1,83.31012,1638907877000
Fix,GT,34.2725429,-118.614608,317.71796579879634,11.800257,0.1,83.27847,1638907878000
Fix,GT,34.2725546,-118.6144836,317.10096113950567,11.21853,0.1,82.98511,1638907879000
Fix,GT,34.2725654,-118.6143676,316.4489715929069,10.270971,0.1,83.14972,1638907880000
Fix,GT,34.2725737,-118.6142618,315.8279636526246,9.295104,0.1,84.82028,1638907881000
Fix,GT,34.272576,-118.6141623,315.2279740992447,9.227775,0.1,88.98236,1638907882000
Fix,GT,34.272569,-118.614062,314.4919613125782,9.346257,0.1,97.01886,1638907883000
Fix,GT,34.2725426,-118.6139641,313.7189723037063,9.67018,0.1,111.69318,1638907884000
Fix,GT,34.2724963,-118.613876,312.93097045439123,9.519128,0.1,125.45343,1638907885000
Fix,GT,34.2724374,-118.6137995,312.3529703945087,9.754602,0.1,134.24664,1638907886000
Fix,GT,34.2723683,-118.6137319,311.87598423472326,10.008439,0.1,142.9671,1638907887000
Fix,GT,34.2722895,-118.6136763,311.3559755410834,10.285138,0.1,151.9361,1638907888000
Fix,GT,34.2722044,-118.613628,310.76298303490574,10.594379,0.1,154.45349,1638907889000
Fix,GT,34.2721192,-118.6135739,310.1639780460992,10.646864,0.1,150.90869,1638907890000
Fix,GT,34.2720402,-118.613512,309.6439737901064,10.386667,0.099,145.09735,1638907891000
Fix,GT,34.2719665,-118.6134417,309.1749874860893,10.476755,0.1,139.95721,1638907892000
Fix,GT,34.2718981,-118.6133613,308.635973663277,10.732499,0.099,133.98154,1638907893000
Fix,GT,34.2718354,-118.6132698,308.0709732546461,11.227436,0.099,127.359436,1638907894000
Fix,GT,34.2717797,-118.6131638,307.58098662656187,11.860814,0.1,120.198,1638907895000
Fix,GT,34.2717335,-118.6130444,307.18998311070885,12.265561,0.099,112.44165,1638907896000
Fix,GT,34.271703,-118.6129189,306.9100008343256,11.678164,0.1,103.26654,1638907897000
Fix,GT,34.2716902,-118.6127953,306.72199839397643,11.34526,0.1,94.38721,1638907898000
Fix,GT,34.2716929,-118.6126735,306.6560009520952,11.158039,0.1,85.288635,1638907899000
Fix,GT,34.2717138,-118.6125532,306.66899700401245,11.629941,0.1,74.87048,1638907900000
Fix,GT,34.2717469,-118.6124287,306.6770047116968,12.42244,0.1,71.686584,1638907901000
Fix,GT,34.2717828,-118.6122967,306.6700008594571,13.193441,0.1,72.15698,1638907902000
Fix,GT,34.2718195,-118.6121549,306.6529943814498,14.238871,0.099,72.64957,1638907903000
Fix,GT,34.2718569,-118.6120009,306.6260056020338,15.3407955,0.1,74.13309,1638907904000
Fix,GT,34.2718929,-118.6118336,306.5720014136883,16.464605,0.1,75.63782,1638907905000
Fix,GT,34.2719299,-118.6116554,306.5269949527515,17.309202,0.1,75.44232,1638907906000
Fix,GT,34.27197,-118.6114705,306.46899401605657,17.873594,0.099,74.83618,1638907907000
Fix,GT,34.2720131,-118.6112815,306.4980024387085,18.238558,0.1,74.026215,1638907908000
Fix,GT,34.2720593,-118.6110887,306.4080012397104,18.685375,0.1,73.28839,1638907909000
Fix,GT,34.2721076,-118.6108942,306.4779998637552,18.585482,0.1,73.06525,1638907910000
Fix,GT,34.2721545,-118.6107021,306.5079903652688,18.294,0.099,73.67267,1638907911000
Fix,GT,34.2721962,-118.610511,306.48200272053907,18.176044,0.1,76.056946,1638907912000
Fix,GT,34.2722304,-118.610318,306.4319952712419,18.200489,0.099,78.899414,1638907913000
Fix,GT,34.2722561,-118.6101219,306.3409995819911,18.390478,0.1,82.09152,1638907914000
Fix,GT,34.2722734,-118.609923,306.0229905091986,18.411455,0.1,84.88626,1638907915000
Fix,GT,34.2722841,-118.6097242,305.50297892750496,18.168411,0.099,86.38556,1638907916000
Fix,GT,34.2722924,-118.60953,304.7649830650089,17.670328,0.1,86.85199,1638907917000
Fix,GT,34.2723002,-118.6093392,303.7749688555598,17.532148,0.1,86.87167,1638907918000
Fix,GT,34.2723085,-118.6091491,302.60598474958,17.540745,0.1,86.48099,1638907919000
Fix,GT,34.2723172,-118.6089601,301.5369828506628,17.256668,0.1,86.54294,1638907920000
Fix,GT,34.2723249,-118.6087749,300.5099776554829,16.97488,0.1,87.066895,1638907921000
Fix,GT,34.2723309,-118.6085915,299.52997571732027,16.84979,0.099,87.791534,1638907922000
Fix,GT,34.2723321,-118.6084087,298.4839725032349,16.777761,0.099,90.45386,1638907923000
Fix,GT,34.2723239,-118.6082272,297.41499049897897,16.744106,0.1,94.642944,1638907924000
Fix,GT,34.2723043,-118.6080468,296.33698517635327,16.807318,0.1,99.11832,1638907925000
Fix,GT,34.2722757,-118.6078672,295.4109803821416,16.871307,0.099,101.23511,1638907926000
Fix,GT,34.2722446,-118.607688,294.67099939777745,16.801115,0.1,101.515625,1638907927000
Fix,GT,34.2722172,-118.6075091,294.1599937019977,16.740093,0.1,98.99332,1638907928000
Fix,GT,34.2721992,-118.6073289,293.77399324176645,16.689066,0.1,95.047,1638907929000
Fix,GT,34.272193,-118.6071481,293.51298989094863,16.645805,0.099,90.0228,1638907930000
Fix,GT,34.2721999,-118.6069684,293.2940031240453,16.479166,0.1,85.317474,1638907931000
Fix,GT,34.2722167,-118.6067924,293.3360033481816,16.144793,0.1,81.97699,1638907932000
Fix,GT,34.2722435,-118.6066226,293.5930039000325,15.668882,0.1,76.927795,1638907933000
Fix,GT,34.2722799,-118.6064622,294.0690037775548,14.820158,0.1,73.62656,1638907934000
Fix,GT,34.2723167,-118.6063123,294.662999313365,14.019315,0.099,73.03049,1638907935000
Fix,GT,34.2723511,-118.6061702,295.3580139399872,13.235108,0.1,73.999725,1638907936000
Fix,GT,34.272379,-118.6060357,296.2280096919844,12.292318,0.1,76.698456,1638907937000
Fix,GT,34.2723985,-118.6059096,297.1600044594469,11.347482,0.1,80.59415,1638907938000
Fix,GT,34.2724079,-118.605792,298.0300140704796,10.491144,0.1,85.60956,1638907939000
Fix,GT,34.2724101,-118.6056808,298.85000245722017,10.009477,0.1,89.137054,1638907940000
Fix,GT,34.2724079,-118.6055746,299.6610121651357,9.5212145,0.1,91.72107,1638907941000
Fix,GT,34.2724018,-118.6054729,300.42000425369224,9.307573,0.1,94.36841,1638907942000
Fix,GT,34.2723916,-118.6053743,301.18401078989746,8.876755,0.1,97.58566,1638907943000
Fix,GT,34.2723785,-118.6052839,301.8859995170135,8.031555,0.1,99.936676,1638907944000
Fix,GT,34.2723639,-118.6052041,302.4480062954645,6.851017,0.1,102.72067,1638907945000
Fix,GT,34.2723496,-118.6051405,302.9119981535887,5.1866565,0.1,104.8475,1638907946000
Fix,GT,34.2723388,-118.6050959,303.2350022142527,3.3833485,0.1,105.58469,1638907947000
Fix,GT,34.2723321,-118.6050697,303.4309913796509,1.8146571,0.1,106.15259,1638907948000
Fix,GT,34.2723289,-118.6050581,303.5199999735355,0.4740313,0.1,106.37714,1638907948999
Fix,GT,34.2723286,-118.6050571,303.5259999731779,0.0141421445,0.1,106.40665,1638907949999
Fix,GT,34.2723285,-118.6050571,303.527,0.0063245813,0.1,106.40637,1638907950999
Fix,GT,34.2723285,-118.6050571,303.52999997287986,0.0022360617,0.1,106.40637,1638907951999
Fix,GT,34.2723285,-118.6050571,303.531,0.0014141995,0.1,106.40643,1638907952999
Fix,GT,34.2723285,-118.6050571,303.532,0.0042426144,0.1,106.40668,1638907953999
Fix,GT,34.2723285,-118.6050571,303.532,0.005,0.1,106.40686,1638907954999
Fix,GT,34.2723285,-118.6050571,303.532,0.0056568184,0.1,106.40704,1638907955999
Fix,GT,34.2723285,-118.6050571,303.532,0.0056569,0.1,106.40692,1638907956999
Fix,GT,34.2723285,-118.6050571,303.532,0.0064031244,0.1,106.407166,1638907957999
Fix,GT,34.2723285,-118.6050571,303.532,0.007211065,0.1,106.40738,1638907958999
Fix,GT,34.2723285,-118.6050571,303.532,0.006403078,0.1,106.4075,1638907959999
Fix,GT,34.2723285,-118.6050571,303.532,0.0058310023,0.1,106.40753,1638907960999
Fix,GT,34.2723285,-118.6050571,303.532,0.005385207,0.1,106.40732,1638907961999
Fix,GT,34.2723285,-118.6050571,303.532,0.005830952,0.1,106.40756,1638907962999
Fix,GT,34.2723285,-118.6050571,303.532,0.0053851227,0.1,106.407684,1638907963999
Fix,GT,34.2723285,-118.6050571,303.532,0.004472136,0.1,106.40787,1638907964999
Fix,GT,34.2723285,-118.6050571,303.532,0.004999935,0.1,106.40811,1638907965999
Fix,GT,34.2723285,-118.6050571,303.532,0.0044721067,0.1,106.40811,1638907966999
Fix,GT,34.2723285,-118.6050571,303.532,0.0036055513,0.1,106.40805,1638907967999
Fix,GT,34.2723285,-118.6050571,303.532,0.0042425497,0.1,106.40793,1638907968999
Fix,GT,34.2723285,-118.6050571,303.532,0.004472006,0.1,106.4079,1638907969999
Fix,GT,34.2723285,-118.6050571,303.532,0.003605687,0.1,106.40796,1638907970999
Fix,GT,34.2723285,-118.6050571,303.532,0.0036055513,0.1,106.40813,1638907971999
Fix,GT,34.2723285,-118.6050571,303.532,0.0036055513,0.1,106.408295,1638907972999
Fix,GT,34.2723285,-118.6050571,303.532,0.0036055513,0.1,106.4082,1638907973999
Fix,GT,34.2723285,-118.6050571,303.532,0.0036055513,0.1,106.408325,1638907974999
Fix,GT,34.2723285,-118.6050571,303.532,0.0031623624,0.1,106.40811,1638907975999
Fix,GT,34.2723285,-118.6050571,303.532,0.0028284932,0.1,106.40848,1638907976999
Fix,GT,34.2723285,-118.6050571,303.532,0.0041229995,0.1,106.40784,1638907977999
Fix,GT,34.2723285,-118.6050571,303.532,0.003605686,0.1,106.40811,1638907978999
Fix,GT,34.2723285,-118.6050571,303.532,0.0036054547,0.1,106.40878,1638907979999
Fix,GT,34.2723285,-118.6050571,303.532,0.0036054517,0.1,106.40805,1638907980999
Fix,GT,34.2723285,-118.6050571,303.532,0.0031623803,0.1,106.408264,1638907981999
Fix,GT,34.2723285,-118.6050571,303.532,0.004472136,0.1,106.40817,1638907982999
Fix,GT,34.2723285,-118.6050571,303.532,0.0049996576,0.1,106.40845,1638907983999
Fix,GT,34.2723285,-118.6050571,303.532,0.0036059031,0.1,106.40878,1638907984999
Fix,GT,34.2723285,-118.6050571,303.532,0.0042424756,0.1,106.40851,1638907985999
Fix,GT,34.2723285,-118.6050571,303.532,0.0042426405,0.1,106.40863,1638907986999
Fix,GT,34.2723285,-118.6050571,303.532,0.004242847,0.1,106.40863,1638907987999
Fix,GT,34.2723285,-118.6050571,303.532,0.004999788,0.1,106.40979,1638907988999
Fix,GT,34.2723285,-118.6050571,303.532,0.005,0.1,106.40979,1638907989999
Fix,GT,34.2723285,-118.6050571,303.532,0.005,0.1,106.40997,1638907990999
Fix,GT,34.2723285,-118.6050571,303.532,0.0049997726,0.1,106.410065,1638907991999
Fix,GT,34.2723285,-118.6050571,303.532,0.0042426405,0.1,106.40997,1638907992999
Fix,GT,34.2723285,-118.6050571,303.532,0.0042426405,0.1,106.40982,1638907993999
Fix,GT,34.2723285,-118.6050571,303.532,0.0044720625,0.1,106.408295,1638907994999
Fix,GT,34.2723285,-118.6050571,303.532,0.0028286814,0.1,106.40866,1638907995999
Fix,GT,34.2723285,-118.6050571,303.532,0.0028288998,0.1,106.408875,1638907996999
Fix,GT,34.2723285,-118.6050571,303.532,0.0036052864,0.1,106.408936,1638907997999
Fix,GT,34.2723285,-118.6050571,303.532,0.002828139,0.1,106.409,1638907998999
Fix,GT,34.2723285,-118.6050571,303.532,0.0014142136,0.1,106.408875,1638907999999
Fix,GT,34.2723285,-118.6050571,303.532,0.0014145105,0.1,106.408936,1638908000999
Fix,GT,34.2723285,-118.6050571,303.532,0.002236068,0.1,106.40851,1638908001999
Fix,GT,34.2723285,-118.6050571,303.532,0.002828205,0.1,106.408875,1638908002999
Fix,GT,34.2723285,-118.6050571,303.532,0.0036055513,0.1,106.40857,1638908003999
Fix,GT,34.2723285,-118.6050571,303.532,0.0044724913,0.1,106.40848,1638908004999
Fix,GT,34.2723285,-118.6050571,303.533,0.0063245553,0.1,106.40845,1638908005999
Fix,GT,34.2723285,-118.6050571,303.534,0.009486454,0.1,106.40845,1638908006999
Fix,GT,34.2723286,-118.6050571,303.535,0.0126491105,0.1,106.40842,1638908007999
Fix,GT,34.2723286,-118.6050571,303.536,0.018681541,0.1,106.4082,1638908008999
Fix,GT,34.2723287,-118.605057,303.537,0.027658634,0.1,106.40817,1638908009999
Fix,GT,34.2723288,-118.605057,303.539,0.05200467,0.1,106.40802,1638908010999
Fix,GT,34.2723282,-118.6050527,303.5629969446063,0.97617453,0.1,106.43759,1638908011999
Fix,GT,34.2723242,-118.6050342,303.6969915765524,2.5829463,0.1,106.425964,1638908012999
Fix,GT,34.2723167,-118.6049967,303.9989828948975,4.4456162,0.1,104.551544,1638908013999
Fix,GT,34.2723106,-118.6049433,304.4189794355035,5.5785837,0.1,97.88513,1638908014999
Fix,GT,34.2723138,-118.6048739,304.96896706712243,7.103425,0.1,84.84885,1638908015999
Fix,GT,34.2723365,-118.6047971,305.69096187829973,7.772639,0.1,66.920685,1638908016999
Fix,GT,34.2723816,-118.6047273,306.51096085047726,8.743199,0.1,47.879364,1638908017999
Fix,GT,34.2724509,-118.6046666,307.3729573879242,10.231351,0.1,32.6203,1638908018999
Fix,GT,34.2725403,-118.6046159,308.337951376915,11.645506,0.1,22.699097,1638908019999
Fix,GT,34.272645,-118.6045761,309.32295219802853,12.750617,0.1,15.502411,1638908020999
Fix,GT,34.2727629,-118.6045428,310.36494144415855,14.115085,0.1,12.0407715,1638908021999
Fix,GT,34.2728942,-118.6045153,311.46394270229337,15.41701,0.1,8.901764,1638908022999
Fix,GT,34.2730368,-118.6044924,312.61893883097173,16.515938,0.1,6.8743896,1638908023999
Fix,GT,34.27319,-118.6044762,313.8109364392161,17.562452,0.1,3.6678467,1638908024999
Fix,GT,34.2733506,-118.604471,315.0449345528484,18.123005,0.1,359.78522,1638908025999
Fix,GT,34.2735164,-118.6044787,316.3259272504449,18.729345,0.1,356.38095,1638908026999
Fix,GT,34.2736882,-118.6044976,317.6629252336025,19.527103,0.1,353.759,1638908027999
Fix,GT,34.2738652,-118.6045233,319.029923197627,19.954382,0.1,352.5206,1638908028999
Fix,GT,34.2740449,-118.6045529,320.3859267199636,20.078333,0.1,351.7387,1638908029999
Fix,GT,34.2742209,-118.6045832,321.69292355704306,19.326551,0.1,351.69324,1638908030999
Fix,GT,34.2743894,-118.6046116,323.0329255049229,18.426188,0.1,351.9643,1638908031999
Fix,GT,34.2745495,-118.6046372,324.3219257736206,17.416544,0.1,352.45908,1638908032999
Fix,GT,34.274699,-118.6046604,325.55392959022515,15.872055,0.1,352.4247,1638908033999
Fix,GT,34.2748337,-118.6046813,326.705932336092,14.322179,0.1,352.45615,1638908034999
Fix,GT,34.2749529,-118.6047002,327.681944763422,12.249733,0.1,352.1735,1638908035999
Fix,GT,34.2750518,-118.6047164,328.4859556749463,9.92236,0.1,352.006,1638908036999
Fix,GT,34.2751305,-118.6047292,329.14796438872816,7.7864842,0.1,352.1139,1638908037999
Fix,GT,34.2751912,-118.604739,329.65097392213346,5.8814626,0.1,352.096,1638908038999
Fix,GT,34.2752367,-118.6047463,330.02497991371155,4.467727,0.1,352.11438,1638908039999
Fix,GT,34.2752723,-118.604752,330.3239835032225,3.5454082,0.1,352.06366,1638908040999
Fix,GT,34.2753009,-118.6047568,330.5469878144264,2.9555306,0.1,351.97577,1638908041999
Fix,GT,34.2753272,-118.6047612,330.7629850927591,2.9765377,0.1,351.75714,1638908042999
Fix,GT,34.2753548,-118.6047659,330.9959842815399,3.3051233,0.1,351.81592,1638908043999
Fix,GT,34.2753886,-118.6047716,331.27497882461546,4.4263983,0.1,351.78543,1638908044999
Fix,GT,34.2754348,-118.6047794,331.6559705796242,5.8662305,0.1,351.72244,1638908045999
Fix,GT,34.2754915,-118.6047892,332.13296690344805,6.702915,0.1,351.62326,1638908046999
Fix,GT,34.2755514,-118.6047996,332.6269686172009,6.5722895,0.1,351.6423,1638908047999
Fix,GT,34.2756102,-118.6048095,333.11696623170377,6.6116056,0.1,351.7278,1638908048999
Fix,GT,34.2756709,-118.6048197,333.61296311497694,7.224836,0.1,351.83194,1638908049999
Fix,GT,34.2757386,-118.604831,334.1839606466294,7.7543297,0.1,351.83685,1638908050999
Fix,GT,34.275809,-118.6048427,334.7769581339955,8.035252,0.1,351.96863,1638908051999
Fix,GT,34.2758826,-118.6048544,335.3809563003182,8.510765,0.1,352.23428,1638908052999
Fix,GT,34.2759627,-118.6048666,336.0239522699117,9.329478,0.1,352.622,1638908053999
Fix,GT,34.2760493,-118.6048789,336.7209474329948,10.0132065,0.1,353.1113,1638908054999
Fix,GT,34.2761415,-118.604891,337.45794620686775,10.448778,0.1,353.7462,1638908055999
Fix,GT,34.2762348,-118.6049016,338.16395166033504,10.286505,0.1,354.55176,1638908056999
Fix,GT,34.2763274,-118.6049103,338.79495271962884,10.268414,0.1,355.56543,1638908057999
Fix,GT,34.2764161,-118.6049159,339.3609636507034,9.222668,0.1,357.21814,1638908058999
Fix,GT,34.2764932,-118.6049179,339.8059686706066,8.040366,0.1,358.72607,1638908059999
Fix,GT,34.2765617,-118.604918,340.1659737864733,7.1970634,0.1,359.81982,1638908060999
Fix,GT,34.276624,-118.6049167,340.49697277766467,6.6550946,0.1,0.8531494,1638908061999
Fix,GT,34.2766836,-118.6049143,340.78097489166265,6.6281524,0.1,1.6095886,1638908062999
Fix,GT,34.2767447,-118.6049109,341.0719730873108,7.00314,0.1,2.2779236,1638908063999
Fix,GT,34.2768096,-118.6049064,341.3649808397293,7.232641,0.1,3.0212402,1638908064999
Fix,GT,34.2768727,-118.6049008,341.6149806752205,6.803784,0.1,4.019409,1638908065999
Fix,GT,34.2769315,-118.6048944,341.8459837601185,6.2368073,0.1,4.8796387,1638908066999
Fix,GT,34.276985,-118.6048876,342.0309877163768,5.686189,0.1,5.5573425,1638908067999
Fix,GT,34.2770338,-118.6048807,342.19198596304653,5.2883625,0.1,6.099518,1638908068999
Fix,GT,34.2770811,-118.6048734,342.32699666976924,5.3277826,0.1,7.044739,1638908069999
Fix,GT,34.277129,-118.6048622,342.46998740971094,5.518166,0.1,11.299622,1638908070999
Fix,GT,34.2771762,-118.6048409,342.53799492239955,5.6852818,0.1,21.198547,1638908071999
Fix,GT,34.2772183,-118.6048033,342.48700511837006,6.0149994,0.1,38.83484,1638908072999
Fix,GT,34.2772487,-118.6047459,342.3510171971321,6.5067997,0.1,60.3284,1638908073999
Fix,GT,34.2772597,-118.6046739,342.1900086671114,7.0706043,0.1,82.55359,1638908074999
Fix,GT,34.2772542,-118.6045915,342.1149973794818,8.204709,0.1,95.23285,1638908075999
Fix,GT,34.2772367,-118.6044958,342.333983274281,9.798821,0.1,103.37256,1638908076999
Fix,GT,34.2772111,-118.6043868,342.788954752028,11.059384,0.1,105.03946,1638908077999
Fix,GT,34.2771821,-118.6042629,343.29795529949666,12.732073,0.1,105.10968,1638908078999
Fix,GT,34.2771483,-118.6041208,343.8419540589452,14.460933,0.1,105.78113,1638908079999
Fix,GT,34.2771099,-118.6039615,344.369953709364,16.01675,0.1,105.76004,1638908080999
Fix,GT,34.2770688,-118.6037936,344.8249588495493,16.058685,0.1,106.26819,1638908081999
Fix,GT,34.277027,-118.6036296,345.1569723607301,15.495819,0.1,106.86566,1638908082999
Fix,GT,34.2769862,-118.6034715,345.38798514938355,15.020988,0.1,107.03888,1638908083999
Fix,GT,34.2769449,-118.6033161,345.5279925203324,15.214561,0.1,107.599976,1638908084999
Fix,GT,34.2769004,-118.6031529,345.5829971747399,16.52476,0.1,107.91208,1638908085999
Fix,GT,34.2768518,-118.6029749,345.5220132813453,17.934904,0.1,107.986755,1638908086999
Fix,GT,34.2767993,-118.6027858,345.3370315302611,18.524773,0.1,108.429535,1638908087999
Fix,GT,34.2767445,-118.6025946,345.1040259809494,18.884132,0.1,108.98489,1638908088999
Fix,GT,34.2766858,-118.6023961,344.6510552393794,19.969828,0.1,109.82031,1638908089999
Fix,GT,34.2766207,-118.6021911,344.06707221710684,20.321089,0.1,111.21979,1638908090999
Fix,GT,34.276552,-118.6019862,343.4300609275103,20.370445,0.1,111.977234,1638908091999
Fix,GT,34.2764822,-118.6017816,342.78206531465054,20.378174,0.1,112.0697,1638908092999
Fix,GT,34.2764119,-118.6015747,342.12506775593755,20.93234,0.1,111.83972,1638908093999
Fix,GT,34.2763393,-118.6013579,341.42606621158126,22.143965,0.1,111.7612,1638908094999
Fix,GT,34.2762621,-118.6011298,340.7290727243424,23.163538,0.1,112.138916,1638908095999
Fix,GT,34.2761793,-118.6008929,339.97207728099823,24.20847,0.1,113.00729,1638908096999
Fix,GT,34.2760896,-118.6006469,339.1950818967819,25.265165,0.1,113.6991,1638908097999
Fix,GT,34.2759947,-118.6003923,338.3810855368376,26.005672,0.1,114.030334,1638908098999
Fix,GT,34.2758981,-118.6001343,337.5410850634575,26.110043,0.1,113.57242,1638908099999
Fix,GT,34.275805,-118.5998718,336.7040866647959,26.566236,0.1,112.39758,1638908100999
Fix,GT,34.2757122,-118.5996018,335.87208934080604,27.172295,0.1,112.152374,1638908101999
Fix,GT,34.2756185,-118.5993284,335.0170888605118,27.30257,0.1,112.28247,1638908102999
Fix,GT,34.275523,-118.5990527,334.1501000778675,27.642845,0.1,112.7164,1638908103999
Fix,GT,34.2754234,-118.5987765,333.2820942931175,27.921492,0.1,113.51984,1638908104999
Fix,GT,34.275321,-118.5984965,332.39409704768656,28.377344,0.1,113.42691,1638908105999
Fix,GT,34.2752174,-118.5982143,331.4751009256244,28.450806,0.1,113.806274,1638908106999
Fix,GT,34.2751124,-118.5979323,330.566097189486,28.459291,0.1,113.968994,1638908107999
Fix,GT,34.2750067,-118.597649,329.647099991858,28.730764,0.1,113.95276,1638908108999
Fix,GT,34.2748999,-118.5973642,328.70510503828524,28.904463,0.1,114.10303,1638908109999
Fix,GT,34.2747916,-118.5970755,327.7611034588814,29.423956,0.1,114.05542,1638908110999
Fix,GT,34.274682,-118.5967838,326.8260996243954,29.552237,0.1,114.14572,1638908111999
Fix,GT,34.2745721,-118.5964888,326.00606757020944,30.092903,0.1,113.543884,1638908112999
Fix,GT,34.2744632,-118.5961875,325.4900373878479,30.277363,0.1,113.28839,1638908113999
Fix,GT,34.2743557,-118.5958865,325.1050455927849,30.071293,0.1,112.94266,1638908114999
Fix,GT,34.2742518,-118.5955856,324.6850538908839,30.052576,0.1,111.80658,1638908115999
Fix,GT,34.2741526,-118.5952793,324.20505421304705,30.567152,0.1,110.45987,1638908116999
Fix,GT,34.2740573,-118.594964,323.7870382906794,31.195524,0.1,109.203674,1638908117999
Fix,GT,34.2739664,-118.5946421,323.43003384643794,31.383066,0.1,108.151306,1638908118999
Fix,GT,34.2738795,-118.5943182,323.159028175354,31.272266,0.1,107.37134,1638908119999
Fix,GT,34.2737971,-118.5939937,322.93902833986283,31.27584,0.1,106.24451,1638908120999
Fix,GT,34.2737215,-118.5936664,322.68402850437167,31.257282,0.1,104.56534,1638908121999
Fix,GT,34.2736538,-118.5933369,322.4500310564041,31.277971,0.1,102.81253,1638908122999
Fix,GT,34.2735937,-118.5930057,322.2030336356163,31.179173,0.1,101.624725,1638908123999
Fix,GT,34.2735386,-118.5926726,321.8700495356322,31.40497,0.1,100.568665,1638908124999
Fix,GT,34.2734882,-118.5923358,321.517046169281,31.582254,0.1,99.438995,1638908125999
Fix,GT,34.2734447,-118.5919963,321.262037876904,31.708324,0.1,97.63806,1638908126999
Fix,GT,34.2734101,-118.591654,321.025029487133,31.731527,0.1,96.025604,1638908127999
Fix,GT,34.2733815,-118.5913125,320.7560395374298,31.493475,0.1,95.23111,1638908128999
Fix,GT,34.2733577,-118.5909726,320.5230323008299,31.381184,0.1,93.91443,1638908129999
Fix,GT,34.2733406,-118.590632,320.28403122985367,31.476917,0.1,92.58948,1638908130999
Fix,GT,34.27333,-118.5902893,319.8680540075302,31.669697,0.1,91.50577,1638908131999
Fix,GT,34.2733223,-118.589946,319.42106819677355,31.558355,0.1,91.11633,1638908132999
Fix,GT,34.2733166,-118.5896041,318.86507110309606,31.439846,0.1,90.67856,1638908133999
Fix,GT,34.2733126,-118.5892636,318.5430331903696,31.241938,0.1,90.3136,1638908134999
Fix,GT,34.2733098,-118.5889258,318.27703336703775,30.99594,0.1,90.42749,1638908135999
Fix,GT,34.2733066,-118.5885906,318.0480232247114,30.752924,0.1,90.407166,1638908136999
Fix,GT,34.273303,-118.588258,317.83902334702015,30.504532,0.1,90.64435,1638908137999
Fix,GT,34.2732986,-118.5879278,317.66302607822416,30.423525,0.1,90.62103,1638908138999
Fix,GT,34.2732949,-118.5875953,317.49202097129825,30.94748,0.1,90.53284,1638908139999
Fix,GT,34.2732909,-118.5872546,317.322023717165,31.82921,0.1,90.60965,1638908140999
Fix,GT,34.2732866,-118.5869048,317.2310079464913,32.41827,0.1,90.59723,1638908141999
Fix,GT,34.273282,-118.5865533,317.149005325079,32.22841,0.1,90.66046,1638908142999
Fix,GT,34.2732778,-118.58621,317.05301204258205,30.976244,0.1,90.52719,1638908143999
Fix,GT,34.273274,-118.5858777,316.9830053799152,30.414312,0.1,90.39432,1638908144999
Fix,GT,34.2732712,-118.5855482,316.8920108141899,30.322721,0.1,90.33307,1638908145999
Fix,GT,34.2732686,-118.5852182,316.818008151412,30.501429,0.1,90.36566,1638908146999
Fix,GT,34.2732653,-118.5848858,316.74201092338564,30.725212,0.1,90.52878,1638908147999
Fix,GT,34.2732611,-118.5845507,316.6550068616867,31.007137,0.1,90.67352,1638908148999
Fix,GT,34.2732562,-118.5842135,316.5610110330581,30.994976,0.1,90.91028,1638908149999
Fix,GT,34.2732511,-118.5838772,316.49000554394723,31.042992,0.1,90.50464,1638908150999
Fix,GT,34.2732484,-118.5835378,316.41300974947217,31.490793,0.1,90.109314,1638908151999
Fix,GT,34.2732476,-118.5831921,316.33301119756703,32.21989,0.1,89.69855,1638908152999
Fix,GT,34.2732486,-118.5828378,316.2420126589537,33.081287,0.1,89.41934,1638908153999
Fix,GT,34.273252,-118.5824742,316.16200282669064,33.78251,0.1,88.43503,1638908154999
Fix,GT,34.2732617,-118.5821082,316.1020085208416,33.61374,0.1,87.71393,1638908155999
Fix,GT,34.2732717,-118.5817448,316.0599985729456,33.33441,0.1,88.0376,1638908156999
Fix,GT,34.2732821,-118.5813836,315.9980086034536,33.358234,0.1,87.37372,1638908157999
Fix,GT,34.2732956,-118.5810204,315.9350144070387,33.477867,0.1,87.360535,1638908158999
Fix,GT,34.2733065,-118.5806581,315.863014474988,33.34693,0.1,87.957245,1638908159999
Fix,GT,34.2733152,-118.580295,315.791,33.658394,0.1,88.24292,1638908160999
Fix,GT,34.2733231,-118.5799268,315.7170189964771,34.180367,0.1,88.362274,1638908161999
Fix,GT,34.2733301,-118.5795528,315.6460117444993,34.72261,0.1,88.53418,1638908162999
Fix,GT,34.273337,-118.5791727,315.56501179981234,35.314423,0.1,88.49408,1638908163999
Fix,GT,34.2733444,-118.5787864,315.4780103724003,35.82387,0.1,88.43402,1638908164999
Fix,GT,34.2733515,-118.578395,315.38001637488605,36.2865,0.1,88.44998,1638908165999
Fix,GT,34.2733591,-118.5779993,315.2560239267349,36.592247,0.1,88.40079,1638908166999
Fix,GT,34.2733683,-118.5776005,315.17099098598953,36.84128,0.1,87.990295,1638908167999
Fix,GT,34.2733784,-118.5772002,315.0680150913,36.930756,0.1,88.07858,1638908168999
Fix,GT,34.2733879,-118.5767982,314.97101061189176,37.14693,0.1,88.13226,1638908169999
Fix,GT,34.2733966,-118.576394,314.8750137050152,37.294155,0.1,88.54126,1638908170999
Fix,GT,34.2734027,-118.5759892,314.7770122375488,37.26398,0.1,88.84833,1638908171999
Fix,GT,34.2734075,-118.5755852,314.67201690202955,37.194996,0.1,89.06073,1638908172999
Fix,GT,34.2734108,-118.5751818,314.5780046300292,37.094166,0.1,89.32965,1638908173999
Fix,GT,34.2734127,-118.5747788,314.4620310051441,37.14125,0.1,89.59125,1638908174999
Fix,GT,34.2734137,-118.574375,314.38102491283416,37.255135,0.1,89.581635,1638908175999
Fix,GT,34.2734151,-118.57397,314.26602971309427,37.30213,0.1,89.65216,1638908176999
Fix,GT,34.2734149,-118.573566,314.1800015707016,37.081123,0.1,89.87918,1638908177999
Fix,GT,34.273414,-118.5731645,314.0980126199722,36.89122,0.1,89.95215,1638908178999
Fix,GT,34.2734116,-118.5727646,314.009014259696,36.776237,0.1,90.45325,1638908179999
Fix,GT,34.2734063,-118.5723657,313.88401113885647,36.70946,0.1,90.8349,1638908180999
Fix,GT,34.2733995,-118.5719678,313.7870063922405,36.568123,0.1,90.926544,1638908181999
Fix,GT,34.273393,-118.5715715,313.7010144447685,36.445057,0.1,90.86694,1638908182999
Fix,GT,34.2733864,-118.5711767,313.6250096709728,36.231007,0.1,91.05231,1638908183999
Fix,GT,34.2733781,-118.5707854,313.5420080931186,35.875202,0.1,91.39166,1638908184999
Fix,GT,34.2733682,-118.5703979,313.45501137876505,35.527153,0.1,91.76471,1638908185999
Fix,GT,34.2733561,-118.5700142,313.3580228534937,35.193874,0.1,92.03964,1638908186999
Fix,GT,34.2733435,-118.5696332,313.24101803106066,35.130615,0.1,91.922,1638908187999
Fix,GT,34.2733308,-118.5692498,313.126034568131,35.566837,0.1,92.22748,1638908188999
Fix,GT,34.2733153,-118.5688625,313.042018182516,35.728905,0.1,92.80133,1638908189999
Fix,GT,34.2732975,-118.5684768,312.9640248962641,35.410557,0.1,92.85748,1638908190999
Fix,GT,34.2732803,-118.5680943,312.8690249999762,35.18042,0.1,92.96912,1638908191999
Fix,GT,34.273262,-118.5677124,312.74501840871574,35.2986,0.1,93.09601,1638908192999
Fix,GT,34.2732421,-118.5673304,312.6380084015727,35.11897,0.1,93.54321,1638908193999
Fix,GT,34.2732207,-118.566952,312.5760236212016,34.732815,0.1,93.68396,1638908194999
Fix,GT,34.2731989,-118.5665774,312.4329915298819,34.517693,0.1,93.85745,1638908195999
Fix,GT,34.2731765,-118.5662019,312.403011906147,34.888664,0.1,93.82547,1638908196999
Fix,GT,34.2731533,-118.5658226,312.3110136613846,35.058525,0.1,94.21088,1638908197999
Fix,GT,34.2731273,-118.5654448,312.2270137166977,34.74298,0.1,94.62164,1638908198999
Fix,GT,34.2731017,-118.5650708,312.1440120500922,34.422565,0.1,94.214935,1638908199999
Fix,GT,34.2730782,-118.5646996,312.0790172823668,34.153603,0.1,94.15793,1638908200999
Fix,GT,34.273054,-118.5643291,311.97301041054726,34.40536,0.1,94.27945,1638908201999
Fix,GT,34.2730285,-118.563955,311.92301741945744,34.587585,0.1,94.74475,1638908202999
Fix,GT,34.2730001,-118.563582,311.84601923680304,34.420685,0.1,95.496796,1638908203999
Fix,GT,34.2729681,-118.5632101,311.77001404523844,34.394657,0.1,95.92529,1638908204999
Fix,GT,34.2729342,-118.5628404,311.6780158625841,34.126488,0.1,96.19382,1638908205999
Fix,GT,34.272899,-118.5624729,311.5760176936388,34.011826,0.1,96.378845,1638908206999
Fix,GT,34.2728643,-118.5621065,311.4830177615881,33.873947,0.1,96.28604,1638908207999
Fix,GT,34.2728288,-118.561743,311.40501248109337,33.53141,0.1,96.74448,1638908208999
Fix,GT,34.2727917,-118.5613829,311.309014318943,33.380108,0.1,96.80133,1638908209999
Fix,GT,34.2727555,-118.5610228,311.16003413772586,33.342987,0.1,96.58273,1638908210999
Fix,GT,34.2727194,-118.5606649,310.9110559090376,33.055504,0.1,96.77081,1638908211999
Fix,GT,34.272683,-118.5603103,310.57607422524694,32.76643,0.1,96.9151,1638908212999
Fix,GT,34.2726461,-118.5599586,310.12609631615874,32.52606,0.1,96.90231,1638908213999
Fix,GT,34.2726103,-118.5596093,309.5971094448566,32.307632,0.1,96.707,1638908214999
Fix,GT,34.2725752,-118.5592621,308.9891208417415,32.131805,0.1,96.76721,1638908215999
Fix,GT,34.27254,-118.558916,308.28313782978057,32.18794,0.1,96.72888,1638908216999
Fix,GT,34.2725056,-118.5585681,307.4241512608528,32.270504,0.1,96.45111,1638908217999
Fix,GT,34.2724723,-118.5582197,306.5341629266739,32.312084,0.1,96.354614,1638908218999
Fix,GT,34.2724389,-118.5578716,305.71418025451896,32.203827,0.1,96.499115,1638908219999
Fix,GT,34.2724049,-118.557525,304.8381641330719,32.090252,0.1,96.60675,1638908220999
Fix,GT,34.2723704,-118.5571796,303.9961553762555,31.972223,0.1,96.76279,1638908221999
Fix,GT,34.2723355,-118.5568357,303.2701052160263,31.83515,0.1,96.87018,1638908222999
Fix,GT,34.2723003,-118.5564935,302.6481112535,31.674799,0.1,96.88406,1638908223999
Fix,GT,34.2722675,-118.5561527,302.10909652090066,31.583544,0.1,95.90903,1638908224999
Fix,GT,34.2722396,-118.5558102,301.6840702763796,31.802727,0.1,95.030914,1638908225999
Fix,GT,34.2722175,-118.5554658,301.37105146783585,31.774607,0.1,93.31586,1638908226999
Fix,GT,34.2722062,-118.5551215,301.1380382602215,31.705486,0.1,90.88013,1638908227999
Fix,GT,34.2722075,-118.5547779,300.97702495902774,31.547382,0.1,88.47244,1638908228999
Fix,GT,34.2722187,-118.5544351,300.91900385344024,31.7619,0.1,86.7583,1638908229999
Fix,GT,34.272239,-118.5540883,300.9919806642533,32.23827,0.1,84.97351,1638908230999
Fix,GT,34.2722688,-118.5537389,301.14197865527865,32.437325,0.1,83.058716,1638908231999
Fix,GT,34.2723083,-118.5533891,301.2819435287714,32.51984,0.1,81.14029,1638908232999
Fix,GT,34.2723568,-118.5530429,301.41198241329187,32.140804,0.1,79.53363,1638908233999
Fix,GT,34.2724129,-118.5527028,301.5549764688015,31.72884,0.1,77.68155,1638908234999
Fix,GT,34.272479,-118.5523698,301.72397048318385,31.315245,0.1,75.11792,1638908235999
Fix,GT,34.2725554,-118.5520448,301.8519723550081,30.906694,0.1,73.120605,1638908236999
Fix,GT,34.2726387,-118.5517267,301.9309940556884,30.528976,0.1,71.713776,1638908237999
Fix,GT,34.2727265,-118.5514145,301.9719960234165,30.196583,0.1,70.43579,1638908238999
Fix,GT,34.2728174,-118.5511113,302.0149940145611,28.999376,0.1,69.80655,1638908239999
Fix,GT,34.2729054,-118.5508216,302.0489939939976,27.913471,0.1,69.72888,1638908240999
Fix,GT,34.2729902,-118.5505419,302.0889899560213,27.071732,0.1,69.78458,1638908241999
Fix,GT,34.2730727,-118.5502687,302.1209879060983,26.48314,0.1,69.88437,1638908242999
Fix,GT,34.2731535,-118.5499999,302.172989887476,26.17018,0.1,69.89325,1638908243999
Fix,GT,34.273233,-118.5497342,302.252981735766,25.857079,0.1,69.96576,1638908244999
Fix,GT,34.2733114,-118.5494708,302.3349837107658,25.73216,0.1,70.15521,1638908245999
Fix,GT,34.2733896,-118.5492073,302.4059877415896,25.822716,0.1,69.977295,1638908246999
Fix,GT,34.2734691,-118.5489429,302.48698155123,26.01043,0.1,69.7879,1638908247999
Fix,GT,34.2735503,-118.5486755,302.56998148953915,26.476427,0.1,69.584625,1638908248999
Fix,GT,34.2736328,-118.5484031,302.6769752378464,26.898151,0.1,69.94812,1638908249999
Fix,GT,34.2737148,-118.5481247,302.7889772253036,27.517778,0.1,70.592224,1638908250999
Fix,GT,34.2737945,-118.5478389,302.9319584555626,27.98282,0.1,71.83411,1638908251999
Fix,GT,34.2738683,-118.5475471,303.1019583184719,28.17382,0.1,73.88925,1638908252999
Fix,GT,34.2739336,-118.5472494,303.26996445518733,28.586596,0.1,75.801605,1638908253999
Fix,GT,34.2739938,-118.5469441,303.4909370700121,29.105385,0.1,77.02838,1638908254999
Fix,GT,34.2740481,-118.5466342,303.79194107174874,29.2235,0.1,78.70035,1638908255999
Fix,GT,34.2740949,-118.5463215,304.131923990488,29.296078,0.1,80.3504,1638908256999
Fix,GT,34.2741351,-118.5460064,304.53691315257544,29.436832,0.1,81.68646,1638908257999
Fix,GT,34.2741687,-118.5456894,305.0118937487602,29.309958,0.1,83.307434,1638908258999
Fix,GT,34.2741947,-118.5453738,305.53388274335856,29.106604,0.1,84.90146,1638908259999
Fix,GT,34.2742131,-118.5450609,306.10487594997886,28.67842,0.1,86.47751,1638908260999
Fix,GT,34.274226,-118.5447517,306.67787555587296,28.408491,0.1,86.95468,1638908261999
Fix,GT,34.2742393,-118.5444437,307.18892250990865,28.322704,0.1,86.655334,1638908262999
Fix,GT,34.2742529,-118.5441384,307.68788771653175,28.090586,0.1,86.66049,1638908263999
Fix,GT,34.2742673,-118.5438328,308.14491552007195,28.300207,0.1,86.398895,1638908264999
Fix,GT,34.2742815,-118.5435259,308.56590439033505,28.228352,0.1,86.79285,1638908265999
Fix,GT,34.2742942,-118.5432205,308.93091716527937,28.15681,0.1,86.91821,1638908266999
Fix,GT,34.2743072,-118.5429143,309.27991909372804,28.294874,0.1,86.83765,1638908267999
Fix,GT,34.2743205,-118.542607,309.5769517440796,28.384531,0.1,86.83722,1638908268999
Fix,GT,34.2743334,-118.5422985,309.80894719266894,28.511591,0.1,87.07965,1638908269999
Fix,GT,34.274345,-118.5419885,310.0539404050708,28.687174,0.1,87.29486,1638908270999
Fix,GT,34.2743572,-118.5416754,310.20197343182565,28.988308,0.1,86.89322,1638908271999
Fix,GT,34.2743709,-118.5413603,310.2849911167622,29.108488,0.1,86.78183,1638908272999
Fix,GT,34.2743848,-118.5410443,310.33798886168006,29.171406,0.1,86.851166,1638908273999
Fix,GT,34.2743984,-118.5407277,310.39498882770533,29.230297,0.1,86.8587,1638908274999
Fix,GT,34.274412,-118.5404102,310.401997758627,29.33716,0.1,86.86893,1638908275999
Fix,GT,34.2744263,-118.5400912,310.33602248167995,29.506578,0.1,86.435486,1638908276999
Fix,GT,34.2744436,-118.5397688,310.2270180401802,30.038189,0.1,85.84619,1638908277999
Fix,GT,34.2744647,-118.5394403,310.12202714180944,30.599312,0.1,84.86694,1638908278999
Fix,GT,34.2744917,-118.5391075,309.99403176224234,31.011063,0.1,83.71118,1638908279999
Fix,GT,34.2745244,-118.5387723,309.8790250307917,31.003527,0.1,82.683685,1638908280999
Fix,GT,34.2745627,-118.5384392,309.73502738785743,30.99358,0.1,81.17886,1638908281999
Fix,GT,34.2746085,-118.5381066,309.58603891599176,31.132856,0.1,79.844025,1638908282999
Fix,GT,34.2746599,-118.5377734,309.4390344395638,31.29389,0.1,78.74136,1638908283999
Fix,GT,34.2747176,-118.5374401,309.30402763462064,31.32702,0.1,77.451904,1638908284999
Fix,GT,34.2747809,-118.5371097,309.14102540713554,31.157215,0.1,76.259186,1638908285999
Fix,GT,34.2748496,-118.5367828,309.0510301149488,30.981125,0.1,75.17441,1638908286999
Fix,GT,34.2749231,-118.5364576,309.020002323389,31.099066,0.1,74.068756,1638908287999
Fix,GT,34.2750026,-118.5361331,309.07798135805126,31.219278,0.1,72.87799,1638908288999
Fix,GT,34.2750871,-118.53581,309.21295559626816,31.104214,0.1,71.72754,1638908289999
Fix,GT,34.2751774,-118.5354923,309.39594609183075,30.747644,0.1,70.268585,1638908290999
Fix,GT,34.2752731,-118.5351814,309.6929294775724,30.303465,0.1,68.827576,1638908291999
Fix,GT,34.2753727,-118.5348778,310.0159104111195,29.817902,0.1,67.62537,1638908292999
Fix,GT,34.2754757,-118.5345835,310.3929101529121,29.042004,0.1,66.492096,1638908293999
Fix,GT,34.2755807,-118.5342972,310.7819075235128,28.582561,0.1,65.61728,1638908294999
Fix,GT,34.2756871,-118.5340172,311.141916766286,28.162277,0.1,64.90561,1638908295999
Fix,GT,34.2757945,-118.5337411,311.45993322277064,27.980959,0.1,64.75037,1638908296999
Fix,GT,34.2759006,-118.5334674,311.7989138989448,27.643633,0.1,64.65549,1638908297999
Fix,GT,34.2760072,-118.5331971,312.1249304420352,27.551552,0.1,64.21307,1638908298999
Fix,GT,34.2761148,-118.5329268,312.4229134075642,27.687971,0.1,64.20123,1638908299999
Fix,GT,34.2762232,-118.5326538,312.7589276357889,28.068888,0.1,64.21167,1638908300999
Fix,GT,34.2763327,-118.5323769,313.15491533309216,28.299212,0.1,64.52692,1638908301999
Fix,GT,34.2764409,-118.5320987,313.52091024136547,28.303053,0.1,64.68408,1638908302999
Fix,GT,34.2765501,-118.5318203,313.89191485536094,28.404377,0.1,64.35864,1638908303999
Fix,GT,34.2766603,-118.5315413,314.2419170529842,28.508743,0.1,64.30423,1638908304999
Fix,GT,34.276771,-118.5312609,314.58191192913057,28.736763,0.1,64.27478,1638908305999
Fix,GT,34.2768834,-118.5309781,314.9219116823673,28.933666,0.1,64.18793,1638908306999
Fix,GT,34.2769963,-118.530694,315.2539237343669,29.11719,0.1,64.17761,1638908307999
Fix,GT,34.2771101,-118.5304077,315.55492352187633,29.30032,0.1,64.237915,1638908308999
Fix,GT,34.2772232,-118.5301195,315.8189455757141,29.377779,0.1,64.66882,1638908309999
Fix,GT,34.2773352,-118.5298304,316.0379379813671,29.402512,0.1,64.79144,1638908310999
Fix,GT,34.277446,-118.5295406,316.279932834804,29.27097,0.1,65.61621,1638908311999
Fix,GT,34.2775503,-118.5292492,316.4879401345253,29.212502,0.1,67.30151,1638908312999
Fix,GT,34.2776457,-118.5289554,316.7229424698949,28.881178,0.1,69.41681,1638908313999
Fix,GT,34.2777316,-118.5286617,316.90296237844234,28.475864,0.1,71.11017,1638908314999
Fix,GT,34.2778096,-118.5283684,317.03498491024976,28.30239,0.1,72.84833,1638908315999
Fix,GT,34.2778798,-118.5280726,317.1149848694801,28.387445,0.1,74.6095,1638908316999
Fix,GT,34.2779429,-118.5277729,317.13200252866744,28.606636,0.1,76.417114,1638908317999
Fix,GT,34.2779992,-118.527467,317.10601774865387,29.093786,0.1,78.20038,1638908318999
Fix,GT,34.2780474,-118.5271549,317.0190177962184,29.382593,0.1,80.160095,1638908319999
Fix,GT,34.278087,-118.5268382,316.8920458850861,29.591019,0.1,82.07074,1638908320999
Fix,GT,34.2781186,-118.5265175,316.7030383403897,29.935368,0.1,83.81241,1638908321999
Fix,GT,34.2781417,-118.5261927,316.49107176065445,30.087212,0.1,85.8273,1638908322999
Fix,GT,34.2781562,-118.5258646,316.1810796617865,30.453274,0.1,87.582214,1638908323999
Fix,GT,34.2781622,-118.5255321,315.8241004869938,30.83609,0.1,89.44739,1638908324999
Fix,GT,34.2781604,-118.5251948,315.42710592120886,31.274775,0.1,90.57248,1638908325999
Fix,GT,34.2781562,-118.5248546,314.99612174123524,31.301796,0.1,90.503845,1638908326999
Fix,GT,34.278153,-118.5245157,314.49815063142773,31.103895,0.1,90.42337,1638908327999
Fix,GT,34.2781495,-118.5241787,313.9031718645096,31.006968,0.1,90.54785,1638908328999
Fix,GT,34.278147,-118.5238411,313.21419058859345,31.141588,0.1,90.11307,1638908329999
Fix,GT,34.2781452,-118.5235034,312.4661989374161,31.026943,0.1,90.23035,1638908330999
Fix,GT,34.2781423,-118.5231673,311.6832099561691,30.882175,0.1,90.47281,1638908331999
Fix,GT,34.2781386,-118.5228317,310.8912052465677,30.962372,0.1,90.66077,1638908332999
Fix,GT,34.2781326,-118.5224944,310.1162084147334,31.140343,0.1,91.55246,1638908333999
Fix,GT,34.2781225,-118.5221555,309.31521424144506,31.329714,0.1,92.03372,1638908334999
Fix,GT,34.27811,-118.5218158,308.51720949304104,31.290188,0.1,92.675354,1638908335999
Fix,GT,34.2780936,-118.5214771,307.71722066920995,31.20025,0.1,93.67822,1638908336999
Fix,GT,34.2780726,-118.5211396,306.9242105760574,31.16373,0.1,94.33569,1638908337999
Fix,GT,34.2780491,-118.5208008,306.11920844054225,31.469072,0.1,94.76697,1638908338999
Fix,GT,34.2780234,-118.5204585,305.31721165907385,31.87125,0.1,95.12427,1638908339999
Fix,GT,34.2779957,-118.5201115,304.49422025394443,32.35158,0.1,95.39111,1638908340999
Fix,GT,34.2779667,-118.5197599,303.6792181231379,32.608692,0.1,95.42563,1638908341999
Fix,GT,34.2779385,-118.5194081,302.8522240728736,32.46376,0.1,95.23218,1638908342999
Fix,GT,34.2779104,-118.5190584,302.0272165269851,32.247288,0.1,95.37628,1638908343999
Fix,GT,34.2778823,-118.5187108,301.233211643815,32.097183,0.1,95.20825,1638908344999
Fix,GT,34.2778555,-118.5183643,300.5031849761009,31.962515,0.1,95.00983,1638908345999
Fix,GT,34.2778297,-118.5180196,299.81418271112443,31.710512,0.1,94.986694,1638908346999
Fix,GT,34.2778036,-118.5176804,299.1131886422634,31.059313,0.1,95.42444,1638908347999
Fix,GT,34.2777771,-118.517347,298.4191863703728,30.721893,0.1,94.98645,1638908348999
Fix,GT,34.277754,-118.5170149,297.68419782257087,30.70905,0.1,94.34042,1638908349999
Fix,GT,34.2777333,-118.5166825,296.9591983160973,30.666407,0.1,93.94171,1638908350999
Fix,GT,34.2777152,-118.516351,296.2601877605915,30.53182,0.1,93.24515,1638908351999
Fix,GT,34.2777004,-118.5160198,295.60518268668653,30.537018,0.1,92.64502,1638908352999
Fix,GT,34.2776885,-118.515689,294.97117759323123,30.449932,0.1,92.0289,1638908353999
Fix,GT,34.2776794,-118.5153577,294.34916968667505,30.6439,0.1,91.4603,1638908354999
Fix,GT,34.2776732,-118.5150233,293.7541701011658,30.968327,0.1,90.7088,1638908355999
Fix,GT,34.2776703,-118.5146864,293.1601677203179,31.009727,0.1,90.21628,1638908356999
Fix,GT,34.2776697,-118.5143501,292.5671485193968,30.92203,0.1,89.72464,1638908357999
Fix,GT,34.2776712,-118.5140142,291.9641657373309,31.021881,0.1,89.345,1638908358999
Fix,GT,34.2776749,-118.5136756,291.3661802177429,31.33329,0.1,88.767365,1638908359999
Fix,GT,34.2776809,-118.5133355,290.73018065261846,31.305094,0.1,88.48407,1638908360999
Fix,GT,34.2776884,-118.5129945,290.0331980727911,31.562767,0.1,88.131775,1638908361999
Fix,GT,34.2776974,-118.5126502,289.3141985484362,31.879513,0.1,87.83911,1638908362999
Fix,GT,34.2777077,-118.5123026,288.58420755368473,32.189156,0.1,87.84494,1638908363999
Fix,GT,34.2777167,-118.5119509,287.8841738533974,32.62312,0.1,88.03854,1638908364999
Fix,GT,34.2777261,-118.5115968,287.25217998158934,32.58175,0.1,87.94736,1638908365999
Fix,GT,34.277736,-118.5112436,286.6381832809448,32.487495,0.1,87.737915,1638908366999
Fix,GT,34.2777465,-118.5108919,286.05716649246216,32.310146,0.1,87.72092,1638908367999
Fix,GT,34.2777568,-118.5105424,285.5011611351967,32.10805,0.1,87.81256,1638908368999
Fix,GT,34.2777669,-118.510195,284.96214709770675,31.942556,0.1,87.758484,1638908369999
Fix,GT,34.2777769,-118.5098477,284.4321532263756,32.096096,0.1,87.7962,1638908370999
Fix,GT,34.2777868,-118.5094989,283.92014779382947,32.128353,0.1,87.91864,1638908371999
Fix,GT,34.277796,-118.5091509,283.40514814341066,32.03596,0.1,88.01999,1638908372999
Fix,GT,34.277805,-118.508802,282.9231572278738,32.2558,0.1,87.89511,1638908373999
Fix,GT,34.2778149,-118.5084506,282.4161430026889,32.496967,0.1,87.76453,1638908374999
Fix,GT,34.2778252,-118.5080965,281.9491550396681,32.750393,0.1,87.88745,1638908375999
Fix,GT,34.2778351,-118.5077397,281.49110555458066,32.94613,0.1,87.83914,1638908376999
Fix,GT,34.2778457,-118.507383,281.0041440044642,32.781307,0.1,87.65158,1638908377999
Fix,GT,34.2778568,-118.5070271,280.4941472890377,32.86626,0.1,87.578125,1638908378999
Fix,GT,34.2778675,-118.5066694,280.0291299133301,33.07263,0.1,87.89728,1638908379999
Fix,GT,34.2778768,-118.5063092,279.52315389037136,33.277874,0.1,88.04996,1638908380999
Fix,GT,34.2778861,-118.5059471,279.0091512774825,33.37272,0.1,87.87964,1638908381999
Fix,GT,34.2778963,-118.5055856,278.50414865100385,33.270416,0.1,87.871704,1638908382999
Fix,GT,34.2779064,-118.5052246,278.010151976645,33.19025,0.1,87.75519,1638908383999
Fix,GT,34.2779169,-118.5048655,277.5101463497281,32.960068,0.1,87.784515,1638908384999
Fix,GT,34.277927,-118.5045089,277.00716464710234,32.74824,0.1,87.80707,1638908385999
Fix,GT,34.2779369,-118.5041548,276.4841770223379,32.48591,0.1,87.88226,1638908386999
Fix,GT,34.2779464,-118.5038036,276.01513832998273,32.2628,0.1,87.87622,1638908387999
Fix,GT,34.2779566,-118.5034531,275.51912659168244,32.376442,0.1,87.54831,1638908388999
Fix,GT,34.2779677,-118.5031005,275.02915406501296,32.610603,0.1,87.645935,1638908389999
Fix,GT,34.2779782,-118.5027453,274.50618166065215,32.852074,0.1,88.0538,1638908390999
Fix,GT,34.2779857,-118.5023874,273.85819421005255,33.048992,0.1,88.83133,1638908391999
Fix,GT,34.2779863,-118.5020292,273.27217031764985,32.93144,0.1,90.42047,1638908392999
Fix,GT,34.2779778,-118.5016711,272.75515546029806,33.09597,0.1,92.347534,1638908393999
Fix,GT,34.2779595,-118.5013108,272.2471588618756,33.41537,0.1,94.18884,1638908394999
Fix,GT,34.2779316,-118.5009489,271.7381530915499,33.420856,0.1,95.99988,1638908395999
Fix,GT,34.2778943,-118.50059,271.216168774426,33.21114,0.1,97.849396,1638908396999
Fix,GT,34.2778477,-118.5002341,270.7081660791636,33.18182,0.1,99.5426,1638908397999
Fix,GT,34.2777922,-118.499879,270.1991541167497,33.407024,0.1,101.34042,1638908398999
Fix,GT,34.2777272,-118.4995235,269.67316372388603,33.597042,0.1,103.138855,1638908399999
Fix,GT,34.2776526,-118.4991689,269.1611517032385,33.80746,0.1,104.831116,1638908400999
Fix,GT,34.2775682,-118.4988144,268.7431148028374,33.990517,0.1,106.86264,1638908401999
Fix,GT,34.2774735,-118.4984645,268.465059081912,33.86608,0.1,108.71817,1638908402999
Fix,GT,34.2773697,-118.4981184,268.33402493190766,33.885925,0.1,110.53952,1638908403999
Fix,GT,34.2772572,-118.4977774,268.3509718904496,33.64937,0.1,112.30963,1638908404999
Fix,GT,34.2771372,-118.4974443,268.5159311382771,33.22516,0.1,114.16803,1638908405999
Fix,GT,34.2770099,-118.4971206,268.8248964831829,32.75906,0.1,116.0531,1638908406999
Fix,GT,34.2768762,-118.4968064,269.2438459544182,32.26898,0.1,117.78818,1638908407999
Fix,GT,34.2767369,-118.4965017,269.7958015133142,31.852768,0.1,119.49774,1638908408999
Fix,GT,34.2765912,-118.4962046,270.4647884557247,31.73892,0.1,121.08862,1638908409999
Fix,GT,34.276439,-118.4959123,271.13479748916626,31.830175,0.1,122.65973,1638908410999
Fix,GT,34.2762798,-118.495626,271.76582242250447,31.589006,0.1,124.47345,1638908411999
Fix,GT,34.2761142,-118.4953486,272.27286017584805,31.402006,0.1,126.38861,1638908412999
Fix,GT,34.2759423,-118.4950784,272.70089808845523,31.237871,0.1,128.12799,1638908413999
Fix,GT,34.2757649,-118.4948177,273.010913828671,30.874804,0.1,130.02051,1638908414999
Fix,GT,34.2755819,-118.4945661,273.2569232401848,30.804235,0.1,131.80658,1638908415999
Fix,GT,34.2753943,-118.4943202,273.50794871711724,30.650406,0.1,132.77258,1638908416999
Fix,GT,34.2752039,-118.4940796,273.5919293365478,30.553936,0.1,133.87775,1638908417999
Fix,GT,34.2750124,-118.4938442,273.9299356222153,30.16414,0.1,134.35413,1638908418999
Fix,GT,34.2748227,-118.4936124,274.13209999620915,29.772867,0.1,134.5097,1638908419999
Fix,GT,34.2746354,-118.4933828,273.9360129299164,29.596207,0.1,134.11917,1638908420999
Fix,GT,34.2744479,-118.4931522,273.7262947793603,29.920687,0.1,134.32324,1638908421999
Fix,GT,34.2742577,-118.4929214,273.4081233551502,29.884611,0.1,134.6593,1638908422999
Fix,GT,34.2740681,-118.4926916,272.99712686866525,29.864166,0.1,134.38696,1638908423999
Fix,GT,34.2738787,-118.4924586,272.6381303935051,30.262957,0.1,134.02643,1638908424999
Fix,GT,34.2736871,-118.4922216,272.19412086761,30.567652,0.1,134.10004,1638908425999
Fix,GT,34.2734936,-118.4919841,271.7521833219528,30.735357,0.1,134.32669,1638908426999
Fix,GT,34.2732981,-118.4917449,271.13020666527746,31.142685,0.1,134.22922,1638908427999
Fix,GT,34.2731005,-118.4915008,270.4682169588804,31.64326,0.1,133.82544,1638908428999
Fix,GT,34.2729004,-118.4912526,269.8072207013965,32.096092,0.1,134.30743,1638908429999
Fix,GT,34.2726957,-118.4910026,269.07931029069425,32.56006,0.1,134.29721,1638908430999
Fix,GT,34.2724891,-118.4907486,268.4002580052614,32.93406,0.1,134.12988,1638908431999
Fix,GT,34.2722802,-118.4904914,267.796182300508,33.313694,0.1,134.13525,1638908432999
Fix,GT,34.2720696,-118.4902331,267.0662590745687,33.363407,0.1,134.3627,1638908433999
Fix,GT,34.2718577,-118.4899738,266.3771630849242,33.643776,0.1,134.28769,1638908434999
Fix,GT,34.2716452,-118.4897141,265.78416675591467,33.504185,0.1,134.34872,1638908435999
Fix,GT,34.2714341,-118.4894555,265.26117712140086,33.27577,0.1,134.28955,1638908436999
Fix,GT,34.2712244,-118.4891992,264.8641172089577,33.001675,0.1,134.32169,1638908437999
Fix,GT,34.2710166,-118.4889449,264.4750738236904,32.717995,0.1,134.36902,1638908438999
Fix,GT,34.2708104,-118.4886929,264.23404371142385,32.51503,0.1,134.3675,1638908439999
Fix,GT,34.2706048,-118.488441,264.0080606468916,32.579304,0.1,134.19214,1638908440999
Fix,GT,34.2703986,-118.4881877,263.8520371367335,32.810375,0.1,134.20978,1638908441999
Fix,GT,34.27019,-118.4879323,263.7070507429242,33.13854,0.1,134.37439,1638908442999
Fix,GT,34.2699809,-118.4876763,263.5940305079818,32.93844,0.1,134.22589,1638908443999
Fix,GT,34.2697731,-118.487422,263.466064534843,32.866398,0.1,134.3822,1638908444999
Fix,GT,34.2695649,-118.4871673,263.3350442445278,32.981956,0.1,134.3115,1638908445999
Fix,GT,34.2693562,-118.4869123,263.23402728176114,32.855698,0.1,134.46808,1638908446999
Fix,GT,34.2691482,-118.4866596,263.09208200836184,32.696262,0.1,134.51086,1638908447999
Fix,GT,34.2689422,-118.4864081,263.0989486410617,32.349503,0.1,134.10419,1638908448999
Fix,GT,34.2687401,-118.4861579,263.1979965692758,32.031757,0.1,134.01608,1638908449999
Fix,GT,34.2685389,-118.4859072,263.2189896874428,32.209538,0.1,133.75854,1638908450999
Fix,GT,34.2683374,-118.4856543,263.1949931112528,32.37453,0.1,133.57993,1638908451999
Fix,GT,34.2681369,-118.4853981,263.16999654877185,32.449055,0.1,132.49197,1638908452999
Fix,GT,34.2679429,-118.4851359,263.1360484131575,32.287094,0.1,130.53064,1638908453999
Fix,GT,34.2677566,-118.4848664,263.11002425414324,32.300232,0.1,128.862,1638908454999
Fix,GT,34.2675776,-118.4845909,262.9680729051233,32.089672,0.1,126.872986,1638908455999
Fix,GT,34.2674086,-118.48431,262.7430834860802,31.795118,0.1,124.66104,1638908456999
Fix,GT,34.2672507,-118.4840234,262.4601080468297,31.53639,0.1,122.276276,1638908457999
Fix,GT,34.2671034,-118.4837326,262.4790279374123,31.239647,0.1,120.34277,1638908458999
Fix,GT,34.2669645,-118.4834379,262.320045486629,31.215147,0.1,118.5043,1638908459999
Fix,GT,34.2668334,-118.4831376,262.22802454036474,31.303028,0.1,116.802246,1638908460999
Fix,GT,34.2667092,-118.4828302,262.1410316135884,31.663033,0.1,114.90796,1638908461999
Fix,GT,34.2665921,-118.4825147,262.0700070388317,32.019005,0.1,112.99686,1638908462999
Fix,GT,34.2664835,-118.4821906,262.0090352621079,32.25995,0.1,110.66931,1638908463999
Fix,GT,34.266385,-118.4818605,261.84711659312245,32.394653,0.1,108.66104,1638908464999
Fix,GT,34.2662945,-118.4815246,261.73303539919857,32.652485,0.1,107.16672,1638908465999
Fix,GT,34.2662115,-118.4811825,261.64201773357394,33.00019,0.1,105.00235,1638908466999
Fix,GT,34.2661408,-118.4808349,261.5130533044337,32.848827,0.1,102.22766,1638908467999
Fix,GT,34.2660841,-118.4804866,261.4739216706752,32.50292,0.1,99.97833,1638908468999
Fix,GT,34.2660363,-118.4801405,261.4629821636081,32.150715,0.1,98.690216,1638908469999
Fix,GT,34.2659963,-118.4797959,261.1711107962727,31.941278,0.1,97.16016,1638908470999
Fix,GT,34.2659662,-118.4794525,261.072014323473,31.63751,0.1,94.52591,1638908471999
Fix,GT,34.2659482,-118.4791115,260.95907892858986,31.322626,0.1,92.56436,1638908472999
Fix,GT,34.2659385,-118.4787731,260.74505391865966,31.036648,0.1,91.27548,1638908473999
Fix,GT,34.2659339,-118.4784376,260.5420540205836,30.76381,0.1,90.36615,1638908474999
Fix,GT,34.2659318,-118.4781052,260.4550685563088,30.480734,0.1,90.20624,1638908475999
Fix,GT,34.2659293,-118.4777755,260.2061048356295,30.24526,0.1,90.51465,1638908476999
Fix,GT,34.2659264,-118.4774485,260.02205432903764,29.999203,0.1,90.291016,1638908477999
Fix,GT,34.2659238,-118.4771229,259.9400580596924,30.013441,0.1,90.36282,1638908478999
Fix,GT,34.2659212,-118.476797,259.71405816841127,29.938248,0.1,90.2623,1638908479999
Fix,GT,34.265919,-118.4764726,259.463076489985,29.911036,0.1,90.21799,1638908480999
Fix,GT,34.2659176,-118.476147,259.27219340628386,30.042084,0.1,89.90616,1638908481999
Fix,GT,34.265917,-118.4758202,258.82412065094707,30.164377,0.1,90.132996,1638908482999
Fix,GT,34.265915,-118.475492,258.1272600647807,30.334435,0.1,90.07599,1638908483999
Fix,GT,34.2659139,-118.4751611,257.5332311897874,30.611132,0.1,90.00824,1638908484999
Fix,GT,34.2659119,-118.4748271,256.9172352981567,30.927547,0.1,90.387146,1638908485999
Fix,GT,34.2659087,-118.4744888,256.21829098767046,31.401978,0.1,90.48901,1638908486999
Fix,GT,34.2659057,-118.4741452,255.3903210511208,31.907862,0.1,90.20889,1638908487999
Fix,GT,34.2659042,-118.4737959,254.50933273339268,32.410202,0.1,90.08029,1638908488999
Fix,GT,34.2659024,-118.4734416,253.583337048769,32.82963,0.1,90.2038,1638908489999
Fix,GT,34.2659,-118.4730833,252.7382449092865,33.170265,0.1,90.318054,1638908490999
Fix,GT,34.2658974,-118.4727217,252.11020074725155,33.426964,0.1,90.27197,1638908491999
Fix,GT,34.2658949,-118.4723577,251.64713407611848,33.63123,0.1,90.27731,1638908492999
Fix,GT,34.2658926,-118.4719915,251.361070892632,33.765915,0.1,90.17447,1638908493999
Fix,GT,34.2658911,-118.4716256,251.2909850480557,33.587456,0.1,90.07245,1638908494999
Fix,GT,34.2658895,-118.471262,251.40892510437965,33.45751,0.1,90.112274,1638908495999
Fix,GT,34.2658875,-118.4708985,251.72184242880343,33.51404,0.1,90.25601,1638908496999
Fix,GT,34.2658849,-118.4705337,252.22178200757503,33.669167,0.1,90.28107,1638908497999
Fix,GT,34.2658825,-118.4701675,252.92969501191376,33.78574,0.1,90.20444,1638908498999
Fix,GT,34.2658794,-118.4698004,253.81065673530105,33.82363,0.1,90.55066,1638908499999
Fix,GT,34.2658752,-118.4694333,254.7666334433556,33.80219,0.1,90.414734,1638908500999
Fix,GT,34.2658723,-118.4690666,255.66467820286752,33.71971,0.1,90.34747,1638908501999
Fix,GT,34.2658695,-118.468702,256.5396662473679,33.441093,0.1,90.22699,1638908502999
Fix,GT,34.2658674,-118.4683405,257.35068464660645,33.098812,0.1,90.15338,1638908503999
Fix,GT,34.2658647,-118.4679836,258.095737369895,32.684357,0.1,90.47861,1638908504999
Fix,GT,34.265862,-118.4676302,258.8686758824587,32.362965,0.1,90.104614,1638908505999
Fix,GT,34.2658604,-118.4672812,259.4408319225311,31.909575,0.1,90.09198,1638908506999
Fix,GT,34.2658586,-118.4669363,259.8549540791512,31.738535,0.1,90.17627,1638908507999
Fix,GT,34.2658571,-118.4665904,260.2178044868112,31.998344,0.1,90.09976,1638908508999
Fix,GT,34.2658558,-118.4662417,260.52891551148895,32.18811,0.1,90.0831,1638908509999
Fix,GT,34.265854,-118.4658908,260.6999846112728,32.532524,0.1,90.13855,1638908510999
Fix,GT,34.2658525,-118.4655355,260.89689979350567,32.865356,0.1,90.12631,1638908511999
Fix,GT,34.2658503,-118.465178,261.17189575594665,32.9571,0.1,90.300995,1638908512999
