MessageType,Provider,LatitudeDegrees,LongitudeDegrees,AltitudeMeters,SpeedMps,AccuracyMeters,BearingDegrees,UnixTimeMillis
Fix,GT,34.1570338,-118.6345232,250.125,0.0041225827,0.1,55.883698,1638995325999
Fix,GT,34.1570338,-118.6345232,250.125,0.0050990195,0.1,55.88376,1638995326999
Fix,GT,34.1570338,-118.6345231,250.125,0.007000302,0.1,55.883606,1638995327999
Fix,GT,34.1570338,-118.634523,250.124,0.008995751,0.1,55.88379,1638995328999
Fix,GT,34.1570338,-118.6345228,250.124,0.0070003024,0.1,55.88382,1638995329999
Fix,GT,34.1570338,-118.6345227,250.124,0.0042493916,0.1,55.884247,1638995330999
Fix,GT,34.1570337,-118.6345226,250.124,0.0063912314,0.1,55.884827,1638995331999
Fix,GT,34.1570337,-118.6345226,250.124,0.017250156,0.1,55.884888,1638995332999
Fix,GT,34.1570336,-118.6345228,250.123,0.031257,0.1,55.886383,1638995333999
Fix,GT,34.1570336,-118.6345232,250.123,0.056138784,0.1,55.884827,1638995334999
Fix,GT,34.1570331,-118.6345248,250.127,0.368752,0.1,56.05127,1638995335999
Fix,GT,34.1570297,-118.6345298,250.126,0.75227994,0.1,58.91635,1638995336999
Fix,GT,34.1570242,-118.6345374,250.1279957454205,0.98847336,0.1,66.390564,1638995337999
Fix,GT,34.1570178,-118.6345478,250.1300127655268,1.2365922,0.1,78.375824,1638995338999
Fix,GT,34.1570121,-118.6345631,250.12000425577165,1.5745441,0.1,94.07172,1638995339999
Fix,GT,34.1570093,-118.6345834,250.09201276892423,1.8285512,0.1,113.63095,1638995340999
Fix,GT,34.1570122,-118.6346044,250.06400425690413,1.4791605,0.1,133.63892,1638995341999
Fix,GT,34.157017,-118.6346152,250.04800425750017,0.523931,0.1,142.289,1638995342999
Fix,GT,34.1570178,-118.6346171,250.04699574190377,0.114473484,0.1,142.8565,1638995343999
Fix,GT,34.1570169,-118.6346173,250.0429957413673,0.36704555,0.1,143.80573,1638995344999
Fix,GT,34.1570096,-118.6346139,250.0459957407117,1.3759458,0.1,148.02115,1638995345999
Fix,GT,34.1569951,-118.6346044,250.07097870087625,2.2116382,0.1,149.04547,1638995346999
Fix,GT,34.1569761,-118.6345897,250.1079872187376,2.7505305,0.1,147.50107,1638995347999
Fix,GT,34.1569542,-118.6345731,250.15197017288207,2.8477197,0.1,147.57025,1638995348999
Fix,GT,34.1569333,-118.6345585,250.1859829535485,2.4261873,0.1,150.1524,1638995349999
Fix,GT,34.1569169,-118.6345512,250.199,1.5794274,0.1,157.05609,1638995350999
Fix,GT,34.1569035,-118.6345493,250.1980085257292,1.540472,0.1,166.61517,1638995351999
Fix,GT,34.1568876,-118.6345517,250.23796162885424,2.2119415,0.1,179.9668,1638995352999
Fix,GT,34.1568667,-118.6345622,250.27798720783,2.8399558,0.1,196.99304,1638995353999
Fix,GT,34.1568461,-118.6345812,250.30498294138908,2.9352736,0.1,213.71588,1638995354999
Fix,GT,34.1568322,-118.6346023,250.34997867345808,2.1664343,0.1,227.1714,1638995355999
Fix,GT,34.1568245,-118.6346192,250.32106398767232,1.8094922,0.1,235.60153,1638995356999
Fix,GT,34.1568197,-118.6346409,250.07810239601136,2.3767636,0.1,249.85442,1638995357999
Fix,GT,34.1568265,-118.6346688,249.9419402614832,3.2891667,0.1,277.84277,1638995358999
Fix,GT,34.1568477,-118.6347042,250.03097012615208,5.255094,0.1,303.3367,1638995359999
Fix,GT,34.1568897,-118.6347506,250.01502561008928,7.585152,0.1,317.84818,1638995360999
Fix,GT,34.1569523,-118.6348046,249.9120725710392,9.358695,0.1,325.28076,1638995361999
Fix,GT,34.1570285,-118.6348615,249.777055504024,10.5541,0.1,328.3647,1638995362999
Fix,GT,34.1571135,-118.6349227,249.643051240921,11.293507,0.1,328.72897,1638995363999
Fix,GT,34.1572019,-118.6349885,249.48806833171844,11.724409,0.1,327.1938,1638995364999
Fix,GT,34.1572931,-118.6350596,249.31307688498492,12.351206,0.1,326.70886,1638995365999
Fix,GT,34.1573894,-118.6351351,249.13908116656543,13.189731,0.1,326.53467,1638995366999
Fix,GT,34.1574902,-118.6352147,248.95409399676325,13.395279,0.1,326.43512,1638995367999
Fix,GT,34.1575908,-118.635294,248.814042731762,13.272072,0.1,326.52142,1638995368999
Fix,GT,34.1576919,-118.6353715,248.68301709508896,13.572131,0.1,327.7991,1638995369999
Fix,GT,34.1578003,-118.6354523,248.6840256465673,14.939359,0.1,328.01373,1638995370999
Fix,GT,34.1579177,-118.6355423,248.7868931244016,15.663298,0.1,326.60358,1638995371999
Fix,GT,34.1580341,-118.6356369,248.94594014048576,15.4070635,0.1,324.76987,1638995372999
Fix,GT,34.1581451,-118.6357346,249.1998674336076,15.025218,0.1,322.9288,1638995373999
Fix,GT,34.158247,-118.6358296,249.60480753809213,13.246916,0.1,321.29428,1638995374999
Fix,GT,34.1583313,-118.635913,250.01583317410945,11.062791,0.1,319.66998,1638995375999
Fix,GT,34.1584011,-118.6359863,250.36284598541252,9.428322,0.1,317.9847,1638995376999
Fix,GT,34.158455,-118.6360467,250.6839015880823,6.737557,0.1,316.44583,1638995377999
Fix,GT,34.1584888,-118.6360865,250.9099529262185,3.7208698,0.1,315.1642,1638995378999
Fix,GT,34.1585042,-118.636105,251.0039785995484,1.1931971,0.1,314.89462,1638995379999
Fix,GT,34.1585067,-118.636108,251.007017122984,0.033424903,0.1,314.8623,1638995380999
Fix,GT,34.1585068,-118.636108,251.011,0.0053839395,0.1,314.86484,1638995381999
Fix,GT,34.1585068,-118.636108,251.012,0.0020042819,0.1,314.8661,1638995382999
Fix,GT,34.1585068,-118.636108,251.012,8.565069e-06,0.1,314.86688,1638995383999
Fix,GT,34.1585068,-118.636108,251.012,0.001,0.1,314.86777,1638995384999
Fix,GT,34.1585068,-118.636108,251.012,4.2838456e-06,0.1,314.86765,1638995385999
Fix,GT,34.1585068,-118.636108,251.012,0.001,0.1,314.8675,1638995386999
Fix,GT,34.1585068,-118.636108,251.012,0.0,0.1,314.8671,1638995387999
Fix,GT,34.1585068,-118.636108,251.012,4.2857528e-06,0.1,314.86606,1638995388999
Fix,GT,34.1585068,-118.636108,251.012,0.001,0.1,314.8656,1638995389999
Fix,GT,34.1585068,-118.636108,251.012,0.0010017757,0.1,314.8651,1638995390999
Fix,GT,34.1585068,-118.636108,251.012,0.023251202,0.1,314.86514,1638995391999
Fix,GT,34.1585083,-118.6361099,251.01799571168425,0.45590988,0.1,314.83496,1638995392999
Fix,GT,34.1585126,-118.6361149,251.0439828441144,0.84626156,0.1,314.77606,1638995393999
Fix,GT,34.158519,-118.6361226,251.0799828414917,1.150355,0.1,314.68005,1638995394999
Fix,GT,34.1585268,-118.6361324,251.13397425866123,1.3377794,0.1,314.58185,1638995395999
Fix,GT,34.1585355,-118.6361429,251.18997854560607,1.2877679,0.1,314.47397,1638995396999
Fix,GT,34.158542,-118.636151,251.23098712539672,0.7533319,0.1,314.3799,1638995397999
Fix,GT,34.1585448,-118.6361545,251.248,0.19748735,0.1,314.35544,1638995398999
Fix,GT,34.1585452,-118.636155,251.249,0.004462537,0.1,314.35156,1638995399999
Fix,GT,34.1585452,-118.636155,251.249,4.2935017e-06,0.1,314.3522,1638995400999
Fix,GT,34.1585452,-118.636155,251.249,0.0010053079,0.1,314.35263,1638995401999
Fix,GT,34.1585452,-118.636155,251.249,0.0014124346,0.1,314.3526,1638995402999
Fix,GT,34.1585452,-118.636155,251.249,0.0010017792,0.1,314.35327,1638995403999
Fix,GT,34.1585452,-118.636155,251.249,0.0014142136,0.1,314.35358,1638995404999
Fix,GT,34.1585452,-118.636155,251.249,0.0014142136,0.1,314.3543,1638995405999
Fix,GT,34.1585452,-118.636155,251.249,0.0014124335,0.1,314.35538,1638995406999
Fix,GT,34.1585452,-118.636155,251.249,0.0014142136,0.1,314.35562,1638995407999
Fix,GT,34.1585452,-118.636155,251.249,6.079346e-06,0.1,314.3566,1638995408999
Fix,GT,34.1585452,-118.636155,251.249,0.0014142136,0.1,314.35706,1638995409999
Fix,GT,34.1585452,-118.636155,251.249,0.001,0.1,314.35788,1638995410999
Fix,GT,34.1585452,-118.636155,251.249,0.0014142136,0.1,314.359,1638995411999
Fix,GT,34.1585452,-118.636155,251.249,0.001,0.1,314.35974,1638995412999
Fix,GT,34.1585452,-118.636155,251.249,0.001,0.1,314.36087,1638995413999
Fix,GT,34.1585452,-118.636155,251.249,0.001,0.1,314.3616,1638995414999
Fix,GT,34.1585452,-118.636155,251.249,0.0019913935,0.1,314.36234,1638995415999
Fix,GT,34.1585452,-118.636155,251.249,0.001,0.1,314.36307,1638995416999
Fix,GT,34.1585452,-118.636155,251.249,0.0010043046,0.1,314.36423,1638995417999
Fix,GT,34.1585452,-118.636155,251.249,0.0014142136,0.1,314.36548,1638995418999
Fix,GT,34.1585452,-118.636155,251.249,0.0014142136,0.1,314.36658,1638995419999
Fix,GT,34.1585452,-118.636155,251.249,6.0904727e-06,0.1,314.36737,1638995420999
Fix,GT,34.1585452,-118.636155,251.249,0.0009956928,0.1,314.368,1638995421999
Fix,GT,34.1585452,-118.636155,251.249,0.0,0.1,314.3691,1638995422999
Fix,GT,34.1585452,-118.636155,251.249,0.0010017847,0.1,314.37012,1638995423999
Fix,GT,34.1585452,-118.636155,251.249,0.0014081193,0.1,314.37137,1638995424999
Fix,GT,34.1585452,-118.636155,251.249,0.0010017853,0.1,314.37277,1638995425999
Fix,GT,34.1585452,-118.636155,251.249,0.0010017856,0.1,314.3736,1638995426999
Fix,GT,34.1585452,-118.636155,251.249,0.0010017859,0.1,314.37433,1638995427999
Fix,GT,34.1585452,-118.636155,251.249,0.0014124275,0.1,314.37534,1638995428999
Fix,GT,34.1585452,-118.636155,251.249,0.0014124272,0.1,314.377,1638995429999
Fix,GT,34.1585452,-118.636155,251.249,0.0014142136,0.1,314.37854,1638995430999
Fix,GT,34.1585452,-118.636155,251.249,0.0014142136,0.1,314.37994,1638995431999
Fix,GT,34.1585452,-118.636155,251.249,0.002236068,0.1,314.3816,1638995432999
Fix,GT,34.1585452,-118.6361549,251.249,0.002236068,0.1,314.38312,1638995433999
Fix,GT,34.1585452,-118.6361549,251.249,0.0020050164,0.1,314.38516,1638995434999
Fix,GT,34.1585453,-118.636155,251.247004316628,0.08681409,0.1,314.38528,1638995435999
Fix,GT,34.1585476,-118.6361579,251.2569956827164,0.7844014,0.1,314.35022,1638995436999
Fix,GT,34.1585581,-118.6361708,251.3129481847286,2.6234965,0.1,314.18948,1638995437999
Fix,GT,34.1585799,-118.636198,251.4399265848994,4.236859,0.1,313.6943,1638995438999
Fix,GT,34.158611,-118.6362376,251.6188876994848,5.8645983,0.1,313.26343,1638995439999
Fix,GT,34.1586505,-118.6362899,251.8359136018753,6.947226,0.1,311.90472,1638995440999
Fix,GT,34.1586936,-118.6363494,252.1239049463272,7.5737596,0.1,310.80054,1638995441999
Fix,GT,34.15874,-118.6364145,252.4418833255172,8.248739,0.1,310.42123,1638995442999
Fix,GT,34.1587908,-118.6364851,252.8178227983117,8.963689,0.1,310.37405,1638995443999
Fix,GT,34.1588447,-118.6365611,253.18487032055853,9.253149,0.1,310.27228,1638995444999
Fix,GT,34.1588984,-118.6366365,253.5248313888312,9.261817,0.1,310.74222,1638995445999
Fix,GT,34.1589565,-118.6367162,253.8798746034503,10.36551,0.1,310.7725,1638995446999
Fix,GT,34.1590207,-118.636805,254.14889188462496,11.209511,0.1,311.1295,1638995447999
Fix,GT,34.1590884,-118.6368953,254.3948875414133,11.356811,0.1,312.19528,1638995448999
Fix,GT,34.1591587,-118.6369874,254.6409091517925,11.562782,0.1,312.3002,1638995449999
Fix,GT,34.159229,-118.6370782,254.77893942618368,11.33631,0.1,313.51538,1638995450999
Fix,GT,34.1593006,-118.6371629,254.87697836321595,10.992998,0.1,316.22424,1638995451999
Fix,GT,34.1593727,-118.6372417,254.9279697034955,10.632837,0.1,318.18015,1638995452999
Fix,GT,34.1594431,-118.6373149,254.93500432878733,9.988677,0.1,319.35275,1638995453999
Fix,GT,34.1595075,-118.6373797,254.92103030610085,8.601961,0.1,320.3199,1638995454999
Fix,GT,34.1595628,-118.6374324,254.85003464126584,7.095511,0.1,322.01746,1638995455999
Fix,GT,34.1596096,-118.637473,254.78202165406944,5.7396817,0.1,324.60712,1638995456999
Fix,GT,34.1596457,-118.6375017,254.72102598917485,4.0082946,0.1,326.40845,1638995457999
Fix,GT,34.1596711,-118.6375212,254.6620259931088,2.7251348,0.1,327.14276,1638995458999
Fix,GT,34.1596884,-118.6375343,254.61701733160012,1.7025249,0.1,327.74075,1638995459999
Fix,GT,34.1596962,-118.63754,254.5950043334961,0.43381292,0.1,327.96942,1638995460999
Fix,GT,34.1596971,-118.6375406,254.58899566578864,0.0064069256,0.1,328.00095,1638995461999
Fix,GT,34.1596971,-118.6375405,254.588,0.0010053583,0.1,328.00174,1638995462999
Fix,GT,34.1596971,-118.6375405,254.58899566441767,0.0014124176,0.1,327.99994,1638995463999
Fix,GT,34.1596971,-118.6375405,254.589,0.001,0.1,328.00018,1638995464999
Fix,GT,34.1596971,-118.6375405,254.589,0.001,0.1,327.99994,1638995465999
Fix,GT,34.1596971,-118.6375405,254.589,0.0014124169,0.1,327.9994,1638995466999
Fix,GT,34.1596971,-118.6375405,254.589,0.0014124166,0.1,327.99896,1638995467999
Fix,GT,34.1596971,-118.6375405,254.589,0.0014142136,0.1,327.9985,1638995468999
Fix,GT,34.1596971,-118.6375405,254.589,0.0014142136,0.1,327.99802,1638995469999
Fix,GT,34.1596971,-118.6375405,254.589,0.0014142136,0.1,327.99762,1638995470999
Fix,GT,34.1596971,-118.6375405,254.589,0.0014142136,0.1,327.99725,1638995471999
Fix,GT,34.1596971,-118.6375405,254.589,0.0010017984,0.1,327.99652,1638995472999
Fix,GT,34.1596971,-118.6375405,254.589,0.0014142136,0.1,327.99625,1638995473999
Fix,GT,34.1596971,-118.6375405,254.589,0.001,0.1,327.9958,1638995474999
Fix,GT,34.1596971,-118.6375405,254.589,0.0009956561,0.1,327.99536,1638995475999
Fix,GT,34.1596971,-118.6375405,254.589,0.0010017997,0.1,327.9949,1638995476999
Fix,GT,34.1596971,-118.6375405,254.589,4.345298e-06,0.1,327.9944,1638995477999
Fix,GT,34.1596971,-118.6375405,254.589,0.000995654,0.1,327.99393,1638995478999
Fix,GT,34.1596971,-118.6375405,254.589,0.0,0.1,327.99344,1638995479999
Fix,GT,34.1596971,-118.6375405,254.589,4.347384e-06,0.1,327.99307,1638995480999
Fix,GT,34.1596971,-118.6375405,254.589,0.0,0.1,327.99283,1638995481999
Fix,GT,34.1596971,-118.6375405,254.589,0.0,0.1,327.9923,1638995482999
Fix,GT,34.1596971,-118.6375405,254.589,0.0,0.1,327.99203,1638995483999
Fix,GT,34.1596971,-118.6375405,254.589,0.001,0.1,327.99158,1638995484999
Fix,GT,34.1596971,-118.6375405,254.589,0.0,0.1,327.99112,1638995485999
Fix,GT,34.1596971,-118.6375405,254.589,0.0009956484,0.1,327.99054,1638995486999
Fix,GT,34.1596971,-118.6375405,254.589,0.001,0.1,327.99023,1638995487999
Fix,GT,34.1596971,-118.6375405,254.589,0.001,0.1,327.99002,1638995488999
Fix,GT,34.1596971,-118.6375405,254.589,0.001,0.1,327.98944,1638995489999
Fix,GT,34.1596971,-118.6375405,254.589,0.0,0.1,327.98914,1638995490999
Fix,GT,34.1596971,-118.6375405,254.589,0.0010043553,0.1,327.98825,1638995491999
Fix,GT,34.1596971,-118.6375405,254.589,0.001,0.1,327.988,1638995492999
Fix,GT,34.1596971,-118.6375405,254.589,0.001,0.1,327.98727,1638995493999
Fix,GT,34.1596971,-118.6375405,254.589,0.0009956427,0.1,327.98737,1638995494999
Fix,GT,34.1596971,-118.6375405,254.589,0.0014124084,0.1,327.98727,1638995495999
Fix,GT,34.1596971,-118.6375405,254.589,0.001,0.1,327.987,1638995496999
Fix,GT,34.1596971,-118.6375405,254.589,0.001,0.1,327.98672,1638995497999
Fix,GT,34.1596971,-118.6375405,254.589,0.0014124075,0.1,327.98663,1638995498999
Fix,GT,34.1596971,-118.6375405,254.589,0.001,0.1,327.9859,1638995499999
Fix,GT,34.1596971,-118.6375405,254.589,0.0014142136,0.1,327.98596,1638995500999
Fix,GT,34.1596971,-118.6375405,254.589,0.0014124067,0.1,327.98593,1638995501999
Fix,GT,34.1596971,-118.6375405,254.589,0.0014142136,0.1,327.98502,1638995502999
Fix,GT,34.1596971,-118.6375405,254.589,0.002236068,0.1,327.9847,1638995503999
Fix,GT,34.1596971,-118.6375405,254.589,0.002,0.1,327.98462,1638995504999
Fix,GT,34.1596971,-118.6375405,254.589,0.002,0.1,327.98422,1638995505999
Fix,GT,34.1596971,-118.6375405,254.589,0.0022350373,0.1,327.98395,1638995506999
Fix,GT,34.1596971,-118.6375405,254.589,0.002,0.1,327.98373,1638995507999
Fix,GT,34.1596971,-118.6375405,254.589,0.0014142136,0.1,327.98322,1638995508999
Fix,GT,34.1596971,-118.6375405,254.589,0.0010018094,0.1,327.98273,1638995509999
Fix,GT,34.1596971,-118.6375405,254.589,0.0014142136,0.1,327.98245,1638995510999
Fix,GT,34.159697,-118.6375405,254.5909956305624,0.0028284271,0.1,327.9821,1638995511999
Fix,GT,34.159697,-118.6375404,254.592,0.0031622776,0.1,327.98187,1638995512999
Fix,GT,34.159697,-118.6375403,254.594,0.003,0.1,327.98212,1638995513999
Fix,GT,34.159697,-118.6375403,254.596,0.0028284271,0.1,327.98196,1638995514999
Fix,GT,34.1596977,-118.6375407,254.59000437223912,0.41938755,0.1,328.00842,1638995515999
Fix,GT,34.1597064,-118.6375469,254.56701311886312,1.8554946,0.1,328.178,1638995516999
Fix,GT,34.1597253,-118.6375609,254.5210262420177,3.1402907,0.1,328.2187,1638995517999
Fix,GT,34.159755,-118.6375827,254.45103499507903,4.569631,0.1,328.601,1638995518999
Fix,GT,34.1597966,-118.6376125,254.283096252203,6.146969,0.1,329.16006,1638995519999
Fix,GT,34.1598447,-118.6376546,254.1150612614155,6.6849504,0.1,321.44058,1638995520999
Fix,GT,34.1598855,-118.6377163,253.93810941326612,7.356329,0.1,304.6182,1638995521999
Fix,GT,34.1599108,-118.6377949,253.64214007377623,7.921414,0.1,286.3231,1638995522999
Fix,GT,34.1599147,-118.6378885,253.32620576697587,9.081526,0.1,267.16028,1638995523999
Fix,GT,34.1598941,-118.6379942,253.0980875747204,10.848065,0.1,252.48218,1638995524999
Fix,GT,34.1598541,-118.6381128,252.8781270058155,12.414181,0.1,245.96805,1638995525999
Fix,GT,34.1598012,-118.6382388,252.46421025085448,13.571752,0.1,240.3193,1638995526999
Fix,GT,34.1597275,-118.6383634,251.9262891421318,14.290234,0.1,229.81491,1638995527999
Fix,GT,34.1596332,-118.638474,251.13036805915831,14.867546,0.1,220.97041,1638995528999
Fix,GT,34.159526,-118.6385791,250.17543823719024,15.649895,0.1,218.5535,1638995529999
Fix,GT,34.1594149,-118.6386862,249.2363769506216,15.882026,0.1,219.40338,1638995530999
Fix,GT,34.1593098,-118.6388015,248.4802849549055,15.633361,0.1,224.60492,1638995531999
Fix,GT,34.1592206,-118.6389234,248.04015784692763,14.385621,0.1,231.63531,1638995532999
Fix,GT,34.1591525,-118.6390443,247.89,12.708589,0.1,238.22256,1638995533999
Fix,GT,34.1591019,-118.6391587,247.90200438606732,11.408484,0.1,243.94968,1638995534999
Fix,GT,34.1590639,-118.639262,247.93795613217355,9.358433,0.1,246.6279,1638995535999
Fix,GT,34.1590351,-118.6393452,247.9819736750126,7.446612,0.1,247.52203,1638995536999
Fix,GT,34.1590121,-118.6394135,247.9870394949913,6.1354504,0.1,247.49597,1638995537999
Fix,GT,34.1589928,-118.6394688,248.005,4.823339,0.1,247.00641,1638995538999
Fix,GT,34.1589763,-118.6395158,248.02097366142272,4.6296477,0.1,246.96754,1638995539999
Fix,GT,34.1589605,-118.6395609,248.03699560946228,4.331381,0.1,247.0345,1638995540999
Fix,GT,34.1589467,-118.6396011,248.065,3.3928838,0.1,247.20071,1638995541999
Fix,GT,34.158938,-118.6396264,248.07799560797216,1.7298964,0.1,247.44397,1638995542999
Fix,GT,34.1589338,-118.6396392,248.07699121439452,1.2382729,0.1,247.60292,1638995543999
Fix,GT,34.1589288,-118.6396539,248.076,1.854652,0.1,247.67494,1638995544999
Fix,GT,34.1589188,-118.6396821,248.0829824230671,3.9884598,0.1,246.65396,1638995545999
Fix,GT,34.1588984,-118.6397336,248.1289648394585,6.3849874,0.1,244.19089,1638995546999
Fix,GT,34.1588668,-118.6398064,248.1449428548217,8.6719475,0.1,241.60078,1638995547999
Fix,GT,34.1588231,-118.6398972,248.18097801750892,10.473558,0.1,239.2931,1638995548999
Fix,GT,34.1587698,-118.6400028,248.26097801363468,12.390235,0.1,238.30899,1638995549999
Fix,GT,34.1587065,-118.6401267,248.33198680603505,14.457093,0.1,238.7061,1638995550999
Fix,GT,34.1586383,-118.6402727,248.4089472155571,16.477013,0.1,241.8853,1638995551999
Fix,GT,34.1585682,-118.6404413,248.5159472055435,18.295038,0.1,243.83682,1638995552999
Fix,GT,34.1584935,-118.6406282,248.5859427967072,19.842255,0.1,244.3419,1638995553999
Fix,GT,34.1584142,-118.6408302,248.6839691928029,21.364235,0.1,244.63815,1638995554999
Fix,GT,34.1583297,-118.641047,248.8229031616449,22.813835,0.1,244.8501,1638995555999
Fix,GT,34.1582407,-118.6412774,249.0479251561761,23.919203,0.1,244.91153,1638995556999
Fix,GT,34.1581489,-118.6415159,249.22791193413727,24.556993,0.1,245.0036,1638995557999
Fix,GT,34.1580532,-118.6417602,249.3909603639245,25.307264,0.1,244.27213,1638995558999
Fix,GT,34.1579511,-118.6420115,249.46497797608376,26.275806,0.1,243.43478,1638995559999
Fix,GT,34.1578428,-118.642271,249.5559515382052,27.260536,0.1,243.17276,1638995560999
Fix,GT,34.1577307,-118.6425387,249.71593831133845,28.015276,0.1,243.01898,1638995561999
Fix,GT,34.1576146,-118.642813,249.7839603360295,28.747318,0.1,242.87271,1638995562999
Fix,GT,34.1574951,-118.6430934,249.89096032959225,29.344276,0.1,242.3529,1638995563999
Fix,GT,34.1573706,-118.6433775,249.9649470961094,29.890182,0.1,241.81973,1638995564999
Fix,GT,34.1572424,-118.6436654,250.0259647250176,30.32294,0.1,241.60536,1638995565999
Fix,GT,34.1571134,-118.6439574,250.1309426688552,30.597595,0.1,242.08475,1638995566999
Fix,GT,34.1569848,-118.6442517,250.31289413928985,30.813171,0.1,241.94797,1638995567999
Fix,GT,34.1568537,-118.6445486,250.533783826828,31.229073,0.1,241.79356,1638995568999
Fix,GT,34.1567202,-118.6448499,250.86283674073212,31.685345,0.1,241.65352,1638995569999
Fix,GT,34.1565827,-118.6451518,251.18886760437488,31.763803,0.1,240.70076,1638995570999
Fix,GT,34.1564435,-118.6454532,251.52285434120893,31.841825,0.1,241.07431,1638995571999
Fix,GT,34.1563067,-118.6457578,251.8468498989344,32.02886,0.1,241.18182,1638995572999
Fix,GT,34.156167,-118.6460627,252.18386753463747,32.196877,0.1,240.85414,1638995573999
Fix,GT,34.1560254,-118.646369,252.5398675131798,32.438705,0.1,240.88605,1638995574999
Fix,GT,34.1558843,-118.6466786,252.8808542408943,32.687183,0.1,241.33441,1638995575999
Fix,GT,34.1557446,-118.6469919,253.20886746668816,32.877396,0.1,242.03154,1638995576999
Fix,GT,34.1556069,-118.6473082,253.5398586063385,32.959732,0.1,242.35927,1638995577999
Fix,GT,34.1554699,-118.6476244,253.98877903664112,32.723137,0.1,242.26456,1638995578999
Fix,GT,34.1553343,-118.6479365,254.6056994330883,32.21031,0.1,242.13394,1638995579999
Fix,GT,34.1552004,-118.6482437,255.3856330721974,31.854433,0.1,242.24863,1638995580999
Fix,GT,34.1550669,-118.6485499,256.31857994878294,31.903616,0.1,242.09483,1638995581999
Fix,GT,34.1549335,-118.6488557,257.2845577573777,31.803835,0.1,242.18848,1638995582999
Fix,GT,34.1548004,-118.6491607,258.23957979589704,31.766624,0.1,242.09976,1638995583999
Fix,GT,34.1546671,-118.6494654,259.217544336617,31.782099,0.1,242.02344,1638995584999
Fix,GT,34.1545335,-118.6497705,260.1685885037184,31.687656,0.1,242.16574,1638995585999
Fix,GT,34.1544022,-118.6500723,261.1265972771645,31.12141,0.1,242.32663,1638995586999
Fix,GT,34.1542736,-118.650369,262.04555294966696,30.673002,0.1,242.30142,1638995587999
Fix,GT,34.1541454,-118.6506634,262.93861927664284,30.6479,0.1,242.13416,1638995588999
Fix,GT,34.1540169,-118.6509576,263.86954393142463,30.65462,0.1,242.24857,1638995589999
Fix,GT,34.1538886,-118.651253,264.78859699511526,30.818687,0.1,242.00323,1638995590999
Fix,GT,34.1537579,-118.651549,265.7545481951237,31.01734,0.1,241.93668,1638995591999
Fix,GT,34.1536272,-118.6518471,266.71859241843225,31.090998,0.1,242.12515,1638995592999
Fix,GT,34.1534968,-118.6521465,267.62662779021264,31.244534,0.1,242.29633,1638995593999
Fix,GT,34.1533669,-118.6524476,268.5516232932806,31.27954,0.1,242.87,1638995594999
Fix,GT,34.1532419,-118.6527505,269.4865789012313,31.112202,0.1,244.10178,1638995595999
Fix,GT,34.1531233,-118.6530559,270.4145832666159,31.143131,0.1,245.53918,1638995596999
Fix,GT,34.1530094,-118.6533662,271.3245211098194,31.487213,0.1,246.452,1638995597999
Fix,GT,34.1528994,-118.6536829,272.32161415994165,31.90359,0.1,247.77377,1638995598999
Fix,GT,34.1527936,-118.6540059,273.30757416534425,32.03194,0.1,249.08716,1638995599999
Fix,GT,34.1526947,-118.6543312,274.30256078130003,31.976332,0.1,250.43588,1638995600999
Fix,GT,34.1526002,-118.6546597,275.2925873174668,32.166096,0.1,251.09152,1638995601999
Fix,GT,34.1525062,-118.6549917,276.27456505429745,32.453186,0.1,251.0633,1638995602999
Fix,GT,34.1524116,-118.6553248,277.27057828968765,32.444218,0.1,250.96826,1638995603999
Fix,GT,34.1523168,-118.6556563,278.24857821607594,32.204216,0.1,250.80624,1638995604999
Fix,GT,34.1522218,-118.6559861,279.2145781311392,32.217335,0.1,250.6599,1638995605999
Fix,GT,34.152126,-118.6563168,280.20953808403016,32.40423,0.1,250.6686,1638995606999
Fix,GT,34.1520295,-118.6566513,281.1925379910469,32.88075,0.1,250.77087,1638995607999
Fix,GT,34.1519326,-118.6569885,282.20155123394727,32.85387,0.1,250.8003,1638995608999
Fix,GT,34.1518364,-118.657325,283.18254671168324,32.85339,0.1,250.93497,1638995609999
Fix,GT,34.1517402,-118.6576626,284.15558219087126,32.89501,0.1,251.02452,1638995610999
Fix,GT,34.1516454,-118.6579976,285.13755543279643,32.34098,0.1,250.98337,1638995611999
Fix,GT,34.1515503,-118.6583278,286.0885597958565,32.195713,0.1,250.62167,1638995612999
Fix,GT,34.1514545,-118.6586582,287.0144707664251,32.361237,0.1,250.6806,1638995613999
Fix,GT,34.151358,-118.658992,288.0485640788078,32.821953,0.1,250.72566,1638995614999
Fix,GT,34.1512604,-118.6593307,289.05054175812006,33.301373,0.1,250.7905,1638995615999
Fix,GT,34.151162,-118.6596745,290.06144822669035,33.74517,0.1,250.85997,1638995616999
Fix,GT,34.1510631,-118.6600204,291.0575326849818,33.525387,0.1,250.98354,1638995617999
Fix,GT,34.1509663,-118.6603613,292.07060826683045,32.92768,0.1,250.95401,1638995618999
Fix,GT,34.1508709,-118.6606962,293.03256366992,32.433983,0.1,250.90982,1638995619999
Fix,GT,34.1507758,-118.6610264,293.99556804710625,32.12781,0.1,250.61043,1638995620999
Fix,GT,34.1506804,-118.6613547,294.9575902304649,31.941818,0.1,250.64603,1638995621999
Fix,GT,34.1505864,-118.6616801,295.86658570438624,31.739317,0.1,250.6694,1638995622999
Fix,GT,34.1504919,-118.6620057,296.7616034439802,31.980173,0.1,250.59995,1638995623999
Fix,GT,34.1503962,-118.6623353,297.6785454410314,32.31249,0.1,250.83041,1638995624999
Fix,GT,34.1503019,-118.6626671,298.5776032954454,32.362545,0.1,251.08842,1638995625999
Fix,GT,34.1502104,-118.6629982,299.42857201385493,32.032257,0.1,252.1398,1638995626999
Fix,GT,34.1501258,-118.6633284,300.33060314691073,31.618607,0.1,253.63522,1638995627999
Fix,GT,34.1500504,-118.6636558,301.2215852276683,31.193132,0.1,255.55199,1638995628999
Fix,GT,34.1499863,-118.6639852,302.1225985269547,31.478832,0.1,257.87057,1638995629999
Fix,GT,34.1499289,-118.6643237,303.000634149909,32.263382,0.1,258.7807,1638995630999
Fix,GT,34.1498738,-118.6646713,303.95258498930923,33.03086,0.1,259.32446,1638995631999
Fix,GT,34.1498201,-118.6650256,304.94253580904007,33.287476,0.1,259.89374,1638995632999
Fix,GT,34.1497703,-118.6653803,305.87066071558,33.09333,0.1,260.71667,1638995633999
Fix,GT,34.1497249,-118.6657337,306.5267231673002,32.89519,0.1,261.62518,1638995634999
Fix,GT,34.1496852,-118.666085,306.94681689655783,32.57297,0.1,262.7897,1638995635999
Fix,GT,34.1496517,-118.6664366,307.1549106645584,32.82912,0.1,264.04932,1638995636999
Fix,GT,34.1496248,-118.6667924,307.2270178706645,32.990204,0.1,265.28223,1638995637999
Fix,GT,34.1496038,-118.6671476,307.1620580912828,32.6918,0.1,266.31067,1638995638999
Fix,GT,34.1495869,-118.6675001,306.7952190032602,32.449425,0.1,266.65002,1638995639999
Fix,GT,34.149569,-118.6678511,306.2303084540368,32.36351,0.1,266.1578,1638995640999
Fix,GT,34.1495498,-118.6682004,305.43636663699147,32.2313,0.1,266.11786,1638995641999
Fix,GT,34.149531,-118.6685486,304.41745167976615,32.13879,0.1,266.13583,1638995642999
Fix,GT,34.1495121,-118.6688946,303.1806172699928,31.85516,0.1,266.12302,1638995643999
Fix,GT,34.1494936,-118.6692393,301.75270687067507,31.887587,0.1,266.27954,1638995644999
Fix,GT,34.1494755,-118.6695851,300.10575622421504,32.024265,0.1,266.21497,1638995645999
Fix,GT,34.149457,-118.6699328,298.2278548383713,32.32469,0.1,266.26712,1638995646999
Fix,GT,34.1494384,-118.6702852,296.3308818680644,32.706543,0.1,266.1999,1638995647999
Fix,GT,34.1494187,-118.6706396,294.4419178632497,32.74584,0.1,265.94138,1638995648999
Fix,GT,34.1493982,-118.6709936,292.54283294820783,32.693203,0.1,265.9458,1638995649999
Fix,GT,34.149378,-118.6713477,290.53489134293795,32.821617,0.1,266.13312,1638995650999
Fix,GT,34.1493598,-118.6717016,288.3829632009268,32.52397,0.1,266.7297,1638995651999
Fix,GT,34.1493477,-118.6720499,286.23494098865984,31.820398,0.1,268.54474,1638995652999
Fix,GT,34.1493476,-118.6723917,284.1326812233925,31.426292,0.1,271.42514,1638995653999
Fix,GT,34.1493628,-118.6727304,282.42873963344096,31.220041,0.1,274.65588,1638995654999
Fix,GT,34.1493925,-118.6730655,280.46185186898714,30.998438,0.1,277.49463,1638995655999
Fix,GT,34.1494369,-118.6733961,278.56887446093555,30.861504,0.1,280.24957,1638995656999
Fix,GT,34.1494934,-118.6737214,276.6678880912065,30.500248,0.1,283.40045,1638995657999
Fix,GT,34.1495644,-118.6740385,274.8377761234641,30.154104,0.1,286.53174,1638995658999
Fix,GT,34.1496483,-118.6743482,273.06574037104843,30.009666,0.1,289.4419,1638995659999
Fix,GT,34.1497434,-118.6746503,271.48361036682127,29.53838,0.1,291.8109,1638995660999
Fix,GT,34.1498442,-118.6749427,270.12158804398774,28.851273,0.1,292.75546,1638995661999
Fix,GT,34.1499438,-118.6752286,268.60474979317183,28.4993,0.1,292.6883,1638995662999
Fix,GT,34.1500439,-118.6755148,266.94478585743906,28.764347,0.1,292.74472,1638995663999
Fix,GT,34.150145,-118.6758038,265.2437590648532,29.054047,0.1,292.73648,1638995664999
Fix,GT,34.1502477,-118.676095,263.45978167796136,29.330986,0.1,293.0939,1638995665999
Fix,GT,34.1503526,-118.6763883,261.6817458871603,29.504248,0.1,293.09027,1638995666999
Fix,GT,34.1504559,-118.6766816,260.0078359082937,29.26812,0.1,292.88928,1638995667999
Fix,GT,34.1505587,-118.6769731,258.314732689023,29.133272,0.1,292.8174,1638995668999
Fix,GT,34.1506598,-118.6772621,256.82764291638136,28.75654,0.1,292.76352,1638995669999
Fix,GT,34.1507599,-118.6775501,255.4556475410461,28.825369,0.1,292.67706,1638995670999
Fix,GT,34.1508593,-118.6778395,254.1536341766715,28.898014,0.1,291.8773,1638995671999
Fix,GT,34.1509524,-118.6781346,252.9355623176694,29.353174,0.1,289.56586,1638995672999
Fix,GT,34.1510356,-118.678439,251.6425444316864,29.723358,0.1,286.83502,1638995673999
Fix,GT,34.1511081,-118.6787507,250.31060754448177,29.900835,0.1,284.31787,1638995674999
Fix,GT,34.1511697,-118.6790688,248.90658065783973,30.256731,0.1,281.77365,1638995675999
Fix,GT,34.1512189,-118.679392,247.5286482963562,30.273943,0.1,278.87393,1638995676999
Fix,GT,34.1512546,-118.6797178,246.15259439754485,30.252813,0.1,276.07712,1638995677999
Fix,GT,34.1512773,-118.6800429,244.85852695697548,29.851173,0.1,273.46088,1638995678999
Fix,GT,34.1512882,-118.680365,243.63947750878336,29.699915,0.1,271.3659,1638995679999
Fix,GT,34.1512925,-118.6806869,242.40753167188169,29.692265,0.1,270.5702,1638995680999
Fix,GT,34.1512947,-118.6810088,241.19146417856217,29.6987,0.1,270.42075,1638995681999
Fix,GT,34.1512963,-118.6813307,239.9975048313141,29.69223,0.1,270.13403,1638995682999
Fix,GT,34.1512972,-118.6816519,238.96644181501867,29.436495,0.1,270.16473,1638995683999
Fix,GT,34.151299,-118.6819684,237.9754238657952,29.08716,0.1,270.46338,1638995684999
Fix,GT,34.1513015,-118.6822832,237.1803517881632,28.98579,0.1,270.4852,1638995685999
Fix,GT,34.1513041,-118.6825973,236.49034283137323,28.960325,0.1,270.5391,1638995686999
Fix,GT,34.1513069,-118.6829112,235.88724815082549,28.90054,0.1,270.55505,1638995687999
Fix,GT,34.1513085,-118.6832237,235.4202030727267,28.735086,0.1,269.813,1638995688999
Fix,GT,34.1513032,-118.6835346,234.9602347083092,28.575714,0.1,267.68652,1638995689999
Fix,GT,34.1512862,-118.6838432,234.4283024765253,28.443943,0.1,264.68735,1638995690999
Fix,GT,34.1512573,-118.6841503,233.6753476911188,28.493261,0.1,262.52808,1638995691999
Fix,GT,34.1512181,-118.6844557,232.9862754945159,28.418041,0.1,259.9375,1638995692999
Fix,GT,34.1511686,-118.6847578,232.2482574802637,28.435825,0.1,257.82874,1638995693999
Fix,GT,34.1511125,-118.6850596,231.4983207845092,28.51221,0.1,257.03644,1638995694999
Fix,GT,34.1510551,-118.6853604,230.8173569998741,28.395988,0.1,257.02515,1638995695999
Fix,GT,34.1509978,-118.6856597,230.2811672333479,28.228943,0.1,256.72543,1638995696999
Fix,GT,34.1509396,-118.6859562,229.8062124735713,27.935165,0.1,256.45917,1638995697999
Fix,GT,34.1508824,-118.6862489,229.26924416685105,27.522177,0.1,256.93893,1638995698999
Fix,GT,34.1508297,-118.6865395,228.7742035152912,27.368279,0.1,258.22424,1638995699999
Fix,GT,34.1507848,-118.6868298,228.49111308640244,27.14656,0.1,260.50467,1638995700999
Fix,GT,34.150752,-118.6871198,228.2121628744602,26.912695,0.1,263.614,1638995701999
Fix,GT,34.1507313,-118.6874091,227.9361040792465,26.700233,0.1,266.27185,1638995702999
Fix,GT,34.150722,-118.6876969,227.65411767804625,26.486506,0.1,268.92172,1638995703999
Fix,GT,34.1507232,-118.6879828,227.3311720249653,26.29105,0.1,271.2898,1638995704999
Fix,GT,34.1507346,-118.6882662,226.95023544907568,26.119232,0.1,273.98837,1638995705999
Fix,GT,34.1507569,-118.6885471,226.52024907857185,26.014244,0.1,276.64743,1638995706999
Fix,GT,34.1507903,-118.6888277,226.03226271653176,26.423868,0.1,279.29303,1638995707999
Fix,GT,34.1508338,-118.6891102,225.4803035427928,26.533754,0.1,281.4625,1638995708999
Fix,GT,34.150886,-118.6893903,224.99119938087463,26.421743,0.1,283.34845,1638995709999
Fix,GT,34.1509446,-118.6896669,224.6491994175911,26.266365,0.1,284.89453,1638995710999
Fix,GT,34.1510069,-118.6899409,224.24819945955275,26.123672,0.1,285.44946,1638995711999
Fix,GT,34.1510695,-118.6902142,223.7651722944975,26.195118,0.1,285.1353,1638995712999
Fix,GT,34.1511311,-118.6904887,223.30222221302984,26.26141,0.1,285.10962,1638995713999
Fix,GT,34.1511924,-118.690764,222.68631297391653,26.3221,0.1,284.65237,1638995714999
Fix,GT,34.1512491,-118.6910438,222.00130849885943,26.800894,0.1,282.69592,1638995715999
Fix,GT,34.151297,-118.6913297,221.0915127468109,26.917536,0.1,280.07483,1638995716999
Fix,GT,34.1513336,-118.6916188,219.9994175453186,26.960045,0.1,277.37527,1638995717999
Fix,GT,34.1513587,-118.6919097,218.9594584824443,26.956919,0.1,274.59848,1638995718999
Fix,GT,34.1513731,-118.6922018,217.92343133080004,26.969376,0.1,272.13342,1638995719999
Fix,GT,34.1513761,-118.6924945,216.8964632103443,26.972982,0.1,269.19022,1638995720999
Fix,GT,34.1513664,-118.6927872,215.9653542894125,27.056175,0.1,266.29715,1638995721999
Fix,GT,34.1513448,-118.6930816,215.11534527301788,27.441294,0.1,263.58582,1638995722999
Fix,GT,34.1513109,-118.6933781,214.3931817560196,27.662586,0.1,260.657,1638995723999
Fix,GT,34.1512647,-118.6936733,213.941227239728,27.729658,0.1,257.96136,1638995724999
Fix,GT,34.1512064,-118.6939674,213.3912954736352,28.005733,0.1,255.01819,1638995725999
Fix,GT,34.1511347,-118.6942601,212.8222637052536,28.181715,0.1,252.37067,1638995726999
Fix,GT,34.1510525,-118.694549,212.3711773539185,28.071571,0.1,249.73123,1638995727999
Fix,GT,34.150959,-118.6948311,211.942140999496,27.88774,0.1,246.71814,1638995728999
Fix,GT,34.1508539,-118.6951048,211.50520926618577,27.682583,0.1,243.58029,1638995729999
Fix,GT,34.150738,-118.6953698,211.10915015524623,27.523605,0.1,240.91838,1638995730999
Fix,GT,34.1506123,-118.6956262,210.68418659317493,27.34662,0.1,237.92068,1638995731999
Fix,GT,34.1504768,-118.6958734,210.24420483762023,27.26034,0.1,235.42873,1638995732999
Fix,GT,34.1503326,-118.6961146,209.7962367508412,27.533861,0.1,233.04938,1638995733999
Fix,GT,34.1501776,-118.6963505,209.380159380734,27.857613,0.1,230.10034,1638995734999
Fix,GT,34.1500111,-118.6965764,208.9702368407249,27.75868,0.1,226.65768,1638995735999
Fix,GT,34.1498342,-118.696791,208.51524144273995,27.859688,0.1,223.88074,1638995736999
Fix,GT,34.1496494,-118.6969952,207.9612688321472,27.845287,0.1,221.22794,1638995737999
Fix,GT,34.1494562,-118.6971925,207.00553776979444,28.413189,0.1,219.32118,1638995738999
Fix,GT,34.1492537,-118.6973896,205.7716016910076,29.289318,0.1,218.33813,1638995739999
Fix,GT,34.1490451,-118.697588,204.514588139236,29.646963,0.1,217.98573,1638995740999
Fix,GT,34.1488355,-118.6977874,203.55029640346768,29.621578,0.1,218.24355,1638995741999
Fix,GT,34.1486266,-118.6979865,203.0251824378968,29.58403,0.1,218.19197,1638995742999
Fix,GT,34.148418,-118.6981857,202.6380866761208,29.564749,0.1,218.25711,1638995743999
Fix,GT,34.1482077,-118.6983854,202.4220091255904,29.790174,0.1,218.06537,1638995744999
Fix,GT,34.1479962,-118.6985876,202.10814603805545,30.24843,0.1,218.43988,1638995745999
Fix,GT,34.1477814,-118.6987949,201.75916432714465,30.865202,0.1,218.60136,1638995746999
Fix,GT,34.1475632,-118.6990063,201.403187187016,31.18135,0.1,218.57037,1638995747999
Fix,GT,34.1473435,-118.6992163,201.0441506902576,31.035307,0.1,218.218,1638995748999
Fix,GT,34.147125,-118.6994244,200.7151370215416,30.772648,0.1,217.98787,1638995749999
Fix,GT,34.1469076,-118.6996293,200.35019643342497,30.54274,0.1,217.9513,1638995750999
Fix,GT,34.1466929,-118.6998352,199.77530613058804,30.423073,0.1,219.14877,1638995751999
Fix,GT,34.1464848,-118.7000516,199.17521022307872,30.78245,0.1,222.1512,1638995752999
Fix,GT,34.14628,-118.7002835,198.743191980362,31.642305,0.1,223.93344,1638995753999
Fix,GT,34.1460747,-118.7005276,198.3641508731842,32.348515,0.1,224.81458,1638995754999
Fix,GT,34.1458695,-118.7007794,198.1081051746011,32.645893,0.1,226.04277,1638995755999
Fix,GT,34.1456714,-118.7010399,197.9550503113866,32.44216,0.1,228.91682,1638995756999
Fix,GT,34.1454845,-118.7013074,197.8760365972519,32.104347,0.1,230.67516,1638995757999
Fix,GT,34.1453046,-118.7015807,198.02588103723528,32.278057,0.1,232.26901,1638995758999
Fix,GT,34.14513,-118.7018626,198.23975286877155,32.674923,0.1,234.11563,1638995759999
Fix,GT,34.1449589,-118.702154,198.7347436690331,33.090176,0.1,234.86578,1638995760999
Fix,GT,34.144789,-118.70245,199.2707619287968,33.22859,0.1,235.35184,1638995761999
Fix,GT,34.1446196,-118.7027467,199.8427206696272,33.15609,0.1,235.13928,1638995762999
Fix,GT,34.1444496,-118.7030428,200.5106793943644,33.086582,0.1,235.21921,1638995763999
Fix,GT,34.1442825,-118.703336,201.23364267933368,32.487774,0.1,235.54965,1638995764999
Fix,GT,34.1441191,-118.7036242,201.92469301080703,31.826267,0.1,235.42398,1638995765999
Fix,GT,34.1439601,-118.7039043,202.8355967063904,30.748856,0.1,235.48766,1638995766999
Fix,GT,34.1438071,-118.7041751,203.67760579013824,29.645733,0.1,235.80133,1638995767999
Fix,GT,34.1436616,-118.7044374,204.4477157467604,28.591505,0.1,236.34628,1638995768999
Fix,GT,34.1435205,-118.7046935,205.1666606594324,28.163326,0.1,236.49881,1638995769999
Fix,GT,34.1433864,-118.7049493,205.88460555434227,27.639183,0.1,238.70595,1638995770999
Fix,GT,34.1432624,-118.7052055,206.6076146473885,27.029476,0.1,240.22801,1638995771999
Fix,GT,34.1431439,-118.7054574,207.50151820909977,26.340862,0.1,240.21194,1638995772999
Fix,GT,34.1430279,-118.705702,208.56149057233333,25.575815,0.1,239.99342,1638995773999
Fix,GT,34.1429164,-118.705939,209.863430798769,24.66765,0.1,240.5118,1638995774999
Fix,GT,34.1428109,-118.7061663,211.23734344607595,23.021856,0.1,240.7189,1638995775999
Fix,GT,34.1427162,-118.7063733,212.6633157562613,20.642378,0.1,241.07605,1638995776999
Fix,GT,34.1426332,-118.7065641,214.0543661392927,19.323322,0.1,243.61238,1638995777999
Fix,GT,34.1425646,-118.7067503,215.41845329648257,18.3349,0.1,247.45403,1638995778999
Fix,GT,34.1425118,-118.7069323,216.76736587607863,17.41675,0.1,253.4332,1638995779999
Fix,GT,34.1424804,-118.7071132,218.1203979246617,16.890364,0.1,261.4588,1638995780999
Fix,GT,34.1424708,-118.7072908,219.34247135090823,16.101334,0.1,269.4219,1638995781999
Fix,GT,34.1424815,-118.7074618,220.3745448076725,15.851827,0.1,277.45105,1638995782999
Fix,GT,34.1425127,-118.707631,221.0817148709297,16.426151,0.1,285.16296,1638995783999
Fix,GT,34.1425608,-118.7078026,221.69772400784493,16.955044,0.1,290.32684,1638995784999
Fix,GT,34.1426211,-118.7079724,222.1458297695517,17.196718,0.1,294.64612,1638995785999
Fix,GT,34.1426937,-118.7081374,222.5728251324892,17.264643,0.1,300.11823,1638995786999
Fix,GT,34.1427785,-118.7082914,222.86490334516765,16.930342,0.1,305.3878,1638995787999
Fix,GT,34.1428694,-118.7084353,222.89803222578763,16.348303,0.1,307.61844,1638995788999
Fix,GT,34.1429584,-118.7085716,222.75412892985344,15.550874,0.1,307.93024,1638995789999
Fix,GT,34.1430418,-118.7086998,222.54705066150427,14.622119,0.1,307.91476,1638995790999
Fix,GT,34.143121,-118.7088204,222.24613358980417,13.60844,0.1,308.45157,1638995791999
Fix,GT,34.1431938,-118.7089304,222.1219907850027,12.380217,0.1,308.46948,1638995792999
Fix,GT,34.1432585,-118.7090296,222.10996774083372,10.659802,0.1,307.99655,1638995793999
Fix,GT,34.1433149,-118.7091148,222.2199262485504,9.573874,0.1,309.0747,1638995794999
Fix,GT,34.1433634,-118.7091916,222.40893545413016,8.116908,0.1,305.6183,1638995795999
Fix,GT,34.143395,-118.70927,222.59495849764343,7.7625275,0.1,291.11188,1638995796999
Fix,GT,34.1434012,-118.7093578,222.6390599602461,8.097242,0.1,268.47205,1638995797999
Fix,GT,34.1433777,-118.7094482,222.59104613280297,9.218437,0.1,246.74066,1638995798999
Fix,GT,34.143324,-118.7095377,222.3800922846794,10.818332,0.1,228.36694,1638995799999
Fix,GT,34.1432423,-118.7096185,221.9922215290069,12.517911,0.1,214.75034,1638995800999
Fix,GT,34.1431368,-118.7096915,221.4053046653271,14.356204,0.1,206.62375,1638995801999
Fix,GT,34.1430122,-118.7097587,220.65140168726444,15.831303,0.1,202.64043,1638995802999
Fix,GT,34.1428744,-118.7098226,219.73147104704373,16.820301,0.1,199.78471,1638995803999
Fix,GT,34.142727,-118.7098801,218.7374249536991,17.473738,0.1,196.34013,1638995804999
Fix,GT,34.1425729,-118.7099314,217.6865035817027,17.938917,0.1,194.4258,1638995805999
Fix,GT,34.1424133,-118.7099741,216.7614020243287,18.251093,0.1,190.60236,1638995806999
Fix,GT,34.1422484,-118.7100019,215.97332815653087,18.511948,0.1,185.69788,1638995807999
Fix,GT,34.1420815,-118.7100152,215.3592311438322,18.641191,0.1,182.65337,1638995808999
Fix,GT,34.1419131,-118.7100214,215.0050832289457,18.619684,0.1,180.35365,1638995809999
Fix,GT,34.1417462,-118.7100175,214.929032373488,18.34919,0.1,177.46991,1638995810999
Fix,GT,34.1415828,-118.710003,215.0808843565584,17.845823,0.1,173.66876,1638995811999
Fix,GT,34.1414289,-118.7099754,215.41982418572903,16.531904,0.1,169.7547,1638995812999
Fix,GT,34.1412899,-118.7099404,215.83378712558743,14.996915,0.1,166.49463,1638995813999
Fix,GT,34.1411623,-118.7098972,216.1969027981758,14.56105,0.1,162.46759,1638995814999
Fix,GT,34.1410359,-118.7098449,216.4099166669845,15.069594,0.1,160.32306,1638995815999
Fix,GT,34.1409088,-118.7097881,216.51496758604048,14.943147,0.1,159.00885,1638995816999
Fix,GT,34.1407878,-118.7097301,216.526013894558,13.706729,0.1,157.8432,1638995817999
Fix,GT,34.1406813,-118.7096763,216.4450509572029,11.661918,0.1,156.64136,1638995818999
Fix,GT,34.1405964,-118.709621,216.30605096769327,9.72808,0.1,146.64941,1638995819999
Fix,GT,34.1405392,-118.7095445,216.0721483001709,9.170414,0.1,124.4079,1638995820999
Fix,GT,34.140514,-118.7094453,215.67920859003067,9.718667,0.1,98.316956,1638995821999
Fix,GT,34.1405258,-118.7093302,215.1711993629336,11.477496,0.1,76.01581,1638995822999
Fix,GT,34.1405673,-118.709202,214.6761252071261,13.71713,0.1,65.04889,1638995823999
Fix,GT,34.1406318,-118.7090605,214.09926438391207,15.917308,0.1,58.349884,1638995824999
Fix,GT,34.140714,-118.7089056,213.51022268486025,17.75864,0.1,56.912323,1638995825999
Fix,GT,34.140804,-118.7087367,213.12812528598303,19.223436,0.1,56.97638,1638995826999
Fix,GT,34.1409013,-118.7085551,212.9740371294021,20.698067,0.1,56.784668,1638995827999
Fix,GT,34.1410068,-118.7083599,213.1228885860443,22.250328,0.1,56.476624,1638995828999
Fix,GT,34.1411208,-118.7081542,213.4228792767525,23.226034,0.1,55.77063,1638995829999
Fix,GT,34.1412403,-118.7079431,213.66688389611244,23.826406,0.1,55.369537,1638995830999
Fix,GT,34.141363,-118.7077275,213.7959349684715,24.369171,0.1,55.74527,1638995831999
Fix,GT,34.1414859,-118.7075044,213.80899070763587,25.050884,0.1,56.483704,1638995832999
Fix,GT,34.1416105,-118.7072735,213.712069707036,25.736362,0.1,56.995697,1638995833999
Fix,GT,34.1417361,-118.7070363,213.50319986784456,26.039043,0.1,57.507904,1638995834999
Fix,GT,34.1418621,-118.7067985,213.1291999114156,25.988096,0.1,56.71945,1638995835999
Fix,GT,34.141993,-118.7065616,212.56430690371988,26.541082,0.1,55.523315,1638995836999
Fix,GT,34.1421346,-118.7063196,211.7874418516159,28.071321,0.1,53.681885,1638995837999
Fix,GT,34.1422886,-118.7060695,210.78149311447143,29.215498,0.1,52.972443,1638995838999
Fix,GT,34.1424456,-118.7058131,209.7934327268601,29.427053,0.1,53.81195,1638995839999
Fix,GT,34.1426005,-118.7055528,208.83139093518253,29.711338,0.1,54.45276,1638995840999
Fix,GT,34.1427574,-118.7052874,207.9144003251791,30.432278,0.1,53.589478,1638995841999
Fix,GT,34.1429214,-118.7050213,207.11234454524515,30.569624,0.1,53.14862,1638995842999
Fix,GT,34.1430835,-118.7047556,206.29934461581703,30.091362,0.1,53.76184,1638995843999
Fix,GT,34.1432391,-118.7044949,205.5553586601615,29.081385,0.1,54.425476,1638995844999
Fix,GT,34.1433874,-118.7042394,204.80534941583872,28.406445,0.1,55.185608,1638995845999
Fix,GT,34.1435308,-118.7039865,204.04035415172572,28.178709,0.1,55.541992,1638995846999
Fix,GT,34.1436734,-118.703733,203.2503682114482,28.321371,0.1,55.726654,1638995847999
Fix,GT,34.1438162,-118.7034772,202.26144754409788,28.55197,0.1,55.885986,1638995848999
Fix,GT,34.143962,-118.7032191,201.56823314356805,29.013311,0.1,55.107117,1638995849999
Fix,GT,34.1441126,-118.7029575,201.11421919977664,29.664948,0.1,55.183136,1638995850999
Fix,GT,34.1442644,-118.7026921,200.60425190448765,29.665203,0.1,55.324677,1638995851999
Fix,GT,34.1444155,-118.7024289,200.1771726365089,29.324945,0.1,54.952606,1638995852999
Fix,GT,34.1445662,-118.7021702,199.85710266971589,29.008581,0.1,54.96808,1638995853999
Fix,GT,34.1447142,-118.7019112,199.64009802418943,28.972963,0.1,55.41815,1638995854999
Fix,GT,34.1448633,-118.7016542,199.4091353943944,28.828957,0.1,54.38446,1638995855999
Fix,GT,34.1450184,-118.7014003,199.25304202806947,29.357456,0.1,52.501465,1638995856999
Fix,GT,34.1451836,-118.7011499,199.20802335369584,29.408821,0.1,50.27823,1638995857999
Fix,GT,34.1453556,-118.7009089,199.1710186867714,29.161583,0.1,48.534363,1638995858999
Fix,GT,34.1455314,-118.7006723,199.2339299094081,29.302889,0.1,47.319733,1638995859999
Fix,GT,34.1457119,-118.7004424,199.4368971794844,28.918638,0.1,45.65381,1638995860999
Fix,GT,34.1458953,-118.7002223,199.66590650773048,28.54651,0.1,43.785065,1638995861999
Fix,GT,34.1460824,-118.7000122,199.92888310784105,28.19257,0.1,41.899292,1638995862999
Fix,GT,34.1462728,-118.6998122,200.2188784073591,27.873243,0.1,40.100098,1638995863999
Fix,GT,34.1464653,-118.6996204,200.40892048090697,27.554018,0.1,38.836975,1638995864999
Fix,GT,34.1466582,-118.699434,200.5609157840013,27.388159,0.1,38.340057,1638995865999
Fix,GT,34.1468511,-118.6992497,200.6969344853163,27.227592,0.1,38.241364,1638995866999
Fix,GT,34.147042,-118.6990665,200.90390170794728,26.937767,0.1,38.443787,1638995867999
Fix,GT,34.1472304,-118.6988852,201.1638735987544,26.620373,0.1,38.245514,1638995868999
Fix,GT,34.1474186,-118.6987065,201.4469110328555,26.515753,0.1,37.84961,1638995869999
Fix,GT,34.1476062,-118.6985298,201.77485481351616,26.379318,0.1,37.769165,1638995870999
Fix,GT,34.1477934,-118.6983534,202.0988547802568,26.304554,0.1,37.976868,1638995871999
Fix,GT,34.1479783,-118.6981775,202.3149672017693,26.004824,0.1,38.170227,1638995872999
Fix,GT,34.1481607,-118.698003,202.52186409395927,25.74823,0.1,38.342804,1638995873999
Fix,GT,34.1483427,-118.6978287,202.8028734410405,25.940872,0.1,38.277344,1638995874999
Fix,GT,34.1485265,-118.6976533,203.1458405970335,26.031967,0.1,38.0943,1638995875999
Fix,GT,34.1487103,-118.6974789,203.673742089808,25.845615,0.1,37.9422,1638995876999
Fix,GT,34.1488931,-118.6973061,204.3216576045156,25.794981,0.1,37.850677,1638995877999
Fix,GT,34.1490767,-118.697133,205.01073259574176,25.94442,0.1,38.05182,1638995878999
Fix,GT,34.1492596,-118.6969566,205.485812309742,26.051756,0.1,38.911865,1638995879999
Fix,GT,34.1494392,-118.696775,205.8877888055444,26.059492,0.1,40.73294,1638995880999
Fix,GT,34.1496125,-118.6965838,206.3497559034824,26.221426,0.1,43.76764,1638995881999
Fix,GT,34.1497785,-118.6963805,206.85176993924372,26.390276,0.1,46.67505,1638995882999
Fix,GT,34.1499366,-118.6961675,207.2608356375098,26.291054,0.1,49.123596,1638995883999
Fix,GT,34.1500857,-118.6959478,207.6088074219823,26.040741,0.1,51.83969,1638995884999
Fix,GT,34.1502241,-118.6957228,208.0497791894078,25.622982,0.1,54.69632,1638995885999
Fix,GT,34.1503499,-118.695494,208.4747885426879,24.977106,0.1,57.615723,1638995886999
Fix,GT,34.1504646,-118.6952643,208.9088025997877,24.517958,0.1,59.81958,1638995887999
Fix,GT,34.150569,-118.6950329,209.33180726069213,24.097576,0.1,62.752502,1638995888999
Fix,GT,34.1506619,-118.6947995,209.70281662541623,23.750513,0.1,65.3439,1638995889999
Fix,GT,34.1507455,-118.694563,210.0767930738926,23.73651,0.1,68.022156,1638995890999
Fix,GT,34.1508206,-118.6943208,210.48980243957044,24.070995,0.1,70.43576,1638995891999
Fix,GT,34.1508884,-118.6940706,210.99678828519583,24.456434,0.1,72.99603,1638995892999
Fix,GT,34.1509467,-118.693814,211.4188023569584,24.6048,0.1,75.82501,1638995893999
Fix,GT,34.1509957,-118.6935541,211.83877878320217,24.55988,0.1,78.14575,1638995894999
Fix,GT,34.1510345,-118.6932935,212.34774578452112,24.304333,0.1,81.025696,1638995895999
Fix,GT,34.1510629,-118.6930333,213.02150088334085,24.189083,0.1,83.4335,1638995896999
Fix,GT,34.1510834,-118.6927731,213.77660439348224,24.010479,0.1,85.637085,1638995897999
Fix,GT,34.1510925,-118.6925159,214.65457133948803,23.51815,0.1,88.75552,1638995898999
Fix,GT,34.1510923,-118.6922627,215.57957596421244,23.310501,0.1,90.83841,1638995899999
Fix,GT,34.1510837,-118.6920113,216.5065051914453,23.128033,0.1,93.47092,1638995900999
Fix,GT,34.1510655,-118.6917625,217.47354751205444,23.053003,0.1,96.09772,1638995901999
Fix,GT,34.1510369,-118.6915147,218.3655757120848,23.175882,0.1,98.98566,1638995902999
Fix,GT,34.1509989,-118.6912661,219.2995567651988,23.49819,0.1,101.27347,1638995903999
Fix,GT,34.1509519,-118.6910141,220.3244859322905,24.205078,0.1,103.552216,1638995904999
Fix,GT,34.1508969,-118.6907562,221.48146695965528,24.93154,0.1,104.83862,1638995905999
Fix,GT,34.1508367,-118.6904917,222.5685045906305,25.668434,0.1,105.21808,1638995906999
Fix,GT,34.1507751,-118.6902188,223.58548561394213,26.469894,0.1,104.87872,1638995907999
Fix,GT,34.1507133,-118.689938,224.71548078989983,27.025099,0.1,104.79996,1638995908999
Fix,GT,34.1506509,-118.6896532,225.7095184533596,27.387293,0.1,104.33435,1638995909999
Fix,GT,34.1505917,-118.6893618,226.6116127960682,28.00594,0.1,102.79434,1638995910999
Fix,GT,34.1505399,-118.6890598,227.34472134578223,28.778585,0.1,100.36188,1638995911999
Fix,GT,34.1504982,-118.6887487,227.9027590807676,29.286167,0.1,97.99744,1638995912999
Fix,GT,34.1504676,-118.6884322,228.426777931571,29.28794,0.1,95.05078,1638995913999
Fix,GT,34.15045,-118.688117,228.86579679000377,29.019754,0.1,92.558624,1638995914999
Fix,GT,34.1504433,-118.6878021,229.2328298342228,29.066,0.1,90.154724,1638995915999
Fix,GT,34.1504484,-118.6874867,229.54385343879463,28.965872,0.1,87.44205,1638995916999
Fix,GT,34.1504666,-118.6871752,229.8218770529032,28.660612,0.1,84.34326,1638995917999
Fix,GT,34.1504979,-118.6868653,230.03393378436564,28.98617,0.1,81.68811,1638995918999
Fix,GT,34.1505415,-118.6865538,230.26289119523764,29.109217,0.1,79.02887,1638995919999
Fix,GT,34.1505958,-118.6862447,230.31896214723585,29.164173,0.1,77.11249,1638995920999
Fix,GT,34.1506559,-118.6859374,230.3360189301968,29.003069,0.1,76.35312,1638995921999
Fix,GT,34.1507166,-118.6856329,230.35994319796563,28.770403,0.1,76.41928,1638995922999
Fix,GT,34.1507758,-118.6853306,230.49490531086923,28.50847,0.1,76.76535,1638995923999
Fix,GT,34.1508328,-118.6850307,230.6489194980264,28.222656,0.1,77.00232,1638995924999
Fix,GT,34.1508885,-118.684733,230.92683422517777,28.069641,0.1,77.34625,1638995925999
Fix,GT,34.1509389,-118.6844365,231.36474418163303,27.864614,0.1,79.37253,1638995926999
Fix,GT,34.1509781,-118.6841398,232.0396825318336,27.54387,0.1,82.27118,1638995927999
Fix,GT,34.1510045,-118.683845,232.75864929294585,27.280483,0.1,84.822266,1638995928999
Fix,GT,34.1510197,-118.68355,233.58458759927748,27.318005,0.1,87.60498,1638995929999
Fix,GT,34.1510244,-118.6832544,234.44058751112223,27.2635,0.1,89.58807,1638995930999
Fix,GT,34.1510247,-118.6829584,235.29562061882012,27.400866,0.1,89.85083,1638995931999
Fix,GT,34.151025,-118.6826598,236.0936537450552,27.702923,0.1,89.75415,1638995932999
Fix,GT,34.1510248,-118.6823579,236.81865367543696,27.94914,0.1,90.12537,1638995933999
Fix,GT,34.1510234,-118.6820538,237.54763937044143,28.132547,0.1,90.20889,1638995934999
Fix,GT,34.1510216,-118.681749,238.3076772665977,28.084726,0.1,90.27008,1638995935999
Fix,GT,34.1510196,-118.6814447,239.0855965021849,27.998152,0.1,90.31073,1638995936999
Fix,GT,34.1510173,-118.6811428,239.9185916731357,27.624544,0.1,90.452484,1638995937999
Fix,GT,34.1510153,-118.6808445,240.7745868421793,27.482742,0.1,90.21051,1638995938999
Fix,GT,34.1510135,-118.6805459,241.64059150910376,27.565075,0.1,90.40213,1638995939999
Fix,GT,34.1510088,-118.6802476,242.5615296601653,27.465685,0.1,91.50134,1638995940999
Fix,GT,34.1509961,-118.6799511,243.6534155210853,27.407251,0.1,94.30249,1638995941999
Fix,GT,34.1509699,-118.6796542,244.88339639252425,27.701107,0.1,97.35278,1638995942999
Fix,GT,34.1509316,-118.6793579,246.17440102517605,27.672112,0.1,99.94324,1638995943999
Fix,GT,34.1508823,-118.679063,247.48839139556884,27.919088,0.1,102.36801,1638995944999
Fix,GT,34.1508227,-118.6787678,248.84636273944372,28.069956,0.1,104.629944,1638995945999
Fix,GT,34.150753,-118.6784771,250.26833882850408,27.773388,0.1,107.585815,1638995946999
Fix,GT,34.1506717,-118.6781958,251.7033719990253,27.16727,0.1,110.34906,1638995947999
Fix,GT,34.1505836,-118.6779257,253.2093195292354,26.378534,0.1,112.07544,1638995948999
Fix,GT,34.1504929,-118.6776639,254.6872860764265,26.0972,0.1,112.6803,1638995949999
Fix,GT,34.1504013,-118.6774026,256.2252526009083,26.206743,0.1,112.82034,1638995950999
Fix,GT,34.1503089,-118.6771388,257.788247689724,26.476856,0.1,112.58853,1638995951999
Fix,GT,34.1502176,-118.6768767,259.3362761135101,25.8654,0.1,112.61215,1638995952999
Fix,GT,34.1501289,-118.6766219,260.84325691509247,25.077744,0.1,112.686646,1638995953999
Fix,GT,34.1500424,-118.6763752,262.2933282310962,24.308485,0.1,112.80719,1638995954999
Fix,GT,34.1499582,-118.6761364,263.6903328619003,23.547585,0.1,112.86334,1638995955999
Fix,GT,34.1498764,-118.6759047,265.0573613257408,23.03658,0.1,112.888,1638995956999
Fix,GT,34.1497949,-118.6756739,266.4552992246151,23.422508,0.1,112.73773,1638995957999
Fix,GT,34.1497136,-118.675441,267.99526093935964,22.836737,0.1,112.9516,1638995958999
Fix,GT,34.1496346,-118.6752191,269.47135616523025,21.74629,0.1,113.214386,1638995959999
Fix,GT,34.1495594,-118.6750059,270.7693608065844,20.9798,0.1,112.54254,1638995960999
Fix,GT,34.1494892,-118.6747982,272.0523940761685,20.467026,0.1,111.73871,1638995961999
Fix,GT,34.1494219,-118.6745894,273.3433891830444,20.942123,0.1,110.60281,1638995962999
Fix,GT,34.1493582,-118.6743725,274.64037951505185,21.400026,0.1,108.467285,1638995963999
Fix,GT,34.1493002,-118.6741487,275.9203746171594,21.756706,0.1,106.31433,1638995964999
Fix,GT,34.1492483,-118.6739194,277.1574174660444,22.105284,0.1,104.243286,1638995965999
Fix,GT,34.1492018,-118.6736832,278.4843122816086,22.562016,0.1,102.44452,1638995966999
Fix,GT,34.1491605,-118.6734394,279.92329781395193,23.374802,0.1,100.47461,1638995967999
Fix,GT,34.1491262,-118.6731839,281.31633587902786,24.317263,0.1,97.87897,1638995968999
Fix,GT,34.1491008,-118.672919,282.7353261888623,24.64872,0.1,95.52582,1638995969999
Fix,GT,34.1490828,-118.6726535,284.1713356139064,24.422869,0.1,93.75821,1638995970999
Fix,GT,34.1490724,-118.6723894,285.57230679708715,24.403183,0.1,91.64081,1638995971999
Fix,GT,34.1490703,-118.6721241,286.92837836825845,24.47628,0.1,89.4043,1638995972999
Fix,GT,34.1490767,-118.6718563,288.1673925924897,24.85826,0.1,87.27167,1638995973999
Fix,GT,34.1490893,-118.6715862,289.4093829039932,25.126953,0.1,86.361115,1638995974999
Fix,GT,34.1491031,-118.6713127,290.66235406506064,25.430546,0.1,86.374176,1638995975999
Fix,GT,34.1491172,-118.6710354,292.0472917227745,25.709614,0.1,86.330536,1638995976999
Fix,GT,34.1491319,-118.6707562,293.52731072807313,25.912506,0.1,86.0954,1638995977999
Fix,GT,34.1491482,-118.6704733,295.06126269674303,26.385323,0.1,85.84067,1638995978999
Fix,GT,34.1491651,-118.6701851,296.60726254987713,26.848867,0.1,85.793,1638995979999
Fix,GT,34.1491824,-118.6698931,298.18320971751217,27.138718,0.1,85.690735,1638995980999
Fix,GT,34.1491987,-118.6695988,299.776276627779,27.33894,0.1,86.45215,1638995981999
Fix,GT,34.1492128,-118.6693022,301.2433435484171,27.424238,0.1,86.68222,1638995982999
Fix,GT,34.149227,-118.6690055,302.5463769657612,27.431574,0.1,86.38873,1638995983999
Fix,GT,34.1492418,-118.668706,303.7144679121375,27.970026,0.1,86.55188,1638995984999
Fix,GT,34.149257,-118.6684016,304.744549313426,28.163553,0.1,86.28516,1638995985999
Fix,GT,34.1492728,-118.6680982,305.63758758771417,27.859007,0.1,86.34305,1638995986999
Fix,GT,34.1492892,-118.6677955,306.40966903704407,28.135674,0.1,85.9223,1638995987999
Fix,GT,34.1493065,-118.6674885,307.02575052905087,28.812296,0.1,86.05563,1638995988999
Fix,GT,34.1493247,-118.6671739,307.46687043964863,29.267538,0.1,86.045044,1638995989999
Fix,GT,34.1493425,-118.6668556,307.6889520045519,29.439425,0.1,85.79202,1638995990999
Fix,GT,34.1493643,-118.6665391,307.764,29.127327,0.1,84.661865,1638995991999
Fix,GT,34.1493904,-118.6662262,307.69504321360586,28.89243,0.1,83.74121,1638995992999
Fix,GT,34.1494199,-118.6659149,307.49611045944687,28.860582,0.1,83.06995,1638995993999
Fix,GT,34.1494527,-118.6656051,307.14920655214786,28.7862,0.1,81.887085,1638995994999
Fix,GT,34.1494928,-118.6652952,306.6453026867508,28.987633,0.1,80.32059,1638995995999
Fix,GT,34.1495384,-118.6649853,305.78640366244315,29.040394,0.1,79.374115,1638995996999
Fix,GT,34.1495887,-118.664676,304.9294037425518,29.058527,0.1,78.13858,1638995997999
Fix,GT,34.1496447,-118.664368,304.0864326671362,29.022858,0.1,77.095825,1638995998999
Fix,GT,34.1497047,-118.6640645,303.2533798703551,28.392967,0.1,75.95584,1638995999999
Fix,GT,34.1497676,-118.6637703,302.44137513625617,27.697178,0.1,75.03287,1638996000999
Fix,GT,34.1498331,-118.6634832,301.6633752106428,27.202435,0.1,73.973206,1638996001999
Fix,GT,34.1499027,-118.6632009,300.9133752943277,27.147358,0.1,72.91376,1638996002999
Fix,GT,34.1499746,-118.6629183,300.1273849935532,27.427181,0.1,73.20917,1638996003999
Fix,GT,34.1500461,-118.6626283,299.28341395521164,28.504747,0.1,73.275085,1638996004999
Fix,GT,34.1501223,-118.662325,298.3064766242504,29.93666,0.1,72.693115,1638996005999
Fix,GT,34.1502053,-118.6620079,297.2834863493443,31.369907,0.1,72.04794,1638996006999
Fix,GT,34.1502943,-118.6616779,296.3214431099892,32.546688,0.1,71.620544,1638996007999
Fix,GT,34.1503883,-118.6613397,295.3624721019268,33.149853,0.1,71.06665,1638996008999
Fix,GT,34.1504861,-118.6609974,294.39945292770864,33.590336,0.1,70.697754,1638996009999
Fix,GT,34.1505863,-118.6606523,293.3904867526889,33.802956,0.1,70.632355,1638996010999
Fix,GT,34.1506858,-118.6603061,292.3754579329491,33.74416,0.1,70.86078,1638996011999
Fix,GT,34.1507843,-118.6599604,291.37049659395217,33.66404,0.1,70.953125,1638996012999
Fix,GT,34.1508826,-118.6596155,290.3454581198096,33.594135,0.1,70.84845,1638996013999
Fix,GT,34.1509817,-118.6592718,289.34551608961823,33.508312,0.1,70.57007,1638996014999
Fix,GT,34.1510813,-118.6589292,288.3384872463346,33.43061,0.1,70.740234,1638996015999
Fix,GT,34.1511796,-118.6585869,287.3234921678304,33.368717,0.1,70.779816,1638996016999
Fix,GT,34.1512778,-118.6582453,286.3184584935307,33.310986,0.1,70.828064,1638996017999
Fix,GT,34.1513756,-118.6579043,285.31146823853254,33.232475,0.1,70.862854,1638996018999
Fix,GT,34.1514724,-118.6575638,284.28843453395365,33.157055,0.1,71.11926,1638996019999
Fix,GT,34.1515682,-118.6572236,283.3314635944367,33.09183,0.1,70.961426,1638996020999
Fix,GT,34.151665,-118.6568845,282.3215313068629,33.0324,0.1,70.77792,1638996021999
Fix,GT,34.1517622,-118.6565461,281.32251210033894,32.988434,0.1,70.763306,1638996022999
Fix,GT,34.1518593,-118.6562082,280.3245170335174,32.940334,0.1,70.833496,1638996023999
Fix,GT,34.1519555,-118.6558704,279.3244591447115,32.92691,0.1,71.072266,1638996024999
Fix,GT,34.1520517,-118.6555328,278.334488239646,32.891724,0.1,70.77133,1638996025999
Fix,GT,34.1521486,-118.6551961,277.3304786718487,32.809124,0.1,70.69281,1638996026999
Fix,GT,34.1522454,-118.6548604,276.4204207391739,32.73129,0.1,70.798035,1638996027999
Fix,GT,34.1523418,-118.6545254,275.60537729346754,32.63578,0.1,70.66522,1638996028999
