MessageType,Provider,LatitudeDegrees,LongitudeDegrees,AltitudeMeters,SpeedMps,AccuracyMeters,BearingDegrees,UnixTimeMillis
Fix,GT,37.4840151,-122.1740687,-30.006,0.001,0.1,17.796692,1615927206438
Fix,GT,37.4840151,-122.1740687,-30.006,0.0011816398,0.1,17.797028,1615927207438
Fix,GT,37.4840151,-122.1740687,-30.006,0.0012325738,0.1,17.797424,1615927208438
Fix,GT,37.4840151,-122.1740687,-30.006000894248487,0.00118164,0.1,17.797546,1615927209438
Fix,GT,37.4840151,-122.1740687,-30.006000894248487,0.001774611,0.1,17.797424,1615927210438
Fix,GT,37.4840151,-122.1740687,-30.006,0.0016940308,0.1,17.797363,1615927211438
Fix,GT,37.4840151,-122.1740687,-30.007316446334123,0.00118164,0.1,17.797485,1615927212438
Fix,GT,37.4840151,-122.1740687,-30.00987703466416,0.0031555444,0.1,17.78305,1615927213438
Fix,GT,37.4840144,-122.174069,-30.007491861343382,0.19704169,0.1,17.545013,1615927214438
Fix,GT,37.4840106,-122.1740702,-29.99905334401131,0.76041085,0.1,18.258575,1615927215438
Fix,GT,37.4840007,-122.1740721,-29.98698372268677,1.3866794,0.1,25.174164,1615927216438
Fix,GT,37.4839865,-122.1740754,-29.97142224001885,1.6335474,0.1,41.351562,1615927217438
Fix,GT,37.4839726,-122.1740833,-29.951598549366,1.4730213,0.1,61.113556,1615927218438
Fix,GT,37.4839643,-122.1740921,-29.93261393478513,0.7776583,0.1,74.80945,1615927219438
Fix,GT,37.4839624,-122.1740946,-29.93269983303547,0.3072114,0.1,78.62967,1615927220438
Fix,GT,37.4839622,-122.1740867,-29.949646488368515,1.2271588,0.1,82.2041,1615927221438
Fix,GT,37.4839573,-122.1740647,-29.966384280085563,2.5359128,0.1,96.02603,1615927222438
Fix,GT,37.4839477,-122.1740327,-29.964545206367973,3.3883762,0.1,106.11456,1615927223438
Fix,GT,37.4839454,-122.1739917,-29.941844481825825,3.9356956,0.1,93.59845,1615927224438
Fix,GT,37.4839591,-122.173949,-29.94692586362362,4.3748455,0.1,68.385345,1615927225438
Fix,GT,37.4839863,-122.1739148,-30.04033996248245,4.3363476,0.1,44.514954,1615927226438
Fix,GT,37.4840194,-122.1738929,-30.15075044956803,4.0130854,0.1,27.671478,1615927227438
Fix,GT,37.484053,-122.1738831,-30.11527665799856,3.812706,0.1,13.042908,1615927228438
Fix,GT,37.4840877,-122.1738894,-30.110633822083475,4.273744,0.1,352.67093,1615927229438
Fix,GT,37.4841237,-122.1739182,-30.14182097053528,5.4893694,0.1,327.56555,1615927230438
Fix,GT,37.4841561,-122.1739737,-30.046508137702943,7.0346937,0.1,303.91922,1615927231438
Fix,GT,37.4841815,-122.1740543,-30.05582279342413,8.446987,0.1,289.55176,1615927232438
Fix,GT,37.4842035,-122.1741492,-30.06638427591324,8.942084,0.1,285.93304,1615927233438
Fix,GT,37.484227,-122.174245,-30.07331465533376,8.711832,0.1,287.55365,1615927234438
Fix,GT,37.4842543,-122.1743349,-30.09429385975003,8.221711,0.1,292.80313,1615927235438
Fix,GT,37.4842923,-122.1744106,-30.15539692372084,7.7477674,0.1,307.32953,1615927236438
Fix,GT,37.4843472,-122.1744591,-30.219979203283785,7.5263906,0.1,331.58493,1615927237438
Fix,GT,37.4844147,-122.17447,-30.22370614787936,8.066626,0.1,358.81384,1615927238438
Fix,GT,37.4844908,-122.1744476,-30.171374321222302,9.597618,0.1,16.271729,1615927239438
Fix,GT,37.484579,-122.1744089,-30.12196835017204,11.045671,0.1,19.166779,1615927240438
Fix,GT,37.4846763,-122.1743668,-30.075057871818544,11.645558,0.1,18.777405,1615927241438
Fix,GT,37.4847739,-122.1743261,-30.01607414531708,11.051739,0.1,18.090485,1615927242438
Fix,GT,37.4848627,-122.17429,-29.959057871818544,9.54245,0.1,18.009583,1615927243438
Fix,GT,37.4849353,-122.1742592,-29.91059766459465,7.5087786,0.1,19.159454,1615927244438
Fix,GT,37.484989,-122.1742342,-29.871880670517683,5.285684,0.1,20.848358,1615927245438
Fix,GT,37.4850246,-122.1742165,-29.8230199110508,3.2097576,0.1,21.820862,1615927246438
Fix,GT,37.4850433,-122.1742071,-29.79649186372757,1.3600911,0.1,22.088165,1615927247438
Fix,GT,37.4850493,-122.1742041,-29.79463110220432,0.27498943,0.1,21.990112,1615927248438
Fix,GT,37.4850498,-122.1742038,-29.798877034068106,0.001561483,0.1,21.96701,1615927249438
Fix,GT,37.4850498,-122.1742038,-29.80000088810921,0.00056148303,0.1,21.9664,1615927250438
Fix,GT,37.4850498,-122.1742038,-29.80000088810921,0.00043851702,0.1,21.966095,1615927251438
Fix,GT,37.4850498,-122.1742038,-29.80000088810921,0.00056148303,0.1,21.965485,1615927252438
Fix,GT,37.4850498,-122.1742038,-29.80043851697445,0.000438517,0.1,21.965576,1615927253438
Fix,GT,37.4850498,-122.1742038,-29.802754067897794,0.04985126,0.1,21.96344,1615927254438
Fix,GT,37.4850528,-122.1742024,-29.80894665277004,0.8796182,0.1,21.924469,1615927255438
Fix,GT,37.4850685,-122.1741946,-29.79733635497093,3.0807955,0.1,21.466187,1615927256438
Fix,GT,37.4851053,-122.1741786,-29.718554284155367,5.418496,0.1,19.091278,1615927257438
Fix,GT,37.4851599,-122.174162,-29.558173650860784,6.888355,0.1,12.236206,1615927258438
Fix,GT,37.4852252,-122.1741582,-29.35359589713812,7.7328568,0.1,359.44617,1615927259438
Fix,GT,37.4852942,-122.1741782,-29.165152844369413,8.279636,0.1,342.7615,1615927260438
Fix,GT,37.4853596,-122.1742264,-29.04411210018397,8.904473,0.1,324.6455,1615927261438
Fix,GT,37.4854139,-122.1743037,-29.028311877429484,9.786356,0.1,306.3672,1615927262438
Fix,GT,37.4854552,-122.1744078,-29.073402305126194,11.070293,0.1,293.22415,1615927263438
Fix,GT,37.4854901,-122.1745341,-29.104225991636515,12.62389,0.1,287.95383,1615927264438
Fix,GT,37.4855254,-122.174679,-29.128070486187937,14.198719,0.1,286.51788,1615927265438
Fix,GT,37.4855634,-122.1748411,-29.138140104591848,15.6830845,0.1,286.22455,1615927266438
Fix,GT,37.4856045,-122.175019,-29.14643851685524,17.072649,0.1,286.0808,1615927267438
Fix,GT,37.4856488,-122.1752114,-29.15006961798668,18.323915,0.1,285.90335,1615927268438
Fix,GT,37.4856952,-122.1754161,-29.144791146039964,19.28933,0.1,285.7214,1615927269438
Fix,GT,37.4857434,-122.1756303,-29.14264737081528,20.0772,0.1,285.66534,1615927270438
Fix,GT,37.4857933,-122.1758526,-29.155,20.71714,0.1,285.67615,1615927271438
Fix,GT,37.4858446,-122.17608,-29.1528074157238,21.039,0.1,285.81128,1615927272438
Fix,GT,37.485897,-122.1763087,-29.1631555056572,20.999619,0.1,286.05362,1615927273438
Fix,GT,37.4859492,-122.1765352,-29.1821925842762,20.69165,0.1,285.98196,1615927274438
Fix,GT,37.4859994,-122.1767582,-29.1828074157238,20.3032,0.1,285.4829,1615927275438
Fix,GT,37.4860473,-122.1769774,-29.19447105622292,19.920528,0.1,285.0288,1615927276438
Fix,GT,37.4860931,-122.1771932,-29.20905334830284,19.549976,0.1,284.72556,1615927277438
Fix,GT,37.4861379,-122.1774041,-29.20136889886856,19.018757,0.1,285.11658,1615927278438
Fix,GT,37.486184,-122.1776075,-29.19536889886856,18.378416,0.1,286.55,1615927279438
Fix,GT,37.486233,-122.1778029,-29.204278471946715,17.9226,0.1,287.93823,1615927280438
Fix,GT,37.4862835,-122.177993,-29.24367991018295,17.465342,0.1,288.36185,1615927281438
Fix,GT,37.4863316,-122.1781764,-29.28013923597336,16.57448,0.1,287.77435,1615927282438
Fix,GT,37.4863739,-122.1783484,-29.2923851685524,15.259811,0.1,286.34778,1615927283438
Fix,GT,37.4864095,-122.178507,-29.314225123643872,14.0212555,0.1,285.1441,1615927284438
Fix,GT,37.4864405,-122.178654,-29.331053348302845,12.85923,0.1,284.37592,1615927285438
Fix,GT,37.4864639,-122.1787893,-29.317229662895205,11.683575,0.1,279.51712,1615927286438
Fix,GT,37.4864675,-122.1789152,-29.288020808935165,10.989989,0.1,266.28146,1615927287438
Fix,GT,37.4864429,-122.1790308,-29.27070071911812,10.673416,0.1,248.18541,1615927288438
Fix,GT,37.4863899,-122.1791285,-29.362633753061296,10.772967,0.1,229.14595,1615927289438
Fix,GT,37.486312,-122.1792045,-29.488540674209595,11.60975,0.1,212.70485,1615927290438
Fix,GT,37.4862134,-122.1792651,-29.51494665169716,12.945644,0.1,203.51685,1615927291438
Fix,GT,37.4860995,-122.1793217,-29.506405977487567,14.219118,0.1,201.09053,1615927292438
Fix,GT,37.4859756,-122.179382,-29.455233325600624,15.231186,0.1,201.23074,1615927293438
Fix,GT,37.4858446,-122.1794472,-29.380864428848028,16.00631,0.1,201.79872,1615927294438
Fix,GT,37.4857084,-122.1795168,-29.31424959921837,16.637407,0.1,202.21988,1615927295438
Fix,GT,37.4855675,-122.1795901,-29.237462995320563,17.193956,0.1,202.59113,1615927296438
Fix,GT,37.4854231,-122.1796677,-29.036534510582683,17.661985,0.1,203.78763,1615927297438
Fix,GT,37.4852781,-122.1797551,-28.69551825132966,18.042812,0.1,207.35684,1615927298438
Fix,GT,37.4851369,-122.1798604,-28.37051457887888,18.474703,0.1,213.09723,1615927299438
Fix,GT,37.4850024,-122.1799875,-28.031031798541544,18.927872,0.1,219.98724,1615927300438
Fix,GT,37.4848804,-122.1801395,-27.75613205170632,19.358442,0.1,228.34555,1615927301438
Fix,GT,37.4847742,-122.1803169,-27.68924593281746,20.026627,0.1,236.12466,1615927302438
Fix,GT,37.48468,-122.1805151,-27.665512677013872,20.802322,0.1,240.99484,1615927303438
Fix,GT,37.4845921,-122.1807276,-27.7524528836608,21.476921,0.1,243.55695,1615927304438
Fix,GT,37.4845086,-122.1809489,-28.08010743659735,21.805553,0.1,245.31299,1615927305438
Fix,GT,37.4844293,-122.1811742,-28.511963658809663,21.718203,0.1,246.71436,1615927306438
Fix,GT,37.4843558,-122.1814005,-28.81667536431551,21.4821,0.1,248.62865,1615927307438
Fix,GT,37.4842924,-122.1816289,-28.846549757123,21.370771,0.1,252.74521,1615927308438
Fix,GT,37.4842467,-122.1818646,-28.66072884249688,21.661919,0.1,259.4961,1615927309438
Fix,GT,37.4842249,-122.1821101,-28.33348289975524,22.134315,0.1,267.06155,1615927310438
Fix,GT,37.4842286,-122.1823627,-27.99883552122116,22.660824,0.1,274.26517,1615927311438
Fix,GT,37.4842561,-122.1826206,-27.701826422184705,23.411373,0.1,280.23206,1615927312438
Fix,GT,37.4843026,-122.1828839,-27.54074234521389,24.339668,0.1,284.28732,1615927313438
Fix,GT,37.4843626,-122.1831544,-27.52611842048168,25.342628,0.1,286.331,1615927314438
Fix,GT,37.4844299,-122.1834344,-27.585503587841984,26.40007,0.1,286.81567,1615927315438
Fix,GT,37.4845001,-122.1837256,-27.664974640131,27.381245,0.1,286.63934,1615927316438
Fix,GT,37.484571,-122.1840267,-27.767797494858502,28.129187,0.1,286.2746,1615927317438
Fix,GT,37.4846422,-122.1843357,-27.86408050712943,28.753983,0.1,285.90393,1615927318438
Fix,GT,37.4847129,-122.1846527,-27.9309250035584,29.450224,0.1,285.18274,1615927319438
Fix,GT,37.4847816,-122.1849785,-27.981802035480737,30.160223,0.1,284.42508,1615927320438
Fix,GT,37.4848501,-122.185312,-28.026348083674904,30.68362,0.1,284.49435,1615927321438
Fix,GT,37.4849211,-122.1856481,-28.067048800468445,30.751854,0.1,285.02283,1615927322438
Fix,GT,37.4849933,-122.1859822,-28.10496375343204,30.48067,0.1,285.11633,1615927323438
Fix,GT,37.4850639,-122.1863134,-28.13478743728995,30.153057,0.1,284.68997,1615927324438
Fix,GT,37.4851317,-122.1866416,-28.17078743836284,29.814877,0.1,284.23315,1615927325438
Fix,GT,37.4851964,-122.186967,-28.205910406142472,29.51537,0.1,283.60046,1615927326438
Fix,GT,37.4852574,-122.187291,-28.23815634056925,29.402729,0.1,282.75616,1615927327438
Fix,GT,37.4853146,-122.1876158,-28.261139232635497,29.498873,0.1,282.0487,1615927328438
Fix,GT,37.4853692,-122.1879432,-28.277770332336424,29.687035,0.1,281.5331,1615927329438
Fix,GT,37.4854222,-122.1882743,-28.30785621452332,30.069954,0.1,281.05215,1615927330438
Fix,GT,37.4854734,-122.1886093,-28.34383994865418,30.23769,0.1,280.58325,1615927331438
Fix,GT,37.4855223,-122.1889443,-28.36163109970093,29.960577,0.1,280.11487,1615927332438
Fix,GT,37.4855685,-122.1892761,-28.387364347457886,29.634815,0.1,279.59756,1615927333438
Fix,GT,37.4856119,-122.189605,-28.43178659820557,29.360685,0.1,279.11752,1615927334438
Fix,GT,37.4856532,-122.1899315,-28.48225764656067,29.103046,0.1,278.78055,1615927335438
Fix,GT,37.4856929,-122.1902553,-28.565728694915773,28.848707,0.1,278.61984,1615927336438
Fix,GT,37.485732,-122.1905764,-28.644048797607425,28.590006,0.1,278.5933,1615927337438
Fix,GT,37.4857708,-122.1908944,-28.691171764373777,28.338903,0.1,278.68848,1615927338438
Fix,GT,37.4858097,-122.1912105,-28.7376102809906,28.250292,0.1,278.74472,1615927339438
Fix,GT,37.4858488,-122.1915266,-28.78022597315908,28.346008,0.1,278.6945,1615927340438
Fix,GT,37.4858877,-122.1918434,-28.81810300755501,28.326233,0.1,278.70773,1615927341438
Fix,GT,37.4859264,-122.192159,-28.856664492070674,28.130318,0.1,278.65393,1615927342438
Fix,GT,37.4859645,-122.192472,-28.897734109729527,27.881546,0.1,278.55862,1615927343438
Fix,GT,37.4860021,-122.1927823,-28.93790956699848,27.630917,0.1,278.5637,1615927344438
Fix,GT,37.4860395,-122.1930897,-28.9789258338213,27.378742,0.1,278.69806,1615927345438
Fix,GT,37.4860775,-122.1933941,-29.01883995026349,27.135319,0.1,278.88702,1615927346438
Fix,GT,37.4861155,-122.1936958,-29.061188033938407,26.889069,0.1,278.88837,1615927347438
Fix,GT,37.486153,-122.1939952,-29.11836435049772,26.736675,0.1,278.76746,1615927348438
Fix,GT,37.4861898,-122.1942945,-29.162785732775927,26.911835,0.1,278.66904,1615927349438
Fix,GT,37.486227,-122.1945972,-29.17817544651032,27.27722,0.1,278.66275,1615927350438
Fix,GT,37.4862648,-122.1949037,-29.178139234304428,27.5308,0.1,278.76474,1615927351438
Fix,GT,37.486303,-122.1952119,-29.186,27.600046,0.1,278.76178,1615927352438
Fix,GT,37.4863411,-122.1955195,-29.186439386576414,27.431839,0.1,278.76193,1615927353438
Fix,GT,37.4863791,-122.1958251,-29.192263071030386,27.326113,0.1,278.77972,1615927354438
Fix,GT,37.4864172,-122.196131,-29.199438516795635,27.496368,0.1,278.87228,1615927355438
Fix,GT,37.4864561,-122.1964402,-29.194299281656743,27.88249,0.1,278.91415,1615927356438
Fix,GT,37.4864955,-122.1967534,-29.18480654603243,28.162895,0.1,278.85193,1615927357438
Fix,GT,37.486535,-122.1970683,-29.18331468078494,28.207283,0.1,278.86002,1615927358438
Fix,GT,37.4865747,-122.1973832,-29.18412296628952,28.181786,0.1,278.93152,1615927359438
Fix,GT,37.4866144,-122.1976975,-29.18036889886856,28.081745,0.1,278.87555,1615927360438
Fix,GT,37.4866533,-122.1980101,-29.174369768232108,27.855228,0.1,278.7014,1615927361438
Fix,GT,37.4866913,-122.1983202,-29.161791144788264,27.679401,0.1,278.63312,1615927362438
Fix,GT,37.4867292,-122.1986294,-29.150877033829687,27.726154,0.1,278.66388,1615927363438
Fix,GT,37.4867673,-122.1989401,-29.15156148302556,27.846981,0.1,278.70715,1615927364438
Fix,GT,37.4868058,-122.1992512,-29.13828387564421,27.807878,0.1,278.7793,1615927365438
Fix,GT,37.4868444,-122.1995606,-29.12989330661297,27.591427,0.1,278.8719,1615927366438
Fix,GT,37.4868831,-122.1998682,-29.14219258517027,27.536533,0.1,278.90195,1615927367438
Fix,GT,37.4869219,-122.2001776,-29.145876165539025,27.876375,0.1,278.7771,1615927368438
Fix,GT,37.4869604,-122.2004917,-29.14436889743805,28.334404,0.1,278.65237,1615927369438
Fix,GT,37.4869994,-122.2008102,-29.14012383422255,28.705528,0.1,278.69263,1615927370438
Fix,GT,37.4870394,-122.2011328,-29.13987703430653,29.071201,0.1,278.84003,1615927371438
Fix,GT,37.4870805,-122.2014593,-29.13398285660148,29.311346,0.1,278.99457,1615927372438
Fix,GT,37.4871224,-122.2017864,-29.12850813770294,29.207146,0.1,279.02087,1615927373438
Fix,GT,37.4871635,-122.2021108,-29.129054213047027,28.897099,0.1,278.85867,1615927374438
Fix,GT,37.4872034,-122.202432,-29.13101627635956,28.586342,0.1,278.7525,1615927375438
Fix,GT,37.487243,-122.2027504,-29.141753200769426,28.452461,0.1,278.77374,1615927376438
Fix,GT,37.4872825,-122.2030691,-29.13786075735092,28.640892,0.1,278.7075,1615927377438
Fix,GT,37.4873218,-122.2033905,-29.13219345495105,28.834873,0.1,278.54114,1615927378438
Fix,GT,37.4873605,-122.2037133,-29.135876166552304,28.88515,0.1,278.4463,1615927379438
Fix,GT,37.4873989,-122.2040362,-29.130422238230707,28.838432,0.1,278.45078,1615927380438
Fix,GT,37.4874379,-122.2043574,-29.12550900775194,28.621643,0.1,278.6281,1615927381438
Fix,GT,37.4874772,-122.2046768,-29.12912296497822,28.594858,0.1,278.74295,1615927382438
Fix,GT,37.4875169,-122.2049976,-29.122736921429635,28.826805,0.1,278.75482,1615927383438
Fix,GT,37.4875573,-122.20532,-29.079163658857347,28.857412,0.1,278.92496,1615927384438
Fix,GT,37.4875979,-122.2056406,-28.98814824295044,28.534582,0.1,278.9538,1615927385438
Fix,GT,37.4876379,-122.2059573,-28.935509003043176,28.212778,0.1,278.93478,1615927386438
Fix,GT,37.487678,-122.2062712,-28.941754070520403,28.028923,0.1,279.15033,1615927387438
Fix,GT,37.4877188,-122.2065832,-28.920757701426744,27.846783,0.1,279.2553,1615927388438
Fix,GT,37.4877596,-122.2068924,-28.895822833240032,27.60088,0.1,279.41864,1615927389438
Fix,GT,37.4878016,-122.2071998,-28.86691858482361,27.628027,0.1,279.893,1615927390438
Fix,GT,37.4878464,-122.2075082,-28.80928384509683,27.814894,0.1,280.6167,1615927391438
Fix,GT,37.4878945,-122.2078166,-28.797823695242403,27.693775,0.1,281.38358,1615927392438
Fix,GT,37.4879451,-122.2081215,-28.797860751509667,27.414318,0.1,281.92856,1615927393438
Fix,GT,37.4879972,-122.208424,-28.78254433974624,27.421303,0.1,282.29367,1615927394438
Fix,GT,37.488051,-122.2087294,-28.76159939369559,27.909798,0.1,282.44336,1615927395438
Fix,GT,37.4881066,-122.2090397,-28.7329674282074,28.248665,0.1,282.834,1615927396438
Fix,GT,37.4881647,-122.2093501,-28.7084213757515,28.111164,0.1,283.56805,1615927397438
Fix,GT,37.4882257,-122.209657,-28.69035175091028,27.835495,0.1,284.29974,1615927398438
Fix,GT,37.4882891,-122.2099596,-28.66747556972504,27.499767,0.1,285.04053,1615927399438
Fix,GT,37.4883547,-122.2102575,-28.632951991975307,27.146523,0.1,285.70618,1615927400438
Fix,GT,37.4884219,-122.2105502,-28.49242384117841,26.737408,0.1,286.28378,1615927401438
Fix,GT,37.4884901,-122.2108374,-28.12949421849847,26.292463,0.1,286.78152,1615927402438
Fix,GT,37.4885593,-122.2111204,-27.54754551124573,26.198648,0.1,287.12082,1615927403438
Fix,GT,37.4886308,-122.2114048,-26.81827226346732,26.711521,0.1,287.67664,1615927404438
Fix,GT,37.4887073,-122.2116965,-26.0298707703054,27.626358,0.1,288.48502,1615927405438
Fix,GT,37.4887894,-122.211998,-25.23958619984985,28.729061,0.1,288.98383,1615927406438
Fix,GT,37.4888761,-122.2123095,-24.4651477047801,29.569874,0.1,289.32892,1615927407438
Fix,GT,37.488966,-122.2126271,-23.66164543122053,30.033077,0.1,289.795,1615927408438
Fix,GT,37.4890602,-122.212948,-22.968549001961943,30.476414,0.1,290.57892,1615927409438
Fix,GT,37.4891602,-122.2132714,-22.51441638684273,30.84691,0.1,291.70544,1615927410438
Fix,GT,37.4892656,-122.2135957,-22.212682184517384,31.088482,0.1,292.5387,1615927411438
Fix,GT,37.4893741,-122.2139208,-22.07442667913437,31.251192,0.1,292.75192,1615927412438
Fix,GT,37.4894841,-122.2142457,-22.03575341683626,31.158794,0.1,293.1933,1615927413438
Fix,GT,37.4895961,-122.2145675,-22.081851840496064,30.963104,0.1,294.01547,1615927414438
Fix,GT,37.4897114,-122.2148859,-22.371292467057707,30.927343,0.1,294.71906,1615927415438
Fix,GT,37.4898296,-122.2152024,-22.930479967951776,30.911034,0.1,295.36304,1615927416438
Fix,GT,37.4899503,-122.2155166,-23.602974102824923,30.768513,0.1,295.92926,1615927417438
Fix,GT,37.490073,-122.2158276,-24.40930296868085,30.6099,0.1,296.60852,1615927418438
Fix,GT,37.4901982,-122.2161351,-25.250408943116664,30.470146,0.1,297.33075,1615927419438
Fix,GT,37.4903257,-122.2164394,-26.094563759863377,30.35429,0.1,298.0134,1615927420438
Fix,GT,37.4904552,-122.216741,-26.942409809499978,30.21931,0.1,298.48785,1615927421438
Fix,GT,37.4905856,-122.2170398,-27.71420822116733,30.04906,0.1,298.6998,1615927422438
Fix,GT,37.490716,-122.2173363,-28.273391204833985,29.83514,0.1,298.9261,1615927423438
Fix,GT,37.4908463,-122.2176296,-28.54688532963395,29.557713,0.1,299.13943,1615927424438
Fix,GT,37.4909758,-122.2179195,-28.629331005215644,29.183056,0.1,299.1824,1615927425438
Fix,GT,37.4911033,-122.2182052,-28.63868444335461,28.68781,0.1,299.1243,1615927426438
Fix,GT,37.4912281,-122.2184851,-28.640070485830307,27.99747,0.1,299.2295,1615927427438
Fix,GT,37.4913502,-122.2187565,-28.660224348276856,27.122421,0.1,299.5718,1615927428438
Fix,GT,37.4914707,-122.2190186,-28.691962975025177,26.439697,0.1,300.28998,1615927429438
Fix,GT,37.4915919,-122.2192736,-28.70205418422818,26.061436,0.1,301.16354,1615927430438
Fix,GT,37.4917134,-122.2195239,-28.71497842746973,25.826138,0.1,301.22357,1615927431438
Fix,GT,37.4918334,-122.2197739,-28.742824567109345,25.888622,0.1,300.67993,1615927432438
Fix,GT,37.4919526,-122.2200289,-28.798991186499592,26.539562,0.1,299.84454,1615927433438
Fix,GT,37.4920724,-122.2202942,-28.89194226980209,27.449574,0.1,299.04776,1615927434438
Fix,GT,37.4921938,-122.2205692,-28.94434903657437,28.074766,0.1,298.82504,1615927435438
Fix,GT,37.4923181,-122.2208486,-28.93768884205818,28.519878,0.1,299.28494,1615927436438
Fix,GT,37.4924464,-122.2211299,-28.84786952209473,28.772589,0.1,300.0828,1615927437438
Fix,GT,37.4925785,-122.2214104,-28.776877896368504,28.810207,0.1,300.83514,1615927438438
Fix,GT,37.4927127,-122.2216899,-28.73063904196024,28.939175,0.1,300.9568,1615927439438
Fix,GT,37.4928474,-122.2219732,-28.62395545482636,29.415333,0.1,300.41095,1615927440438
Fix,GT,37.492981,-122.2222625,-28.5062392372787,29.65303,0.1,299.67578,1615927441438
Fix,GT,37.4931116,-122.2225532,-28.398111034691333,29.350979,0.1,299.11826,1615927442438
Fix,GT,37.4932392,-122.2228419,-28.382750542312863,29.069403,0.1,298.87833,1615927443438
Fix,GT,37.493365,-122.2231301,-28.440241541802884,29.12059,0.1,298.32623,1615927444438
Fix,GT,37.493489,-122.2234219,-28.48315474212169,29.35883,0.1,297.55554,1615927445438
Fix,GT,37.4936103,-122.2237172,-28.43685400593281,29.365505,0.1,296.92773,1615927446438
Fix,GT,37.4937288,-122.2240128,-28.319602858603,29.097162,0.1,296.43924,1615927447438
Fix,GT,37.4938439,-122.2243059,-28.13267281958461,28.744267,0.1,295.86316,1615927448438
Fix,GT,37.4939557,-122.2245982,-27.76180535173416,28.6511,0.1,295.25012,1615927449438
Fix,GT,37.4940649,-122.2248921,-27.39465377765893,28.740604,0.1,294.65845,1615927450438
Fix,GT,37.4941723,-122.2251875,-27.13012410581112,28.662716,0.1,294.23944,1615927451438
Fix,GT,37.4942771,-122.2254824,-27.00120811399817,28.418858,0.1,293.72232,1615927452438
Fix,GT,37.4943782,-122.2257757,-26.995020679414274,28.086386,0.1,292.984,1615927453438
Fix,GT,37.4944749,-122.2260666,-26.966298435598613,27.6153,0.1,292.2162,1615927454438
Fix,GT,37.4945657,-122.2263516,-26.960754080295565,26.605574,0.1,291.43643,1615927455438
Fix,GT,37.4946501,-122.2266253,-26.977471966981888,25.333904,0.1,290.97818,1615927456438
Fix,GT,37.4947296,-122.2268878,-26.977143634259697,24.416687,0.1,290.66528,1615927457438
Fix,GT,37.4948051,-122.2271416,-26.99685121306777,23.405685,0.1,290.25244,1615927458438
Fix,GT,37.4948757,-122.2273834,-27.13149430298805,22.105715,0.1,289.96716,1615927459438
Fix,GT,37.4949421,-122.2276132,-27.381973906040194,21.321007,0.1,289.84235,1615927460438
Fix,GT,37.4950073,-122.2278395,-27.75510967382789,21.288204,0.1,289.8757,1615927461438
Fix,GT,37.4950731,-122.2280668,-28.171617026388645,21.55193,0.1,289.80774,1615927462438
Fix,GT,37.4951393,-122.2282982,-28.547010082930328,21.922144,0.1,289.31235,1615927463438
Fix,GT,37.4952046,-122.2285331,-28.79209360778332,22.043335,0.1,289.0311,1615927464438
Fix,GT,37.4952699,-122.2287675,-28.871861575841905,21.847042,0.1,289.35086,1615927465438
Fix,GT,37.4953362,-122.2289984,-28.8670696426034,21.525738,0.1,290.15942,1615927466438
Fix,GT,37.4954047,-122.2292238,-28.88766291484237,21.116013,0.1,291.40796,1615927467438
Fix,GT,37.4954765,-122.2294414,-28.962938878297805,20.492939,0.1,293.18433,1615927468438
Fix,GT,37.49555,-122.2296483,-29.064011995851992,19.430904,0.1,294.16565,1615927469438
Fix,GT,37.4956194,-122.2298429,-29.11815561473369,18.307804,0.1,293.82358,1615927470438
Fix,GT,37.4956853,-122.2300281,-29.14596214473248,17.620796,0.1,293.977,1615927471438
Fix,GT,37.4957496,-122.2302072,-29.14728290402889,17.121979,0.1,294.25128,1615927472438
Fix,GT,37.4958122,-122.230381,-29.119599333077662,16.59115,0.1,294.19104,1615927473438
Fix,GT,37.4958724,-122.2305497,-29.137012004554272,16.16891,0.1,293.88715,1615927474438
Fix,GT,37.4959306,-122.2307157,-29.23632237556577,15.924304,0.1,293.39532,1615927475438
Fix,GT,37.4959881,-122.23088,-29.325908828228712,15.777813,0.1,293.6472,1615927476438
Fix,GT,37.4960464,-122.2310402,-29.348508165359497,15.280539,0.1,295.22546,1615927477438
Fix,GT,37.4961091,-122.2311892,-29.343353419393303,14.526656,0.1,300.12347,1615927478438
Fix,GT,37.4961826,-122.2313203,-29.242857333362103,13.955973,0.1,308.92923,1615927479438
Fix,GT,37.4962694,-122.2314299,-29.065098932027816,13.488002,0.1,318.65216,1615927480438
Fix,GT,37.496367,-122.2315183,-28.93551593577861,13.330223,0.1,327.38788,1615927481438
Fix,GT,37.4964736,-122.2315883,-28.75759938693047,13.396231,0.1,335.3109,1615927482438
Fix,GT,37.4965863,-122.2316391,-28.50514021849632,13.154518,0.1,343.24225,1615927483438
Fix,GT,37.4966989,-122.2316729,-28.28654259860516,12.499695,0.1,348.18112,1615927484438
Fix,GT,37.4968065,-122.2316999,-28.123763549506663,11.797363,0.1,348.51303,1615927485438
Fix,GT,37.4969079,-122.2317307,-28.05629839226604,11.440195,0.1,344.70334,1615927486438
Fix,GT,37.4970019,-122.2317744,-28.034967330932616,10.821108,0.1,336.25006,1615927487438
Fix,GT,37.4970818,-122.2318325,-28.006476332455872,9.782304,0.1,326.42688,1615927488438
Fix,GT,37.4971466,-122.2318996,-28.012734276473523,9.058651,0.1,318.03375,1615927489438
Fix,GT,37.4972011,-122.2319728,-28.035369709968567,8.714399,0.1,310.90088,1615927490438
Fix,GT,37.4972456,-122.2320479,-27.99560275965929,7.711658,0.1,304.76874,1615927491438
Fix,GT,37.4972773,-122.2321134,-27.93496649512649,5.8045635,0.1,299.87927,1615927492438
Fix,GT,37.4972967,-122.2321624,-27.90910579004884,3.8919737,0.1,295.32416,1615927493438
Fix,GT,37.4973075,-122.2321958,-27.89373774766922,2.5884924,0.1,292.01624,1615927494438
Fix,GT,37.4973141,-122.2322186,-27.87910745206475,1.8055284,0.1,290.79993,1615927495438
Fix,GT,37.4973185,-122.2322335,-27.86593118315935,0.92738664,0.1,290.55588,1615927496438
Fix,GT,37.49732,-122.2322385,-27.864192605435846,0.12411691,0.1,290.52878,1615927497438
Fix,GT,37.4973201,-122.2322387,-27.867,0.0018018039,0.1,290.52722,1615927498438
Fix,GT,37.4973201,-122.2322387,-27.86656064838171,0.0022082645,0.1,290.5263,1615927499438
Fix,GT,37.4973201,-122.2322387,-27.86819260573387,0.042418923,0.1,290.525,1615927500438
Fix,GT,37.497321,-122.2322419,-27.874069648027422,0.753832,0.1,290.50604,1615927501438
Fix,GT,37.4973262,-122.2322588,-27.863528802156445,2.5924933,0.1,290.75098,1615927502438
Fix,GT,37.4973375,-122.2322948,-27.813865826308728,4.06216,0.1,291.023,1615927503438
Fix,GT,37.4973512,-122.2323388,-27.75426737478375,4.1476016,0.1,291.2124,1615927504438
Fix,GT,37.497365,-122.2323812,-27.7206680970788,4.1159115,0.1,292.04813,1615927505438
Fix,GT,37.49738,-122.2324263,-27.675795345902444,4.617623,0.1,292.4273,1615927506438
Fix,GT,37.4973948,-122.2324779,-27.55876613005996,4.9594536,0.1,289.06506,1615927507438
Fix,GT,37.4974043,-122.2325319,-27.3952743049264,4.771276,0.1,280.91724,1615927508438
Fix,GT,37.4974056,-122.232584,-27.25951674580574,4.597473,0.1,270.37988,1615927509438
Fix,GT,37.4973961,-122.2326348,-27.16360273492337,4.848673,0.1,255.60905,1615927510438
Fix,GT,37.4973719,-122.2326822,-27.08761907118559,5.3777914,0.1,235.29099,1615927511438
Fix,GT,37.4973314,-122.2327205,-26.98597588646412,6.1616406,0.1,215.43799,1615927512438
Fix,GT,37.497278,-122.232752,-26.776389483779667,6.9719477,0.1,204.14206,1615927513438
Fix,GT,37.4972182,-122.2327817,-26.446799613177777,7.2429056,0.1,201.11765,1615927514438
Fix,GT,37.4971586,-122.2328096,-26.08402568626404,6.828638,0.1,200.21498,1615927515438
Fix,GT,37.4971024,-122.2328352,-25.74860350704193,6.5855465,0.1,199.77989,1615927516438
Fix,GT,37.4970448,-122.2328611,-25.39178480297327,7.139875,0.1,199.52246,1615927517438
Fix,GT,37.4969799,-122.2328902,-25.00555521950126,8.085455,0.1,199.62697,1615927518438
Fix,GT,37.4969083,-122.232923,-24.64283380794525,8.725336,0.1,200.08403,1615927519438
Fix,GT,37.4968342,-122.2329575,-24.319951738119123,8.722242,0.1,200.20654,1615927520438
Fix,GT,37.4967622,-122.232991,-24.05470081946254,8.326105,0.1,200.25928,1615927521438
Fix,GT,37.4966936,-122.233023,-23.82852456256748,7.9378777,0.1,200.34232,1615927522438
Fix,GT,37.4966268,-122.2330542,-23.599754139631983,7.967717,0.1,200.381,1615927523438
Fix,GT,37.4965565,-122.2330871,-23.376857177615165,8.835228,0.1,200.30396,1615927524438
Fix,GT,37.4964767,-122.233124,-23.20567732927203,10.0902195,0.1,200.05284,1615927525438
Fix,GT,37.4963868,-122.2331647,-23.10074270349741,10.95771,0.1,199.63824,1615927526438
Fix,GT,37.4962927,-122.2332068,-23.080856427252293,11.066089,0.1,199.41313,1615927527438
Fix,GT,37.4961997,-122.2332487,-23.15849963080883,10.798035,0.1,199.92099,1615927528438
Fix,GT,37.4961091,-122.2332914,-23.348908310860395,10.715349,0.1,200.86302,1615927529438
Fix,GT,37.4960189,-122.2333357,-23.63085499691963,10.775946,0.1,201.46663,1615927530438
Fix,GT,37.4959285,-122.2333812,-23.988896209001545,10.886247,0.1,201.9219,1615927531438
Fix,GT,37.4958379,-122.2334297,-24.47517054700852,10.977453,0.1,203.77669,1615927532438
Fix,GT,37.4957495,-122.2334856,-25.084158504009245,11.010607,0.1,208.44414,1615927533438
Fix,GT,37.4956666,-122.2335549,-25.8724776391685,11.237219,0.1,216.4418,1615927534438
Fix,GT,37.4955927,-122.2336446,-26.80518977123499,11.684385,0.1,227.85434,1615927535438
Fix,GT,37.4955325,-122.2337554,-27.723919692218303,12.084281,0.1,239.75684,1615927536438
Fix,GT,37.4954911,-122.2338826,-28.4190846105814,12.250036,0.1,252.27089,1615927537438
Fix,GT,37.4954752,-122.2340183,-28.85816791060568,12.172807,0.1,267.1584,1615927538438
Fix,GT,37.4954886,-122.2341532,-29.17447139686346,12.127552,0.1,282.60754,1615927539438
Fix,GT,37.4955302,-122.2342791,-29.393147139549253,12.195301,0.1,297.8444,1615927540438
Fix,GT,37.4955963,-122.2343877,-29.47531556540728,12.111046,0.1,312.6963,1615927541438
Fix,GT,37.4956806,-122.2344704,-29.485331036329267,11.811281,0.1,327.18927,1615927542438
Fix,GT,37.495776,-122.2345228,-29.48854424980283,11.465836,0.1,341.26743,1615927543438
Fix,GT,37.4958764,-122.2345444,-29.467598431587216,11.321152,0.1,354.92813,1615927544438
Fix,GT,37.495978,-122.2345347,-29.449492702633144,11.499332,0.1,9.082336,1615927545438
Fix,GT,37.4960777,-122.2344932,-29.45727949050069,11.926609,0.1,23.142761,1615927546438
Fix,GT,37.4961703,-122.23442,-29.477385219216345,12.4737835,0.1,36.992188,1615927547438
Fix,GT,37.4962487,-122.2343167,-29.473791039645672,12.945154,0.1,51.81299,1615927548438
Fix,GT,37.4963037,-122.2341861,-29.47910147807002,13.459246,0.1,68.48181,1615927549438
Fix,GT,37.496326,-122.2340351,-29.47074110615253,14.104458,0.1,86.08627,1615927550438
Fix,GT,37.4963144,-122.233872,-29.38025440621376,15.172352,0.1,99.432434,1615927551438
Fix,GT,37.4962801,-122.2336976,-29.27804119753837,16.645128,0.1,105.06323,1615927552438
Fix,GT,37.4962358,-122.2335084,-29.22279190894961,18.237984,0.1,106.533356,1615927553438
Fix,GT,37.4961854,-122.2333024,-29.189512419998643,19.843357,0.1,107.13025,1615927554438
Fix,GT,37.4961298,-122.2330812,-29.151475471019747,21.14384,0.1,107.37961,1615927555438
Fix,GT,37.4960712,-122.2328482,-29.119581204652786,22.077711,0.1,107.31497,1615927556438
Fix,GT,37.4960105,-122.2326056,-29.063548499643804,22.854443,0.1,107.35715,1615927557438
Fix,GT,37.4959473,-122.2323557,-28.99042554599047,23.460571,0.1,107.591705,1615927558438
Fix,GT,37.495882,-122.2321015,-28.910094488859176,23.67202,0.1,107.87427,1615927559438
Fix,GT,37.4958162,-122.231848,-28.84058207178116,23.452148,0.1,108.07037,1615927560438
Fix,GT,37.4957512,-122.2315968,-28.81042302685976,23.322945,0.1,107.75668,1615927561438
Fix,GT,37.495687,-122.2313445,-28.785775539547203,23.619734,0.1,107.52307,1615927562438
Fix,GT,37.4956209,-122.2310865,-28.78297855252028,24.26767,0.1,107.940186,1615927563438
Fix,GT,37.495551,-122.2308232,-28.780126332312825,24.716713,0.1,108.742676,1615927564438
Fix,GT,37.4954776,-122.2305595,-28.750507320791485,24.590836,0.1,109.528015,1615927565438
Fix,GT,37.4954032,-122.2302996,-28.74447546672821,24.305481,0.1,109.641205,1615927566438
Fix,GT,37.4953302,-122.2300402,-28.732316422998903,24.367842,0.1,109.09622,1615927567438
Fix,GT,37.4952596,-122.2297777,-28.744525390326977,24.676966,0.1,108.17096,1615927568438
Fix,GT,37.495191,-122.2295095,-28.74616075631976,25.19323,0.1,107.41135,1615927569438
Fix,GT,37.4951212,-122.2292348,-28.717405809342864,25.805954,0.1,107.85428,1615927570438
Fix,GT,37.4950472,-122.2289561,-28.67807388603687,26.153477,0.1,108.782135,1615927571438
Fix,GT,37.4949696,-122.2286755,-28.596499424457548,26.338213,0.1,109.16922,1615927572438
Fix,GT,37.4948913,-122.228395,-28.42757754102349,26.166208,0.1,109.29648,1615927573438
Fix,GT,37.4948131,-122.2281179,-28.1279762878418,25.83487,0.1,109.438416,1615927574438
Fix,GT,37.4947353,-122.227843,-27.75157130140066,25.841316,0.1,109.47421,1615927575438
Fix,GT,37.4946566,-122.2275652,-27.45177181047201,26.354488,0.1,109.530426,1615927576438
Fix,GT,37.4945749,-122.2272805,-27.28521741694212,27.130768,0.1,109.905,1615927577438
Fix,GT,37.4944884,-122.2269868,-27.2158976264596,28.249111,0.1,110.42914,1615927578438
Fix,GT,37.4943958,-122.2266809,-27.190929532557725,29.65163,0.1,110.95181,1615927579438
Fix,GT,37.494296,-122.2263614,-27.194892593473195,30.989588,0.1,111.735565,1615927580438
Fix,GT,37.494188,-122.2260313,-27.216401583909988,32.029526,0.1,112.637085,1615927581438
Fix,GT,37.4940735,-122.2256937,-27.225738541692497,32.850113,0.1,113.260925,1615927582438
Fix,GT,37.4939536,-122.225349,-27.456679999619723,33.662884,0.1,113.816864,1615927583438
Fix,GT,37.4938273,-122.2249977,-27.90483538579941,34.47431,0.1,114.7063,1615927584438
Fix,GT,37.4936939,-122.2246413,-28.25826969182492,35.1468,0.1,115.49695,1615927585438
Fix,GT,37.4935544,-122.2242817,-28.597785464674235,35.538,0.1,116.36609,1615927586438
Fix,GT,37.4934096,-122.2239219,-28.788765379190444,35.6538,0.1,117.16403,1615927587438
Fix,GT,37.4932615,-122.223565,-28.828930341959,35.495487,0.1,117.77765,1615927588438
Fix,GT,37.4931112,-122.2232122,-28.800881254971024,35.257294,0.1,118.37573,1615927589438
Fix,GT,37.4929589,-122.2228627,-28.75509023034573,35.242958,0.1,118.8764,1615927590438
Fix,GT,37.4928047,-122.2225141,-28.70004028493166,35.27372,0.1,119.0242,1615927591438
Fix,GT,37.4926503,-122.2221661,-28.68294164204597,35.13983,0.1,119.04346,1615927592438
Fix,GT,37.4924964,-122.2218206,-28.731840112805365,34.82814,0.1,119.25552,1615927593438
Fix,GT,37.4923432,-122.2214794,-28.78559085664153,34.430305,0.1,119.33441,1615927594438
Fix,GT,37.4921917,-122.2211421,-28.83719347298145,34.060894,0.1,119.282715,1615927595438
Fix,GT,37.4920424,-122.220808,-28.86762693363428,33.70332,0.1,119.078735,1615927596438
Fix,GT,37.4918955,-122.2204768,-28.865725565731523,33.31644,0.1,118.942535,1615927597438
Fix,GT,37.4917507,-122.2201496,-28.79124925121665,32.898544,0.1,118.97806,1615927598438
Fix,GT,37.4916077,-122.2198271,-28.732441866964106,32.379986,0.1,119.030914,1615927599438
Fix,GT,37.4914671,-122.2195107,-28.684336133003235,31.68913,0.1,119.07184,1615927600438
Fix,GT,37.4913292,-122.2192009,-28.659930340290067,31.055794,0.1,119.08835,1615927601438
Fix,GT,37.4911936,-122.2188965,-28.660386082470417,30.653578,0.1,119.121216,1615927602438
Fix,GT,37.4910594,-122.2185957,-28.65898448878527,30.32618,0.1,119.17346,1615927603438
Fix,GT,37.4909263,-122.2182978,-28.62412715035677,30.131159,0.1,119.15924,1615927604438
Fix,GT,37.4907937,-122.2179999,-28.56731976473332,30.283054,0.1,119.048035,1615927605438
Fix,GT,37.49066,-122.2176979,-28.4506101372242,30.824066,0.1,118.92157,1615927606438
Fix,GT,37.4905239,-122.2173896,-28.12906963804364,31.474113,0.1,118.93799,1615927607438
Fix,GT,37.4903858,-122.2170769,-27.490640734672542,31.680233,0.1,118.973816,1615927608438
Fix,GT,37.4902485,-122.2167642,-26.652833349347112,31.42791,0.1,118.637146,1615927609438
Fix,GT,37.490115,-122.2164534,-25.815202211737635,31.063961,0.1,117.9451,1615927610438
Fix,GT,37.4899863,-122.2161448,-24.96630952858925,30.529823,0.1,117.177704,1615927611438
Fix,GT,37.4898633,-122.2158395,-24.140637248307467,30.00039,0.1,116.406494,1615927612438
Fix,GT,37.4897452,-122.2155363,-23.382194510996342,29.771626,0.1,115.6662,1615927613438
Fix,GT,37.4896298,-122.215231,-22.7100091573,30.03413,0.1,115.131165,1615927614438
Fix,GT,37.4895149,-122.2149218,-22.204922739088538,30.241055,0.1,114.86395,1615927615438
Fix,GT,37.4894011,-122.2146116,-21.91469699895382,30.156761,0.1,114.42676,1615927616438
Fix,GT,37.4892901,-122.2142997,-21.82971716856957,30.311176,0.1,113.56647,1615927617438
Fix,GT,37.4891823,-122.2139825,-21.86573353743553,30.657024,0.1,112.58658,1615927618438
Fix,GT,37.4890771,-122.2136606,-21.96467253050208,30.877674,0.1,111.86185,1615927619438
Fix,GT,37.4889747,-122.213335,-22.24449592190981,31.026665,0.1,111.13422,1615927620438
Fix,GT,37.4888748,-122.2130063,-22.725380981594324,31.15384,0.1,110.54144,1615927621438
Fix,GT,37.4887772,-122.212676,-23.39571190702916,31.090038,0.1,109.97089,1615927622438
Fix,GT,37.4886824,-122.212346,-24.22379793864489,30.97176,0.1,109.44971,1615927623438
Fix,GT,37.4885904,-122.2120159,-25.073129877805712,30.918537,0.1,108.98926,1615927624438
Fix,GT,37.4885009,-122.211685,-25.96075609984993,30.90615,0.1,108.33789,1615927625438
Fix,GT,37.4884148,-122.2113522,-26.86402253088355,30.99751,0.1,107.52252,1615927626438
Fix,GT,37.4883323,-122.2110167,-27.663527698159218,31.0959,0.1,106.61774,1615927627438
Fix,GT,37.4882534,-122.2106788,-28.221323236346244,31.221146,0.1,105.98227,1615927628438
Fix,GT,37.4881763,-122.2103378,-28.48649982714653,31.459122,0.1,105.577484,1615927629438
Fix,GT,37.488101,-122.2099935,-28.58613514530659,31.685219,0.1,104.94635,1615927630438
Fix,GT,37.488029,-122.2096465,-28.638718026012185,31.734415,0.1,104.220764,1615927631438
Fix,GT,37.4879606,-122.2092991,-28.68569747820497,31.544971,0.1,103.46942,1615927632438
Fix,GT,37.4878961,-122.2089523,-28.74034916818142,31.492102,0.1,102.727295,1615927633438
Fix,GT,37.4878348,-122.2086038,-28.80122203820944,31.710644,0.1,102.11136,1615927634438
Fix,GT,37.4877754,-122.2082518,-28.87504911518097,31.889147,0.1,101.67911,1615927635438
Fix,GT,37.4877183,-122.2078975,-28.91603274345398,32.038097,0.1,101.15228,1615927636438
Fix,GT,37.487664,-122.2075413,-28.95154006820917,32.11292,0.1,100.40436,1615927637438
Fix,GT,37.487613,-122.2071831,-28.993732683330773,32.261833,0.1,99.73285,1615927638438
Fix,GT,37.487565,-122.2068222,-29.0422417345047,32.43508,0.1,99.168915,1615927639438
Fix,GT,37.4875191,-122.2064605,-29.08208603572845,32.310677,0.1,98.85513,1615927640438
Fix,GT,37.4874744,-122.2061012,-29.092808250486847,31.976162,0.1,98.73779,1615927641438
Fix,GT,37.4874305,-122.2057456,-29.113242603033783,31.72475,0.1,98.65344,1615927642438
Fix,GT,37.4873872,-122.2053914,-29.17325811129808,31.696291,0.1,98.5332,1615927643438
Fix,GT,37.4873446,-122.2050369,-29.22164751374721,31.737835,0.1,98.46008,1615927644438
Fix,GT,37.4873018,-122.2046818,-29.232245906591416,31.751896,0.1,98.53125,1615927645438
Fix,GT,37.4872584,-122.2043272,-29.230876175642017,31.685516,0.1,98.72522,1615927646438
Fix,GT,37.4872142,-122.2039741,-29.20437215575576,31.572676,0.1,98.87268,1615927647438
Fix,GT,37.4871698,-122.2036223,-29.160229531764983,31.445091,0.1,98.882965,1615927648438
Fix,GT,37.4871256,-122.2032718,-29.14856147658825,31.336658,0.1,98.80383,1615927649438
Fix,GT,37.4870822,-122.2029219,-29.140545970171694,31.26603,0.1,98.69165,1615927650438
Fix,GT,37.4870392,-122.2025733,-29.108636172652243,31.117786,0.1,98.70654,1615927651438
Fix,GT,37.4869961,-122.2022266,-29.07429832783341,30.970514,0.1,98.80124,1615927652438
Fix,GT,37.4869529,-122.2018808,-29.06261389872432,30.97628,0.1,98.7923,1615927653438
Fix,GT,37.4869099,-122.2015338,-29.06270080590248,31.144987,0.1,98.634766,1615927654438
Fix,GT,37.4868674,-122.2011845,-29.07263114118576,31.35636,0.1,98.529236,1615927655438
Fix,GT,37.4868248,-122.200833,-29.075562342971565,31.48755,0.1,98.64212,1615927656438
Fix,GT,37.4867813,-122.2004814,-29.078947578549386,31.37458,0.1,98.78525,1615927657438
Fix,GT,37.4867381,-122.2001329,-29.088385235905648,31.020723,0.1,98.75821,1615927658438
Fix,GT,37.4866954,-122.199788,-29.103647518992425,30.709885,0.1,98.67938,1615927659438
Fix,GT,37.4866535,-122.1994463,-29.123454033821822,30.414818,0.1,98.56702,1615927660438
Fix,GT,37.4866126,-122.1991078,-29.14001637840271,30.152565,0.1,98.52002,1615927661438
Fix,GT,37.4865719,-122.1987716,-29.14066805064678,30.015652,0.1,98.61536,1615927662438
Fix,GT,37.486531,-122.1984372,-29.123861536622048,29.818928,0.1,98.70361,1615927663438
Fix,GT,37.4864901,-122.1981058,-29.122578722924,29.504051,0.1,98.71698,1615927664438
Fix,GT,37.4864495,-122.197778,-29.13845490306616,29.178682,0.1,98.77124,1615927665438
Fix,GT,37.4864092,-122.1974529,-29.162471282422544,29.063211,0.1,98.7876,1615927666438
Fix,GT,37.4863689,-122.1971275,-29.18582289147377,29.206287,0.1,98.757385,1615927667438
Fix,GT,37.4863283,-122.196801,-29.21173356962204,29.223047,0.1,98.80475,1615927668438
Fix,GT,37.4862876,-122.1964758,-29.242262285232545,28.959589,0.1,98.89093,1615927669438
Fix,GT,37.486247,-122.1961543,-29.246808252692222,28.607681,0.1,98.90152,1615927670438
Fix,GT,37.486207,-122.1958368,-29.23215985661745,28.263073,0.1,98.892914,1615927671438
Fix,GT,37.4861675,-122.1955227,-29.22050732013583,27.987743,0.1,98.90839,1615927672438
Fix,GT,37.4861283,-122.1952114,-29.228507319897417,27.726337,0.1,98.927765,1615927673438
Fix,GT,37.4860894,-122.1949036,-29.22379186892509,27.387695,0.1,98.89853,1615927674438
Fix,GT,37.4860512,-122.1945997,-29.206299188673498,27.035042,0.1,98.83731,1615927675438
Fix,GT,37.4860137,-122.1942996,-29.204700811326504,26.693453,0.1,98.79791,1615927676438
Fix,GT,37.4859766,-122.1940033,-29.19796636211872,26.351873,0.1,98.965515,1615927677438
Fix,GT,37.4859383,-122.1937111,-29.18131557202339,26.031303,0.1,99.58267,1615927678438
Fix,GT,37.4858974,-122.1934219,-29.175983615875246,25.995268,0.1,100.22763,1615927679438
Fix,GT,37.4858549,-122.1931316,-29.165685297131542,26.221857,0.1,100.40155,1615927680438
Fix,GT,37.4858123,-122.1928392,-29.153036898314955,26.26324,0.1,100.14484,1615927681438
Fix,GT,37.4857712,-122.1925478,-29.12452870577573,26.071325,0.1,99.664276,1615927682438
Fix,GT,37.4857323,-122.1922587,-29.097667174726723,25.83447,0.1,99.33908,1615927683438
Fix,GT,37.4856946,-122.1919701,-29.069020510792733,25.990488,0.1,99.046326,1615927684438
Fix,GT,37.4856579,-122.1916769,-29.030213131427764,26.518822,0.1,98.66928,1615927685438
Fix,GT,37.4856213,-122.1913781,-29.00166890558601,26.90599,0.1,98.617004,1615927686438
Fix,GT,37.4855843,-122.1910763,-28.992754096746445,27.08629,0.1,98.74457,1615927687438
Fix,GT,37.4855469,-122.1907732,-28.99543852418661,27.171919,0.1,98.70233,1615927688438
Fix,GT,37.4855094,-122.1904692,-28.99512208741904,27.287407,0.1,98.82672,1615927689438
Fix,GT,37.4854708,-122.1901639,-28.96198686811328,27.335403,0.1,99.1087,1615927690438
Fix,GT,37.4854308,-122.1898597,-28.92713933944702,27.153275,0.1,99.44501,1615927691438
Fix,GT,37.48539,-122.1895585,-28.93719348371029,26.902786,0.1,99.55267,1615927692438
Fix,GT,37.4853493,-122.1892595,-28.93342299833894,26.771452,0.1,99.61728,1615927693438
Fix,GT,37.4853079,-122.1889615,-28.91403689235449,26.7331,0.1,100.00995,1615927694438
Fix,GT,37.4852645,-122.1886643,-28.89605328124761,26.715641,0.1,100.60022,1615927695438
Fix,GT,37.4852188,-122.1883678,-28.869073781728744,26.686386,0.1,101.00198,1615927696438
Fix,GT,37.4851718,-122.1880725,-28.84012295126915,26.521393,0.1,101.448425,1615927697438
Fix,GT,37.4851231,-122.1877807,-28.821898408055304,26.211426,0.1,102.05859,1615927698438
Fix,GT,37.4850723,-122.1874932,-28.78772217524052,25.876942,0.1,102.799866,1615927699438
Fix,GT,37.4850192,-122.1872096,-28.761036889374257,25.681282,0.1,103.44479,1615927700438
Fix,GT,37.4849643,-122.1869274,-28.741299182474613,25.759357,0.1,103.82031,1615927701438
Fix,GT,37.4849075,-122.1866436,-28.72391308119893,26.027111,0.1,104.12982,1615927702438
Fix,GT,37.4848488,-122.186357,-28.69258111724257,26.27604,0.1,104.57382,1615927703438
Fix,GT,37.4847876,-122.1860688,-28.660668034791943,26.510992,0.1,105.07587,1615927704438
Fix,GT,37.4847235,-122.1857783,-28.641668034791945,26.79821,0.1,105.64789,1615927705438
Fix,GT,37.4846564,-122.1854859,-28.619599215894937,27.000854,0.1,106.31174,1615927706438
Fix,GT,37.4845864,-122.1851935,-28.59754593575001,26.974762,0.1,106.8916,1615927707438
Fix,GT,37.4845147,-122.1849036,-28.577036886394023,26.69103,0.1,107.41858,1615927708438
Fix,GT,37.4844417,-122.1846182,-28.527918036460875,26.332394,0.1,108.13852,1615927709438
Fix,GT,37.4843654,-122.1843385,-28.448355709791183,25.937508,0.1,109.72504,1615927710438
Fix,GT,37.4842829,-122.1840669,-28.37023360550404,25.43557,0.1,111.96835,1615927711438
Fix,GT,37.4841943,-122.1838054,-28.304196720600128,24.798964,0.1,113.766754,1615927712438
Fix,GT,37.4841038,-122.1835545,-28.246058216840023,23.842653,0.1,114.58392,1615927713438
Fix,GT,37.4840161,-122.1833175,-28.194091003149747,22.267998,0.1,115.2623,1615927714438
Fix,GT,37.4839302,-122.1830998,-28.15789753812552,20.743225,0.1,117.68359,1615927715438
Fix,GT,37.4838391,-122.1829024,-28.067590152502056,19.688597,0.1,122.59076,1615927716438
Fix,GT,37.4837376,-122.1827292,-27.8655442211926,18.418766,0.1,130.02014,1615927717438
Fix,GT,37.4836252,-122.182588,-27.65453686571121,17.003914,0.1,139.41046,1615927718438
Fix,GT,37.4835059,-122.1824818,-27.51104506349564,15.501558,0.1,148.89828,1615927719438
Fix,GT,37.4833886,-122.1824081,-27.40318031477928,13.5841675,0.1,156.52917,1615927720438
Fix,GT,37.4832831,-122.1823584,-27.323340145647524,11.452887,0.1,161.08685,1615927721438
Fix,GT,37.4831944,-122.1823233,-27.19895816767216,9.287323,0.1,163.24072,1615927722438
Fix,GT,37.4831242,-122.1822978,-27.048359817624096,6.9679832,0.1,164.04205,1615927723438
Fix,GT,37.483072,-122.1822787,-26.9057827488184,5.2769384,0.1,163.3753,1615927724438
Fix,GT,37.4830316,-122.182262,-26.75434501877428,4.1409817,0.1,161.40204,1615927725438
Fix,GT,37.4830028,-122.1822483,-26.63304175528884,2.766928,0.1,159.3844,1615927726438
Fix,GT,37.4829835,-122.1822384,-26.550602433145045,2.1657188,0.1,157.96875,1615927727438
Fix,GT,37.4829635,-122.1822277,-26.44918438726664,2.8857727,0.1,157.48315,1615927728438
Fix,GT,37.4829324,-122.1822117,-26.27068355572224,4.648733,0.1,157.29974,1615927729438
Fix,GT,37.4828867,-122.1821854,-25.97895478844643,6.3961287,0.1,154.91278,1615927730438
Fix,GT,37.4828319,-122.1821478,-25.61460641479492,7.363229,0.1,150.22595,1615927731438
Fix,GT,37.4827747,-122.1821024,-25.257357184767724,7.601987,0.1,146.96863,1615927732438
Fix,GT,37.4827188,-122.1820557,-24.99004909586906,7.2814264,0.1,145.76605,1615927733438
Fix,GT,37.482668,-122.1820079,-24.83000814759731,6.8637457,0.1,141.1947,1615927734438
Fix,GT,37.4826282,-122.1819532,-24.705482804894444,6.3969083,0.1,128.61597,1615927735438
Fix,GT,37.4826051,-122.1818886,-24.541171305954457,6.4160824,0.1,110.03732,1615927736438
Fix,GT,37.4826017,-122.1818138,-24.287917873859406,7.209584,0.1,89.36487,1615927737438
Fix,GT,37.48262,-122.1817318,-23.902085837483405,8.217528,0.1,70.9404,1615927738438
Fix,GT,37.4826558,-122.1816435,-23.38709466558695,9.392725,0.1,61.398285,1615927739438
Fix,GT,37.4827019,-122.1815466,-22.81423399987817,10.512422,0.1,58.57193,1615927740438
Fix,GT,37.4827549,-122.1814434,-22.25668822312355,11.105043,0.1,56.556824,1615927741438
Fix,GT,37.4828115,-122.1813416,-21.74157694041729,10.784758,0.1,54.46997,1615927742438
Fix,GT,37.4828686,-122.1812448,-21.288749112337825,10.584895,0.1,53.070282,1615927743438
Fix,GT,37.4829277,-122.1811499,-20.88192251479626,10.794563,0.1,51.428894,1615927744438
Fix,GT,37.4829898,-122.1810566,-20.53118074429036,10.660788,0.1,49.549316,1615927745438
Fix,GT,37.4830515,-122.1809681,-20.254262139797213,10.115678,0.1,48.53586,1615927746438
Fix,GT,37.4831122,-122.1808832,-20.035856422841547,10.294893,0.1,47.89444,1615927747438
Fix,GT,37.4831789,-122.1807947,-19.840556651860474,11.434991,0.1,45.950317,1615927748438
Fix,GT,37.4832569,-122.1807011,-19.67974522539973,12.455343,0.1,42.60132,1615927749438
Fix,GT,37.4833448,-122.1806075,-19.58531963276863,13.030178,0.1,39.156494,1615927750438
Fix,GT,37.4834389,-122.1805185,-19.583504145741465,13.087917,0.1,35.662994,1615927751438
Fix,GT,37.4835364,-122.180437,-19.676131829380992,12.941633,0.1,32.748383,1615927752438
Fix,GT,37.4836351,-122.1803612,-19.85894692081213,12.739044,0.1,30.998657,1615927753438
Fix,GT,37.4837319,-122.1802876,-20.12773383444548,12.334463,0.1,32.102783,1615927754438
Fix,GT,37.48382,-122.1802076,-20.468479236572986,11.901146,0.1,39.50653,1615927755438
Fix,GT,37.4838905,-122.1801094,-20.9833571112156,11.749901,0.1,53.653015,1615927756438
Fix,GT,37.4839347,-122.1799898,-21.75607455587388,11.976637,0.1,71.54846,1615927757438
Fix,GT,37.4839463,-122.1798545,-22.75223932224512,12.476321,0.1,90.5509,1615927758438
Fix,GT,37.483921,-122.179716,-23.87507483255863,12.975967,0.1,110.130615,1615927759438
Fix,GT,37.4838577,-122.1795931,-25.09243558633328,13.363086,0.1,130.47583,1615927760438
Fix,GT,37.4837615,-122.1795034,-26.254225590378045,13.669664,0.1,151.06824,1615927761438
Fix,GT,37.4836445,-122.1794609,-27.16197943353653,13.804726,0.1,171.91437,1615927762438
Fix,GT,37.4835232,-122.1794739,-27.76307823741436,13.697106,0.1,193.33836,1615927763438
Fix,GT,37.4834165,-122.1795415,-28.03576242470741,13.367462,0.1,215.87854,1615927764438
Fix,GT,37.4833411,-122.179653,-28.10135327485204,13.172598,0.1,238.59555,1615927765438
Fix,GT,37.4833043,-122.1797939,-28.04558680397272,13.727072,0.1,259.59283,1615927766438
Fix,GT,37.4833062,-122.1799535,-27.87993007010221,15.024337,0.1,276.87704,1615927767438
Fix,GT,37.4833428,-122.1801259,-27.661380965769293,16.830603,0.1,288.68692,1615927768438
Fix,GT,37.4834037,-122.1803137,-27.556299166202542,19.095798,0.1,293.60913,1615927769438
Fix,GT,37.4834771,-122.1805234,-27.551631154060363,21.4063,0.1,293.62714,1615927770438
Fix,GT,37.4835573,-122.1807573,-27.5225499189198,23.62608,0.1,292.6643,1615927771438
Fix,GT,37.4836405,-122.1810167,-27.479246716171502,25.845678,0.1,291.22272,1615927772438
Fix,GT,37.4837276,-122.1813001,-27.44630401942134,27.888123,0.1,291.05753,1615927773438
Fix,GT,37.4838219,-122.1816031,-27.417963143408297,29.593082,0.1,291.34607,1615927774438
Fix,GT,37.4839202,-122.1819239,-27.449102503716944,31.210518,0.1,290.52985,1615927775438
Fix,GT,37.4840185,-122.1822635,-27.483716428518296,32.696705,0.1,289.45184,1615927776438
Fix,GT,37.4841184,-122.1826196,-27.528064829468725,34.07565,0.1,289.2295,1615927777438
Fix,GT,37.4842214,-122.1829905,-27.578909054577352,35.38516,0.1,288.86514,1615927778438
Fix,GT,37.4843242,-122.1833761,-27.647114063322544,36.52096,0.1,288.03476,1615927779438
Fix,GT,37.4844264,-122.1837738,-27.766131301879884,37.368134,0.1,287.721,1615927780438
Fix,GT,37.4845298,-122.1841799,-27.887553414940832,38.00068,0.1,287.61545,1615927781438
Fix,GT,37.4846334,-122.1845922,-27.96941808342934,38.427982,0.1,287.1807,1615927782438
Fix,GT,37.4847347,-122.1850092,-28.00834923815728,38.63057,0.1,286.60278,1615927783438
Fix,GT,37.4848331,-122.185429,-28.04378776502609,38.790024,0.1,286.10345,1615927784438
Fix,GT,37.4849288,-122.1858513,-28.093820592522626,38.827324,0.1,285.61182,1615927785438
Fix,GT,37.4850215,-122.1862733,-28.14252462053299,38.58334,0.1,285.08356,1615927786438
Fix,GT,37.4851102,-122.1866926,-28.175733663499354,38.10807,0.1,284.46265,1615927787438
Fix,GT,37.4851928,-122.1871077,-28.21941808593273,37.582176,0.1,283.4016,1615927788438
Fix,GT,37.4852681,-122.1875189,-28.25089346539974,37.077225,0.1,282.271,1615927789438
Fix,GT,37.4853371,-122.1879262,-28.27722461551428,36.558235,0.1,281.6325,1615927790438
Fix,GT,37.4854018,-122.1883286,-28.32518776154518,36.044678,0.1,281.07486,1615927791438
Fix,GT,37.4854629,-122.1887263,-28.37227787959576,35.612106,0.1,280.56482,1615927792438
Fix,GT,37.4855194,-122.1891198,-28.409049243927,35.094196,0.1,279.70792,1615927793438
Fix,GT,37.4855702,-122.1895081,-28.45397956252098,34.504284,0.1,278.96283,1615927794438
Fix,GT,37.4856176,-122.1898908,-28.493664834588767,34.019543,0.1,278.64944,1615927795438
Fix,GT,37.485663,-122.1902683,-28.548328821629283,33.474564,0.1,278.3282,1615927796438
Fix,GT,37.4857067,-122.1906388,-28.60591073420644,32.72575,0.1,278.37274,1615927797438
Fix,GT,37.4857503,-122.1909995,-28.643418090939523,31.765806,0.1,278.76013,1615927798438
Fix,GT,37.485794,-122.1913484,-28.688048393875363,30.74883,0.1,278.98563,1615927799438
Fix,GT,37.4858372,-122.1916871,-28.73911807447672,29.996363,0.1,279.0612,1615927800438
Fix,GT,37.4858797,-122.1920191,-28.79104839080572,29.49597,0.1,279.02966,1615927801438
Fix,GT,37.4859212,-122.1923462,-28.840364827752115,29.127918,0.1,278.92972,1615927802438
Fix,GT,37.4859618,-122.1926698,-28.88478693938255,28.810196,0.1,278.81238,1615927803438
Fix,GT,37.4860017,-122.1929903,-28.92385662204027,28.582817,0.1,278.78833,1615927804438
Fix,GT,37.4860412,-122.1933094,-28.96685576060414,28.569517,0.1,278.75333,1615927805438
Fix,GT,37.4860806,-122.1936292,-29.01336396831274,28.667034,0.1,278.67136,1615927806438
Fix,GT,37.4861198,-122.19395,-29.05778694152832,28.748348,0.1,278.58984,1615927807438
Fix,GT,37.4861591,-122.194272,-29.088086101531985,28.908024,0.1,278.68686,1615927808438
Fix,GT,37.4861996,-122.1945962,-29.10407055056095,29.12376,0.1,278.90704,1615927809438
Fix,GT,37.4862407,-122.194922,-29.113263181686403,29.209557,0.1,278.89587,1615927810438
Fix,GT,37.4862816,-122.1952483,-29.123069683492183,29.175495,0.1,278.7777,1615927811438
Fix,GT,37.4863219,-122.1955741,-29.124368842720983,29.171143,0.1,278.7559,1615927812438
Fix,GT,37.4863625,-122.1959005,-29.120122079640623,29.252584,0.1,278.81738,1615927813438
Fix,GT,37.4864036,-122.1962271,-29.118561473727222,29.149467,0.1,278.9802,1615927814438
Fix,GT,37.4864451,-122.1965505,-29.11843852627277,28.789463,0.1,279.05475,1615927815438
Fix,GT,37.4864858,-122.1968704,-29.12426318344474,28.580423,0.1,278.93903,1615927816438
Fix,GT,37.486526,-122.1971903,-29.12354505234957,28.740135,0.1,278.78345,1615927817438
Fix,GT,37.4865658,-122.1975133,-29.114,29.06046,0.1,278.62244,1615927818438
Fix,GT,37.4866053,-122.1978397,-29.113122079610825,29.31086,0.1,278.50952,1615927819438
Fix,GT,37.4866451,-122.1981674,-29.101475366592407,29.264507,0.1,278.60648,1615927820438
Fix,GT,37.4866851,-122.1984926,-29.09501642227173,28.928724,0.1,278.82416,1615927821438
Fix,GT,37.4867254,-122.1988137,-29.096984444618226,28.606417,0.1,278.92688,1615927822438
Fix,GT,37.4867654,-122.1991325,-29.09106968516112,28.548637,0.1,278.81058,1615927823438
Fix,GT,37.4868047,-122.1994527,-29.095437659382817,28.766766,0.1,278.6071,1615927824438
Fix,GT,37.4868441,-122.1997757,-29.09950907945633,29.048965,0.1,278.62286,1615927825438
Fix,GT,37.486884,-122.2001015,-29.09435328346491,29.231972,0.1,278.70416,1615927826438
Fix,GT,37.4869241,-122.2004279,-29.07629915457964,29.108353,0.1,278.6926,1615927827438
Fix,GT,37.4869637,-122.2007514,-29.071191766679288,28.796974,0.1,278.6236,1615927828438
Fix,GT,37.4870027,-122.2010727,-29.08233200597764,28.75993,0.1,278.5862,1615927829438
Fix,GT,37.4870421,-122.201396,-29.09124676039815,29.136612,0.1,278.74994,1615927830438
Fix,GT,37.4870832,-122.2017236,-29.08593031316996,29.517471,0.1,278.9692,1615927831438
Fix,GT,37.4871252,-122.2020543,-29.078053259789947,29.618011,0.1,279.00146,1615927832438
Fix,GT,37.4871671,-122.2023843,-29.077822927474976,29.440323,0.1,278.924,1615927833438
Fix,GT,37.487208,-122.2027116,-29.089700847744943,29.13771,0.1,278.77823,1615927834438
Fix,GT,37.4872477,-122.2030353,-29.09349265292287,28.7846,0.1,278.6275,1615927835438
Fix,GT,37.4872867,-122.203355,-29.08768528658151,28.448612,0.1,278.67358,1615927836438
Fix,GT,37.4873256,-122.2036723,-29.088631160855293,28.388433,0.1,278.69055,1615927837438
Fix,GT,37.4873644,-122.203991,-29.09068355247378,28.663567,0.1,278.58398,1615927838438
Fix,GT,37.4874035,-122.2043131,-29.08856147313118,28.943398,0.1,278.7326,1615927839438
Fix,GT,37.487444,-122.2046373,-29.08317620444297,29.078835,0.1,278.8833,1615927840438
Fix,GT,37.4874848,-122.2049619,-29.073054124474524,29.0267,0.1,278.9099,1615927841438
Fix,GT,37.4875256,-122.205285,-29.03817930054665,28.801577,0.1,278.9754,1615927842438
Fix,GT,37.4875664,-122.2056056,-28.946061180472373,28.685984,0.1,278.9547,1615927843438
Fix,GT,37.4876071,-122.2059258,-28.881823796868325,28.69875,0.1,278.9509,1615927844438
Fix,GT,37.487648,-122.206246,-28.88756233391166,28.63528,0.1,279.0043,1615927845438
Fix,GT,37.4876891,-122.2065659,-28.867266282856463,28.737997,0.1,279.04974,1615927846438
Fix,GT,37.4877306,-122.2068879,-28.84638527047634,29.019325,0.1,279.2238,1615927847438
Fix,GT,37.487774,-122.2072135,-28.815601392716168,29.352695,0.1,279.72565,1615927848438
Fix,GT,37.4878212,-122.2075411,-28.752774497032163,29.458675,0.1,280.672,1615927849438
Fix,GT,37.487873,-122.2078671,-28.738140236198905,29.250694,0.1,281.68488,1615927850438
Fix,GT,37.4879277,-122.2081892,-28.739861476778984,29.066763,0.1,282.13263,1615927851438
Fix,GT,37.4879833,-122.2085115,-28.71665154916048,29.296057,0.1,282.13278,1615927852438
Fix,GT,37.48804,-122.2088362,-28.686913019239903,29.446835,0.1,282.44522,1615927853438
Fix,GT,37.4880988,-122.2091592,-28.66215891113877,29.139038,0.1,283.17868,1615927854438
Fix,GT,37.4881599,-122.2094775,-28.635159764885906,28.750954,0.1,283.8565,1615927855438
Fix,GT,37.4882234,-122.2097904,-28.61386147135496,28.403988,0.1,284.55365,1615927856438
Fix,GT,37.4882894,-122.2101004,-28.59942294368148,28.447247,0.1,285.10968,1615927857438
Fix,GT,37.4883578,-122.2104127,-28.516888888657093,28.880695,0.1,285.55316,1615927858438
Fix,GT,37.48843,-122.2107291,-28.224223333507776,29.26314,0.1,286.42493,1615927859438
Fix,GT,37.4885072,-122.2110473,-27.65175209236145,29.5169,0.1,287.27795,1615927860438
Fix,GT,37.4885875,-122.211365,-26.85972709989548,29.420887,0.1,287.71796,1615927861438
Fix,GT,37.4886689,-122.211679,-26.008969000279905,28.984058,0.1,288.1782,1615927862438
Fix,GT,37.4887515,-122.2119885,-25.202001092344524,28.796461,0.1,288.73206,1615927863438
Fix,GT,37.4888369,-122.2122972,-24.43010368582606,29.048397,0.1,289.4204,1615927864438
Fix,GT,37.4889261,-122.2126086,-23.65730097317696,29.489418,0.1,289.88913,1615927865438
Fix,GT,37.4890188,-122.2129241,-22.97633455348015,30.032833,0.1,290.50174,1615927866438
Fix,GT,37.4891166,-122.2132442,-22.511290535509588,30.619263,0.1,291.51395,1615927867438
Fix,GT,37.4892202,-122.213568,-22.18875339412689,30.933979,0.1,292.24576,1615927868438
Fix,GT,37.4893271,-122.2138902,-22.022863886386155,30.725094,0.1,292.89438,1615927869438
Fix,GT,37.4894348,-122.214207,-21.97949112442136,30.18122,0.1,293.27185,1615927870438
Fix,GT,37.4895427,-122.2145166,-21.99210257577896,29.600128,0.1,293.767,1615927871438
Fix,GT,37.4896514,-122.2148193,-22.183710842639208,29.145573,0.1,294.52435,1615927872438
Fix,GT,37.4897613,-122.2151166,-22.66236247563362,28.8418,0.1,295.04266,1615927873438
Fix,GT,37.4898722,-122.2154099,-23.258801003277306,28.597265,0.1,295.6244,1615927874438
Fix,GT,37.4899849,-122.2156997,-23.943944380283355,28.494108,0.1,296.32428,1615927875438
Fix,GT,37.4901011,-122.2159884,-24.731858970046044,28.715792,0.1,297.1795,1615927876438
Fix,GT,37.4902217,-122.2162778,-25.529663185298443,29.000786,0.1,297.9046,1615927877438
Fix,GT,37.4903456,-122.2165678,-26.368503458738324,29.221,0.1,298.40613,1615927878438
Fix,GT,37.4904743,-122.2168591,-27.175141711115835,29.67937,0.1,299.4767,1615927879438
Fix,GT,37.4906104,-122.2171521,-27.88649805760384,30.3777,0.1,300.69086,1615927880438
Fix,GT,37.4907532,-122.2174506,-28.39431330934167,31.168995,0.1,300.8829,1615927881438
Fix,GT,37.4908984,-122.217756,-28.597451063275336,31.658388,0.1,300.54504,1615927882438
Fix,GT,37.4910432,-122.218065,-28.65171730858087,31.700806,0.1,300.24594,1615927883438
Fix,GT,37.4911865,-122.2183736,-28.66361386650801,31.414299,0.1,300.1412,1615927884438
Fix,GT,37.491329,-122.2186788,-28.68387314856052,31.173561,0.1,300.515,1615927885438
Fix,GT,37.491473,-122.2189817,-28.733664061784744,31.295574,0.1,300.9041,1615927886438
Fix,GT,37.4916193,-122.2192867,-28.755439384937286,31.69794,0.1,300.95673,1615927887438
Fix,GT,37.4917677,-122.2195953,-28.780119040071963,32.046074,0.1,301.03766,1615927888438
