MessageType,Provider,LatitudeDegrees,LongitudeDegrees,AltitudeMeters,SpeedMps,AccuracyMeters,BearingDegrees,UnixTimeMillis
Fix,GT,37.524012,-122.3499205,147.275,0.0014142136,0.1,83.47638,1626295846435
Fix,GT,37.524012,-122.3499205,147.275,0.00114588,0.1,83.47644,1626295847435
Fix,GT,37.524012,-122.3499205,147.275,0.001703659,0.1,83.47623,1626295848435
Fix,GT,37.524012,-122.3499205,147.275,0.0012683335,0.1,83.47644,1626295849435
Fix,GT,37.524012,-122.3499205,147.275,0.0011458802,0.1,83.47635,1626295850435
Fix,GT,37.524012,-122.3499205,147.275,0.001,0.1,83.476135,1626295851435
Fix,GT,37.524012,-122.3499205,147.274995610863,0.003829925,0.1,83.476074,1626295852435
Fix,GT,37.524012,-122.3499205,147.275,0.0004980662,0.1,83.47711,1626295853435
Fix,GT,37.524012,-122.3499205,147.27500438913705,0.000352186,0.1,83.47641,1626295854435
Fix,GT,37.524012,-122.3499205,147.275,0.0012683333,0.1,83.47589,1626295855435
Fix,GT,37.524012,-122.3499205,147.27500438913705,0.0014142136,0.1,83.475525,1626295856435
Fix,GT,37.524012,-122.3499205,147.27500438913705,0.0014142136,0.1,83.47565,1626295857435
Fix,GT,37.524012,-122.3499205,147.27499561086296,0.0012683333,0.1,83.475555,1626295858435
Fix,GT,37.524012,-122.3499205,147.275,0.0014142136,0.1,83.475494,1626295859435
Fix,GT,37.524012,-122.3499205,147.275,0.0006478137,0.1,83.47543,1626295860435
Fix,GT,37.524012,-122.3499205,147.27500438913702,0.0016478138,0.1,83.47525,1626295861435
Fix,GT,37.524012,-122.3499205,147.27499561086296,0.001,0.1,83.47504,1626295862435
Fix,GT,37.524012,-122.3499205,147.27499561086296,0.0,0.1,83.4751,1626295863435
Fix,GT,37.524012,-122.3499205,147.275,0.001,0.1,83.47507,1626295864435
Fix,GT,37.524012,-122.3499205,147.27500438913702,0.0006478136,0.1,83.47504,1626295865435
Fix,GT,37.524012,-122.3499205,147.275,0.0,0.1,83.474945,1626295866435
Fix,GT,37.524012,-122.3499205,147.274,0.0,0.1,83.474884,1626295867435
Fix,GT,37.524012,-122.3499205,147.27364781343937,0.0017615252,0.1,83.47565,1626295868435
Fix,GT,37.5240121,-122.3499197,147.26564781343936,0.34633732,0.1,83.483,1626295869435
Fix,GT,37.5240126,-122.3499102,147.23758686533571,1.3358042,0.1,84.30255,1626295870435
Fix,GT,37.5240112,-122.3498893,147.19829123982788,2.2817724,0.1,91.14493,1626295871435
Fix,GT,37.5240041,-122.3498593,147.1556434277594,3.1503153,0.1,103.57019,1626295872435
Fix,GT,37.5239885,-122.3498224,147.10783031988143,4.1341896,0.1,116.603516,1626295873435
Fix,GT,37.523963,-122.3497799,146.99964343240856,5.128705,0.1,127.40756,1626295874435
Fix,GT,37.5239276,-122.3497367,147.06586967036128,5.7881207,0.1,136.50314,1626295875435
Fix,GT,37.5238845,-122.3496967,147.16011312007902,5.9073677,0.1,145.39484,1626295876435
Fix,GT,37.5238373,-122.3496673,147.2021215597689,5.7431717,0.1,155.02307,1626295877435
Fix,GT,37.5237888,-122.3496467,147.13175654843448,5.5439277,0.1,161.43774,1626295878435
Fix,GT,37.5237434,-122.3496269,147.24240030634405,5.1166573,0.1,159.81897,1626295879435
Fix,GT,37.5237054,-122.3496025,147.43692621928454,4.2616897,0.1,151.94714,1626295880435
Fix,GT,37.5236779,-122.3495788,147.61668714722992,3.2827578,0.1,145.88623,1626295881435
Fix,GT,37.5236572,-122.3495588,147.81445688313246,2.6326241,0.1,142.79654,1626295882435
Fix,GT,37.5236388,-122.3495422,148.0015611890257,2.4406855,0.1,144.50739,1626295883435
Fix,GT,37.5236169,-122.3495347,147.8926690593362,2.3701048,0.1,160.92578,1626295884435
Fix,GT,37.5235943,-122.3495427,147.81921341371535,2.5156715,0.1,186.76834,1626295885435
Fix,GT,37.5235729,-122.3495625,147.91776534178854,3.1159334,0.1,210.76636,1626295886435
Fix,GT,37.5235515,-122.3495942,147.89818691411614,4.12714,0.1,227.21428,1626295887435
Fix,GT,37.523525,-122.349635,147.78048253601787,5.147056,0.1,230.2243,1626295888435
Fix,GT,37.5234931,-122.3496846,147.60248655483127,6.0151873,0.1,230.8743,1626295889435
Fix,GT,37.523458,-122.3497385,147.35184753105045,6.248596,0.1,230.4919,1626295890435
Fix,GT,37.5234222,-122.3497924,147.09819532406328,6.068397,0.1,229.83994,1626295891435
Fix,GT,37.5233888,-122.3498418,146.86459969320893,5.276915,0.099,229.55096,1626295892435
Fix,GT,37.5233623,-122.3498807,146.68541719409822,3.673369,0.1,229.34926,1626295893435
Fix,GT,37.5233461,-122.3499044,146.5938868763447,1.9056884,0.1,229.2988,1626295894435
Fix,GT,37.5233387,-122.3499153,146.54729125779866,1.1057532,0.099,229.29547,1626295895435
Fix,GT,37.5233294,-122.3499287,146.4962390627265,2.2020538,0.1,229.30287,1626295896435
Fix,GT,37.5233124,-122.3499541,146.44253032320736,3.6504302,0.1,229.69199,1626295897435
Fix,GT,37.5232884,-122.3499904,146.41223906242843,4.3401127,0.1,230.1228,1626295898435
Fix,GT,37.5232643,-122.3500275,146.4200521991849,4.1094866,0.1,230.48683,1626295899435
Fix,GT,37.5232418,-122.3500621,146.4927609384656,3.7755618,0.1,230.82797,1626295900435
Fix,GT,37.5232216,-122.3500938,146.5761653212905,3.3866782,0.1,231.1847,1626295901435
Fix,GT,37.5232037,-122.3501221,146.68152187752722,2.995175,0.1,231.41597,1626295902435
Fix,GT,37.5231879,-122.3501471,146.77781750297547,2.705442,0.1,231.46732,1626295903435
Fix,GT,37.5231733,-122.3501702,146.8788740672469,2.4966786,0.1,231.40118,1626295904435
Fix,GT,37.5231597,-122.3501915,146.99087406790255,2.332661,0.1,231.34209,1626295905435
Fix,GT,37.523147,-122.3502118,147.09452188050747,2.2323866,0.1,231.31499,1626295906435
Fix,GT,37.5231332,-122.350233,147.18657844543458,2.7686396,0.1,230.94283,1626295907435
Fix,GT,37.5231151,-122.3502607,147.3453393870592,3.6409101,0.1,230.42393,1626295908435
Fix,GT,37.5230906,-122.3502975,147.55115689241887,4.873,0.1,230.06606,1626295909435
Fix,GT,37.5230586,-122.3503448,147.80169157636163,6.0533385,0.1,229.34595,1626295910435
Fix,GT,37.5230199,-122.350401,148.11997440385818,7.075287,0.1,229.14539,1626295911435
Fix,GT,37.5229781,-122.3504622,148.49632217016818,6.990446,0.1,229.18848,1626295912435
Fix,GT,37.5229389,-122.3505199,148.82721346729994,6.2194605,0.1,229.5017,1626295913435
Fix,GT,37.5229086,-122.3505652,149.0863915168047,4.178108,0.1,229.84772,1626295914435
Fix,GT,37.5228902,-122.3505925,149.21946087372305,2.3036788,0.1,230.06229,1626295915435
Fix,GT,37.5228775,-122.3506133,149.29452188706398,2.4930933,0.1,231.79839,1626295916435
Fix,GT,37.5228642,-122.3506405,149.38986962470412,3.1276636,0.1,238.02245,1626295917435
Fix,GT,37.5228577,-122.3506775,149.4486478111148,3.2896845,0.1,256.28662,1626295918435
Fix,GT,37.5228638,-122.3507161,149.39717415305972,3.5555468,0.1,279.02692,1626295919435
Fix,GT,37.522884,-122.3507552,149.42069992500544,4.5954885,0.1,301.98425,1626295920435
Fix,GT,37.5229173,-122.3507997,149.40429116907714,6.170994,0.1,313.2139,1626295921435
Fix,GT,37.5229633,-122.3508541,149.35794788360596,7.9244566,0.1,317.16245,1626295922435
Fix,GT,37.5230226,-122.3509201,149.21983863154054,9.581106,0.099,318.68698,1626295923435
Fix,GT,37.5230944,-122.3509972,148.8587471537292,11.395969,0.1,319.64624,1626295924435
Fix,GT,37.5231755,-122.3510847,148.2347033380866,12.159138,0.1,319.39322,1626295925435
Fix,GT,37.5232606,-122.3511753,147.4852379797697,12.636219,0.1,319.62238,1626295926435
Fix,GT,37.5233495,-122.3512694,146.66582918709517,13.188677,0.1,319.57803,1626295927435
Fix,GT,37.5234422,-122.3513677,145.80048538410665,13.764784,0.1,319.97375,1626295928435
Fix,GT,37.5235388,-122.3514701,144.94817266091704,14.214073,0.099,319.49692,1626295929435
Fix,GT,37.5236371,-122.351575,144.21869457560777,14.38942,0.1,319.62308,1626295930435
Fix,GT,37.5237366,-122.3516799,143.67704257178306,14.427498,0.1,320.04962,1626295931435
Fix,GT,37.5238362,-122.3517844,143.19280350384116,14.420141,0.1,319.96466,1626295932435
Fix,GT,37.523936,-122.3518891,142.70909484767913,14.420137,0.1,320.0014,1626295933435
Fix,GT,37.5240355,-122.351994,142.20133388483524,14.437315,0.1,319.8475,1626295934435
Fix,GT,37.5241351,-122.3520992,141.69492933636906,14.4556875,0.1,319.68872,1626295935435
Fix,GT,37.5242344,-122.3522051,141.1948557779789,14.420355,0.1,319.5963,1626295936435
Fix,GT,37.5243309,-122.352307,140.7270382361412,13.284771,0.1,319.89838,1626295937435
Fix,GT,37.524416,-122.3523962,140.3050296674669,11.296072,0.1,319.82428,1626295938435
Fix,GT,37.5244863,-122.352471,139.94315136873723,9.098172,0.1,319.412,1626295939435
Fix,GT,37.5245404,-122.3525291,139.64230835342408,6.7183,0.1,319.50974,1626295940435
Fix,GT,37.5245792,-122.3525703,139.427717117548,4.623925,0.1,319.66,1626295941435
Fix,GT,37.5246043,-122.3525972,139.28647807717323,2.7340837,0.1,319.56082,1626295942435
Fix,GT,37.5246179,-122.3526117,139.24724318778516,1.4013141,0.1,319.45078,1626295943435
Fix,GT,37.5246292,-122.3526241,139.19653465151788,2.0747168,0.1,319.1368,1626295944435
Fix,GT,37.5246456,-122.3526455,139.1208261181414,3.1760774,0.1,314.61642,1626295945435
Fix,GT,37.5246618,-122.352681,139.0428868420124,3.9502623,0.1,300.11072,1626295946435
Fix,GT,37.5246672,-122.3527257,138.9593124717176,4.0180054,0.1,278.2374,1626295947435
Fix,GT,37.5246556,-122.3527717,138.80142148637773,4.5340614,0.1,252.14008,1626295948435
Fix,GT,37.5246301,-122.3528163,138.63100857770442,5.2155995,0.1,234.7987,1626295949435
Fix,GT,37.5245975,-122.3528655,138.43225173699855,6.18776,0.1,229.8511,1626295950435
Fix,GT,37.5245574,-122.3529234,138.15702540564536,7.3911076,0.1,228.94771,1626295951435
Fix,GT,37.5245112,-122.3529898,137.76820784401897,8.268529,0.1,228.7469,1626295952435
Fix,GT,37.5244578,-122.3530642,137.31692492097616,9.405359,0.1,227.37791,1626295953435
Fix,GT,37.5243951,-122.3531428,136.7908515585959,10.205068,0.1,224.05556,1626295954435
Fix,GT,37.5243265,-122.3532248,136.28568181049823,10.826233,0.099,223.54375,1626295955435
Fix,GT,37.5242538,-122.3533116,135.70145952224732,11.390979,0.1,223.51674,1626295956435
Fix,GT,37.5241781,-122.3534013,135.00293755495548,11.72026,0.1,223.18103,1626295957435
Fix,GT,37.5240996,-122.3534912,134.2124115896821,11.800674,0.1,221.70522,1626295958435
Fix,GT,37.5240178,-122.3535752,133.31248086974026,11.674316,0.1,217.72455,1626295959435
Fix,GT,37.5239316,-122.353651,132.33266725790503,11.758583,0.1,213.55423,1626295960435
Fix,GT,37.5238396,-122.3537186,131.281424307704,11.938728,0.099,208.24582,1626295961435
Fix,GT,37.5237417,-122.3537753,130.17779307752846,12.018534,0.1,202.65117,1626295962435
Fix,GT,37.5236397,-122.353825,129.06555403041838,12.361086,0.1,200.56908,1626295963435
Fix,GT,37.5235342,-122.3538757,127.96525840961934,12.613594,0.1,201.19135,1626295964435
Fix,GT,37.5234324,-122.3539353,126.8311414335966,12.271649,0.1,207.95963,1626295965435
Fix,GT,37.5233426,-122.354015,125.68108860057592,12.13085,0.1,219.65466,1626295966435
Fix,GT,37.5232688,-122.3541153,124.54025835061071,11.96449,0.1,231.30524,1626295967435
Fix,GT,37.5232144,-122.3542298,123.42984057423472,11.617479,0.1,243.55478,1626295968435
Fix,GT,37.5231807,-122.3543539,122.4317273505032,11.550034,0.1,254.9815,1626295969435
Fix,GT,37.5231675,-122.3544862,121.33625829815864,11.995911,0.1,266.93643,1626295970435
Fix,GT,37.5231759,-122.3546237,120.30607944774628,12.360664,0.1,278.74036,1626295971435
Fix,GT,37.5232054,-122.3547613,119.28427446645496,12.945993,0.1,287.57935,1626295972435
Fix,GT,37.5232501,-122.3549041,118.21325824570656,14.126461,0.1,293.86237,1626295973435
Fix,GT,37.5233104,-122.3550494,116.9085259963274,14.923045,0.1,299.67767,1626295974435
Fix,GT,37.5233873,-122.3551971,115.37822344008087,16.261314,0.1,305.21982,1626295975435
Fix,GT,37.5234806,-122.3553489,113.90452246177196,17.64437,0.1,309.29562,1626295976435
Fix,GT,37.52359,-122.3555042,112.40704777494072,18.960268,0.1,312.5995,1626295977435
Fix,GT,37.5237107,-122.3556662,110.97391527429224,20.234985,0.099,313.11566,1626295978435
Fix,GT,37.5238391,-122.355838,109.73391856384276,21.395935,0.1,313.0352,1626295979435
Fix,GT,37.5239756,-122.3560185,108.38321737846732,22.600428,0.1,313.9783,1626295980435
Fix,GT,37.5241228,-122.3562042,106.99693431970476,23.715408,0.1,315.46677,1626295981435
Fix,GT,37.5242805,-122.3563944,105.63327384766936,24.781387,0.1,316.80893,1626295982435
Fix,GT,37.5244483,-122.3565865,104.4478366547823,25.5562,0.1,318.26685,1626295983435
Fix,GT,37.5246233,-122.3567791,103.60506303280592,26.050785,0.1,319.6814,1626295984435
Fix,GT,37.5248065,-122.3569669,102.89752535107732,26.441235,0.1,321.90924,1626295985435
Fix,GT,37.5249972,-122.3571507,102.04841520237925,26.998314,0.1,322.70044,1626295986435
Fix,GT,37.5251951,-122.3573374,101.14524538600443,28.074883,0.1,323.05438,1626295987435
Fix,GT,37.5254012,-122.357533,100.1069623579979,29.08477,0.1,322.5143,1626295988435
Fix,GT,37.5256091,-122.3577337,98.98367637526988,29.138994,0.1,322.35074,1626295989435
Fix,GT,37.5258172,-122.3579348,97.79637111616134,29.102356,0.1,322.42145,1626295990435
Fix,GT,37.5260265,-122.358132,96.61408807569742,28.992153,0.1,323.7088,1626295991435
Fix,GT,37.5262395,-122.3583213,95.35338649138808,28.981894,0.1,325.4774,1626295992435
Fix,GT,37.5264584,-122.358503,94.1193242161572,29.281912,0.1,327.42337,1626295993435
Fix,GT,37.5266853,-122.358676,92.98372600629924,29.63048,0.1,329.90332,1626295994435
Fix,GT,37.5269205,-122.3588384,92.05035570007564,29.93478,0.1,332.3003,1626295995435
Fix,GT,37.5271636,-122.3589887,91.32981127411128,30.19979,0.1,335.00598,1626295996435
Fix,GT,37.5274135,-122.3591272,90.82791461902858,30.399157,0.1,337.20145,1626295997435
Fix,GT,37.5276684,-122.3592543,90.57259119057656,30.470018,0.1,339.34305,1626295998435
Fix,GT,37.5279271,-122.3593691,90.8113297957778,30.42996,0.1,341.2907,1626295999435
Fix,GT,37.5281871,-122.3594782,91.07434236234424,30.382072,0.1,341.63934,1626296000435
Fix,GT,37.5284469,-122.3595843,91.49121388214826,30.284733,0.1,341.93475,1626296001435
Fix,GT,37.5287057,-122.3596909,92.00277997416258,30.150452,0.1,341.65704,1626296002435
Fix,GT,37.5289624,-122.3597991,92.74199387550354,29.948132,0.1,340.911,1626296003435
Fix,GT,37.5292166,-122.359909,93.62751871070266,29.738197,0.1,341.0357,1626296004435
Fix,GT,37.5294696,-122.3600167,94.56269830858707,29.547512,0.1,341.34283,1626296005435
Fix,GT,37.529721,-122.3601223,95.4389939174652,29.300293,0.1,341.34036,1626296006435
Fix,GT,37.5299703,-122.3602271,96.2632329043746,29.092674,0.1,341.31543,1626296007435
Fix,GT,37.530218,-122.360333,97.1232078499794,28.967999,0.1,340.92188,1626296008435
Fix,GT,37.5304646,-122.3604394,98.06575789314508,28.896637,0.1,340.82574,1626296009435
Fix,GT,37.5307104,-122.360546,98.9141733868718,28.847996,0.1,340.76324,1626296010435
Fix,GT,37.530956,-122.3606524,99.73421745803952,28.814062,0.1,340.89093,1626296011435
Fix,GT,37.5312012,-122.3607586,100.64145942199232,28.767508,0.1,341.0394,1626296012435
Fix,GT,37.5314466,-122.3608625,101.50388077402114,28.708752,0.1,341.4528,1626296013435
Fix,GT,37.5316918,-122.3609655,102.3502926544547,28.67471,0.1,341.3242,1626296014435
Fix,GT,37.5319366,-122.3610689,103.21527402859924,28.68413,0.1,341.22055,1626296015435
Fix,GT,37.5321813,-122.3611734,104.07664183831216,28.651184,0.1,341.02707,1626296016435
Fix,GT,37.5324253,-122.3612784,104.9414563719332,28.620531,0.1,340.92358,1626296017435
Fix,GT,37.5326692,-122.3613838,105.75938380503656,28.638943,0.1,341.00003,1626296018435
Fix,GT,37.5329132,-122.3614888,106.69210732400418,28.610537,0.1,340.98175,1626296019435
Fix,GT,37.5331569,-122.3615935,107.64981175231937,28.567013,0.1,341.11423,1626296020435
Fix,GT,37.5334002,-122.3616974,108.70885588812828,28.482447,0.1,341.20883,1626296021435
Fix,GT,37.5336425,-122.3618017,109.83061693942548,28.387178,0.1,340.6911,1626296022435
Fix,GT,37.5338835,-122.3619079,110.92803497773409,28.294407,0.1,340.82654,1626296023435
Fix,GT,37.5341239,-122.3620126,112.05144379627704,28.195461,0.1,340.85712,1626296024435
Fix,GT,37.5343635,-122.3621158,113.17174273777007,28.035278,0.1,340.92114,1626296025435
Fix,GT,37.5346008,-122.3622209,114.30379597613216,27.804312,0.1,340.11646,1626296026435
Fix,GT,37.5348339,-122.3623284,115.40668616229294,27.262648,0.1,339.43048,1626296027435
Fix,GT,37.5350609,-122.3624367,116.48198177307845,26.690525,0.1,339.0534,1626296028435
Fix,GT,37.5352832,-122.3625442,117.55962959051132,26.2074,0.1,338.7422,1626296029435
Fix,GT,37.5355007,-122.3626539,118.59862961530683,25.819328,0.1,337.21747,1626296030435
Fix,GT,37.5357137,-122.3627684,119.60892878445983,25.662634,0.1,336.46564,1626296031435
Fix,GT,37.5359253,-122.3628858,120.62722442257405,25.688913,0.1,335.74225,1626296032435
Fix,GT,37.5361361,-122.363006,121.64022447660564,25.700262,0.1,335.5633,1626296033435
Fix,GT,37.5363468,-122.3631267,122.6668686646223,25.708637,0.1,335.1733,1626296034435
Fix,GT,37.5365567,-122.36325,123.62905101644992,25.684052,0.1,334.77625,1626296035435
Fix,GT,37.536764,-122.3633718,124.51629370462896,25.10059,0.1,334.95383,1626296036435
Fix,GT,37.5369664,-122.3634914,125.3725893317163,24.579395,0.1,334.48776,1626296037435
Fix,GT,37.537165,-122.36361,126.2226988772154,24.269087,0.1,334.4869,1626296038435
Fix,GT,37.5373621,-122.3637275,127.14116436856986,24.224634,0.1,334.52426,1626296039435
Fix,GT,37.5375604,-122.3638452,128.11010394683478,24.507118,0.099,334.53094,1626296040435
Fix,GT,37.5377613,-122.3639652,129.09387269085644,24.87623,0.1,334.4792,1626296041435
Fix,GT,37.5379651,-122.3640869,130.10092163041233,25.233059,0.1,334.39114,1626296042435
Fix,GT,37.5381718,-122.364211,131.12157722052933,25.592525,0.1,334.47687,1626296043435
Fix,GT,37.5383813,-122.3643366,132.1526260405779,25.933918,0.1,334.30695,1626296044435
Fix,GT,37.5385935,-122.3644638,133.19533443534374,26.256554,0.1,334.53174,1626296045435
Fix,GT,37.5388085,-122.364592,134.24597825211288,26.55533,0.1,334.4982,1626296046435
Fix,GT,37.5390258,-122.3647216,135.31539112877846,26.842228,0.1,334.5094,1626296047435
Fix,GT,37.5392454,-122.3648521,136.4268000044823,27.110085,0.1,334.53436,1626296048435
Fix,GT,37.5394671,-122.3649846,137.4937433999777,27.379604,0.1,334.4294,1626296049435
Fix,GT,37.5396907,-122.365119,138.5917393002808,27.657421,0.099,334.2339,1626296050435
Fix,GT,37.5399164,-122.365255,139.69686090409755,27.887117,0.1,334.3821,1626296051435
Fix,GT,37.5401439,-122.365391,140.87603088858722,28.067081,0.1,334.3557,1626296052435
Fix,GT,37.5403728,-122.365529,142.18819241705535,28.265202,0.099,334.24902,1626296053435
Fix,GT,37.540603,-122.3656683,143.53560126516223,28.457253,0.099,334.2946,1626296054435
Fix,GT,37.5408346,-122.3658091,144.819561298728,28.672554,0.1,333.79736,1626296055435
Fix,GT,37.5410663,-122.3659552,145.96686125689746,28.864777,0.1,332.74997,1626296056435
Fix,GT,37.5412968,-122.3661068,147.11385693907738,28.900501,0.1,331.77554,1626296057435
Fix,GT,37.5415254,-122.366264,148.25785697364807,28.981697,0.1,330.6616,1626296058435
Fix,GT,37.5417523,-122.3664272,149.40520922380688,29.061829,0.1,329.57965,1626296059435
Fix,GT,37.5419774,-122.3665967,150.49763045215607,29.217682,0.1,328.32855,1626296060435
Fix,GT,37.5422009,-122.366772,151.48340389442444,29.222052,0.1,327.48053,1626296061435
Fix,GT,37.5424214,-122.3669514,152.36258165213465,29.159134,0.1,326.4677,1626296062435
Fix,GT,37.5426399,-122.3671362,153.13301196071507,29.332054,0.1,325.4489,1626296063435
Fix,GT,37.5428574,-122.3673266,153.81318968343734,29.530766,0.1,324.57938,1626296064435
Fix,GT,37.5430738,-122.3675229,154.39402434387802,29.697723,0.1,323.53354,1626296065435
Fix,GT,37.5432875,-122.3677239,154.8430320583582,29.52158,0.1,322.6138,1626296066435
Fix,GT,37.543497,-122.3679281,155.06587439900636,29.395126,0.1,321.60388,1626296067435
Fix,GT,37.5437035,-122.3681353,155.10288206735254,29.22247,0.1,321.01474,1626296068435
Fix,GT,37.5439064,-122.368343,155.0880520338416,28.876549,0.1,320.38623,1626296069435
Fix,GT,37.5441057,-122.3685493,155.20363550186158,28.471245,0.1,320.45386,1626296070435
Fix,GT,37.5443027,-122.3687534,155.36593569800257,28.273396,0.1,320.3191,1626296071435
Fix,GT,37.5444989,-122.3689568,155.51487441211938,28.153694,0.1,320.41116,1626296072435
Fix,GT,37.5446936,-122.3691579,155.703157707572,27.819588,0.1,320.5809,1626296073435
Fix,GT,37.5448866,-122.3693556,155.87692643004655,27.451056,0.1,320.54166,1626296074435
Fix,GT,37.5450767,-122.3695512,156.02074418845774,27.093597,0.1,320.75452,1626296075435
Fix,GT,37.5452666,-122.3697406,156.190278647542,26.734146,0.1,322.24496,1626296076435
Fix,GT,37.5454583,-122.3699206,156.30886976599697,26.384373,0.1,323.91852,1626296077435
Fix,GT,37.5456506,-122.3700924,156.485,26.012362,0.1,325.1182,1626296078435
Fix,GT,37.5458426,-122.3702577,156.6378621816635,25.647936,0.1,325.68756,1626296079435
Fix,GT,37.5460318,-122.3704201,156.96167995643617,25.195656,0.1,325.46173,1626296080435
Fix,GT,37.5462176,-122.3705795,157.36608884763717,24.736343,0.1,325.70615,1626296081435
Fix,GT,37.5464002,-122.3707354,157.8159310991764,24.293274,0.1,325.85257,1626296082435
Fix,GT,37.5465801,-122.3708884,158.00017470234633,23.962526,0.1,325.58224,1626296083435
Fix,GT,37.5467567,-122.3710418,157.98084223663807,23.714598,0.1,325.09537,1626296084435
Fix,GT,37.546931,-122.3711936,157.78966000676155,23.227093,0.1,325.2084,1626296085435
Fix,GT,37.5470972,-122.3713381,157.6134380376935,21.487892,0.1,325.3766,1626296086435
Fix,GT,37.5472482,-122.3714688,157.4170075314641,19.231777,0.1,325.39682,1626296087435
Fix,GT,37.5473808,-122.3715827,157.26042110979557,16.371782,0.1,325.7147,1626296088435
Fix,GT,37.5474919,-122.3716771,157.14152975901962,13.347705,0.099,325.90796,1626296089435
Fix,GT,37.5475794,-122.3717513,157.00217753967644,9.951308,0.1,325.55798,1626296090435
Fix,GT,37.547638,-122.3718025,157.06022667360307,5.967932,0.1,325.13156,1626296091435
Fix,GT,37.5476692,-122.3718298,157.14276579791306,2.595192,0.1,325.14413,1626296092435
Fix,GT,37.5476792,-122.3718385,157.15094333052633,0.5071595,0.1,325.14624,1626296093435
Fix,GT,37.5476843,-122.3718433,157.14600468331574,1.1761355,0.1,324.62567,1626296094435
Fix,GT,37.5476997,-122.3718607,157.18986977383494,3.5646796,0.1,319.5072,1626296095435
Fix,GT,37.547721,-122.3719045,157.30398780179024,5.2351356,0.1,299.23627,1626296096435
Fix,GT,37.5477216,-122.371967,157.41310865184664,6.116777,0.1,265.3926,1626296097435
Fix,GT,37.5476924,-122.3720331,157.43964777600763,7.422087,0.1,236.30551,1626296098435
Fix,GT,37.547644,-122.3721045,157.42770444834233,9.301765,0.1,229.25653,1626296099435
Fix,GT,37.5475836,-122.3721929,157.4675222429037,11.217567,0.1,229.32928,1626296100435
Fix,GT,37.5475145,-122.372295,157.5467611220479,12.259117,0.1,229.72928,1626296101435
Fix,GT,37.5474439,-122.3724006,157.60281309962272,12.071592,0.1,229.90474,1626296102435
Fix,GT,37.5473743,-122.3725035,157.6775789219737,11.787016,0.1,229.42142,1626296103435
Fix,GT,37.5473066,-122.3726026,157.76993114840985,11.144286,0.1,229.25562,1626296104435
Fix,GT,37.547246,-122.3726918,157.88993115007878,9.487776,0.1,229.49825,1626296105435
Fix,GT,37.5471957,-122.3727653,158.07039672762156,7.657345,0.1,229.05025,1626296106435
Fix,GT,37.5471487,-122.3728196,158.2466875642836,6.80151,0.099,218.26642,1626296107435
Fix,GT,37.5470926,-122.3728475,158.44222670578955,6.9410186,0.1,197.18513,1626296108435
Fix,GT,37.5470257,-122.3728475,158.51901216477157,8.266827,0.1,174.28357,1626296109435
Fix,GT,37.5469515,-122.3728091,158.4227611286044,9.578901,0.1,152.2077,1626296110435
Fix,GT,37.5468755,-122.3727403,158.53529554831982,11.367604,0.1,140.48755,1626296111435
Fix,GT,37.5467928,-122.3726478,158.60187921312453,13.243016,0.1,137.98865,1626296112435
Fix,GT,37.5466974,-122.3725399,158.71151753240824,15.274992,0.1,137.91058,1626296113435
Fix,GT,37.5465887,-122.3724161,158.7774136375189,17.258997,0.1,137.61621,1626296114435
Fix,GT,37.5464672,-122.372278,158.854583678931,19.116722,0.1,137.88318,1626296115435
Fix,GT,37.5463334,-122.3721262,158.9508178138733,20.798727,0.1,137.75806,1626296116435
Fix,GT,37.5461888,-122.3719625,158.9834210501313,22.405613,0.1,137.83136,1626296117435
Fix,GT,37.5460331,-122.3717858,158.82425573688744,24.158772,0.1,137.7497,1626296118435
Fix,GT,37.5458661,-122.3715962,158.43516190552714,25.747314,0.1,138.01993,1626296119435
Fix,GT,37.5456875,-122.3713992,157.80665175169707,27.055153,0.1,139.41547,1626296120435
Fix,GT,37.5454951,-122.3711999,157.0001173247099,28.314201,0.1,141.28564,1626296121435
Fix,GT,37.5452907,-122.3709973,156.1615308742225,29.476896,0.1,141.95337,1626296122435
Fix,GT,37.5450778,-122.370788,155.2789472370148,30.377522,0.1,141.80731,1626296123435
Fix,GT,37.5448619,-122.3705735,154.43600390052796,30.685055,0.1,141.39719,1626296124435
Fix,GT,37.5446454,-122.3703584,153.55404387742283,30.56205,0.1,141.66962,1626296125435
Fix,GT,37.5444297,-122.3701446,152.67288293394446,30.474731,0.1,141.8443,1626296126435
Fix,GT,37.5442122,-122.3699326,151.85712174618243,30.689728,0.1,142.27222,1626296127435
Fix,GT,37.5439923,-122.3697193,151.0575306198299,31.00295,0.1,142.34988,1626296128435
Fix,GT,37.5437691,-122.3695059,150.34640510448813,31.218401,0.1,142.9266,1626296129435
Fix,GT,37.5435435,-122.3692936,149.71386621356012,31.33876,0.1,143.02112,1626296130435
Fix,GT,37.5433172,-122.3690813,149.11021398305894,31.38112,0.1,143.36725,1626296131435
Fix,GT,37.5430896,-122.3688695,148.51486175644396,31.488127,0.1,143.3872,1626296132435
Fix,GT,37.5428611,-122.3686577,147.90415729928017,31.564411,0.1,143.55347,1626296133435
Fix,GT,37.5426313,-122.3684466,147.31610060971974,31.638952,0.1,144.09177,1626296134435
Fix,GT,37.5423991,-122.3682379,146.70221837300062,31.760178,0.1,144.75885,1626296135435
Fix,GT,37.5421636,-122.3680325,146.09216602170466,31.878723,0.1,145.55304,1626296136435
Fix,GT,37.541925,-122.3678303,145.47086178278923,32.015408,0.1,146.33344,1626296137435
Fix,GT,37.5416834,-122.3676312,144.85486610627174,32.111526,0.1,146.98114,1626296138435
Fix,GT,37.5414396,-122.3674351,144.24522262498735,32.141064,0.1,147.65225,1626296139435
Fix,GT,37.5411936,-122.3672427,143.63016162097452,32.20672,0.1,148.59271,1626296140435
Fix,GT,37.5409439,-122.3670553,143.0138618130982,32.3843,0.099,149.51984,1626296141435
Fix,GT,37.5406906,-122.3668705,142.41151807773113,32.64938,0.1,150.0794,1626296142435
Fix,GT,37.5404337,-122.3666877,141.78080513107776,32.878082,0.1,150.79303,1626296143435
Fix,GT,37.5401736,-122.3665086,141.11058676081896,32.96173,0.1,151.46655,1626296144435
Fix,GT,37.539912,-122.366331,140.34652584052083,33.032753,0.1,151.56296,1626296145435
Fix,GT,37.5396505,-122.3661542,139.48124233168363,32.851418,0.1,151.64142,1626296146435
Fix,GT,37.539391,-122.3659783,138.50572410914302,32.64328,0.1,151.53659,1626296147435
Fix,GT,37.5391334,-122.3658028,137.4271409313679,32.413742,0.1,151.50043,1626296148435
Fix,GT,37.5388767,-122.3656295,136.23140786001088,32.258884,0.1,151.78687,1626296149435
Fix,GT,37.5386209,-122.3654573,135.02867926838994,32.1419,0.1,151.62854,1626296150435
Fix,GT,37.5383666,-122.3652848,133.7424523924291,32.02306,0.1,151.60101,1626296151435
Fix,GT,37.5381133,-122.365113,132.4245617824793,31.918285,0.1,151.5607,1626296152435
Fix,GT,37.5378607,-122.3649413,131.14073186206815,31.807215,0.1,151.45306,1626296153435
Fix,GT,37.5376088,-122.3647705,129.8594483126402,31.797462,0.1,151.6594,1626296154435
Fix,GT,37.5373556,-122.3645997,128.58520562562347,32.012413,0.1,151.57825,1626296155435
Fix,GT,37.537101,-122.3644264,127.31138775116206,32.27218,0.1,151.41571,1626296156435
Fix,GT,37.5368444,-122.3642517,126.00409599685668,32.504147,0.1,151.4831,1626296157435
Fix,GT,37.5365862,-122.3640775,124.70709225049616,32.519947,0.1,151.86206,1626296158435
Fix,GT,37.5363281,-122.3639041,123.40097053319217,32.44121,0.1,151.54895,1626296159435
Fix,GT,37.5360714,-122.36373,122.10685709536077,32.35094,0.1,151.55908,1626296160435
Fix,GT,37.5358152,-122.3635561,120.80785707193613,32.293163,0.1,151.42941,1626296161435
Fix,GT,37.5355593,-122.3633823,119.52867137882114,32.26918,0.1,151.61996,1626296162435
Fix,GT,37.5353034,-122.3632096,118.24397045123578,32.24481,0.1,151.70508,1626296163435
Fix,GT,37.5350476,-122.3630367,116.94650477290152,32.232697,0.1,151.6308,1626296164435
Fix,GT,37.5347908,-122.3628664,115.58726594060658,32.22744,0.1,152.4967,1626296165435
Fix,GT,37.5345319,-122.3627018,114.2838569704294,32.178665,0.1,153.77332,1626296166435
Fix,GT,37.5342704,-122.3625453,112.98656142109633,32.119408,0.1,155.18945,1626296167435
Fix,GT,37.5340064,-122.3623974,111.69285359740256,32.046356,0.1,156.53113,1626296168435
Fix,GT,37.5337406,-122.3622562,110.42732585796716,31.993525,0.1,157.39429,1626296169435
Fix,GT,37.5334734,-122.3621219,109.25820042064784,31.913689,0.1,158.77557,1626296170435
Fix,GT,37.5332043,-122.3619956,108.164662809968,31.824835,0.1,160.19812,1626296171435
Fix,GT,37.5329341,-122.3618778,107.2123018003106,31.691416,0.1,161.29205,1626296172435
Fix,GT,37.5326637,-122.3617643,106.27554057246448,31.576538,0.1,161.3894,1626296173435
Fix,GT,37.5323944,-122.3616511,105.3157730692923,31.461517,0.1,161.31421,1626296174435
Fix,GT,37.5321264,-122.3615374,104.34500305604936,31.357449,0.1,161.20032,1626296175435
Fix,GT,37.5318597,-122.361423,103.42265080744028,31.18618,0.1,160.96796,1626296176435
Fix,GT,37.5315947,-122.3613089,102.46442699572444,30.983727,0.1,161.08386,1626296177435
Fix,GT,37.5313315,-122.3611962,101.57911646449566,30.747936,0.1,161.08496,1626296178435
Fix,GT,37.5310702,-122.361084,100.67041498160364,30.545588,0.1,161.0437,1626296179435
Fix,GT,37.5308104,-122.3609732,99.69983287936448,30.388393,0.1,161.28668,1626296180435
Fix,GT,37.5305519,-122.3608629,98.8305970092714,30.188627,0.1,161.057,1626296181435
Fix,GT,37.5302957,-122.3607523,97.93035525256396,29.942009,0.1,160.99847,1626296182435
Fix,GT,37.5300424,-122.360644,96.96097019046545,29.375446,0.1,161.37445,1626296183435
Fix,GT,37.5297943,-122.3605405,96.13058497327566,28.628292,0.1,161.40741,1626296184435
Fix,GT,37.5295535,-122.3604376,95.3255849492848,27.858364,0.1,160.99701,1626296185435
Fix,GT,37.5293185,-122.360337,94.50376419657468,27.298914,0.1,161.16663,1626296186435
Fix,GT,37.5290876,-122.3602374,93.67281811746956,26.91626,0.1,161.01099,1626296187435
Fix,GT,37.5288593,-122.3601389,92.89318785569073,26.671638,0.1,161.0028,1626296188435
Fix,GT,37.5286323,-122.3600421,92.19027188891172,26.555897,0.1,161.41449,1626296189435
Fix,GT,37.5284058,-122.3599481,91.66644751417635,26.401894,0.1,161.84393,1626296190435
Fix,GT,37.5281795,-122.3598585,91.27432863211632,26.278027,0.1,163.01727,1626296191435
Fix,GT,37.5279527,-122.3597749,91.04701465594768,26.170853,0.1,164.0625,1626296192435
Fix,GT,37.5277261,-122.3596966,91.19273458904028,25.986637,0.1,164.82074,1626296193435
Fix,GT,37.5275009,-122.3596205,91.63042711007594,25.756544,0.1,164.95062,1626296194435
Fix,GT,37.527278,-122.3595432,92.10655521959066,25.600187,0.1,164.0625,1626296195435
Fix,GT,37.5270574,-122.3594614,92.47555521959066,25.407152,0.1,163.10522,1626296196435
Fix,GT,37.5268407,-122.3593765,92.9139074611664,24.946972,0.1,162.33856,1626296197435
Fix,GT,37.5266293,-122.3592901,93.37009233438968,24.373617,0.1,161.43427,1626296198435
Fix,GT,37.5264261,-122.3591984,93.79868339198828,23.50733,0.1,158.8288,1626296199435
Fix,GT,37.5262358,-122.3591008,94.0443970142603,22.105452,0.1,156.61145,1626296200435
Fix,GT,37.5260591,-122.3590036,94.19628638917207,20.72081,0.1,156.05469,1626296201435
Fix,GT,37.5258945,-122.3589117,94.34729833418132,19.212852,0.1,155.9234,1626296202435
Fix,GT,37.5257457,-122.3588303,94.3370028114617,16.753399,0.1,156.5716,1626296203435
Fix,GT,37.5256176,-122.358759,94.32029833337666,14.384594,0.1,155.88977,1626296204435
Fix,GT,37.5255084,-122.3586988,94.23642370414734,12.089134,0.1,156.32922,1626296205435
Fix,GT,37.5254178,-122.3586491,94.1263669844866,9.840041,0.1,156.04535,1626296206435
Fix,GT,37.5253458,-122.3586092,94.0519580270946,7.5872774,0.1,156.09167,1626296207435
Fix,GT,37.5252928,-122.3585804,93.93988936686516,5.23198,0.1,156.47461,1626296208435
Fix,GT,37.5252557,-122.3585597,93.9122416048348,4.0043955,0.1,155.91132,1626296209435
Fix,GT,37.5252241,-122.3585408,93.873,3.7897573,0.1,154.43555,1626296210435
Fix,GT,37.5251935,-122.3585227,93.8224776110649,3.6926665,0.1,154.50616,1626296211435
Fix,GT,37.525163,-122.3585048,93.78453712260723,3.866968,0.1,154.50854,1626296212435
Fix,GT,37.5251312,-122.3584864,93.77959383919836,3.6706195,0.1,154.98572,1626296213435
Fix,GT,37.5251082,-122.3584735,93.71640895581244,1.9914818,0.1,155.6178,1626296214435
Fix,GT,37.5250944,-122.3584657,93.67976119476558,1.7976633,0.1,155.64874,1626296215435
Fix,GT,37.5250753,-122.3584538,93.6526477610469,3.1303134,0.1,153.83545,1626296216435
Fix,GT,37.5250452,-122.3584287,93.5977164148092,4.92441,0.1,145.76367,1626296217435
Fix,GT,37.5250073,-122.3583844,93.50488935247064,6.5791397,0.1,135.11414,1626296218435
Fix,GT,37.5249668,-122.3583199,93.46557910716533,7.964011,0.1,126.604034,1626296219435
Fix,GT,37.5249246,-122.3582401,93.57928637436032,9.075745,0.1,122.52292,1626296220435
Fix,GT,37.5248787,-122.3581474,93.9882597116232,10.181661,0.1,121.78302,1626296221435
Fix,GT,37.5248267,-122.3580456,94.63030731341244,11.264198,0.1,123.272095,1626296222435
Fix,GT,37.5247648,-122.3579371,95.29341792595386,12.280552,0.1,126.57391,1626296223435
Fix,GT,37.5246921,-122.3578256,95.9866595928669,13.102116,0.1,130.19894,1626296224435
Fix,GT,37.5246119,-122.3577133,96.67707762372493,13.377665,0.1,132.84952,1626296225435
Fix,GT,37.5245275,-122.3576084,97.20878209823373,12.852697,0.1,136.62952,1626296226435
Fix,GT,37.5244408,-122.357518,97.93054329299926,12.326781,0.1,142.2691,1626296227435
Fix,GT,37.5243475,-122.3574398,98.6837015004158,12.679498,0.1,148.40027,1626296228435
Fix,GT,37.5242439,-122.3573714,99.57899702262878,13.245861,0.1,154.29846,1626296229435
Fix,GT,37.5241332,-122.3573163,100.41941791254284,13.145855,0.1,160.56018,1626296230435
Fix,GT,37.5240219,-122.3572745,101.30417910671233,12.518095,0.1,164.26721,1626296231435
Fix,GT,37.5239168,-122.3572388,102.07988358926774,11.649435,0.1,164.63818,1626296232435
Fix,GT,37.5238196,-122.3571998,102.84165978047253,11.227913,0.1,161.19006,1626296233435
Fix,GT,37.5237224,-122.3571589,103.54465980142352,11.584705,0.1,162.01074,1626296234435
Fix,GT,37.5236204,-122.357121,104.19013432645798,11.894758,0.1,164.1264,1626296235435
Fix,GT,37.5235185,-122.3570875,104.68714626729488,11.422369,0.1,165.69269,1626296236435
Fix,GT,37.5234213,-122.3570572,105.12268372946976,10.78795,0.1,166.04901,1626296237435
Fix,GT,37.5233327,-122.3570299,105.3784537305832,9.257729,0.1,166.06879,1626296238435
Fix,GT,37.5232622,-122.3570078,105.4954089550972,6.735546,0.1,165.76135,1626296239435
Fix,GT,37.5232159,-122.3569927,105.5353522387147,3.8950875,0.1,165.47766,1626296240435
Fix,GT,37.5231924,-122.356985,105.5292955225706,1.7397375,0.1,165.28467,1626296241435
Fix,GT,37.5231838,-122.3569822,105.52064776128528,0.35273966,0.1,165.21277,1626296242435
Fix,GT,37.5231833,-122.356982,105.5133522387147,0.0038620946,0.1,165.2107,1626296243435
Fix,GT,37.5231834,-122.356982,105.51300314453243,0.0040000007,0.1,165.20941,1626296244435
Fix,GT,37.5231834,-122.356982,105.51265090572836,0.010500395,0.1,165.20856,1626296245435
Fix,GT,37.5231805,-122.3569811,105.50500314429402,0.71565396,0.1,165.18524,1626296246435
Fix,GT,37.5231712,-122.356978,105.50065090537072,1.3702245,0.1,165.0918,1626296247435
Fix,GT,37.5231564,-122.3569724,105.4866477611661,2.1892686,0.1,163.73291,1626296248435
Fix,GT,37.523134,-122.3569577,105.47429552233218,3.4788086,0.1,154.08185,1626296249435
Fix,GT,37.5231089,-122.3569226,105.44794328331946,4.913173,0.1,131.69208,1626296250435
Fix,GT,37.523091,-122.3568621,105.35377627283336,6.5113173,0.1,106.86368,1626296251435
Fix,GT,37.5230866,-122.3567816,105.41751045173407,7.721323,0.1,92.24414,1626296252435
Fix,GT,37.523087,-122.3566906,105.86519105780124,8.379371,0.1,89.25238,1626296253435
Fix,GT,37.5230889,-122.3565918,106.64629573506116,9.052053,0.1,88.69238,1626296254435
Fix,GT,37.523091,-122.3564856,107.59640598368644,9.803254,0.1,88.7218,1626296255435
Fix,GT,37.5230924,-122.3563702,108.51009852379562,10.501349,0.1,89.16086,1626296256435
Fix,GT,37.5230948,-122.3562475,109.54039404588936,11.197271,0.1,88.609985,1626296257435
Fix,GT,37.5230973,-122.3561175,110.6545641964674,11.77013,0.1,88.63431,1626296258435
Fix,GT,37.5230995,-122.3559869,111.78904513415694,11.13348,0.1,88.82724,1626296259435
Fix,GT,37.5231015,-122.3558666,112.81011045598984,10.141434,0.1,88.67148,1626296260435
Fix,GT,37.5231033,-122.3557579,113.69347462904454,9.039368,0.1,88.82498,1626296261435
Fix,GT,37.5231051,-122.355663,114.37472878107428,7.7152348,0.1,88.52945,1626296262435
Fix,GT,37.5231073,-122.3555827,114.86814626985787,6.5559354,0.1,87.76044,1626296263435
Fix,GT,37.523113,-122.355514,115.24956716501714,5.675042,0.1,82.25696,1626296264435
Fix,GT,37.5231299,-122.3554565,115.52434029901028,5.565459,0.1,66.55557,1626296265435
Fix,GT,37.523165,-122.3554065,115.6937527014017,6.3412304,0.1,45.014954,1626296266435
Fix,GT,37.5232197,-122.3553729,115.76763927084208,7.325675,0.1,20.95282,1626296267435
Fix,GT,37.5232869,-122.3553705,115.56214925515653,7.7417164,0.1,354.73276,1626296268435
Fix,GT,37.5233571,-122.3554056,114.98710790529849,9.343906,0.1,333.8366,1626296269435
Fix,GT,37.5234348,-122.3554719,114.12701492869854,11.639141,0.1,322.63953,1626296270435
Fix,GT,37.5235227,-122.3555657,112.97926567566395,14.013384,0.1,318.7178,1626296271435
Fix,GT,37.5236253,-122.3556798,111.66320895934103,16.44046,0.1,318.13794,1626296272435
Fix,GT,37.5237428,-122.3558123,110.40243582463263,18.515461,0.1,318.06903,1626296273435
Fix,GT,37.5238741,-122.3559593,109.19226567566396,20.47878,0.1,318.54404,1626296274435
Fix,GT,37.5240198,-122.3561189,107.89832239198684,22.366676,0.1,318.83713,1626296275435
Fix,GT,37.5241769,-122.3562913,106.46556120580436,23.946617,0.1,318.71146,1626296276435
Fix,GT,37.5243431,-122.3564749,105.18102686953546,25.143929,0.1,318.77588,1626296277435
Fix,GT,37.5245165,-122.3566649,104.11682089805603,25.885086,0.1,319.30695,1626296278435
Fix,GT,37.5246978,-122.3568547,103.37745979809762,26.581509,0.1,320.6268,1626296279435
Fix,GT,37.5248883,-122.3570456,102.57635522145031,27.529621,0.1,322.1491,1626296280435
Fix,GT,37.5250882,-122.3572377,101.7138208885193,28.171751,0.1,322.7793,1626296281435
Fix,GT,37.5252894,-122.3574323,100.72488954401015,28.195171,0.1,321.20102,1626296282435
Fix,GT,37.5254869,-122.3576327,99.70948058259486,28.191528,0.1,320.6376,1626296283435
Fix,GT,37.5256827,-122.3578356,98.56978803551198,28.154327,0.1,319.98218,1626296284435
Fix,GT,37.5258773,-122.3580395,97.48690437278152,28.12623,0.1,320.57825,1626296285435
Fix,GT,37.5260784,-122.3582365,96.3641969780922,28.571018,0.1,323.29587,1626296286435
Fix,GT,37.5262915,-122.358425,95.16643576836586,29.327774,0.1,326.20117,1626296287435
Fix,GT,37.526518,-122.3586049,93.95243575429916,30.167168,0.1,328.77795,1626296288435
Fix,GT,37.5267567,-122.3587775,92.86142381757496,30.936665,0.1,331.21228,1626296289435
Fix,GT,37.5270068,-122.35894,91.96487755471468,31.569113,0.1,333.7066,1626296290435
Fix,GT,37.5272667,-122.3590926,91.30933402094246,32.091858,0.1,336.19092,1626296291435
Fix,GT,37.527536,-122.3592322,90.8887877560258,32.572792,0.1,338.7688,1626296292435
Fix,GT,37.5278133,-122.3593602,90.85215823602675,32.96677,0.1,340.5844,1626296293435
Fix,GT,37.5280956,-122.3594814,91.13333111548424,33.28062,0.1,341.17972,1626296294435
Fix,GT,37.5283811,-122.3596022,91.4977135349512,33.58762,0.1,341.44812,1626296295435
Fix,GT,37.5286688,-122.3597231,92.07301179990174,33.73659,0.1,341.41296,1626296296435
Fix,GT,37.5289572,-122.3598451,92.87986903393268,33.814007,0.1,341.23038,1626296297435
Fix,GT,37.5292456,-122.3599673,93.8984537435472,33.708767,0.1,341.29584,1626296298435
Fix,GT,37.5295327,-122.3600888,94.94086901971698,33.52605,0.1,341.23273,1626296299435
Fix,GT,37.5298182,-122.3602096,95.91263592851162,33.299976,0.1,341.3677,1626296300435
Fix,GT,37.5300999,-122.3603285,96.80347481966018,32.6509,0.1,341.05762,1626296301435
Fix,GT,37.5303748,-122.3604467,97.90398826646803,31.883446,0.1,341.03455,1626296302435
Fix,GT,37.5306438,-122.3605611,98.84769879955051,31.177616,0.099,341.21906,1626296303435
Fix,GT,37.5309077,-122.3606729,99.6858033182621,30.668995,0.1,341.21106,1626296304435
Fix,GT,37.5311681,-122.3607841,100.66799729013442,30.400394,0.1,340.96118,1626296305435
Fix,GT,37.5314262,-122.3608958,101.585233066231,30.175251,0.1,340.8916,1626296306435
Fix,GT,37.5316823,-122.3610059,102.467642029047,29.91215,0.1,341.2132,1626296307435
Fix,GT,37.5319353,-122.3611124,103.3641675195694,29.282946,0.1,341.4847,1626296308435
Fix,GT,37.532183,-122.3612155,104.22699735832214,28.678425,0.1,341.4189,1626296309435
Fix,GT,37.5324258,-122.3613194,105.08775546038152,28.303429,0.1,341.0321,1626296310435
Fix,GT,37.5326659,-122.3614234,105.88248683065176,28.069614,0.1,340.74426,1626296311435
Fix,GT,37.5329037,-122.3615267,106.7806987133324,27.792,0.1,340.88962,1626296312435
Fix,GT,37.533139,-122.3616291,107.69217083498836,27.516062,0.1,340.60056,1626296313435
Fix,GT,37.5333727,-122.3617312,108.66992562508582,27.397755,0.1,341.1594,1626296314435
Fix,GT,37.5336059,-122.3618312,109.70392561858893,27.296043,0.1,341.02325,1626296315435
Fix,GT,37.5338378,-122.3619326,110.74933458870647,27.231482,0.1,340.8134,1626296316435
Fix,GT,37.5340701,-122.3620328,111.82874355971812,27.314308,0.1,341.19153,1626296317435
Fix,GT,37.534304,-122.3621328,112.93334130960704,27.53516,0.1,340.93048,1626296318435
Fix,GT,37.534539,-122.3622363,114.04045143699646,27.74231,0.1,340.26138,1626296319435
Fix,GT,37.5347745,-122.3623444,115.15880370891094,27.931452,0.1,339.37747,1626296320435
Fix,GT,37.5350102,-122.3624579,116.28274699950218,28.083267,0.1,338.59344,1626296321435
Fix,GT,37.5352458,-122.3625752,117.41886049985884,28.147533,0.1,338.01422,1626296322435
Fix,GT,37.5354806,-122.3626957,118.54080732470752,28.232128,0.1,337.4936,1626296323435
Fix,GT,37.5357165,-122.3628202,119.66386412367224,28.587448,0.1,336.7099,1626296324435
Fix,GT,37.5359542,-122.3629498,120.80609576159716,28.952682,0.099,336.25543,1626296325435
Fix,GT,37.5361936,-122.3630848,121.96720923390984,29.238832,0.1,335.38632,1626296326435
Fix,GT,37.5364324,-122.3632237,123.1240957454443,29.170681,0.1,334.91113,1626296327435
Fix,GT,37.5366701,-122.3633636,124.19163741597534,29.105478,0.1,334.6831,1626296328435
Fix,GT,37.5369068,-122.3635046,125.23857700717448,29.066072,0.1,334.3956,1626296329435
Fix,GT,37.5371432,-122.3636454,126.27409575742482,29.003136,0.1,334.63174,1626296330435
Fix,GT,37.5373793,-122.3637854,127.39650854891538,28.945679,0.1,334.6472,1626296331435
Fix,GT,37.537615,-122.3639251,128.54421308726072,28.909655,0.1,334.4758,1626296332435
Fix,GT,37.5378501,-122.3640657,129.7098041332364,28.884384,0.1,334.472,1626296333435
Fix,GT,37.5380849,-122.3642055,130.859217066139,28.825737,0.1,334.55606,1626296334435
Fix,GT,37.5383199,-122.3643457,132.01921321278812,28.921814,0.1,334.46097,1626296335435
Fix,GT,37.5385556,-122.3644865,133.1708649687171,28.997662,0.1,334.49606,1626296336435
Fix,GT,37.5387919,-122.3646272,134.33050478324293,29.035032,0.099,334.546,1626296337435
Fix,GT,37.5390281,-122.3647676,135.4915696222782,28.946463,0.1,334.5973,1626296338435
Fix,GT,37.539263,-122.3649072,136.6707516910434,28.7362,0.1,334.48697,1626296339435
Fix,GT,37.5394955,-122.3650477,137.7998085183203,28.540052,0.1,334.02615,1626296340435
Fix,GT,37.5397265,-122.3651873,138.93575183722376,28.379292,0.1,334.32843,1626296341435
Fix,GT,37.5399564,-122.3653262,140.07462252163887,28.23372,0.1,334.2787,1626296342435
Fix,GT,37.5401858,-122.3654637,141.2623880403042,28.204414,0.1,334.48312,1626296343435
Fix,GT,37.5404152,-122.3656005,142.5530926297903,28.176376,0.1,334.49744,1626296344435
Fix,GT,37.5406439,-122.3657383,143.84320623403786,28.136147,0.1,333.97333,1626296345435
Fix,GT,37.5408706,-122.3658796,145.03710448256135,28.025177,0.1,333.16116,1626296346435
Fix,GT,37.5410949,-122.3660242,146.1400434420109,27.9488,0.1,332.3813,1626296347435
Fix,GT,37.5413171,-122.3661721,147.24745249176024,27.866138,0.1,331.63364,1626296348435
Fix,GT,37.541537,-122.3663234,148.35315704810617,27.891685,0.1,330.63995,1626296349435
Fix,GT,37.5417561,-122.3664812,149.46245257854463,28.157589,0.1,329.60364,1626296350435
Fix,GT,37.5419749,-122.3666454,150.51593006336688,28.428543,0.1,328.5496,1626296351435
Fix,GT,37.5421934,-122.3668165,151.4783462625742,28.74305,0.1,327.3387,1626296352435
Fix,GT,37.5424116,-122.3669951,152.3415373018384,29.067642,0.1,326.42993,1626296353435
Fix,GT,37.5426317,-122.3671806,153.1117101713717,29.739294,0.1,325.61053,1626296354435
Fix,GT,37.5428511,-122.3673712,153.80248768508434,29.406715,0.1,325.0605,1626296355435
Fix,GT,37.5430657,-122.3675612,154.37596513199804,28.873837,0.1,324.34528,1626296356435
Fix,GT,37.5432754,-122.3677502,154.81339041274788,28.465158,0.1,324.34442,1626296357435
Fix,GT,37.5434829,-122.3679389,155.0575839779973,28.497425,0.1,323.50787,1626296358435
Fix,GT,37.5436891,-122.3681336,155.11858634245397,28.768225,0.1,322.4158,1626296359435
Fix,GT,37.543893,-122.3683335,155.10634763661025,28.557423,0.1,321.43127,1626296360435
Fix,GT,37.5440923,-122.3685349,155.20493163323405,28.228527,0.1,320.765,1626296361435
Fix,GT,37.5442879,-122.3687365,155.36493163907528,27.949114,0.1,320.36664,1626296362435
Fix,GT,37.5444807,-122.3689367,155.5112839061618,27.569786,0.1,320.30005,1626296363435
Fix,GT,37.5446709,-122.3691335,155.6852839124203,27.126383,0.1,320.43466,1626296364435
Fix,GT,37.544858,-122.3693271,155.85369296365977,26.702429,0.1,320.32724,1626296365435
Fix,GT,37.5450421,-122.3695182,155.9965179673731,26.29419,0.1,320.42004,1626296366435
Fix,GT,37.5452252,-122.3697031,156.15198380032183,25.878994,0.1,322.0611,1626296367435
Fix,GT,37.5454108,-122.3698768,156.27587954375147,25.493305,0.1,324.0875,1626296368435
Fix,GT,37.5455964,-122.3700425,156.39392014664412,25.052519,0.1,325.0142,1626296369435
Fix,GT,37.5457805,-122.3702033,156.55434073674678,24.710295,0.1,325.23773,1626296370435
Fix,GT,37.5459626,-122.3703607,156.79673827689885,24.336445,0.1,325.36234,1626296371435
Fix,GT,37.5461419,-122.3705152,157.18902224886418,23.926655,0.1,325.58163,1626296372435
Fix,GT,37.5463184,-122.3706663,157.6456700039506,23.48153,0.1,325.55582,1626296373435
Fix,GT,37.5464918,-122.3708147,157.92398379209638,23.11055,0.1,325.52182,1626296374435
Fix,GT,37.5466623,-122.3709616,158.01330017936232,22.801744,0.1,325.40164,1626296375435
Fix,GT,37.5468306,-122.3711073,157.87600678619742,22.60073,0.1,325.2407,1626296376435
Fix,GT,37.5469972,-122.3712517,157.69090259313583,22.16265,0.1,325.30707,1626296377435
Fix,GT,37.5471551,-122.3713883,157.5084205441475,20.124063,0.1,325.50433,1626296378435
Fix,GT,37.5472938,-122.3715074,157.32559772169589,17.157957,0.1,325.69678,1626296379435
Fix,GT,37.5474104,-122.3716059,157.1947728021145,14.036704,0.1,326.3387,1626296380435
Fix,GT,37.5475038,-122.3716832,157.09001146358253,10.799133,0.1,326.174,1626296381435
Fix,GT,37.5475733,-122.371743,156.9604773285389,8.048934,0.1,324.90555,1626296382435
Fix,GT,37.5476235,-122.371789,156.98176601603626,5.737519,0.1,323.70724,1626296383435
Fix,GT,37.5476572,-122.3718206,157.06111828806996,3.63515,0.1,323.24188,1626296384435
Fix,GT,37.5476746,-122.3718368,157.10664304953815,1.2429588,0.099,323.23828,1626296385435
Fix,GT,37.5476775,-122.3718395,157.09535695052148,0.02925641,0.1,323.21268,1626296386435
Fix,GT,37.5476775,-122.3718395,157.097,0.001,0.1,323.21216,1626296387435
Fix,GT,37.5476775,-122.3718395,157.096,0.0023302427,0.1,323.21045,1626296388435
Fix,GT,37.5476775,-122.3718395,157.095,0.00064772996,0.1,323.21024,1626296389435
Fix,GT,37.5476775,-122.3718394,157.092290777117,0.024328677,0.1,323.20996,1626296390435
Fix,GT,37.547681,-122.3718427,157.08535227108,1.2604895,0.1,322.9138,1626296391435
Fix,GT,37.5476959,-122.37186,157.13252739867568,3.238858,0.1,318.80524,1626296392435
Fix,GT,37.5477158,-122.3718981,157.22198862558605,4.711459,0.1,301.7836,1626296393435
Fix,GT,37.547721,-122.3719566,157.3451704531312,5.7549896,0.1,272.40118,1626296394435
Fix,GT,37.5476982,-122.3720207,157.38511363828184,6.902895,0.1,240.63522,1626296395435
Fix,GT,37.5476533,-122.3720871,157.3783569637239,8.645278,0.1,229.40295,1626296396435
Fix,GT,37.5475978,-122.3721701,157.4038228826821,10.384795,0.1,229.8768,1626296397435
Fix,GT,37.5475333,-122.3722662,157.48082288879155,11.709929,0.1,229.66106,1626296398435
Fix,GT,37.5474647,-122.3723681,157.52952274894716,11.743662,0.1,229.7956,1626296399435
Fix,GT,37.5473968,-122.3724683,157.6107613762617,11.504805,0.1,229.44966,1626296400435
Fix,GT,37.5473305,-122.3725664,157.6732273080349,11.2018585,0.1,229.67525,1626296401435
Fix,GT,37.5472683,-122.3726593,157.79234097063542,10.039195,0.1,229.90656,1626296402435
Fix,GT,37.5472147,-122.3727396,157.92398870158195,8.457675,0.1,229.92648,1626296403435
Fix,GT,37.547164,-122.3728044,158.1310502514839,7.781219,0.1,221.47157,1626296404435
Fix,GT,37.5471021,-122.3728395,158.3648703315258,7.6888795,0.1,197.74832,1626296405435
Fix,GT,37.5470301,-122.3728396,158.43236355590818,8.565786,0.1,174.1839,1626296406435
Fix,GT,37.5469533,-122.3728058,158.34081822538374,9.601912,0.1,156.2055,1626296407435
Fix,GT,37.5468757,-122.3727436,158.4685908856392,11.009562,0.1,142.89764,1626296408435
Fix,GT,37.5467969,-122.3726552,158.52416578704117,12.565382,0.1,137.00745,1626296409435
Fix,GT,37.5467071,-122.3725523,158.63581823587418,14.419624,0.1,137.83435,1626296410435
Fix,GT,37.5466044,-122.3724359,158.700413849324,16.269505,0.1,137.51917,1626296411435
Fix,GT,37.5464905,-122.3723054,158.7694138532877,17.948734,0.1,137.58871,1626296412435
Fix,GT,37.5463655,-122.3721641,158.85675666987896,19.364697,0.099,137.94153,1626296413435
Fix,GT,37.5462311,-122.372011,158.90746596890688,20.92608,0.1,137.69507,1626296414435
Fix,GT,37.5460856,-122.3718462,158.83695436501503,22.569147,0.1,137.78433,1626296415435
Fix,GT,37.5459296,-122.3716685,158.55672696876528,24.145271,0.1,137.65784,1626296416435
Fix,GT,37.545762,-122.3714812,158.03827216529845,25.626856,0.1,138.90909,1626296417435
Fix,GT,37.5455803,-122.3712884,157.30876517769693,27.16343,0.1,140.44254,1626296418435
Fix,GT,37.5453844,-122.3710899,156.47676511332392,28.67073,0.1,141.56738,1626296419435
Fix,GT,37.5451759,-122.370885,155.62805583852528,30.046791,0.1,141.8266,1626296420435
Fix,GT,37.544961,-122.3706711,154.7769989385605,30.558708,0.1,141.17188,1626296421435
Fix,GT,37.5447468,-122.3704549,153.9272897296846,30.453377,0.1,141.14935,1626296422435
Fix,GT,37.5445341,-122.370239,153.0542262699604,30.269707,0.1,140.98846,1626296423435
Fix,GT,37.5443223,-122.3700247,152.23323282429575,30.078587,0.1,141.27295,1626296424435
Fix,GT,37.5441115,-122.3698124,151.43306012195347,29.913834,0.1,141.10474,1626296425435
Fix,GT,37.5439012,-122.3695991,150.7247535136342,30.202383,0.1,140.98221,1626296426435
Fix,GT,37.5436854,-122.3693851,150.0503398311138,30.814545,0.1,142.36053,1626296427435
Fix,GT,37.5434628,-122.369171,149.48661966624857,31.395363,0.1,142.7359,1626296428435
Fix,GT,37.5432351,-122.3689568,148.87886708378792,31.716576,0.1,143.28424,1626296429435
Fix,GT,37.5430048,-122.3687419,148.27315803265572,31.98985,0.1,143.26639,1626296430435
Fix,GT,37.5427716,-122.3685263,147.6708625764847,32.288166,0.1,143.89972,1626296431435
Fix,GT,37.5425346,-122.3683115,147.04851024609803,32.555298,0.1,144.26135,1626296432435
Fix,GT,37.5422945,-122.3680975,146.42115791809562,32.808952,0.1,145.12006,1626296433435
Fix,GT,37.5420494,-122.3678873,145.79250582596657,33.03751,0.099,146.01233,1626296434435
Fix,GT,37.5418009,-122.36768,145.15974434408545,33.17862,0.1,146.6142,1626296435435
Fix,GT,37.5415494,-122.3674753,144.5238055100441,33.36469,0.1,147.33246,1626296436435
Fix,GT,37.5412935,-122.3672741,143.88110088044405,33.683704,0.1,148.50763,1626296437435
Fix,GT,37.5410325,-122.3670754,143.2464531326294,34.06152,0.1,149.14343,1626296438435
Fix,GT,37.5407665,-122.3668801,142.59857111552358,34.31746,0.1,150.14099,1626296439435
Fix,GT,37.5404971,-122.3666884,141.94504386019707,34.407562,0.1,150.61975,1626296440435
Fix,GT,37.5402254,-122.3664995,141.2572781230807,34.51684,0.1,151.25507,1626296441435
Fix,GT,37.5399519,-122.3663129,140.47070241630075,34.522102,0.1,151.62634,1626296442435
Fix,GT,37.539679,-122.3661281,139.57118353620172,34.314514,0.1,151.49988,1626296443435
Fix,GT,37.5394081,-122.3659432,138.56006964415312,34.141964,0.1,151.38757,1626296444435
Fix,GT,37.5391382,-122.3657599,137.43172814494372,33.992912,0.1,151.53085,1626296445435
Fix,GT,37.5388687,-122.3655778,136.19161422032118,33.930923,0.1,151.7251,1626296446435
Fix,GT,37.5385997,-122.3653961,134.89544338238238,33.866135,0.1,151.55475,1626296447435
Fix,GT,37.5383315,-122.3652141,133.52632943460344,33.8087,0.1,151.48029,1626296448435
Fix,GT,37.5380642,-122.3650314,132.14808686923982,33.726063,0.1,151.44296,1626296449435
Fix,GT,37.5377969,-122.3648507,130.79097295308114,33.65753,0.1,151.66159,1626296450435
Fix,GT,37.5375303,-122.36467,129.42931817594172,33.586643,0.1,151.60461,1626296451435
Fix,GT,37.537264,-122.3644902,128.10938196003437,33.54348,0.1,151.57956,1626296452435
Fix,GT,37.5369985,-122.3643096,126.76332494527102,33.47638,0.1,151.41595,1626296453435
Fix,GT,37.5367335,-122.3641298,125.4211432929635,33.39541,0.1,151.69427,1626296454435
Fix,GT,37.5364681,-122.3639512,124.0827302672267,33.46218,0.1,151.72491,1626296455435
Fix,GT,37.5362021,-122.3637716,122.7431963619292,33.58764,0.099,151.51147,1626296456435
Fix,GT,37.5359361,-122.3635897,121.39513938435913,33.605755,0.1,151.35474,1626296457435
Fix,GT,37.5356702,-122.3634087,120.06043829458952,33.545128,0.1,151.53363,1626296458435
Fix,GT,37.5354045,-122.3632283,118.72779050767424,33.501827,0.1,151.6128,1626296459435
Fix,GT,37.5351386,-122.3630494,117.3927939158082,33.46128,0.1,151.83679,1626296460435
Fix,GT,37.5348726,-122.3628719,116.00008224749568,33.371933,0.1,152.21338,1626296461435
Fix,GT,37.5346053,-122.3627005,114.6574948515892,33.272404,0.1,153.67969,1626296462435
Fix,GT,37.5343352,-122.3625381,113.32438089072704,33.202366,0.1,155.05304,1626296463435
Fix,GT,37.5340627,-122.362384,111.98649467849732,33.117638,0.1,156.3078,1626296464435
Fix,GT,37.5337886,-122.3622374,110.67625285691022,33.00861,0.1,157.4414,1626296465435
Fix,GT,37.5335133,-122.3620984,109.46054078578948,32.826084,0.1,158.84222,1626296466435
Fix,GT,37.5332371,-122.3619688,108.33559443101284,32.654198,0.1,160.14099,1626296467435
Fix,GT,37.5329596,-122.3618457,107.3395837507248,32.68557,0.1,160.83179,1626296468435
Fix,GT,37.5326804,-122.361727,106.370237744987,32.75759,0.1,161.44037,1626296469435
Fix,GT,37.5324006,-122.3616089,105.37612060761452,32.75541,0.1,161.14966,1626296470435
Fix,GT,37.5321217,-122.3614898,104.37541590720414,32.614967,0.1,161.07593,1626296471435
Fix,GT,37.5318446,-122.3613706,103.4104727962017,32.468323,0.1,161.09943,1626296472435
Fix,GT,37.5315669,-122.3612524,102.40870361617206,32.616352,0.1,161.20581,1626296473435
Fix,GT,37.5312883,-122.361133,101.47476802825928,32.728798,0.1,160.97644,1626296474435
Fix,GT,37.5310089,-122.3610129,100.4760033621788,32.820892,0.1,161.29456,1626296475435
Fix,GT,37.530728,-122.3608945,99.40418476346136,32.893044,0.1,161.54858,1626296476435
Fix,GT,37.5304477,-122.3607782,98.51947247493268,32.634884,0.1,161.8913,1626296477435
Fix,GT,37.5301685,-122.3606679,97.49736138027907,32.306847,0.1,162.82672,1626296478435
Fix,GT,37.5298917,-122.3605612,96.48623684066536,31.97854,0.1,162.7008,1626296479435
Fix,GT,37.5296182,-122.3604529,95.57141531723738,31.69291,0.1,162.18213,1626296480435
Fix,GT,37.5293475,-122.3603433,94.6329489877224,31.433672,0.1,162.04749,1626296481435
Fix,GT,37.5290793,-122.3602333,93.64864029970764,31.233978,0.1,161.53839,1626296482435
Fix,GT,37.5288133,-122.3601212,92.72770001220704,31.052858,0.1,161.25787,1626296483435
Fix,GT,37.5285494,-122.3600099,91.97810154759884,30.584698,0.1,161.53394,1626296484435
Fix,GT,37.5282924,-122.3599053,91.46249762821196,29.381895,0.1,162.54498,1626296485435
Fix,GT,37.5280441,-122.3598106,91.10289647376538,28.2848,0.1,163.58142,1626296486435
Fix,GT,37.5278026,-122.359725,91.10245586919784,27.415028,0.1,164.7315,1626296487435
Fix,GT,37.5275682,-122.3596458,91.46849203723669,26.437382,0.1,165.08667,1626296488435
Fix,GT,37.5273424,-122.3595682,91.97296878284214,25.533089,0.1,164.19476,1626296489435
Fix,GT,37.5271246,-122.3594882,92.3573315384984,24.938099,0.1,163.28955,1626296490435
Fix,GT,37.526912,-122.3594058,92.7376165163517,24.434538,0.1,162.3949,1626296491435
Fix,GT,37.5267059,-122.3593213,93.2097381273806,23.525743,0.1,161.54987,1626296492435
Fix,GT,37.5265123,-122.3592384,93.5965671555996,21.816338,0.1,160.51562,1626296493435
Fix,GT,37.5263361,-122.3591548,93.92051016753912,19.942684,0.099,157.9939,1626296494435
Fix,GT,37.5261796,-122.3590715,94.1082849906683,17.892786,0.1,156.25446,1626296495435
Fix,GT,37.526041,-122.3589948,94.21052333307266,15.70031,0.1,156.12671,1626296496435
Fix,GT,37.5259202,-122.3589278,94.32905981299282,13.663307,0.1,155.82434,1626296497435
Fix,GT,37.5258151,-122.3588686,94.3234121491313,11.905298,0.1,155.92798,1626296498435
Fix,GT,37.5257236,-122.3588179,94.32812712493538,10.365295,0.1,155.92786,1626296499435
Fix,GT,37.5256431,-122.3587728,94.29605981737376,9.382748,0.1,155.87439,1626296500435
Fix,GT,37.5255676,-122.3587301,94.273476637125,8.814776,0.1,155.59204,1626296501435
Fix,GT,37.5254991,-122.3586917,94.20688597869874,7.789191,0.1,155.74438,1626296502435
Fix,GT,37.52544,-122.3586584,94.15982896268368,6.5850883,0.1,155.80762,1626296503435
Fix,GT,37.5253915,-122.3586312,94.11153363347054,5.1491475,0.1,155.75946,1626296504435
Fix,GT,37.525352,-122.3586091,94.04717848795651,4.661852,0.1,155.83588,1626296505435
Fix,GT,37.525316,-122.358589,93.98523550277947,3.8512094,0.1,155.9989,1626296506435
Fix,GT,37.5252903,-122.3585747,93.94323550105094,2.4980278,0.1,155.93433,1626296507435
Fix,GT,37.5252714,-122.3585641,93.9166476595998,2.160316,0.1,155.73236,1626296508435
Fix,GT,37.5252549,-122.3585546,93.89959063601492,1.8287826,0.1,155.56348,1626296509435
Fix,GT,37.5252419,-122.3585473,93.8600598219037,1.4725418,0.1,155.42859,1626296510435
Fix,GT,37.5252285,-122.3585395,93.86600279742478,1.8193666,0.1,155.39526,1626296511435
Fix,GT,37.5252114,-122.3585297,93.84370188888909,2.4962003,0.1,155.34802,1626296512435
Fix,GT,37.5251881,-122.3585166,93.80401295879484,3.1353,0.1,155.42407,1626296513435
Fix,GT,37.5251602,-122.3585008,93.77288314196468,3.650604,0.1,155.50867,1626296514435
Fix,GT,37.5251294,-122.3584834,93.76612141612172,3.5165987,0.1,155.5415,1626296515435
Fix,GT,37.5251081,-122.3584713,93.7107617252469,1.8833611,0.1,155.40704,1626296516435
Fix,GT,37.5250927,-122.3584627,93.682,2.0605977,0.1,155.50372,1626296517435
Fix,GT,37.5250718,-122.3584501,93.63946642369032,3.1922789,0.1,153.9815,1626296518435
Fix,GT,37.5250424,-122.3584259,93.56906993341444,4.728672,0.1,145.97751,1626296519435
Fix,GT,37.5250067,-122.3583832,93.4821812210083,6.219874,0.1,134.77502,1626296520435
Fix,GT,37.5249681,-122.358323,93.43328521865608,7.472065,0.1,127.5061,1626296521435
Fix,GT,37.5249277,-122.358249,93.5272281820774,8.3628,0.1,123.16699,1626296522435
Fix,GT,37.524886,-122.3581634,93.87121085444092,9.49694,0.1,121.30704,1626296523435
Fix,GT,37.5248378,-122.3580658,94.46990554320811,10.767818,0.1,122.09488,1626296524435
Fix,GT,37.5247799,-122.3579597,95.13213817778232,11.964801,0.1,125.46094,1626296525435
Fix,GT,37.5247107,-122.357848,95.80576577025651,12.95042,0.1,128.7768,1626296526435
Fix,GT,37.5246334,-122.357736,96.53684578478337,13.018034,0.1,132.2453,1626296527435
Fix,GT,37.5245523,-122.3576327,97.0633194052875,12.539542,0.1,135.75928,1626296528435
Fix,GT,37.5244675,-122.3575404,97.72590581846237,12.611118,0.1,140.98419,1626296529435
Fix,GT,37.5243711,-122.3574564,98.45735647895933,13.357496,0.1,147.33878,1626296530435
Fix,GT,37.5242632,-122.357382,99.38594005835056,13.878651,0.1,153.5495,1626296531435
Fix,GT,37.5241462,-122.3573217,100.27387306284903,14.059971,0.1,160.20935,1626296532435
Fix,GT,37.5240257,-122.3572759,101.23118140786886,13.930767,0.1,164.0138,1626296533435
Fix,GT,37.523905,-122.3572329,102.14423246619106,13.816568,0.1,163.49573,1626296534435
Fix,GT,37.5237898,-122.3571854,103.03848680904508,13.074499,0.1,161.43506,1626296535435
Fix,GT,37.5236811,-122.3571421,103.79584917128086,12.260786,0.1,163.06152,1626296536435
Fix,GT,37.5235779,-122.3571056,104.3712623654902,11.545528,0.1,164.64038,1626296537435
