MessageType,Provider,LatitudeDegrees,LongitudeDegrees,AltitudeMeters,SpeedMps,AccuracyMeters,BearingDegrees,UnixTimeMillis
Fix,GT,37.3958125,-122.1029737,-5.914,0.0,0.1,208.82137,1625176219999
Fix,GT,37.3958125,-122.1029737,-5.914,0.001,0.1,208.82095,1625176220999
Fix,GT,37.3958125,-122.1029737,-5.914,0.001,0.1,208.82109,1625176221999
Fix,GT,37.3958125,-122.1029737,-5.914,0.001,0.1,208.82106,1625176222999
Fix,GT,37.3958125,-122.1029737,-5.914,0.0010020786,0.1,208.82109,1625176223999
Fix,GT,37.3958125,-122.1029737,-5.914,0.0014135172,0.1,208.82115,1625176224999
Fix,GT,37.3958125,-122.1029737,-5.914,0.0022323094,0.1,208.82013,1625176225999
Fix,GT,37.3958125,-122.1029737,-5.914,0.001411837,0.1,208.82149,1625176226999
Fix,GT,37.3958125,-122.1029737,-5.914,0.0,0.1,208.82137,1625176227999
Fix,GT,37.3958125,-122.1029737,-5.914,1.679659e-06,0.1,208.82144,1625176228999
Fix,GT,37.3958125,-122.1029736,-5.91,0.004239271,0.1,208.82124,1625176229999
Fix,GT,37.3958125,-122.1029736,-5.911,0.0070663188,0.1,208.8253,1625176230999
Fix,GT,37.3958125,-122.1029737,-5.909,0.0022370622,0.1,208.82335,1625176231999
Fix,GT,37.3958125,-122.1029737,-5.909,0.0022376224,0.1,208.8223,1625176232999
Fix,GT,37.3958125,-122.1029737,-5.908001677691937,0.002,0.1,208.82172,1625176233999
Fix,GT,37.3958125,-122.1029737,-5.908,0.001998323,0.1,208.82198,1625176234999
Fix,GT,37.3958125,-122.1029737,-5.908,0.001,0.1,208.82184,1625176235999
Fix,GT,37.3958125,-122.1029737,-5.908,0.0031603293,0.1,208.82236,1625176236999
Fix,GT,37.3958125,-122.1029737,-5.908,0.001,0.1,208.82182,1625176237999
Fix,GT,37.3958125,-122.1029737,-5.908,0.001,0.1,208.82199,1625176238999
Fix,GT,37.3958125,-122.1029737,-5.908,0.001,0.1,208.822,1625176239999
Fix,GT,37.3958125,-122.1029737,-5.908,0.001,0.1,208.82191,1625176240999
Fix,GT,37.3958125,-122.1029737,-5.908,0.0014135201,0.1,208.82184,1625176241999
Fix,GT,37.3958125,-122.1029737,-5.908,0.001,0.1,208.82176,1625176242999
Fix,GT,37.3958125,-122.1029737,-5.908,0.0009983266,0.1,208.82222,1625176243999
Fix,GT,37.3958125,-122.1029737,-5.908,1.6730429e-06,0.1,208.82195,1625176244999
Fix,GT,37.3958125,-122.1029737,-5.908,0.0,0.1,208.82193,1625176245999
Fix,GT,37.3958125,-122.1029737,-5.908,0.001,0.1,208.82216,1625176246999
Fix,GT,37.3958125,-122.1029737,-5.908,0.001,0.1,-151.17793,1625176247999
Fix,GT,37.3958125,-122.1029737,-5.908,0.001002066,0.1,208.82158,1625176248999
Fix,GT,37.3958125,-122.1029737,-5.908,0.002236068,0.1,208.82155,1625176249999
Fix,GT,37.3958125,-122.1029737,-5.908,0.0031586657,0.1,208.8218,1625176250999
Fix,GT,37.3958125,-122.1029736,-5.913,0.005826495,0.1,208.82265,1625176251999
Fix,GT,37.3958125,-122.1029737,-5.916,0.0051010656,0.1,208.8228,1625176252999
Fix,GT,37.3958124,-122.1029737,-5.917,0.0028287135,0.1,208.82169,1625176253999
Fix,GT,37.3958124,-122.1029737,-5.917,0.0019990224,0.1,208.82121,1625176254999
Fix,GT,37.3958124,-122.1029737,-5.917,0.0014142136,0.1,208.82094,1625176255999
Fix,GT,37.3958124,-122.1029737,-5.917,0.002234697,0.1,208.82109,1625176256999
Fix,GT,37.3958124,-122.1029737,-5.917,0.0014142136,0.1,208.82104,1625176257999
Fix,GT,37.3958124,-122.1029737,-5.917,0.0014142136,0.1,208.82126,1625176258999
Fix,GT,37.3958124,-122.1029737,-5.918,0.0014142136,0.1,208.82158,1625176259999
Fix,GT,37.3958124,-122.1029737,-5.917,0.00223835,0.1,208.82059,1625176260999
Fix,GT,37.3958124,-122.1029737,-5.921,0.007271314,0.1,208.8201,1625176261999
Fix,GT,37.3958124,-122.1029737,-5.922998334467411,0.0014168547,0.1,208.82079,1625176262999
Fix,GT,37.3958124,-122.1029737,-5.922001665115356,0.0019990248,0.1,208.8203,1625176263999
Fix,GT,37.3958124,-122.1029737,-5.922,0.0,0.1,208.8198,1625176264999
Fix,GT,37.3958124,-122.1029737,-5.922,0.0010020572,0.1,208.81967,1625176265999
Fix,GT,37.3958124,-122.1029737,-5.922,0.0,0.1,208.81996,1625176266999
Fix,GT,37.3958124,-122.1029737,-5.922,1.663506e-06,0.1,208.82045,1625176267999
Fix,GT,37.3958124,-122.1029737,-5.922,0.001,0.1,208.82062,1625176268999
Fix,GT,37.3958124,-122.1029737,-5.922,0.001,0.1,208.82028,1625176269999
Fix,GT,37.3958124,-122.1029737,-5.922,0.001,0.1,208.82025,1625176270999
Fix,GT,37.3958124,-122.1029737,-5.922,0.0009983381,0.1,208.82048,1625176271999
Fix,GT,37.3958124,-122.1029737,-5.922,2.3497712e-06,0.1,208.82065,1625176272999
Fix,GT,37.3958124,-122.1029737,-5.922,0.001,0.1,208.82043,1625176273999
Fix,GT,37.3958124,-122.1029737,-5.922,0.0019990273,0.1,208.82036,1625176274999
Fix,GT,37.3958124,-122.1029737,-5.922,0.0019983398,0.1,208.82019,1625176275999
Fix,GT,37.3958124,-122.1029737,-5.922,0.0022340163,0.1,208.82031,1625176276999
Fix,GT,37.3958124,-122.1029737,-5.922,0.001,0.1,208.8205,1625176277999
Fix,GT,37.3958124,-122.1029737,-5.922,0.001,0.1,208.82036,1625176278999
Fix,GT,37.3958124,-122.1029737,-5.922,0.0014135265,0.1,208.82048,1625176279999
Fix,GT,37.3958124,-122.1029737,-5.922,0.0014142136,0.1,208.82051,1625176280999
Fix,GT,37.3958124,-122.1029737,-5.922,0.0014142136,0.1,208.82072,1625176281999
Fix,GT,37.3958124,-122.1029737,-5.922,0.0014142136,0.1,208.82085,1625176282999
Fix,GT,37.3958124,-122.1029737,-5.922,0.0022347062,0.1,208.82077,1625176283999
Fix,GT,37.3958124,-122.1029737,-5.922,0.0010006862,0.1,208.82047,1625176284999
Fix,GT,37.3958124,-122.1029737,-5.922,0.0014135275,0.1,208.82053,1625176285999
Fix,GT,37.3958124,-122.1029737,-5.922,0.001,0.1,208.8205,1625176286999
Fix,GT,37.3958124,-122.1029737,-5.922,0.001,0.1,208.82068,1625176287999
Fix,GT,37.3958124,-122.1029737,-5.922,0.0014135281,0.1,208.82085,1625176288999
Fix,GT,37.3958124,-122.1029737,-5.922,0.001,0.1,208.82063,1625176289999
Fix,GT,37.3958124,-122.1029737,-5.922,1.654029e-06,0.1,208.82031,1625176290999
Fix,GT,37.3958124,-122.1029737,-5.922,1.6536118e-06,0.1,208.82002,1625176291999
Fix,GT,37.3958124,-122.1029737,-5.922,0.001,0.1,208.82004,1625176292999
Fix,GT,37.3958124,-122.1029737,-5.922,0.001,0.1,208.82025,1625176293999
Fix,GT,37.3958124,-122.1029737,-5.922,0.0009983478,0.1,208.82036,1625176294999
Fix,GT,37.3958124,-122.1029737,-5.922,0.0010006843,0.1,208.82039,1625176295999
Fix,GT,37.3958124,-122.1029737,-5.922,0.0014118779,0.1,208.82033,1625176296999
Fix,GT,37.3958124,-122.1029737,-5.922,0.001,0.1,208.82019,1625176297999
Fix,GT,37.3958124,-122.1029737,-5.922,0.001,0.1,208.82022,1625176298999
Fix,GT,37.3958124,-122.1029737,-5.922,0.0010006836,0.1,208.82033,1625176299999
Fix,GT,37.3958124,-122.1029737,-5.922,0.0010016499,0.1,208.82013,1625176300999
Fix,GT,37.3958124,-122.1029737,-5.922,0.0019983505,0.1,208.81938,1625176301999
Fix,GT,37.3958124,-122.1029737,-5.922,0.001998351,0.1,208.82031,1625176302999
Fix,GT,37.3958124,-122.1029737,-5.922,0.0019983514,0.1,208.82112,1625176303999
Fix,GT,37.3958124,-122.1029737,-5.922,0.001,0.1,208.82146,1625176304999
Fix,GT,37.3958124,-122.1029737,-5.922,0.001,0.1,208.82143,1625176305999
Fix,GT,37.3958124,-122.1029737,-5.922,0.001999035,0.1,208.82124,1625176306999
Fix,GT,37.3958124,-122.1029737,-5.922,0.001,0.1,208.82162,1625176307999
Fix,GT,37.3958124,-122.1029737,-5.922,0.001,0.1,208.82167,1625176308999
Fix,GT,37.3958124,-122.1029737,-5.922,0.002236068,0.1,208.8217,1625176309999
Fix,GT,37.3958124,-122.1029737,-5.922,0.0022356797,0.1,208.822,1625176310999
Fix,GT,37.3958124,-122.1029737,-5.922,0.002,0.1,208.82182,1625176311999
Fix,GT,37.3958124,-122.1029737,-5.922,0.0010016449,0.1,208.82172,1625176312999
Fix,GT,37.3958124,-122.1029737,-5.922,0.0022340354,0.1,208.81978,1625176313999
Fix,GT,37.3958124,-122.1029737,-5.922,0.0010006811,0.1,208.82072,1625176314999
Fix,GT,37.3958124,-122.1029737,-5.922,0.0014155644,0.1,208.82098,1625176315999
Fix,GT,37.3958124,-122.1029737,-5.922,0.0014135329,0.1,208.82072,1625176316999
Fix,GT,37.3958124,-122.1029737,-5.922,0.001,0.1,208.8205,1625176317999
Fix,GT,37.3958124,-122.1029737,-5.922,0.0014142136,0.1,208.82028,1625176318999
Fix,GT,37.3958124,-122.1029737,-5.922,0.001,0.1,208.82042,1625176319999
Fix,GT,37.3958124,-122.1029737,-5.922,0.001,0.1,208.82054,1625176320999
Fix,GT,37.3958124,-122.1029737,-5.922,0.0010016413,0.1,208.82062,1625176321999
Fix,GT,37.3958124,-122.1029737,-5.922,0.001,0.1,208.8205,1625176322999
Fix,GT,37.3958124,-122.1029737,-5.922,0.001,0.1,208.8205,1625176323999
Fix,GT,37.3958124,-122.1029737,-5.922,0.0,0.1,208.82048,1625176324999
Fix,GT,37.3958124,-122.1029737,-5.922,0.001,0.1,208.8205,1625176325999
Fix,GT,37.3958124,-122.1029737,-5.922,0.001,0.1,208.82048,1625176326999
Fix,GT,37.3958124,-122.1029737,-5.922,0.001,0.1,208.82042,1625176327999
Fix,GT,37.3958124,-122.1029737,-5.922,0.002,0.1,208.82054,1625176328999
Fix,GT,37.3958124,-122.1029737,-5.922,0.002,0.1,-151.17932,1625176329999
Fix,GT,37.3958124,-122.1029737,-5.922,0.002,0.1,208.82077,1625176330999
Fix,GT,37.3958124,-122.1029737,-5.922,0.001,0.1,208.82066,1625176331999
Fix,GT,37.3958124,-122.1029737,-5.922,0.002,0.1,208.82072,1625176332999
Fix,GT,37.3958124,-122.1029737,-5.922,0.0019983642,0.1,208.82076,1625176333999
Fix,GT,37.3958124,-122.1029737,-5.922,0.0010006775,0.1,208.82126,1625176334999
Fix,GT,37.3958124,-122.1029737,-5.922,0.001,0.1,208.82117,1625176335999
Fix,GT,37.3958124,-122.1029737,-5.922,0.0,0.1,208.82088,1625176336999
Fix,GT,37.3958124,-122.1029737,-5.922,0.001,0.1,208.82085,1625176337999
Fix,GT,37.3958124,-122.1029737,-5.922,0.0014135368,0.1,208.82072,1625176338999
Fix,GT,37.3958124,-122.1029737,-5.922,0.001415556,0.1,208.8207,1625176339999
Fix,GT,37.3958124,-122.1029737,-5.922,0.00282746,0.1,208.82059,1625176340999
Fix,GT,37.3958124,-122.1029737,-5.922,0.0028284271,0.1,208.82062,1625176341999
Fix,GT,37.3958124,-122.1029737,-5.922,0.0028284271,0.1,208.82079,1625176342999
Fix,GT,37.3958124,-122.1029737,-5.922,0.0028284271,0.1,208.82085,1625176343999
Fix,GT,37.3958124,-122.1029737,-5.922,0.0028284271,0.1,208.82089,1625176344999
Fix,GT,37.3958124,-122.1029737,-5.922,0.0028284271,0.1,208.82082,1625176345999
Fix,GT,37.3958124,-122.1029737,-5.922,0.0028284271,0.1,208.82076,1625176346999
Fix,GT,37.3958124,-122.1029737,-5.922,0.002236068,0.1,208.82071,1625176347999
Fix,GT,37.3958124,-122.1029737,-5.922,0.002236068,0.1,208.82101,1625176348999
Fix,GT,37.3958124,-122.1029737,-5.922,0.002236068,0.1,208.82114,1625176349999
Fix,GT,37.3958124,-122.1029737,-5.922,0.002236068,0.1,208.82103,1625176350999
Fix,GT,37.3958124,-122.1029737,-5.922,0.002,0.1,208.82088,1625176351999
Fix,GT,37.3958124,-122.1029737,-5.922,0.002,0.1,208.82097,1625176352999
Fix,GT,37.3958124,-122.1029737,-5.922,0.002,0.1,208.82112,1625176353999
Fix,GT,37.3958124,-122.1029737,-5.922,0.0014151664,0.1,208.82112,1625176354999
Fix,GT,37.3958124,-122.1029737,-5.922,0.0020018902,0.1,208.82121,1625176355999
Fix,GT,37.3958124,-122.1029737,-5.922,0.002236068,0.1,208.82109,1625176356999
Fix,GT,37.3958124,-122.1029737,-5.922,0.002236068,0.1,208.82103,1625176357999
Fix,GT,37.3958124,-122.1029737,-5.922,0.002236068,0.1,208.82094,1625176358999
Fix,GT,37.3958124,-122.1029737,-5.922,0.002236068,0.1,208.82103,1625176359999
Fix,GT,37.3958124,-122.1029737,-5.922,0.0020003836,0.1,208.8211,1625176360999
Fix,GT,37.3958124,-122.1029737,-5.922,0.0020003833,0.1,208.82135,1625176361999
Fix,GT,37.3958124,-122.1029737,-5.922,0.002,0.1,208.8214,1625176362999
Fix,GT,37.3958124,-122.1029737,-5.922,0.001,0.1,208.82115,1625176363999
Fix,GT,37.3958124,-122.1029737,-5.922,0.0014151637,0.1,208.82126,1625176364999
Fix,GT,37.3958124,-122.1029737,-5.922,0.001,0.1,208.82109,1625176365999
Fix,GT,37.3958124,-122.1029737,-5.922,0.001,0.1,208.821,1625176366999
Fix,GT,37.3958124,-122.1029737,-5.922,0.0014135423,0.1,208.8209,1625176367999
Fix,GT,37.3958124,-122.1029737,-5.922,0.0014142136,0.1,208.82086,1625176368999
Fix,GT,37.3958124,-122.1029737,-5.922,0.0014142136,0.1,208.82074,1625176369999
Fix,GT,37.3958124,-122.1029737,-5.922,0.0010006708,0.1,208.82089,1625176370999
Fix,GT,37.3958124,-122.1029737,-5.922,0.001,0.1,-151.17941,1625176371999
Fix,GT,37.3958124,-122.1029737,-5.922,0.001,0.1,208.82054,1625176372999
Fix,GT,37.3958124,-122.1029737,-5.922,0.0014142136,0.1,208.82082,1625176373999
Fix,GT,37.3958124,-122.1029737,-5.922,0.0014142136,0.1,208.82068,1625176374999
Fix,GT,37.3958124,-122.1029737,-5.922,0.0014142136,0.1,208.82076,1625176375999
Fix,GT,37.3958124,-122.1029737,-5.922,0.0014142136,0.1,208.82106,1625176376999
Fix,GT,37.3958124,-122.1029737,-5.922,0.0014142136,0.1,208.82126,1625176377999
Fix,GT,37.3958124,-122.1029737,-5.922,0.001,0.1,-151.17867,1625176378999
Fix,GT,37.3958124,-122.1029737,-5.922,0.0014142136,0.1,208.82162,1625176379999
Fix,GT,37.3958124,-122.1029737,-5.922,0.0014142136,0.1,208.82158,1625176380999
Fix,GT,37.3958124,-122.1029737,-5.922,0.0014135449,0.1,208.82167,1625176381999
Fix,GT,37.3958124,-122.1029737,-5.922,0.0010006686,0.1,208.8216,1625176382999
Fix,GT,37.3958124,-122.1029737,-5.922,0.001,0.1,208.82158,1625176383999
Fix,GT,37.3958124,-122.1029737,-5.922,0.001,0.1,208.82123,1625176384999
Fix,GT,37.3958124,-122.1029737,-5.922,0.001,0.1,208.82109,1625176385999
Fix,GT,37.3958124,-122.1029737,-5.922,0.001,0.1,208.82114,1625176386999
Fix,GT,37.3958124,-122.1029737,-5.922,0.001,0.1,208.82098,1625176387999
Fix,GT,37.3958124,-122.1029737,-5.922,0.0014142136,0.1,208.8209,1625176388999
Fix,GT,37.3958124,-122.1029737,-5.922,0.0014142136,0.1,208.8212,1625176389999
Fix,GT,37.3958124,-122.1029737,-5.922,0.001000667,0.1,208.82117,1625176390999
Fix,GT,37.3958124,-122.1029737,-5.922,0.0014142136,0.1,208.8213,1625176391999
Fix,GT,37.3958124,-122.1029737,-5.922,0.0022347453,0.1,208.82108,1625176392999
Fix,GT,37.3958124,-122.1029737,-5.922,0.0014155358,0.1,208.82108,1625176393999
Fix,GT,37.3958124,-122.1029737,-5.922,0.0014142136,0.1,208.82098,1625176394999
Fix,GT,37.3958124,-122.1029737,-5.922,0.0014142136,0.1,208.82121,1625176395999
Fix,GT,37.3958124,-122.1029737,-5.922,0.0014142136,0.1,208.8215,1625176396999
Fix,GT,37.3958124,-122.1029737,-5.922,0.0014142136,0.1,208.82158,1625176397999
Fix,GT,37.3958124,-122.1029737,-5.922,0.0014142136,0.1,208.82172,1625176398999
Fix,GT,37.3958124,-122.1029737,-5.922,0.0014142136,0.1,208.82184,1625176399999
Fix,GT,37.3958124,-122.1029737,-5.922,0.0010006652,0.1,208.8219,1625176400999
Fix,GT,37.3958124,-122.1029737,-5.922,0.001000665,0.1,208.82191,1625176401999
Fix,GT,37.3958124,-122.1029737,-5.922,0.0014135488,0.1,208.82188,1625176402999
Fix,GT,37.3958124,-122.1029737,-5.922,0.001,0.1,208.82182,1625176403999
Fix,GT,37.3958124,-122.1029737,-5.922,0.0,0.1,208.8217,1625176404999
Fix,GT,37.3958124,-122.1029737,-5.922,0.0009983965,0.1,208.82162,1625176405999
Fix,GT,37.3958124,-122.1029737,-5.922,0.000998397,0.1,208.82162,1625176406999
Fix,GT,37.3958124,-122.1029737,-5.922,0.001,0.1,208.82184,1625176407999
Fix,GT,37.3958124,-122.1029737,-5.922,0.001,0.1,208.82204,1625176408999
Fix,GT,37.3958124,-122.1029737,-5.922,0.0009983984,0.1,208.82182,1625176409999
Fix,GT,37.3958124,-122.1029737,-5.922,0.001,0.1,208.82191,1625176410999
Fix,GT,37.3958124,-122.1029737,-5.922,0.0010006631,0.1,208.82199,1625176411999
Fix,GT,37.3958124,-122.1029737,-5.922,0.0014142136,0.1,208.8219,1625176412999
Fix,GT,37.3958124,-122.1029737,-5.922,0.0010006627,0.1,208.82184,1625176413999
Fix,GT,37.3958124,-122.1029737,-5.922,0.0014142136,0.1,208.82167,1625176414999
Fix,GT,37.3958124,-122.1029737,-5.922,0.0014142136,0.1,208.8217,1625176415999
Fix,GT,37.3958124,-122.1029737,-5.922,0.0014142136,0.1,208.82153,1625176416999
Fix,GT,37.3958124,-122.1029737,-5.922,0.0014142136,0.1,208.8215,1625176417999
Fix,GT,37.3958124,-122.1029737,-5.922,0.0014142136,0.1,208.82146,1625176418999
Fix,GT,37.3958124,-122.1029737,-5.922,0.0014142136,0.1,208.82172,1625176419999
Fix,GT,37.3958124,-122.1029737,-5.922,0.0022347558,0.1,208.82156,1625176420999
Fix,GT,37.3958124,-122.1029737,-5.922,0.0014142136,0.1,208.82155,1625176421999
Fix,GT,37.3958124,-122.1029737,-5.922,0.0014142136,0.1,208.82126,1625176422999
Fix,GT,37.3958124,-122.1029737,-5.922,0.0014142136,0.1,208.82143,1625176423999
Fix,GT,37.3958124,-122.1029737,-5.922,0.0014142136,0.1,208.82147,1625176424999
Fix,GT,37.3958124,-122.1029737,-5.922,0.001,0.1,208.82167,1625176425999
Fix,GT,37.3958124,-122.1029737,-5.922,0.001,0.1,208.82137,1625176426999
Fix,GT,37.3958124,-122.1029737,-5.922,0.001,0.1,208.82146,1625176427999
Fix,GT,37.3958124,-122.1029737,-5.922,0.0010006599,0.1,208.8215,1625176428999
Fix,GT,37.3958124,-122.1029737,-5.922,0.0014142136,0.1,208.82155,1625176429999
Fix,GT,37.3958124,-122.1029737,-5.922,0.0014155221,0.1,208.82164,1625176430999
Fix,GT,37.3958124,-122.1029737,-5.922,0.0014142136,0.1,208.82144,1625176431999
Fix,GT,37.3958124,-122.1029737,-5.922,0.0014142136,0.1,208.82132,1625176432999
Fix,GT,37.3958124,-122.1029737,-5.922,0.0014142136,0.1,208.82109,1625176433999
Fix,GT,37.3958124,-122.1029737,-5.922,0.0014142136,0.1,208.8213,1625176434999
Fix,GT,37.3958124,-122.1029737,-5.922,0.001,0.1,208.82123,1625176435999
Fix,GT,37.3958124,-122.1029737,-5.922,1.5893579e-06,0.1,208.82123,1625176436999
Fix,GT,37.3958124,-122.1029737,-5.922,0.0014135555,0.1,208.82005,1625176437999
Fix,GT,37.3958124,-122.1029737,-5.922,0.001,0.1,208.82013,1625176438999
Fix,GT,37.3958124,-122.1029737,-5.922,0.0010006578,0.1,208.8201,1625176439999
Fix,GT,37.3958124,-122.1029737,-5.922,0.0014142136,0.1,208.82013,1625176440999
Fix,GT,37.3958124,-122.1029737,-5.922,0.0014142136,0.1,208.82043,1625176441999
Fix,GT,37.3958124,-122.1029737,-5.922,0.002234764,0.1,208.8206,1625176442999
Fix,GT,37.3958124,-122.1029737,-5.922,0.002236068,0.1,208.82127,1625176443999
Fix,GT,37.3958124,-122.1029737,-5.922,0.0014155167,0.1,208.82153,1625176444999
Fix,GT,37.3958124,-122.1029737,-5.922,0.0014155164,0.1,208.82149,1625176445999
Fix,GT,37.3958124,-122.1029737,-5.922,0.0022347656,0.1,208.82137,1625176446999
Fix,GT,37.3958124,-122.1029737,-5.922,0.0014142136,0.1,208.82133,1625176447999
Fix,GT,37.3958124,-122.1029737,-5.922,0.0014142136,0.1,208.82143,1625176448999
Fix,GT,37.3958124,-122.1029737,-5.922,0.0014142136,0.1,208.82129,1625176449999
Fix,GT,37.3958124,-122.1029737,-5.922,0.0014155145,0.1,208.82114,1625176450999
Fix,GT,37.3958124,-122.1029737,-5.922,0.0020003736,0.1,208.8212,1625176451999
Fix,GT,37.3958124,-122.1029737,-5.922,0.0020003736,0.1,208.82112,1625176452999
Fix,GT,37.3958124,-122.1029737,-5.922,0.002,0.1,208.821,1625176453999
Fix,GT,37.3958124,-122.1029737,-5.922,0.0020003733,0.1,208.82106,1625176454999
Fix,GT,37.3958124,-122.1029737,-5.922,0.002234769,0.1,208.82104,1625176455999
Fix,GT,37.3958124,-122.1029737,-5.922,0.0014142136,0.1,208.821,1625176456999
Fix,GT,37.3958124,-122.1029737,-5.922,0.0014142136,0.1,208.82082,1625176457999
Fix,GT,37.3958124,-122.1029737,-5.922,0.0014142136,0.1,208.82071,1625176458999
Fix,GT,37.3958124,-122.1029737,-5.922,0.0014142136,0.1,208.8207,1625176459999
Fix,GT,37.3958124,-122.1029737,-5.922,0.0010006538,0.1,208.8208,1625176460999
Fix,GT,37.3958124,-122.1029737,-5.922,0.0010006536,0.1,208.8211,1625176461999
Fix,GT,37.3958124,-122.1029737,-5.922,0.0014142136,0.1,208.8208,1625176462999
Fix,GT,37.3958124,-122.1029737,-5.922,0.0014155096,0.1,208.82092,1625176463999
Fix,GT,37.3958124,-122.1029737,-5.922,0.0014155093,0.1,208.8208,1625176464999
Fix,GT,37.3958124,-122.1029737,-5.922,0.0022347728,0.1,208.82112,1625176465999
Fix,GT,37.3958124,-122.1029737,-5.922,0.0014142136,0.1,208.82082,1625176466999
Fix,GT,37.3958124,-122.1029737,-5.922,0.002236068,0.1,208.82071,1625176467999
Fix,GT,37.3958124,-122.1029737,-5.922,0.0014155076,0.1,208.82062,1625176468999
Fix,GT,37.3958124,-122.1029737,-5.922,0.002236068,0.1,208.82024,1625176469999
Fix,GT,37.3958124,-122.1029737,-5.922,0.002236068,0.1,208.82016,1625176470999
Fix,GT,37.3958124,-122.1029737,-5.922,0.002,0.1,208.82048,1625176471999
Fix,GT,37.3958124,-122.1029737,-5.922,0.0019990788,0.1,208.82057,1625176472999
Fix,GT,37.3958124,-122.1029737,-5.922,0.0014142136,0.1,208.82072,1625176473999
Fix,GT,37.3958124,-122.1029737,-5.922,0.0014135625,0.1,208.82074,1625176474999
Fix,GT,37.3958124,-122.1029737,-5.922,0.001,0.1,208.8203,1625176475999
Fix,GT,37.3958124,-122.1029737,-5.922,2.2216448e-06,0.1,208.82019,1625176476999
Fix,GT,37.3958124,-122.1029737,-5.922,0.0010006506,0.1,208.82028,1625176477999
Fix,GT,37.3958124,-122.1029737,-5.922,0.0014135634,0.1,208.82019,1625176478999
Fix,GT,37.3958124,-122.1029737,-5.922,0.0014142136,0.1,208.82007,1625176479999
Fix,GT,37.3958124,-122.1029737,-5.922,0.0014142136,0.1,208.8202,1625176480999
Fix,GT,37.3958124,-122.1029737,-5.922,0.0014142136,0.1,208.82056,1625176481999
Fix,GT,37.3958124,-122.1029737,-5.922,0.0014142136,0.1,208.82066,1625176482999
Fix,GT,37.3958124,-122.1029737,-5.922,0.0014142136,0.1,208.82063,1625176483999
Fix,GT,37.3958124,-122.1029737,-5.922,0.0014142136,0.1,208.82048,1625176484999
Fix,GT,37.3958124,-122.1029737,-5.922,0.002236068,0.1,-151.17949,1625176485999
Fix,GT,37.3958124,-122.1029737,-5.922,0.0028262122,0.1,208.82063,1625176486999
Fix,GT,37.3958124,-122.1029737,-5.922,0.002236068,0.1,208.82079,1625176487999
Fix,GT,37.3958124,-122.1029737,-5.922,0.002236068,0.1,208.82071,1625176488999
Fix,GT,37.3958124,-122.1029737,-5.922,0.0022375172,0.1,208.82057,1625176489999
Fix,GT,37.3958124,-122.1029737,-5.922,0.0031622776,0.1,-151.1795,1625176490999
Fix,GT,37.3958124,-122.1029737,-5.922,0.0031622776,0.1,208.82048,1625176491999
Fix,GT,37.3958124,-122.1029737,-5.922,0.0022375162,0.1,208.8206,1625176492999
Fix,GT,37.3958124,-122.1029737,-5.922,0.0031608301,0.1,208.82079,1625176493999
Fix,GT,37.3958124,-122.1029737,-5.922,0.002236068,0.1,208.82071,1625176494999
Fix,GT,37.3958124,-122.1029737,-5.922,0.0022375146,0.1,208.8207,1625176495999
Fix,GT,37.3958124,-122.1029737,-5.922,0.002236068,0.1,208.82062,1625176496999
Fix,GT,37.3958124,-122.1029737,-5.922,0.002236068,0.1,208.82047,1625176497999
Fix,GT,37.3958124,-122.1029737,-5.922,0.0022356997,0.1,208.8202,1625176498999
Fix,GT,37.3958124,-122.1029737,-5.922,0.002236068,0.1,208.8206,1625176499999
Fix,GT,37.3958124,-122.1029737,-5.922,0.0010019277,0.1,208.82047,1625176500999
Fix,GT,37.3958124,-122.1029737,-5.922,0.0014154948,0.1,208.82053,1625176501999
Fix,GT,37.3958124,-122.1029737,-5.922,0.0022347872,0.1,208.82066,1625176502999
Fix,GT,37.3958124,-122.1029737,-5.922,0.0014142136,0.1,-151.17926,1625176503999
Fix,GT,37.3958124,-122.1029737,-5.922,0.0014135684,0.1,208.82053,1625176504999
Fix,GT,37.3958124,-122.1029737,-5.922,0.0014142136,0.1,208.82056,1625176505999
Fix,GT,37.3958124,-122.1029737,-5.922,0.0014142136,0.1,208.82066,1625176506999
Fix,GT,37.3958124,-122.1029737,-5.922,0.001,0.1,208.82054,1625176507999
Fix,GT,37.3958124,-122.1029737,-5.922,0.001,0.1,208.82048,1625176508999
Fix,GT,37.3958124,-122.1029737,-5.922,0.001,0.1,208.82045,1625176509999
Fix,GT,37.3958124,-122.1029737,-5.922,0.001000644,0.1,208.82048,1625176510999
Fix,GT,37.3958124,-122.1029737,-5.922,0.0022347907,0.1,208.82037,1625176511999
Fix,GT,37.3958124,-122.1029737,-5.922,0.0014142136,0.1,208.82036,1625176512999
Fix,GT,37.3958124,-122.1029737,-5.922,0.0022357013,0.1,208.82057,1625176513999
Fix,GT,37.3958124,-122.1029737,-5.922,0.0014142136,0.1,208.8207,1625176514999
Fix,GT,37.3958124,-122.1029737,-5.922,0.002234792,0.1,208.82063,1625176515999
Fix,GT,37.3958124,-122.1029737,-5.922,0.001415489,0.1,208.82065,1625176516999
Fix,GT,37.3958124,-122.1029737,-5.922,0.0014142136,0.1,208.82068,1625176517999
Fix,GT,37.3958124,-122.1029737,-5.922,0.002236068,0.1,208.82074,1625176518999
Fix,GT,37.3958124,-122.1029737,-5.922,0.0014142136,0.1,208.8207,1625176519999
Fix,GT,37.3958124,-122.1029737,-5.922,0.0014142136,0.1,208.82048,1625176520999
Fix,GT,37.3958124,-122.1029737,-5.922,0.0014142136,0.1,208.82042,1625176521999
Fix,GT,37.3958124,-122.1029737,-5.922,0.0014135719,0.1,208.82043,1625176522999
Fix,GT,37.3958124,-122.1029737,-5.922,0.001,0.1,208.82051,1625176523999
Fix,GT,37.3958124,-122.1029737,-5.922,0.001,0.1,208.82065,1625176524999
Fix,GT,37.3958124,-122.1029737,-5.922,0.0014135726,0.1,208.82036,1625176525999
Fix,GT,37.3958124,-122.1029737,-5.922,0.001,0.1,208.8205,1625176526999
Fix,GT,37.3958124,-122.1029737,-5.922,0.001,0.1,208.82072,1625176527999
Fix,GT,37.3958124,-122.1029737,-5.922,0.0014142136,0.1,208.82054,1625176528999
Fix,GT,37.3958124,-122.1029737,-5.922,0.0014142136,0.1,208.82043,1625176529999
Fix,GT,37.3958124,-122.1029737,-5.922,0.001,0.1,208.82079,1625176530999
Fix,GT,37.3958124,-122.1029737,-5.922,0.0014142136,0.1,208.82082,1625176531999
Fix,GT,37.3958124,-122.1029737,-5.922,0.0014142136,0.1,208.82072,1625176532999
Fix,GT,37.3958124,-122.1029737,-5.922,0.0022347993,0.1,208.82057,1625176533999
Fix,GT,37.3958124,-122.1029737,-5.922,0.0014142136,0.1,208.82059,1625176534999
Fix,GT,37.3958124,-122.1029737,-5.922,0.0014142136,0.1,208.82066,1625176535999
Fix,GT,37.3958124,-122.1029737,-5.922,0.002,0.1,208.82072,1625176536999
Fix,GT,37.3958124,-122.1029737,-5.922,0.0022357039,0.1,208.82077,1625176537999
Fix,GT,37.3958124,-122.1029737,-5.922,0.002,0.1,208.82077,1625176538999
Fix,GT,37.3958124,-122.1029737,-5.922,0.002,0.1,208.8207,1625176539999
Fix,GT,37.3958124,-122.1029737,-5.922,0.002,0.1,208.82056,1625176540999
Fix,GT,37.3958124,-122.1029737,-5.922,0.0010019033,0.1,208.82066,1625176541999
Fix,GT,37.3958124,-122.1029737,-5.922,0.0014142136,0.1,208.82068,1625176542999
Fix,GT,37.3958124,-122.1029737,-5.922,0.001001902,0.1,208.82109,1625176543999
Fix,GT,37.3958124,-122.1029737,-5.922,0.0022348037,0.1,208.8213,1625176544999
Fix,GT,37.3958124,-122.1029737,-5.922,0.001,0.1,208.82144,1625176545999
Fix,GT,37.3958124,-122.1029737,-5.922,0.0010006368,0.1,208.82137,1625176546999
Fix,GT,37.3958124,-122.1029737,-5.922,0.0014142136,0.1,208.82141,1625176547999
Fix,GT,37.3958124,-122.1029737,-5.922,0.0014135772,0.1,208.82144,1625176548999
Fix,GT,37.3958124,-122.1029737,-5.922,0.0009984642,0.1,208.8213,1625176549999
Fix,GT,37.3958124,-122.1029737,-5.922,0.0,0.1,208.82138,1625176550999
Fix,GT,37.3958124,-122.1029737,-5.922,0.0009984651,0.1,208.82146,1625176551999
Fix,GT,37.3958124,-122.1029737,-5.922,0.001,0.1,208.82155,1625176552999
Fix,GT,37.3958124,-122.1029737,-5.922,0.001,0.1,208.82161,1625176553999
Fix,GT,37.3958124,-122.1029737,-5.922,0.001,0.1,208.8218,1625176554999
Fix,GT,37.3958124,-122.1029737,-5.922,0.001,0.1,-151.17833,1625176555999
Fix,GT,37.3958124,-122.1029737,-5.922,0.001,0.1,208.82153,1625176556999
Fix,GT,37.3958124,-122.1029737,-5.922,0.001,0.1,208.82173,1625176557999
Fix,GT,37.3958124,-122.1029737,-5.922,0.0010006344,0.1,208.82175,1625176558999
Fix,GT,37.3958124,-122.1029737,-5.922,0.0014142136,0.1,208.82169,1625176559999
Fix,GT,37.3958124,-122.1029737,-5.922,0.001,0.1,-151.17836,1625176560999
Fix,GT,37.3958124,-122.1029737,-5.922,0.0014120501,0.1,208.82147,1625176561999
Fix,GT,37.3958124,-122.1029737,-5.922,0.001,0.1,208.82144,1625176562999
Fix,GT,37.3958124,-122.1029737,-5.922,0.001,0.1,208.82141,1625176563999
Fix,GT,37.3958124,-122.1029737,-5.922,0.0014142136,0.1,208.82146,1625176564999
Fix,GT,37.3958124,-122.1029737,-5.922,0.0010006329,0.1,208.82123,1625176565999
Fix,GT,37.3958124,-122.1029737,-5.922,0.0014142136,0.1,208.82112,1625176566999
Fix,GT,37.3958124,-122.1029737,-5.922,0.001,0.1,208.82112,1625176567999
Fix,GT,37.3958124,-122.1029737,-5.922,0.0010006323,0.1,208.82132,1625176568999
Fix,GT,37.3958124,-122.1029737,-5.922,0.001,0.1,208.82123,1625176569999
Fix,GT,37.3958124,-122.1029737,-5.922,0.001,0.1,208.82144,1625176570999
Fix,GT,37.3958124,-122.1029737,-5.922,0.001,0.1,-151.17865,1625176571999
Fix,GT,37.3958124,-122.1029737,-5.922,0.001,0.1,208.82129,1625176572999
Fix,GT,37.3958124,-122.1029737,-5.922,0.001,0.1,208.82117,1625176573999
Fix,GT,37.3958124,-122.1029737,-5.922,0.0014142136,0.1,208.82152,1625176574999
Fix,GT,37.3958124,-122.1029737,-5.922,0.001,0.1,208.82161,1625176575999
Fix,GT,37.3958124,-122.1029737,-5.922,0.001,0.1,208.82167,1625176576999
Fix,GT,37.3958124,-122.1029737,-5.922,1.521945e-06,0.1,208.82164,1625176577999
Fix,GT,37.3958124,-122.1029737,-5.922,0.0,0.1,-151.17834,1625176578999
Fix,GT,37.3958124,-122.1029737,-5.922,0.0,0.1,208.82156,1625176579999
Fix,GT,37.3958124,-122.1029737,-5.922,0.0,0.1,208.8215,1625176580999
Fix,GT,37.3958124,-122.1029737,-5.922,0.0,0.1,208.82141,1625176581999
Fix,GT,37.3958124,-122.1029737,-5.922,0.0,0.1,208.8214,1625176582999
Fix,GT,37.3958124,-122.1029737,-5.922,0.0,0.1,208.82158,1625176583999
Fix,GT,37.3958124,-122.1029737,-5.922,1.5184283e-06,0.1,208.82176,1625176584999
Fix,GT,37.3958124,-122.1029737,-5.922,0.001,0.1,-151.17833,1625176585999
Fix,GT,37.3958124,-122.1029737,-5.922,0.0009984827,0.1,208.8217,1625176586999
Fix,GT,37.3958124,-122.1029737,-5.922,0.0010006285,0.1,208.82135,1625176587999
Fix,GT,37.3958124,-122.1029737,-5.922,0.0014135855,0.1,208.82126,1625176588999
Fix,GT,37.3958124,-122.1029737,-5.922,0.001,0.1,208.82146,1625176589999
Fix,GT,37.3958124,-122.1029737,-5.922,0.0,0.1,208.82158,1625176590999
Fix,GT,37.3958124,-122.1029737,-5.922,0.0,0.1,208.82161,1625176591999
Fix,GT,37.3958124,-122.1029737,-5.922,0.0,0.1,208.82158,1625176592999
Fix,GT,37.3958124,-122.1029737,-5.922,0.0009984862,0.1,208.8214,1625176593999
Fix,GT,37.3958124,-122.1029737,-5.922,0.0009984866,0.1,208.82129,1625176594999
Fix,GT,37.3958124,-122.1029737,-5.922,0.0009984871,0.1,208.82155,1625176595999
Fix,GT,37.3958124,-122.1029737,-5.922,1.512468e-06,0.1,208.82167,1625176596999
Fix,GT,37.3958124,-122.1029737,-5.922,0.0,0.1,208.82169,1625176597999
Fix,GT,37.3958124,-122.1029737,-5.922,0.0010006261,0.1,208.8216,1625176598999
Fix,GT,37.3958124,-122.1029737,-5.922,0.0,0.1,208.82155,1625176599999
Fix,GT,37.3958124,-122.1029737,-5.922,1.5103818e-06,0.1,208.82118,1625176600999
Fix,GT,37.3958124,-122.1029737,-5.922,0.001,0.1,208.82153,1625176601999
Fix,GT,37.3958124,-122.1029737,-5.922,1.5094281e-06,0.1,208.82172,1625176602999
Fix,GT,37.3958124,-122.1029737,-5.922,1.5089513e-06,0.1,208.82187,1625176603999
Fix,GT,37.3958124,-122.1029737,-5.922,0.001,0.1,208.82175,1625176604999
Fix,GT,37.3958124,-122.1029737,-5.922,0.0014120811,0.1,208.82188,1625176605999
Fix,GT,37.3958124,-122.1029737,-5.922,1.5074611e-06,0.1,208.82188,1625176606999
Fix,GT,37.3958124,-122.1029737,-5.922,0.001,0.1,208.82195,1625176607999
Fix,GT,37.3958124,-122.1029737,-5.922,0.0009984936,0.1,208.8217,1625176608999
Fix,GT,37.3958124,-122.1029737,-5.922,1.5059114e-06,0.1,208.82182,1625176609999
Fix,GT,37.3958124,-122.1029737,-5.922,0.0014120846,0.1,208.82184,1625176610999
Fix,GT,37.3958124,-122.1029737,-5.922,0.0009984951,0.1,208.8216,1625176611999
Fix,GT,37.3958124,-122.1029737,-5.922,0.0,0.1,208.8218,1625176612999
Fix,GT,37.3958124,-122.1029737,-5.922,0.001,0.1,208.82175,1625176613999
Fix,GT,37.3958124,-122.1029737,-5.922,0.0014135909,0.1,208.82207,1625176614999
Fix,GT,37.3958124,-122.1029737,-5.922,0.0014135911,0.1,208.82222,1625176615999
Fix,GT,37.3958124,-122.1029737,-5.922,0.001,0.1,208.8222,1625176616999
Fix,GT,37.3958124,-122.1029737,-5.922,0.0009984982,0.1,208.8222,1625176617999
Fix,GT,37.3958124,-122.1029737,-5.922,1.501441e-06,0.1,208.82204,1625176618999
Fix,GT,37.3958124,-122.1029737,-5.922,0.0009984991,0.1,208.82195,1625176619999
Fix,GT,37.3958124,-122.1029737,-5.922,0.0,0.1,208.82185,1625176620999
Fix,GT,37.3958124,-122.1029737,-5.922,0.0014135923,0.1,208.82167,1625176621999
Fix,GT,37.3958124,-122.1029737,-5.922,0.0009985007,0.1,208.82178,1625176622999
Fix,GT,37.3958124,-122.1029737,-5.922,0.0010006209,0.1,208.8217,1625176623999
Fix,GT,37.3958124,-122.1029737,-5.922,0.0009985017,0.1,208.82176,1625176624999
Fix,GT,37.3958124,-122.1029737,-5.922,1.4978648e-06,0.1,208.82173,1625176625999
Fix,GT,37.3958124,-122.1029737,-5.922,0.001,0.1,208.82185,1625176626999
Fix,GT,37.3958124,-122.1029737,-5.922,0.001,0.1,208.8218,1625176627999
Fix,GT,37.3958124,-122.1029737,-5.922,0.001,0.1,208.82202,1625176628999
Fix,GT,37.3958124,-122.1029737,-5.922,0.0,0.1,208.82211,1625176629999
Fix,GT,37.3958124,-122.1029737,-5.922,0.0,0.1,208.8218,1625176630999
Fix,GT,37.3958124,-122.1029737,-5.922,0.0014120995,0.1,208.8219,1625176631999
Fix,GT,37.3958124,-122.1029737,-5.922,1.4944077e-06,0.1,208.82202,1625176632999
Fix,GT,37.3958124,-122.1029737,-5.922,0.0014135948,0.1,208.8221,1625176633999
Fix,GT,37.3958124,-122.1029737,-5.922,1.4934541e-06,0.1,208.82193,1625176634999
Fix,GT,37.3958124,-122.1029737,-5.922,0.0014135953,0.1,208.82173,1625176635999
Fix,GT,37.3958124,-122.1029737,-5.922,0.0010006182,0.1,208.82172,1625176636999
Fix,GT,37.3958124,-122.1029737,-5.922,0.001,0.1,208.82182,1625176637999
Fix,GT,37.3958124,-122.1029737,-5.922,0.0009985087,0.1,208.82204,1625176638999
Fix,GT,37.3958124,-122.1029737,-5.922,1.490891e-06,0.1,208.82199,1625176639999
Fix,GT,37.3958124,-122.1029737,-5.922,0.0,0.1,208.82181,1625176640999
Fix,GT,37.3958124,-122.1029737,-5.922,1.4898181e-06,0.1,208.8218,1625176641999
Fix,GT,37.3958124,-122.1029737,-5.922,0.001,0.1,208.82184,1625176642999
Fix,GT,37.3958124,-122.1029737,-5.922,0.001,0.1,208.82195,1625176643999
Fix,GT,37.3958124,-122.1029737,-5.922,0.0014142136,0.1,208.82208,1625176644999
Fix,GT,37.3958124,-122.1029737,-5.922,0.0014142136,0.1,208.82211,1625176645999
Fix,GT,37.3958124,-122.1029737,-5.922,0.0014135974,0.1,208.82188,1625176646999
Fix,GT,37.3958124,-122.1029737,-5.922,0.0014142136,0.1,-151.1783,1625176647999
Fix,GT,37.3958124,-122.1029737,-5.922,0.0014142136,0.1,208.82176,1625176648999
Fix,GT,37.3958124,-122.1029737,-5.922,0.0019991298,0.1,208.82175,1625176649999
Fix,GT,37.3958124,-122.1029737,-5.922,0.0014142136,0.1,208.82176,1625176650999
Fix,GT,37.3958124,-122.1029737,-5.922,0.0014142136,0.1,208.82195,1625176651999
Fix,GT,37.3958124,-122.1029737,-5.922,1.4843346e-06,0.1,208.82172,1625176652999
Fix,GT,37.3958124,-122.1029737,-5.922,0.001,0.1,208.82172,1625176653999
Fix,GT,37.3958124,-122.1029737,-5.922,0.0,0.1,208.82164,1625176654999
Fix,GT,37.3958124,-122.1029737,-5.922,0.0010006143,0.1,208.82158,1625176655999
Fix,GT,37.3958124,-122.1029737,-5.922,0.0014142136,0.1,208.8218,1625176656999
Fix,GT,37.3958124,-122.1029737,-5.922,0.0010006139,0.1,208.82188,1625176657999
Fix,GT,37.3958124,-122.1029737,-5.922,0.0014142136,0.1,208.82191,1625176658999
Fix,GT,37.3958124,-122.1029737,-5.922,0.0014136002,0.1,208.82187,1625176659999
Fix,GT,37.3958124,-122.1029737,-5.922,0.0014142136,0.1,208.82208,1625176660999
Fix,GT,37.3958124,-122.1029737,-5.922,0.0014136006,0.1,208.82222,1625176661999
Fix,GT,37.3958124,-122.1029737,-5.922,0.001,0.1,208.82214,1625176662999
Fix,GT,37.3958124,-122.1029737,-5.922,0.0014142136,0.1,208.82204,1625176663999
Fix,GT,37.3958124,-122.1029737,-5.922,0.0014142136,0.1,208.82228,1625176664999
Fix,GT,37.3958124,-122.1029737,-5.922,0.0019991344,0.1,208.82237,1625176665999
Fix,GT,37.3958124,-122.1029737,-5.922,0.0022342422,0.1,208.82266,1625176666999
Fix,GT,37.3958124,-122.1029737,-5.922,0.002236068,0.1,208.82254,1625176667999
Fix,GT,37.3958124,-122.1029737,-5.922,0.0022342436,0.1,208.82254,1625176668999
Fix,GT,37.3958124,-122.1029737,-5.922,0.0010014756,0.1,208.82245,1625176669999
Fix,GT,37.3958124,-122.1029737,-5.922,0.0019985249,0.1,208.82268,1625176670999
Fix,GT,37.3958124,-122.1029737,-5.922,0.001,0.1,208.82254,1625176671999
Fix,GT,37.3958124,-122.1029737,-5.922,0.0010014742,0.1,208.82266,1625176672999
Fix,GT,37.3958124,-122.1029737,-5.922,0.0019985265,0.1,208.82268,1625176673999
Fix,GT,37.3958124,-122.1029737,-5.922,0.001,0.1,208.82266,1625176674999
Fix,GT,37.3958124,-122.1029737,-5.922,0.0019985274,0.1,208.82272,1625176675999
Fix,GT,37.3958124,-122.1029737,-5.922,0.001,0.1,208.82277,1625176676999
Fix,GT,37.3958124,-122.1029737,-5.922,0.001,0.1,-151.17729,1625176677999
Fix,GT,37.3958124,-122.1029737,-5.922,0.001,0.1,208.82275,1625176678999
Fix,GT,37.3958124,-122.1029737,-5.922,0.001,0.1,208.82265,1625176679999
Fix,GT,37.3958124,-122.1029737,-5.922,0.001999139,0.1,208.82265,1625176680999
Fix,GT,37.3958124,-122.1029737,-5.922,0.0014150743,0.1,208.82268,1625176681999
Fix,GT,37.3958124,-122.1029737,-5.922,0.001001469,0.1,208.82281,1625176682999
Fix,GT,37.3958124,-122.1029737,-5.922,0.0019985316,0.1,208.82275,1625176683999
Fix,GT,37.3958124,-122.1029737,-5.922,0.001998532,0.1,208.82277,1625176684999
Fix,GT,37.3958124,-122.1029737,-5.922,0.002,0.1,208.8226,1625176685999
Fix,GT,37.3958124,-122.1029737,-5.922,0.001001467,0.1,208.82259,1625176686999
Fix,GT,37.3958124,-122.1029737,-5.922,0.002,0.1,208.82254,1625176687999
Fix,GT,37.3958124,-122.1029737,-5.922,0.0010018117,0.1,208.82248,1625176688999
Fix,GT,37.3958124,-122.1029737,-5.922,0.001,0.1,208.82253,1625176689999
Fix,GT,37.3958124,-122.1029737,-5.922,0.002,0.1,208.82262,1625176690999
Fix,GT,37.3958124,-122.1029737,-5.922,0.001,0.1,208.82272,1625176691999
Fix,GT,37.3958124,-122.1029737,-5.922,0.001,0.1,208.82271,1625176692999
Fix,GT,37.3958124,-122.1029737,-5.922,0.0010006061,0.1,208.82239,1625176693999
Fix,GT,37.3958124,-122.1029737,-5.922,0.0014136076,0.1,208.82246,1625176694999
Fix,GT,37.3958124,-122.1029737,-5.922,0.0,0.1,208.82239,1625176695999
Fix,GT,37.3958124,-122.1029737,-5.922,0.001,0.1,208.82214,1625176696999
Fix,GT,37.3958124,-122.1029737,-5.922,0.0010006053,0.1,208.8224,1625176697999
Fix,GT,37.3958124,-122.1029737,-5.922,0.001,0.1,208.823,1625176698999
Fix,GT,37.3958124,-122.1029737,-5.922,0.0014121487,0.1,208.8229,1625176699999
Fix,GT,37.3958124,-122.1029737,-5.922,0.0014142136,0.1,208.82268,1625176700999
Fix,GT,37.3958124,-122.1029737,-5.922,0.0014142136,0.1,208.82257,1625176701999
Fix,GT,37.3958124,-122.1029737,-5.922,0.0014142136,0.1,208.8224,1625176702999
Fix,GT,37.3958124,-122.1029737,-5.922,0.0014154118,0.1,208.82243,1625176703999
Fix,GT,37.3958124,-122.1029737,-5.922,0.002236068,0.1,208.82231,1625176704999
Fix,GT,37.3958124,-122.1029737,-5.922,0.002236068,0.1,208.8223,1625176705999
Fix,GT,37.3958124,-122.1029737,-5.922,0.002234871,0.1,208.82246,1625176706999
Fix,GT,37.3958124,-122.1029737,-5.922,0.0022348715,0.1,208.82259,1625176707999
Fix,GT,37.3958124,-122.1029737,-5.922,0.002234872,0.1,208.82248,1625176708999
Fix,GT,37.3958124,-122.1029737,-5.922,0.0014142136,0.1,208.82231,1625176709999
Fix,GT,37.3958124,-122.1029737,-5.922,0.002236068,0.1,208.82227,1625176710999
Fix,GT,37.3958124,-122.1029737,-5.922,0.002236068,0.1,208.82236,1625176711999
Fix,GT,37.3958124,-122.1029737,-5.922,0.001415408,0.1,208.82253,1625176712999
Fix,GT,37.3958124,-122.1029737,-5.922,0.0014142136,0.1,208.82275,1625176713999
Fix,GT,37.3958124,-122.1029737,-5.922,0.0014142136,0.1,208.82248,1625176714999
Fix,GT,37.3958124,-122.1029737,-5.922,0.0014142136,0.1,208.82233,1625176715999
Fix,GT,37.3958124,-122.1029737,-5.922,0.0014136124,0.1,208.8224,1625176716999
Fix,GT,37.3958124,-122.1029737,-5.922,0.0010006009,0.1,208.82262,1625176717999
Fix,GT,37.3958124,-122.1029737,-5.922,0.0014136127,0.1,208.8228,1625176718999
Fix,GT,37.3958124,-122.1029737,-5.922,0.0010006005,0.1,208.82259,1625176719999
Fix,GT,37.3958124,-122.1029737,-5.922,0.0014150626,0.1,208.82271,1625176720999
Fix,GT,37.3958124,-122.1029737,-5.922,0.0014142136,0.1,208.82295,1625176721999
Fix,GT,37.3958124,-122.1029737,-5.922,0.001,0.1,208.82307,1625176722999
Fix,GT,37.3958124,-122.1029737,-5.922,0.001,0.1,208.823,1625176723999
Fix,GT,37.3958124,-122.1029737,-5.922,0.001,0.1,208.82352,1625176724999
Fix,GT,37.3958124,-122.1029737,-5.922,0.0014142136,0.1,208.8235,1625176725999
Fix,GT,37.3958124,-122.1029737,-5.922,0.0019991528,0.1,208.82367,1625176726999
Fix,GT,37.3958124,-122.1029737,-5.922,0.0010005988,0.1,208.8237,1625176727999
Fix,GT,37.3958124,-122.1029737,-5.922,0.0014136151,0.1,208.8237,1625176728999
Fix,GT,37.3958124,-122.1029737,-5.922,0.0010005983,0.1,208.82379,1625176729999
Fix,GT,37.3958124,-122.1029737,-5.922,0.0014142136,0.1,208.82356,1625176730999
Fix,GT,37.3958124,-122.1029737,-5.922,0.0014142136,0.1,208.82362,1625176731999
Fix,GT,37.3958124,-122.1029737,-5.922,0.0010005977,0.1,208.82347,1625176732999
Fix,GT,37.3958124,-122.1029737,-5.922,0.0019971153,0.1,208.82411,1625176733999
Fix,GT,37.3958124,-122.1029737,-5.922,0.0010017822,0.1,208.8239,1625176734999
Fix,GT,37.3958124,-122.1029737,-5.922,0.0010014414,0.1,208.82391,1625176735999
Fix,GT,37.3958124,-122.1029737,-5.922,0.0014136168,0.1,208.82393,1625176736999
Fix,GT,37.3958124,-122.1029737,-5.922,0.001,0.1,208.82379,1625176737999
Fix,GT,37.3958124,-122.1029737,-5.922,0.001,0.1,208.82375,1625176738999
Fix,GT,37.3958124,-122.1029737,-5.922,1.4392139e-06,0.1,208.82362,1625176739999
Fix,GT,37.3958124,-122.1029737,-5.922,0.0009985613,0.1,208.82375,1625176740999
Fix,GT,37.3958124,-122.1029737,-5.922,0.0014136179,0.1,208.82368,1625176741999
Fix,GT,37.3958124,-122.1029737,-5.922,0.0014136181,0.1,208.8236,1625176742999
Fix,GT,37.3958124,-122.1029737,-5.922,0.0014142136,0.1,208.82349,1625176743999
Fix,GT,37.3958124,-122.1029737,-5.922,0.0014136186,0.1,208.82346,1625176744999
Fix,GT,37.3958124,-122.1029737,-5.922,0.0014142136,0.1,208.82329,1625176745999
Fix,GT,37.3958124,-122.1029737,-5.922,0.0014142136,0.1,-151.17647,1625176746999
Fix,GT,37.3958124,-122.1029737,-5.922,0.0014142136,0.1,208.82356,1625176747999
Fix,GT,37.3958124,-122.1029737,-5.922,0.002236068,0.1,208.82347,1625176748999
Fix,GT,37.3958124,-122.1029737,-5.922,0.002236068,0.1,208.82365,1625176749999
Fix,GT,37.3958124,-122.1029737,-5.922,0.0014153917,0.1,208.82365,1625176750999
Fix,GT,37.3958124,-122.1029737,-5.922,0.0014142136,0.1,208.82352,1625176751999
Fix,GT,37.3958124,-122.1029737,-5.922,0.0014142136,0.1,208.82356,1625176752999
Fix,GT,37.3958124,-122.1029737,-5.922,0.0014142136,0.1,208.82353,1625176753999
Fix,GT,37.3958124,-122.1029737,-5.922,0.001,0.1,208.82346,1625176754999
Fix,GT,37.3958124,-122.1029737,-5.922,0.0019971384,0.1,208.82385,1625176755999
Fix,GT,37.3958124,-122.1029737,-5.922,2.0226273e-06,0.1,208.82367,1625176756999
Fix,GT,37.3958124,-122.1029737,-5.922,0.001,0.1,208.82349,1625176757999
Fix,GT,37.3958124,-122.1029737,-5.922,0.0,0.1,208.8236,1625176758999
Fix,GT,37.3958124,-122.1029737,-5.922,0.0,0.1,208.82358,1625176759999
Fix,GT,37.3958124,-122.1029737,-5.922,1.4281869e-06,0.1,208.82364,1625176760999
Fix,GT,37.3958124,-122.1029737,-5.922,0.0,0.1,208.8239,1625176761999
Fix,GT,37.3958124,-122.1029737,-5.922,0.000998573,0.1,208.82393,1625176762999
Fix,GT,37.3958124,-122.1029737,-5.922,0.0,0.1,208.82378,1625176763999
Fix,GT,37.3958124,-122.1029737,-5.922,0.0,0.1,208.82393,1625176764999
Fix,GT,37.3958124,-122.1029737,-5.922,0.0,0.1,208.82391,1625176765999
Fix,GT,37.3958124,-122.1029737,-5.922,0.0,0.1,208.82402,1625176766999
Fix,GT,37.3958124,-122.1029737,-5.922,0.0009985757,0.1,208.82416,1625176767999
Fix,GT,37.3958124,-122.1029737,-5.922,0.0,0.1,208.82408,1625176768999
Fix,GT,37.3958124,-122.1029737,-5.922,0.0,0.1,208.824,1625176769999
Fix,GT,37.3958124,-122.1029737,-5.922,0.0,0.1,208.82407,1625176770999
Fix,GT,37.3958124,-122.1029737,-5.922,0.0,0.1,208.8242,1625176771999
Fix,GT,37.3958124,-122.1029737,-5.922,0.0009985784,0.1,208.82423,1625176772999
Fix,GT,37.3958124,-122.1029737,-5.922,0.0,0.1,208.82404,1625176773999
Fix,GT,37.3958124,-122.1029737,-5.922,0.001,0.1,208.82396,1625176774999
Fix,GT,37.3958124,-122.1029737,-5.922,0.0,0.1,208.82372,1625176775999
Fix,GT,37.3958124,-122.1029737,-5.922,0.0,0.1,-151.1763,1625176776999
Fix,GT,37.3958124,-122.1029737,-5.922,1.4189483e-06,0.1,208.82365,1625176777999
Fix,GT,37.3958124,-122.1029737,-5.922,0.001,0.1,208.82372,1625176778999
Fix,GT,37.3958124,-122.1029737,-5.922,1.417935e-06,0.1,208.82382,1625176779999
Fix,GT,37.3958124,-122.1029737,-5.922,1.4173389e-06,0.1,208.8239,1625176780999
Fix,GT,37.3958124,-122.1029737,-5.922,0.0,0.1,208.82382,1625176781999
Fix,GT,37.3958124,-122.1029737,-5.922,0.0009985837,0.1,208.8238,1625176782999
Fix,GT,37.3958124,-122.1029737,-5.922,0.0,0.1,-151.17632,1625176783999
Fix,GT,37.3958124,-122.1029737,-5.922,0.0,0.1,208.8237,1625176784999
Fix,GT,37.3958124,-122.1029737,-5.922,0.0009985854,0.1,208.82385,1625176785999
Fix,GT,37.3958124,-122.1029737,-5.922,0.0,0.1,208.82405,1625176786999
Fix,GT,37.3958124,-122.1029737,-5.922,0.0,0.1,208.82419,1625176787999
Fix,GT,37.3958124,-122.1029737,-5.922,0.0,0.1,208.82394,1625176788999
Fix,GT,37.3958124,-122.1029737,-5.922,0.001,0.1,208.8238,1625176789999
Fix,GT,37.3958124,-122.1029737,-5.922,0.0010005849,0.1,208.82396,1625176790999
Fix,GT,37.3958124,-122.1029737,-5.922,0.0014136289,0.1,208.824,1625176791999
Fix,GT,37.3958124,-122.1029737,-5.922,0.001,0.1,208.8241,1625176792999
Fix,GT,37.3958124,-122.1029737,-5.922,0.0014142136,0.1,208.82391,1625176793999
Fix,GT,37.3958124,-122.1029737,-5.922,0.001,0.1,208.8243,1625176794999
Fix,GT,37.3958124,-122.1029737,-5.922,0.001,0.1,208.82437,1625176795999
Fix,GT,37.3958124,-122.1029737,-5.922,0.001,0.1,208.82416,1625176796999
Fix,GT,37.3958124,-122.1029737,-5.922,0.001,0.1,208.82411,1625176797999
Fix,GT,37.3958124,-122.1029737,-5.922,0.0009985924,0.1,208.8243,1625176798999
Fix,GT,37.3958124,-122.1029737,-5.922,0.0,0.1,208.82452,1625176799999
Fix,GT,37.3958124,-122.1029737,-5.922,0.0009985934,0.1,208.8244,1625176800999
Fix,GT,37.3958124,-122.1029737,-5.922,0.0,0.1,208.82425,1625176801999
Fix,GT,37.3958124,-122.1029737,-5.922,0.001,0.1,208.82405,1625176802999
Fix,GT,37.3958124,-122.1029737,-5.922,0.000998595,0.1,208.8239,1625176803999
Fix,GT,37.3958124,-122.1029737,-5.922,0.0009985956,0.1,208.82372,1625176804999
Fix,GT,37.3958124,-122.1029737,-5.922,0.0,0.1,208.82396,1625176805999
Fix,GT,37.3958124,-122.1029737,-5.922,0.0009985965,0.1,208.82391,1625176806999
Fix,GT,37.3958124,-122.1029737,-5.922,0.0010005812,0.1,208.8241,1625176807999
Fix,GT,37.3958124,-122.1029737,-5.922,0.0,0.1,208.824,1625176808999
Fix,GT,37.3958124,-122.1029737,-5.922,0.001,0.1,208.82387,1625176809999
Fix,GT,37.3958124,-122.1029737,-5.922,0.0014136331,0.1,208.82396,1625176810999
Fix,GT,37.3958124,-122.1029737,-5.922,0.001,0.1,208.82426,1625176811999
Fix,GT,37.3958124,-122.1029737,-5.922,0.001,0.1,208.82414,1625176812999
Fix,GT,37.3958124,-122.1029737,-5.922,0.001,0.1,208.82402,1625176813999
Fix,GT,37.3958124,-122.1029737,-5.922,1.3990403e-06,0.1,208.82414,1625176814999
Fix,GT,37.3958124,-122.1029737,-5.922,1.3985039e-06,0.1,208.82407,1625176815999
Fix,GT,37.3958124,-122.1029737,-5.922,0.001,0.1,208.82402,1625176816999
Fix,GT,37.3958124,-122.1029737,-5.922,0.0,0.1,208.82393,1625176817999
Fix,GT,37.3958124,-122.1029737,-5.922,0.0,0.1,208.824,1625176818999
Fix,GT,37.3958124,-122.1029737,-5.922,0.0009986038,0.1,208.82397,1625176819999
Fix,GT,37.3958124,-122.1029737,-5.922,1.3957621e-06,0.1,208.82402,1625176820999
Fix,GT,37.3958124,-122.1029737,-5.922,1.3952256e-06,0.1,208.8239,1625176821999
Fix,GT,37.3958124,-122.1029737,-5.922,0.0,0.1,208.82402,1625176822999
Fix,GT,37.3958124,-122.1029737,-5.922,0.0,0.1,208.82416,1625176823999
Fix,GT,37.3958124,-122.1029737,-5.922,0.0,0.1,208.82437,1625176824999
Fix,GT,37.3958124,-122.1029737,-5.922,0.0,0.1,208.82431,1625176825999
Fix,GT,37.3958124,-122.1029737,-5.922,0.0,0.1,208.82434,1625176826999
Fix,GT,37.3958124,-122.1029737,-5.922,0.0,0.1,208.82422,1625176827999
Fix,GT,37.3958124,-122.1029737,-5.922,1.967752e-06,0.1,208.82413,1625176828999
Fix,GT,37.3958124,-122.1029737,-5.922,0.001,0.1,208.82413,1625176829999
Fix,GT,37.3958124,-122.1029737,-5.922,0.0014122473,0.1,208.82433,1625176830999
Fix,GT,37.3958124,-122.1029737,-5.922,1.389742e-06,0.1,208.82431,1625176831999
Fix,GT,37.3958124,-122.1029737,-5.922,0.0014142136,0.1,208.82433,1625176832999
Fix,GT,37.3958124,-122.1029737,-5.922,0.0010005753,0.1,208.82419,1625176833999
Fix,GT,37.3958124,-122.1029737,-5.922,0.0014142136,0.1,-151.17592,1625176834999
Fix,GT,37.3958124,-122.1029737,-5.922,0.0014142136,0.1,208.82417,1625176835999
Fix,GT,37.3958124,-122.1029737,-5.922,0.0014142136,0.1,208.82422,1625176836999
Fix,GT,37.3958124,-122.1029737,-5.922,0.0014136393,0.1,208.82428,1625176837999
Fix,GT,37.3958124,-122.1029737,-5.922,0.0014142136,0.1,208.82442,1625176838999
Fix,GT,37.3958124,-122.1029737,-5.922,0.0014136398,0.1,208.82428,1625176839999
Fix,GT,37.3958124,-122.1029737,-5.922,0.001,0.1,208.82445,1625176840999
Fix,GT,37.3958124,-122.1029737,-5.922,0.002234357,0.1,208.82454,1625176841999
Fix,GT,37.3958124,-122.1029737,-5.922,0.0014142136,0.1,208.82452,1625176842999
Fix,GT,37.3958124,-122.1029737,-5.922,0.001000573,0.1,208.82446,1625176843999
Fix,GT,37.3958124,-122.1029737,-5.922,0.001,0.1,208.82452,1625176844999
Fix,GT,37.3958124,-122.1029737,-5.922,0.001413641,0.1,208.82465,1625176845999
Fix,GT,37.3958124,-122.1029737,-5.922,0.0014142136,0.1,208.82452,1625176846999
Fix,GT,37.3958124,-122.1029737,-5.922,0.0014142136,0.1,208.82462,1625176847999
Fix,GT,37.3958124,-122.1029737,-5.922,0.0014142136,0.1,208.82462,1625176848999
Fix,GT,37.3958124,-122.1029737,-5.922,0.0014142136,0.1,208.82474,1625176849999
Fix,GT,37.3958124,-122.1029737,-5.922,0.0014142136,0.1,208.82486,1625176850999
Fix,GT,37.3958124,-122.1029737,-5.922,0.0022349346,0.1,208.82474,1625176851999
Fix,GT,37.3958124,-122.1029737,-5.922,0.0014142136,0.1,208.82469,1625176852999
Fix,GT,37.3958124,-122.1029737,-5.922,0.0014142136,0.1,208.82481,1625176853999
Fix,GT,37.3958124,-122.1029737,-5.922,0.0014142136,0.1,208.825,1625176854999
Fix,GT,37.3958124,-122.1029737,-5.922,0.0014142136,0.1,208.82503,1625176855999
Fix,GT,37.3958124,-122.1029737,-5.922,0.002000325,0.1,208.82501,1625176856999
Fix,GT,37.3958124,-122.1029737,-5.922,0.0014150194,0.1,208.82452,1625176857999
Fix,GT,37.3958124,-122.1029737,-5.922,0.001413644,0.1,208.82436,1625176858999
Fix,GT,37.3958124,-122.1029737,-5.922,0.0014142136,0.1,208.82446,1625176859999
Fix,GT,37.3958124,-122.1029737,-5.922,0.001,0.1,208.82454,1625176860999
Fix,GT,37.3958124,-122.1029737,-5.922,0.0010013734,0.1,208.82437,1625176861999
Fix,GT,37.3958124,-122.1029737,-5.922,0.0009986272,0.1,208.82426,1625176862999
Fix,GT,37.3958124,-122.1029737,-5.922,1.3723374e-06,0.1,208.82457,1625176863999
Fix,GT,37.3958124,-122.1029737,-5.922,0.001,0.1,208.82475,1625176864999
Fix,GT,37.3958124,-122.1029737,-5.922,0.0019986287,0.1,208.82462,1625176865999
Fix,GT,37.3958124,-122.1029737,-5.922,0.0010005679,0.1,208.82468,1625176866999
Fix,GT,37.3958124,-122.1029737,-5.922,1.370132e-06,0.1,208.82466,1625176867999
Fix,GT,37.3958124,-122.1029737,-5.922,0.0009986304,0.1,208.82477,1625176868999
Fix,GT,37.3958124,-122.1029737,-5.922,0.0,0.1,208.82484,1625176869999
Fix,GT,37.3958124,-122.1029737,-5.922,1.3684631e-06,0.1,208.82484,1625176870999
Fix,GT,37.3958124,-122.1029737,-5.922,0.001,0.1,208.8248,1625176871999
Fix,GT,37.3958124,-122.1029737,-5.922,0.001,0.1,208.82452,1625176872999
Fix,GT,37.3958124,-122.1029737,-5.922,0.001,0.1,208.82448,1625176873999
Fix,GT,37.3958124,-122.1029737,-5.922,0.001,0.1,208.82457,1625176874999
Fix,GT,37.3958124,-122.1029737,-5.922,0.0,0.1,208.82484,1625176875999
Fix,GT,37.3958124,-122.1029737,-5.922,0.0,0.1,208.82497,1625176876999
Fix,GT,37.3958124,-122.1029737,-5.922,0.0,0.1,208.82477,1625176877999
Fix,GT,37.3958124,-122.1029737,-5.922,0.001,0.1,208.82481,1625176878999
Fix,GT,37.3958124,-122.1029737,-5.922,0.0,0.1,208.82469,1625176879999
Fix,GT,37.3958124,-122.1029737,-5.922,0.001,0.1,208.82478,1625176880999
Fix,GT,37.3958124,-122.1029737,-5.922,0.0014142136,0.1,208.82484,1625176881999
Fix,GT,37.3958124,-122.1029737,-5.922,0.0010005641,0.1,208.8248,1625176882999
Fix,GT,37.3958124,-122.1029737,-5.922,0.001,0.1,208.82454,1625176883999
Fix,GT,37.3958124,-122.1029737,-5.922,1.3607741e-06,0.1,208.82484,1625176884999
Fix,GT,37.3958124,-122.1029737,-5.922,0.0010005635,0.1,208.82487,1625176885999
Fix,GT,37.3958124,-122.1029737,-5.922,1.3597012e-06,0.1,208.82465,1625176886999
Fix,GT,37.3958124,-122.1029737,-5.922,0.001,0.1,208.825,1625176887999
Fix,GT,37.3958124,-122.1029737,-5.922,1.9213062e-06,0.1,208.82487,1625176888999
Fix,GT,37.3958124,-122.1029737,-5.922,0.0,0.1,208.825,1625176889999
Fix,GT,37.3958124,-122.1029737,-5.922,0.0,0.1,208.82486,1625176890999
Fix,GT,37.3958124,-122.1029737,-5.922,0.0,0.1,208.82478,1625176891999
Fix,GT,37.3958124,-122.1029737,-5.922,0.0,0.1,208.82497,1625176892999
Fix,GT,37.3958124,-122.1029737,-5.922,0.0,0.1,208.82494,1625176893999
Fix,GT,37.3958124,-122.1029737,-5.922,1.3552905e-06,0.1,208.82497,1625176894999
Fix,GT,37.3958124,-122.1029737,-5.922,0.001,0.1,208.82523,1625176895999
Fix,GT,37.3958124,-122.1029737,-5.922,0.0,0.1,208.82501,1625176896999
Fix,GT,37.3958124,-122.1029737,-5.922,1.9143943e-06,0.1,208.8248,1625176897999
Fix,GT,37.3958124,-122.1029737,-5.922,0.0014150062,0.1,208.82503,1625176898999
Fix,GT,37.3958124,-122.1029737,-5.922,1.3525487e-06,0.1,208.82512,1625176899999
Fix,GT,37.3958124,-122.1029737,-5.922,0.0010016712,0.1,208.82452,1625176900999
Fix,GT,37.3958124,-122.1029737,-5.922,0.0009986486,0.1,208.82466,1625176901999
Fix,GT,37.3958124,-122.1029737,-5.922,0.001,0.1,-151.17514,1625176902999
Fix,GT,37.3958124,-122.1029737,-5.922,0.0009986497,0.1,208.82498,1625176903999
Fix,GT,37.3958124,-122.1029737,-5.922,0.0,0.1,208.82487,1625176904999
Fix,GT,37.3958124,-122.1029737,-5.922,0.0,0.1,208.82481,1625176905999
Fix,GT,37.3958124,-122.1029737,-5.922,1.3486148e-06,0.1,208.82465,1625176906999
Fix,GT,37.3958124,-122.1029737,-5.922,1.3480783e-06,0.1,208.82462,1625176907999
Fix,GT,37.3958124,-122.1029737,-5.922,0.0,0.1,208.82497,1625176908999
Fix,GT,37.3958124,-122.1029737,-5.922,0.0,0.1,208.82506,1625176909999
Fix,GT,37.3958124,-122.1029737,-5.922,0.0,0.1,208.82504,1625176910999
Fix,GT,37.3958124,-122.1029737,-5.922,0.0,0.1,208.8251,1625176911999
Fix,GT,37.3958124,-122.1029737,-5.922,0.0,0.1,208.825,1625176912999
Fix,GT,37.3958124,-122.1029737,-5.922,0.0,0.1,208.82498,1625176913999
Fix,GT,37.3958124,-122.1029737,-5.922,0.0009986559,0.1,208.82507,1625176914999
Fix,GT,37.3958124,-122.1029737,-5.922,0.0,0.1,208.82512,1625176915999
Fix,GT,37.3958124,-122.1029737,-5.922,0.001,0.1,208.82515,1625176916999
Fix,GT,37.3958124,-122.1029737,-5.922,1.342535e-06,0.1,208.82524,1625176917999
Fix,GT,37.3958124,-122.1029737,-5.922,0.0,0.1,208.82529,1625176918999
Fix,GT,37.3958124,-122.1029737,-5.922,1.3414622e-06,0.1,208.82523,1625176919999
Fix,GT,37.3958124,-122.1029737,-5.922,0.0,0.1,208.82503,1625176920999
Fix,GT,37.3958124,-122.1029737,-5.922,0.0,0.1,208.82501,1625176921999
Fix,GT,37.3958124,-122.1029737,-5.922,0.001,0.1,208.8251,1625176922999
Fix,GT,37.3958124,-122.1029737,-5.922,0.0,0.1,208.82541,1625176923999
Fix,GT,37.3958124,-122.1029737,-5.922,0.0,0.1,208.8252,1625176924999
Fix,GT,37.3958124,-122.1029737,-5.922,0.0,0.1,-151.17491,1625176925999
Fix,GT,37.3958124,-122.1029737,-5.922,0.0014123219,0.1,208.82516,1625176926999
Fix,GT,37.3958124,-122.1029737,-5.922,0.0014142136,0.1,208.82512,1625176927999
Fix,GT,37.3958124,-122.1029737,-5.922,0.0014142136,0.1,208.82521,1625176928999
Fix,GT,37.3958124,-122.1029737,-5.922,0.0014142136,0.1,208.82544,1625176929999
Fix,GT,37.3958124,-122.1029737,-5.922,0.0014136605,0.1,208.82556,1625176930999
Fix,GT,37.3958124,-122.1029737,-5.922,0.0009986651,0.1,208.82549,1625176931999
Fix,GT,37.3958124,-122.1029737,-5.922,1.33425e-06,0.1,208.8252,1625176932999
Fix,GT,37.3958124,-122.1029737,-5.922,0.0009986663,0.1,208.82504,1625176933999
Fix,GT,37.3958124,-122.1029737,-5.922,0.0014136613,0.1,208.82523,1625176934999
Fix,GT,37.3958124,-122.1029737,-5.922,0.0,0.1,208.82524,1625176935999
Fix,GT,37.3958124,-122.1029737,-5.922,0.0009986679,0.1,208.82538,1625176936999
Fix,GT,37.3958124,-122.1029737,-5.922,0.001,0.1,208.82523,1625176937999
Fix,GT,37.3958124,-122.1029737,-5.922,1.3309718e-06,0.1,208.82513,1625176938999
Fix,GT,37.3958124,-122.1029737,-5.922,0.001,0.1,208.82524,1625176939999
Fix,GT,37.3958124,-122.1029737,-5.922,0.001,0.1,208.82535,1625176940999
Fix,GT,37.3958124,-122.1029737,-5.922,0.001,0.1,208.82516,1625176941999
Fix,GT,37.3958124,-122.1029737,-5.922,0.001,0.1,208.82535,1625176942999
Fix,GT,37.3958124,-122.1029737,-5.922,0.0,0.1,208.8254,1625176943999
Fix,GT,37.3958124,-122.1029737,-5.922,0.0009986724,0.1,208.82542,1625176944999
Fix,GT,37.3958124,-122.1029737,-5.922,0.0,0.1,208.82529,1625176945999
Fix,GT,37.3958124,-122.1029737,-5.922,0.0,0.1,208.82507,1625176946999
Fix,GT,37.3958124,-122.1029737,-5.922,0.0009986742,0.1,208.8254,1625176947999
Fix,GT,37.3958124,-122.1029737,-5.922,0.0,0.1,208.82562,1625176948999
Fix,GT,37.3958124,-122.1029737,-5.922,0.0,0.1,208.82549,1625176949999
Fix,GT,37.3958124,-122.1029737,-5.922,0.0009986758,0.1,208.8255,1625176950999
Fix,GT,37.3958124,-122.1029737,-5.922,0.001,0.1,208.82573,1625176951999
Fix,GT,37.3958124,-122.1029737,-5.922,1.323104e-06,0.1,208.82556,1625176952999
Fix,GT,37.3958124,-122.1029737,-5.922,0.001,0.1,208.82559,1625176953999
Fix,GT,37.3958124,-122.1029737,-5.922,0.001,0.1,-151.1744,1625176954999
Fix,GT,37.3958124,-122.1029737,-5.922,0.001,0.1,208.82562,1625176955999
Fix,GT,37.3958124,-122.1029737,-5.922,0.001,0.1,208.82544,1625176956999
Fix,GT,37.3958124,-122.1029737,-5.922,0.001,0.1,208.82538,1625176957999
Fix,GT,37.3958124,-122.1029737,-5.922,0.001,0.1,208.82535,1625176958999
Fix,GT,37.3958124,-122.1029737,-5.922,0.001,0.1,208.82553,1625176959999
Fix,GT,37.3958124,-122.1029737,-5.922,0.001,0.1,208.82562,1625176960999
Fix,GT,37.3958124,-122.1029737,-5.922,0.000998682,0.1,208.82567,1625176961999
Fix,GT,37.3958124,-122.1029737,-5.922,0.001,0.1,208.82562,1625176962999
Fix,GT,37.3958124,-122.1029737,-5.922,0.001,0.1,-151.17456,1625176963999
Fix,GT,37.3958124,-122.1029737,-5.922,0.001,0.1,208.82538,1625176964999
Fix,GT,37.3958124,-122.1029737,-5.922,0.001,0.1,208.82547,1625176965999
Fix,GT,37.3958124,-122.1029737,-5.922,0.001,0.1,208.82564,1625176966999
Fix,GT,37.3958124,-122.1029737,-5.922,0.001,0.1,208.82584,1625176967999
Fix,GT,37.3958124,-122.1029737,-5.922,0.001,0.1,208.82599,1625176968999
Fix,GT,37.3958124,-122.1029737,-5.922,0.0014142136,0.1,208.82602,1625176969999
Fix,GT,37.3958124,-122.1029737,-5.922,0.0014142136,0.1,208.82593,1625176970999
Fix,GT,37.3958124,-122.1029737,-5.922,0.0014142136,0.1,208.8262,1625176971999
Fix,GT,37.3958124,-122.1029737,-5.922,0.0014123583,0.1,208.82632,1625176972999
Fix,GT,37.3958124,-122.1029737,-5.923,0.0010005431,0.1,208.82608,1625176973999
Fix,GT,37.3958124,-122.1029737,-5.924,0.0014142136,0.1,208.8258,1625176974999
Fix,GT,37.3958124,-122.1029737,-5.924,0.001,0.1,208.82588,1625176975999
Fix,GT,37.3958124,-122.1029737,-5.925,0.0014142136,0.1,208.82645,1625176976999
Fix,GT,37.3958125,-122.1029737,-5.934997381806373,0.0014136713,0.1,208.82632,1625176977999
Fix,GT,37.3958125,-122.1029737,-5.94,0.0010042433,0.1,208.8275,1625176978999
Fix,GT,37.3958125,-122.1029737,-5.94,0.0028276523,0.1,208.82619,1625176979999
Fix,GT,37.3958125,-122.1029737,-5.94,0.0031628571,0.1,208.81952,1625176980999
Fix,GT,37.3958117,-122.1029739,-5.944,0.32720897,0.1,208.17125,1625176981999
Fix,GT,37.3958056,-122.1029749,-5.9360013062953945,0.96627396,0.1,202.08804,1625176982999
Fix,GT,37.3957936,-122.1029745,-5.924002611517906,1.4616196,0.1,190.45338,1625176983999
Fix,GT,37.3957787,-122.1029713,-5.8930052208900445,1.745997,0.1,178.85223,1625176984999
Fix,GT,37.3957619,-122.1029678,-5.850005218505859,2.0018747,0.1,174.12665,1625176985999
Fix,GT,37.3957418,-122.1029681,-5.785007824540139,2.5322664,0.1,179.12134,1625176986999
Fix,GT,37.3957165,-122.1029752,-5.702006517469883,3.1778822,0.1,190.24171,1625176987999
Fix,GT,37.3956856,-122.1029928,-5.654013029575348,4.399301,0.1,203.46857,1625176988999
Fix,GT,37.3956459,-122.1030191,-5.603010419368744,5.579445,0.1,207.75217,1625176989999
Fix,GT,37.3955983,-122.1030538,-5.519016923725605,6.5924187,0.1,210.44518,1625176990999
Fix,GT,37.395545,-122.1030945,-5.428996096134186,7.1169047,0.1,211.0057,1625176991999
Fix,GT,37.3954904,-122.1031351,-5.401997398614883,6.91539,0.1,210.46059,1625176992999
Fix,GT,37.3954368,-122.1031706,-5.342011701405048,6.4847746,0.1,205.95058,1625176993999
Fix,GT,37.3953823,-122.1031862,-5.253010396003723,5.8609495,0.1,186.97511,1625176994999
Fix,GT,37.3953334,-122.1031665,-5.174003897070885,5.44369,0.1,156.82245,1625176995999
Fix,GT,37.395298,-122.1031194,-5.145011685848235,5.9474077,0.1,129.54407,1625176996999
Fix,GT,37.3952709,-122.1030549,-5.19898053252697,6.8734155,0.1,117.426056,1625176997999
Fix,GT,37.3952413,-122.1029805,-5.394968864917755,7.821718,0.1,116.58804,1625176998999
Fix,GT,37.395207,-122.1028968,-5.627972769320011,8.823271,0.1,117.137634,1625176999999
Fix,GT,37.3951689,-122.1028034,-5.831968892097473,9.65723,0.1,117.20471,1625177000999
Fix,GT,37.3951284,-122.1027058,-6.144953357458115,9.78115,0.1,117.57782,1625177001999
Fix,GT,37.3950877,-122.1026083,-6.299997410058976,9.656183,0.1,117.67377,1625177002999
