MessageType,Provider,LatitudeDegrees,LongitudeDegrees,AltitudeMeters,SpeedMps,AccuracyMeters,BearingDegrees,UnixTimeMillis
Fix,GT,34.2725377,-118.6156625,323.38100813164465,0.001,0.1,263.1892,1638904976000
Fix,GT,34.2725377,-118.6156625,323.3809942024385,0.001,0.1,263.18918,1638904977000
Fix,GT,34.2725377,-118.6156625,323.38100286113416,0.001,0.1,263.189,1638904978000
Fix,GT,34.2725377,-118.6156625,323.3809922071738,0.0009999999,0.099,263.1898,1638904979000
Fix,GT,34.2725377,-118.6156625,323.3809975906238,0.0,0.099,263.18948,1638904980000
Fix,GT,34.2725377,-118.6156625,323.381006211673,0.0,0.1,263.18964,1638904981000
Fix,GT,34.2725377,-118.6156625,323.3809955577126,2.7389356e-06,0.1,263.1899,1638904982000
Fix,GT,34.2725377,-118.6156625,323.3810041787618,0.0010023897,0.1,263.18915,1638904983000
Fix,GT,34.2725377,-118.6156625,323.38099352480145,0.0009999999,0.099,263.18903,1638904984000
Fix,GT,34.2725377,-118.6156625,323.3810053834499,0.0009980738,0.1,263.18887,1638904985000
Fix,GT,34.2725377,-118.6156625,323.38099476713603,0.0009999999,0.1,263.18896,1638904986000
Fix,GT,34.2725377,-118.6156625,323.38100338818526,0.001000795,0.1,263.18918,1638904987000
Fix,GT,34.2725377,-118.6156625,323.3809959718241,0.0014134201,0.1,263.18933,1638904988000
Fix,GT,34.2725377,-118.6156625,323.3810045928733,0.0049964855,0.1,263.18973,1638904989000
Fix,GT,34.2725378,-118.6156625,323.38099717651227,0.004249079,0.099,263.18427,1638904990000
Fix,GT,34.2725378,-118.6156625,323.3830090352166,0.018442536,0.1,263.14777,1638904991000
Fix,GT,34.2725368,-118.6156646,323.3940073244748,0.3410862,0.1,260.77237,1638904992000
Fix,GT,34.2725357,-118.6156667,323.40799610034446,0.030376608,0.1,258.10315,1638904993000
Fix,GT,34.2725358,-118.6156667,323.4090060616118,0.011992539,0.1,258.08185,1638904994000
Fix,GT,34.2725358,-118.6156667,323.40900053603855,0.013148875,0.1,258.08136,1638904995000
Fix,GT,34.2725359,-118.6156667,323.4099912275782,0.016275117,0.1,258.07996,1638904996000
Fix,GT,34.272536,-118.6156668,323.41100308729966,0.05515848,0.1,257.9934,1638904997000
Fix,GT,34.2725349,-118.6156688,323.4250013130331,0.26325086,0.1,255.2952,1638904998000
Fix,GT,34.2725329,-118.615672,323.4439990003128,0.5203492,0.1,250.87332,1638904999000
Fix,GT,34.2725267,-118.6156793,323.4800089736845,1.2207307,0.1,239.69963,1638905000000
Fix,GT,34.2725122,-118.6156881,323.4669940625364,1.941894,0.1,218.18541,1638905001000
Fix,GT,34.2724893,-118.6156881,323.5290085554525,2.5618525,0.099,188.6624,1638905002000
Fix,GT,34.272464,-118.6156682,323.5960059675153,3.435173,0.1,150.80219,1638905003000
Fix,GT,34.2724501,-118.6156246,323.45595940787103,4.632375,0.1,111.2955,1638905004000
Fix,GT,34.2724501,-118.6155639,323.14595246205624,6.3394427,0.1,88.66168,1638905005000
Fix,GT,34.2724555,-118.6154847,322.8089354135925,8.228989,0.1,84.97983,1638905006000
Fix,GT,34.2724644,-118.6153854,322.36389760231816,10.298321,0.1,83.67447,1638905007000
Fix,GT,34.272477,-118.615264,321.88290333823625,12.175749,0.1,82.46951,1638905008000
Fix,GT,34.2724922,-118.6151233,321.3538569812212,13.946937,0.099,82.66858,1638905009000
Fix,GT,34.2725092,-118.614964,320.6348630247887,15.50011,0.1,82.51019,1638905010000
Fix,GT,34.2725276,-118.6147921,319.82684766028086,16.204012,0.1,82.6763,1638905011000
Fix,GT,34.2725457,-118.6146175,319.034834188507,15.984835,0.1,82.79941,1638905012000
Fix,GT,34.2725628,-118.6144504,318.2088463751116,14.889961,0.1,82.65573,1638905013000
Fix,GT,34.2725776,-118.6142964,317.3418315728202,13.815094,0.1,84.15549,1638905014000
Fix,GT,34.2725799,-118.6141537,316.4708246732416,12.692427,0.1,92.45996,1638905015000
Fix,GT,34.2725592,-118.6140204,315.4247986023132,12.649836,0.099,105.49597,1638905016000
Fix,GT,34.2725101,-118.6138939,314.3388339021064,13.411841,0.1,120.963684,1638905017000
Fix,GT,34.2724271,-118.6137825,313.56187135459845,14.385699,0.1,138.66681,1638905018000
Fix,GT,34.2723149,-118.6136976,312.77483585268743,15.216002,0.1,153.1258,1638905019000
Fix,GT,34.2721883,-118.6136266,311.9078455679156,15.68824,0.1,154.79388,1638905020000
Fix,GT,34.2720645,-118.6135445,311.103866087367,15.595125,0.1,147.66577,1638905021000
Fix,GT,34.271955,-118.6134374,310.4018680594987,15.737631,0.1,136.42767,1638905022000
Fix,GT,34.27186,-118.6133072,309.5148530529457,16.133898,0.1,127.87634,1638905023000
Fix,GT,34.2717815,-118.6131578,308.76288951848466,16.374798,0.1,118.57471,1638905024000
Fix,GT,34.2717245,-118.6129949,308.2469299488548,15.91225,0.1,108.35034,1638905025000
Fix,GT,34.2716965,-118.612828,307.9489608205458,15.5393305,0.1,96.17932,1638905026000
Fix,GT,34.2717007,-118.6126581,307.81599638317545,15.8321705,0.1,82.61252,1638905027000
Fix,GT,34.2717365,-118.6124881,307.83399674534706,16.424028,0.099,72.01483,1638905028000
Fix,GT,34.2717841,-118.6123157,307.8270073276116,17.009064,0.1,72.15564,1638905029000
Fix,GT,34.2718279,-118.612135,307.80498425368404,17.818632,0.1,74.23627,1638905030000
Fix,GT,34.2718704,-118.6119416,307.77697602552735,18.99474,0.099,75.602844,1638905031000
Fix,GT,34.2719131,-118.6117364,307.7180020419162,19.949215,0.1,75.687164,1638905032000
Fix,GT,34.2719584,-118.6115237,307.6389931904605,20.406761,0.1,75.28345,1638905033000
Fix,GT,34.2720061,-118.6113104,307.66599463041496,20.224714,0.1,74.230194,1638905034000
Fix,GT,34.2720569,-118.6111009,307.5829753464946,19.980637,0.1,73.17743,1638905035000
Fix,GT,34.272109,-118.6108952,307.6560208577541,19.677137,0.1,72.789,1638905036000
Fix,GT,34.2721602,-118.6106912,307.68299814625084,19.531801,0.1,73.63107,1638905037000
Fix,GT,34.272205,-118.6104873,307.6709933625096,19.410044,0.1,76.55557,1638905038000
Fix,GT,34.2722397,-118.61028,307.63098337917,19.485159,0.1,80.08731,1638905039000
Fix,GT,34.2722647,-118.6100718,307.4569518248157,19.311205,0.1,83.035706,1638905040000
Fix,GT,34.2722804,-118.609864,307.08889726282285,19.1739,0.1,86.00897,1638905041000
Fix,GT,34.2722895,-118.6096562,306.45386640244107,19.171774,0.1,87.188354,1638905042000
Fix,GT,34.2722978,-118.6094476,305.5408076224787,19.292652,0.1,87.19379,1638905043000
Fix,GT,34.2723067,-118.609237,304.28877055076373,19.554914,0.1,86.90674,1638905044000
Fix,GT,34.2723161,-118.6090233,303.0517834790738,19.828098,0.1,86.95743,1638905045000
Fix,GT,34.2723249,-118.6088085,301.8638061956572,19.61408,0.1,87.26874,1638905046000
Fix,GT,34.272332,-118.6085983,300.73080707741667,19.282185,0.099,87.93918,1638905047000
Fix,GT,34.2723334,-118.608388,299.518794642722,19.513897,0.1,91.28171,1638905048000
Fix,GT,34.2723207,-118.6081757,298.2567734184985,19.75293,0.1,96.32312,1638905049000
Fix,GT,34.2722922,-118.607963,297.05882997732124,19.975872,0.1,101.17743,1638905050000
Fix,GT,34.2722547,-118.6077501,296.0388410794628,20.078878,0.099,101.55002,1638905051000
Fix,GT,34.2722229,-118.6075362,295.4338658942725,19.711702,0.1,98.672485,1638905052000
Fix,GT,34.272204,-118.6073256,294.9449254987106,19.346968,0.1,94.13129,1638905053000
Fix,GT,34.2721981,-118.6071167,294.63695680765704,19.14328,0.1,90.20322,1638905054000
Fix,GT,34.2722048,-118.60691,294.4110164036356,18.863989,0.1,85.18625,1638905055000
Fix,GT,34.2722282,-118.6067091,294.6160580477514,18.435066,0.099,79.452484,1638905056000
Fix,GT,34.2722647,-118.6065167,295.05512211444574,17.868933,0.1,75.23358,1638905057000
Fix,GT,34.2723094,-118.6063351,295.75611525589414,16.926771,0.1,72.04224,1638905058000
Fix,GT,34.272355,-118.6061656,296.59117144672143,15.898707,0.1,73.062225,1638905059000
Fix,GT,34.2723866,-118.6060022,297.6751840145976,15.1155615,0.099,79.4765,1638905060000
Fix,GT,34.2724026,-118.6058417,298.85219303512014,14.753802,0.1,85.31229,1638905061000
Fix,GT,34.2724066,-118.6056841,300.0041908740644,14.380085,0.1,90.00058,1638905062000
Fix,GT,34.2724002,-118.6055328,301.1391721050069,13.534919,0.1,94.593445,1638905063000
Fix,GT,34.2723855,-118.6053928,302.205178209364,12.405609,0.1,98.52185,1638905064000
Fix,GT,34.2723671,-118.605271,303.1591179194461,10.009882,0.1,100.64453,1638905065000
Fix,GT,34.2723531,-118.6051807,303.8070844750386,6.9392586,0.1,100.27161,1638905066000
Fix,GT,34.2723432,-118.6051215,304.2420478716896,4.251456,0.1,101.578125,1638905067000
Fix,GT,34.2723368,-118.605089,304.4900179713551,1.9063286,0.1,103.298706,1638905068000
Fix,GT,34.2723343,-118.605078,304.57000933067536,0.26398134,0.1,103.82391,1638905069000
Fix,GT,34.2723343,-118.6050779,304.5630008154834,0.005825081,0.1,103.84964,1638905070000
Fix,GT,34.2723343,-118.6050779,304.56299397251405,0.0036048288,0.099,103.849304,1638905071000
Fix,GT,34.2723343,-118.6050779,304.5630082966572,0.002236068,0.1,103.84924,1638905072000
Fix,GT,34.2723343,-118.6050779,304.5630075166295,0.002236068,0.1,103.84955,1638905073000
Fix,GT,34.2723343,-118.6050779,304.56299166788705,0.001,0.1,103.84958,1638905074000
Fix,GT,34.2723343,-118.6050779,304.5620059920105,0.0010000002,0.1,103.84958,1638905075000
Fix,GT,34.2723343,-118.6050779,304.56200216279666,0.0,0.1,103.84973,1638905076000
Fix,GT,34.2723343,-118.6050779,304.5619983690386,0.0,0.1,103.84955,1638905077000
Fix,GT,34.2723343,-118.6050779,304.56199149063605,0.0009983941,0.1,103.84943,1638905078000
Fix,GT,34.2723343,-118.6050779,304.56200581473206,1.60249e-06,0.1,103.849335,1638905079000
Fix,GT,34.2723343,-118.6050779,304.5620020209739,0.000998401,0.1,103.849976,1638905080000
Fix,GT,34.2723343,-118.6050779,304.5620012409489,0.0009984043,0.1,103.84973,1638905081000
Fix,GT,34.2723343,-118.6050779,304.5620035101127,0.0014142136,0.1,103.84973,1638905082000
Fix,GT,34.2723343,-118.6050779,304.5620027300876,0.0014142136,0.1,103.84979,1638905083000
Fix,GT,34.2723343,-118.6050779,304.56200499925137,0.0014135569,0.1,103.84976,1638905084000
Fix,GT,34.2723343,-118.6050779,304.562004254682,0.001998418,0.1,103.8501,1638905085000
Fix,GT,34.2723343,-118.6050779,304.5620065238457,0.0009984213,0.1,103.84943,1638905086000
Fix,GT,34.2723343,-118.6050779,304.56200574382075,0.0009984247,0.1,103.84955,1638905087000
Fix,GT,34.2723343,-118.6050779,304.5620049637957,0.0009984282,0.1,103.84979,1638905088000
Fix,GT,34.2723343,-118.6050779,304.5620011345819,0.0,0.1,103.849365,1638905089000
Fix,GT,34.2723343,-118.6050779,304.5620003900125,0.000998435,0.1,103.84955,1638905090000
Fix,GT,34.2723343,-118.6050779,304.56199351161,0.001,0.099,103.84955,1638905091000
Fix,GT,34.2723343,-118.6050779,304.5619927315849,0.0,0.1,103.84949,1638905092000
Fix,GT,34.2723343,-118.6050779,304.56199500074865,1.55489e-06,0.1,103.849304,1638905093000
Fix,GT,34.2723343,-118.6050779,304.5619973053681,1.5515001e-06,0.1,103.849365,1638905094000
Fix,GT,34.2723343,-118.6050779,304.56199652534303,1.5481002e-06,0.1,103.84958,1638905095000
Fix,GT,34.2723343,-118.6050779,304.56199574531803,0.001,0.1,103.849396,1638905096000
Fix,GT,34.2723343,-118.6050779,304.56199496529297,0.001,0.1,103.84949,1638905097000
Fix,GT,34.2723343,-118.6050779,304.561994185268,0.0009999999,0.1,103.84924,1638905098000
Fix,GT,34.2723343,-118.6050779,304.56199344069864,0.001,0.1,103.849396,1638905099000
Fix,GT,34.2723343,-118.6050779,304.56200776479466,0.0014142137,0.1,103.849335,1638905100000
Fix,GT,34.2723343,-118.6050779,304.5620069847696,0.0014142136,0.1,103.849304,1638905101000
Fix,GT,34.2723343,-118.6050779,304.56200315555583,0.0014135821,0.1,103.84958,1638905102000
Fix,GT,34.2723343,-118.6050779,304.5620024109865,0.0010006301,0.1,103.849365,1638905103000
Fix,GT,34.2723343,-118.6050779,304.56200163096145,0.0009984826,0.1,103.84921,1638905104000
Fix,GT,34.2723343,-118.6050779,304.5620039001252,0.0014135864,0.1,103.84906,1638905105000
Fix,GT,34.2723343,-118.6050779,304.56200616928885,0.001,0.1,103.84915,1638905106000
Fix,GT,34.2723343,-118.6050779,304.56199333433153,0.001,0.1,103.849365,1638905107000
Fix,GT,34.2723343,-118.6050779,304.5619956034953,0.001,0.1,103.849396,1638905108000
Fix,GT,34.2723343,-118.6050779,304.5620009218477,0.0009984995,0.1,103.84955,1638905109000
Fix,GT,34.2723343,-118.6050779,304.5619911360792,0.0,0.1,103.849304,1638905110000
Fix,GT,34.2723343,-118.6050779,304.56199340524296,0.0009985062,0.099,103.84915,1638905111000
Fix,GT,34.2723343,-118.6050779,304.5619957098623,1.4904001e-06,0.1,103.84924,1638905112000
Fix,GT,34.2723343,-118.6050779,304.56199797902605,1.4870101e-06,0.1,103.849304,1638905113000
Fix,GT,34.2723343,-118.6050779,304.5620002481898,0.0,0.1,103.849304,1638905114000
Fix,GT,34.2723343,-118.6050779,304.56200556654227,1.4802401e-06,0.1,103.84921,1638905115000
Fix,GT,34.2723343,-118.6050779,304.5619927315849,0.0,0.1,103.84909,1638905116000
Fix,GT,34.2723343,-118.6050779,304.5619950007487,0.0009985266,0.1,103.849,1638905117000
Fix,GT,34.2723343,-118.6050779,304.5620003191012,0.0,0.1,103.849,1638905118000
Fix,GT,34.2723343,-118.6050779,304.56200563745364,0.0009985333,0.1,103.84897,1638905119000
Fix,GT,34.2723343,-118.6050779,304.5620048574286,0.0009985367,0.1,103.84903,1638905120000
Fix,GT,34.2723343,-118.6050779,304.56199507166,0.001,0.1,103.84918,1638905121000
Fix,GT,34.2723343,-118.6050779,304.56200039001254,0.0,0.1,103.848755,1638905122000
Fix,GT,34.2723343,-118.6050779,304.56200265917624,0.0,0.1,103.84866,1638905123000
Fix,GT,34.2723343,-118.6050779,304.5620079775288,1.44979e-06,0.1,103.848816,1638905124000
Fix,GT,34.2723343,-118.6050779,304.5619920933826,0.0009999999,0.099,103.84885,1638905125000
Fix,GT,34.2723343,-118.6050779,304.561994398002,0.0014136158,0.1,103.84891,1638905126000
Fix,GT,34.2723343,-118.6050779,304.56199971635453,0.002236068,0.1,103.849,1638905127000
Fix,GT,34.2723343,-118.6050779,304.56200503470706,0.0028304583,0.1,103.84885,1638905128000
Fix,GT,34.2723343,-118.6050779,304.56199219974974,0.0036064642,0.1,103.84848,1638905129000
Fix,GT,34.2723343,-118.6050779,304.5620005318353,0.004243723,0.1,103.84897,1638905130000
Fix,GT,34.2723343,-118.6050779,304.5609997872665,0.005002001,0.1,103.849,1638905131000
Fix,GT,34.2723342,-118.6050779,304.55800673196995,0.040537413,0.1,103.85037,1638905132000
Fix,GT,34.2723332,-118.6050731,304.5810064635792,1.1930692,0.1,104.01083,1638905133000
Fix,GT,34.2723283,-118.6050509,304.7430299353301,3.0080047,0.1,104.31964,1638905134000
Fix,GT,34.2723196,-118.6050116,305.06405681961405,4.4039783,0.1,104.43207,1638905135000
Fix,GT,34.2723109,-118.6049549,305.50306778847704,6.0496883,0.1,98.455414,1638905136000
Fix,GT,34.2723142,-118.6048827,306.06908840535255,7.1002483,0.099,83.132996,1638905137000
Fix,GT,34.2723397,-118.604805,306.8031201893087,8.076998,0.1,62.982666,1638905138000
Fix,GT,34.2723925,-118.6047361,307.67111423188794,9.145595,0.1,40.966003,1638905139000
Fix,GT,34.272471,-118.6046838,308.5461190132569,10.635745,0.1,24.32785,1638905140000
Fix,GT,34.2725685,-118.6046447,309.4601260992093,12.017614,0.1,16.716034,1638905141000
Fix,GT,34.2726776,-118.6046095,310.45414089438924,13.114571,0.1,14.034821,1638905142000
Fix,GT,34.2727986,-118.6045749,311.5191584488682,14.455757,0.1,12.696564,1638905143000
Fix,GT,34.272932,-118.6045412,312.6921801293194,15.756376,0.1,11.311127,1638905144000
Fix,GT,34.2730764,-118.6045096,313.93016965926165,16.701609,0.1,9.037018,1638905145000
Fix,GT,34.2732296,-118.604488,315.17417611404016,17.374166,0.1,4.777313,1638905146000
Fix,GT,34.2733888,-118.6044805,316.4271890409626,17.914133,0.1,0.21298218,1638905147000
Fix,GT,34.2735523,-118.6044886,317.74016746125534,18.18762,0.1,355.94162,1638905148000
Fix,GT,34.2737123,-118.6045073,318.9891461898067,17.38754,0.1,353.53732,1638905149000
Fix,GT,34.2738637,-118.6045298,320.1491587028252,16.4188,0.1,352.49142,1638905150000
Fix,GT,34.2740078,-118.6045523,321.23613666426763,16.057741,0.1,352.48312,1638905151000
Fix,GT,34.2741546,-118.604575,322.30916224518774,16.82824,0.1,352.4569,1638905152000
Fix,GT,34.2743032,-118.6045985,323.4801666713201,16.279938,0.1,352.22833,1638905153000
Fix,GT,34.2744446,-118.6046215,324.6151391414832,15.353202,0.1,352.12094,1638905154000
Fix,GT,34.2745773,-118.604643,325.6871522807417,14.3473215,0.1,352.214,1638905155000
Fix,GT,34.2747011,-118.6046627,326.72013146080184,13.340903,0.1,352.41782,1638905156000
Fix,GT,34.2748159,-118.6046807,327.70212805195854,12.366542,0.1,352.4389,1638905157000
Fix,GT,34.2749249,-118.604698,328.5881078389461,12.163471,0.099,352.3099,1638905158000
Fix,GT,34.2750352,-118.604716,329.485116633959,12.46249,0.1,352.0804,1638905159000
Fix,GT,34.275146,-118.6047347,330.42313202615924,12.2906275,0.1,351.8283,1638905160000
Fix,GT,34.2752549,-118.6047531,331.3331104636456,12.10758,0.1,351.93964,1638905161000
Fix,GT,34.2753627,-118.6047712,332.2231232355397,11.999009,0.1,351.93686,1638905162000
Fix,GT,34.275467,-118.604788,333.09010300095946,11.290766,0.099,352.53195,1638905163000
Fix,GT,34.2755662,-118.6048037,333.898113895146,11.039397,0.1,352.28796,1638905164000
Fix,GT,34.2756657,-118.6048201,334.7271233989077,11.232162,0.1,352.05508,1638905165000
Fix,GT,34.2757664,-118.6048367,335.5751089865237,11.2445,0.1,352.04962,1638905166000
Fix,GT,34.275865,-118.6048526,336.4031074871796,10.867231,0.1,352.54602,1638905167000
Fix,GT,34.2759604,-118.6048666,337.17510160230125,10.389015,0.1,353.0522,1638905168000
Fix,GT,34.2760501,-118.6048788,337.9010963160728,9.622575,0.1,353.5853,1638905169000
Fix,GT,34.2761336,-118.6048894,338.5660929292842,9.113069,0.1,354.05972,1638905170000
Fix,GT,34.2762118,-118.6048984,339.1610689173248,8.231911,0.1,354.52155,1638905171000
Fix,GT,34.2762802,-118.6049055,339.6390579191224,7.0712433,0.1,354.97012,1638905172000
Fix,GT,34.2763397,-118.6049106,340.0460404345867,6.2128716,0.1,355.98273,1638905173000
Fix,GT,34.2763924,-118.6049139,340.3780368448288,5.4797955,0.1,357.0283,1638905174000
Fix,GT,34.2764424,-118.6049157,340.6670308806495,5.737599,0.1,358.19583,1638905175000
Fix,GT,34.2764936,-118.6049167,340.963036313532,5.484537,0.1,359.075,1638905176000
Fix,GT,34.276543,-118.6049172,341.2160468650772,5.796307,0.1,359.44223,1638905177000
Fix,GT,34.2765982,-118.6049172,341.5210408729706,6.1869736,0.1,0.06744385,1638905178000
Fix,GT,34.2766529,-118.6049163,341.807034982333,6.140799,0.1,0.7722168,1638905179000
Fix,GT,34.2767117,-118.6049148,342.1010286128877,6.9380236,0.1,1.152008,1638905180000
Fix,GT,34.2767773,-118.6049121,342.40903011162044,7.47104,0.1,2.1713867,1638905181000
Fix,GT,34.2768472,-118.604907,342.6980378257213,8.098363,0.1,3.7833862,1638905182000
Fix,GT,34.276921,-118.6048988,342.98502885685724,8.438879,0.1,5.730713,1638905183000
Fix,GT,34.2769972,-118.6048879,343.2430403818492,8.448473,0.1,7.06485,1638905184000
Fix,GT,34.2770702,-118.6048755,343.4800031407521,7.7632017,0.1,8.36911,1638905185000
Fix,GT,34.2771349,-118.6048601,343.63401876637755,7.0084677,0.1,12.726044,1638905186000
Fix,GT,34.2771904,-118.604831,343.6629878959063,6.69888,0.1,27.84732,1638905187000
Fix,GT,34.2772318,-118.6047791,343.5759909257295,6.954783,0.1,51.8132,1638905188000
Fix,GT,34.27725,-118.6047058,343.3589966542568,7.497475,0.1,80.17078,1638905189000
Fix,GT,34.277241,-118.6046211,343.2399902680947,8.625173,0.1,101.435425,1638905190000
Fix,GT,34.2772191,-118.6045215,343.41203130285254,10.372181,0.1,104.47394,1638905191000
Fix,GT,34.2771926,-118.6044049,343.873069021787,11.936784,0.1,105.46008,1638905192000
Fix,GT,34.2771623,-118.6042748,344.4440561349639,12.792723,0.1,105.68417,1638905193000
Fix,GT,34.277131,-118.6041412,344.9480630041575,12.612841,0.1,105.74005,1638905194000
Fix,GT,34.2771005,-118.6040121,345.3790456946488,12.149957,0.1,105.77481,1638905195000
Fix,GT,34.2770705,-118.6038835,345.75204055412115,12.59513,0.1,105.42441,1638905196000
Fix,GT,34.2770382,-118.6037454,346.07504769459086,14.083369,0.1,105.739655,1638905197000
Fix,GT,34.2770013,-118.6035904,346.3790385562042,15.365306,0.1,105.921265,1638905198000
Fix,GT,34.2769624,-118.6034304,346.606006977984,15.314289,0.099,106.62338,1638905199000
Fix,GT,34.2769219,-118.6032726,346.7160093000617,15.139371,0.1,107.259094,1638905200000
Fix,GT,34.2768807,-118.603115,346.7319908996764,15.351341,0.1,107.39386,1638905201000
Fix,GT,34.2768383,-118.6029538,346.64999441149354,15.822277,0.1,107.47916,1638905202000
Fix,GT,34.2767942,-118.6027865,346.49396903017305,16.372492,0.1,107.655,1638905203000
Fix,GT,34.2767489,-118.60262,346.317963817518,15.836624,0.1,108.47165,1638905204000
Fix,GT,34.2767022,-118.6024609,346.00096153846846,15.289902,0.1,110.096985,1638905205000
Fix,GT,34.2766534,-118.6023061,345.5629318414987,15.304837,0.1,110.915375,1638905206000
Fix,GT,34.2766017,-118.6021482,345.0649484679843,16.09313,0.1,111.51782,1638905207000
Fix,GT,34.2765463,-118.6019789,344.55392355180135,17.470634,0.099,111.458405,1638905208000
Fix,GT,34.276485,-118.6017929,343.9809331210842,19.31629,0.1,111.57184,1638905209000
Fix,GT,34.2764186,-118.6015914,343.3629142156579,20.583515,0.1,111.659546,1638905210000
Fix,GT,34.2763478,-118.6013788,342.67693308684534,21.654121,0.1,111.861755,1638905211000
Fix,GT,34.2762718,-118.6011543,341.99491307507753,22.968073,0.1,112.41681,1638905212000
Fix,GT,34.2761896,-118.6009204,341.25092262858993,23.760675,0.1,113.272766,1638905213000
Fix,GT,34.276102,-118.6006807,340.49191189043205,24.48962,0.1,113.9173,1638905214000
Fix,GT,34.2760103,-118.6004348,339.7029012065588,25.164547,0.1,114.03253,1638905215000
Fix,GT,34.275917,-118.6001817,338.8789164762255,25.86047,0.1,113.69696,1638905216000
Fix,GT,34.2758229,-118.5999202,338.0458990470833,26.682121,0.1,112.84717,1638905217000
Fix,GT,34.2757291,-118.5996474,337.20390858511115,27.702057,0.1,112.0733,1638905218000
Fix,GT,34.2756328,-118.5993641,336.32090364004256,28.532583,0.1,112.55478,1638905219000
Fix,GT,34.2755327,-118.5990783,335.42689737650755,28.582098,0.1,113.00769,1638905220000
Fix,GT,34.2754305,-118.5987934,334.5299026375731,28.583881,0.1,113.60242,1638905221000
Fix,GT,34.275327,-118.5985095,333.62989107224394,28.52503,0.1,113.62979,1638905222000
Fix,GT,34.2752232,-118.5982264,332.70390498586283,28.472654,0.1,113.869934,1638905223000
Fix,GT,34.2751191,-118.5979442,331.7968957268992,28.414684,0.1,113.95175,1638905224000
Fix,GT,34.275015,-118.5976624,330.88590511626376,28.391926,0.1,113.902435,1638905225000
Fix,GT,34.2749108,-118.5973809,329.9589002810948,28.37015,0.1,114.02368,1638905226000
Fix,GT,34.274806,-118.5971002,329.03689111593945,28.338833,0.1,114.32306,1638905227000
Fix,GT,34.2747005,-118.5968217,328.1319114405606,27.991873,0.1,114.67761,1638905228000
Fix,GT,34.2745958,-118.5965456,327.3249231044056,27.925377,0.1,114.14661,1638905229000
Fix,GT,34.2744939,-118.5962689,326.7799488781695,27.801908,0.1,113.74713,1638905230000
Fix,GT,34.2743943,-118.595993,326.47894705971464,27.611076,0.1,113.173096,1638905231000
Fix,GT,34.2742983,-118.5957176,326.0759541357458,27.40747,0.1,112.3602,1638905232000
Fix,GT,34.2742065,-118.5954422,325.641952483082,27.298798,0.1,111.46124,1638905233000
Fix,GT,34.2741185,-118.5951634,325.2059637430392,27.69732,0.1,109.750336,1638905234000
Fix,GT,34.2740398,-118.5948739,324.80995668253536,28.459385,0.1,106.98944,1638905235000
Fix,GT,34.2739661,-118.5945716,324.4709581798008,29.626747,0.1,105.80722,1638905236000
Fix,GT,34.2738921,-118.5942555,324.20597792762265,30.856543,0.1,105.82065,1638905237000
Fix,GT,34.2738165,-118.593926,323.9399687086802,32.097885,0.1,104.81406,1638905238000
Fix,GT,34.2737441,-118.593583,323.67397986977886,32.979122,0.1,103.71594,1638905239000
Fix,GT,34.2736752,-118.5932303,323.4089770966597,33.737606,0.1,102.60318,1638905240000
Fix,GT,34.2736102,-118.5928679,323.1129500053974,34.55495,0.1,101.77338,1638905241000
Fix,GT,34.2735481,-118.5924955,322.7229556551776,35.385326,0.1,100.569855,1638905242000
Fix,GT,34.2734938,-118.5921132,322.42298255356656,35.99383,0.1,98.514984,1638905243000
Fix,GT,34.2734497,-118.5917229,322.149971403036,36.464657,0.1,96.85922,1638905244000
Fix,GT,34.2734143,-118.5913284,321.852962295387,36.580067,0.1,95.40082,1638905245000
Fix,GT,34.2733874,-118.5909322,321.5819754602629,36.5785,0.1,93.74063,1638905246000
Fix,GT,34.2733701,-118.5905371,321.2719467027782,36.30182,0.1,92.19214,1638905247000
Fix,GT,34.2733611,-118.5901442,320.8009534267882,36.05583,0.1,90.83481,1638905248000
Fix,GT,34.2733568,-118.5897537,320.28195311717326,35.965343,0.1,90.53766,1638905249000
Fix,GT,34.2733526,-118.5893609,319.83598825322656,36.397068,0.1,90.69403,1638905250000
Fix,GT,34.2733479,-118.5889642,319.55996585634534,36.625526,0.1,90.68817,1638905251000
Fix,GT,34.273343,-118.5885664,319.2939767624936,36.63324,0.1,90.761566,1638905252000
Fix,GT,34.2733384,-118.5881691,319.06797704308616,36.50896,0.1,90.70828,1638905253000
Fix,GT,34.2733338,-118.5877744,318.870987899512,36.219803,0.1,90.73956,1638905254000
Fix,GT,34.2733287,-118.5873818,318.6779869620076,36.147964,0.1,90.8638,1638905255000
Fix,GT,34.2733236,-118.586989,318.53598612770605,36.217903,0.099,90.753784,1638905256000
Fix,GT,34.2733191,-118.586595,318.4439843107057,36.364704,0.099,90.73996,1638905257000
Fix,GT,34.2733143,-118.5861994,318.33499846165324,36.50409,0.1,90.77106,1638905258000
Fix,GT,34.2733093,-118.5858028,318.26098547925454,36.523148,0.1,90.787415,1638905259000
Fix,GT,34.2733042,-118.5854067,318.1529894027786,36.417763,0.1,90.828,1638905260000
Fix,GT,34.2732994,-118.5850122,318.0519953727103,36.248608,0.1,90.62076,1638905261000
Fix,GT,34.2732959,-118.5846197,317.9639915551036,36.004093,0.1,90.5477,1638905262000
Fix,GT,34.2732921,-118.5842306,317.86498773971226,35.66382,0.1,90.65192,1638905263000
Fix,GT,34.2732878,-118.5838452,317.7719768314957,35.323154,0.1,90.70599,1638905264000
Fix,GT,34.2732844,-118.5834636,317.676995851944,35.00564,0.1,90.177765,1638905265000
Fix,GT,34.2732835,-118.5830837,317.57898495390884,34.947033,0.1,90.00049,1638905266000
Fix,GT,34.2732831,-118.582705,317.4869889043897,34.806023,0.1,89.968506,1638905267000
Fix,GT,34.2732828,-118.5823275,317.4049783092858,34.71699,0.1,89.942566,1638905268000
Fix,GT,34.2732835,-118.5819521,317.3149950586943,34.419373,0.1,89.65152,1638905269000
Fix,GT,34.2732848,-118.58158,317.244998234882,34.109325,0.1,89.62753,1638905270000
Fix,GT,34.273287,-118.5812115,317.1439943894397,33.749317,0.1,89.44833,1638905271000
Fix,GT,34.2732899,-118.5808471,317.0659974047765,33.384167,0.1,89.29346,1638905272000
Fix,GT,34.2732932,-118.5804847,316.9559973914676,33.43205,0.1,89.28409,1638905273000
Fix,GT,34.2732967,-118.5801212,316.9009926108953,33.518,0.1,89.28833,1638905274000
Fix,GT,34.2733002,-118.5797571,316.810985974193,33.53676,0.1,89.15643,1638905275000
Fix,GT,34.2733048,-118.5793935,316.74999035825,33.405983,0.1,88.91919,1638905276000
Fix,GT,34.2733108,-118.579032,316.65599499623374,33.160995,0.1,88.60239,1638905277000
Fix,GT,34.2733181,-118.578674,316.5689898679289,32.797558,0.1,88.35956,1638905278000
Fix,GT,34.2733258,-118.5783199,316.4849961872995,32.437443,0.1,88.55371,1638905279000
Fix,GT,34.273332,-118.5779698,316.36699422860124,32.09967,0.1,88.868164,1638905280000
Fix,GT,34.2733381,-118.5776215,316.29500016833833,32.109432,0.1,88.380066,1638905281000
Fix,GT,34.2733462,-118.5772723,316.2049853138316,32.213665,0.099,88.25348,1638905282000
Fix,GT,34.2733545,-118.5769233,316.1270012571121,31.910395,0.1,88.2771,1638905283000
Fix,GT,34.2733627,-118.576585,316.0489937914538,30.332853,0.1,88.279236,1638905284000
Fix,GT,34.2733698,-118.576263,315.9679968003384,29.21572,0.1,88.47894,1638905285000
Fix,GT,34.2733757,-118.5759491,315.890989820676,28.639904,0.1,88.79755,1638905286000
Fix,GT,34.2733796,-118.5756412,315.8049860247644,28.064642,0.1,89.35785,1638905287000
Fix,GT,34.2733813,-118.5753387,315.7319992352756,27.696585,0.1,89.43591,1638905288000
Fix,GT,34.2733831,-118.5750396,315.6489914296683,27.394293,0.1,89.72699,1638905289000
Fix,GT,34.2733836,-118.5747439,315.5449921235214,27.079971,0.1,89.82703,1638905290000
Fix,GT,34.273384,-118.5744515,315.5069901042157,26.78905,0.1,89.82703,1638905291000
Fix,GT,34.273384,-118.574161,315.4249858180613,26.822027,0.099,89.82507,1638905292000
Fix,GT,34.273387,-118.5738674,315.3019851684915,27.275425,0.099,88.63342,1638905293000
Fix,GT,34.2733943,-118.573567,315.290986272226,28.094296,0.1,88.106384,1638905294000
Fix,GT,34.2734013,-118.5732589,315.2410007343577,28.631048,0.1,88.56494,1638905295000
Fix,GT,34.2734056,-118.5729461,315.1939951670858,28.89913,0.1,89.523224,1638905296000
Fix,GT,34.2734054,-118.5726325,315.1259838746446,28.869686,0.1,90.3421,1638905297000
Fix,GT,34.273403,-118.5723176,315.0299936867149,29.185932,0.1,90.369415,1638905298000
Fix,GT,34.2734007,-118.5719985,314.9579993793267,29.585733,0.1,90.52869,1638905299000
Fix,GT,34.2733969,-118.5716751,314.89399299120623,29.985617,0.1,90.935974,1638905300000
Fix,GT,34.2733912,-118.5713473,314.82699150381467,30.404093,0.1,91.27063,1638905301000
Fix,GT,34.2733843,-118.5710154,314.75498855610846,30.668673,0.1,91.42938,1638905302000
Fix,GT,34.273376,-118.5706828,314.67898307868785,30.60948,0.099,91.81125,1638905303000
Fix,GT,34.2733664,-118.570352,314.6029988831359,30.356289,0.1,91.74664,1638905304000
Fix,GT,34.2733576,-118.5700241,314.53099823431216,30.06325,0.1,91.81207,1638905305000
Fix,GT,34.2733483,-118.5696992,314.4359859772064,29.881027,0.1,91.91586,1638905306000
Fix,GT,34.2733387,-118.569374,314.3630009188492,30.02086,0.1,92.125916,1638905307000
Fix,GT,34.2733269,-118.5690483,314.2809916767821,30.056965,0.1,92.56287,1638905308000
Fix,GT,34.2733135,-118.5687234,314.20197465435723,29.83652,0.1,93.19879,1638905309000
Fix,GT,34.2732969,-118.5684019,314.12100035059694,29.500414,0.1,93.57904,1638905310000
Fix,GT,34.2732809,-118.5680839,314.0459949379291,29.192112,0.1,93.30722,1638905311000
Fix,GT,34.2732652,-118.5677689,313.94499279252227,28.916319,0.1,93.292755,1638905312000
Fix,GT,34.2732499,-118.5674563,313.8489873791274,28.852215,0.1,93.322845,1638905313000
Fix,GT,34.2732336,-118.5671417,313.7999925404347,29.229584,0.1,93.664185,1638905314000
Fix,GT,34.2732159,-118.5668233,313.7070025824781,29.557827,0.1,93.739624,1638905315000
Fix,GT,34.2731976,-118.5665009,313.6390044362548,29.95347,0.1,93.86618,1638905316000
Fix,GT,34.2731783,-118.5661743,313.59099815418017,30.355917,0.1,94.08185,1638905317000
Fix,GT,34.2731575,-118.5658437,313.50999356517417,30.716091,0.1,94.489746,1638905318000
Fix,GT,34.2731341,-118.56551,313.4329874534208,30.928564,0.1,94.94513,1638905319000
Fix,GT,34.2731103,-118.5651747,313.35598522202787,31.065792,0.099,94.50073,1638905320000
Fix,GT,34.2730883,-118.5648376,313.2869977851975,31.209429,0.1,94.3512,1638905321000
Fix,GT,34.2730665,-118.5644991,313.170998704154,31.320892,0.1,94.45157,1638905322000
Fix,GT,34.2730436,-118.56416,313.11899649421554,31.336876,0.1,94.74277,1638905323000
Fix,GT,34.273019,-118.5638211,313.06298958950714,31.313517,0.1,95.087555,1638905324000
Fix,GT,34.2729924,-118.5634828,312.9829912654419,31.283,0.1,95.62286,1638905325000
Fix,GT,34.2729631,-118.5631451,312.9019867243655,31.245659,0.1,96.15741,1638905326000
Fix,GT,34.272932,-118.5628082,312.8159992844879,31.223825,0.1,96.40915,1638905327000
Fix,GT,34.2729,-118.5624708,312.7319970547085,31.345713,0.1,96.34866,1638905328000
Fix,GT,34.2728682,-118.5621317,312.6479917526849,31.502779,0.1,96.4906,1638905329000
Fix,GT,34.2728348,-118.561791,312.57398638407983,31.67072,0.099,96.73105,1638905330000
Fix,GT,34.2728007,-118.5614487,312.4900019880137,31.810705,0.1,96.77548,1638905331000
Fix,GT,34.2727662,-118.5611054,312.36599146816377,31.887253,0.1,96.855896,1638905332000
Fix,GT,34.2727314,-118.5607611,312.153981876892,31.98986,0.1,96.81979,1638905333000
Fix,GT,34.2726967,-118.5604159,311.8559738541732,32.052372,0.1,96.85193,1638905334000
Fix,GT,34.2726617,-118.5600702,311.4589627996711,32.10133,0.1,96.8703,1638905335000
Fix,GT,34.2726265,-118.5597239,310.9649672278392,32.14864,0.1,96.92636,1638905336000
Fix,GT,34.2725909,-118.5593772,310.3819577726314,32.171017,0.1,97.03534,1638905337000
Fix,GT,34.272555,-118.5590312,309.70394690555185,32.064095,0.1,96.98297,1638905338000
Fix,GT,34.27252,-118.5586855,308.90492214153574,32.130157,0.1,96.76941,1638905339000
Fix,GT,34.2724858,-118.5583385,308.01292453476606,32.177784,0.099,96.84787,1638905340000
Fix,GT,34.2724515,-118.5579921,307.18594755729634,32.063637,0.1,96.27902,1638905341000
Fix,GT,34.2724198,-118.5576466,306.29593817403264,31.972462,0.1,96.5871,1638905342000
Fix,GT,34.2723849,-118.5573015,305.4479392354671,32.09762,0.1,97.06378,1638905343000
Fix,GT,34.2723494,-118.5569549,304.6259493331403,32.169163,0.1,97.013245,1638905344000
Fix,GT,34.2723145,-118.556609,304.007948695627,32.017498,0.1,96.94119,1638905345000
Fix,GT,34.2722805,-118.5562635,303.4279715557932,32.073128,0.1,96.56192,1638905346000
Fix,GT,34.2722487,-118.5559177,302.97296757756163,31.970161,0.099,95.7395,1638905347000
Fix,GT,34.272225,-118.555571,302.6219710050524,32.16749,0.1,93.68591,1638905348000
Fix,GT,34.2722112,-118.5552202,302.35597739768025,32.486607,0.1,91.589355,1638905349000
Fix,GT,34.2722081,-118.5548655,302.18199527407813,32.843353,0.1,89.54303,1638905350000
Fix,GT,34.2722164,-118.554507,302.1119954926009,33.19143,0.1,87.42044,1638905351000
Fix,GT,34.272235,-118.5541463,302.17400073732165,33.343193,0.1,85.378845,1638905352000
Fix,GT,34.2722641,-118.553786,302.32499975121215,33.321724,0.1,83.47476,1638905353000
Fix,GT,34.2723029,-118.5534269,302.45302422654817,33.34391,0.1,81.57791,1638905354000
Fix,GT,34.2723519,-118.5530697,302.6130083341169,33.323044,0.1,79.46356,1638905355000
Fix,GT,34.2724123,-118.5527156,302.74701033384173,33.18644,0.1,77.27301,1638905356000
Fix,GT,34.2724835,-118.5523675,302.90400559161606,32.833763,0.099,74.86035,1638905357000
Fix,GT,34.2725658,-118.5520261,303.030999195433,32.71637,0.099,72.785614,1638905358000
Fix,GT,34.2726561,-118.5516872,303.1000089287348,32.822876,0.1,71.43048,1638905359000
Fix,GT,34.272753,-118.5513495,303.1450058817296,32.993965,0.1,70.43164,1638905360000
Fix,GT,34.2728526,-118.5510111,303.19900219108666,33.10079,0.1,70.40094,1638905361000
Fix,GT,34.2729522,-118.5506735,303.24499718144705,32.85649,0.1,70.14343,1638905362000
Fix,GT,34.2730526,-118.5503399,303.2830122192777,32.491028,0.1,69.894104,1638905363000
Fix,GT,34.2731527,-118.5500106,303.3470104442558,32.117294,0.1,69.81552,1638905364000
Fix,GT,34.2732511,-118.5496827,303.4400043472675,32.17021,0.1,70.21179,1638905365000
Fix,GT,34.2733491,-118.5493536,303.5410042996959,32.19024,0.1,70.077576,1638905366000
Fix,GT,34.2734471,-118.5490257,303.637003611704,31.974533,0.099,70.12155,1638905367000
Fix,GT,34.2735445,-118.5487009,303.7349992699474,31.614214,0.1,69.94977,1638905368000
Fix,GT,34.2736409,-118.54838,303.8530149051673,31.229612,0.1,70.22589,1638905369000
Fix,GT,34.2737332,-118.5480613,303.9710142899992,31.02887,0.1,71.206665,1638905370000
Fix,GT,34.2738201,-118.5477406,304.1380075114099,31.088276,0.1,72.7442,1638905371000
Fix,GT,34.2738978,-118.5474163,304.31401050078034,31.170927,0.1,74.77121,1638905372000
Fix,GT,34.2739675,-118.5470874,304.532020000551,31.344622,0.1,76.3927,1638905373000
Fix,GT,34.2740296,-118.5467551,304.8250302668268,31.4028,0.1,78.19223,1638905374000
Fix,GT,34.2740833,-118.5464202,305.1710301013052,31.426773,0.1,79.81424,1638905375000
Fix,GT,34.2741284,-118.5460834,305.59203356629496,31.448309,0.1,81.76828,1638905376000
Fix,GT,34.274165,-118.545745,306.07803510102445,31.399323,0.1,83.27121,1638905377000
Fix,GT,34.2741939,-118.545407,306.63303665130354,31.168821,0.1,84.86572,1638905378000
Fix,GT,34.2742149,-118.5450711,307.2440320372921,30.92029,0.1,86.37079,1638905379000
Fix,GT,34.2742302,-118.5447366,307.86902807459995,30.79328,0.1,87.02319,1638905380000
Fix,GT,34.2742449,-118.5444031,308.39103647984194,30.725992,0.1,86.8844,1638905381000
Fix,GT,34.2742592,-118.5440704,308.97303197074694,30.606544,0.1,86.9957,1638905382000
Fix,GT,34.2742732,-118.5437392,309.4250210607464,30.48441,0.1,87.05844,1638905383000
Fix,GT,34.2742869,-118.5434092,309.86601425531086,30.372252,0.1,87.112915,1638905384000
Fix,GT,34.2743009,-118.5430803,310.2400173674562,30.282185,0.1,86.92795,1638905385000
Fix,GT,34.2743155,-118.5427529,310.587032877539,30.10419,0.1,86.833374,1638905386000
Fix,GT,34.2743303,-118.5424273,310.8490199007044,29.958364,0.1,86.804535,1638905387000
Fix,GT,34.2743447,-118.5421037,311.1140154882694,29.724928,0.1,87.074066,1638905388000
Fix,GT,34.2743576,-118.5417819,311.3010096979642,29.637707,0.1,87.25879,1638905389000
Fix,GT,34.2743706,-118.5414605,311.4180022979076,29.647789,0.1,87.02255,1638905390000
Fix,GT,34.2743847,-118.5411386,311.4739968544447,29.728441,0.1,86.94397,1638905391000
Fix,GT,34.2743984,-118.5408157,311.5309941598183,29.826805,0.099,87.17584,1638905392000
Fix,GT,34.2744115,-118.5404917,311.5530056694128,29.891613,0.1,87.1427,1638905393000
Fix,GT,34.2744251,-118.5401672,311.5089975451988,29.977886,0.1,86.94479,1638905394000
Fix,GT,34.2744407,-118.5398414,311.4019937925105,30.113073,0.1,86.247986,1638905395000
Fix,GT,34.2744618,-118.5395144,311.2929895243208,30.304752,0.1,84.964386,1638905396000
Fix,GT,34.2744876,-118.5391856,311.1689852477349,30.512064,0.1,84.02536,1638905397000
Fix,GT,34.274519,-118.5388554,311.04598517201794,30.675781,0.1,82.76276,1638905398000
Fix,GT,34.2745566,-118.5385248,310.9129973342689,30.753447,0.1,81.46289,1638905399000
Fix,GT,34.2746003,-118.5381946,310.7689946534012,30.825478,0.1,80.35495,1638905400000
Fix,GT,34.2746494,-118.5378647,310.6289904221707,30.844547,0.1,79.260376,1638905401000
Fix,GT,34.2747032,-118.5375372,310.4899861829421,30.648933,0.099,78.170044,1638905402000
Fix,GT,34.2747632,-118.5372121,310.3389788953394,30.73678,0.1,76.7384,1638905403000
Fix,GT,34.2748295,-118.536887,310.2339972130975,30.91716,0.1,75.57013,1638905404000
Fix,GT,34.2749017,-118.5365626,310.1819985550416,30.848831,0.1,74.36319,1638905405000
Fix,GT,34.274979,-118.536242,310.2179967953562,30.682337,0.1,73.20801,1638905406000
Fix,GT,34.275061,-118.5359241,310.30799901978025,30.619825,0.1,72.101074,1638905407000
Fix,GT,34.2751488,-118.5356092,310.4799987923689,30.575584,0.1,70.70346,1638905408000
Fix,GT,34.2752425,-118.5352969,310.73402545237445,30.556557,0.1,69.60022,1638905409000
Fix,GT,34.2753403,-118.5349873,311.0620227205483,30.462404,0.1,68.42053,1638905410000
Fix,GT,34.275444,-118.5346818,311.4430242055254,30.286774,0.1,67.00949,1638905411000
Fix,GT,34.2755527,-118.5343812,311.8450248505617,30.088757,0.1,65.946014,1638905412000
Fix,GT,34.275664,-118.5340855,312.23301708358366,29.70919,0.1,65.13089,1638905413000
Fix,GT,34.2757771,-118.5337945,312.5770086115331,29.497864,0.1,64.62109,1638905414000
Fix,GT,34.2758907,-118.5335061,312.92302571021634,29.301039,0.1,64.53528,1638905415000
Fix,GT,34.2760039,-118.5332188,313.2770139601401,29.275835,0.1,64.53427,1638905416000
Fix,GT,34.276117,-118.5329316,313.59401425458043,29.29063,0.1,64.46118,1638905417000
Fix,GT,34.2762303,-118.5326437,313.9600149425354,29.393894,0.1,64.64734,1638905418000
Fix,GT,34.2763433,-118.5323547,314.3670269434347,29.39628,0.1,64.709076,1638905419000
Fix,GT,34.276456,-118.5320665,314.75401984448854,29.250654,0.1,64.675964,1638905420000
Fix,GT,34.2765678,-118.5317807,315.126014074,28.928839,0.1,64.65039,1638905421000
Fix,GT,34.2766792,-118.5314974,315.4860087706893,28.842192,0.099,64.47467,1638905422000
Fix,GT,34.2767907,-118.5312157,315.8360236417906,28.577887,0.1,64.48132,1638905423000
Fix,GT,34.2769004,-118.5309372,316.1630188147066,28.231005,0.1,64.51709,1638905424000
Fix,GT,34.2770097,-118.5306607,316.47201443214897,28.226889,0.1,64.32086,1638905425000
Fix,GT,34.27712,-118.5303837,316.7640083059133,28.286257,0.1,64.35907,1638905426000
Fix,GT,34.2772288,-118.5301076,317.0070017655157,27.988665,0.1,64.64575,1638905427000
Fix,GT,34.2773353,-118.5298342,317.22301889717767,27.652895,0.1,64.888916,1638905428000
Fix,GT,34.2774392,-118.529562,317.4400153921808,27.619944,0.1,65.66156,1638905429000
Fix,GT,34.2775388,-118.5292863,317.6400097633915,27.763086,0.1,67.32779,1638905430000
Fix,GT,34.277631,-118.5290052,317.8630062513527,27.938917,0.1,69.18689,1638905431000
Fix,GT,34.2777166,-118.5287191,318.05399857133034,28.067034,0.1,70.95874,1638905432000
Fix,GT,34.2777956,-118.5284292,318.20300796590675,28.14142,0.1,72.41983,1638905433000
Fix,GT,34.277868,-118.5281363,318.2930036685785,28.129866,0.1,74.27426,1638905434000
Fix,GT,34.277932,-118.527842,318.33300052605125,27.897509,0.1,76.17999,1638905435000
Fix,GT,34.2779875,-118.5275483,318.3199938436502,27.610546,0.1,77.96954,1638905436000
Fix,GT,34.2780349,-118.5272557,318.2309892048306,27.311626,0.1,79.680695,1638905437000
Fix,GT,34.2780742,-118.5269646,318.1410015664887,27.051603,0.1,81.70276,1638905438000
Fix,GT,34.2781053,-118.5266745,317.9819961850262,26.829922,0.1,83.26486,1638905439000
Fix,GT,34.2781303,-118.5263859,317.8099912230922,26.688389,0.1,84.737335,1638905440000
Fix,GT,34.2781485,-118.5260955,317.57698590070595,27.048725,0.1,86.367615,1638905441000
Fix,GT,34.27816,-118.5257989,317.2839806122734,27.669188,0.1,88.116455,1638905442000
Fix,GT,34.2781635,-118.5254982,316.9519946205978,27.659996,0.1,90.06186,1638905443000
Fix,GT,34.2781607,-118.5251972,316.58798862800325,27.915277,0.1,90.61459,1638905444000
Fix,GT,34.2781582,-118.5248908,316.19098027274,28.546875,0.1,90.36899,1638905445000
Fix,GT,34.2781567,-118.5245769,315.7479729024997,29.067307,0.099,90.208984,1638905446000
Fix,GT,34.2781549,-118.5242605,315.20798234239817,29.274788,0.1,90.37479,1638905447000
Fix,GT,34.2781525,-118.5239425,314.5839750966681,29.287397,0.1,90.50537,1638905448000
Fix,GT,34.2781498,-118.5236247,313.8839680203033,29.232544,0.099,90.481445,1638905449000
Fix,GT,34.2781472,-118.5233077,313.15597510178225,29.181322,0.1,90.46051,1638905450000
Fix,GT,34.2781441,-118.5229889,312.4029684329741,29.62584,0.1,90.71234,1638905451000
Fix,GT,34.2781394,-118.522665,311.65296732996205,29.982855,0.099,91.31949,1638905452000
Fix,GT,34.2781307,-118.5223395,310.8949641767323,29.99273,0.099,92.126526,1638905453000
Fix,GT,34.2781193,-118.5220137,310.1279753998176,30.126776,0.1,92.54257,1638905454000
Fix,GT,34.2781059,-118.5216853,309.35797257212204,30.334278,0.099,93.05737,1638905455000
Fix,GT,34.2780893,-118.5213569,308.5899660085407,30.264296,0.099,93.780914,1638905456000
Fix,GT,34.2780691,-118.5210298,307.82398023501645,30.15346,0.1,94.56653,1638905457000
Fix,GT,34.278046,-118.5207041,307.0489753260913,30.053123,0.1,95.04196,1638905458000
Fix,GT,34.2780211,-118.5203793,306.28997055715024,30.127874,0.1,95.36011,1638905459000
Fix,GT,34.2779949,-118.5200535,305.51796712088304,30.104979,0.1,95.375854,1638905460000
Fix,GT,34.2779695,-118.5197285,304.7619791359933,30.012054,0.1,95.29584,1638905461000
Fix,GT,34.2779429,-118.5194047,303.99897538030183,29.9227,0.1,95.7572,1638905462000
Fix,GT,34.2779157,-118.5190818,303.23896986148105,29.843155,0.1,95.6189,1638905463000
Fix,GT,34.2778895,-118.5187597,302.5019851051513,29.777836,0.1,95.34204,1638905464000
Fix,GT,34.2778651,-118.5184366,301.80498712159283,30.047222,0.1,95.10095,1638905465000
Fix,GT,34.2778402,-118.5181088,301.14398036213714,30.57733,0.1,95.28259,1638905466000
Fix,GT,34.2778143,-118.5177759,300.4599763395278,31.002695,0.1,95.33322,1638905467000
Fix,GT,34.2777887,-118.5174384,299.76097086374955,31.395004,0.1,95.20526,1638905468000
Fix,GT,34.2777644,-118.5170966,299.01498175880056,31.791998,0.1,94.42432,1638905469000
Fix,GT,34.2777431,-118.5167512,298.25597896283534,31.95013,0.1,94.14517,1638905470000
Fix,GT,34.2777227,-118.5164039,297.5089737637056,32.18204,0.1,93.64682,1638905471000
Fix,GT,34.2777058,-118.5160542,296.8049851338006,32.330055,0.1,93.09094,1638905472000
Fix,GT,34.2776911,-118.5157025,296.12998584289824,32.512978,0.1,92.585266,1638905473000
Fix,GT,34.2776795,-118.5153496,295.4779808880503,32.47736,0.1,91.79166,1638905474000
Fix,GT,34.277672,-118.5149971,294.8539751132567,32.501347,0.099,91.02664,1638905475000
Fix,GT,34.2776683,-118.5146436,294.22598581766533,32.597023,0.1,90.380005,1638905476000
Fix,GT,34.2776675,-118.5142896,293.61297632280986,32.53102,0.1,89.82016,1638905477000
Fix,GT,34.2776695,-118.5139371,292.97998590639475,32.45188,0.1,89.277435,1638905478000
Fix,GT,34.2776747,-118.5135833,292.3329780762658,32.784336,0.1,88.586426,1638905479000
Fix,GT,34.2776833,-118.513225,291.63898402552564,33.177578,0.1,88.04843,1638905480000
Fix,GT,34.2776931,-118.5128649,290.88398023047284,33.15022,0.1,87.98886,1638905481000
Fix,GT,34.2777035,-118.5125052,290.131980106457,33.14996,0.1,88.02615,1638905482000
Fix,GT,34.2777128,-118.5121455,289.38597468351526,33.157875,0.1,88.19818,1638905483000
Fix,GT,34.2777217,-118.5117847,288.7119898549644,33.317623,0.1,88.21124,1638905484000
Fix,GT,34.2777309,-118.5114227,288.07298727661777,33.360847,0.1,87.95575,1638905485000
Fix,GT,34.2777421,-118.5110602,287.4539818246708,33.41902,0.1,87.76343,1638905486000
Fix,GT,34.277753,-118.5106976,286.8789776275101,33.41516,0.1,87.89044,1638905487000
Fix,GT,34.2777635,-118.5103352,286.28898708697585,33.369167,0.1,87.92917,1638905488000
Fix,GT,34.2777741,-118.5099728,285.73998471071485,33.4217,0.1,87.900055,1638905489000
Fix,GT,34.2777849,-118.5096094,285.2009958019003,33.545437,0.1,87.87814,1638905490000
Fix,GT,34.2777956,-118.509245,284.66498616672106,33.58077,0.1,87.85275,1638905491000
Fix,GT,34.277806,-118.508881,284.1619833331705,33.504227,0.1,87.98563,1638905492000
Fix,GT,34.2778157,-118.5085179,283.6279974090486,33.431778,0.1,88.13568,1638905493000
Fix,GT,34.2778249,-118.5081551,283.1459937172989,33.416756,0.1,88.17871,1638905494000
Fix,GT,34.2778348,-118.5077926,282.6549939328711,33.35573,0.1,87.923035,1638905495000
Fix,GT,34.2778456,-118.5074306,282.1719855944204,33.36538,0.1,87.869965,1638905496000
Fix,GT,34.2778567,-118.5070686,281.651982148158,33.381096,0.099,87.759735,1638905497000
Fix,GT,34.277868,-118.5067052,281.17399625584585,33.586205,0.1,87.888916,1638905498000
Fix,GT,34.277878,-118.5063397,280.66198903938533,33.796787,0.1,88.09396,1638905499000
Fix,GT,34.2778882,-118.5059718,280.1369828280859,33.974274,0.099,87.81488,1638905500000
Fix,GT,34.277899,-118.5056022,279.61999404570554,34.15391,0.1,87.95618,1638905501000
Fix,GT,34.2779094,-118.5052304,279.1059874876491,34.347565,0.1,87.96167,1638905502000
Fix,GT,34.2779205,-118.5048567,278.58299775511034,34.529854,0.1,87.83887,1638905503000
Fix,GT,34.2779314,-118.5044808,278.0469955911128,34.74505,0.1,87.91736,1638905504000
Fix,GT,34.2779421,-118.5041028,277.4979913132199,34.8697,0.1,88.01965,1638905505000
Fix,GT,34.2779527,-118.503724,276.9879821326516,34.94885,0.099,87.90723,1638905506000
Fix,GT,34.2779637,-118.5033442,276.4509935224932,35.050926,0.1,87.96384,1638905507000
Fix,GT,34.2779746,-118.5029634,275.9139901864729,35.103073,0.1,88.00891,1638905508000
Fix,GT,34.2779842,-118.5025834,275.28798159879875,34.908466,0.1,88.446014,1638905509000
Fix,GT,34.2779884,-118.5022057,274.62399565993667,34.672012,0.1,90.01102,1638905510000
Fix,GT,34.2779836,-118.5018296,274.0489861289576,34.663242,0.1,91.61832,1638905511000
Fix,GT,34.2779692,-118.5014537,273.51599427837124,34.608604,0.1,93.628174,1638905512000
Fix,GT,34.2779443,-118.5010804,272.9889908409703,34.416344,0.1,95.40485,1638905513000
Fix,GT,34.2779103,-118.5007089,272.463984991427,34.444187,0.1,97.09482,1638905514000
Fix,GT,34.2778659,-118.5003386,271.93699523281555,34.507267,0.1,99.22003,1638905515000
Fix,GT,34.277811,-118.4999695,271.4039868230305,34.562176,0.1,101.092834,1638905516000
Fix,GT,34.277745,-118.4996029,270.85999406025013,34.55523,0.1,103.32019,1638905517000
Fix,GT,34.2776684,-118.499239,270.3149892791387,34.622414,0.099,104.90048,1638905518000
Fix,GT,34.2775839,-118.4988771,269.8650009170468,34.635696,0.1,106.52731,1638905519000
Fix,GT,34.2774899,-118.4985187,269.56399723497395,34.617565,0.1,108.34964,1638905520000
Fix,GT,34.2773863,-118.4981646,269.4199954310381,34.53541,0.099,110.46655,1638905521000
Fix,GT,34.2772721,-118.4978161,269.41699400304503,34.51619,0.1,112.384094,1638905522000
Fix,GT,34.277149,-118.497472,269.5770058325236,34.50536,0.1,114.17743,1638905523000
Fix,GT,34.2770168,-118.4971333,269.8970009525753,34.435333,0.099,115.99713,1638905524000
Fix,GT,34.2768766,-118.4968007,270.34701011587674,34.2945,0.1,117.85144,1638905525000
Fix,GT,34.2767279,-118.4964752,270.9580056486813,34.138718,0.1,119.67789,1638905526000
Fix,GT,34.2765709,-118.4961578,271.680005310729,33.962585,0.099,121.76453,1638905527000
Fix,GT,34.2764062,-118.4958479,272.38600381432263,33.82094,0.1,123.46933,1638905528000
Fix,GT,34.2762341,-118.4955459,273.0329990892304,33.66605,0.1,125.37891,1638905529000
Fix,GT,34.2760544,-118.495252,273.528011093458,33.572624,0.1,127.19559,1638905530000
Fix,GT,34.2758678,-118.4949659,273.9350040463502,33.479496,0.1,129.14136,1638905531000
Fix,GT,34.275674,-118.4946877,274.2540023759012,33.430733,0.1,130.67596,1638905532000
Fix,GT,34.2754737,-118.494417,274.5609955993354,33.37066,0.1,132.67361,1638905533000
Fix,GT,34.275267,-118.4941542,274.64900538947103,33.365997,0.1,134.07617,1638905534000
Fix,GT,34.2750567,-118.4938955,274.98400088044104,33.30087,0.1,134.48529,1638905535000
Fix,GT,34.2748463,-118.4936385,275.2689933547567,33.208908,0.1,134.59723,1638905536000
Fix,GT,34.2746368,-118.493382,275.03999150452984,33.097763,0.1,134.35135,1638905537000
Fix,GT,34.2744277,-118.4931251,274.7440014632953,33.195747,0.1,134.36273,1638905538000
Fix,GT,34.2742175,-118.492867,274.41299618453155,33.415306,0.1,134.50519,1638905539000
Fix,GT,34.2740052,-118.4926072,273.98699354702705,33.716034,0.1,134.42871,1638905540000
Fix,GT,34.2737914,-118.4923456,273.5220028747766,33.859165,0.1,134.57556,1638905541000
Fix,GT,34.2735773,-118.4920845,273.06600011366754,33.714966,0.1,134.50128,1638905542000
Fix,GT,34.273365,-118.4918241,272.4499932048511,33.52671,0.1,134.28351,1638905543000
Fix,GT,34.2731533,-118.4915631,271.74100371976687,33.696953,0.1,134.24426,1638905544000
Fix,GT,34.2729407,-118.4913008,271.03800065029225,33.802193,0.1,134.22693,1638905545000
Fix,GT,34.2727276,-118.4910378,270.3139911989958,33.932774,0.1,134.27563,1638905546000
Fix,GT,34.2725126,-118.4907738,269.58200230793494,34.192657,0.1,134.44244,1638905547000
Fix,GT,34.2722957,-118.4905081,268.9409972149446,34.38898,0.1,134.49829,1638905548000
Fix,GT,34.2720777,-118.490242,268.19299087019533,34.493362,0.1,134.54254,1638905549000
Fix,GT,34.2718586,-118.4899743,267.48500165818245,34.77429,0.1,134.46533,1638905550000
Fix,GT,34.2716382,-118.4897039,266.8799987532143,35.012783,0.1,134.30743,1638905551000
Fix,GT,34.271417,-118.4894313,266.3400062863372,35.180576,0.1,134.32281,1638905552000
Fix,GT,34.2711945,-118.4891583,265.9100031786463,35.31501,0.1,134.43567,1638905553000
Fix,GT,34.2709705,-118.4888844,265.54900020132004,35.49621,0.1,134.51605,1638905554000
Fix,GT,34.2707452,-118.4886091,265.30000754886646,35.69663,0.1,134.44937,1638905555000
Fix,GT,34.2705193,-118.4883326,265.0540000104904,35.738716,0.1,134.52313,1638905555999
Fix,GT,34.2702927,-118.4880565,264.8920000648498,35.76175,0.1,134.59872,1638905556999
Fix,GT,34.2700661,-118.4877799,264.75600008654595,35.819595,0.1,134.4555,1638905557999
Fix,GT,34.2698398,-118.4875023,264.61999998945,35.821278,0.1,134.46338,1638905558999
Fix,GT,34.2696136,-118.487225,264.4870002928972,35.80262,0.1,134.38144,1638905559999
Fix,GT,34.2693874,-118.4869477,264.36200032842163,35.803417,0.1,134.47974,1638905560999
Fix,GT,34.2691612,-118.4866711,264.2180007836819,35.64259,0.1,134.51031,1638905561999
Fix,GT,34.2689365,-118.4863962,264.22499963968994,35.44606,0.1,134.36847,1638905562999
Fix,GT,34.2687142,-118.4861208,264.32599978113177,35.29205,0.1,133.98389,1638905563999
Fix,GT,34.268494,-118.4858452,264.3389999693036,35.16745,0.1,133.89233,1638905564999
Fix,GT,34.2682748,-118.4855702,264.29600017046926,35.05358,0.1,133.73071,1638905565999
Fix,GT,34.2680596,-118.4852923,264.2070004117489,34.923576,0.1,132.01782,1638905566999
Fix,GT,34.2678541,-118.4850058,264.3399976727366,34.78852,0.1,129.522,1638905567999
Fix,GT,34.267658,-118.4847116,264.14100110417604,34.69774,0.1,127.753174,1638905568999
Fix,GT,34.2674708,-118.4844097,263.8970028027892,34.70143,0.1,125.1828,1638905569999
Fix,GT,34.2672952,-118.4840973,263.65700173068046,34.76279,0.1,122.970276,1638905570999
Fix,GT,34.26713,-118.4837762,263.5980004339218,34.819977,0.1,120.70587,1638905571999
Fix,GT,34.2669731,-118.4834482,263.44700080609323,34.90805,0.1,118.894135,1638905572999
Fix,GT,34.2668261,-118.4831128,263.35500042724607,34.916073,0.1,116.54849,1638905573999
Fix,GT,34.2666902,-118.4827709,263.25400083684923,34.88102,0.1,114.55002,1638905574999
Fix,GT,34.2665641,-118.482424,263.20500006765127,34.84958,0.1,112.54364,1638905575999
Fix,GT,34.2664482,-118.4820721,263.14400014209747,34.884937,0.1,110.2977,1638905576999
Fix,GT,34.2663452,-118.4817136,262.9250002231598,34.946514,0.1,107.66849,1638905577999
Fix,GT,34.2662548,-118.4813501,262.828001167655,34.941574,0.1,105.614716,1638905578999
Fix,GT,34.2661751,-118.4809832,262.7200009734631,34.90168,0.1,103.45526,1638905579999
Fix,GT,34.2661076,-118.4806131,262.6160005912185,34.843075,0.1,101.1958,1638905580999
Fix,GT,34.2660516,-118.4802419,262.6170016692877,34.642822,0.1,99.25461,1638905581999
Fix,GT,34.2660069,-118.4798704,262.3660045597553,34.52649,0.1,97.173004,1638905582999
Fix,GT,34.2659734,-118.4794979,262.2340003781319,34.46833,0.1,95.122375,1638905583999
Fix,GT,34.2659508,-118.4791241,262.1290022524,34.584183,0.1,93.06131,1638905584999
Fix,GT,34.2659391,-118.4787478,261.9030018228293,34.736862,0.1,90.9494,1638905585999
Fix,GT,34.2659364,-118.4783698,261.6810017793178,34.886448,0.1,90.26953,1638905586999
Fix,GT,34.2659338,-118.4779905,261.5390029160976,34.952488,0.1,90.43536,1638905587999
Fix,GT,34.2659307,-118.477611,261.279002338171,34.96763,0.1,90.49756,1638905588999
Fix,GT,34.2659279,-118.4772311,261.1519995410442,34.991966,0.1,90.3219,1638905589999
Fix,GT,34.2659256,-118.4768509,260.9290022434592,35.04902,0.1,90.32364,1638905590999
Fix,GT,34.2659234,-118.4764701,260.6530033996105,35.097897,0.1,90.28177,1638905591999
Fix,GT,34.2659213,-118.4760889,260.33201085865494,35.116512,0.1,90.28662,1638905592999
Fix,GT,34.2659193,-118.4757069,259.7250117897988,35.26784,0.1,90.393524,1638905593999
Fix,GT,34.2659165,-118.4753228,259.01300855445857,35.48168,0.1,90.45355,1638905594999
Fix,GT,34.2659141,-118.4749368,258.3040102558136,35.615578,0.1,90.23575,1638905595999
Fix,GT,34.2659123,-118.4745495,257.5280114824176,35.73164,0.1,90.280914,1638905596999
Fix,GT,34.26591,-118.4741609,256.6000137429834,35.850002,0.1,90.3631,1638905597999
Fix,GT,34.2659072,-118.4737711,255.61001479184628,35.938408,0.1,90.44296,1638905598999
Fix,GT,34.2659043,-118.47338,254.5790155836344,36.12249,0.1,90.45953,1638905599999
Fix,GT,34.2659009,-118.4729868,253.7350110780001,36.297535,0.1,90.565765,1638905600999
Fix,GT,34.2658971,-118.4725925,253.09600821983813,36.31265,0.1,90.40503,1638905601999
Fix,GT,34.2658946,-118.4721984,252.6790057077408,36.27425,0.1,90.408844,1638905602999
Fix,GT,34.2658921,-118.471805,252.48300064778329,36.200962,0.1,90.34512,1638905603999
Fix,GT,34.2658897,-118.4714123,252.5169975207448,36.134914,0.1,90.32422,1638905604999
Fix,GT,34.2658876,-118.4710206,252.78399392962456,36.028557,0.1,90.24869,1638905605999
Fix,GT,34.2658856,-118.4706301,253.2649900228977,35.888916,0.1,90.33841,1638905606999
Fix,GT,34.265883,-118.4702414,253.964985796094,35.69354,0.1,90.46329,1638905607999
Fix,GT,34.2658796,-118.4698551,254.87298266661165,35.467495,0.1,90.60779,1638905608999
Fix,GT,34.2658752,-118.4694713,255.8579832475185,35.249233,0.1,90.64606,1638905609999
Fix,GT,34.2658722,-118.4690898,256.79398386758567,34.99725,0.1,90.38931,1638905610999
Fix,GT,34.2658698,-118.4687113,257.6979826278686,34.73363,0.1,90.253265,1638905611999
Fix,GT,34.2658681,-118.4683353,258.5329836659432,34.53563,0.1,90.288605,1638905612999
Fix,GT,34.2658656,-118.4679612,259.3029857282638,34.371387,0.1,90.45032,1638905613999
Fix,GT,34.2658623,-118.4675891,260.1359811044336,34.16528,0.1,90.50992,1638905614999
Fix,GT,34.2658595,-118.4672189,260.6729892813563,34.037125,0.1,90.369385,1638905615999
Fix,GT,34.2658574,-118.46685,261.04599259924885,33.92686,0.1,90.23712,1638905616999
Fix,GT,34.2658557,-118.4664822,261.4369954025745,33.831383,0.1,90.164856,1638905617999
Fix,GT,34.2658546,-118.4661153,261.71199554145335,33.745266,0.1,90.17413,1638905618999
Fix,GT,34.2658529,-118.4657492,261.8529950386882,33.680744,0.1,90.30243,1638905619999
Fix,GT,34.2658503,-118.465384,262.12899277144675,33.60267,0.1,90.49844,1638905620999
Fix,GT,34.2658475,-118.4650195,262.33999688661095,33.52114,0.1,90.387726,1638905621999
Fix,GT,34.265845,-118.4646575,262.58899729061125,33.149277,0.1,90.41275,1638905622999
Fix,GT,34.2658422,-118.4642999,262.8279945011139,32.776527,0.1,90.47092,1638905623999
Fix,GT,34.2658399,-118.4639445,263.03499511837964,32.72757,0.1,90.209564,1638905624999
Fix,GT,34.2658386,-118.4635888,263.2139952828884,32.781334,0.1,90.168945,1638905625999
Fix,GT,34.2658371,-118.4632327,263.43999689048525,32.81758,0.1,90.249115,1638905626999
Fix,GT,34.2658353,-118.4628762,263.6369949068427,32.852722,0.1,90.305695,1638905627999
Fix,GT,34.265833,-118.4625193,263.8569943436384,32.86004,0.1,90.35184,1638905628999
Fix,GT,34.2658307,-118.4621634,264.073994017601,32.70923,0.1,90.45099,1638905629999
Fix,GT,34.2658278,-118.4618096,264.3259967153669,32.413567,0.1,90.500244,1638905630999
Fix,GT,34.2658247,-118.4614606,264.5259935999513,31.879375,0.1,90.3743,1638905631999
Fix,GT,34.2658237,-118.4611167,264.69899533188345,31.47405,0.1,89.99405,1638905632999
Fix,GT,34.2658225,-118.4607771,264.9319950079918,31.148233,0.1,90.47577,1638905633999
Fix,GT,34.2658193,-118.4604382,265.16099441242216,31.534761,0.1,90.44675,1638905634999
Fix,GT,34.2658171,-118.4600907,265.3109938007593,32.352386,0.1,90.52496,1638905635999
Fix,GT,34.2658132,-118.4597392,265.5469964526892,32.281815,0.1,90.804565,1638905636999
Fix,GT,34.2658081,-118.4593892,265.5690016576052,32.197205,0.1,90.98474,1638905637999
Fix,GT,34.2658021,-118.4590403,265.5270005592108,32.04726,0.1,91.423645,1638905638999
Fix,GT,34.2657925,-118.4586943,265.465001131773,31.726072,0.1,92.082825,1638905639999
Fix,GT,34.2657825,-118.4583518,265.33500400876994,31.389095,0.1,91.64349,1638905640999
Fix,GT,34.2657755,-118.4580129,265.1750046348572,31.078625,0.1,91.1586,1638905641999
Fix,GT,34.2657699,-118.4576769,265.01000468826294,30.83073,0.1,90.95294,1638905642999
Fix,GT,34.2657666,-118.4573435,264.8530038533807,30.662436,0.1,90.466156,1638905643999
Fix,GT,34.2657637,-118.4570089,264.7030026977658,31.116356,0.1,90.42749,1638905644999
Fix,GT,34.2657613,-118.4566715,264.5410051535368,30.9643,0.1,90.46286,1638905645999
Fix,GT,34.2657575,-118.4563372,264.3700070492029,30.612598,0.1,91.249725,1638905646999
Fix,GT,34.2657481,-118.4560073,264.1930046473741,30.193817,0.1,92.38397,1638905647999
Fix,GT,34.2657369,-118.4556817,264.03000563800333,29.839296,0.1,92.124756,1638905648999
Fix,GT,34.2657272,-118.4553588,263.8730037987232,29.803972,0.1,91.80295,1638905649999
Fix,GT,34.2657201,-118.4550332,263.87199968010185,30.138556,0.1,91.044556,1638905650999
Fix,GT,34.2657153,-118.4547067,263.995998383522,30.03213,0.1,90.83859,1638905651999
Fix,GT,34.2657111,-118.4543813,264.2659846482277,29.837456,0.1,90.90677,1638905652999
Fix,GT,34.2657043,-118.4540595,264.5459930706024,29.455471,0.1,92.01831,1638905653999
Fix,GT,34.2656925,-118.453742,264.6839896655679,29.087955,0.1,92.64993,1638905654999
Fix,GT,34.2656819,-118.4534286,264.938992592454,28.693012,0.1,91.72824,1638905655999
Fix,GT,34.2656763,-118.4531203,265.1499931979179,27.96654,0.1,90.63852,1638905656999
Fix,GT,34.2656734,-118.4528238,265.3999914139509,26.636866,0.1,90.530334,1638905657999
Fix,GT,34.2656713,-118.452543,265.6579927176237,25.034933,0.1,90.43768,1638905658999
Fix,GT,34.2656692,-118.4522775,265.86699334663155,23.982038,0.1,90.44052,1638905659999
Fix,GT,34.2656681,-118.4520221,266.0849922226667,22.96912,0.1,90.08911,1638905660999
Fix,GT,34.2656678,-118.4517748,266.27399214923383,22.658115,0.1,89.54956,1638905661999
Fix,GT,34.2656719,-118.4515273,266.4759924347401,23.02363,0.1,88.2984,1638905662999
Fix,GT,34.2656789,-118.4512728,266.6989905467034,23.97219,0.1,87.81293,1638905663999
Fix,GT,34.2656856,-118.4510076,266.9359915593266,24.785395,0.1,88.5788,1638905664999
Fix,GT,34.2656896,-118.4507363,267.1579944451451,25.228012,0.1,89.04532,1638905665999
Fix,GT,34.2656941,-118.4504594,267.31799327409266,25.797884,0.1,88.04678,1638905666999
